{"last_updated":1769704238,"ttl":60,"version":"2.2","data":{"bikes":[{"bike_id":"69a8705c-622c-4687-befc-0e95f406c55e","system_id":"levelo_inurba_marseille","lat":43.22572,"lon":5.4162,"is_reserved":false,"is_disabled":false,"rental_uris":{"android":"levelo://app?vid=69a8705c-622c-4687-befc-0e95f406c55e","ios":"levelo://app?vid=69a8705c-622c-4687-befc-0e95f406c55e"},"vehicle_type_id":"4","last_reported":1769704238,"current_range_meters":2800,"station_id":"st_d2o4gvlbi1j2169b742g","pricing_plan_id":"cebpf4jnsgd1na2vs0mg"},{"bike_id":"c715ac90-27ae-4f83-8224-afc16f96ddc3","system_id":"levelo_inurba_marseille","lat":43.25501,"lon":5.37651,"is_reserved":false,"is_disabled":false,"rental_uris":{"android":"levelo://app?vid=c715ac90-27ae-4f83-8224-afc16f96ddc3","ios":"levelo://app?vid=c715ac90-27ae-4f83-8224-afc16f96ddc3"},"vehicle_type_id":"4","last_reported":1769704238,"current_range_meters":2800,"station_id":"ce4bhh12rcd13ifvqff0","pricing_plan_id":"cebpf4jnsgd1na2vs0mg"},{"bike_id":"af3af297-e969-4701-9c47-9f71b1ddd644","system_id":"levelo_inurba_marseille","lat":43.29718,"lon":5.37405,"is_reserved":false,"is_disabled":false,"rental_uris":{"android":"levelo://app?vid=af3af297-e969-4701-9c47-9f71b1ddd644","ios":"levelo://app?vid=af3af297-e969-4701-9c47-9f71b1ddd644"},"vehicle_type_id":"4","last_reported":1769704238,"current_range_meters":2800,"station_id":"","pricing_plan_id":"cebpf4jnsgd1na2vs0mg"},{"bike_id":"06f20d13-4a35-4de7-947c-c3616e0599bc","system_id":"levelo_inurba_marseille","lat":43.27569,"lon":5.38427,"is_reserved":false,"is_disabled":false,"rental_uris":{"android":"levelo://app?vid=06f20d13-4a35-4de7-947c-c3616e0599bc","ios":"levelo://app?vid=06f20d13-4a35-4de7-947c-c3616e0599bc"},"vehicle_type_id":"4","last_reported":1769704238,"current_range_meters":2800,"station_id":"ce4bhh92rcd13ifvqfi0","pricing_plan_id":"cebpf4jnsgd1na2vs0mg"},{"bike_id":"4bc51199-a3ee-4ecb-9580-99a8f9dac78b","system_id":"levelo_inurba_marseille","lat":43.31347,"lon":5.36711,"is_reserved":false,"is_disabled":false,"rental_uris":{"android":"levelo://app?vid=4bc51199-a3ee-4ecb-9580-99a8f9dac78b","ios":"levelo://app?vid=4bc51199-a3ee-4ecb-9580-99a8f9dac78b"},"vehicle_type_id":"4","last_reported":1769704238,"current_range_meters":3200,"station_id":"ce4bgr92rcd13ifvqc6g","pricing_plan_id":"cebpf4jnsgd1na2vs0mg"},{"bike_id":"3f659a9e-22cf-4d2c-b5b4-44e15d4415d9","system_id":"levelo_inurba_marseille","lat":43.31868,"lon":5.40018,"is_reserved":false,"is_disabled":false,"rental_uris":{"android":"levelo://app?vid=3f659a9e-22cf-4d2c-b5b4-44e15d4415d9","ios":"levelo://app?vid=3f659a9e-22cf-4d2c-b5b4-44e15d4415d9"},"vehicle_type_id":"4","last_reported":1769704238,"current_range_meters":3200,"station_id":"","pricing_plan_id":"cebpf4jnsgd1na2vs0mg"},{"bike_id":"3e6599b3-80f5-4cb4-a947-9865a5671465","system_id":"levelo_inurba_marseille","lat":43.27658,"lon":5.36018,"is_reserved":false,"is_disabled":false,"rental_uris":{"android":"levelo://app?vid=3e6599b3-80f5-4cb4-a947-9865a5671465","ios":"levelo://app?vid=3e6599b3-80f5-4cb4-a947-9865a5671465"},"vehicle_type_id":"4","last_reported":1769704238,"current_range_meters":3200,"station_id":"","pricing_plan_id":"cebpf4jnsgd1na2vs0mg"},{"bike_id":"0393f1bf-344f-45c8-9042-27b39d04c542","system_id":"levelo_inurba_marseille","lat":43.29044,"lon":5.37701,"is_reserved":false,"is_disabled":false,"rental_uris":{"android":"levelo://app?vid=0393f1bf-344f-45c8-9042-27b39d04c542","ios":"levelo://app?vid=0393f1bf-344f-45c8-9042-27b39d04c542"},"vehicle_type_id":"4","last_reported":1769704238,"current_range_meters":3200,"station_id":"","pricing_plan_id":"cebpf4jnsgd1na2vs0mg"},{"bike_id":"0fde271f-4aeb-4fa2-a0cf-ec1af53757b2","system_id":"levelo_inurba_marseille","lat":43.28411,"lon":5.34986,"is_reserved":false,"is_disabled":false,"rental_uris":{"android":"levelo://app?vid=0fde271f-4aeb-4fa2-a0cf-ec1af53757b2","ios":"levelo://app?vid=0fde271f-4aeb-4fa2-a0cf-ec1af53757b2"},"vehicle_type_id":"4","last_reported":1769704238,"current_range_meters":3200,"station_id":"ce4bhbh2rcd13ifvqepg","pricing_plan_id":"cebpf4jnsgd1na2vs0mg"},{"bike_id":"94d2b4d2-9c8f-4d0c-bec5-d992e55da0c8","system_id":"levelo_inurba_marseille","lat":43.28469,"lon":5.35888,"is_reserved":false,"is_disabled":false,"rental_uris":{"android":"levelo://app?vid=94d2b4d2-9c8f-4d0c-bec5-d992e55da0c8","ios":"levelo://app?vid=94d2b4d2-9c8f-4d0c-bec5-d992e55da0c8"},"vehicle_type_id":"4","last_reported":1769704238,"current_range_meters":3200,"station_id":"ce4bhah2rcd13ifvqei0","pricing_plan_id":"cebpf4jnsgd1na2vs0mg"},{"bike_id":"9328d8d0-a319-4fb2-9d4a-db2606a87040","system_id":"levelo_inurba_marseille","lat":43.2417,"lon":5.36408,"is_reserved":false,"is_disabled":false,"rental_uris":{"android":"levelo://app?vid=9328d8d0-a319-4fb2-9d4a-db2606a87040","ios":"levelo://app?vid=9328d8d0-a319-4fb2-9d4a-db2606a87040"},"vehicle_type_id":"4","last_reported":1769704238,"current_range_meters":3200,"station_id":"cpo36qri1sfpv3e86is0","pricing_plan_id":"cebpf4jnsgd1na2vs0mg"},{"bike_id":"9618079e-2ff2-4c22-ba09-0e64f5a7d76f","system_id":"levelo_inurba_marseille","lat":43.31193,"lon":5.36868,"is_reserved":false,"is_disabled":false,"rental_uris":{"android":"levelo://app?vid=9618079e-2ff2-4c22-ba09-0e64f5a7d76f","ios":"levelo://app?vid=9618079e-2ff2-4c22-ba09-0e64f5a7d76f"},"vehicle_type_id":"4","last_reported":1769704238,"current_range_meters":3200,"station_id":"ce4bgl92rcd13ifvqbq0","pricing_plan_id":"cebpf4jnsgd1na2vs0mg"},{"bike_id":"41c91ad2-73b9-4699-b23d-1b5a65edd284","system_id":"levelo_inurba_marseille","lat":43.33545,"lon":5.37451,"is_reserved":false,"is_disabled":false,"rental_uris":{"android":"levelo://app?vid=41c91ad2-73b9-4699-b23d-1b5a65edd284","ios":"levelo://app?vid=41c91ad2-73b9-4699-b23d-1b5a65edd284"},"vehicle_type_id":"4","last_reported":1769704238,"current_range_meters":3200,"station_id":"st_d46tts09ee8s73dlu43g","pricing_plan_id":"cebpf4jnsgd1na2vs0mg"},{"bike_id":"e160f850-10c3-451c-b682-8b592e006c9f","system_id":"levelo_inurba_marseille","lat":43.26553,"lon":5.37284,"is_reserved":false,"is_disabled":false,"rental_uris":{"android":"levelo://app?vid=e160f850-10c3-451c-b682-8b592e006c9f","ios":"levelo://app?vid=e160f850-10c3-451c-b682-8b592e006c9f"},"vehicle_type_id":"4","last_reported":1769704238,"current_range_meters":3200,"station_id":"ce4bhg12rcd13ifvqf70","pricing_plan_id":"cebpf4jnsgd1na2vs0mg"},{"bike_id":"5db037fe-3537-4881-a26d-8c290cdead0b","system_id":"levelo_inurba_marseille","lat":43.295568,"lon":5.422925,"is_reserved":false,"is_disabled":false,"rental_uris":{"android":"levelo://app?vid=5db037fe-3537-4881-a26d-8c290cdead0b","ios":"levelo://app?vid=5db037fe-3537-4881-a26d-8c290cdead0b"},"vehicle_type_id":"4","last_reported":1769704238,"current_range_meters":3200,"station_id":"ce4bhph2rcd13ifvqhdg","pricing_plan_id":"cebpf4jnsgd1na2vs0mg"},{"bike_id":"b45c8d2c-8d88-4cef-8b61-a19c2da1c61e","system_id":"levelo_inurba_marseille","lat":43.33545,"lon":5.3747,"is_reserved":false,"is_disabled":false,"rental_uris":{"android":"levelo://app?vid=b45c8d2c-8d88-4cef-8b61-a19c2da1c61e","ios":"levelo://app?vid=b45c8d2c-8d88-4cef-8b61-a19c2da1c61e"},"vehicle_type_id":"4","last_reported":1769704238,"current_range_meters":3600,"station_id":"st_d46tts09ee8s73dlu43g","pricing_plan_id":"cebpf4jnsgd1na2vs0mg"},{"bike_id":"db53255f-8972-47d0-b519-f5e6bd233c69","system_id":"levelo_inurba_marseille","lat":43.281495,"lon":5.42628,"is_reserved":false,"is_disabled":false,"rental_uris":{"android":"levelo://app?vid=db53255f-8972-47d0-b519-f5e6bd233c69","ios":"levelo://app?vid=db53255f-8972-47d0-b519-f5e6bd233c69"},"vehicle_type_id":"4","last_reported":1769704238,"current_range_meters":3600,"station_id":"ce4bhnh2rcd13ifvqgug","pricing_plan_id":"cebpf4jnsgd1na2vs0mg"},{"bike_id":"5a65b831-a646-4c79-9bf6-5a3e738cf69f","system_id":"levelo_inurba_marseille","lat":43.31359,"lon":5.38498,"is_reserved":false,"is_disabled":false,"rental_uris":{"android":"levelo://app?vid=5a65b831-a646-4c79-9bf6-5a3e738cf69f","ios":"levelo://app?vid=5a65b831-a646-4c79-9bf6-5a3e738cf69f"},"vehicle_type_id":"4","last_reported":1769704238,"current_range_meters":3600,"station_id":"ce4bgt92rcd13ifvqcf0","pricing_plan_id":"cebpf4jnsgd1na2vs0mg"},{"bike_id":"8460f622-e151-4b83-83b8-cce38d202fe1","system_id":"levelo_inurba_marseille","lat":43.27994,"lon":5.3875,"is_reserved":false,"is_disabled":false,"rental_uris":{"android":"levelo://app?vid=8460f622-e151-4b83-83b8-cce38d202fe1","ios":"levelo://app?vid=8460f622-e151-4b83-83b8-cce38d202fe1"},"vehicle_type_id":"4","last_reported":1769704238,"current_range_meters":3600,"station_id":"ce4bhg12rcd13ifvqf80","pricing_plan_id":"cebpf4jnsgd1na2vs0mg"},{"bike_id":"1e1f4bd0-63c4-4035-8f1f-9e0c68e79a74","system_id":"levelo_inurba_marseille","lat":43.25821,"lon":5.39431,"is_reserved":false,"is_disabled":false,"rental_uris":{"android":"levelo://app?vid=1e1f4bd0-63c4-4035-8f1f-9e0c68e79a74","ios":"levelo://app?vid=1e1f4bd0-63c4-4035-8f1f-9e0c68e79a74"},"vehicle_type_id":"4","last_reported":1769704238,"current_range_meters":3600,"station_id":"ce4bhip2rcd13ifvqft0","pricing_plan_id":"cebpf4jnsgd1na2vs0mg"},{"bike_id":"891291bf-2508-4614-98b9-c57a30a99b04","system_id":"levelo_inurba_marseille","lat":43.22929,"lon":5.35376,"is_reserved":false,"is_disabled":false,"rental_uris":{"android":"levelo://app?vid=891291bf-2508-4614-98b9-c57a30a99b04","ios":"levelo://app?vid=891291bf-2508-4614-98b9-c57a30a99b04"},"vehicle_type_id":"4","last_reported":1769704238,"current_range_meters":3600,"station_id":"cpo3532slgdg3j2ikp40","pricing_plan_id":"cebpf4jnsgd1na2vs0mg"},{"bike_id":"655a6cf1-e351-40fe-96ce-ac2499d05016","system_id":"levelo_inurba_marseille","lat":43.21194,"lon":5.3507,"is_reserved":false,"is_disabled":false,"rental_uris":{"android":"levelo://app?vid=655a6cf1-e351-40fe-96ce-ac2499d05016","ios":"levelo://app?vid=655a6cf1-e351-40fe-96ce-ac2499d05016"},"vehicle_type_id":"4","last_reported":1769704238,"current_range_meters":3600,"station_id":"st_cvj6sg6p6f1abm77japg","pricing_plan_id":"cebpf4jnsgd1na2vs0mg"},{"bike_id":"a255e6f9-5488-403d-8cda-7ff1f6c26e62","system_id":"levelo_inurba_marseille","lat":43.304294,"lon":5.388888,"is_reserved":false,"is_disabled":false,"rental_uris":{"android":"levelo://app?vid=a255e6f9-5488-403d-8cda-7ff1f6c26e62","ios":"levelo://app?vid=a255e6f9-5488-403d-8cda-7ff1f6c26e62"},"vehicle_type_id":"4","last_reported":1769704238,"current_range_meters":3600,"station_id":"ce4bgk12rcd13ifvqbi0","pricing_plan_id":"cebpf4jnsgd1na2vs0mg"},{"bike_id":"ad760db1-c08e-4218-880f-506e66682432","system_id":"levelo_inurba_marseille","lat":43.29251,"lon":5.37931,"is_reserved":false,"is_disabled":false,"rental_uris":{"android":"levelo://app?vid=ad760db1-c08e-4218-880f-506e66682432","ios":"levelo://app?vid=ad760db1-c08e-4218-880f-506e66682432"},"vehicle_type_id":"4","last_reported":1769704238,"current_range_meters":4000,"station_id":"","pricing_plan_id":"cebpf4jnsgd1na2vs0mg"},{"bike_id":"7c50c849-8c46-432e-a3db-a93ff7567019","system_id":"levelo_inurba_marseille","lat":43.25582,"lon":5.38233,"is_reserved":false,"is_disabled":false,"rental_uris":{"android":"levelo://app?vid=7c50c849-8c46-432e-a3db-a93ff7567019","ios":"levelo://app?vid=7c50c849-8c46-432e-a3db-a93ff7567019"},"vehicle_type_id":"4","last_reported":1769704238,"current_range_meters":4000,"station_id":"ce4bhih2rcd13ifvqfs0","pricing_plan_id":"cebpf4jnsgd1na2vs0mg"},{"bike_id":"8b6f74d6-6a04-44c0-ad91-33076c2c042d","system_id":"levelo_inurba_marseille","lat":43.30778,"lon":5.37658,"is_reserved":false,"is_disabled":false,"rental_uris":{"android":"levelo://app?vid=8b6f74d6-6a04-44c0-ad91-33076c2c042d","ios":"levelo://app?vid=8b6f74d6-6a04-44c0-ad91-33076c2c042d"},"vehicle_type_id":"4","last_reported":1769704238,"current_range_meters":4000,"station_id":"ce4bgv92rcd13ifvqcq0","pricing_plan_id":"cebpf4jnsgd1na2vs0mg"},{"bike_id":"01eff4d6-445e-467a-ad8e-fbe9c1187724","system_id":"levelo_inurba_marseille","lat":43.26959,"lon":5.38615,"is_reserved":false,"is_disabled":false,"rental_uris":{"android":"levelo://app?vid=01eff4d6-445e-467a-ad8e-fbe9c1187724","ios":"levelo://app?vid=01eff4d6-445e-467a-ad8e-fbe9c1187724"},"vehicle_type_id":"4","last_reported":1769704238,"current_range_meters":4000,"station_id":"ce4bhh92rcd13ifvqfh0","pricing_plan_id":"cebpf4jnsgd1na2vs0mg"},{"bike_id":"3eec611c-d8cb-4b54-9748-ae62ab9ddb70","system_id":"levelo_inurba_marseille","lat":43.22932,"lon":5.35376,"is_reserved":false,"is_disabled":false,"rental_uris":{"android":"levelo://app?vid=3eec611c-d8cb-4b54-9748-ae62ab9ddb70","ios":"levelo://app?vid=3eec611c-d8cb-4b54-9748-ae62ab9ddb70"},"vehicle_type_id":"4","last_reported":1769704238,"current_range_meters":4000,"station_id":"cpo3532slgdg3j2ikp40","pricing_plan_id":"cebpf4jnsgd1na2vs0mg"},{"bike_id":"adcf69d8-1927-438e-b914-5f915ba575b2","system_id":"levelo_inurba_marseille","lat":43.25586,"lon":5.38216,"is_reserved":false,"is_disabled":false,"rental_uris":{"android":"levelo://app?vid=adcf69d8-1927-438e-b914-5f915ba575b2","ios":"levelo://app?vid=adcf69d8-1927-438e-b914-5f915ba575b2"},"vehicle_type_id":"4","last_reported":1769704238,"current_range_meters":4000,"station_id":"ce4bhih2rcd13ifvqfs0","pricing_plan_id":"cebpf4jnsgd1na2vs0mg"},{"bike_id":"8b65d1ea-0b7d-4a83-b9c8-a48b868b1ac6","system_id":"levelo_inurba_marseille","lat":43.28659,"lon":5.36393,"is_reserved":false,"is_disabled":false,"rental_uris":{"android":"levelo://app?vid=8b65d1ea-0b7d-4a83-b9c8-a48b868b1ac6","ios":"levelo://app?vid=8b65d1ea-0b7d-4a83-b9c8-a48b868b1ac6"},"vehicle_type_id":"4","last_reported":1769704238,"current_range_meters":4000,"station_id":"ce4bhah2rcd13ifvqej0","pricing_plan_id":"cebpf4jnsgd1na2vs0mg"},{"bike_id":"a8b28865-75bf-4bd9-91e8-4cba7df461c0","system_id":"levelo_inurba_marseille","lat":43.290203,"lon":5.386427,"is_reserved":false,"is_disabled":false,"rental_uris":{"android":"levelo://app?vid=a8b28865-75bf-4bd9-91e8-4cba7df461c0","ios":"levelo://app?vid=a8b28865-75bf-4bd9-91e8-4cba7df461c0"},"vehicle_type_id":"4","last_reported":1769704238,"current_range_meters":4400,"station_id":"ce4bh4p2rcd13ifvqe0g","pricing_plan_id":"cebpf4jnsgd1na2vs0mg"},{"bike_id":"399b866f-7a8e-43c1-914f-991a9a18f566","system_id":"levelo_inurba_marseille","lat":43.307693,"lon":5.391828,"is_reserved":false,"is_disabled":false,"rental_uris":{"android":"levelo://app?vid=399b866f-7a8e-43c1-914f-991a9a18f566","ios":"levelo://app?vid=399b866f-7a8e-43c1-914f-991a9a18f566"},"vehicle_type_id":"4","last_reported":1769704238,"current_range_meters":4400,"station_id":"ce4bh192rcd13ifvqdd0","pricing_plan_id":"cebpf4jnsgd1na2vs0mg"},{"bike_id":"2ce420f7-8d92-4b24-bd16-786d846f4c0d","system_id":"levelo_inurba_marseille","lat":43.23792,"lon":5.36627,"is_reserved":false,"is_disabled":false,"rental_uris":{"android":"levelo://app?vid=2ce420f7-8d92-4b24-bd16-786d846f4c0d","ios":"levelo://app?vid=2ce420f7-8d92-4b24-bd16-786d846f4c0d"},"vehicle_type_id":"4","last_reported":1769704238,"current_range_meters":4400,"station_id":"st_d3nk18o9ro0c73en2l3g","pricing_plan_id":"cebpf4jnsgd1na2vs0mg"},{"bike_id":"d1bb4cba-cd88-4d47-97f0-3f4bc8c8c8b2","system_id":"levelo_inurba_marseille","lat":43.311702,"lon":5.387156,"is_reserved":false,"is_disabled":false,"rental_uris":{"android":"levelo://app?vid=d1bb4cba-cd88-4d47-97f0-3f4bc8c8c8b2","ios":"levelo://app?vid=d1bb4cba-cd88-4d47-97f0-3f4bc8c8c8b2"},"vehicle_type_id":"4","last_reported":1769704238,"current_range_meters":4400,"station_id":"ce4bgv12rcd13ifvqcp0","pricing_plan_id":"cebpf4jnsgd1na2vs0mg"},{"bike_id":"64520f37-c3ce-4199-bc9a-fe4b14a1118c","system_id":"levelo_inurba_marseille","lat":43.28273,"lon":5.35056,"is_reserved":false,"is_disabled":false,"rental_uris":{"android":"levelo://app?vid=64520f37-c3ce-4199-bc9a-fe4b14a1118c","ios":"levelo://app?vid=64520f37-c3ce-4199-bc9a-fe4b14a1118c"},"vehicle_type_id":"4","last_reported":1769704238,"current_range_meters":4400,"station_id":"ce4bhbp2rcd13ifvqerg","pricing_plan_id":"cebpf4jnsgd1na2vs0mg"},{"bike_id":"65622596-03a1-4974-be48-8773b3d49d16","system_id":"levelo_inurba_marseille","lat":43.2558,"lon":5.3824,"is_reserved":false,"is_disabled":false,"rental_uris":{"android":"levelo://app?vid=65622596-03a1-4974-be48-8773b3d49d16","ios":"levelo://app?vid=65622596-03a1-4974-be48-8773b3d49d16"},"vehicle_type_id":"4","last_reported":1769704238,"current_range_meters":4400,"station_id":"ce4bhih2rcd13ifvqfs0","pricing_plan_id":"cebpf4jnsgd1na2vs0mg"},{"bike_id":"cec66a05-26cf-4271-b39f-d60a468d3a29","system_id":"levelo_inurba_marseille","lat":43.26195,"lon":5.37442,"is_reserved":false,"is_disabled":false,"rental_uris":{"android":"levelo://app?vid=cec66a05-26cf-4271-b39f-d60a468d3a29","ios":"levelo://app?vid=cec66a05-26cf-4271-b39f-d60a468d3a29"},"vehicle_type_id":"4","last_reported":1769704238,"current_range_meters":4400,"station_id":"ce4bhgp2rcd13ifvqfc0","pricing_plan_id":"cebpf4jnsgd1na2vs0mg"},{"bike_id":"4ca4f6bd-e228-45f4-840f-4090aba6d20d","system_id":"levelo_inurba_marseille","lat":43.24403,"lon":5.37063,"is_reserved":false,"is_disabled":true,"rental_uris":{"android":"levelo://app?vid=4ca4f6bd-e228-45f4-840f-4090aba6d20d","ios":"levelo://app?vid=4ca4f6bd-e228-45f4-840f-4090aba6d20d"},"vehicle_type_id":"4","last_reported":1769704238,"current_range_meters":4400,"station_id":"ce4bhhh2rcd13ifvqfk0","pricing_plan_id":"cebpf4jnsgd1na2vs0mg"},{"bike_id":"0374a778-3695-4316-afff-771d981ac4cd","system_id":"levelo_inurba_marseille","lat":43.31676,"lon":5.37535,"is_reserved":false,"is_disabled":false,"rental_uris":{"android":"levelo://app?vid=0374a778-3695-4316-afff-771d981ac4cd","ios":"levelo://app?vid=0374a778-3695-4316-afff-771d981ac4cd"},"vehicle_type_id":"4","last_reported":1769704238,"current_range_meters":4400,"station_id":"","pricing_plan_id":"cebpf4jnsgd1na2vs0mg"},{"bike_id":"ec92a3d7-0aaf-40cf-9513-2fb7d35cc0c4","system_id":"levelo_inurba_marseille","lat":43.23047,"lon":5.35495,"is_reserved":false,"is_disabled":false,"rental_uris":{"android":"levelo://app?vid=ec92a3d7-0aaf-40cf-9513-2fb7d35cc0c4","ios":"levelo://app?vid=ec92a3d7-0aaf-40cf-9513-2fb7d35cc0c4"},"vehicle_type_id":"4","last_reported":1769704238,"current_range_meters":4400,"station_id":"cpo3342slgdg3j2ifvpg","pricing_plan_id":"cebpf4jnsgd1na2vs0mg"},{"bike_id":"465c0a07-9b2c-463d-a28f-fb29e821c731","system_id":"levelo_inurba_marseille","lat":43.30282,"lon":5.38634,"is_reserved":false,"is_disabled":false,"rental_uris":{"android":"levelo://app?vid=465c0a07-9b2c-463d-a28f-fb29e821c731","ios":"levelo://app?vid=465c0a07-9b2c-463d-a28f-fb29e821c731"},"vehicle_type_id":"4","last_reported":1769704238,"current_range_meters":4400,"station_id":"","pricing_plan_id":"cebpf4jnsgd1na2vs0mg"},{"bike_id":"60145ea6-eb57-48ca-9cd4-95417074f3ce","system_id":"levelo_inurba_marseille","lat":43.30936,"lon":5.40151,"is_reserved":false,"is_disabled":false,"rental_uris":{"android":"levelo://app?vid=60145ea6-eb57-48ca-9cd4-95417074f3ce","ios":"levelo://app?vid=60145ea6-eb57-48ca-9cd4-95417074f3ce"},"vehicle_type_id":"4","last_reported":1769704238,"current_range_meters":4400,"station_id":"ce4bgvp2rcd13ifvqct0","pricing_plan_id":"cebpf4jnsgd1na2vs0mg"},{"bike_id":"96ddcdc4-3d11-47dc-91b3-e1897ae67898","system_id":"levelo_inurba_marseille","lat":43.29538,"lon":5.42328,"is_reserved":false,"is_disabled":false,"rental_uris":{"android":"levelo://app?vid=96ddcdc4-3d11-47dc-91b3-e1897ae67898","ios":"levelo://app?vid=96ddcdc4-3d11-47dc-91b3-e1897ae67898"},"vehicle_type_id":"4","last_reported":1769704238,"current_range_meters":4800,"station_id":"ce4bhph2rcd13ifvqhdg","pricing_plan_id":"cebpf4jnsgd1na2vs0mg"},{"bike_id":"f2e56fcd-53d1-4906-836f-9a276c836675","system_id":"levelo_inurba_marseille","lat":43.26061,"lon":5.39399,"is_reserved":false,"is_disabled":false,"rental_uris":{"android":"levelo://app?vid=f2e56fcd-53d1-4906-836f-9a276c836675","ios":"levelo://app?vid=f2e56fcd-53d1-4906-836f-9a276c836675"},"vehicle_type_id":"4","last_reported":1769704238,"current_range_meters":4800,"station_id":"ce4bhh92rcd13ifvqfj0","pricing_plan_id":"cebpf4jnsgd1na2vs0mg"},{"bike_id":"580f11b0-5e5c-481b-af47-80164a6f5eac","system_id":"levelo_inurba_marseille","lat":43.30587,"lon":5.39356,"is_reserved":false,"is_disabled":false,"rental_uris":{"android":"levelo://app?vid=580f11b0-5e5c-481b-af47-80164a6f5eac","ios":"levelo://app?vid=580f11b0-5e5c-481b-af47-80164a6f5eac"},"vehicle_type_id":"4","last_reported":1769704238,"current_range_meters":4800,"station_id":"ce4bh0p2rcd13ifvqd80","pricing_plan_id":"cebpf4jnsgd1na2vs0mg"},{"bike_id":"60ebce89-9b49-41d8-b1d5-1fdb022bac99","system_id":"levelo_inurba_marseille","lat":43.33748,"lon":5.37483,"is_reserved":false,"is_disabled":false,"rental_uris":{"android":"levelo://app?vid=60ebce89-9b49-41d8-b1d5-1fdb022bac99","ios":"levelo://app?vid=60ebce89-9b49-41d8-b1d5-1fdb022bac99"},"vehicle_type_id":"4","last_reported":1769704238,"current_range_meters":5600,"station_id":"","pricing_plan_id":"cebpf4jnsgd1na2vs0mg"},{"bike_id":"5c329496-a302-4a24-b572-2d0f0057ae2e","system_id":"levelo_inurba_marseille","lat":43.33161,"lon":5.3769,"is_reserved":false,"is_disabled":false,"rental_uris":{"android":"levelo://app?vid=5c329496-a302-4a24-b572-2d0f0057ae2e","ios":"levelo://app?vid=5c329496-a302-4a24-b572-2d0f0057ae2e"},"vehicle_type_id":"4","last_reported":1769704238,"current_range_meters":5600,"station_id":"st_d46cu089ee8s73dldbu0","pricing_plan_id":"cebpf4jnsgd1na2vs0mg"},{"bike_id":"f1ace576-0856-4be3-a2f1-1300bd565d78","system_id":"levelo_inurba_marseille","lat":43.30661,"lon":5.4008,"is_reserved":false,"is_disabled":false,"rental_uris":{"android":"levelo://app?vid=f1ace576-0856-4be3-a2f1-1300bd565d78","ios":"levelo://app?vid=f1ace576-0856-4be3-a2f1-1300bd565d78"},"vehicle_type_id":"4","last_reported":1769704238,"current_range_meters":5600,"station_id":"ce4bh112rcd13ifvqda0","pricing_plan_id":"cebpf4jnsgd1na2vs0mg"},{"bike_id":"703bc4e3-7d6c-4dde-a7fd-72c98ff03600","system_id":"levelo_inurba_marseille","lat":43.2804,"lon":5.36945,"is_reserved":false,"is_disabled":false,"rental_uris":{"android":"levelo://app?vid=703bc4e3-7d6c-4dde-a7fd-72c98ff03600","ios":"levelo://app?vid=703bc4e3-7d6c-4dde-a7fd-72c98ff03600"},"vehicle_type_id":"4","last_reported":1769704238,"current_range_meters":5600,"station_id":"ce4bha12rcd13ifvqef0","pricing_plan_id":"cebpf4jnsgd1na2vs0mg"},{"bike_id":"2091fd8b-82ef-4338-9ed3-42b40b6b35f0","system_id":"levelo_inurba_marseille","lat":43.303785,"lon":5.380565,"is_reserved":false,"is_disabled":false,"rental_uris":{"android":"levelo://app?vid=2091fd8b-82ef-4338-9ed3-42b40b6b35f0","ios":"levelo://app?vid=2091fd8b-82ef-4338-9ed3-42b40b6b35f0"},"vehicle_type_id":"4","last_reported":1769704238,"current_range_meters":5600,"station_id":"","pricing_plan_id":"cebpf4jnsgd1na2vs0mg"},{"bike_id":"2ffa7429-edb7-49cf-82d5-c2040a1dc75a","system_id":"levelo_inurba_marseille","lat":43.29023,"lon":5.38654,"is_reserved":false,"is_disabled":false,"rental_uris":{"android":"levelo://app?vid=2ffa7429-edb7-49cf-82d5-c2040a1dc75a","ios":"levelo://app?vid=2ffa7429-edb7-49cf-82d5-c2040a1dc75a"},"vehicle_type_id":"4","last_reported":1769704238,"current_range_meters":5600,"station_id":"ce4bh4p2rcd13ifvqe0g","pricing_plan_id":"cebpf4jnsgd1na2vs0mg"},{"bike_id":"b96775b7-8954-4f94-990f-968813344c58","system_id":"levelo_inurba_marseille","lat":43.31293,"lon":5.37801,"is_reserved":false,"is_disabled":false,"rental_uris":{"android":"levelo://app?vid=b96775b7-8954-4f94-990f-968813344c58","ios":"levelo://app?vid=b96775b7-8954-4f94-990f-968813344c58"},"vehicle_type_id":"4","last_reported":1769704238,"current_range_meters":5600,"station_id":"","pricing_plan_id":"cebpf4jnsgd1na2vs0mg"},{"bike_id":"b8b2376c-3318-43de-a536-ce73f70ae9f0","system_id":"levelo_inurba_marseille","lat":43.26229,"lon":5.40457,"is_reserved":false,"is_disabled":false,"rental_uris":{"android":"levelo://app?vid=b8b2376c-3318-43de-a536-ce73f70ae9f0","ios":"levelo://app?vid=b8b2376c-3318-43de-a536-ce73f70ae9f0"},"vehicle_type_id":"4","last_reported":1769704238,"current_range_meters":5600,"station_id":"ce4bhmh2rcd13ifvqgmg","pricing_plan_id":"cebpf4jnsgd1na2vs0mg"},{"bike_id":"83d96df5-081e-43ee-952b-92a2b06f6540","system_id":"levelo_inurba_marseille","lat":43.24442,"lon":5.37984,"is_reserved":false,"is_disabled":false,"rental_uris":{"android":"levelo://app?vid=83d96df5-081e-43ee-952b-92a2b06f6540","ios":"levelo://app?vid=83d96df5-081e-43ee-952b-92a2b06f6540"},"vehicle_type_id":"4","last_reported":1769704238,"current_range_meters":5600,"station_id":"","pricing_plan_id":"cebpf4jnsgd1na2vs0mg"},{"bike_id":"f199aad2-9208-428d-9b2c-9b705d3e60f3","system_id":"levelo_inurba_marseille","lat":43.313712,"lon":5.384932,"is_reserved":false,"is_disabled":false,"rental_uris":{"android":"levelo://app?vid=f199aad2-9208-428d-9b2c-9b705d3e60f3","ios":"levelo://app?vid=f199aad2-9208-428d-9b2c-9b705d3e60f3"},"vehicle_type_id":"4","last_reported":1769704238,"current_range_meters":5600,"station_id":"ce4bgt92rcd13ifvqcf0","pricing_plan_id":"cebpf4jnsgd1na2vs0mg"},{"bike_id":"96d41619-daa7-4d0c-a41e-c5bb180a3048","system_id":"levelo_inurba_marseille","lat":43.29633,"lon":5.40597,"is_reserved":false,"is_disabled":false,"rental_uris":{"android":"levelo://app?vid=96d41619-daa7-4d0c-a41e-c5bb180a3048","ios":"levelo://app?vid=96d41619-daa7-4d0c-a41e-c5bb180a3048"},"vehicle_type_id":"4","last_reported":1769704238,"current_range_meters":5600,"station_id":"ce4bh0h2rcd13ifvqd60","pricing_plan_id":"cebpf4jnsgd1na2vs0mg"},{"bike_id":"3ed12c07-0669-4bf4-9ffd-2bbcfc7df0b0","system_id":"levelo_inurba_marseille","lat":43.29277,"lon":5.36843,"is_reserved":false,"is_disabled":false,"rental_uris":{"android":"levelo://app?vid=3ed12c07-0669-4bf4-9ffd-2bbcfc7df0b0","ios":"levelo://app?vid=3ed12c07-0669-4bf4-9ffd-2bbcfc7df0b0"},"vehicle_type_id":"4","last_reported":1769704238,"current_range_meters":6000,"station_id":"ce4bhbp2rcd13ifvqesg","pricing_plan_id":"cebpf4jnsgd1na2vs0mg"},{"bike_id":"abd1a8e7-21cc-43ce-be0d-058b6243a283","system_id":"levelo_inurba_marseille","lat":43.26366,"lon":5.41082,"is_reserved":false,"is_disabled":false,"rental_uris":{"android":"levelo://app?vid=abd1a8e7-21cc-43ce-be0d-058b6243a283","ios":"levelo://app?vid=abd1a8e7-21cc-43ce-be0d-058b6243a283"},"vehicle_type_id":"4","last_reported":1769704238,"current_range_meters":6000,"station_id":"st_d4e5ca6na9uc73bfl5fg","pricing_plan_id":"cebpf4jnsgd1na2vs0mg"},{"bike_id":"2df2670b-f535-4e70-8cab-f36e740466dc","system_id":"levelo_inurba_marseille","lat":43.28868,"lon":5.42503,"is_reserved":false,"is_disabled":false,"rental_uris":{"android":"levelo://app?vid=2df2670b-f535-4e70-8cab-f36e740466dc","ios":"levelo://app?vid=2df2670b-f535-4e70-8cab-f36e740466dc"},"vehicle_type_id":"4","last_reported":1769704238,"current_range_meters":6000,"station_id":"st_d3b462108ojc7389ooeg","pricing_plan_id":"cebpf4jnsgd1na2vs0mg"},{"bike_id":"055987dd-aeb1-49e1-aca7-bde4045b6587","system_id":"levelo_inurba_marseille","lat":43.32478,"lon":5.36563,"is_reserved":false,"is_disabled":false,"rental_uris":{"android":"levelo://app?vid=055987dd-aeb1-49e1-aca7-bde4045b6587","ios":"levelo://app?vid=055987dd-aeb1-49e1-aca7-bde4045b6587"},"vehicle_type_id":"4","last_reported":1769704238,"current_range_meters":6000,"station_id":"ce4bhs12rcd13ifvqhvg","pricing_plan_id":"cebpf4jnsgd1na2vs0mg"},{"bike_id":"3ccee4a4-a5bc-4ac1-9bdc-3455c28961e8","system_id":"levelo_inurba_marseille","lat":43.24783,"lon":5.37423,"is_reserved":false,"is_disabled":false,"rental_uris":{"android":"levelo://app?vid=3ccee4a4-a5bc-4ac1-9bdc-3455c28961e8","ios":"levelo://app?vid=3ccee4a4-a5bc-4ac1-9bdc-3455c28961e8"},"vehicle_type_id":"4","last_reported":1769704238,"current_range_meters":6000,"station_id":"ce4bhgh2rcd13ifvqfb0","pricing_plan_id":"cebpf4jnsgd1na2vs0mg"},{"bike_id":"802f6e05-7249-407a-aac4-32d2041628b8","system_id":"levelo_inurba_marseille","lat":43.23055,"lon":5.35489,"is_reserved":false,"is_disabled":false,"rental_uris":{"android":"levelo://app?vid=802f6e05-7249-407a-aac4-32d2041628b8","ios":"levelo://app?vid=802f6e05-7249-407a-aac4-32d2041628b8"},"vehicle_type_id":"4","last_reported":1769704238,"current_range_meters":6000,"station_id":"cpo3342slgdg3j2ifvpg","pricing_plan_id":"cebpf4jnsgd1na2vs0mg"},{"bike_id":"09586d55-d979-48a3-a25c-b7661056bca6","system_id":"levelo_inurba_marseille","lat":43.2668,"lon":5.38264,"is_reserved":false,"is_disabled":false,"rental_uris":{"android":"levelo://app?vid=09586d55-d979-48a3-a25c-b7661056bca6","ios":"levelo://app?vid=09586d55-d979-48a3-a25c-b7661056bca6"},"vehicle_type_id":"4","last_reported":1769704238,"current_range_meters":6000,"station_id":"ce4bhg92rcd13ifvqf90","pricing_plan_id":"cebpf4jnsgd1na2vs0mg"},{"bike_id":"b0eb0437-5aec-4ed8-ba2a-b2fc816a75a6","system_id":"levelo_inurba_marseille","lat":43.30438,"lon":5.39717,"is_reserved":false,"is_disabled":false,"rental_uris":{"android":"levelo://app?vid=b0eb0437-5aec-4ed8-ba2a-b2fc816a75a6","ios":"levelo://app?vid=b0eb0437-5aec-4ed8-ba2a-b2fc816a75a6"},"vehicle_type_id":"4","last_reported":1769704238,"current_range_meters":6000,"station_id":"ce4bh092rcd13ifvqd20","pricing_plan_id":"cebpf4jnsgd1na2vs0mg"},{"bike_id":"353ef59e-79fd-4e27-87a5-d37a860789e8","system_id":"levelo_inurba_marseille","lat":43.31105,"lon":5.38477,"is_reserved":false,"is_disabled":false,"rental_uris":{"android":"levelo://app?vid=353ef59e-79fd-4e27-87a5-d37a860789e8","ios":"levelo://app?vid=353ef59e-79fd-4e27-87a5-d37a860789e8"},"vehicle_type_id":"4","last_reported":1769704238,"current_range_meters":6000,"station_id":"","pricing_plan_id":"cebpf4jnsgd1na2vs0mg"},{"bike_id":"d62e7d70-fe4e-420f-8d23-2e3403a594a5","system_id":"levelo_inurba_marseille","lat":43.2857,"lon":5.39501,"is_reserved":false,"is_disabled":false,"rental_uris":{"android":"levelo://app?vid=d62e7d70-fe4e-420f-8d23-2e3403a594a5","ios":"levelo://app?vid=d62e7d70-fe4e-420f-8d23-2e3403a594a5"},"vehicle_type_id":"4","last_reported":1769704238,"current_range_meters":6000,"station_id":"ce4bh292rcd13ifvqdg0","pricing_plan_id":"cebpf4jnsgd1na2vs0mg"},{"bike_id":"1dfc9c08-5fe7-413a-94aa-d115cac2ee05","system_id":"levelo_inurba_marseille","lat":43.279991,"lon":5.400085,"is_reserved":false,"is_disabled":false,"rental_uris":{"android":"levelo://app?vid=1dfc9c08-5fe7-413a-94aa-d115cac2ee05","ios":"levelo://app?vid=1dfc9c08-5fe7-413a-94aa-d115cac2ee05"},"vehicle_type_id":"4","last_reported":1769704238,"current_range_meters":6000,"station_id":"ce4bho92rcd13ifvqh4g","pricing_plan_id":"cebpf4jnsgd1na2vs0mg"},{"bike_id":"5ef66029-b6e4-482f-a91b-a13a8501a804","system_id":"levelo_inurba_marseille","lat":43.26211,"lon":5.37442,"is_reserved":false,"is_disabled":false,"rental_uris":{"android":"levelo://app?vid=5ef66029-b6e4-482f-a91b-a13a8501a804","ios":"levelo://app?vid=5ef66029-b6e4-482f-a91b-a13a8501a804"},"vehicle_type_id":"4","last_reported":1769704238,"current_range_meters":6000,"station_id":"ce4bhgp2rcd13ifvqfc0","pricing_plan_id":"cebpf4jnsgd1na2vs0mg"},{"bike_id":"cef89498-fbf9-4ad5-afa6-46a5eea10249","system_id":"levelo_inurba_marseille","lat":43.27331,"lon":5.40972,"is_reserved":false,"is_disabled":false,"rental_uris":{"android":"levelo://app?vid=cef89498-fbf9-4ad5-afa6-46a5eea10249","ios":"levelo://app?vid=cef89498-fbf9-4ad5-afa6-46a5eea10249"},"vehicle_type_id":"4","last_reported":1769704238,"current_range_meters":6000,"station_id":"","pricing_plan_id":"cebpf4jnsgd1na2vs0mg"},{"bike_id":"6a4ce787-3ab6-4ff8-ace6-1da1d70c1828","system_id":"levelo_inurba_marseille","lat":43.24803,"lon":5.37458,"is_reserved":false,"is_disabled":false,"rental_uris":{"android":"levelo://app?vid=6a4ce787-3ab6-4ff8-ace6-1da1d70c1828","ios":"levelo://app?vid=6a4ce787-3ab6-4ff8-ace6-1da1d70c1828"},"vehicle_type_id":"4","last_reported":1769704238,"current_range_meters":6000,"station_id":"ce4bhgh2rcd13ifvqfb0","pricing_plan_id":"cebpf4jnsgd1na2vs0mg"},{"bike_id":"173ab4de-d4ca-4cdb-a11e-273ba50d301a","system_id":"levelo_inurba_marseille","lat":43.26786,"lon":5.42703,"is_reserved":false,"is_disabled":false,"rental_uris":{"android":"levelo://app?vid=173ab4de-d4ca-4cdb-a11e-273ba50d301a","ios":"levelo://app?vid=173ab4de-d4ca-4cdb-a11e-273ba50d301a"},"vehicle_type_id":"4","last_reported":1769704238,"current_range_meters":6400,"station_id":"","pricing_plan_id":"cebpf4jnsgd1na2vs0mg"},{"bike_id":"b3739ae3-b277-4d99-8f04-0c02824e7530","system_id":"levelo_inurba_marseille","lat":43.33205,"lon":5.38964,"is_reserved":false,"is_disabled":false,"rental_uris":{"android":"levelo://app?vid=b3739ae3-b277-4d99-8f04-0c02824e7530","ios":"levelo://app?vid=b3739ae3-b277-4d99-8f04-0c02824e7530"},"vehicle_type_id":"4","last_reported":1769704238,"current_range_meters":6400,"station_id":"","pricing_plan_id":"cebpf4jnsgd1na2vs0mg"},{"bike_id":"e44d6c0d-4cdc-487c-87b1-e5cf7cd1bdd8","system_id":"levelo_inurba_marseille","lat":43.27693,"lon":5.38868,"is_reserved":false,"is_disabled":false,"rental_uris":{"android":"levelo://app?vid=e44d6c0d-4cdc-487c-87b1-e5cf7cd1bdd8","ios":"levelo://app?vid=e44d6c0d-4cdc-487c-87b1-e5cf7cd1bdd8"},"vehicle_type_id":"4","last_reported":1769704238,"current_range_meters":6400,"station_id":"ce4bhi12rcd13ifvqfo0","pricing_plan_id":"cebpf4jnsgd1na2vs0mg"},{"bike_id":"ca8aa705-78fb-4dba-a3eb-862afc625597","system_id":"levelo_inurba_marseille","lat":43.28857,"lon":5.42523,"is_reserved":false,"is_disabled":false,"rental_uris":{"android":"levelo://app?vid=ca8aa705-78fb-4dba-a3eb-862afc625597","ios":"levelo://app?vid=ca8aa705-78fb-4dba-a3eb-862afc625597"},"vehicle_type_id":"4","last_reported":1769704238,"current_range_meters":6400,"station_id":"st_d3b462108ojc7389ooeg","pricing_plan_id":"cebpf4jnsgd1na2vs0mg"},{"bike_id":"3aa3c275-a85f-4c25-a97a-d34ea0aadd5b","system_id":"levelo_inurba_marseille","lat":43.29633,"lon":5.37702,"is_reserved":false,"is_disabled":false,"rental_uris":{"android":"levelo://app?vid=3aa3c275-a85f-4c25-a97a-d34ea0aadd5b","ios":"levelo://app?vid=3aa3c275-a85f-4c25-a97a-d34ea0aadd5b"},"vehicle_type_id":"4","last_reported":1769704238,"current_range_meters":6400,"station_id":"ce4bgi92rcd13ifvqb90","pricing_plan_id":"cebpf4jnsgd1na2vs0mg"},{"bike_id":"3d405854-a3e9-4cc4-bcac-5ce2eff49e57","system_id":"levelo_inurba_marseille","lat":43.23181,"lon":5.3999,"is_reserved":false,"is_disabled":false,"rental_uris":{"android":"levelo://app?vid=3d405854-a3e9-4cc4-bcac-5ce2eff49e57","ios":"levelo://app?vid=3d405854-a3e9-4cc4-bcac-5ce2eff49e57"},"vehicle_type_id":"4","last_reported":1769704238,"current_range_meters":6400,"station_id":"ce4bhn12rcd13ifvqgqg","pricing_plan_id":"cebpf4jnsgd1na2vs0mg"},{"bike_id":"f7013bc3-1392-449d-8312-c31b9fd9f374","system_id":"levelo_inurba_marseille","lat":43.27059,"lon":5.38297,"is_reserved":false,"is_disabled":false,"rental_uris":{"android":"levelo://app?vid=f7013bc3-1392-449d-8312-c31b9fd9f374","ios":"levelo://app?vid=f7013bc3-1392-449d-8312-c31b9fd9f374"},"vehicle_type_id":"4","last_reported":1769704238,"current_range_meters":6400,"station_id":"st_d3n2fo6cfp8s73cte1j0","pricing_plan_id":"cebpf4jnsgd1na2vs0mg"},{"bike_id":"a1adbbcc-56be-41a6-a560-f4a5e4282b51","system_id":"levelo_inurba_marseille","lat":43.2842,"lon":5.34992,"is_reserved":false,"is_disabled":false,"rental_uris":{"android":"levelo://app?vid=a1adbbcc-56be-41a6-a560-f4a5e4282b51","ios":"levelo://app?vid=a1adbbcc-56be-41a6-a560-f4a5e4282b51"},"vehicle_type_id":"4","last_reported":1769704238,"current_range_meters":6400,"station_id":"ce4bhbh2rcd13ifvqepg","pricing_plan_id":"cebpf4jnsgd1na2vs0mg"},{"bike_id":"eee05420-e537-4796-b4cb-f3165c85a92f","system_id":"levelo_inurba_marseille","lat":43.29875,"lon":5.39743,"is_reserved":false,"is_disabled":false,"rental_uris":{"android":"levelo://app?vid=eee05420-e537-4796-b4cb-f3165c85a92f","ios":"levelo://app?vid=eee05420-e537-4796-b4cb-f3165c85a92f"},"vehicle_type_id":"4","last_reported":1769704238,"current_range_meters":6400,"station_id":"ce4bh0h2rcd13ifvqd50","pricing_plan_id":"cebpf4jnsgd1na2vs0mg"},{"bike_id":"9cf332f9-41e8-44ae-aa15-1d9d379a94a2","system_id":"levelo_inurba_marseille","lat":43.28624,"lon":5.35086,"is_reserved":false,"is_disabled":false,"rental_uris":{"android":"levelo://app?vid=9cf332f9-41e8-44ae-aa15-1d9d379a94a2","ios":"levelo://app?vid=9cf332f9-41e8-44ae-aa15-1d9d379a94a2"},"vehicle_type_id":"4","last_reported":1769704238,"current_range_meters":6400,"station_id":"ce4bhch2rcd13ifvqeug","pricing_plan_id":"cebpf4jnsgd1na2vs0mg"},{"bike_id":"7fbc2cee-3333-4ce7-b5fd-ba79658e79d6","system_id":"levelo_inurba_marseille","lat":43.29528,"lon":5.38541,"is_reserved":false,"is_disabled":false,"rental_uris":{"android":"levelo://app?vid=7fbc2cee-3333-4ce7-b5fd-ba79658e79d6","ios":"levelo://app?vid=7fbc2cee-3333-4ce7-b5fd-ba79658e79d6"},"vehicle_type_id":"4","last_reported":1769704238,"current_range_meters":6400,"station_id":"ce4bgih2rcd13ifvqba0","pricing_plan_id":"cebpf4jnsgd1na2vs0mg"},{"bike_id":"ac605ac9-20fd-41ab-b16b-356ba124b9b7","system_id":"levelo_inurba_marseille","lat":43.27206,"lon":5.42762,"is_reserved":false,"is_disabled":false,"rental_uris":{"android":"levelo://app?vid=ac605ac9-20fd-41ab-b16b-356ba124b9b7","ios":"levelo://app?vid=ac605ac9-20fd-41ab-b16b-356ba124b9b7"},"vehicle_type_id":"4","last_reported":1769704238,"current_range_meters":6400,"station_id":"","pricing_plan_id":"cebpf4jnsgd1na2vs0mg"},{"bike_id":"2a4e7a98-f2fe-4916-aa17-072a5b9c068d","system_id":"levelo_inurba_marseille","lat":43.28576,"lon":5.39501,"is_reserved":false,"is_disabled":false,"rental_uris":{"android":"levelo://app?vid=2a4e7a98-f2fe-4916-aa17-072a5b9c068d","ios":"levelo://app?vid=2a4e7a98-f2fe-4916-aa17-072a5b9c068d"},"vehicle_type_id":"4","last_reported":1769704238,"current_range_meters":6400,"station_id":"ce4bh292rcd13ifvqdg0","pricing_plan_id":"cebpf4jnsgd1na2vs0mg"},{"bike_id":"5dc203bc-9b05-41f4-a8f2-b67aaf61280f","system_id":"levelo_inurba_marseille","lat":43.3138,"lon":5.38481,"is_reserved":false,"is_disabled":false,"rental_uris":{"android":"levelo://app?vid=5dc203bc-9b05-41f4-a8f2-b67aaf61280f","ios":"levelo://app?vid=5dc203bc-9b05-41f4-a8f2-b67aaf61280f"},"vehicle_type_id":"4","last_reported":1769704238,"current_range_meters":6400,"station_id":"ce4bgt92rcd13ifvqcf0","pricing_plan_id":"cebpf4jnsgd1na2vs0mg"},{"bike_id":"f53d9e37-e531-4e38-816d-1f5fb78982b8","system_id":"levelo_inurba_marseille","lat":43.23149,"lon":5.43716,"is_reserved":false,"is_disabled":false,"rental_uris":{"android":"levelo://app?vid=f53d9e37-e531-4e38-816d-1f5fb78982b8","ios":"levelo://app?vid=f53d9e37-e531-4e38-816d-1f5fb78982b8"},"vehicle_type_id":"4","last_reported":1769704238,"current_range_meters":6400,"station_id":"ce4bhmp2rcd13ifvqgog","pricing_plan_id":"cebpf4jnsgd1na2vs0mg"},{"bike_id":"429b8996-f30c-415d-97f3-dd5e0c98452f","system_id":"levelo_inurba_marseille","lat":43.29537,"lon":5.39048,"is_reserved":false,"is_disabled":false,"rental_uris":{"android":"levelo://app?vid=429b8996-f30c-415d-97f3-dd5e0c98452f","ios":"levelo://app?vid=429b8996-f30c-415d-97f3-dd5e0c98452f"},"vehicle_type_id":"4","last_reported":1769704238,"current_range_meters":6400,"station_id":"ce4bh3p2rcd13ifvqdp0","pricing_plan_id":"cebpf4jnsgd1na2vs0mg"},{"bike_id":"c711d49e-77fc-4c42-abd9-aa043446a538","system_id":"levelo_inurba_marseille","lat":43.27676,"lon":5.38899,"is_reserved":false,"is_disabled":false,"rental_uris":{"android":"levelo://app?vid=c711d49e-77fc-4c42-abd9-aa043446a538","ios":"levelo://app?vid=c711d49e-77fc-4c42-abd9-aa043446a538"},"vehicle_type_id":"4","last_reported":1769704238,"current_range_meters":6400,"station_id":"ce4bhi12rcd13ifvqfo0","pricing_plan_id":"cebpf4jnsgd1na2vs0mg"},{"bike_id":"68499007-ff5a-40d6-ab79-d9e51af5110b","system_id":"levelo_inurba_marseille","lat":43.24407,"lon":5.37033,"is_reserved":false,"is_disabled":false,"rental_uris":{"android":"levelo://app?vid=68499007-ff5a-40d6-ab79-d9e51af5110b","ios":"levelo://app?vid=68499007-ff5a-40d6-ab79-d9e51af5110b"},"vehicle_type_id":"4","last_reported":1769704238,"current_range_meters":6400,"station_id":"ce4bhhh2rcd13ifvqfk0","pricing_plan_id":"cebpf4jnsgd1na2vs0mg"},{"bike_id":"c28cb3ef-0d3f-428c-9979-36c9c8628db4","system_id":"levelo_inurba_marseille","lat":43.25825,"lon":5.39447,"is_reserved":false,"is_disabled":false,"rental_uris":{"android":"levelo://app?vid=c28cb3ef-0d3f-428c-9979-36c9c8628db4","ios":"levelo://app?vid=c28cb3ef-0d3f-428c-9979-36c9c8628db4"},"vehicle_type_id":"4","last_reported":1769704238,"current_range_meters":6400,"station_id":"ce4bhip2rcd13ifvqft0","pricing_plan_id":"cebpf4jnsgd1na2vs0mg"},{"bike_id":"c0f7a03c-8726-4f7e-9366-f28d8e2588b3","system_id":"levelo_inurba_marseille","lat":43.30551,"lon":5.36528,"is_reserved":false,"is_disabled":false,"rental_uris":{"android":"levelo://app?vid=c0f7a03c-8726-4f7e-9366-f28d8e2588b3","ios":"levelo://app?vid=c0f7a03c-8726-4f7e-9366-f28d8e2588b3"},"vehicle_type_id":"4","last_reported":1769704238,"current_range_meters":6800,"station_id":"ce4bgs12rcd13ifvqcag","pricing_plan_id":"cebpf4jnsgd1na2vs0mg"},{"bike_id":"529d33d5-5c16-4d1d-a6a2-a1f098372d8b","system_id":"levelo_inurba_marseille","lat":43.27965,"lon":5.387317,"is_reserved":false,"is_disabled":false,"rental_uris":{"android":"levelo://app?vid=529d33d5-5c16-4d1d-a6a2-a1f098372d8b","ios":"levelo://app?vid=529d33d5-5c16-4d1d-a6a2-a1f098372d8b"},"vehicle_type_id":"4","last_reported":1769704238,"current_range_meters":6800,"station_id":"ce4bhg12rcd13ifvqf80","pricing_plan_id":"cebpf4jnsgd1na2vs0mg"},{"bike_id":"273f31d8-fba9-4465-aad5-47c0c07e5e23","system_id":"levelo_inurba_marseille","lat":43.284031,"lon":5.349881,"is_reserved":false,"is_disabled":false,"rental_uris":{"android":"levelo://app?vid=273f31d8-fba9-4465-aad5-47c0c07e5e23","ios":"levelo://app?vid=273f31d8-fba9-4465-aad5-47c0c07e5e23"},"vehicle_type_id":"4","last_reported":1769704238,"current_range_meters":6800,"station_id":"ce4bhbh2rcd13ifvqepg","pricing_plan_id":"cebpf4jnsgd1na2vs0mg"},{"bike_id":"1734350a-7db7-478e-8058-74793f2aa5c0","system_id":"levelo_inurba_marseille","lat":43.32344,"lon":5.38491,"is_reserved":false,"is_disabled":false,"rental_uris":{"android":"levelo://app?vid=1734350a-7db7-478e-8058-74793f2aa5c0","ios":"levelo://app?vid=1734350a-7db7-478e-8058-74793f2aa5c0"},"vehicle_type_id":"4","last_reported":1769704238,"current_range_meters":6800,"station_id":"st_d45171o9ee8s73djdqug","pricing_plan_id":"cebpf4jnsgd1na2vs0mg"},{"bike_id":"4c275800-7447-4937-8135-1a3feea40d46","system_id":"levelo_inurba_marseille","lat":43.30462,"lon":5.37906,"is_reserved":false,"is_disabled":false,"rental_uris":{"android":"levelo://app?vid=4c275800-7447-4937-8135-1a3feea40d46","ios":"levelo://app?vid=4c275800-7447-4937-8135-1a3feea40d46"},"vehicle_type_id":"4","last_reported":1769704238,"current_range_meters":6800,"station_id":"ce4bgup2rcd13ifvqcn0","pricing_plan_id":"cebpf4jnsgd1na2vs0mg"},{"bike_id":"59d7c568-6724-480d-b1e6-ba1e4cc63559","system_id":"levelo_inurba_marseille","lat":43.29276,"lon":5.37161,"is_reserved":false,"is_disabled":false,"rental_uris":{"android":"levelo://app?vid=59d7c568-6724-480d-b1e6-ba1e4cc63559","ios":"levelo://app?vid=59d7c568-6724-480d-b1e6-ba1e4cc63559"},"vehicle_type_id":"4","last_reported":1769704238,"current_range_meters":6800,"station_id":"ce4bgh92rcd13ifvqb40","pricing_plan_id":"cebpf4jnsgd1na2vs0mg"},{"bike_id":"65eb5cb0-a6f7-4de3-a9be-a5e0a4386045","system_id":"levelo_inurba_marseille","lat":43.33148,"lon":5.37711,"is_reserved":false,"is_disabled":false,"rental_uris":{"android":"levelo://app?vid=65eb5cb0-a6f7-4de3-a9be-a5e0a4386045","ios":"levelo://app?vid=65eb5cb0-a6f7-4de3-a9be-a5e0a4386045"},"vehicle_type_id":"4","last_reported":1769704238,"current_range_meters":6800,"station_id":"st_d46cu089ee8s73dldbu0","pricing_plan_id":"cebpf4jnsgd1na2vs0mg"},{"bike_id":"8252e483-8cd2-4e1f-8159-245c555c915e","system_id":"levelo_inurba_marseille","lat":43.22934,"lon":5.35389,"is_reserved":false,"is_disabled":false,"rental_uris":{"android":"levelo://app?vid=8252e483-8cd2-4e1f-8159-245c555c915e","ios":"levelo://app?vid=8252e483-8cd2-4e1f-8159-245c555c915e"},"vehicle_type_id":"4","last_reported":1769704238,"current_range_meters":6800,"station_id":"cpo3532slgdg3j2ikp40","pricing_plan_id":"cebpf4jnsgd1na2vs0mg"},{"bike_id":"e236f0a6-2e87-48ed-94ce-e49f696f4842","system_id":"levelo_inurba_marseille","lat":43.26605,"lon":5.37498,"is_reserved":false,"is_disabled":false,"rental_uris":{"android":"levelo://app?vid=e236f0a6-2e87-48ed-94ce-e49f696f4842","ios":"levelo://app?vid=e236f0a6-2e87-48ed-94ce-e49f696f4842"},"vehicle_type_id":"4","last_reported":1769704238,"current_range_meters":6800,"station_id":"","pricing_plan_id":"cebpf4jnsgd1na2vs0mg"},{"bike_id":"ed769265-f16a-459b-b65b-4f812bc4e9cb","system_id":"levelo_inurba_marseille","lat":43.27565,"lon":5.38423,"is_reserved":false,"is_disabled":false,"rental_uris":{"android":"levelo://app?vid=ed769265-f16a-459b-b65b-4f812bc4e9cb","ios":"levelo://app?vid=ed769265-f16a-459b-b65b-4f812bc4e9cb"},"vehicle_type_id":"4","last_reported":1769704238,"current_range_meters":6800,"station_id":"ce4bhh92rcd13ifvqfi0","pricing_plan_id":"cebpf4jnsgd1na2vs0mg"},{"bike_id":"3d61244e-0dde-42a1-8efa-05e556593c38","system_id":"levelo_inurba_marseille","lat":43.22568,"lon":5.41636,"is_reserved":false,"is_disabled":false,"rental_uris":{"android":"levelo://app?vid=3d61244e-0dde-42a1-8efa-05e556593c38","ios":"levelo://app?vid=3d61244e-0dde-42a1-8efa-05e556593c38"},"vehicle_type_id":"4","last_reported":1769704238,"current_range_meters":6800,"station_id":"st_d2o4gvlbi1j2169b742g","pricing_plan_id":"cebpf4jnsgd1na2vs0mg"},{"bike_id":"40895a47-5183-4cad-a998-9dbae00bd47b","system_id":"levelo_inurba_marseille","lat":43.30301,"lon":5.39216,"is_reserved":false,"is_disabled":false,"rental_uris":{"android":"levelo://app?vid=40895a47-5183-4cad-a998-9dbae00bd47b","ios":"levelo://app?vid=40895a47-5183-4cad-a998-9dbae00bd47b"},"vehicle_type_id":"4","last_reported":1769704238,"current_range_meters":6800,"station_id":"ce4bgkh2rcd13ifvqbk0","pricing_plan_id":"cebpf4jnsgd1na2vs0mg"},{"bike_id":"8c50cc1b-6957-4db2-9b96-76d9d37bac03","system_id":"levelo_inurba_marseille","lat":43.22568,"lon":5.41611,"is_reserved":false,"is_disabled":false,"rental_uris":{"android":"levelo://app?vid=8c50cc1b-6957-4db2-9b96-76d9d37bac03","ios":"levelo://app?vid=8c50cc1b-6957-4db2-9b96-76d9d37bac03"},"vehicle_type_id":"4","last_reported":1769704238,"current_range_meters":6800,"station_id":"st_d2o4gvlbi1j2169b742g","pricing_plan_id":"cebpf4jnsgd1na2vs0mg"},{"bike_id":"4cc0b9dc-1bd7-40c7-9c2d-d0fc941b99dd","system_id":"levelo_inurba_marseille","lat":43.29575,"lon":5.37498,"is_reserved":false,"is_disabled":false,"rental_uris":{"android":"levelo://app?vid=4cc0b9dc-1bd7-40c7-9c2d-d0fc941b99dd","ios":"levelo://app?vid=4cc0b9dc-1bd7-40c7-9c2d-d0fc941b99dd"},"vehicle_type_id":"4","last_reported":1769704238,"current_range_meters":6800,"station_id":"ce4bgh92rcd13ifvqb50","pricing_plan_id":"cebpf4jnsgd1na2vs0mg"},{"bike_id":"51e33b43-0b63-43c6-8dbf-365699605da8","system_id":"levelo_inurba_marseille","lat":43.27002,"lon":5.3981,"is_reserved":false,"is_disabled":false,"rental_uris":{"android":"levelo://app?vid=51e33b43-0b63-43c6-8dbf-365699605da8","ios":"levelo://app?vid=51e33b43-0b63-43c6-8dbf-365699605da8"},"vehicle_type_id":"4","last_reported":1769704238,"current_range_meters":6800,"station_id":"","pricing_plan_id":"cebpf4jnsgd1na2vs0mg"},{"bike_id":"6c39e08d-c13c-4d71-ab4a-cbaebbfec2f6","system_id":"levelo_inurba_marseille","lat":43.28119,"lon":5.37831,"is_reserved":false,"is_disabled":false,"rental_uris":{"android":"levelo://app?vid=6c39e08d-c13c-4d71-ab4a-cbaebbfec2f6","ios":"levelo://app?vid=6c39e08d-c13c-4d71-ab4a-cbaebbfec2f6"},"vehicle_type_id":"4","last_reported":1769704238,"current_range_meters":6800,"station_id":"ce4bha12rcd13ifvqee0","pricing_plan_id":"cebpf4jnsgd1na2vs0mg"},{"bike_id":"31c14499-86de-46e6-a67f-a12efc2510dc","system_id":"levelo_inurba_marseille","lat":43.23157,"lon":5.43704,"is_reserved":false,"is_disabled":false,"rental_uris":{"android":"levelo://app?vid=31c14499-86de-46e6-a67f-a12efc2510dc","ios":"levelo://app?vid=31c14499-86de-46e6-a67f-a12efc2510dc"},"vehicle_type_id":"4","last_reported":1769704238,"current_range_meters":6800,"station_id":"ce4bhmp2rcd13ifvqgog","pricing_plan_id":"cebpf4jnsgd1na2vs0mg"},{"bike_id":"c1fd7d57-6473-4897-86d3-931c173c2c4f","system_id":"levelo_inurba_marseille","lat":43.303723,"lon":5.41877,"is_reserved":false,"is_disabled":false,"rental_uris":{"android":"levelo://app?vid=c1fd7d57-6473-4897-86d3-931c173c2c4f","ios":"levelo://app?vid=c1fd7d57-6473-4897-86d3-931c173c2c4f"},"vehicle_type_id":"4","last_reported":1769704238,"current_range_meters":6800,"station_id":"ce4bhop2rcd13ifvqh7g","pricing_plan_id":"cebpf4jnsgd1na2vs0mg"},{"bike_id":"706fe81a-bdb2-42d8-b800-5c8160b7054c","system_id":"levelo_inurba_marseille","lat":43.253393,"lon":5.421725,"is_reserved":false,"is_disabled":false,"rental_uris":{"android":"levelo://app?vid=706fe81a-bdb2-42d8-b800-5c8160b7054c","ios":"levelo://app?vid=706fe81a-bdb2-42d8-b800-5c8160b7054c"},"vehicle_type_id":"4","last_reported":1769704238,"current_range_meters":6800,"station_id":"st_d2m65c5bi1j21697t3ng","pricing_plan_id":"cebpf4jnsgd1na2vs0mg"},{"bike_id":"626f2e49-da66-4aca-b419-36ccc5e515c3","system_id":"levelo_inurba_marseille","lat":43.24624,"lon":5.43143,"is_reserved":false,"is_disabled":false,"rental_uris":{"android":"levelo://app?vid=626f2e49-da66-4aca-b419-36ccc5e515c3","ios":"levelo://app?vid=626f2e49-da66-4aca-b419-36ccc5e515c3"},"vehicle_type_id":"4","last_reported":1769704238,"current_range_meters":6800,"station_id":"st_d2m6c4gdas8pm72e190g","pricing_plan_id":"cebpf4jnsgd1na2vs0mg"},{"bike_id":"83af030c-c281-4557-96b2-f154db28389a","system_id":"levelo_inurba_marseille","lat":43.25569,"lon":5.38229,"is_reserved":false,"is_disabled":false,"rental_uris":{"android":"levelo://app?vid=83af030c-c281-4557-96b2-f154db28389a","ios":"levelo://app?vid=83af030c-c281-4557-96b2-f154db28389a"},"vehicle_type_id":"4","last_reported":1769704238,"current_range_meters":6800,"station_id":"ce4bhih2rcd13ifvqfs0","pricing_plan_id":"cebpf4jnsgd1na2vs0mg"},{"bike_id":"0c0ec910-30fc-4f9a-aeef-be987dcee4e7","system_id":"levelo_inurba_marseille","lat":43.28275,"lon":5.35083,"is_reserved":false,"is_disabled":false,"rental_uris":{"android":"levelo://app?vid=0c0ec910-30fc-4f9a-aeef-be987dcee4e7","ios":"levelo://app?vid=0c0ec910-30fc-4f9a-aeef-be987dcee4e7"},"vehicle_type_id":"4","last_reported":1769704238,"current_range_meters":6800,"station_id":"ce4bhbp2rcd13ifvqerg","pricing_plan_id":"cebpf4jnsgd1na2vs0mg"},{"bike_id":"932bb106-3c96-4dbf-947d-0b48571ad9e2","system_id":"levelo_inurba_marseille","lat":43.27367,"lon":5.36255,"is_reserved":false,"is_disabled":false,"rental_uris":{"android":"levelo://app?vid=932bb106-3c96-4dbf-947d-0b48571ad9e2","ios":"levelo://app?vid=932bb106-3c96-4dbf-947d-0b48571ad9e2"},"vehicle_type_id":"4","last_reported":1769704238,"current_range_meters":7200,"station_id":"ce4bhbh2rcd13ifvqeo0","pricing_plan_id":"cebpf4jnsgd1na2vs0mg"},{"bike_id":"83574236-eb2a-42bd-ab70-405f88783bc7","system_id":"levelo_inurba_marseille","lat":43.30539,"lon":5.36515,"is_reserved":false,"is_disabled":false,"rental_uris":{"android":"levelo://app?vid=83574236-eb2a-42bd-ab70-405f88783bc7","ios":"levelo://app?vid=83574236-eb2a-42bd-ab70-405f88783bc7"},"vehicle_type_id":"4","last_reported":1769704238,"current_range_meters":7200,"station_id":"ce4bgs12rcd13ifvqcag","pricing_plan_id":"cebpf4jnsgd1na2vs0mg"},{"bike_id":"33dca264-fb0a-4eb7-95bb-9ae61ebc0bd2","system_id":"levelo_inurba_marseille","lat":43.28407,"lon":5.34998,"is_reserved":false,"is_disabled":false,"rental_uris":{"android":"levelo://app?vid=33dca264-fb0a-4eb7-95bb-9ae61ebc0bd2","ios":"levelo://app?vid=33dca264-fb0a-4eb7-95bb-9ae61ebc0bd2"},"vehicle_type_id":"4","last_reported":1769704238,"current_range_meters":7200,"station_id":"ce4bhbh2rcd13ifvqepg","pricing_plan_id":"cebpf4jnsgd1na2vs0mg"},{"bike_id":"9352a26f-52ae-4722-9964-1e4d58412b67","system_id":"levelo_inurba_marseille","lat":43.25565,"lon":5.38244,"is_reserved":false,"is_disabled":false,"rental_uris":{"android":"levelo://app?vid=9352a26f-52ae-4722-9964-1e4d58412b67","ios":"levelo://app?vid=9352a26f-52ae-4722-9964-1e4d58412b67"},"vehicle_type_id":"4","last_reported":1769704238,"current_range_meters":7200,"station_id":"ce4bhih2rcd13ifvqfs0","pricing_plan_id":"cebpf4jnsgd1na2vs0mg"},{"bike_id":"5f7181ae-656c-4488-90fb-0ce1331b2ddd","system_id":"levelo_inurba_marseille","lat":43.2793,"lon":5.38678,"is_reserved":false,"is_disabled":false,"rental_uris":{"android":"levelo://app?vid=5f7181ae-656c-4488-90fb-0ce1331b2ddd","ios":"levelo://app?vid=5f7181ae-656c-4488-90fb-0ce1331b2ddd"},"vehicle_type_id":"4","last_reported":1769704238,"current_range_meters":7200,"station_id":"","pricing_plan_id":"cebpf4jnsgd1na2vs0mg"},{"bike_id":"a2a9f60c-c63e-4947-93ca-72fa4399791a","system_id":"levelo_inurba_marseille","lat":43.27811,"lon":5.40707,"is_reserved":false,"is_disabled":false,"rental_uris":{"android":"levelo://app?vid=a2a9f60c-c63e-4947-93ca-72fa4399791a","ios":"levelo://app?vid=a2a9f60c-c63e-4947-93ca-72fa4399791a"},"vehicle_type_id":"4","last_reported":1769704238,"current_range_meters":7200,"station_id":"ce4bhnh2rcd13ifvqgtg","pricing_plan_id":"cebpf4jnsgd1na2vs0mg"},{"bike_id":"cfe3a6dd-a211-4abb-80dc-8311ecf0e5e7","system_id":"levelo_inurba_marseille","lat":43.2316,"lon":5.43722,"is_reserved":false,"is_disabled":false,"rental_uris":{"android":"levelo://app?vid=cfe3a6dd-a211-4abb-80dc-8311ecf0e5e7","ios":"levelo://app?vid=cfe3a6dd-a211-4abb-80dc-8311ecf0e5e7"},"vehicle_type_id":"4","last_reported":1769704238,"current_range_meters":7200,"station_id":"ce4bhmp2rcd13ifvqgog","pricing_plan_id":"cebpf4jnsgd1na2vs0mg"},{"bike_id":"947b3f41-400e-4a7b-9150-c4b106fc2b3b","system_id":"levelo_inurba_marseille","lat":43.25583,"lon":5.38227,"is_reserved":false,"is_disabled":false,"rental_uris":{"android":"levelo://app?vid=947b3f41-400e-4a7b-9150-c4b106fc2b3b","ios":"levelo://app?vid=947b3f41-400e-4a7b-9150-c4b106fc2b3b"},"vehicle_type_id":"4","last_reported":1769704238,"current_range_meters":7200,"station_id":"ce4bhih2rcd13ifvqfs0","pricing_plan_id":"cebpf4jnsgd1na2vs0mg"},{"bike_id":"bb427eb0-b181-463b-ac40-9abd68b1048d","system_id":"levelo_inurba_marseille","lat":43.30213,"lon":5.39478,"is_reserved":false,"is_disabled":false,"rental_uris":{"android":"levelo://app?vid=bb427eb0-b181-463b-ac40-9abd68b1048d","ios":"levelo://app?vid=bb427eb0-b181-463b-ac40-9abd68b1048d"},"vehicle_type_id":"4","last_reported":1769704238,"current_range_meters":7200,"station_id":"ce4bh0p2rcd13ifvqd70","pricing_plan_id":"cebpf4jnsgd1na2vs0mg"},{"bike_id":"7996b6de-4f5a-440a-ada3-de0800bd2481","system_id":"levelo_inurba_marseille","lat":43.245524,"lon":5.395194,"is_reserved":false,"is_disabled":false,"rental_uris":{"android":"levelo://app?vid=7996b6de-4f5a-440a-ada3-de0800bd2481","ios":"levelo://app?vid=7996b6de-4f5a-440a-ada3-de0800bd2481"},"vehicle_type_id":"4","last_reported":1769704238,"current_range_meters":7200,"station_id":"ce4bhlp2rcd13ifvqgjg","pricing_plan_id":"cebpf4jnsgd1na2vs0mg"},{"bike_id":"0dd61424-bf1e-401d-9632-d1489fb3cc66","system_id":"levelo_inurba_marseille","lat":43.32098,"lon":5.36778,"is_reserved":false,"is_disabled":false,"rental_uris":{"android":"levelo://app?vid=0dd61424-bf1e-401d-9632-d1489fb3cc66","ios":"levelo://app?vid=0dd61424-bf1e-401d-9632-d1489fb3cc66"},"vehicle_type_id":"4","last_reported":1769704238,"current_range_meters":7200,"station_id":"ce4bhrh2rcd13ifvqhug","pricing_plan_id":"cebpf4jnsgd1na2vs0mg"},{"bike_id":"cdf2d235-ab6c-49fc-938f-5b27de4a4a39","system_id":"levelo_inurba_marseille","lat":43.27367,"lon":5.36238,"is_reserved":false,"is_disabled":false,"rental_uris":{"android":"levelo://app?vid=cdf2d235-ab6c-49fc-938f-5b27de4a4a39","ios":"levelo://app?vid=cdf2d235-ab6c-49fc-938f-5b27de4a4a39"},"vehicle_type_id":"4","last_reported":1769704238,"current_range_meters":7200,"station_id":"ce4bhbh2rcd13ifvqeo0","pricing_plan_id":"cebpf4jnsgd1na2vs0mg"},{"bike_id":"5a5070bd-16de-4246-b119-9edc6b7db571","system_id":"levelo_inurba_marseille","lat":43.31165,"lon":5.38722,"is_reserved":false,"is_disabled":false,"rental_uris":{"android":"levelo://app?vid=5a5070bd-16de-4246-b119-9edc6b7db571","ios":"levelo://app?vid=5a5070bd-16de-4246-b119-9edc6b7db571"},"vehicle_type_id":"4","last_reported":1769704238,"current_range_meters":7200,"station_id":"ce4bgv12rcd13ifvqcp0","pricing_plan_id":"cebpf4jnsgd1na2vs0mg"},{"bike_id":"26fc05d2-e1d5-4331-aaae-0ac9ee1a9237","system_id":"levelo_inurba_marseille","lat":43.28613,"lon":5.35103,"is_reserved":false,"is_disabled":false,"rental_uris":{"android":"levelo://app?vid=26fc05d2-e1d5-4331-aaae-0ac9ee1a9237","ios":"levelo://app?vid=26fc05d2-e1d5-4331-aaae-0ac9ee1a9237"},"vehicle_type_id":"4","last_reported":1769704238,"current_range_meters":7200,"station_id":"ce4bhch2rcd13ifvqeug","pricing_plan_id":"cebpf4jnsgd1na2vs0mg"},{"bike_id":"beb52827-50f9-486c-a802-c22b54cf23fb","system_id":"levelo_inurba_marseille","lat":43.27562,"lon":5.38446,"is_reserved":false,"is_disabled":false,"rental_uris":{"android":"levelo://app?vid=beb52827-50f9-486c-a802-c22b54cf23fb","ios":"levelo://app?vid=beb52827-50f9-486c-a802-c22b54cf23fb"},"vehicle_type_id":"4","last_reported":1769704238,"current_range_meters":7200,"station_id":"ce4bhh92rcd13ifvqfi0","pricing_plan_id":"cebpf4jnsgd1na2vs0mg"},{"bike_id":"685fec42-8973-4b39-b9d6-6eb94a0e0c7a","system_id":"levelo_inurba_marseille","lat":43.25574,"lon":5.38241,"is_reserved":false,"is_disabled":false,"rental_uris":{"android":"levelo://app?vid=685fec42-8973-4b39-b9d6-6eb94a0e0c7a","ios":"levelo://app?vid=685fec42-8973-4b39-b9d6-6eb94a0e0c7a"},"vehicle_type_id":"4","last_reported":1769704238,"current_range_meters":7200,"station_id":"ce4bhih2rcd13ifvqfs0","pricing_plan_id":"cebpf4jnsgd1na2vs0mg"},{"bike_id":"2d655a97-bd06-49e9-b2b4-efa072ca5fda","system_id":"levelo_inurba_marseille","lat":43.32097,"lon":5.36704,"is_reserved":false,"is_disabled":false,"rental_uris":{"android":"levelo://app?vid=2d655a97-bd06-49e9-b2b4-efa072ca5fda","ios":"levelo://app?vid=2d655a97-bd06-49e9-b2b4-efa072ca5fda"},"vehicle_type_id":"4","last_reported":1769704238,"current_range_meters":7200,"station_id":"ce4bhrh2rcd13ifvqhug","pricing_plan_id":"cebpf4jnsgd1na2vs0mg"},{"bike_id":"ae2bd00b-86f2-42b9-8e4e-3fa74e019d82","system_id":"levelo_inurba_marseille","lat":43.23187,"lon":5.39975,"is_reserved":false,"is_disabled":false,"rental_uris":{"android":"levelo://app?vid=ae2bd00b-86f2-42b9-8e4e-3fa74e019d82","ios":"levelo://app?vid=ae2bd00b-86f2-42b9-8e4e-3fa74e019d82"},"vehicle_type_id":"4","last_reported":1769704238,"current_range_meters":7200,"station_id":"ce4bhn12rcd13ifvqgqg","pricing_plan_id":"cebpf4jnsgd1na2vs0mg"},{"bike_id":"5379144c-98c2-4180-af2f-ff55af748703","system_id":"levelo_inurba_marseille","lat":43.3358,"lon":5.41003,"is_reserved":false,"is_disabled":false,"rental_uris":{"android":"levelo://app?vid=5379144c-98c2-4180-af2f-ff55af748703","ios":"levelo://app?vid=5379144c-98c2-4180-af2f-ff55af748703"},"vehicle_type_id":"4","last_reported":1769704238,"current_range_meters":7200,"station_id":"ce4bhqh2rcd13ifvqhmg","pricing_plan_id":"cebpf4jnsgd1na2vs0mg"},{"bike_id":"dc9ee814-7f33-4fbb-a1ce-2d30e8c57914","system_id":"levelo_inurba_marseille","lat":43.22567,"lon":5.41624,"is_reserved":false,"is_disabled":false,"rental_uris":{"android":"levelo://app?vid=dc9ee814-7f33-4fbb-a1ce-2d30e8c57914","ios":"levelo://app?vid=dc9ee814-7f33-4fbb-a1ce-2d30e8c57914"},"vehicle_type_id":"4","last_reported":1769704238,"current_range_meters":7200,"station_id":"st_d2o4gvlbi1j2169b742g","pricing_plan_id":"cebpf4jnsgd1na2vs0mg"},{"bike_id":"39753960-3c7e-4e4a-acb2-25c74c17dd07","system_id":"levelo_inurba_marseille","lat":43.22928,"lon":5.35383,"is_reserved":false,"is_disabled":false,"rental_uris":{"android":"levelo://app?vid=39753960-3c7e-4e4a-acb2-25c74c17dd07","ios":"levelo://app?vid=39753960-3c7e-4e4a-acb2-25c74c17dd07"},"vehicle_type_id":"4","last_reported":1769704238,"current_range_meters":7200,"station_id":"cpo3532slgdg3j2ikp40","pricing_plan_id":"cebpf4jnsgd1na2vs0mg"},{"bike_id":"0b573ed5-a8d8-4ed5-929c-2712bbbe7afa","system_id":"levelo_inurba_marseille","lat":43.29923,"lon":5.3816,"is_reserved":false,"is_disabled":false,"rental_uris":{"android":"levelo://app?vid=0b573ed5-a8d8-4ed5-929c-2712bbbe7afa","ios":"levelo://app?vid=0b573ed5-a8d8-4ed5-929c-2712bbbe7afa"},"vehicle_type_id":"4","last_reported":1769704238,"current_range_meters":7200,"station_id":"","pricing_plan_id":"cebpf4jnsgd1na2vs0mg"},{"bike_id":"75d325c8-7485-416d-890c-7ff4d3c58d56","system_id":"levelo_inurba_marseille","lat":43.30784,"lon":5.38164,"is_reserved":false,"is_disabled":false,"rental_uris":{"android":"levelo://app?vid=75d325c8-7485-416d-890c-7ff4d3c58d56","ios":"levelo://app?vid=75d325c8-7485-416d-890c-7ff4d3c58d56"},"vehicle_type_id":"4","last_reported":1769704238,"current_range_meters":7200,"station_id":"ce4bgt12rcd13ifvqce0","pricing_plan_id":"cebpf4jnsgd1na2vs0mg"},{"bike_id":"081fa14c-ca4a-442f-8de3-b221dffe51d8","system_id":"levelo_inurba_marseille","lat":43.27989,"lon":5.41661,"is_reserved":false,"is_disabled":false,"rental_uris":{"android":"levelo://app?vid=081fa14c-ca4a-442f-8de3-b221dffe51d8","ios":"levelo://app?vid=081fa14c-ca4a-442f-8de3-b221dffe51d8"},"vehicle_type_id":"4","last_reported":1769704238,"current_range_meters":7200,"station_id":"ce4bho12rcd13ifvqh1g","pricing_plan_id":"cebpf4jnsgd1na2vs0mg"},{"bike_id":"4bd6cb39-f26e-431f-9c48-bc9838a79167","system_id":"levelo_inurba_marseille","lat":43.29784,"lon":5.44193,"is_reserved":false,"is_disabled":false,"rental_uris":{"android":"levelo://app?vid=4bd6cb39-f26e-431f-9c48-bc9838a79167","ios":"levelo://app?vid=4bd6cb39-f26e-431f-9c48-bc9838a79167"},"vehicle_type_id":"4","last_reported":1769704238,"current_range_meters":7200,"station_id":"","pricing_plan_id":"cebpf4jnsgd1na2vs0mg"},{"bike_id":"8124257b-86e4-4773-9928-40b9e517b1e7","system_id":"levelo_inurba_marseille","lat":43.24474,"lon":5.42525,"is_reserved":false,"is_disabled":false,"rental_uris":{"android":"levelo://app?vid=8124257b-86e4-4773-9928-40b9e517b1e7","ios":"levelo://app?vid=8124257b-86e4-4773-9928-40b9e517b1e7"},"vehicle_type_id":"4","last_reported":1769704238,"current_range_meters":8000,"station_id":"st_d4a3vfp97mjs738cd8kg","pricing_plan_id":"cebpf4jnsgd1na2vs0mg"},{"bike_id":"7b6d8a8b-d351-4282-bf84-c6e7865bd8af","system_id":"levelo_inurba_marseille","lat":43.24646,"lon":5.38886,"is_reserved":false,"is_disabled":false,"rental_uris":{"android":"levelo://app?vid=7b6d8a8b-d351-4282-bf84-c6e7865bd8af","ios":"levelo://app?vid=7b6d8a8b-d351-4282-bf84-c6e7865bd8af"},"vehicle_type_id":"4","last_reported":1769704238,"current_range_meters":8000,"station_id":"ce4bhg12rcd13ifvqf60","pricing_plan_id":"cebpf4jnsgd1na2vs0mg"},{"bike_id":"c1e56def-2d7c-4e93-b918-3096a8beff38","system_id":"levelo_inurba_marseille","lat":43.3127,"lon":5.36898,"is_reserved":false,"is_disabled":false,"rental_uris":{"android":"levelo://app?vid=c1e56def-2d7c-4e93-b918-3096a8beff38","ios":"levelo://app?vid=c1e56def-2d7c-4e93-b918-3096a8beff38"},"vehicle_type_id":"4","last_reported":1769704238,"current_range_meters":8000,"station_id":"ce4bgl92rcd13ifvqbq0","pricing_plan_id":"cebpf4jnsgd1na2vs0mg"},{"bike_id":"15928e4e-4573-4968-8dbf-9306067a5743","system_id":"levelo_inurba_marseille","lat":43.24654,"lon":5.43122,"is_reserved":false,"is_disabled":false,"rental_uris":{"android":"levelo://app?vid=15928e4e-4573-4968-8dbf-9306067a5743","ios":"levelo://app?vid=15928e4e-4573-4968-8dbf-9306067a5743"},"vehicle_type_id":"4","last_reported":1769704238,"current_range_meters":8000,"station_id":"st_d2m6c4gdas8pm72e190g","pricing_plan_id":"cebpf4jnsgd1na2vs0mg"},{"bike_id":"243bc676-4ace-4a7c-9408-aff97e0a35b7","system_id":"levelo_inurba_marseille","lat":43.26785,"lon":5.39417,"is_reserved":false,"is_disabled":false,"rental_uris":{"android":"levelo://app?vid=243bc676-4ace-4a7c-9408-aff97e0a35b7","ios":"levelo://app?vid=243bc676-4ace-4a7c-9408-aff97e0a35b7"},"vehicle_type_id":"4","last_reported":1769704238,"current_range_meters":8000,"station_id":"ce4bhh12rcd13ifvqfg0","pricing_plan_id":"cebpf4jnsgd1na2vs0mg"},{"bike_id":"6d463587-3df4-4665-b124-967bacab8bbe","system_id":"levelo_inurba_marseille","lat":43.28612,"lon":5.35082,"is_reserved":false,"is_disabled":false,"rental_uris":{"android":"levelo://app?vid=6d463587-3df4-4665-b124-967bacab8bbe","ios":"levelo://app?vid=6d463587-3df4-4665-b124-967bacab8bbe"},"vehicle_type_id":"4","last_reported":1769704238,"current_range_meters":8000,"station_id":"ce4bhch2rcd13ifvqeug","pricing_plan_id":"cebpf4jnsgd1na2vs0mg"},{"bike_id":"52c6363b-7413-4b9d-a19e-fd2102af5421","system_id":"levelo_inurba_marseille","lat":43.26564,"lon":5.40329,"is_reserved":false,"is_disabled":false,"rental_uris":{"android":"levelo://app?vid=52c6363b-7413-4b9d-a19e-fd2102af5421","ios":"levelo://app?vid=52c6363b-7413-4b9d-a19e-fd2102af5421"},"vehicle_type_id":"4","last_reported":1769704238,"current_range_meters":8000,"station_id":"ce4bhmp2rcd13ifvqgng","pricing_plan_id":"cebpf4jnsgd1na2vs0mg"},{"bike_id":"220b3d55-fc4f-4dba-98c1-e5f4dced2541","system_id":"levelo_inurba_marseille","lat":43.26554,"lon":5.37285,"is_reserved":false,"is_disabled":false,"rental_uris":{"android":"levelo://app?vid=220b3d55-fc4f-4dba-98c1-e5f4dced2541","ios":"levelo://app?vid=220b3d55-fc4f-4dba-98c1-e5f4dced2541"},"vehicle_type_id":"4","last_reported":1769704238,"current_range_meters":8000,"station_id":"ce4bhg12rcd13ifvqf70","pricing_plan_id":"cebpf4jnsgd1na2vs0mg"},{"bike_id":"28bcb9d8-af7e-4e97-808c-cc7b21fe1431","system_id":"levelo_inurba_marseille","lat":43.225693,"lon":5.416195,"is_reserved":false,"is_disabled":false,"rental_uris":{"android":"levelo://app?vid=28bcb9d8-af7e-4e97-808c-cc7b21fe1431","ios":"levelo://app?vid=28bcb9d8-af7e-4e97-808c-cc7b21fe1431"},"vehicle_type_id":"4","last_reported":1769704238,"current_range_meters":8000,"station_id":"st_d2o4gvlbi1j2169b742g","pricing_plan_id":"cebpf4jnsgd1na2vs0mg"},{"bike_id":"71ea06b7-46c1-4fc9-a594-153d92364656","system_id":"levelo_inurba_marseille","lat":43.30717,"lon":5.40964,"is_reserved":false,"is_disabled":false,"rental_uris":{"android":"levelo://app?vid=71ea06b7-46c1-4fc9-a594-153d92364656","ios":"levelo://app?vid=71ea06b7-46c1-4fc9-a594-153d92364656"},"vehicle_type_id":"4","last_reported":1769704238,"current_range_meters":8000,"station_id":"","pricing_plan_id":"cebpf4jnsgd1na2vs0mg"},{"bike_id":"546d524a-128a-4e22-a3a9-72f5ef24036b","system_id":"levelo_inurba_marseille","lat":43.26943,"lon":5.38895,"is_reserved":false,"is_disabled":false,"rental_uris":{"android":"levelo://app?vid=546d524a-128a-4e22-a3a9-72f5ef24036b","ios":"levelo://app?vid=546d524a-128a-4e22-a3a9-72f5ef24036b"},"vehicle_type_id":"4","last_reported":1769704238,"current_range_meters":8000,"station_id":"ce4bhhh2rcd13ifvqfl0","pricing_plan_id":"cebpf4jnsgd1na2vs0mg"},{"bike_id":"d6cf163d-52c4-426a-aaf1-5e501ca5e9ab","system_id":"levelo_inurba_marseille","lat":43.25339,"lon":5.42167,"is_reserved":false,"is_disabled":false,"rental_uris":{"android":"levelo://app?vid=d6cf163d-52c4-426a-aaf1-5e501ca5e9ab","ios":"levelo://app?vid=d6cf163d-52c4-426a-aaf1-5e501ca5e9ab"},"vehicle_type_id":"4","last_reported":1769704238,"current_range_meters":8000,"station_id":"st_d2m65c5bi1j21697t3ng","pricing_plan_id":"cebpf4jnsgd1na2vs0mg"},{"bike_id":"284a53c0-3723-4849-a673-5dddd5bb4a3f","system_id":"levelo_inurba_marseille","lat":43.30262,"lon":5.38116,"is_reserved":false,"is_disabled":false,"rental_uris":{"android":"levelo://app?vid=284a53c0-3723-4849-a673-5dddd5bb4a3f","ios":"levelo://app?vid=284a53c0-3723-4849-a673-5dddd5bb4a3f"},"vehicle_type_id":"4","last_reported":1769704238,"current_range_meters":8000,"station_id":"","pricing_plan_id":"cebpf4jnsgd1na2vs0mg"},{"bike_id":"cd8d88ab-a008-49a2-a8b4-e0d4155a77b0","system_id":"levelo_inurba_marseille","lat":43.23778,"lon":5.3663,"is_reserved":false,"is_disabled":false,"rental_uris":{"android":"levelo://app?vid=cd8d88ab-a008-49a2-a8b4-e0d4155a77b0","ios":"levelo://app?vid=cd8d88ab-a008-49a2-a8b4-e0d4155a77b0"},"vehicle_type_id":"4","last_reported":1769704238,"current_range_meters":8000,"station_id":"st_d3nk18o9ro0c73en2l3g","pricing_plan_id":"cebpf4jnsgd1na2vs0mg"},{"bike_id":"33f3d384-abd0-4303-afce-4077564c5ec0","system_id":"levelo_inurba_marseille","lat":43.29759,"lon":5.42748,"is_reserved":false,"is_disabled":false,"rental_uris":{"android":"levelo://app?vid=33f3d384-abd0-4303-afce-4077564c5ec0","ios":"levelo://app?vid=33f3d384-abd0-4303-afce-4077564c5ec0"},"vehicle_type_id":"4","last_reported":1769704238,"current_range_meters":8000,"station_id":"st_d3md5207bmas73dh9klg","pricing_plan_id":"cebpf4jnsgd1na2vs0mg"},{"bike_id":"ef68bdf9-fa71-483b-bc99-7f9581830aca","system_id":"levelo_inurba_marseille","lat":43.305885,"lon":5.367372,"is_reserved":false,"is_disabled":false,"rental_uris":{"android":"levelo://app?vid=ef68bdf9-fa71-483b-bc99-7f9581830aca","ios":"levelo://app?vid=ef68bdf9-fa71-483b-bc99-7f9581830aca"},"vehicle_type_id":"4","last_reported":1769704238,"current_range_meters":8400,"station_id":"","pricing_plan_id":"cebpf4jnsgd1na2vs0mg"},{"bike_id":"ba4f6c0d-c0a8-4c21-9308-a4e81ac5d5b4","system_id":"levelo_inurba_marseille","lat":43.30926,"lon":5.36856,"is_reserved":false,"is_disabled":false,"rental_uris":{"android":"levelo://app?vid=ba4f6c0d-c0a8-4c21-9308-a4e81ac5d5b4","ios":"levelo://app?vid=ba4f6c0d-c0a8-4c21-9308-a4e81ac5d5b4"},"vehicle_type_id":"4","last_reported":1769704238,"current_range_meters":8400,"station_id":"ce4bgn92rcd13ifvqbvg","pricing_plan_id":"cebpf4jnsgd1na2vs0mg"},{"bike_id":"aa753bb7-bd6b-47c5-ab34-4be181563e55","system_id":"levelo_inurba_marseille","lat":43.31055,"lon":5.37179,"is_reserved":false,"is_disabled":false,"rental_uris":{"android":"levelo://app?vid=aa753bb7-bd6b-47c5-ab34-4be181563e55","ios":"levelo://app?vid=aa753bb7-bd6b-47c5-ab34-4be181563e55"},"vehicle_type_id":"4","last_reported":1769704238,"current_range_meters":8400,"station_id":"st_d4kl2rp97mjs73e7tdfg","pricing_plan_id":"cebpf4jnsgd1na2vs0mg"},{"bike_id":"82693396-ff61-48ee-9772-fee51d6503d4","system_id":"levelo_inurba_marseille","lat":43.29552,"lon":5.42284,"is_reserved":false,"is_disabled":false,"rental_uris":{"android":"levelo://app?vid=82693396-ff61-48ee-9772-fee51d6503d4","ios":"levelo://app?vid=82693396-ff61-48ee-9772-fee51d6503d4"},"vehicle_type_id":"4","last_reported":1769704238,"current_range_meters":8400,"station_id":"ce4bhph2rcd13ifvqhdg","pricing_plan_id":"cebpf4jnsgd1na2vs0mg"},{"bike_id":"83a4e1d2-5f71-4b5a-bd57-96f3c4c0826c","system_id":"levelo_inurba_marseille","lat":43.2315,"lon":5.43723,"is_reserved":false,"is_disabled":false,"rental_uris":{"android":"levelo://app?vid=83a4e1d2-5f71-4b5a-bd57-96f3c4c0826c","ios":"levelo://app?vid=83a4e1d2-5f71-4b5a-bd57-96f3c4c0826c"},"vehicle_type_id":"4","last_reported":1769704238,"current_range_meters":8400,"station_id":"ce4bhmp2rcd13ifvqgog","pricing_plan_id":"cebpf4jnsgd1na2vs0mg"},{"bike_id":"83bbeac1-b4c2-4835-91cb-013728be84c8","system_id":"levelo_inurba_marseille","lat":43.29939,"lon":5.3906,"is_reserved":false,"is_disabled":true,"rental_uris":{"android":"levelo://app?vid=83bbeac1-b4c2-4835-91cb-013728be84c8","ios":"levelo://app?vid=83bbeac1-b4c2-4835-91cb-013728be84c8"},"vehicle_type_id":"4","last_reported":1769704238,"current_range_meters":8400,"station_id":"","pricing_plan_id":"cebpf4jnsgd1na2vs0mg"},{"bike_id":"6a0e40e4-3258-4516-885d-71d0968e64ad","system_id":"levelo_inurba_marseille","lat":43.23064,"lon":5.35495,"is_reserved":false,"is_disabled":false,"rental_uris":{"android":"levelo://app?vid=6a0e40e4-3258-4516-885d-71d0968e64ad","ios":"levelo://app?vid=6a0e40e4-3258-4516-885d-71d0968e64ad"},"vehicle_type_id":"4","last_reported":1769704238,"current_range_meters":8400,"station_id":"cpo3342slgdg3j2ifvpg","pricing_plan_id":"cebpf4jnsgd1na2vs0mg"},{"bike_id":"0edb73c2-0d71-41ef-92a0-39c6197600e4","system_id":"levelo_inurba_marseille","lat":43.27065,"lon":5.38308,"is_reserved":false,"is_disabled":false,"rental_uris":{"android":"levelo://app?vid=0edb73c2-0d71-41ef-92a0-39c6197600e4","ios":"levelo://app?vid=0edb73c2-0d71-41ef-92a0-39c6197600e4"},"vehicle_type_id":"4","last_reported":1769704238,"current_range_meters":8400,"station_id":"st_d3n2fo6cfp8s73cte1j0","pricing_plan_id":"cebpf4jnsgd1na2vs0mg"},{"bike_id":"74f15e47-3367-473d-b70d-51b716edacba","system_id":"levelo_inurba_marseille","lat":43.30533,"lon":5.36517,"is_reserved":false,"is_disabled":false,"rental_uris":{"android":"levelo://app?vid=74f15e47-3367-473d-b70d-51b716edacba","ios":"levelo://app?vid=74f15e47-3367-473d-b70d-51b716edacba"},"vehicle_type_id":"4","last_reported":1769704238,"current_range_meters":8400,"station_id":"ce4bgs12rcd13ifvqcag","pricing_plan_id":"cebpf4jnsgd1na2vs0mg"},{"bike_id":"8e21dae8-640f-4a12-8e09-9b416cfcaa66","system_id":"levelo_inurba_marseille","lat":43.2861,"lon":5.35112,"is_reserved":false,"is_disabled":false,"rental_uris":{"android":"levelo://app?vid=8e21dae8-640f-4a12-8e09-9b416cfcaa66","ios":"levelo://app?vid=8e21dae8-640f-4a12-8e09-9b416cfcaa66"},"vehicle_type_id":"4","last_reported":1769704238,"current_range_meters":8400,"station_id":"ce4bhch2rcd13ifvqeug","pricing_plan_id":"cebpf4jnsgd1na2vs0mg"},{"bike_id":"e1dfd6cc-9ffa-4d33-8db0-13aa4089e909","system_id":"levelo_inurba_marseille","lat":43.27202,"lon":5.39184,"is_reserved":false,"is_disabled":false,"rental_uris":{"android":"levelo://app?vid=e1dfd6cc-9ffa-4d33-8db0-13aa4089e909","ios":"levelo://app?vid=e1dfd6cc-9ffa-4d33-8db0-13aa4089e909"},"vehicle_type_id":"4","last_reported":1769704238,"current_range_meters":8400,"station_id":"ce4bhhp2rcd13ifvqfm0","pricing_plan_id":"cebpf4jnsgd1na2vs0mg"},{"bike_id":"bd551aec-24c2-4aba-b573-e89c13f76575","system_id":"levelo_inurba_marseille","lat":43.255756,"lon":5.382324,"is_reserved":false,"is_disabled":false,"rental_uris":{"android":"levelo://app?vid=bd551aec-24c2-4aba-b573-e89c13f76575","ios":"levelo://app?vid=bd551aec-24c2-4aba-b573-e89c13f76575"},"vehicle_type_id":"4","last_reported":1769704238,"current_range_meters":8400,"station_id":"ce4bhih2rcd13ifvqfs0","pricing_plan_id":"cebpf4jnsgd1na2vs0mg"},{"bike_id":"af654c71-a67d-46af-bf40-a020e2f3bf53","system_id":"levelo_inurba_marseille","lat":43.25023,"lon":5.3891,"is_reserved":false,"is_disabled":false,"rental_uris":{"android":"levelo://app?vid=af654c71-a67d-46af-bf40-a020e2f3bf53","ios":"levelo://app?vid=af654c71-a67d-46af-bf40-a020e2f3bf53"},"vehicle_type_id":"4","last_reported":1769704238,"current_range_meters":8400,"station_id":"ce4bhgp2rcd13ifvqfd0","pricing_plan_id":"cebpf4jnsgd1na2vs0mg"},{"bike_id":"709ae6fb-5071-48f0-aeb0-8953b25c05db","system_id":"levelo_inurba_marseille","lat":43.30575,"lon":5.43007,"is_reserved":false,"is_disabled":false,"rental_uris":{"android":"levelo://app?vid=709ae6fb-5071-48f0-aeb0-8953b25c05db","ios":"levelo://app?vid=709ae6fb-5071-48f0-aeb0-8953b25c05db"},"vehicle_type_id":"4","last_reported":1769704238,"current_range_meters":8400,"station_id":"","pricing_plan_id":"cebpf4jnsgd1na2vs0mg"},{"bike_id":"277fc074-133c-4155-bb24-2028b8436137","system_id":"levelo_inurba_marseille","lat":43.30279,"lon":5.37704,"is_reserved":false,"is_disabled":false,"rental_uris":{"android":"levelo://app?vid=277fc074-133c-4155-bb24-2028b8436137","ios":"levelo://app?vid=277fc074-133c-4155-bb24-2028b8436137"},"vehicle_type_id":"4","last_reported":1769704238,"current_range_meters":8400,"station_id":"ce4bguh2rcd13ifvqcj0","pricing_plan_id":"cebpf4jnsgd1na2vs0mg"},{"bike_id":"983ec05a-2006-43a3-95ce-0344c1f071a0","system_id":"levelo_inurba_marseille","lat":43.26197,"lon":5.37931,"is_reserved":false,"is_disabled":false,"rental_uris":{"android":"levelo://app?vid=983ec05a-2006-43a3-95ce-0344c1f071a0","ios":"levelo://app?vid=983ec05a-2006-43a3-95ce-0344c1f071a0"},"vehicle_type_id":"4","last_reported":1769704238,"current_range_meters":8400,"station_id":"ce4bhjp2rcd13ifvqg90","pricing_plan_id":"cebpf4jnsgd1na2vs0mg"},{"bike_id":"1df32dff-5611-415d-8fae-817c467a81ff","system_id":"levelo_inurba_marseille","lat":43.23055,"lon":5.35496,"is_reserved":false,"is_disabled":false,"rental_uris":{"android":"levelo://app?vid=1df32dff-5611-415d-8fae-817c467a81ff","ios":"levelo://app?vid=1df32dff-5611-415d-8fae-817c467a81ff"},"vehicle_type_id":"4","last_reported":1769704238,"current_range_meters":8400,"station_id":"cpo3342slgdg3j2ifvpg","pricing_plan_id":"cebpf4jnsgd1na2vs0mg"},{"bike_id":"3442a305-268c-46d3-aa1f-2161382baae7","system_id":"levelo_inurba_marseille","lat":43.31286,"lon":5.40166,"is_reserved":false,"is_disabled":false,"rental_uris":{"android":"levelo://app?vid=3442a305-268c-46d3-aa1f-2161382baae7","ios":"levelo://app?vid=3442a305-268c-46d3-aa1f-2161382baae7"},"vehicle_type_id":"4","last_reported":1769704238,"current_range_meters":8400,"station_id":"ce4bh092rcd13ifvqd30","pricing_plan_id":"cebpf4jnsgd1na2vs0mg"},{"bike_id":"cc37f8b9-bc9a-4018-8b37-7139a8aea4dc","system_id":"levelo_inurba_marseille","lat":43.25189,"lon":5.39548,"is_reserved":false,"is_disabled":false,"rental_uris":{"android":"levelo://app?vid=cc37f8b9-bc9a-4018-8b37-7139a8aea4dc","ios":"levelo://app?vid=cc37f8b9-bc9a-4018-8b37-7139a8aea4dc"},"vehicle_type_id":"4","last_reported":1769704238,"current_range_meters":8800,"station_id":"","pricing_plan_id":"cebpf4jnsgd1na2vs0mg"},{"bike_id":"83fc5387-9bd8-4dec-804d-abfa877a86a6","system_id":"levelo_inurba_marseille","lat":43.29824,"lon":5.44097,"is_reserved":false,"is_disabled":false,"rental_uris":{"android":"levelo://app?vid=83fc5387-9bd8-4dec-804d-abfa877a86a6","ios":"levelo://app?vid=83fc5387-9bd8-4dec-804d-abfa877a86a6"},"vehicle_type_id":"4","last_reported":1769704238,"current_range_meters":8800,"station_id":"","pricing_plan_id":"cebpf4jnsgd1na2vs0mg"},{"bike_id":"bd889336-68ff-4f09-8c88-588306cf9fc6","system_id":"levelo_inurba_marseille","lat":43.27029,"lon":5.40319,"is_reserved":false,"is_disabled":false,"rental_uris":{"android":"levelo://app?vid=bd889336-68ff-4f09-8c88-588306cf9fc6","ios":"levelo://app?vid=bd889336-68ff-4f09-8c88-588306cf9fc6"},"vehicle_type_id":"4","last_reported":1769704238,"current_range_meters":8800,"station_id":"","pricing_plan_id":"cebpf4jnsgd1na2vs0mg"},{"bike_id":"f77f11ea-c57f-4a1e-b998-1859acb2e91b","system_id":"levelo_inurba_marseille","lat":43.28614,"lon":5.35099,"is_reserved":false,"is_disabled":false,"rental_uris":{"android":"levelo://app?vid=f77f11ea-c57f-4a1e-b998-1859acb2e91b","ios":"levelo://app?vid=f77f11ea-c57f-4a1e-b998-1859acb2e91b"},"vehicle_type_id":"4","last_reported":1769704238,"current_range_meters":8800,"station_id":"ce4bhch2rcd13ifvqeug","pricing_plan_id":"cebpf4jnsgd1na2vs0mg"},{"bike_id":"19d683cf-05e9-434a-b587-af5793fe2201","system_id":"levelo_inurba_marseille","lat":43.30913,"lon":5.36854,"is_reserved":false,"is_disabled":false,"rental_uris":{"android":"levelo://app?vid=19d683cf-05e9-434a-b587-af5793fe2201","ios":"levelo://app?vid=19d683cf-05e9-434a-b587-af5793fe2201"},"vehicle_type_id":"4","last_reported":1769704238,"current_range_meters":8800,"station_id":"ce4bgn92rcd13ifvqbvg","pricing_plan_id":"cebpf4jnsgd1na2vs0mg"},{"bike_id":"ec911151-785b-471f-816f-85abb26c2bab","system_id":"levelo_inurba_marseille","lat":43.32338,"lon":5.3673,"is_reserved":false,"is_disabled":false,"rental_uris":{"android":"levelo://app?vid=ec911151-785b-471f-816f-85abb26c2bab","ios":"levelo://app?vid=ec911151-785b-471f-816f-85abb26c2bab"},"vehicle_type_id":"4","last_reported":1769704238,"current_range_meters":8800,"station_id":"ce4bhsh2rcd13ifvqi2g","pricing_plan_id":"cebpf4jnsgd1na2vs0mg"},{"bike_id":"5417ecf1-5c28-449a-a086-27acd88e9f4e","system_id":"levelo_inurba_marseille","lat":43.2119,"lon":5.35078,"is_reserved":false,"is_disabled":false,"rental_uris":{"android":"levelo://app?vid=5417ecf1-5c28-449a-a086-27acd88e9f4e","ios":"levelo://app?vid=5417ecf1-5c28-449a-a086-27acd88e9f4e"},"vehicle_type_id":"4","last_reported":1769704238,"current_range_meters":8800,"station_id":"st_cvj6sg6p6f1abm77japg","pricing_plan_id":"cebpf4jnsgd1na2vs0mg"},{"bike_id":"b93f36af-6012-4250-a69f-3de373ca3510","system_id":"levelo_inurba_marseille","lat":43.28269,"lon":5.35066,"is_reserved":false,"is_disabled":false,"rental_uris":{"android":"levelo://app?vid=b93f36af-6012-4250-a69f-3de373ca3510","ios":"levelo://app?vid=b93f36af-6012-4250-a69f-3de373ca3510"},"vehicle_type_id":"4","last_reported":1769704238,"current_range_meters":8800,"station_id":"ce4bhbp2rcd13ifvqerg","pricing_plan_id":"cebpf4jnsgd1na2vs0mg"},{"bike_id":"acdf5bcb-9cd1-45fa-a46e-2cb6395ebb21","system_id":"levelo_inurba_marseille","lat":43.24386,"lon":5.37056,"is_reserved":false,"is_disabled":false,"rental_uris":{"android":"levelo://app?vid=acdf5bcb-9cd1-45fa-a46e-2cb6395ebb21","ios":"levelo://app?vid=acdf5bcb-9cd1-45fa-a46e-2cb6395ebb21"},"vehicle_type_id":"4","last_reported":1769704238,"current_range_meters":8800,"station_id":"ce4bhhh2rcd13ifvqfk0","pricing_plan_id":"cebpf4jnsgd1na2vs0mg"},{"bike_id":"43108044-4682-404d-830f-a43f6f0d82ce","system_id":"levelo_inurba_marseille","lat":43.2315,"lon":5.43722,"is_reserved":false,"is_disabled":false,"rental_uris":{"android":"levelo://app?vid=43108044-4682-404d-830f-a43f6f0d82ce","ios":"levelo://app?vid=43108044-4682-404d-830f-a43f6f0d82ce"},"vehicle_type_id":"4","last_reported":1769704238,"current_range_meters":8800,"station_id":"ce4bhmp2rcd13ifvqgog","pricing_plan_id":"cebpf4jnsgd1na2vs0mg"},{"bike_id":"f3239b9e-e657-464c-a0ef-641807cec97c","system_id":"levelo_inurba_marseille","lat":43.31364,"lon":5.38475,"is_reserved":false,"is_disabled":false,"rental_uris":{"android":"levelo://app?vid=f3239b9e-e657-464c-a0ef-641807cec97c","ios":"levelo://app?vid=f3239b9e-e657-464c-a0ef-641807cec97c"},"vehicle_type_id":"4","last_reported":1769704238,"current_range_meters":8800,"station_id":"ce4bgt92rcd13ifvqcf0","pricing_plan_id":"cebpf4jnsgd1na2vs0mg"},{"bike_id":"9a236fca-75ff-411c-bb2a-afc86c1efe94","system_id":"levelo_inurba_marseille","lat":43.29934,"lon":5.36499,"is_reserved":false,"is_disabled":false,"rental_uris":{"android":"levelo://app?vid=9a236fca-75ff-411c-bb2a-afc86c1efe94","ios":"levelo://app?vid=9a236fca-75ff-411c-bb2a-afc86c1efe94"},"vehicle_type_id":"4","last_reported":1769704238,"current_range_meters":8800,"station_id":"ce4bgm92rcd13ifvqbr0","pricing_plan_id":"cebpf4jnsgd1na2vs0mg"},{"bike_id":"0e17a4ec-0e71-4058-9a60-773dbed12374","system_id":"levelo_inurba_marseille","lat":43.27619,"lon":5.36116,"is_reserved":false,"is_disabled":false,"rental_uris":{"android":"levelo://app?vid=0e17a4ec-0e71-4058-9a60-773dbed12374","ios":"levelo://app?vid=0e17a4ec-0e71-4058-9a60-773dbed12374"},"vehicle_type_id":"4","last_reported":1769704238,"current_range_meters":8800,"station_id":"ce4bgj92rcd13ifvqbe0","pricing_plan_id":"cebpf4jnsgd1na2vs0mg"},{"bike_id":"78b2735b-b998-48ea-8cb8-e29e9f1c1050","system_id":"levelo_inurba_marseille","lat":43.31362,"lon":5.38495,"is_reserved":false,"is_disabled":false,"rental_uris":{"android":"levelo://app?vid=78b2735b-b998-48ea-8cb8-e29e9f1c1050","ios":"levelo://app?vid=78b2735b-b998-48ea-8cb8-e29e9f1c1050"},"vehicle_type_id":"4","last_reported":1769704238,"current_range_meters":8800,"station_id":"ce4bgt92rcd13ifvqcf0","pricing_plan_id":"cebpf4jnsgd1na2vs0mg"},{"bike_id":"2db3e4ff-a0f9-45a2-8cc0-02e9b0439c10","system_id":"levelo_inurba_marseille","lat":43.31212,"lon":5.36896,"is_reserved":false,"is_disabled":false,"rental_uris":{"android":"levelo://app?vid=2db3e4ff-a0f9-45a2-8cc0-02e9b0439c10","ios":"levelo://app?vid=2db3e4ff-a0f9-45a2-8cc0-02e9b0439c10"},"vehicle_type_id":"4","last_reported":1769704238,"current_range_meters":8800,"station_id":"ce4bgl92rcd13ifvqbq0","pricing_plan_id":"cebpf4jnsgd1na2vs0mg"},{"bike_id":"e04521ca-ce5b-4911-93eb-efa07b2cc503","system_id":"levelo_inurba_marseille","lat":43.29499,"lon":5.43302,"is_reserved":false,"is_disabled":false,"rental_uris":{"android":"levelo://app?vid=e04521ca-ce5b-4911-93eb-efa07b2cc503","ios":"levelo://app?vid=e04521ca-ce5b-4911-93eb-efa07b2cc503"},"vehicle_type_id":"4","last_reported":1769704238,"current_range_meters":8800,"station_id":"st_d3j5ugp08ojc73fj9d10","pricing_plan_id":"cebpf4jnsgd1na2vs0mg"},{"bike_id":"3dc504de-340a-4960-9295-e93227b46b5e","system_id":"levelo_inurba_marseille","lat":43.32102,"lon":5.36801,"is_reserved":false,"is_disabled":false,"rental_uris":{"android":"levelo://app?vid=3dc504de-340a-4960-9295-e93227b46b5e","ios":"levelo://app?vid=3dc504de-340a-4960-9295-e93227b46b5e"},"vehicle_type_id":"4","last_reported":1769704238,"current_range_meters":8800,"station_id":"ce4bhrh2rcd13ifvqhug","pricing_plan_id":"cebpf4jnsgd1na2vs0mg"},{"bike_id":"51a381d7-92b7-404a-b0f5-2fffa4e9a87f","system_id":"levelo_inurba_marseille","lat":43.30436,"lon":5.38884,"is_reserved":false,"is_disabled":false,"rental_uris":{"android":"levelo://app?vid=51a381d7-92b7-404a-b0f5-2fffa4e9a87f","ios":"levelo://app?vid=51a381d7-92b7-404a-b0f5-2fffa4e9a87f"},"vehicle_type_id":"4","last_reported":1769704238,"current_range_meters":8800,"station_id":"ce4bgk12rcd13ifvqbi0","pricing_plan_id":"cebpf4jnsgd1na2vs0mg"},{"bike_id":"486825c5-5637-4fc9-ae91-9f20260dfb8e","system_id":"levelo_inurba_marseille","lat":43.3009,"lon":5.39068,"is_reserved":false,"is_disabled":false,"rental_uris":{"android":"levelo://app?vid=486825c5-5637-4fc9-ae91-9f20260dfb8e","ios":"levelo://app?vid=486825c5-5637-4fc9-ae91-9f20260dfb8e"},"vehicle_type_id":"4","last_reported":1769704238,"current_range_meters":8800,"station_id":"ce4bh192rcd13ifvqdb0","pricing_plan_id":"cebpf4jnsgd1na2vs0mg"},{"bike_id":"b3808154-86af-47d0-966c-f1cc0984587d","system_id":"levelo_inurba_marseille","lat":43.33752,"lon":5.37486,"is_reserved":false,"is_disabled":false,"rental_uris":{"android":"levelo://app?vid=b3808154-86af-47d0-966c-f1cc0984587d","ios":"levelo://app?vid=b3808154-86af-47d0-966c-f1cc0984587d"},"vehicle_type_id":"4","last_reported":1769704238,"current_range_meters":8800,"station_id":"","pricing_plan_id":"cebpf4jnsgd1na2vs0mg"},{"bike_id":"456727bd-baa8-41bf-ae9f-158a99ff9411","system_id":"levelo_inurba_marseille","lat":43.22569,"lon":5.41632,"is_reserved":false,"is_disabled":false,"rental_uris":{"android":"levelo://app?vid=456727bd-baa8-41bf-ae9f-158a99ff9411","ios":"levelo://app?vid=456727bd-baa8-41bf-ae9f-158a99ff9411"},"vehicle_type_id":"4","last_reported":1769704238,"current_range_meters":9200,"station_id":"st_d2o4gvlbi1j2169b742g","pricing_plan_id":"cebpf4jnsgd1na2vs0mg"},{"bike_id":"6f2111dd-6b6a-402c-9729-62f7313dcc5e","system_id":"levelo_inurba_marseille","lat":43.323524,"lon":5.367517,"is_reserved":false,"is_disabled":false,"rental_uris":{"android":"levelo://app?vid=6f2111dd-6b6a-402c-9729-62f7313dcc5e","ios":"levelo://app?vid=6f2111dd-6b6a-402c-9729-62f7313dcc5e"},"vehicle_type_id":"4","last_reported":1769704238,"current_range_meters":9200,"station_id":"ce4bhsh2rcd13ifvqi2g","pricing_plan_id":"cebpf4jnsgd1na2vs0mg"},{"bike_id":"2626a307-09e6-4806-8747-64c64cf9b162","system_id":"levelo_inurba_marseille","lat":43.24463,"lon":5.42544,"is_reserved":false,"is_disabled":false,"rental_uris":{"android":"levelo://app?vid=2626a307-09e6-4806-8747-64c64cf9b162","ios":"levelo://app?vid=2626a307-09e6-4806-8747-64c64cf9b162"},"vehicle_type_id":"4","last_reported":1769704238,"current_range_meters":9200,"station_id":"st_d4a3vfp97mjs738cd8kg","pricing_plan_id":"cebpf4jnsgd1na2vs0mg"},{"bike_id":"10b424c6-99ba-423a-9370-8bef633fb2cb","system_id":"levelo_inurba_marseille","lat":43.25209,"lon":5.38059,"is_reserved":false,"is_disabled":false,"rental_uris":{"android":"levelo://app?vid=10b424c6-99ba-423a-9370-8bef633fb2cb","ios":"levelo://app?vid=10b424c6-99ba-423a-9370-8bef633fb2cb"},"vehicle_type_id":"4","last_reported":1769704238,"current_range_meters":9200,"station_id":"","pricing_plan_id":"cebpf4jnsgd1na2vs0mg"},{"bike_id":"56bd7918-9fe9-4188-8a8c-d66177362ce1","system_id":"levelo_inurba_marseille","lat":43.26192,"lon":5.37451,"is_reserved":false,"is_disabled":false,"rental_uris":{"android":"levelo://app?vid=56bd7918-9fe9-4188-8a8c-d66177362ce1","ios":"levelo://app?vid=56bd7918-9fe9-4188-8a8c-d66177362ce1"},"vehicle_type_id":"4","last_reported":1769704238,"current_range_meters":9200,"station_id":"ce4bhgp2rcd13ifvqfc0","pricing_plan_id":"cebpf4jnsgd1na2vs0mg"},{"bike_id":"a2a80d9f-acf6-479e-a0e0-8a7219ba145e","system_id":"levelo_inurba_marseille","lat":43.2939,"lon":5.38349,"is_reserved":false,"is_disabled":false,"rental_uris":{"android":"levelo://app?vid=a2a80d9f-acf6-479e-a0e0-8a7219ba145e","ios":"levelo://app?vid=a2a80d9f-acf6-479e-a0e0-8a7219ba145e"},"vehicle_type_id":"4","last_reported":1769704238,"current_range_meters":9200,"station_id":"","pricing_plan_id":"cebpf4jnsgd1na2vs0mg"},{"bike_id":"f7ad364f-2078-4f65-a89f-0f7244e8078d","system_id":"levelo_inurba_marseille","lat":43.26682,"lon":5.3827,"is_reserved":false,"is_disabled":false,"rental_uris":{"android":"levelo://app?vid=f7ad364f-2078-4f65-a89f-0f7244e8078d","ios":"levelo://app?vid=f7ad364f-2078-4f65-a89f-0f7244e8078d"},"vehicle_type_id":"4","last_reported":1769704238,"current_range_meters":9200,"station_id":"ce4bhg92rcd13ifvqf90","pricing_plan_id":"cebpf4jnsgd1na2vs0mg"},{"bike_id":"17e98b66-249e-4cf1-8eab-bcdf8a586c58","system_id":"levelo_inurba_marseille","lat":43.29534,"lon":5.3854,"is_reserved":false,"is_disabled":false,"rental_uris":{"android":"levelo://app?vid=17e98b66-249e-4cf1-8eab-bcdf8a586c58","ios":"levelo://app?vid=17e98b66-249e-4cf1-8eab-bcdf8a586c58"},"vehicle_type_id":"4","last_reported":1769704238,"current_range_meters":9200,"station_id":"ce4bgih2rcd13ifvqba0","pricing_plan_id":"cebpf4jnsgd1na2vs0mg"},{"bike_id":"73a6585c-b10e-4f79-a29b-c3e206c1ffc8","system_id":"levelo_inurba_marseille","lat":43.26943,"lon":5.40231,"is_reserved":false,"is_disabled":false,"rental_uris":{"android":"levelo://app?vid=73a6585c-b10e-4f79-a29b-c3e206c1ffc8","ios":"levelo://app?vid=73a6585c-b10e-4f79-a29b-c3e206c1ffc8"},"vehicle_type_id":"4","last_reported":1769704238,"current_range_meters":9200,"station_id":"cjm6bp8fraef2m0cb0m0","pricing_plan_id":"cebpf4jnsgd1na2vs0mg"},{"bike_id":"a13a9924-b0a9-4288-9819-8dd2f32f79b0","system_id":"levelo_inurba_marseille","lat":43.29305,"lon":5.37465,"is_reserved":false,"is_disabled":false,"rental_uris":{"android":"levelo://app?vid=a13a9924-b0a9-4288-9819-8dd2f32f79b0","ios":"levelo://app?vid=a13a9924-b0a9-4288-9819-8dd2f32f79b0"},"vehicle_type_id":"4","last_reported":1769704238,"current_range_meters":9200,"station_id":"ce4bgi12rcd13ifvqb70","pricing_plan_id":"cebpf4jnsgd1na2vs0mg"},{"bike_id":"b6b63fe9-a4f5-4d0f-9f1b-968b6b347d9f","system_id":"levelo_inurba_marseille","lat":43.282705,"lon":5.3507,"is_reserved":false,"is_disabled":false,"rental_uris":{"android":"levelo://app?vid=b6b63fe9-a4f5-4d0f-9f1b-968b6b347d9f","ios":"levelo://app?vid=b6b63fe9-a4f5-4d0f-9f1b-968b6b347d9f"},"vehicle_type_id":"4","last_reported":1769704238,"current_range_meters":9200,"station_id":"ce4bhbp2rcd13ifvqerg","pricing_plan_id":"cebpf4jnsgd1na2vs0mg"},{"bike_id":"88c1402d-46b1-4feb-acdf-1b9d5fccfdd6","system_id":"levelo_inurba_marseille","lat":43.28616,"lon":5.35107,"is_reserved":false,"is_disabled":false,"rental_uris":{"android":"levelo://app?vid=88c1402d-46b1-4feb-acdf-1b9d5fccfdd6","ios":"levelo://app?vid=88c1402d-46b1-4feb-acdf-1b9d5fccfdd6"},"vehicle_type_id":"4","last_reported":1769704238,"current_range_meters":9200,"station_id":"ce4bhch2rcd13ifvqeug","pricing_plan_id":"cebpf4jnsgd1na2vs0mg"},{"bike_id":"87d009ec-433e-4c42-8b9f-7b902543c8b7","system_id":"levelo_inurba_marseille","lat":43.28411,"lon":5.37514,"is_reserved":false,"is_disabled":false,"rental_uris":{"android":"levelo://app?vid=87d009ec-433e-4c42-8b9f-7b902543c8b7","ios":"levelo://app?vid=87d009ec-433e-4c42-8b9f-7b902543c8b7"},"vehicle_type_id":"4","last_reported":1769704238,"current_range_meters":9200,"station_id":"ce4bh412rcd13ifvqds0","pricing_plan_id":"cebpf4jnsgd1na2vs0mg"},{"bike_id":"dae8e5fd-e479-4e8e-90d3-251364265b9d","system_id":"levelo_inurba_marseille","lat":43.28724,"lon":5.3609,"is_reserved":false,"is_disabled":false,"rental_uris":{"android":"levelo://app?vid=dae8e5fd-e479-4e8e-90d3-251364265b9d","ios":"levelo://app?vid=dae8e5fd-e479-4e8e-90d3-251364265b9d"},"vehicle_type_id":"4","last_reported":1769704238,"current_range_meters":9200,"station_id":"cki0cbj6b192h4jlfktg","pricing_plan_id":"cebpf4jnsgd1na2vs0mg"},{"bike_id":"066b8fb0-c9f0-41f7-8245-fd090a86d5e1","system_id":"levelo_inurba_marseille","lat":43.2655,"lon":5.37284,"is_reserved":false,"is_disabled":false,"rental_uris":{"android":"levelo://app?vid=066b8fb0-c9f0-41f7-8245-fd090a86d5e1","ios":"levelo://app?vid=066b8fb0-c9f0-41f7-8245-fd090a86d5e1"},"vehicle_type_id":"4","last_reported":1769704238,"current_range_meters":9200,"station_id":"ce4bhg12rcd13ifvqf70","pricing_plan_id":"cebpf4jnsgd1na2vs0mg"},{"bike_id":"69cd541c-db0a-4eeb-8903-4f3d28282f04","system_id":"levelo_inurba_marseille","lat":43.24814,"lon":5.37455,"is_reserved":false,"is_disabled":false,"rental_uris":{"android":"levelo://app?vid=69cd541c-db0a-4eeb-8903-4f3d28282f04","ios":"levelo://app?vid=69cd541c-db0a-4eeb-8903-4f3d28282f04"},"vehicle_type_id":"4","last_reported":1769704238,"current_range_meters":9200,"station_id":"ce4bhgh2rcd13ifvqfb0","pricing_plan_id":"cebpf4jnsgd1na2vs0mg"},{"bike_id":"82a6b099-0577-4798-9a60-21fb38c2bbb7","system_id":"levelo_inurba_marseille","lat":43.29825,"lon":5.44072,"is_reserved":false,"is_disabled":false,"rental_uris":{"android":"levelo://app?vid=82a6b099-0577-4798-9a60-21fb38c2bbb7","ios":"levelo://app?vid=82a6b099-0577-4798-9a60-21fb38c2bbb7"},"vehicle_type_id":"4","last_reported":1769704238,"current_range_meters":9600,"station_id":"st_d3jp68qikq2c7381ktn0","pricing_plan_id":"cebpf4jnsgd1na2vs0mg"},{"bike_id":"805015d0-c12d-4724-9c74-0106ed455fd9","system_id":"levelo_inurba_marseille","lat":43.249467,"lon":5.404917,"is_reserved":false,"is_disabled":false,"rental_uris":{"android":"levelo://app?vid=805015d0-c12d-4724-9c74-0106ed455fd9","ios":"levelo://app?vid=805015d0-c12d-4724-9c74-0106ed455fd9"},"vehicle_type_id":"4","last_reported":1769704238,"current_range_meters":9600,"station_id":"st_d2ngiaodas8pm72gd1h0","pricing_plan_id":"cebpf4jnsgd1na2vs0mg"},{"bike_id":"e858244c-580e-4a5e-a86b-9fc7e954317c","system_id":"levelo_inurba_marseille","lat":43.31295,"lon":5.37855,"is_reserved":false,"is_disabled":true,"rental_uris":{"android":"levelo://app?vid=e858244c-580e-4a5e-a86b-9fc7e954317c","ios":"levelo://app?vid=e858244c-580e-4a5e-a86b-9fc7e954317c"},"vehicle_type_id":"4","last_reported":1769704238,"current_range_meters":9600,"station_id":"","pricing_plan_id":"cebpf4jnsgd1na2vs0mg"},{"bike_id":"d9b6343b-4e87-445f-8063-2fce9657168c","system_id":"levelo_inurba_marseille","lat":43.30377,"lon":5.37587,"is_reserved":false,"is_disabled":false,"rental_uris":{"android":"levelo://app?vid=d9b6343b-4e87-445f-8063-2fce9657168c","ios":"levelo://app?vid=d9b6343b-4e87-445f-8063-2fce9657168c"},"vehicle_type_id":"4","last_reported":1769704238,"current_range_meters":9600,"station_id":"","pricing_plan_id":"cebpf4jnsgd1na2vs0mg"},{"bike_id":"a224862a-232e-4eae-9e87-90ad084f94a7","system_id":"levelo_inurba_marseille","lat":43.241689,"lon":5.36399,"is_reserved":false,"is_disabled":false,"rental_uris":{"android":"levelo://app?vid=a224862a-232e-4eae-9e87-90ad084f94a7","ios":"levelo://app?vid=a224862a-232e-4eae-9e87-90ad084f94a7"},"vehicle_type_id":"4","last_reported":1769704238,"current_range_meters":9600,"station_id":"cpo36qri1sfpv3e86is0","pricing_plan_id":"cebpf4jnsgd1na2vs0mg"},{"bike_id":"60601e53-e690-41e3-9640-0b5d8353d610","system_id":"levelo_inurba_marseille","lat":43.22939,"lon":5.35384,"is_reserved":false,"is_disabled":false,"rental_uris":{"android":"levelo://app?vid=60601e53-e690-41e3-9640-0b5d8353d610","ios":"levelo://app?vid=60601e53-e690-41e3-9640-0b5d8353d610"},"vehicle_type_id":"4","last_reported":1769704238,"current_range_meters":9600,"station_id":"cpo3532slgdg3j2ikp40","pricing_plan_id":"cebpf4jnsgd1na2vs0mg"},{"bike_id":"4877283c-8b2d-4f75-88c5-53c1802f0114","system_id":"levelo_inurba_marseille","lat":43.27054,"lon":5.40271,"is_reserved":false,"is_disabled":false,"rental_uris":{"android":"levelo://app?vid=4877283c-8b2d-4f75-88c5-53c1802f0114","ios":"levelo://app?vid=4877283c-8b2d-4f75-88c5-53c1802f0114"},"vehicle_type_id":"4","last_reported":1769704238,"current_range_meters":9600,"station_id":"ce4bhk92rcd13ifvqgc0","pricing_plan_id":"cebpf4jnsgd1na2vs0mg"},{"bike_id":"7008570a-4030-4a5c-bce0-6e90ab09f5fd","system_id":"levelo_inurba_marseille","lat":43.24668,"lon":5.38165,"is_reserved":false,"is_disabled":false,"rental_uris":{"android":"levelo://app?vid=7008570a-4030-4a5c-bce0-6e90ab09f5fd","ios":"levelo://app?vid=7008570a-4030-4a5c-bce0-6e90ab09f5fd"},"vehicle_type_id":"4","last_reported":1769704238,"current_range_meters":9600,"station_id":"ce4bhih2rcd13ifvqfr0","pricing_plan_id":"cebpf4jnsgd1na2vs0mg"},{"bike_id":"7714d863-1c60-4efa-a925-44984599d482","system_id":"levelo_inurba_marseille","lat":43.297547,"lon":5.427785,"is_reserved":false,"is_disabled":false,"rental_uris":{"android":"levelo://app?vid=7714d863-1c60-4efa-a925-44984599d482","ios":"levelo://app?vid=7714d863-1c60-4efa-a925-44984599d482"},"vehicle_type_id":"4","last_reported":1769704238,"current_range_meters":9600,"station_id":"st_d3md5207bmas73dh9klg","pricing_plan_id":"cebpf4jnsgd1na2vs0mg"},{"bike_id":"ceed1653-0aff-4dc0-b159-f8529a6c28c1","system_id":"levelo_inurba_marseille","lat":43.23193,"lon":5.35551,"is_reserved":false,"is_disabled":false,"rental_uris":{"android":"levelo://app?vid=ceed1653-0aff-4dc0-b159-f8529a6c28c1","ios":"levelo://app?vid=ceed1653-0aff-4dc0-b159-f8529a6c28c1"},"vehicle_type_id":"4","last_reported":1769704238,"current_range_meters":9600,"station_id":"ce4bhu92rcd13ifvqi70","pricing_plan_id":"cebpf4jnsgd1na2vs0mg"},{"bike_id":"373cb557-ba27-44b4-ae77-5627bb7dd352","system_id":"levelo_inurba_marseille","lat":43.21184,"lon":5.35058,"is_reserved":false,"is_disabled":true,"rental_uris":{"android":"levelo://app?vid=373cb557-ba27-44b4-ae77-5627bb7dd352","ios":"levelo://app?vid=373cb557-ba27-44b4-ae77-5627bb7dd352"},"vehicle_type_id":"4","last_reported":1769704238,"current_range_meters":9600,"station_id":"st_cvj6sg6p6f1abm77japg","pricing_plan_id":"cebpf4jnsgd1na2vs0mg"},{"bike_id":"0e79c48d-cdc7-44eb-ad7d-d24757dd50e7","system_id":"levelo_inurba_marseille","lat":43.323479,"lon":5.36745,"is_reserved":false,"is_disabled":false,"rental_uris":{"android":"levelo://app?vid=0e79c48d-cdc7-44eb-ad7d-d24757dd50e7","ios":"levelo://app?vid=0e79c48d-cdc7-44eb-ad7d-d24757dd50e7"},"vehicle_type_id":"4","last_reported":1769704238,"current_range_meters":9600,"station_id":"ce4bhsh2rcd13ifvqi2g","pricing_plan_id":"cebpf4jnsgd1na2vs0mg"},{"bike_id":"59ae0900-c855-4741-b5cf-c53827ed9733","system_id":"levelo_inurba_marseille","lat":43.24174,"lon":5.36385,"is_reserved":false,"is_disabled":false,"rental_uris":{"android":"levelo://app?vid=59ae0900-c855-4741-b5cf-c53827ed9733","ios":"levelo://app?vid=59ae0900-c855-4741-b5cf-c53827ed9733"},"vehicle_type_id":"4","last_reported":1769704238,"current_range_meters":9600,"station_id":"cpo36qri1sfpv3e86is0","pricing_plan_id":"cebpf4jnsgd1na2vs0mg"},{"bike_id":"b4ca0368-7dc3-41d9-b72c-cdac7997b720","system_id":"levelo_inurba_marseille","lat":43.299,"lon":5.43663,"is_reserved":false,"is_disabled":false,"rental_uris":{"android":"levelo://app?vid=b4ca0368-7dc3-41d9-b72c-cdac7997b720","ios":"levelo://app?vid=b4ca0368-7dc3-41d9-b72c-cdac7997b720"},"vehicle_type_id":"4","last_reported":1769704238,"current_range_meters":9600,"station_id":"ce4bhpp2rcd13ifvqhfg","pricing_plan_id":"cebpf4jnsgd1na2vs0mg"},{"bike_id":"91be1517-8430-4627-86f0-7ff7e9187df9","system_id":"levelo_inurba_marseille","lat":43.30374,"lon":5.4248,"is_reserved":false,"is_disabled":false,"rental_uris":{"android":"levelo://app?vid=91be1517-8430-4627-86f0-7ff7e9187df9","ios":"levelo://app?vid=91be1517-8430-4627-86f0-7ff7e9187df9"},"vehicle_type_id":"4","last_reported":1769704238,"current_range_meters":9600,"station_id":"ce4bhoh2rcd13ifvqh6g","pricing_plan_id":"cebpf4jnsgd1na2vs0mg"},