{"last_updated":1726434508,"ttl":30,"version":"2.2","data":{"bikes":[{"bike_id":"21f0f158-5ee2-490d-9587-1c1786b6b1ee","system_id":"levelo_inurba_marseille","lat":43.29872,"lon":5.39733,"is_reserved":false,"is_disabled":false,"rental_uris":{"android":"levelo://app?vid=21f0f158-5ee2-490d-9587-1c1786b6b1ee","ios":"levelo://app?vid=21f0f158-5ee2-490d-9587-1c1786b6b1ee"},"vehicle_type_id":"4","last_reported":1726434508,"current_range_meters":18000,"station_id":"ce4bh0h2rcd13ifvqd50","pricing_plan_id":"cebpf4jnsgd1na2vs0mg"},{"bike_id":"a74f721e-28d8-4774-b466-cf0418c29dd8","system_id":"levelo_inurba_marseille","lat":43.29884,"lon":5.43677,"is_reserved":false,"is_disabled":false,"rental_uris":{"android":"levelo://app?vid=a74f721e-28d8-4774-b466-cf0418c29dd8","ios":"levelo://app?vid=a74f721e-28d8-4774-b466-cf0418c29dd8"},"vehicle_type_id":"4","last_reported":1726434508,"current_range_meters":38800,"station_id":"ce4bhpp2rcd13ifvqhfg","pricing_plan_id":"cebpf4jnsgd1na2vs0mg"},{"bike_id":"5440ae72-f8d2-4dc7-b6cd-9b12f1ca8829","system_id":"levelo_inurba_marseille","lat":43.29891,"lon":5.39734,"is_reserved":false,"is_disabled":false,"rental_uris":{"android":"levelo://app?vid=5440ae72-f8d2-4dc7-b6cd-9b12f1ca8829","ios":"levelo://app?vid=5440ae72-f8d2-4dc7-b6cd-9b12f1ca8829"},"vehicle_type_id":"4","last_reported":1726434508,"current_range_meters":38800,"station_id":"ce4bh0h2rcd13ifvqd50","pricing_plan_id":"cebpf4jnsgd1na2vs0mg"},{"bike_id":"6df45efb-1193-4025-91f0-b00d0b3abcb7","system_id":"levelo_inurba_marseille","lat":43.31712,"lon":5.37747,"is_reserved":false,"is_disabled":false,"rental_uris":{"android":"levelo://app?vid=6df45efb-1193-4025-91f0-b00d0b3abcb7","ios":"levelo://app?vid=6df45efb-1193-4025-91f0-b00d0b3abcb7"},"vehicle_type_id":"4","last_reported":1726434508,"current_range_meters":38800,"station_id":"ce4bgth2rcd13ifvqch0","pricing_plan_id":"cebpf4jnsgd1na2vs0mg"},{"bike_id":"48a82de2-7872-40cb-b1bf-43e70b76834b","system_id":"levelo_inurba_marseille","lat":43.31294,"lon":5.37812,"is_reserved":false,"is_disabled":false,"rental_uris":{"android":"levelo://app?vid=48a82de2-7872-40cb-b1bf-43e70b76834b","ios":"levelo://app?vid=48a82de2-7872-40cb-b1bf-43e70b76834b"},"vehicle_type_id":"4","last_reported":1726434508,"current_range_meters":32400,"station_id":"","pricing_plan_id":"cebpf4jnsgd1na2vs0mg"},{"bike_id":"6f7dea64-88b1-4a97-a766-2c5a6151501d","system_id":"levelo_inurba_marseille","lat":43.29568,"lon":5.3997,"is_reserved":false,"is_disabled":false,"rental_uris":{"android":"levelo://app?vid=6f7dea64-88b1-4a97-a766-2c5a6151501d","ios":"levelo://app?vid=6f7dea64-88b1-4a97-a766-2c5a6151501d"},"vehicle_type_id":"4","last_reported":1726434508,"current_range_meters":28000,"station_id":"ce4bh312rcd13ifvqdj0","pricing_plan_id":"cebpf4jnsgd1na2vs0mg"},{"bike_id":"cbcb9251-3d0e-4d7c-9000-b759b8955053","system_id":"levelo_inurba_marseille","lat":43.31124,"lon":5.37748,"is_reserved":false,"is_disabled":false,"rental_uris":{"android":"levelo://app?vid=cbcb9251-3d0e-4d7c-9000-b759b8955053","ios":"levelo://app?vid=cbcb9251-3d0e-4d7c-9000-b759b8955053"},"vehicle_type_id":"4","last_reported":1726434508,"current_range_meters":38800,"station_id":"ce4bgt92rcd13ifvqcg0","pricing_plan_id":"cebpf4jnsgd1na2vs0mg"},{"bike_id":"35d737be-72e2-4a47-b9f4-508f6d1ff612","system_id":"levelo_inurba_marseille","lat":43.25118,"lon":5.40318,"is_reserved":false,"is_disabled":false,"rental_uris":{"android":"levelo://app?vid=35d737be-72e2-4a47-b9f4-508f6d1ff612","ios":"levelo://app?vid=35d737be-72e2-4a47-b9f4-508f6d1ff612"},"vehicle_type_id":"4","last_reported":1726434508,"current_range_meters":12800,"station_id":"ce4bhlh2rcd13ifvqgig","pricing_plan_id":"cebpf4jnsgd1na2vs0mg"},{"bike_id":"491f625c-672a-429b-adf2-44db696ce223","system_id":"levelo_inurba_marseille","lat":43.24811,"lon":5.37454,"is_reserved":false,"is_disabled":false,"rental_uris":{"android":"levelo://app?vid=491f625c-672a-429b-adf2-44db696ce223","ios":"levelo://app?vid=491f625c-672a-429b-adf2-44db696ce223"},"vehicle_type_id":"4","last_reported":1726434508,"current_range_meters":8800,"station_id":"ce4bhgh2rcd13ifvqfb0","pricing_plan_id":"cebpf4jnsgd1na2vs0mg"},{"bike_id":"04f557ed-8c0f-40e0-a7eb-8109e0ec184a","system_id":"levelo_inurba_marseille","lat":43.29557,"lon":5.42294,"is_reserved":false,"is_disabled":false,"rental_uris":{"android":"levelo://app?vid=04f557ed-8c0f-40e0-a7eb-8109e0ec184a","ios":"levelo://app?vid=04f557ed-8c0f-40e0-a7eb-8109e0ec184a"},"vehicle_type_id":"4","last_reported":1726434508,"current_range_meters":8800,"station_id":"ce4bhph2rcd13ifvqhdg","pricing_plan_id":"cebpf4jnsgd1na2vs0mg"},{"bike_id":"0932f2e9-d5ef-406b-a7c7-43741155e4d5","system_id":"levelo_inurba_marseille","lat":43.28443,"lon":5.39205,"is_reserved":false,"is_disabled":false,"rental_uris":{"android":"levelo://app?vid=0932f2e9-d5ef-406b-a7c7-43741155e4d5","ios":"levelo://app?vid=0932f2e9-d5ef-406b-a7c7-43741155e4d5"},"vehicle_type_id":"4","last_reported":1726434508,"current_range_meters":3200,"station_id":"ce4bhoh2rcd13ifvqh5g","pricing_plan_id":"cebpf4jnsgd1na2vs0mg"},{"bike_id":"892d6ba7-ec27-48aa-a06b-9fcc2866af0b","system_id":"levelo_inurba_marseille","lat":43.25928,"lon":5.40919,"is_reserved":false,"is_disabled":false,"rental_uris":{"android":"levelo://app?vid=892d6ba7-ec27-48aa-a06b-9fcc2866af0b","ios":"levelo://app?vid=892d6ba7-ec27-48aa-a06b-9fcc2866af0b"},"vehicle_type_id":"4","last_reported":1726434508,"current_range_meters":38800,"station_id":"ce4bhm92rcd13ifvqglg","pricing_plan_id":"cebpf4jnsgd1na2vs0mg"},{"bike_id":"634ac1d5-d66e-4401-b1dd-c3df0f2bd02a","system_id":"levelo_inurba_marseille","lat":43.27818,"lon":5.40715,"is_reserved":false,"is_disabled":false,"rental_uris":{"android":"levelo://app?vid=634ac1d5-d66e-4401-b1dd-c3df0f2bd02a","ios":"levelo://app?vid=634ac1d5-d66e-4401-b1dd-c3df0f2bd02a"},"vehicle_type_id":"4","last_reported":1726434508,"current_range_meters":32800,"station_id":"ce4bhnh2rcd13ifvqgtg","pricing_plan_id":"cebpf4jnsgd1na2vs0mg"},{"bike_id":"7c475990-5c91-40de-8e97-2ed5070be005","system_id":"levelo_inurba_marseille","lat":43.23032,"lon":5.401,"is_reserved":false,"is_disabled":false,"rental_uris":{"android":"levelo://app?vid=7c475990-5c91-40de-8e97-2ed5070be005","ios":"levelo://app?vid=7c475990-5c91-40de-8e97-2ed5070be005"},"vehicle_type_id":"4","last_reported":1726434508,"current_range_meters":36800,"station_id":"","pricing_plan_id":"cebpf4jnsgd1na2vs0mg"},{"bike_id":"b800a564-7762-460c-87d6-bed54efa7f97","system_id":"levelo_inurba_marseille","lat":43.30884,"lon":5.39634,"is_reserved":false,"is_disabled":false,"rental_uris":{"android":"levelo://app?vid=b800a564-7762-460c-87d6-bed54efa7f97","ios":"levelo://app?vid=b800a564-7762-460c-87d6-bed54efa7f97"},"vehicle_type_id":"4","last_reported":1726434508,"current_range_meters":37600,"station_id":"ce4bh012rcd13ifvqcv0","pricing_plan_id":"cebpf4jnsgd1na2vs0mg"},{"bike_id":"13ec4916-f0ea-4897-8afc-596425b42c42","system_id":"levelo_inurba_marseille","lat":43.23182,"lon":5.35558,"is_reserved":false,"is_disabled":false,"rental_uris":{"android":"levelo://app?vid=13ec4916-f0ea-4897-8afc-596425b42c42","ios":"levelo://app?vid=13ec4916-f0ea-4897-8afc-596425b42c42"},"vehicle_type_id":"4","last_reported":1726434508,"current_range_meters":19600,"station_id":"ce4bhu92rcd13ifvqi70","pricing_plan_id":"cebpf4jnsgd1na2vs0mg"},{"bike_id":"e8549387-9deb-4f66-b733-a7cdaa0db866","system_id":"levelo_inurba_marseille","lat":43.33027,"lon":5.39049,"is_reserved":false,"is_disabled":false,"rental_uris":{"android":"levelo://app?vid=e8549387-9deb-4f66-b733-a7cdaa0db866","ios":"levelo://app?vid=e8549387-9deb-4f66-b733-a7cdaa0db866"},"vehicle_type_id":"4","last_reported":1726434508,"current_range_meters":13600,"station_id":"ce4bhr92rcd13ifvqhrg","pricing_plan_id":"cebpf4jnsgd1na2vs0mg"},{"bike_id":"3a57dd91-1a95-424b-a54b-4da239084d75","system_id":"levelo_inurba_marseille","lat":43.28719,"lon":5.37946,"is_reserved":false,"is_disabled":false,"rental_uris":{"android":"levelo://app?vid=3a57dd91-1a95-424b-a54b-4da239084d75","ios":"levelo://app?vid=3a57dd91-1a95-424b-a54b-4da239084d75"},"vehicle_type_id":"4","last_reported":1726434508,"current_range_meters":38800,"station_id":"ce4bh9p2rcd13ifvqec0","pricing_plan_id":"cebpf4jnsgd1na2vs0mg"},{"bike_id":"2c47c24e-96d3-4e99-910a-98524d55c13a","system_id":"levelo_inurba_marseille","lat":43.28495,"lon":5.38565,"is_reserved":false,"is_disabled":false,"rental_uris":{"android":"levelo://app?vid=2c47c24e-96d3-4e99-910a-98524d55c13a","ios":"levelo://app?vid=2c47c24e-96d3-4e99-910a-98524d55c13a"},"vehicle_type_id":"4","last_reported":1726434508,"current_range_meters":36400,"station_id":"ce4bh8p2rcd13ifvqeb0","pricing_plan_id":"cebpf4jnsgd1na2vs0mg"},{"bike_id":"a352d7fb-06c5-445f-9e44-2abdb3cabcab","system_id":"levelo_inurba_marseille","lat":43.31224,"lon":5.36864,"is_reserved":false,"is_disabled":false,"rental_uris":{"android":"levelo://app?vid=a352d7fb-06c5-445f-9e44-2abdb3cabcab","ios":"levelo://app?vid=a352d7fb-06c5-445f-9e44-2abdb3cabcab"},"vehicle_type_id":"4","last_reported":1726434508,"current_range_meters":28400,"station_id":"ce4bgl92rcd13ifvqbq0","pricing_plan_id":"cebpf4jnsgd1na2vs0mg"},{"bike_id":"ba5766e2-e9ff-4571-95a0-04988fd7fe6c","system_id":"levelo_inurba_marseille","lat":43.3247,"lon":5.36579,"is_reserved":false,"is_disabled":false,"rental_uris":{"android":"levelo://app?vid=ba5766e2-e9ff-4571-95a0-04988fd7fe6c","ios":"levelo://app?vid=ba5766e2-e9ff-4571-95a0-04988fd7fe6c"},"vehicle_type_id":"4","last_reported":1726434508,"current_range_meters":38800,"station_id":"ce4bhs12rcd13ifvqhvg","pricing_plan_id":"cebpf4jnsgd1na2vs0mg"},{"bike_id":"14c45515-ceca-4e4c-8707-2c7fdcbd0475","system_id":"levelo_inurba_marseille","lat":43.29567,"lon":5.39969,"is_reserved":false,"is_disabled":false,"rental_uris":{"android":"levelo://app?vid=14c45515-ceca-4e4c-8707-2c7fdcbd0475","ios":"levelo://app?vid=14c45515-ceca-4e4c-8707-2c7fdcbd0475"},"vehicle_type_id":"4","last_reported":1726434508,"current_range_meters":38800,"station_id":"ce4bh312rcd13ifvqdj0","pricing_plan_id":"cebpf4jnsgd1na2vs0mg"},{"bike_id":"74c67d55-8a5f-40c9-8066-d68354718f8c","system_id":"levelo_inurba_marseille","lat":43.23189,"lon":5.35554,"is_reserved":false,"is_disabled":false,"rental_uris":{"android":"levelo://app?vid=74c67d55-8a5f-40c9-8066-d68354718f8c","ios":"levelo://app?vid=74c67d55-8a5f-40c9-8066-d68354718f8c"},"vehicle_type_id":"4","last_reported":1726434508,"current_range_meters":17200,"station_id":"ce4bhu92rcd13ifvqi70","pricing_plan_id":"cebpf4jnsgd1na2vs0mg"},{"bike_id":"cd4d0672-3017-4750-a840-655685768e5b","system_id":"levelo_inurba_marseille","lat":43.32046,"lon":5.4155,"is_reserved":false,"is_disabled":false,"rental_uris":{"android":"levelo://app?vid=cd4d0672-3017-4750-a840-655685768e5b","ios":"levelo://app?vid=cd4d0672-3017-4750-a840-655685768e5b"},"vehicle_type_id":"4","last_reported":1726434508,"current_range_meters":20000,"station_id":"ce4bhq92rcd13ifvqhkg","pricing_plan_id":"cebpf4jnsgd1na2vs0mg"},{"bike_id":"92fe2ccb-da13-4d2c-a4aa-16cc8c62d18c","system_id":"levelo_inurba_marseille","lat":43.276132,"lon":5.360997,"is_reserved":false,"is_disabled":false,"rental_uris":{"android":"levelo://app?vid=92fe2ccb-da13-4d2c-a4aa-16cc8c62d18c","ios":"levelo://app?vid=92fe2ccb-da13-4d2c-a4aa-16cc8c62d18c"},"vehicle_type_id":"4","last_reported":1726434508,"current_range_meters":38800,"station_id":"ce4bgj92rcd13ifvqbe0","pricing_plan_id":"cebpf4jnsgd1na2vs0mg"},{"bike_id":"6180efdf-3198-430d-bc12-feef85e7274e","system_id":"levelo_inurba_marseille","lat":43.25822,"lon":5.39438,"is_reserved":false,"is_disabled":false,"rental_uris":{"android":"levelo://app?vid=6180efdf-3198-430d-bc12-feef85e7274e","ios":"levelo://app?vid=6180efdf-3198-430d-bc12-feef85e7274e"},"vehicle_type_id":"4","last_reported":1726434508,"current_range_meters":36800,"station_id":"ce4bhip2rcd13ifvqft0","pricing_plan_id":"cebpf4jnsgd1na2vs0mg"},{"bike_id":"212c501b-a753-4c1a-ba0c-b560582af171","system_id":"levelo_inurba_marseille","lat":43.29552,"lon":5.42289,"is_reserved":false,"is_disabled":false,"rental_uris":{"android":"levelo://app?vid=212c501b-a753-4c1a-ba0c-b560582af171","ios":"levelo://app?vid=212c501b-a753-4c1a-ba0c-b560582af171"},"vehicle_type_id":"4","last_reported":1726434508,"current_range_meters":17200,"station_id":"ce4bhph2rcd13ifvqhdg","pricing_plan_id":"cebpf4jnsgd1na2vs0mg"},{"bike_id":"4fbf1331-c3a5-41c2-9264-0d646fd55faf","system_id":"levelo_inurba_marseille","lat":43.28455,"lon":5.35885,"is_reserved":false,"is_disabled":false,"rental_uris":{"android":"levelo://app?vid=4fbf1331-c3a5-41c2-9264-0d646fd55faf","ios":"levelo://app?vid=4fbf1331-c3a5-41c2-9264-0d646fd55faf"},"vehicle_type_id":"4","last_reported":1726434508,"current_range_meters":38000,"station_id":"ce4bhah2rcd13ifvqei0","pricing_plan_id":"cebpf4jnsgd1na2vs0mg"},{"bike_id":"9848a293-1dbd-485b-983c-ac30b8eb8921","system_id":"levelo_inurba_marseille","lat":43.31171,"lon":5.38719,"is_reserved":false,"is_disabled":false,"rental_uris":{"android":"levelo://app?vid=9848a293-1dbd-485b-983c-ac30b8eb8921","ios":"levelo://app?vid=9848a293-1dbd-485b-983c-ac30b8eb8921"},"vehicle_type_id":"4","last_reported":1726434508,"current_range_meters":36800,"station_id":"ce4bgv12rcd13ifvqcp0","pricing_plan_id":"cebpf4jnsgd1na2vs0mg"},{"bike_id":"9df403c3-53c3-47d4-91b9-94e0e8946522","system_id":"levelo_inurba_marseille","lat":43.28108,"lon":5.37842,"is_reserved":false,"is_disabled":false,"rental_uris":{"android":"levelo://app?vid=9df403c3-53c3-47d4-91b9-94e0e8946522","ios":"levelo://app?vid=9df403c3-53c3-47d4-91b9-94e0e8946522"},"vehicle_type_id":"4","last_reported":1726434508,"current_range_meters":30800,"station_id":"ce4bha12rcd13ifvqee0","pricing_plan_id":"cebpf4jnsgd1na2vs0mg"},{"bike_id":"cf705a6d-8fa3-4170-8d46-076c59b67666","system_id":"levelo_inurba_marseille","lat":43.24078,"lon":5.37769,"is_reserved":false,"is_disabled":false,"rental_uris":{"android":"levelo://app?vid=cf705a6d-8fa3-4170-8d46-076c59b67666","ios":"levelo://app?vid=cf705a6d-8fa3-4170-8d46-076c59b67666"},"vehicle_type_id":"4","last_reported":1726434508,"current_range_meters":19600,"station_id":"ce4bhnp2rcd13ifvqgvg","pricing_plan_id":"cebpf4jnsgd1na2vs0mg"},{"bike_id":"a547235b-e99c-4f0f-90dd-8ffe37393bca","system_id":"levelo_inurba_marseille","lat":43.29795,"lon":5.37123,"is_reserved":false,"is_disabled":false,"rental_uris":{"android":"levelo://app?vid=a547235b-e99c-4f0f-90dd-8ffe37393bca","ios":"levelo://app?vid=a547235b-e99c-4f0f-90dd-8ffe37393bca"},"vehicle_type_id":"4","last_reported":1726434508,"current_range_meters":0,"station_id":"ce4bgop2rcd13ifvqc1g","pricing_plan_id":"cebpf4jnsgd1na2vs0mg"},{"bike_id":"85e5e299-8873-43fe-8bad-d01447ee09ef","system_id":"levelo_inurba_marseille","lat":43.2952,"lon":5.39039,"is_reserved":false,"is_disabled":false,"rental_uris":{"android":"levelo://app?vid=85e5e299-8873-43fe-8bad-d01447ee09ef","ios":"levelo://app?vid=85e5e299-8873-43fe-8bad-d01447ee09ef"},"vehicle_type_id":"4","last_reported":1726434508,"current_range_meters":6400,"station_id":"ce4bh3p2rcd13ifvqdp0","pricing_plan_id":"cebpf4jnsgd1na2vs0mg"},{"bike_id":"40869c76-4f82-404f-9cdf-639196b728f9","system_id":"levelo_inurba_marseille","lat":43.28566,"lon":5.39507,"is_reserved":false,"is_disabled":false,"rental_uris":{"android":"levelo://app?vid=40869c76-4f82-404f-9cdf-639196b728f9","ios":"levelo://app?vid=40869c76-4f82-404f-9cdf-639196b728f9"},"vehicle_type_id":"4","last_reported":1726434508,"current_range_meters":21600,"station_id":"ce4bh292rcd13ifvqdg0","pricing_plan_id":"cebpf4jnsgd1na2vs0mg"},{"bike_id":"33e3b5af-e6bf-4a19-9a11-ee1b8b29314e","system_id":"levelo_inurba_marseille","lat":43.32337,"lon":5.40619,"is_reserved":false,"is_disabled":false,"rental_uris":{"android":"levelo://app?vid=33e3b5af-e6bf-4a19-9a11-ee1b8b29314e","ios":"levelo://app?vid=33e3b5af-e6bf-4a19-9a11-ee1b8b29314e"},"vehicle_type_id":"4","last_reported":1726434508,"current_range_meters":2800,"station_id":"ce4bhq92rcd13ifvqhjg","pricing_plan_id":"cebpf4jnsgd1na2vs0mg"},{"bike_id":"9e4a8929-231a-4608-a71a-2aa8022e15b1","system_id":"levelo_inurba_marseille","lat":43.28933,"lon":5.36644,"is_reserved":false,"is_disabled":false,"rental_uris":{"android":"levelo://app?vid=9e4a8929-231a-4608-a71a-2aa8022e15b1","ios":"levelo://app?vid=9e4a8929-231a-4608-a71a-2aa8022e15b1"},"vehicle_type_id":"4","last_reported":1726434508,"current_range_meters":37600,"station_id":"ce4bhap2rcd13ifvqek0","pricing_plan_id":"cebpf4jnsgd1na2vs0mg"},{"bike_id":"f3a216cf-054e-455e-bf11-ef4cc34cb623","system_id":"levelo_inurba_marseille","lat":43.29255,"lon":5.40905,"is_reserved":false,"is_disabled":false,"rental_uris":{"android":"levelo://app?vid=f3a216cf-054e-455e-bf11-ef4cc34cb623","ios":"levelo://app?vid=f3a216cf-054e-455e-bf11-ef4cc34cb623"},"vehicle_type_id":"4","last_reported":1726434508,"current_range_meters":38800,"station_id":"ce4bh192rcd13ifvqdc0","pricing_plan_id":"cebpf4jnsgd1na2vs0mg"},{"bike_id":"83c995e2-c90d-4126-8799-3247855d0482","system_id":"levelo_inurba_marseille","lat":43.2844,"lon":5.39187,"is_reserved":false,"is_disabled":false,"rental_uris":{"android":"levelo://app?vid=83c995e2-c90d-4126-8799-3247855d0482","ios":"levelo://app?vid=83c995e2-c90d-4126-8799-3247855d0482"},"vehicle_type_id":"4","last_reported":1726434508,"current_range_meters":27600,"station_id":"ce4bhoh2rcd13ifvqh5g","pricing_plan_id":"cebpf4jnsgd1na2vs0mg"},{"bike_id":"f104f03e-75de-4a40-9df9-7706da45d7cc","system_id":"levelo_inurba_marseille","lat":43.305115,"lon":5.365167,"is_reserved":false,"is_disabled":false,"rental_uris":{"android":"levelo://app?vid=f104f03e-75de-4a40-9df9-7706da45d7cc","ios":"levelo://app?vid=f104f03e-75de-4a40-9df9-7706da45d7cc"},"vehicle_type_id":"4","last_reported":1726434508,"current_range_meters":29600,"station_id":"ce4bgpp2rcd13ifvqc3g","pricing_plan_id":"cebpf4jnsgd1na2vs0mg"},{"bike_id":"a71553b9-16db-4c52-b70a-738642879a6b","system_id":"levelo_inurba_marseille","lat":43.266833,"lon":5.382633,"is_reserved":false,"is_disabled":false,"rental_uris":{"android":"levelo://app?vid=a71553b9-16db-4c52-b70a-738642879a6b","ios":"levelo://app?vid=a71553b9-16db-4c52-b70a-738642879a6b"},"vehicle_type_id":"4","last_reported":1726434508,"current_range_meters":34800,"station_id":"ce4bhg92rcd13ifvqf90","pricing_plan_id":"cebpf4jnsgd1na2vs0mg"},{"bike_id":"08aeee95-fd1e-4362-8ad9-97d06ae834ce","system_id":"levelo_inurba_marseille","lat":43.31275,"lon":5.4017,"is_reserved":false,"is_disabled":false,"rental_uris":{"android":"levelo://app?vid=08aeee95-fd1e-4362-8ad9-97d06ae834ce","ios":"levelo://app?vid=08aeee95-fd1e-4362-8ad9-97d06ae834ce"},"vehicle_type_id":"4","last_reported":1726434508,"current_range_meters":19600,"station_id":"ce4bh092rcd13ifvqd30","pricing_plan_id":"cebpf4jnsgd1na2vs0mg"},{"bike_id":"1a01e9be-b5ec-4708-9a6a-d302a65a4a05","system_id":"levelo_inurba_marseille","lat":43.32289,"lon":5.38279,"is_reserved":false,"is_disabled":false,"rental_uris":{"android":"levelo://app?vid=1a01e9be-b5ec-4708-9a6a-d302a65a4a05","ios":"levelo://app?vid=1a01e9be-b5ec-4708-9a6a-d302a65a4a05"},"vehicle_type_id":"4","last_reported":1726434508,"current_range_meters":11200,"station_id":"ce4bhr12rcd13ifvqhqg","pricing_plan_id":"cebpf4jnsgd1na2vs0mg"},{"bike_id":"3a347c25-4e42-4fd7-8c2f-5bed93bf5839","system_id":"levelo_inurba_marseille","lat":43.29599,"lon":5.38103,"is_reserved":false,"is_disabled":false,"rental_uris":{"android":"levelo://app?vid=3a347c25-4e42-4fd7-8c2f-5bed93bf5839","ios":"levelo://app?vid=3a347c25-4e42-4fd7-8c2f-5bed93bf5839"},"vehicle_type_id":"4","last_reported":1726434508,"current_range_meters":2000,"station_id":"ce4bgl12rcd13ifvqbo0","pricing_plan_id":"cebpf4jnsgd1na2vs0mg"},{"bike_id":"b9297fd7-17b1-4121-9159-bffefe62afaa","system_id":"levelo_inurba_marseille","lat":43.28654,"lon":5.3635,"is_reserved":false,"is_disabled":false,"rental_uris":{"android":"levelo://app?vid=b9297fd7-17b1-4121-9159-bffefe62afaa","ios":"levelo://app?vid=b9297fd7-17b1-4121-9159-bffefe62afaa"},"vehicle_type_id":"4","last_reported":1726434508,"current_range_meters":18000,"station_id":"ce4bhah2rcd13ifvqej0","pricing_plan_id":"cebpf4jnsgd1na2vs0mg"},{"bike_id":"8052f64d-5e41-4baf-987f-b0ed1b94f6e6","system_id":"levelo_inurba_marseille","lat":43.28078,"lon":5.39673,"is_reserved":false,"is_disabled":false,"rental_uris":{"android":"levelo://app?vid=8052f64d-5e41-4baf-987f-b0ed1b94f6e6","ios":"levelo://app?vid=8052f64d-5e41-4baf-987f-b0ed1b94f6e6"},"vehicle_type_id":"4","last_reported":1726434508,"current_range_meters":18800,"station_id":"ce4bho12rcd13ifvqh2g","pricing_plan_id":"cebpf4jnsgd1na2vs0mg"},{"bike_id":"c4146130-6e78-40a9-9b58-b4f2782ddfce","system_id":"levelo_inurba_marseille","lat":43.298,"lon":5.40405,"is_reserved":false,"is_disabled":false,"rental_uris":{"android":"levelo://app?vid=c4146130-6e78-40a9-9b58-b4f2782ddfce","ios":"levelo://app?vid=c4146130-6e78-40a9-9b58-b4f2782ddfce"},"vehicle_type_id":"4","last_reported":1726434508,"current_range_meters":1600,"station_id":"ce4bh112rcd13ifvqd90","pricing_plan_id":"cebpf4jnsgd1na2vs0mg"},{"bike_id":"fd9b1bc0-755b-4955-b336-480a9a0d526a","system_id":"levelo_inurba_marseille","lat":43.28851,"lon":5.39332,"is_reserved":false,"is_disabled":false,"rental_uris":{"android":"levelo://app?vid=fd9b1bc0-755b-4955-b336-480a9a0d526a","ios":"levelo://app?vid=fd9b1bc0-755b-4955-b336-480a9a0d526a"},"vehicle_type_id":"4","last_reported":1726434508,"current_range_meters":38800,"station_id":"ce4bh2p2rcd13ifvqdi0","pricing_plan_id":"cebpf4jnsgd1na2vs0mg"},{"bike_id":"f79ff168-7c1f-43a6-9a48-819ae1e3b151","system_id":"levelo_inurba_marseille","lat":43.24071,"lon":5.37756,"is_reserved":false,"is_disabled":false,"rental_uris":{"android":"levelo://app?vid=f79ff168-7c1f-43a6-9a48-819ae1e3b151","ios":"levelo://app?vid=f79ff168-7c1f-43a6-9a48-819ae1e3b151"},"vehicle_type_id":"4","last_reported":1726434508,"current_range_meters":10000,"station_id":"ce4bhnp2rcd13ifvqgvg","pricing_plan_id":"cebpf4jnsgd1na2vs0mg"},{"bike_id":"3a0f783c-a38b-42d4-9fa6-620a863153fe","system_id":"levelo_inurba_marseille","lat":43.25722,"lon":5.41116,"is_reserved":false,"is_disabled":false,"rental_uris":{"android":"levelo://app?vid=3a0f783c-a38b-42d4-9fa6-620a863153fe","ios":"levelo://app?vid=3a0f783c-a38b-42d4-9fa6-620a863153fe"},"vehicle_type_id":"4","last_reported":1726434508,"current_range_meters":38800,"station_id":"ce4bhkp2rcd13ifvqgd0","pricing_plan_id":"cebpf4jnsgd1na2vs0mg"},{"bike_id":"a71d4a2a-8d65-47b4-875c-adc220c62749","system_id":"levelo_inurba_marseille","lat":43.25112,"lon":5.40323,"is_reserved":false,"is_disabled":false,"rental_uris":{"android":"levelo://app?vid=a71d4a2a-8d65-47b4-875c-adc220c62749","ios":"levelo://app?vid=a71d4a2a-8d65-47b4-875c-adc220c62749"},"vehicle_type_id":"4","last_reported":1726434508,"current_range_meters":31200,"station_id":"ce4bhlh2rcd13ifvqgig","pricing_plan_id":"cebpf4jnsgd1na2vs0mg"},{"bike_id":"33d7f647-3c77-4900-85cd-f62125c908a0","system_id":"levelo_inurba_marseille","lat":43.25081,"lon":5.39514,"is_reserved":false,"is_disabled":false,"rental_uris":{"android":"levelo://app?vid=33d7f647-3c77-4900-85cd-f62125c908a0","ios":"levelo://app?vid=33d7f647-3c77-4900-85cd-f62125c908a0"},"vehicle_type_id":"4","last_reported":1726434508,"current_range_meters":32800,"station_id":"ce4bhm12rcd13ifvqgkg","pricing_plan_id":"cebpf4jnsgd1na2vs0mg"},{"bike_id":"029f0ea1-5077-4b01-9417-dd5c03c6e280","system_id":"levelo_inurba_marseille","lat":43.25721,"lon":5.41115,"is_reserved":false,"is_disabled":false,"rental_uris":{"android":"levelo://app?vid=029f0ea1-5077-4b01-9417-dd5c03c6e280","ios":"levelo://app?vid=029f0ea1-5077-4b01-9417-dd5c03c6e280"},"vehicle_type_id":"4","last_reported":1726434508,"current_range_meters":38800,"station_id":"ce4bhkp2rcd13ifvqgd0","pricing_plan_id":"cebpf4jnsgd1na2vs0mg"},{"bike_id":"ce991db5-882f-4afb-8c60-7eef6d782fd1","system_id":"levelo_inurba_marseille","lat":43.299939,"lon":5.384753,"is_reserved":false,"is_disabled":false,"rental_uris":{"android":"levelo://app?vid=ce991db5-882f-4afb-8c60-7eef6d782fd1","ios":"levelo://app?vid=ce991db5-882f-4afb-8c60-7eef6d782fd1"},"vehicle_type_id":"4","last_reported":1726434508,"current_range_meters":19600,"station_id":"ce4bgj92rcd13ifvqbd0","pricing_plan_id":"cebpf4jnsgd1na2vs0mg"},{"bike_id":"9877ae33-6c0d-4b5d-be3b-3fee58b6d326","system_id":"levelo_inurba_marseille","lat":43.30894,"lon":5.37199,"is_reserved":false,"is_disabled":false,"rental_uris":{"android":"levelo://app?vid=9877ae33-6c0d-4b5d-be3b-3fee58b6d326","ios":"levelo://app?vid=9877ae33-6c0d-4b5d-be3b-3fee58b6d326"},"vehicle_type_id":"4","last_reported":1726434508,"current_range_meters":6400,"station_id":"ce4bguh2rcd13ifvqckg","pricing_plan_id":"cebpf4jnsgd1na2vs0mg"},{"bike_id":"6dcfe498-2d19-4a64-b3bd-bf6302471a64","system_id":"levelo_inurba_marseille","lat":43.31072,"lon":5.38362,"is_reserved":false,"is_disabled":false,"rental_uris":{"android":"levelo://app?vid=6dcfe498-2d19-4a64-b3bd-bf6302471a64","ios":"levelo://app?vid=6dcfe498-2d19-4a64-b3bd-bf6302471a64"},"vehicle_type_id":"4","last_reported":1726434508,"current_range_meters":38800,"station_id":"ce4bgv92rcd13ifvqcr0","pricing_plan_id":"cebpf4jnsgd1na2vs0mg"},{"bike_id":"b0fed14a-8ca6-41c1-a7a1-3028dcb47f60","system_id":"levelo_inurba_marseille","lat":43.31174,"lon":5.38719,"is_reserved":false,"is_disabled":false,"rental_uris":{"android":"levelo://app?vid=b0fed14a-8ca6-41c1-a7a1-3028dcb47f60","ios":"levelo://app?vid=b0fed14a-8ca6-41c1-a7a1-3028dcb47f60"},"vehicle_type_id":"4","last_reported":1726434508,"current_range_meters":38000,"station_id":"ce4bgv12rcd13ifvqcp0","pricing_plan_id":"cebpf4jnsgd1na2vs0mg"},{"bike_id":"f0c80138-35a8-4472-9afb-e4c6f8153af2","system_id":"levelo_inurba_marseille","lat":43.31367,"lon":5.38491,"is_reserved":false,"is_disabled":false,"rental_uris":{"android":"levelo://app?vid=f0c80138-35a8-4472-9afb-e4c6f8153af2","ios":"levelo://app?vid=f0c80138-35a8-4472-9afb-e4c6f8153af2"},"vehicle_type_id":"4","last_reported":1726434508,"current_range_meters":26800,"station_id":"ce4bgt92rcd13ifvqcf0","pricing_plan_id":"cebpf4jnsgd1na2vs0mg"},{"bike_id":"4b850bb4-e07b-4864-a8eb-064b46aaa20d","system_id":"levelo_inurba_marseille","lat":43.31168,"lon":5.38722,"is_reserved":false,"is_disabled":false,"rental_uris":{"android":"levelo://app?vid=4b850bb4-e07b-4864-a8eb-064b46aaa20d","ios":"levelo://app?vid=4b850bb4-e07b-4864-a8eb-064b46aaa20d"},"vehicle_type_id":"4","last_reported":1726434508,"current_range_meters":39200,"station_id":"ce4bgv12rcd13ifvqcp0","pricing_plan_id":"cebpf4jnsgd1na2vs0mg"},{"bike_id":"ecab2b07-b455-4c0a-a787-affa632df0b6","system_id":"levelo_inurba_marseille","lat":43.29552,"lon":5.42285,"is_reserved":false,"is_disabled":false,"rental_uris":{"android":"levelo://app?vid=ecab2b07-b455-4c0a-a787-affa632df0b6","ios":"levelo://app?vid=ecab2b07-b455-4c0a-a787-affa632df0b6"},"vehicle_type_id":"4","last_reported":1726434508,"current_range_meters":20000,"station_id":"ce4bhph2rcd13ifvqhdg","pricing_plan_id":"cebpf4jnsgd1na2vs0mg"},{"bike_id":"e0578bd3-1a0e-429a-8b90-c50cda685c19","system_id":"levelo_inurba_marseille","lat":43.25829,"lon":5.39436,"is_reserved":false,"is_disabled":false,"rental_uris":{"android":"levelo://app?vid=e0578bd3-1a0e-429a-8b90-c50cda685c19","ios":"levelo://app?vid=e0578bd3-1a0e-429a-8b90-c50cda685c19"},"vehicle_type_id":"4","last_reported":1726434508,"current_range_meters":36000,"station_id":"ce4bhip2rcd13ifvqft0","pricing_plan_id":"cebpf4jnsgd1na2vs0mg"},{"bike_id":"26db0265-0a91-4c66-8aa8-67a94f7eef0d","system_id":"levelo_inurba_marseille","lat":43.26941,"lon":5.40063,"is_reserved":false,"is_disabled":false,"rental_uris":{"android":"levelo://app?vid=26db0265-0a91-4c66-8aa8-67a94f7eef0d","ios":"levelo://app?vid=26db0265-0a91-4c66-8aa8-67a94f7eef0d"},"vehicle_type_id":"4","last_reported":1726434508,"current_range_meters":8400,"station_id":"","pricing_plan_id":"cebpf4jnsgd1na2vs0mg"},{"bike_id":"f8a51900-9430-4882-b0ec-fab5477158b9","system_id":"levelo_inurba_marseille","lat":43.32336,"lon":5.40621,"is_reserved":false,"is_disabled":false,"rental_uris":{"android":"levelo://app?vid=f8a51900-9430-4882-b0ec-fab5477158b9","ios":"levelo://app?vid=f8a51900-9430-4882-b0ec-fab5477158b9"},"vehicle_type_id":"4","last_reported":1726434508,"current_range_meters":8000,"station_id":"ce4bhq92rcd13ifvqhjg","pricing_plan_id":"cebpf4jnsgd1na2vs0mg"},{"bike_id":"8517432e-3115-4729-8751-a17fa8d6698c","system_id":"levelo_inurba_marseille","lat":43.32366,"lon":5.38884,"is_reserved":false,"is_disabled":false,"rental_uris":{"android":"levelo://app?vid=8517432e-3115-4729-8751-a17fa8d6698c","ios":"levelo://app?vid=8517432e-3115-4729-8751-a17fa8d6698c"},"vehicle_type_id":"4","last_reported":1726434508,"current_range_meters":29600,"station_id":"ce4bhqp2rcd13ifvqhog","pricing_plan_id":"cebpf4jnsgd1na2vs0mg"},{"bike_id":"98146a55-0bb8-4140-892c-d49fa1ded5aa","system_id":"levelo_inurba_marseille","lat":43.28565,"lon":5.39505,"is_reserved":false,"is_disabled":false,"rental_uris":{"android":"levelo://app?vid=98146a55-0bb8-4140-892c-d49fa1ded5aa","ios":"levelo://app?vid=98146a55-0bb8-4140-892c-d49fa1ded5aa"},"vehicle_type_id":"4","last_reported":1726434508,"current_range_meters":37600,"station_id":"ce4bh292rcd13ifvqdg0","pricing_plan_id":"cebpf4jnsgd1na2vs0mg"},{"bike_id":"189b6bc1-c1a3-4f5b-a4cc-c0f641262031","system_id":"levelo_inurba_marseille","lat":43.28406,"lon":5.37518,"is_reserved":false,"is_disabled":false,"rental_uris":{"android":"levelo://app?vid=189b6bc1-c1a3-4f5b-a4cc-c0f641262031","ios":"levelo://app?vid=189b6bc1-c1a3-4f5b-a4cc-c0f641262031"},"vehicle_type_id":"4","last_reported":1726434508,"current_range_meters":37600,"station_id":"ce4bh412rcd13ifvqds0","pricing_plan_id":"cebpf4jnsgd1na2vs0mg"},{"bike_id":"0d4e8fb9-2f00-4bf1-813f-083deb41c99b","system_id":"levelo_inurba_marseille","lat":43.29805,"lon":5.40402,"is_reserved":false,"is_disabled":false,"rental_uris":{"android":"levelo://app?vid=0d4e8fb9-2f00-4bf1-813f-083deb41c99b","ios":"levelo://app?vid=0d4e8fb9-2f00-4bf1-813f-083deb41c99b"},"vehicle_type_id":"4","last_reported":1726434508,"current_range_meters":16400,"station_id":"ce4bh112rcd13ifvqd90","pricing_plan_id":"cebpf4jnsgd1na2vs0mg"},{"bike_id":"4a242603-bbd4-4c64-95b7-5d2a2c40089b","system_id":"levelo_inurba_marseille","lat":43.301387,"lon":5.387839,"is_reserved":false,"is_disabled":false,"rental_uris":{"android":"levelo://app?vid=4a242603-bbd4-4c64-95b7-5d2a2c40089b","ios":"levelo://app?vid=4a242603-bbd4-4c64-95b7-5d2a2c40089b"},"vehicle_type_id":"4","last_reported":1726434508,"current_range_meters":20400,"station_id":"ce4bghh2rcd13ifvqb60","pricing_plan_id":"cebpf4jnsgd1na2vs0mg"},{"bike_id":"fa0bba81-ae28-438c-aaa0-a2a0c9d69ac5","system_id":"levelo_inurba_marseille","lat":43.29555,"lon":5.42302,"is_reserved":false,"is_disabled":false,"rental_uris":{"android":"levelo://app?vid=fa0bba81-ae28-438c-aaa0-a2a0c9d69ac5","ios":"levelo://app?vid=fa0bba81-ae28-438c-aaa0-a2a0c9d69ac5"},"vehicle_type_id":"4","last_reported":1726434508,"current_range_meters":32800,"station_id":"ce4bhph2rcd13ifvqhdg","pricing_plan_id":"cebpf4jnsgd1na2vs0mg"},{"bike_id":"22abc786-11de-49ba-8901-022e94127ff5","system_id":"levelo_inurba_marseille","lat":43.28457,"lon":5.35888,"is_reserved":false,"is_disabled":false,"rental_uris":{"android":"levelo://app?vid=22abc786-11de-49ba-8901-022e94127ff5","ios":"levelo://app?vid=22abc786-11de-49ba-8901-022e94127ff5"},"vehicle_type_id":"4","last_reported":1726434508,"current_range_meters":38800,"station_id":"ce4bhah2rcd13ifvqei0","pricing_plan_id":"cebpf4jnsgd1na2vs0mg"},{"bike_id":"415b13fd-de58-480c-861b-9f42d1eebf31","system_id":"levelo_inurba_marseille","lat":43.30422,"lon":5.41286,"is_reserved":false,"is_disabled":false,"rental_uris":{"android":"levelo://app?vid=415b13fd-de58-480c-861b-9f42d1eebf31","ios":"levelo://app?vid=415b13fd-de58-480c-861b-9f42d1eebf31"},"vehicle_type_id":"4","last_reported":1726434508,"current_range_meters":36400,"station_id":"ce4bhop2rcd13ifvqh8g","pricing_plan_id":"cebpf4jnsgd1na2vs0mg"},{"bike_id":"e2abad20-a158-4e79-b33f-15cae26117b1","system_id":"levelo_inurba_marseille","lat":43.29793,"lon":5.37103,"is_reserved":false,"is_disabled":false,"rental_uris":{"android":"levelo://app?vid=e2abad20-a158-4e79-b33f-15cae26117b1","ios":"levelo://app?vid=e2abad20-a158-4e79-b33f-15cae26117b1"},"vehicle_type_id":"4","last_reported":1726434508,"current_range_meters":32400,"station_id":"ce4bgop2rcd13ifvqc1g","pricing_plan_id":"cebpf4jnsgd1na2vs0mg"},{"bike_id":"eea5da65-807b-4bae-8527-d4e6e67950d2","system_id":"levelo_inurba_marseille","lat":43.29085,"lon":5.38142,"is_reserved":false,"is_disabled":false,"rental_uris":{"android":"levelo://app?vid=eea5da65-807b-4bae-8527-d4e6e67950d2","ios":"levelo://app?vid=eea5da65-807b-4bae-8527-d4e6e67950d2"},"vehicle_type_id":"4","last_reported":1726434508,"current_range_meters":37600,"station_id":"ce4bh512rcd13ifvqe2g","pricing_plan_id":"cebpf4jnsgd1na2vs0mg"},{"bike_id":"79ea390f-3544-4601-8ba4-49a229f19d53","system_id":"levelo_inurba_marseille","lat":43.29851,"lon":5.3629,"is_reserved":false,"is_disabled":false,"rental_uris":{"android":"levelo://app?vid=79ea390f-3544-4601-8ba4-49a229f19d53","ios":"levelo://app?vid=79ea390f-3544-4601-8ba4-49a229f19d53"},"vehicle_type_id":"4","last_reported":1726434508,"current_range_meters":32800,"station_id":"ce4bgpp2rcd13ifvqc3g","pricing_plan_id":"cebpf4jnsgd1na2vs0mg"},{"bike_id":"734240c6-29e1-4ec6-9380-37be44386dff","system_id":"levelo_inurba_marseille","lat":43.31696,"lon":5.40471,"is_reserved":false,"is_disabled":false,"rental_uris":{"android":"levelo://app?vid=734240c6-29e1-4ec6-9380-37be44386dff","ios":"levelo://app?vid=734240c6-29e1-4ec6-9380-37be44386dff"},"vehicle_type_id":"4","last_reported":1726434508,"current_range_meters":38800,"station_id":"ce4bh012rcd13ifvqd00","pricing_plan_id":"cebpf4jnsgd1na2vs0mg"},{"bike_id":"33053cf2-610c-4da4-94fa-5f3f0eebd41c","system_id":"levelo_inurba_marseille","lat":43.25118,"lon":5.40319,"is_reserved":false,"is_disabled":false,"rental_uris":{"android":"levelo://app?vid=33053cf2-610c-4da4-94fa-5f3f0eebd41c","ios":"levelo://app?vid=33053cf2-610c-4da4-94fa-5f3f0eebd41c"},"vehicle_type_id":"4","last_reported":1726434508,"current_range_meters":24400,"station_id":"ce4bhlh2rcd13ifvqgig","pricing_plan_id":"cebpf4jnsgd1na2vs0mg"},{"bike_id":"a31bc9c2-7f37-4659-a036-5cd9612ab424","system_id":"levelo_inurba_marseille","lat":43.27824,"lon":5.40703,"is_reserved":false,"is_disabled":false,"rental_uris":{"android":"levelo://app?vid=a31bc9c2-7f37-4659-a036-5cd9612ab424","ios":"levelo://app?vid=a31bc9c2-7f37-4659-a036-5cd9612ab424"},"vehicle_type_id":"4","last_reported":1726434508,"current_range_meters":25200,"station_id":"ce4bhnh2rcd13ifvqgtg","pricing_plan_id":"cebpf4jnsgd1na2vs0mg"},{"bike_id":"174bbbf3-4fe0-461c-8b4e-fc788bc79ba5","system_id":"levelo_inurba_marseille","lat":43.28715,"lon":5.40002,"is_reserved":false,"is_disabled":false,"rental_uris":{"android":"levelo://app?vid=174bbbf3-4fe0-461c-8b4e-fc788bc79ba5","ios":"levelo://app?vid=174bbbf3-4fe0-461c-8b4e-fc788bc79ba5"},"vehicle_type_id":"4","last_reported":1726434508,"current_range_meters":32000,"station_id":"ce4bho92rcd13ifvqh3g","pricing_plan_id":"cebpf4jnsgd1na2vs0mg"},{"bike_id":"1134581e-f810-461e-b37e-c93b04fe2c0f","system_id":"levelo_inurba_marseille","lat":43.30261,"lon":5.40094,"is_reserved":false,"is_disabled":false,"rental_uris":{"android":"levelo://app?vid=1134581e-f810-461e-b37e-c93b04fe2c0f","ios":"levelo://app?vid=1134581e-f810-461e-b37e-c93b04fe2c0f"},"vehicle_type_id":"4","last_reported":1726434508,"current_range_meters":31200,"station_id":"ce4bgvh2rcd13ifvqcs0","pricing_plan_id":"cebpf4jnsgd1na2vs0mg"},{"bike_id":"28606dd2-d697-43cc-8a7b-3d972d1bfad5","system_id":"levelo_inurba_marseille","lat":43.28461,"lon":5.35888,"is_reserved":false,"is_disabled":false,"rental_uris":{"android":"levelo://app?vid=28606dd2-d697-43cc-8a7b-3d972d1bfad5","ios":"levelo://app?vid=28606dd2-d697-43cc-8a7b-3d972d1bfad5"},"vehicle_type_id":"4","last_reported":1726434508,"current_range_meters":11200,"station_id":"ce4bhah2rcd13ifvqei0","pricing_plan_id":"cebpf4jnsgd1na2vs0mg"},{"bike_id":"09d52f7f-1090-478a-bc0d-b57ff69e68b7","system_id":"levelo_inurba_marseille","lat":43.28715,"lon":5.37942,"is_reserved":false,"is_disabled":false,"rental_uris":{"android":"levelo://app?vid=09d52f7f-1090-478a-bc0d-b57ff69e68b7","ios":"levelo://app?vid=09d52f7f-1090-478a-bc0d-b57ff69e68b7"},"vehicle_type_id":"4","last_reported":1726434508,"current_range_meters":38800,"station_id":"ce4bh9p2rcd13ifvqec0","pricing_plan_id":"cebpf4jnsgd1na2vs0mg"},{"bike_id":"b54ba2f9-b92a-4c11-bba5-26b2b53e29fc","system_id":"levelo_inurba_marseille","lat":43.32031,"lon":5.41569,"is_reserved":false,"is_disabled":false,"rental_uris":{"android":"levelo://app?vid=b54ba2f9-b92a-4c11-bba5-26b2b53e29fc","ios":"levelo://app?vid=b54ba2f9-b92a-4c11-bba5-26b2b53e29fc"},"vehicle_type_id":"4","last_reported":1726434508,"current_range_meters":38800,"station_id":"ce4bhq92rcd13ifvqhkg","pricing_plan_id":"cebpf4jnsgd1na2vs0mg"},{"bike_id":"8f979555-d0d6-4c8f-9fce-0747a350b182","system_id":"levelo_inurba_marseille","lat":43.28718,"lon":5.37947,"is_reserved":false,"is_disabled":false,"rental_uris":{"android":"levelo://app?vid=8f979555-d0d6-4c8f-9fce-0747a350b182","ios":"levelo://app?vid=8f979555-d0d6-4c8f-9fce-0747a350b182"},"vehicle_type_id":"4","last_reported":1726434508,"current_range_meters":38800,"station_id":"ce4bh9p2rcd13ifvqec0","pricing_plan_id":"cebpf4jnsgd1na2vs0mg"},{"bike_id":"492cbc9d-84db-4221-9148-746ee2c3520d","system_id":"levelo_inurba_marseille","lat":43.30919,"lon":5.40148,"is_reserved":false,"is_disabled":false,"rental_uris":{"android":"levelo://app?vid=492cbc9d-84db-4221-9148-746ee2c3520d","ios":"levelo://app?vid=492cbc9d-84db-4221-9148-746ee2c3520d"},"vehicle_type_id":"4","last_reported":1726434508,"current_range_meters":33200,"station_id":"ce4bgvp2rcd13ifvqct0","pricing_plan_id":"cebpf4jnsgd1na2vs0mg"},{"bike_id":"b1db6496-7d7b-4acc-a88c-e5406d38e100","system_id":"levelo_inurba_marseille","lat":43.23196,"lon":5.35545,"is_reserved":false,"is_disabled":false,"rental_uris":{"android":"levelo://app?vid=b1db6496-7d7b-4acc-a88c-e5406d38e100","ios":"levelo://app?vid=b1db6496-7d7b-4acc-a88c-e5406d38e100"},"vehicle_type_id":"4","last_reported":1726434508,"current_range_meters":36000,"station_id":"ce4bhu92rcd13ifvqi70","pricing_plan_id":"cebpf4jnsgd1na2vs0mg"},{"bike_id":"699c2d25-175b-42db-b164-f8393f10dc37","system_id":"levelo_inurba_marseille","lat":43.29969,"lon":5.37184,"is_reserved":false,"is_disabled":false,"rental_uris":{"android":"levelo://app?vid=699c2d25-175b-42db-b164-f8393f10dc37","ios":"levelo://app?vid=699c2d25-175b-42db-b164-f8393f10dc37"},"vehicle_type_id":"4","last_reported":1726434508,"current_range_meters":38400,"station_id":"ce4bgr92rcd13ifvqc7g","pricing_plan_id":"cebpf4jnsgd1na2vs0mg"},{"bike_id":"ee721f16-71d0-49c8-9da4-858f78b55bcb","system_id":"levelo_inurba_marseille","lat":43.25938,"lon":5.40902,"is_reserved":false,"is_disabled":false,"rental_uris":{"android":"levelo://app?vid=ee721f16-71d0-49c8-9da4-858f78b55bcb","ios":"levelo://app?vid=ee721f16-71d0-49c8-9da4-858f78b55bcb"},"vehicle_type_id":"4","last_reported":1726434508,"current_range_meters":24400,"station_id":"ce4bhm92rcd13ifvqglg","pricing_plan_id":"cebpf4jnsgd1na2vs0mg"},{"bike_id":"826f4136-a005-4203-8c5f-7808e18dcf00","system_id":"levelo_inurba_marseille","lat":43.29554,"lon":5.4229,"is_reserved":false,"is_disabled":false,"rental_uris":{"android":"levelo://app?vid=826f4136-a005-4203-8c5f-7808e18dcf00","ios":"levelo://app?vid=826f4136-a005-4203-8c5f-7808e18dcf00"},"vehicle_type_id":"4","last_reported":1726434508,"current_range_meters":6800,"station_id":"ce4bhph2rcd13ifvqhdg","pricing_plan_id":"cebpf4jnsgd1na2vs0mg"},{"bike_id":"4aa8fffc-3009-4aac-a523-81d25af77ad2","system_id":"levelo_inurba_marseille","lat":43.28393,"lon":5.37512,"is_reserved":false,"is_disabled":false,"rental_uris":{"android":"levelo://app?vid=4aa8fffc-3009-4aac-a523-81d25af77ad2","ios":"levelo://app?vid=4aa8fffc-3009-4aac-a523-81d25af77ad2"},"vehicle_type_id":"4","last_reported":1726434508,"current_range_meters":30800,"station_id":"ce4bh412rcd13ifvqds0","pricing_plan_id":"cebpf4jnsgd1na2vs0mg"},{"bike_id":"5cf4c2f1-f092-4550-b8cf-369099ebc3bc","system_id":"levelo_inurba_marseille","lat":43.24568,"lon":5.41551,"is_reserved":false,"is_disabled":false,"rental_uris":{"android":"levelo://app?vid=5cf4c2f1-f092-4550-b8cf-369099ebc3bc","ios":"levelo://app?vid=5cf4c2f1-f092-4550-b8cf-369099ebc3bc"},"vehicle_type_id":"4","last_reported":1726434508,"current_range_meters":11600,"station_id":"ce4bhlh2rcd13ifvqgig","pricing_plan_id":"cebpf4jnsgd1na2vs0mg"},{"bike_id":"4721e0a5-8c0a-4c61-91fb-10c3ba183135","system_id":"levelo_inurba_marseille","lat":43.24074,"lon":5.37764,"is_reserved":false,"is_disabled":false,"rental_uris":{"android":"levelo://app?vid=4721e0a5-8c0a-4c61-91fb-10c3ba183135","ios":"levelo://app?vid=4721e0a5-8c0a-4c61-91fb-10c3ba183135"},"vehicle_type_id":"4","last_reported":1726434508,"current_range_meters":12000,"station_id":"ce4bhnp2rcd13ifvqgvg","pricing_plan_id":"cebpf4jnsgd1na2vs0mg"},{"bike_id":"577152f2-f0b6-4a34-a48f-093e049c2180","system_id":"levelo_inurba_marseille","lat":43.31226,"lon":5.36856,"is_reserved":false,"is_disabled":false,"rental_uris":{"android":"levelo://app?vid=577152f2-f0b6-4a34-a48f-093e049c2180","ios":"levelo://app?vid=577152f2-f0b6-4a34-a48f-093e049c2180"},"vehicle_type_id":"4","last_reported":1726434508,"current_range_meters":38800,"station_id":"ce4bgl92rcd13ifvqbq0","pricing_plan_id":"cebpf4jnsgd1na2vs0mg"},{"bike_id":"39631300-b771-4e23-bbdb-b2a1db467ce1","system_id":"levelo_inurba_marseille","lat":43.32366,"lon":5.38889,"is_reserved":false,"is_disabled":false,"rental_uris":{"android":"levelo://app?vid=39631300-b771-4e23-bbdb-b2a1db467ce1","ios":"levelo://app?vid=39631300-b771-4e23-bbdb-b2a1db467ce1"},"vehicle_type_id":"4","last_reported":1726434508,"current_range_meters":33600,"station_id":"ce4bhqp2rcd13ifvqhog","pricing_plan_id":"cebpf4jnsgd1na2vs0mg"},{"bike_id":"b645ac77-0d58-4fa9-8ad3-947af8bdb1d9","system_id":"levelo_inurba_marseille","lat":43.29902,"lon":5.43677,"is_reserved":false,"is_disabled":false,"rental_uris":{"android":"levelo://app?vid=b645ac77-0d58-4fa9-8ad3-947af8bdb1d9","ios":"levelo://app?vid=b645ac77-0d58-4fa9-8ad3-947af8bdb1d9"},"vehicle_type_id":"4","last_reported":1726434508,"current_range_meters":32000,"station_id":"ce4bhpp2rcd13ifvqhfg","pricing_plan_id":"cebpf4jnsgd1na2vs0mg"},{"bike_id":"03515e55-0de8-4f6d-953a-abbf71a9cce4","system_id":"levelo_inurba_marseille","lat":43.24071,"lon":5.37759,"is_reserved":false,"is_disabled":false,"rental_uris":{"android":"levelo://app?vid=03515e55-0de8-4f6d-953a-abbf71a9cce4","ios":"levelo://app?vid=03515e55-0de8-4f6d-953a-abbf71a9cce4"},"vehicle_type_id":"4","last_reported":1726434508,"current_range_meters":15200,"station_id":"ce4bhnp2rcd13ifvqgvg","pricing_plan_id":"cebpf4jnsgd1na2vs0mg"},{"bike_id":"eaf80fae-4a2b-497e-8801-e7f36cd6b653","system_id":"levelo_inurba_marseille","lat":43.28449,"lon":5.35886,"is_reserved":false,"is_disabled":false,"rental_uris":{"android":"levelo://app?vid=eaf80fae-4a2b-497e-8801-e7f36cd6b653","ios":"levelo://app?vid=eaf80fae-4a2b-497e-8801-e7f36cd6b653"},"vehicle_type_id":"4","last_reported":1726434508,"current_range_meters":21600,"station_id":"ce4bhah2rcd13ifvqei0","pricing_plan_id":"cebpf4jnsgd1na2vs0mg"},{"bike_id":"aaea6de8-5c30-44c2-89a6-c45adb2acd03","system_id":"levelo_inurba_marseille","lat":43.323395,"lon":5.406183,"is_reserved":false,"is_disabled":false,"rental_uris":{"android":"levelo://app?vid=aaea6de8-5c30-44c2-89a6-c45adb2acd03","ios":"levelo://app?vid=aaea6de8-5c30-44c2-89a6-c45adb2acd03"},"vehicle_type_id":"4","last_reported":1726434508,"current_range_meters":33600,"station_id":"ce4bhq92rcd13ifvqhjg","pricing_plan_id":"cebpf4jnsgd1na2vs0mg"},{"bike_id":"8e04ad42-4fb7-46a5-8bdd-901fc987436f","system_id":"levelo_inurba_marseille","lat":43.3101,"lon":5.38062,"is_reserved":false,"is_disabled":false,"rental_uris":{"android":"levelo://app?vid=8e04ad42-4fb7-46a5-8bdd-901fc987436f","ios":"levelo://app?vid=8e04ad42-4fb7-46a5-8bdd-901fc987436f"},"vehicle_type_id":"4","last_reported":1726434508,"current_range_meters":38400,"station_id":"","pricing_plan_id":"cebpf4jnsgd1na2vs0mg"},{"bike_id":"476b1e2b-d05b-4015-b83d-5f18d98c44f5","system_id":"levelo_inurba_marseille","lat":43.29521,"lon":5.39418,"is_reserved":false,"is_disabled":false,"rental_uris":{"android":"levelo://app?vid=476b1e2b-d05b-4015-b83d-5f18d98c44f5","ios":"levelo://app?vid=476b1e2b-d05b-4015-b83d-5f18d98c44f5"},"vehicle_type_id":"4","last_reported":1726434508,"current_range_meters":38800,"station_id":"ce4bh292rcd13ifvqdf0","pricing_plan_id":"cebpf4jnsgd1na2vs0mg"},{"bike_id":"a4c0cf7c-3841-4e16-9fa4-fcc011f72b5b","system_id":"levelo_inurba_marseille","lat":43.30124,"lon":5.39883,"is_reserved":false,"is_disabled":false,"rental_uris":{"android":"levelo://app?vid=a4c0cf7c-3841-4e16-9fa4-fcc011f72b5b","ios":"levelo://app?vid=a4c0cf7c-3841-4e16-9fa4-fcc011f72b5b"},"vehicle_type_id":"4","last_reported":1726434508,"current_range_meters":6400,"station_id":"ce4bh0h2rcd13ifvqd40","pricing_plan_id":"cebpf4jnsgd1na2vs0mg"},{"bike_id":"c977ac76-9a71-4518-8b9f-61c2000648c4","system_id":"levelo_inurba_marseille","lat":43.31074,"lon":5.3835,"is_reserved":false,"is_disabled":false,"rental_uris":{"android":"levelo://app?vid=c977ac76-9a71-4518-8b9f-61c2000648c4","ios":"levelo://app?vid=c977ac76-9a71-4518-8b9f-61c2000648c4"},"vehicle_type_id":"4","last_reported":1726434508,"current_range_meters":28400,"station_id":"ce4bgv92rcd13ifvqcr0","pricing_plan_id":"cebpf4jnsgd1na2vs0mg"},{"bike_id":"7abc2a25-404a-4f70-a7c0-c89315b5c4bc","system_id":"levelo_inurba_marseille","lat":43.29067,"lon":5.4056,"is_reserved":false,"is_disabled":false,"rental_uris":{"android":"levelo://app?vid=7abc2a25-404a-4f70-a7c0-c89315b5c4bc","ios":"levelo://app?vid=7abc2a25-404a-4f70-a7c0-c89315b5c4bc"},"vehicle_type_id":"4","last_reported":1726434508,"current_range_meters":27600,"station_id":"","pricing_plan_id":"cebpf4jnsgd1na2vs0mg"},{"bike_id":"7646c591-ba02-4a98-a2f6-74af65491dc1","system_id":"levelo_inurba_marseille","lat":43.27989,"lon":5.40051,"is_reserved":false,"is_disabled":false,"rental_uris":{"android":"levelo://app?vid=7646c591-ba02-4a98-a2f6-74af65491dc1","ios":"levelo://app?vid=7646c591-ba02-4a98-a2f6-74af65491dc1"},"vehicle_type_id":"4","last_reported":1726434508,"current_range_meters":38800,"station_id":"ce4bho92rcd13ifvqh4g","pricing_plan_id":"cebpf4jnsgd1na2vs0mg"},{"bike_id":"677498c9-746b-4650-9a8e-2c7479635944","system_id":"levelo_inurba_marseille","lat":43.33026,"lon":5.39055,"is_reserved":false,"is_disabled":false,"rental_uris":{"android":"levelo://app?vid=677498c9-746b-4650-9a8e-2c7479635944","ios":"levelo://app?vid=677498c9-746b-4650-9a8e-2c7479635944"},"vehicle_type_id":"4","last_reported":1726434508,"current_range_meters":30800,"station_id":"ce4bhr92rcd13ifvqhrg","pricing_plan_id":"cebpf4jnsgd1na2vs0mg"},{"bike_id":"2114bb84-313e-4183-8394-88aa145e29a1","system_id":"levelo_inurba_marseille","lat":43.290425,"lon":5.39964,"is_reserved":false,"is_disabled":false,"rental_uris":{"android":"levelo://app?vid=2114bb84-313e-4183-8394-88aa145e29a1","ios":"levelo://app?vid=2114bb84-313e-4183-8394-88aa145e29a1"},"vehicle_type_id":"4","last_reported":1726434508,"current_range_meters":33200,"station_id":"ce4bh392rcd13ifvqdm0","pricing_plan_id":"cebpf4jnsgd1na2vs0mg"},{"bike_id":"37953827-974e-46ca-97c1-88f0a25dd0b1","system_id":"levelo_inurba_marseille","lat":43.30317,"lon":5.36903,"is_reserved":false,"is_disabled":false,"rental_uris":{"android":"levelo://app?vid=37953827-974e-46ca-97c1-88f0a25dd0b1","ios":"levelo://app?vid=37953827-974e-46ca-97c1-88f0a25dd0b1"},"vehicle_type_id":"4","last_reported":1726434508,"current_range_meters":3200,"station_id":"ce4bgqh2rcd13ifvqc5g","pricing_plan_id":"cebpf4jnsgd1na2vs0mg"},{"bike_id":"3f5b63b5-9f49-4a52-a4be-0b706a026622","system_id":"levelo_inurba_marseille","lat":43.33015,"lon":5.39048,"is_reserved":false,"is_disabled":false,"rental_uris":{"android":"levelo://app?vid=3f5b63b5-9f49-4a52-a4be-0b706a026622","ios":"levelo://app?vid=3f5b63b5-9f49-4a52-a4be-0b706a026622"},"vehicle_type_id":"4","last_reported":1726434508,"current_range_meters":39200,"station_id":"ce4bhr92rcd13ifvqhrg","pricing_plan_id":"cebpf4jnsgd1na2vs0mg"},{"bike_id":"c0042362-d76e-412e-8000-c06d63ef023d","system_id":"levelo_inurba_marseille","lat":43.29042,"lon":5.35904,"is_reserved":false,"is_disabled":false,"rental_uris":{"android":"levelo://app?vid=c0042362-d76e-412e-8000-c06d63ef023d","ios":"levelo://app?vid=c0042362-d76e-412e-8000-c06d63ef023d"},"vehicle_type_id":"4","last_reported":1726434508,"current_range_meters":38400,"station_id":"ce4bha92rcd13ifvqeg0","pricing_plan_id":"cebpf4jnsgd1na2vs0mg"},{"bike_id":"4a70bd25-be2d-4490-b835-bcef6895447c","system_id":"levelo_inurba_marseille","lat":43.29279,"lon":5.36843,"is_reserved":false,"is_disabled":false,"rental_uris":{"android":"levelo://app?vid=4a70bd25-be2d-4490-b835-bcef6895447c","ios":"levelo://app?vid=4a70bd25-be2d-4490-b835-bcef6895447c"},"vehicle_type_id":"4","last_reported":1726434508,"current_range_meters":30400,"station_id":"ce4bhbp2rcd13ifvqesg","pricing_plan_id":"cebpf4jnsgd1na2vs0mg"},{"bike_id":"ed0bfe09-1fce-45b5-a71d-0556b40f6548","system_id":"levelo_inurba_marseille","lat":43.3112,"lon":5.37773,"is_reserved":false,"is_disabled":false,"rental_uris":{"android":"levelo://app?vid=ed0bfe09-1fce-45b5-a71d-0556b40f6548","ios":"levelo://app?vid=ed0bfe09-1fce-45b5-a71d-0556b40f6548"},"vehicle_type_id":"4","last_reported":1726434508,"current_range_meters":16000,"station_id":"ce4bgt92rcd13ifvqcg0","pricing_plan_id":"cebpf4jnsgd1na2vs0mg"},{"bike_id":"3540bcdf-cf57-41b9-9163-5f5aeb577896","system_id":"levelo_inurba_marseille","lat":43.27385,"lon":5.36259,"is_reserved":false,"is_disabled":false,"rental_uris":{"android":"levelo://app?vid=3540bcdf-cf57-41b9-9163-5f5aeb577896","ios":"levelo://app?vid=3540bcdf-cf57-41b9-9163-5f5aeb577896"},"vehicle_type_id":"4","last_reported":1726434508,"current_range_meters":38800,"station_id":"ce4bhbh2rcd13ifvqeo0","pricing_plan_id":"cebpf4jnsgd1na2vs0mg"},{"bike_id":"6b4895a7-8f71-447f-86e5-5a72d609d24d","system_id":"levelo_inurba_marseille","lat":43.31169,"lon":5.38718,"is_reserved":false,"is_disabled":false,"rental_uris":{"android":"levelo://app?vid=6b4895a7-8f71-447f-86e5-5a72d609d24d","ios":"levelo://app?vid=6b4895a7-8f71-447f-86e5-5a72d609d24d"},"vehicle_type_id":"4","last_reported":1726434508,"current_range_meters":35600,"station_id":"ce4bgv12rcd13ifvqcp0","pricing_plan_id":"cebpf4jnsgd1na2vs0mg"},{"bike_id":"b4d2dbe6-7814-4b38-b314-f22564e29de4","system_id":"levelo_inurba_marseille","lat":43.25827,"lon":5.39436,"is_reserved":false,"is_disabled":false,"rental_uris":{"android":"levelo://app?vid=b4d2dbe6-7814-4b38-b314-f22564e29de4","ios":"levelo://app?vid=b4d2dbe6-7814-4b38-b314-f22564e29de4"},"vehicle_type_id":"4","last_reported":1726434508,"current_range_meters":7200,"station_id":"ce4bhip2rcd13ifvqft0","pricing_plan_id":"cebpf4jnsgd1na2vs0mg"},{"bike_id":"a1fd93be-9189-4d8f-bc5f-8b82d66d4441","system_id":"levelo_inurba_marseille","lat":43.24665,"lon":5.38163,"is_reserved":false,"is_disabled":false,"rental_uris":{"android":"levelo://app?vid=a1fd93be-9189-4d8f-bc5f-8b82d66d4441","ios":"levelo://app?vid=a1fd93be-9189-4d8f-bc5f-8b82d66d4441"},"vehicle_type_id":"4","last_reported":1726434508,"current_range_meters":38800,"station_id":"ce4bhih2rcd13ifvqfr0","pricing_plan_id":"cebpf4jnsgd1na2vs0mg"},{"bike_id":"59c2c49a-1762-42b4-9559-0e22c089f63b","system_id":"levelo_inurba_marseille","lat":43.25114,"lon":5.40319,"is_reserved":false,"is_disabled":false,"rental_uris":{"android":"levelo://app?vid=59c2c49a-1762-42b4-9559-0e22c089f63b","ios":"levelo://app?vid=59c2c49a-1762-42b4-9559-0e22c089f63b"},"vehicle_type_id":"4","last_reported":1726434508,"current_range_meters":36000,"station_id":"ce4bhlh2rcd13ifvqgig","pricing_plan_id":"cebpf4jnsgd1na2vs0mg"},{"bike_id":"e40fe4c0-d287-4166-9adb-91e546a3b6ce","system_id":"levelo_inurba_marseille","lat":43.29899,"lon":5.4368,"is_reserved":false,"is_disabled":false,"rental_uris":{"android":"levelo://app?vid=e40fe4c0-d287-4166-9adb-91e546a3b6ce","ios":"levelo://app?vid=e40fe4c0-d287-4166-9adb-91e546a3b6ce"},"vehicle_type_id":"4","last_reported":1726434508,"current_range_meters":2000,"station_id":"ce4bhpp2rcd13ifvqhfg","pricing_plan_id":"cebpf4jnsgd1na2vs0mg"},{"bike_id":"6db17a63-af51-4205-9bcf-00b653a6db03","system_id":"levelo_inurba_marseille","lat":43.3372,"lon":5.39181,"is_reserved":false,"is_disabled":false,"rental_uris":{"android":"levelo://app?vid=6db17a63-af51-4205-9bcf-00b653a6db03","ios":"levelo://app?vid=6db17a63-af51-4205-9bcf-00b653a6db03"},"vehicle_type_id":"4","last_reported":1726434508,"current_range_meters":39200,"station_id":"ce4bhr92rcd13ifvqhsg","pricing_plan_id":"cebpf4jnsgd1na2vs0mg"},{"bike_id":"c2565b12-c8d3-40eb-9421-b9c5501affc8","system_id":"levelo_inurba_marseille","lat":43.29563,"lon":5.39961,"is_reserved":false,"is_disabled":false,"rental_uris":{"android":"levelo://app?vid=c2565b12-c8d3-40eb-9421-b9c5501affc8","ios":"levelo://app?vid=c2565b12-c8d3-40eb-9421-b9c5501affc8"},"vehicle_type_id":"4","last_reported":1726434508,"current_range_meters":38800,"station_id":"ce4bh312rcd13ifvqdj0","pricing_plan_id":"cebpf4jnsgd1na2vs0mg"},{"bike_id":"76d60cb1-256d-42fd-943e-1cfa3162a2c6","system_id":"levelo_inurba_marseille","lat":43.28075,"lon":5.3965,"is_reserved":false,"is_disabled":false,"rental_uris":{"android":"levelo://app?vid=76d60cb1-256d-42fd-943e-1cfa3162a2c6","ios":"levelo://app?vid=76d60cb1-256d-42fd-943e-1cfa3162a2c6"},"vehicle_type_id":"4","last_reported":1726434508,"current_range_meters":25200,"station_id":"ce4bho12rcd13ifvqh2g","pricing_plan_id":"cebpf4jnsgd1na2vs0mg"},{"bike_id":"e26cdc24-c624-4d47-b139-36e9c5ec5975","system_id":"levelo_inurba_marseille","lat":43.28565,"lon":5.39505,"is_reserved":false,"is_disabled":false,"rental_uris":{"android":"levelo://app?vid=e26cdc24-c624-4d47-b139-36e9c5ec5975","ios":"levelo://app?vid=e26cdc24-c624-4d47-b139-36e9c5ec5975"},"vehicle_type_id":"4","last_reported":1726434508,"current_range_meters":36800,"station_id":"ce4bh292rcd13ifvqdg0","pricing_plan_id":"cebpf4jnsgd1na2vs0mg"},{"bike_id":"99684f50-b398-427b-a4e9-7ca0a0382c79","system_id":"levelo_inurba_marseille","lat":43.23191,"lon":5.35554,"is_reserved":false,"is_disabled":false,"rental_uris":{"android":"levelo://app?vid=99684f50-b398-427b-a4e9-7ca0a0382c79","ios":"levelo://app?vid=99684f50-b398-427b-a4e9-7ca0a0382c79"},"vehicle_type_id":"4","last_reported":1726434508,"current_range_meters":32400,"station_id":"ce4bhu92rcd13ifvqi70","pricing_plan_id":"cebpf4jnsgd1na2vs0mg"},{"bike_id":"2b51f057-3d88-46eb-8d2b-f57e8e47a46b","system_id":"levelo_inurba_marseille","lat":43.28697,"lon":5.3739,"is_reserved":false,"is_disabled":false,"rental_uris":{"android":"levelo://app?vid=2b51f057-3d88-46eb-8d2b-f57e8e47a46b","ios":"levelo://app?vid=2b51f057-3d88-46eb-8d2b-f57e8e47a46b"},"vehicle_type_id":"4","last_reported":1726434508,"current_range_meters":39200,"station_id":"ce4bh3p2rcd13ifvqdq0","pricing_plan_id":"cebpf4jnsgd1na2vs0mg"},{"bike_id":"58286d15-9785-4010-942d-ccd63c6b2535","system_id":"levelo_inurba_marseille","lat":43.27985,"lon":5.41651,"is_reserved":false,"is_disabled":false,"rental_uris":{"android":"levelo://app?vid=58286d15-9785-4010-942d-ccd63c6b2535","ios":"levelo://app?vid=58286d15-9785-4010-942d-ccd63c6b2535"},"vehicle_type_id":"4","last_reported":1726434508,"current_range_meters":26800,"station_id":"ce4bho12rcd13ifvqh1g","pricing_plan_id":"cebpf4jnsgd1na2vs0mg"},{"bike_id":"0c8e7c01-3dc7-40a0-9675-5ef29309d7dc","system_id":"levelo_inurba_marseille","lat":43.28695,"lon":5.37387,"is_reserved":false,"is_disabled":false,"rental_uris":{"android":"levelo://app?vid=0c8e7c01-3dc7-40a0-9675-5ef29309d7dc","ios":"levelo://app?vid=0c8e7c01-3dc7-40a0-9675-5ef29309d7dc"},"vehicle_type_id":"4","last_reported":1726434508,"current_range_meters":36800,"station_id":"ce4bh3p2rcd13ifvqdq0","pricing_plan_id":"cebpf4jnsgd1na2vs0mg"},{"bike_id":"3709e871-70a4-471a-a01b-eee384645ff0","system_id":"levelo_inurba_marseille","lat":43.31722,"lon":5.42404,"is_reserved":false,"is_disabled":false,"rental_uris":{"android":"levelo://app?vid=3709e871-70a4-471a-a01b-eee384645ff0","ios":"levelo://app?vid=3709e871-70a4-471a-a01b-eee384645ff0"},"vehicle_type_id":"4","last_reported":1726434508,"current_range_meters":38800,"station_id":"ce4bhp92rcd13ifvqhbg","pricing_plan_id":"cebpf4jnsgd1na2vs0mg"},{"bike_id":"74dd37f6-a9df-4978-b317-a558cd0bb713","system_id":"levelo_inurba_marseille","lat":43.31492,"lon":5.37308,"is_reserved":false,"is_disabled":false,"rental_uris":{"android":"levelo://app?vid=74dd37f6-a9df-4978-b317-a558cd0bb713","ios":"levelo://app?vid=74dd37f6-a9df-4978-b317-a558cd0bb713"},"vehicle_type_id":"4","last_reported":1726434508,"current_range_meters":38800,"station_id":"ce4bgt12rcd13ifvqcd0","pricing_plan_id":"cebpf4jnsgd1na2vs0mg"},{"bike_id":"12b76948-bd92-42ee-b359-c6fef93aba38","system_id":"levelo_inurba_marseille","lat":43.25726,"lon":5.41117,"is_reserved":false,"is_disabled":false,"rental_uris":{"android":"levelo://app?vid=12b76948-bd92-42ee-b359-c6fef93aba38","ios":"levelo://app?vid=12b76948-bd92-42ee-b359-c6fef93aba38"},"vehicle_type_id":"4","last_reported":1726434508,"current_range_meters":8000,"station_id":"ce4bhkp2rcd13ifvqgd0","pricing_plan_id":"cebpf4jnsgd1na2vs0mg"},{"bike_id":"dde9add0-5c35-4eef-ba65-19df115b9389","system_id":"levelo_inurba_marseille","lat":43.28696,"lon":5.37389,"is_reserved":false,"is_disabled":false,"rental_uris":{"android":"levelo://app?vid=dde9add0-5c35-4eef-ba65-19df115b9389","ios":"levelo://app?vid=dde9add0-5c35-4eef-ba65-19df115b9389"},"vehicle_type_id":"4","last_reported":1726434508,"current_range_meters":32800,"station_id":"ce4bh3p2rcd13ifvqdq0","pricing_plan_id":"cebpf4jnsgd1na2vs0mg"},{"bike_id":"1e54f664-623d-4b0d-9f47-e0922c9c7681","system_id":"levelo_inurba_marseille","lat":43.25941,"lon":5.40905,"is_reserved":false,"is_disabled":false,"rental_uris":{"android":"levelo://app?vid=1e54f664-623d-4b0d-9f47-e0922c9c7681","ios":"levelo://app?vid=1e54f664-623d-4b0d-9f47-e0922c9c7681"},"vehicle_type_id":"4","last_reported":1726434508,"current_range_meters":10000,"station_id":"ce4bhm92rcd13ifvqglg","pricing_plan_id":"cebpf4jnsgd1na2vs0mg"},{"bike_id":"d8b16116-aea3-4c10-bb7a-479986906a36","system_id":"levelo_inurba_marseille","lat":43.306463,"lon":5.400866,"is_reserved":false,"is_disabled":false,"rental_uris":{"android":"levelo://app?vid=d8b16116-aea3-4c10-bb7a-479986906a36","ios":"levelo://app?vid=d8b16116-aea3-4c10-bb7a-479986906a36"},"vehicle_type_id":"4","last_reported":1726434508,"current_range_meters":18800,"station_id":"ce4bhq92rcd13ifvqhkg","pricing_plan_id":"cebpf4jnsgd1na2vs0mg"},{"bike_id":"68bc764f-b42a-4124-a878-40c92c27c47d","system_id":"levelo_inurba_marseille","lat":43.31759,"lon":5.39017,"is_reserved":false,"is_disabled":false,"rental_uris":{"android":"levelo://app?vid=68bc764f-b42a-4124-a878-40c92c27c47d","ios":"levelo://app?vid=68bc764f-b42a-4124-a878-40c92c27c47d"},"vehicle_type_id":"4","last_reported":1726434508,"current_range_meters":35600,"station_id":"ce4bhqp2rcd13ifvqhng","pricing_plan_id":"cebpf4jnsgd1na2vs0mg"},{"bike_id":"2006a966-db2a-436e-b686-99e9a1eebc80","system_id":"levelo_inurba_marseille","lat":43.29793,"lon":5.39342,"is_reserved":false,"is_disabled":false,"rental_uris":{"android":"levelo://app?vid=2006a966-db2a-436e-b686-99e9a1eebc80","ios":"levelo://app?vid=2006a966-db2a-436e-b686-99e9a1eebc80"},"vehicle_type_id":"4","last_reported":1726434508,"current_range_meters":28800,"station_id":"chh1huq6cuj3fo74tm60","pricing_plan_id":"cebpf4jnsgd1na2vs0mg"},{"bike_id":"e1de809e-c7aa-49be-847e-e162a57948bd","system_id":"levelo_inurba_marseille","lat":43.30797,"lon":5.38162,"is_reserved":false,"is_disabled":false,"rental_uris":{"android":"levelo://app?vid=e1de809e-c7aa-49be-847e-e162a57948bd","ios":"levelo://app?vid=e1de809e-c7aa-49be-847e-e162a57948bd"},"vehicle_type_id":"4","last_reported":1726434508,"current_range_meters":36800,"station_id":"ce4bgt12rcd13ifvqce0","pricing_plan_id":"cebpf4jnsgd1na2vs0mg"},{"bike_id":"98467651-1264-4716-aa85-b4968452b090","system_id":"levelo_inurba_marseille","lat":43.28652,"lon":5.36344,"is_reserved":false,"is_disabled":false,"rental_uris":{"android":"levelo://app?vid=98467651-1264-4716-aa85-b4968452b090","ios":"levelo://app?vid=98467651-1264-4716-aa85-b4968452b090"},"vehicle_type_id":"4","last_reported":1726434508,"current_range_meters":34000,"station_id":"ce4bhah2rcd13ifvqej0","pricing_plan_id":"cebpf4jnsgd1na2vs0mg"},{"bike_id":"41f76b52-25d2-49ce-a225-7a449c5102f7","system_id":"levelo_inurba_marseille","lat":43.27828,"lon":5.39211,"is_reserved":false,"is_disabled":false,"rental_uris":{"android":"levelo://app?vid=41f76b52-25d2-49ce-a225-7a449c5102f7","ios":"levelo://app?vid=41f76b52-25d2-49ce-a225-7a449c5102f7"},"vehicle_type_id":"4","last_reported":1726434508,"current_range_meters":38800,"station_id":"ce4bhjp2rcd13ifvqga0","pricing_plan_id":"cebpf4jnsgd1na2vs0mg"},{"bike_id":"5cc3b4c6-8e3f-4d20-a577-d2f5ce9f95fd","system_id":"levelo_inurba_marseille","lat":43.29899,"lon":5.43666,"is_reserved":false,"is_disabled":false,"rental_uris":{"android":"levelo://app?vid=5cc3b4c6-8e3f-4d20-a577-d2f5ce9f95fd","ios":"levelo://app?vid=5cc3b4c6-8e3f-4d20-a577-d2f5ce9f95fd"},"vehicle_type_id":"4","last_reported":1726434508,"current_range_meters":17200,"station_id":"ce4bhpp2rcd13ifvqhfg","pricing_plan_id":"cebpf4jnsgd1na2vs0mg"},{"bike_id":"be6a7145-0791-40f8-a3e4-321fb362448d","system_id":"levelo_inurba_marseille","lat":43.27492,"lon":5.42452,"is_reserved":false,"is_disabled":false,"rental_uris":{"android":"levelo://app?vid=be6a7145-0791-40f8-a3e4-321fb362448d","ios":"levelo://app?vid=be6a7145-0791-40f8-a3e4-321fb362448d"},"vehicle_type_id":"4","last_reported":1726434508,"current_range_meters":7200,"station_id":"ce4bhn92rcd13ifvqgrg","pricing_plan_id":"cebpf4jnsgd1na2vs0mg"},{"bike_id":"cbfb2c21-43bc-45c1-8027-96ca986f0d8c","system_id":"levelo_inurba_marseille","lat":43.32042,"lon":5.41561,"is_reserved":false,"is_disabled":false,"rental_uris":{"android":"levelo://app?vid=cbfb2c21-43bc-45c1-8027-96ca986f0d8c","ios":"levelo://app?vid=cbfb2c21-43bc-45c1-8027-96ca986f0d8c"},"vehicle_type_id":"4","last_reported":1726434508,"current_range_meters":38800,"station_id":"ce4bhq92rcd13ifvqhkg","pricing_plan_id":"cebpf4jnsgd1na2vs0mg"},{"bike_id":"a265eb93-a8ff-4ed4-a578-edcaf57acfe8","system_id":"levelo_inurba_marseille","lat":43.30136,"lon":5.39879,"is_reserved":false,"is_disabled":false,"rental_uris":{"android":"levelo://app?vid=a265eb93-a8ff-4ed4-a578-edcaf57acfe8","ios":"levelo://app?vid=a265eb93-a8ff-4ed4-a578-edcaf57acfe8"},"vehicle_type_id":"4","last_reported":1726434508,"current_range_meters":15200,"station_id":"ce4bh0h2rcd13ifvqd40","pricing_plan_id":"cebpf4jnsgd1na2vs0mg"},{"bike_id":"82a74b23-439b-4a17-87a6-d78d37c471f3","system_id":"levelo_inurba_marseille","lat":43.3021,"lon":5.39462,"is_reserved":false,"is_disabled":false,"rental_uris":{"android":"levelo://app?vid=82a74b23-439b-4a17-87a6-d78d37c471f3","ios":"levelo://app?vid=82a74b23-439b-4a17-87a6-d78d37c471f3"},"vehicle_type_id":"4","last_reported":1726434508,"current_range_meters":29600,"station_id":"ce4bh0p2rcd13ifvqd70","pricing_plan_id":"cebpf4jnsgd1na2vs0mg"},{"bike_id":"ff4b8c00-647f-4262-b097-4ff18e633063","system_id":"levelo_inurba_marseille","lat":43.31232,"lon":5.36847,"is_reserved":false,"is_disabled":false,"rental_uris":{"android":"levelo://app?vid=ff4b8c00-647f-4262-b097-4ff18e633063","ios":"levelo://app?vid=ff4b8c00-647f-4262-b097-4ff18e633063"},"vehicle_type_id":"4","last_reported":1726434508,"current_range_meters":38800,"station_id":"ce4bgl92rcd13ifvqbq0","pricing_plan_id":"cebpf4jnsgd1na2vs0mg"},{"bike_id":"6ad2fe94-195b-4d58-9ac6-d3a9675a4c80","system_id":"levelo_inurba_marseille","lat":43.23066,"lon":5.35492,"is_reserved":false,"is_disabled":false,"rental_uris":{"android":"levelo://app?vid=6ad2fe94-195b-4d58-9ac6-d3a9675a4c80","ios":"levelo://app?vid=6ad2fe94-195b-4d58-9ac6-d3a9675a4c80"},"vehicle_type_id":"4","last_reported":1726434508,"current_range_meters":20400,"station_id":"cpo3342slgdg3j2ifvpg","pricing_plan_id":"cebpf4jnsgd1na2vs0mg"},{"bike_id":"6dd17a2f-59bb-4453-859d-2c09ab795824","system_id":"levelo_inurba_marseille","lat":43.33017,"lon":5.39046,"is_reserved":false,"is_disabled":false,"rental_uris":{"android":"levelo://app?vid=6dd17a2f-59bb-4453-859d-2c09ab795824","ios":"levelo://app?vid=6dd17a2f-59bb-4453-859d-2c09ab795824"},"vehicle_type_id":"4","last_reported":1726434508,"current_range_meters":38800,"station_id":"ce4bhr92rcd13ifvqhrg","pricing_plan_id":"cebpf4jnsgd1na2vs0mg"},{"bike_id":"ed395158-49bb-4ed0-a30f-caaeb4a15a1c","system_id":"levelo_inurba_marseille","lat":43.24077,"lon":5.37753,"is_reserved":false,"is_disabled":false,"rental_uris":{"android":"levelo://app?vid=ed395158-49bb-4ed0-a30f-caaeb4a15a1c","ios":"levelo://app?vid=ed395158-49bb-4ed0-a30f-caaeb4a15a1c"},"vehicle_type_id":"4","last_reported":1726434508,"current_range_meters":11200,"station_id":"ce4bhnp2rcd13ifvqgvg","pricing_plan_id":"cebpf4jnsgd1na2vs0mg"},{"bike_id":"6ef54705-62a9-481c-a6f9-63c8cde02426","system_id":"levelo_inurba_marseille","lat":43.29086,"lon":5.38612,"is_reserved":false,"is_disabled":false,"rental_uris":{"android":"levelo://app?vid=6ef54705-62a9-481c-a6f9-63c8cde02426","ios":"levelo://app?vid=6ef54705-62a9-481c-a6f9-63c8cde02426"},"vehicle_type_id":"4","last_reported":1726434508,"current_range_meters":37600,"station_id":"ce4bh4p2rcd13ifvqe0g","pricing_plan_id":"cebpf4jnsgd1na2vs0mg"},{"bike_id":"be70b63a-c764-4fe4-944c-ea7e338d1412","system_id":"levelo_inurba_marseille","lat":43.26209,"lon":5.37928,"is_reserved":false,"is_disabled":false,"rental_uris":{"android":"levelo://app?vid=be70b63a-c764-4fe4-944c-ea7e338d1412","ios":"levelo://app?vid=be70b63a-c764-4fe4-944c-ea7e338d1412"},"vehicle_type_id":"4","last_reported":1726434508,"current_range_meters":38800,"station_id":"ce4bhjp2rcd13ifvqg90","pricing_plan_id":"cebpf4jnsgd1na2vs0mg"},{"bike_id":"97e0605e-afb8-4573-a452-c86788cdd417","system_id":"levelo_inurba_marseille","lat":43.30802,"lon":5.3816,"is_reserved":false,"is_disabled":false,"rental_uris":{"android":"levelo://app?vid=97e0605e-afb8-4573-a452-c86788cdd417","ios":"levelo://app?vid=97e0605e-afb8-4573-a452-c86788cdd417"},"vehicle_type_id":"4","last_reported":1726434508,"current_range_meters":26000,"station_id":"ce4bgt12rcd13ifvqce0","pricing_plan_id":"cebpf4jnsgd1na2vs0mg"},{"bike_id":"8fd7b1c5-b548-48b1-9a55-be35dd3453c1","system_id":"levelo_inurba_marseille","lat":43.31757,"lon":5.39015,"is_reserved":false,"is_disabled":false,"rental_uris":{"android":"levelo://app?vid=8fd7b1c5-b548-48b1-9a55-be35dd3453c1","ios":"levelo://app?vid=8fd7b1c5-b548-48b1-9a55-be35dd3453c1"},"vehicle_type_id":"4","last_reported":1726434508,"current_range_meters":24400,"station_id":"ce4bhqp2rcd13ifvqhng","pricing_plan_id":"cebpf4jnsgd1na2vs0mg"},{"bike_id":"14deafc5-a716-454d-858f-d4247d57d26c","system_id":"levelo_inurba_marseille","lat":43.33607,"lon":5.41039,"is_reserved":false,"is_disabled":false,"rental_uris":{"android":"levelo://app?vid=14deafc5-a716-454d-858f-d4247d57d26c","ios":"levelo://app?vid=14deafc5-a716-454d-858f-d4247d57d26c"},"vehicle_type_id":"4","last_reported":1726434508,"current_range_meters":36400,"station_id":"ce4bhqh2rcd13ifvqhmg","pricing_plan_id":"cebpf4jnsgd1na2vs0mg"},{"bike_id":"23722360-8e3d-4498-9011-a9c0082dd807","system_id":"levelo_inurba_marseille","lat":43.29247,"lon":5.40911,"is_reserved":false,"is_disabled":false,"rental_uris":{"android":"levelo://app?vid=23722360-8e3d-4498-9011-a9c0082dd807","ios":"levelo://app?vid=23722360-8e3d-4498-9011-a9c0082dd807"},"vehicle_type_id":"4","last_reported":1726434508,"current_range_meters":13600,"station_id":"ce4bh192rcd13ifvqdc0","pricing_plan_id":"cebpf4jnsgd1na2vs0mg"},{"bike_id":"0feb0312-094d-4f5c-9576-515a966d2c6c","system_id":"levelo_inurba_marseille","lat":43.27914,"lon":5.39576,"is_reserved":false,"is_disabled":false,"rental_uris":{"android":"levelo://app?vid=0feb0312-094d-4f5c-9576-515a966d2c6c","ios":"levelo://app?vid=0feb0312-094d-4f5c-9576-515a966d2c6c"},"vehicle_type_id":"4","last_reported":1726434508,"current_range_meters":8400,"station_id":"ce4bhf92rcd13ifvqf40","pricing_plan_id":"cebpf4jnsgd1na2vs0mg"},{"bike_id":"2a29b635-860d-4fcf-b9ef-7b9429843b40","system_id":"levelo_inurba_marseille","lat":43.31717,"lon":5.42402,"is_reserved":false,"is_disabled":false,"rental_uris":{"android":"levelo://app?vid=2a29b635-860d-4fcf-b9ef-7b9429843b40","ios":"levelo://app?vid=2a29b635-860d-4fcf-b9ef-7b9429843b40"},"vehicle_type_id":"4","last_reported":1726434508,"current_range_meters":36000,"station_id":"ce4bhp92rcd13ifvqhbg","pricing_plan_id":"cebpf4jnsgd1na2vs0mg"},{"bike_id":"3c589fcf-8664-4ef6-a007-88d74cf42479","system_id":"levelo_inurba_marseille","lat":43.31357,"lon":5.38492,"is_reserved":false,"is_disabled":false,"rental_uris":{"android":"levelo://app?vid=3c589fcf-8664-4ef6-a007-88d74cf42479","ios":"levelo://app?vid=3c589fcf-8664-4ef6-a007-88d74cf42479"},"vehicle_type_id":"4","last_reported":1726434508,"current_range_meters":38800,"station_id":"ce4bgt92rcd13ifvqcf0","pricing_plan_id":"cebpf4jnsgd1na2vs0mg"},{"bike_id":"51d3cb4e-656b-4373-b6ec-0790b04713c5","system_id":"levelo_inurba_marseille","lat":43.295319,"lon":5.385412,"is_reserved":false,"is_disabled":false,"rental_uris":{"android":"levelo://app?vid=51d3cb4e-656b-4373-b6ec-0790b04713c5","ios":"levelo://app?vid=51d3cb4e-656b-4373-b6ec-0790b04713c5"},"vehicle_type_id":"4","last_reported":1726434508,"current_range_meters":8400,"station_id":"ce4bgih2rcd13ifvqba0","pricing_plan_id":"cebpf4jnsgd1na2vs0mg"},{"bike_id":"65eecb51-7024-4f30-af20-d65f809bce2b","system_id":"levelo_inurba_marseille","lat":43.31325,"lon":5.39691,"is_reserved":false,"is_disabled":false,"rental_uris":{"android":"levelo://app?vid=65eecb51-7024-4f30-af20-d65f809bce2b","ios":"levelo://app?vid=65eecb51-7024-4f30-af20-d65f809bce2b"},"vehicle_type_id":"4","last_reported":1726434508,"current_range_meters":17200,"station_id":"ce4bgvp2rcd13ifvqcu0","pricing_plan_id":"cebpf4jnsgd1na2vs0mg"},{"bike_id":"017941ed-ad7f-4ea2-a91e-ce257d532005","system_id":"levelo_inurba_marseille","lat":43.29521,"lon":5.39411,"is_reserved":false,"is_disabled":false,"rental_uris":{"android":"levelo://app?vid=017941ed-ad7f-4ea2-a91e-ce257d532005","ios":"levelo://app?vid=017941ed-ad7f-4ea2-a91e-ce257d532005"},"vehicle_type_id":"4","last_reported":1726434508,"current_range_meters":38800,"station_id":"ce4bh292rcd13ifvqdf0","pricing_plan_id":"cebpf4jnsgd1na2vs0mg"},{"bike_id":"3a028886-ff07-4188-b0e8-f8d576f52ff3","system_id":"levelo_inurba_marseille","lat":43.26195,"lon":5.37448,"is_reserved":false,"is_disabled":false,"rental_uris":{"android":"levelo://app?vid=3a028886-ff07-4188-b0e8-f8d576f52ff3","ios":"levelo://app?vid=3a028886-ff07-4188-b0e8-f8d576f52ff3"},"vehicle_type_id":"4","last_reported":1726434508,"current_range_meters":38800,"station_id":"ce4bhgp2rcd13ifvqfc0","pricing_plan_id":"cebpf4jnsgd1na2vs0mg"},{"bike_id":"c826362b-3157-4417-8329-8fb73bd758f5","system_id":"levelo_inurba_marseille","lat":43.29197,"lon":5.35804,"is_reserved":false,"is_disabled":false,"rental_uris":{"android":"levelo://app?vid=c826362b-3157-4417-8329-8fb73bd758f5","ios":"levelo://app?vid=c826362b-3157-4417-8329-8fb73bd758f5"},"vehicle_type_id":"4","last_reported":1726434508,"current_range_meters":24000,"station_id":"ce4bhb12rcd13ifvqel0","pricing_plan_id":"cebpf4jnsgd1na2vs0mg"},{"bike_id":"90c474fe-b880-4a02-8023-1c153eb61318","system_id":"levelo_inurba_marseille","lat":43.292267,"lon":5.360607,"is_reserved":false,"is_disabled":false,"rental_uris":{"android":"levelo://app?vid=90c474fe-b880-4a02-8023-1c153eb61318","ios":"levelo://app?vid=90c474fe-b880-4a02-8023-1c153eb61318"},"vehicle_type_id":"4","last_reported":1726434508,"current_range_meters":33600,"station_id":"ce4bhop2rcd13ifvqh7g","pricing_plan_id":"cebpf4jnsgd1na2vs0mg"},{"bike_id":"d1f38fcd-be46-4877-a9ac-34b365272c30","system_id":"levelo_inurba_marseille","lat":43.27102,"lon":5.43322,"is_reserved":false,"is_disabled":false,"rental_uris":{"android":"levelo://app?vid=d1f38fcd-be46-4877-a9ac-34b365272c30","ios":"levelo://app?vid=d1f38fcd-be46-4877-a9ac-34b365272c30"},"vehicle_type_id":"4","last_reported":1726434508,"current_range_meters":12400,"station_id":"","pricing_plan_id":"cebpf4jnsgd1na2vs0mg"},{"bike_id":"401b05d7-0f44-49f8-a153-9857ee017f13","system_id":"levelo_inurba_marseille","lat":43.30509,"lon":5.36543,"is_reserved":false,"is_disabled":false,"rental_uris":{"android":"levelo://app?vid=401b05d7-0f44-49f8-a153-9857ee017f13","ios":"levelo://app?vid=401b05d7-0f44-49f8-a153-9857ee017f13"},"vehicle_type_id":"4","last_reported":1726434508,"current_range_meters":38800,"station_id":"","pricing_plan_id":"cebpf4jnsgd1na2vs0mg"},{"bike_id":"26739c8b-35f4-4c75-8b23-6661e5814a1f","system_id":"levelo_inurba_marseille","lat":43.27613,"lon":5.3612,"is_reserved":false,"is_disabled":false,"rental_uris":{"android":"levelo://app?vid=26739c8b-35f4-4c75-8b23-6661e5814a1f","ios":"levelo://app?vid=26739c8b-35f4-4c75-8b23-6661e5814a1f"},"vehicle_type_id":"4","last_reported":1726434508,"current_range_meters":16400,"station_id":"ce4bgj92rcd13ifvqbe0","pricing_plan_id":"cebpf4jnsgd1na2vs0mg"},{"bike_id":"a12bec7c-5c01-4c11-b123-08537bccfd67","system_id":"levelo_inurba_marseille","lat":43.29446,"lon":5.39747,"is_reserved":false,"is_disabled":false,"rental_uris":{"android":"levelo://app?vid=a12bec7c-5c01-4c11-b123-08537bccfd67","ios":"levelo://app?vid=a12bec7c-5c01-4c11-b123-08537bccfd67"},"vehicle_type_id":"4","last_reported":1726434508,"current_range_meters":14400,"station_id":"ce4bh3h2rcd13ifvqdo0","pricing_plan_id":"cebpf4jnsgd1na2vs0mg"},{"bike_id":"e35c233f-e699-4e2f-a3ba-2a6e3af16240","system_id":"levelo_inurba_marseille","lat":43.29274,"lon":5.40122,"is_reserved":false,"is_disabled":false,"rental_uris":{"android":"levelo://app?vid=e35c233f-e699-4e2f-a3ba-2a6e3af16240","ios":"levelo://app?vid=e35c233f-e699-4e2f-a3ba-2a6e3af16240"},"vehicle_type_id":"4","last_reported":1726434508,"current_range_meters":27200,"station_id":"ce4bh312rcd13ifvqdk0","pricing_plan_id":"cebpf4jnsgd1na2vs0mg"},{"bike_id":"24ec53ab-03b1-4ce2-b571-a1a7e40ca6c6","system_id":"levelo_inurba_marseille","lat":43.28842,"lon":5.39319,"is_reserved":false,"is_disabled":false,"rental_uris":{"android":"levelo://app?vid=24ec53ab-03b1-4ce2-b571-a1a7e40ca6c6","ios":"levelo://app?vid=24ec53ab-03b1-4ce2-b571-a1a7e40ca6c6"},"vehicle_type_id":"4","last_reported":1726434508,"current_range_meters":17200,"station_id":"ce4bh2p2rcd13ifvqdi0","pricing_plan_id":"cebpf4jnsgd1na2vs0mg"},{"bike_id":"e3dfab87-bbc8-4d87-9cfa-83a45062eefc","system_id":"levelo_inurba_marseille","lat":43.31236,"lon":5.36867,"is_reserved":false,"is_disabled":false,"rental_uris":{"android":"levelo://app?vid=e3dfab87-bbc8-4d87-9cfa-83a45062eefc","ios":"levelo://app?vid=e3dfab87-bbc8-4d87-9cfa-83a45062eefc"},"vehicle_type_id":"4","last_reported":1726434508,"current_range_meters":38000,"station_id":"ce4bgl92rcd13ifvqbq0","pricing_plan_id":"cebpf4jnsgd1na2vs0mg"},{"bike_id":"fe4d1c31-8eef-4203-8e5b-495e375b7e6b","system_id":"levelo_inurba_marseille","lat":43.28408,"lon":5.37515,"is_reserved":false,"is_disabled":false,"rental_uris":{"android":"levelo://app?vid=fe4d1c31-8eef-4203-8e5b-495e375b7e6b","ios":"levelo://app?vid=fe4d1c31-8eef-4203-8e5b-495e375b7e6b"},"vehicle_type_id":"4","last_reported":1726434508,"current_range_meters":36400,"station_id":"ce4bh412rcd13ifvqds0","pricing_plan_id":"cebpf4jnsgd1na2vs0mg"},{"bike_id":"91f7e9e5-076e-4e3a-8acf-289dc20e3d9f","system_id":"levelo_inurba_marseille","lat":43.31721,"lon":5.42411,"is_reserved":false,"is_disabled":false,"rental_uris":{"android":"levelo://app?vid=91f7e9e5-076e-4e3a-8acf-289dc20e3d9f","ios":"levelo://app?vid=91f7e9e5-076e-4e3a-8acf-289dc20e3d9f"},"vehicle_type_id":"4","last_reported":1726434508,"current_range_meters":36000,"station_id":"ce4bhp92rcd13ifvqhbg","pricing_plan_id":"cebpf4jnsgd1na2vs0mg"},{"bike_id":"d4dcec5a-b0b6-4319-8584-aaf3103d153c","system_id":"levelo_inurba_marseille","lat":43.29562,"lon":5.42276,"is_reserved":false,"is_disabled":false,"rental_uris":{"android":"levelo://app?vid=d4dcec5a-b0b6-4319-8584-aaf3103d153c","ios":"levelo://app?vid=d4dcec5a-b0b6-4319-8584-aaf3103d153c"},"vehicle_type_id":"4","last_reported":1726434508,"current_range_meters":34000,"station_id":"ce4bhph2rcd13ifvqhdg","pricing_plan_id":"cebpf4jnsgd1na2vs0mg"},{"bike_id":"67b5b757-e0f3-43f5-9024-da319fb1d16e","system_id":"levelo_inurba_marseille","lat":43.23184,"lon":5.39987,"is_reserved":false,"is_disabled":false,"rental_uris":{"android":"levelo://app?vid=67b5b757-e0f3-43f5-9024-da319fb1d16e","ios":"levelo://app?vid=67b5b757-e0f3-43f5-9024-da319fb1d16e"},"vehicle_type_id":"4","last_reported":1726434508,"current_range_meters":21600,"station_id":"ce4bhn12rcd13ifvqgqg","pricing_plan_id":"cebpf4jnsgd1na2vs0mg"},{"bike_id":"6da566a6-1c56-4830-ad07-012b26ffeade","system_id":"levelo_inurba_marseille","lat":43.3247,"lon":5.36568,"is_reserved":false,"is_disabled":false,"rental_uris":{"android":"levelo://app?vid=6da566a6-1c56-4830-ad07-012b26ffeade","ios":"levelo://app?vid=6da566a6-1c56-4830-ad07-012b26ffeade"},"vehicle_type_id":"4","last_reported":1726434508,"current_range_meters":38800,"station_id":"ce4bhs12rcd13ifvqhvg","pricing_plan_id":"cebpf4jnsgd1na2vs0mg"},{"bike_id":"f4f9f6ff-ae91-49f1-8f46-ab5b83fc4306","system_id":"levelo_inurba_marseille","lat":43.29613,"lon":5.37732,"is_reserved":false,"is_disabled":false,"rental_uris":{"android":"levelo://app?vid=f4f9f6ff-ae91-49f1-8f46-ab5b83fc4306","ios":"levelo://app?vid=f4f9f6ff-ae91-49f1-8f46-ab5b83fc4306"},"vehicle_type_id":"4","last_reported":1726434508,"current_range_meters":35600,"station_id":"ce4bgi92rcd13ifvqb90","pricing_plan_id":"cebpf4jnsgd1na2vs0mg"},{"bike_id":"b3bc4569-a631-4c35-900f-ca74463abedf","system_id":"levelo_inurba_marseille","lat":43.29959,"lon":5.41321,"is_reserved":false,"is_disabled":false,"rental_uris":{"android":"levelo://app?vid=b3bc4569-a631-4c35-900f-ca74463abedf","ios":"levelo://app?vid=b3bc4569-a631-4c35-900f-ca74463abedf"},"vehicle_type_id":"4","last_reported":1726434508,"current_range_meters":37600,"station_id":"ce4bhp12rcd13ifvqh9g","pricing_plan_id":"cebpf4jnsgd1na2vs0mg"},{"bike_id":"37911193-e134-4134-98bb-44781f76b839","system_id":"levelo_inurba_marseille","lat":43.28463,"lon":5.35893,"is_reserved":false,"is_disabled":false,"rental_uris":{"android":"levelo://app?vid=37911193-e134-4134-98bb-44781f76b839","ios":"levelo://app?vid=37911193-e134-4134-98bb-44781f76b839"},"vehicle_type_id":"4","last_reported":1726434508,"current_range_meters":24800,"station_id":"ce4bhah2rcd13ifvqei0","pricing_plan_id":"cebpf4jnsgd1na2vs0mg"},{"bike_id":"743ea870-d207-4df9-afd4-755f91ca54b0","system_id":"levelo_inurba_marseille","lat":43.29579,"lon":5.39976,"is_reserved":false,"is_disabled":false,"rental_uris":{"android":"levelo://app?vid=743ea870-d207-4df9-afd4-755f91ca54b0","ios":"levelo://app?vid=743ea870-d207-4df9-afd4-755f91ca54b0"},"vehicle_type_id":"4","last_reported":1726434508,"current_range_meters":38800,"station_id":"ce4bh312rcd13ifvqdj0","pricing_plan_id":"cebpf4jnsgd1na2vs0mg"},{"bike_id":"2b3fca79-0f3e-45d7-be74-0e0f0d63ff36","system_id":"levelo_inurba_marseille","lat":43.30634,"lon":5.40083,"is_reserved":false,"is_disabled":false,"rental_uris":{"android":"levelo://app?vid=2b3fca79-0f3e-45d7-be74-0e0f0d63ff36","ios":"levelo://app?vid=2b3fca79-0f3e-45d7-be74-0e0f0d63ff36"},"vehicle_type_id":"4","last_reported":1726434508,"current_range_meters":38800,"station_id":"ce4bh112rcd13ifvqda0","pricing_plan_id":"cebpf4jnsgd1na2vs0mg"},{"bike_id":"a176cdad-2e09-4c32-be65-e7be2a08cbd9","system_id":"levelo_inurba_marseille","lat":43.29279,"lon":5.40127,"is_reserved":false,"is_disabled":false,"rental_uris":{"android":"levelo://app?vid=a176cdad-2e09-4c32-be65-e7be2a08cbd9","ios":"levelo://app?vid=a176cdad-2e09-4c32-be65-e7be2a08cbd9"},"vehicle_type_id":"4","last_reported":1726434508,"current_range_meters":2800,"station_id":"ce4bh312rcd13ifvqdk0","pricing_plan_id":"cebpf4jnsgd1na2vs0mg"},{"bike_id":"f901d231-ef58-438d-9abd-96a48f866ab5","system_id":"levelo_inurba_marseille","lat":43.3132,"lon":5.39696,"is_reserved":false,"is_disabled":false,"rental_uris":{"android":"levelo://app?vid=f901d231-ef58-438d-9abd-96a48f866ab5","ios":"levelo://app?vid=f901d231-ef58-438d-9abd-96a48f866ab5"},"vehicle_type_id":"4","last_reported":1726434508,"current_range_meters":19600,"station_id":"ce4bgvp2rcd13ifvqcu0","pricing_plan_id":"cebpf4jnsgd1na2vs0mg"},{"bike_id":"7d24dfc9-9aa3-4d48-85aa-529448418cd9","system_id":"levelo_inurba_marseille","lat":43.3117,"lon":5.38718,"is_reserved":false,"is_disabled":false,"rental_uris":{"android":"levelo://app?vid=7d24dfc9-9aa3-4d48-85aa-529448418cd9","ios":"levelo://app?vid=7d24dfc9-9aa3-4d48-85aa-529448418cd9"},"vehicle_type_id":"4","last_reported":1726434508,"current_range_meters":8400,"station_id":"ce4bgv12rcd13ifvqcp0","pricing_plan_id":"cebpf4jnsgd1na2vs0mg"},{"bike_id":"3c02c4fd-3a18-4ab2-8e77-fb1540b9eda5","system_id":"levelo_inurba_marseille","lat":43.23183,"lon":5.3999,"is_reserved":false,"is_disabled":false,"rental_uris":{"android":"levelo://app?vid=3c02c4fd-3a18-4ab2-8e77-fb1540b9eda5","ios":"levelo://app?vid=3c02c4fd-3a18-4ab2-8e77-fb1540b9eda5"},"vehicle_type_id":"4","last_reported":1726434508,"current_range_meters":27200,"station_id":"ce4bhn12rcd13ifvqgqg","pricing_plan_id":"cebpf4jnsgd1na2vs0mg"},{"bike_id":"0696e589-433a-4e9c-9e8b-1869252a8f5e","system_id":"levelo_inurba_marseille","lat":43.28698,"lon":5.37382,"is_reserved":false,"is_disabled":false,"rental_uris":{"android":"levelo://app?vid=0696e589-433a-4e9c-9e8b-1869252a8f5e","ios":"levelo://app?vid=0696e589-433a-4e9c-9e8b-1869252a8f5e"},"vehicle_type_id":"4","last_reported":1726434508,"current_range_meters":38000,"station_id":"ce4bh3p2rcd13ifvqdq0","pricing_plan_id":"cebpf4jnsgd1na2vs0mg"},{"bike_id":"e3f4df9c-3e96-4308-8f66-0bb701a5c870","system_id":"levelo_inurba_marseille","lat":43.28713,"lon":5.37933,"is_reserved":false,"is_disabled":false,"rental_uris":{"android":"levelo://app?vid=e3f4df9c-3e96-4308-8f66-0bb701a5c870","ios":"levelo://app?vid=e3f4df9c-3e96-4308-8f66-0bb701a5c870"},"vehicle_type_id":"4","last_reported":1726434508,"current_range_meters":38800,"station_id":"ce4bh9p2rcd13ifvqec0","pricing_plan_id":"cebpf4jnsgd1na2vs0mg"},{"bike_id":"be700df8-4555-417d-b3de-6fa298551d25","system_id":"levelo_inurba_marseille","lat":43.28709,"lon":5.39986,"is_reserved":false,"is_disabled":false,"rental_uris":{"android":"levelo://app?vid=be700df8-4555-417d-b3de-6fa298551d25","ios":"levelo://app?vid=be700df8-4555-417d-b3de-6fa298551d25"},"vehicle_type_id":"4","last_reported":1726434508,"current_range_meters":37600,"station_id":"ce4bho92rcd13ifvqh3g","pricing_plan_id":"cebpf4jnsgd1na2vs0mg"},{"bike_id":"103368f7-6cf9-4f61-a9f7-0e638a4ed99a","system_id":"levelo_inurba_marseille","lat":43.24082,"lon":5.37757,"is_reserved":false,"is_disabled":false,"rental_uris":{"android":"levelo://app?vid=103368f7-6cf9-4f61-a9f7-0e638a4ed99a","ios":"levelo://app?vid=103368f7-6cf9-4f61-a9f7-0e638a4ed99a"},"vehicle_type_id":"4","last_reported":1726434508,"current_range_meters":10000,"station_id":"ce4bhnp2rcd13ifvqgvg","pricing_plan_id":"cebpf4jnsgd1na2vs0mg"},{"bike_id":"d777a0b3-3f17-475c-b403-efafc48e02e0","system_id":"levelo_inurba_marseille","lat":43.28402,"lon":5.37519,"is_reserved":false,"is_disabled":false,"rental_uris":{"android":"levelo://app?vid=d777a0b3-3f17-475c-b403-efafc48e02e0","ios":"levelo://app?vid=d777a0b3-3f17-475c-b403-efafc48e02e0"},"vehicle_type_id":"4","last_reported":1726434508,"current_range_meters":14000,"station_id":"ce4bh412rcd13ifvqds0","pricing_plan_id":"cebpf4jnsgd1na2vs0mg"},{"bike_id":"b243546f-fc32-4327-96f9-3d106f87be0c","system_id":"levelo_inurba_marseille","lat":43.29877,"lon":5.39738,"is_reserved":false,"is_disabled":false,"rental_uris":{"android":"levelo://app?vid=b243546f-fc32-4327-96f9-3d106f87be0c","ios":"levelo://app?vid=b243546f-fc32-4327-96f9-3d106f87be0c"},"vehicle_type_id":"4","last_reported":1726434508,"current_range_meters":32000,"station_id":"ce4bh0h2rcd13ifvqd50","pricing_plan_id":"cebpf4jnsgd1na2vs0mg"},{"bike_id":"c0e72436-804e-423e-b312-046b779f2d3a","system_id":"levelo_inurba_marseille","lat":43.30887,"lon":5.37196,"is_reserved":false,"is_disabled":false,"rental_uris":{"android":"levelo://app?vid=c0e72436-804e-423e-b312-046b779f2d3a","ios":"levelo://app?vid=c0e72436-804e-423e-b312-046b779f2d3a"},"vehicle_type_id":"4","last_reported":1726434508,"current_range_meters":22400,"station_id":"ce4bguh2rcd13ifvqckg","pricing_plan_id":"cebpf4jnsgd1na2vs0mg"},{"bike_id":"8d771d3f-d633-41c1-a977-f5d15662e37e","system_id":"levelo_inurba_marseille","lat":43.30304,"lon":5.36939,"is_reserved":false,"is_disabled":false,"rental_uris":{"android":"levelo://app?vid=8d771d3f-d633-41c1-a977-f5d15662e37e","ios":"levelo://app?vid=8d771d3f-d633-41c1-a977-f5d15662e37e"},"vehicle_type_id":"4","last_reported":1726434508,"current_range_meters":8400,"station_id":"ce4bgqh2rcd13ifvqc5g","pricing_plan_id":"cebpf4jnsgd1na2vs0mg"},{"bike_id":"c38db8a9-cb99-4f97-a76a-70fbe8246e66","system_id":"levelo_inurba_marseille","lat":43.28667,"lon":5.36361,"is_reserved":false,"is_disabled":false,"rental_uris":{"android":"levelo://app?vid=c38db8a9-cb99-4f97-a76a-70fbe8246e66","ios":"levelo://app?vid=c38db8a9-cb99-4f97-a76a-70fbe8246e66"},"vehicle_type_id":"4","last_reported":1726434508,"current_range_meters":38800,"station_id":"ce4bhah2rcd13ifvqej0","pricing_plan_id":"cebpf4jnsgd1na2vs0mg"},{"bike_id":"7c82eff3-455c-4ac5-a0d4-aa6e30fca420","system_id":"levelo_inurba_marseille","lat":43.24805,"lon":5.37461,"is_reserved":false,"is_disabled":false,"rental_uris":{"android":"levelo://app?vid=7c82eff3-455c-4ac5-a0d4-aa6e30fca420","ios":"levelo://app?vid=7c82eff3-455c-4ac5-a0d4-aa6e30fca420"},"vehicle_type_id":"4","last_reported":1726434508,"current_range_meters":19600,"station_id":"ce4bhgh2rcd13ifvqfb0","pricing_plan_id":"cebpf4jnsgd1na2vs0mg"},{"bike_id":"2de6abdc-9fce-4d7c-8677-5bc6e76e1f41","system_id":"levelo_inurba_marseille","lat":43.308258,"lon":5.396183,"is_reserved":false,"is_disabled":false,"rental_uris":{"android":"levelo://app?vid=2de6abdc-9fce-4d7c-8677-5bc6e76e1f41","ios":"levelo://app?vid=2de6abdc-9fce-4d7c-8677-5bc6e76e1f41"},"vehicle_type_id":"4","last_reported":1726434508,"current_range_meters":6400,"station_id":"","pricing_plan_id":"cebpf4jnsgd1na2vs0mg"},{"bike_id":"d84c9603-1128-4077-bbb1-73a1eb60d6e1","system_id":"levelo_inurba_marseille","lat":43.25578,"lon":5.38232,"is_reserved":false,"is_disabled":false,"rental_uris":{"android":"levelo://app?vid=d84c9603-1128-4077-bbb1-73a1eb60d6e1","ios":"levelo://app?vid=d84c9603-1128-4077-bbb1-73a1eb60d6e1"},"vehicle_type_id":"4","last_reported":1726434508,"current_range_meters":35200,"station_id":"ce4bhih2rcd13ifvqfs0","pricing_plan_id":"cebpf4jnsgd1na2vs0mg"},{"bike_id":"eddc9a4c-0dbc-453c-9d94-34f27e1c0445","system_id":"levelo_inurba_marseille","lat":43.25719,"lon":5.41113,"is_reserved":false,"is_disabled":false,"rental_uris":{"android":"levelo://app?vid=eddc9a4c-0dbc-453c-9d94-34f27e1c0445","ios":"levelo://app?vid=eddc9a4c-0dbc-453c-9d94-34f27e1c0445"},"vehicle_type_id":"4","last_reported":1726434508,"current_range_meters":38800,"station_id":"ce4bhkp2rcd13ifvqgd0","pricing_plan_id":"cebpf4jnsgd1na2vs0mg"},{"bike_id":"328d45f9-980e-4811-97c0-47d761861509","system_id":"levelo_inurba_marseille","lat":43.29847,"lon":5.37836,"is_reserved":false,"is_disabled":false,"rental_uris":{"android":"levelo://app?vid=328d45f9-980e-4811-97c0-47d761861509","ios":"levelo://app?vid=328d45f9-980e-4811-97c0-47d761861509"},"vehicle_type_id":"4","last_reported":1726434508,"current_range_meters":26800,"station_id":"ce4bgkh2rcd13ifvqbl0","pricing_plan_id":"cebpf4jnsgd1na2vs0mg"},{"bike_id":"ed894eb8-418b-420e-8b0a-60c234bd212d","system_id":"levelo_inurba_marseille","lat":43.25092,"lon":5.39528,"is_reserved":false,"is_disabled":false,"rental_uris":{"android":"levelo://app?vid=ed894eb8-418b-420e-8b0a-60c234bd212d","ios":"levelo://app?vid=ed894eb8-418b-420e-8b0a-60c234bd212d"},"vehicle_type_id":"4","last_reported":1726434508,"current_range_meters":7200,"station_id":"ce4bhm12rcd13ifvqgkg","pricing_plan_id":"cebpf4jnsgd1na2vs0mg"},{"bike_id":"faf816e6-4e87-4e93-88d4-5861eae33b5c","system_id":"levelo_inurba_marseille","lat":43.24078,"lon":5.3775,"is_reserved":false,"is_disabled":false,"rental_uris":{"android":"levelo://app?vid=faf816e6-4e87-4e93-88d4-5861eae33b5c","ios":"levelo://app?vid=faf816e6-4e87-4e93-88d4-5861eae33b5c"},"vehicle_type_id":"4","last_reported":1726434508,"current_range_meters":24400,"station_id":"ce4bhnp2rcd13ifvqgvg","pricing_plan_id":"cebpf4jnsgd1na2vs0mg"},{"bike_id":"67222901-a7b6-42c0-8ea8-34d1c17444c6","system_id":"levelo_inurba_marseille","lat":43.29877,"lon":5.38899,"is_reserved":false,"is_disabled":false,"rental_uris":{"android":"levelo://app?vid=67222901-a7b6-42c0-8ea8-34d1c17444c6","ios":"levelo://app?vid=67222901-a7b6-42c0-8ea8-34d1c17444c6"},"vehicle_type_id":"4","last_reported":1726434508,"current_range_meters":24400,"station_id":"ce4bh392rcd13ifvqdl0","pricing_plan_id":"cebpf4jnsgd1na2vs0mg"},{"bike_id":"d1bc1a92-c34f-45bd-b470-2fca788491ee","system_id":"levelo_inurba_marseille","lat":43.32479,"lon":5.36572,"is_reserved":false,"is_disabled":false,"rental_uris":{"android":"levelo://app?vid=d1bc1a92-c34f-45bd-b470-2fca788491ee","ios":"levelo://app?vid=d1bc1a92-c34f-45bd-b470-2fca788491ee"},"vehicle_type_id":"4","last_reported":1726434508,"current_range_meters":38800,"station_id":"ce4bhs12rcd13ifvqhvg","pricing_plan_id":"cebpf4jnsgd1na2vs0mg"},{"bike_id":"c264ec44-e2d7-4307-8c45-7a567c428ef9","system_id":"levelo_inurba_marseille","lat":43.24646,"lon":5.38902,"is_reserved":false,"is_disabled":false,"rental_uris":{"android":"levelo://app?vid=c264ec44-e2d7-4307-8c45-7a567c428ef9","ios":"levelo://app?vid=c264ec44-e2d7-4307-8c45-7a567c428ef9"},"vehicle_type_id":"4","last_reported":1726434508,"current_range_meters":38800,"station_id":"ce4bhg12rcd13ifvqf60","pricing_plan_id":"cebpf4jnsgd1na2vs0mg"},{"bike_id":"564f400b-9296-4a76-8da4-1956e45162d7","system_id":"levelo_inurba_marseille","lat":43.28702,"lon":5.37391,"is_reserved":false,"is_disabled":false,"rental_uris":{"android":"levelo://app?vid=564f400b-9296-4a76-8da4-1956e45162d7","ios":"levelo://app?vid=564f400b-9296-4a76-8da4-1956e45162d7"},"vehicle_type_id":"4","last_reported":1726434508,"current_range_meters":39200,"station_id":"ce4bh3p2rcd13ifvqdq0","pricing_plan_id":"cebpf4jnsgd1na2vs0mg"},{"bike_id":"55dfe5cd-cbac-4041-8c2b-ba04d00e932e","system_id":"levelo_inurba_marseille","lat":43.30807,"lon":5.38163,"is_reserved":false,"is_disabled":false,"rental_uris":{"android":"levelo://app?vid=55dfe5cd-cbac-4041-8c2b-ba04d00e932e","ios":"levelo://app?vid=55dfe5cd-cbac-4041-8c2b-ba04d00e932e"},"vehicle_type_id":"4","last_reported":1726434508,"current_range_meters":8800,"station_id":"ce4bgt12rcd13ifvqce0","pricing_plan_id":"cebpf4jnsgd1na2vs0mg"},{"bike_id":"8b608b96-fedf-4511-8d4b-09bad2606e1a","system_id":"levelo_inurba_marseille","lat":43.2773,"lon":5.41135,"is_reserved":false,"is_disabled":false,"rental_uris":{"android":"levelo://app?vid=8b608b96-fedf-4511-8d4b-09bad2606e1a","ios":"levelo://app?vid=8b608b96-fedf-4511-8d4b-09bad2606e1a"},"vehicle_type_id":"4","last_reported":1726434508,"current_range_meters":19200,"station_id":"","pricing_plan_id":"cebpf4jnsgd1na2vs0mg"},{"bike_id":"a4b37153-d039-4617-9b32-8a0da7d70de0","system_id":"levelo_inurba_marseille","lat":43.30922,"lon":5.40148,"is_reserved":false,"is_disabled":false,"rental_uris":{"android":"levelo://app?vid=a4b37153-d039-4617-9b32-8a0da7d70de0","ios":"levelo://app?vid=a4b37153-d039-4617-9b32-8a0da7d70de0"},"vehicle_type_id":"4","last_reported":1726434508,"current_range_meters":30800,"station_id":"ce4bgvp2rcd13ifvqct0","pricing_plan_id":"cebpf4jnsgd1na2vs0mg"},{"bike_id":"5710f6f1-1ecf-4c44-8e10-53749ea1b15b","system_id":"levelo_inurba_marseille","lat":43.33023,"lon":5.39044,"is_reserved":false,"is_disabled":false,"rental_uris":{"android":"levelo://app?vid=5710f6f1-1ecf-4c44-8e10-53749ea1b15b","ios":"levelo://app?vid=5710f6f1-1ecf-4c44-8e10-53749ea1b15b"},"vehicle_type_id":"4","last_reported":1726434508,"current_range_meters":38000,"station_id":"ce4bhr92rcd13ifvqhrg","pricing_plan_id":"cebpf4jnsgd1na2vs0mg"},{"bike_id":"033f8a09-3d86-4af9-a20e-f66149a8ac76","system_id":"levelo_inurba_marseille","lat":43.2885,"lon":5.39313,"is_reserved":false,"is_disabled":false,"rental_uris":{"android":"levelo://app?vid=033f8a09-3d86-4af9-a20e-f66149a8ac76","ios":"levelo://app?vid=033f8a09-3d86-4af9-a20e-f66149a8ac76"},"vehicle_type_id":"4","last_reported":1726434508,"current_range_meters":38800,"station_id":"ce4bh2p2rcd13ifvqdi0","pricing_plan_id":"cebpf4jnsgd1na2vs0mg"},{"bike_id":"6f4f7321-2be7-4c36-bb04-a516f10e06a9","system_id":"levelo_inurba_marseille","lat":43.23183,"lon":5.3999,"is_reserved":false,"is_disabled":false,"rental_uris":{"android":"levelo://app?vid=6f4f7321-2be7-4c36-bb04-a516f10e06a9","ios":"levelo://app?vid=6f4f7321-2be7-4c36-bb04-a516f10e06a9"},"vehicle_type_id":"4","last_reported":1726434508,"current_range_meters":30000,"station_id":"ce4bhn12rcd13ifvqgqg","pricing_plan_id":"cebpf4jnsgd1na2vs0mg"},{"bike_id":"fa2b0a9f-66ad-4cd1-b7bb-93b9cffdc904","system_id":"levelo_inurba_marseille","lat":43.25927,"lon":5.40918,"is_reserved":false,"is_disabled":false,"rental_uris":{"android":"levelo://app?vid=fa2b0a9f-66ad-4cd1-b7bb-93b9cffdc904","ios":"levelo://app?vid=fa2b0a9f-66ad-4cd1-b7bb-93b9cffdc904"},"vehicle_type_id":"4","last_reported":1726434508,"current_range_meters":30400,"station_id":"ce4bhm92rcd13ifvqglg","pricing_plan_id":"cebpf4jnsgd1na2vs0mg"},{"bike_id":"faf911ae-ab67-4092-a54b-7c2e18dde467","system_id":"levelo_inurba_marseille","lat":43.29718,"lon":5.36614,"is_reserved":false,"is_disabled":false,"rental_uris":{"android":"levelo://app?vid=faf911ae-ab67-4092-a54b-7c2e18dde467","ios":"levelo://app?vid=faf911ae-ab67-4092-a54b-7c2e18dde467"},"vehicle_type_id":"4","last_reported":1726434508,"current_range_meters":38000,"station_id":"ce4bgn12rcd13ifvqbt0","pricing_plan_id":"cebpf4jnsgd1na2vs0mg"},{"bike_id":"a0c7d516-b8e5-400b-b2ed-07115cb25245","system_id":"levelo_inurba_marseille","lat":43.2861,"lon":5.37069,"is_reserved":false,"is_disabled":false,"rental_uris":{"android":"levelo://app?vid=a0c7d516-b8e5-400b-b2ed-07115cb25245","ios":"levelo://app?vid=a0c7d516-b8e5-400b-b2ed-07115cb25245"},"vehicle_type_id":"4","last_reported":1726434508,"current_range_meters":38800,"station_id":"ce4bht12rcd13ifvqi60","pricing_plan_id":"cebpf4jnsgd1na2vs0mg"},{"bike_id":"d8fcb5b6-2eb5-4812-ac24-b68cff4eac2b","system_id":"levelo_inurba_marseille","lat":43.30132,"lon":5.39877,"is_reserved":false,"is_disabled":false,"rental_uris":{"android":"levelo://app?vid=d8fcb5b6-2eb5-4812-ac24-b68cff4eac2b","ios":"levelo://app?vid=d8fcb5b6-2eb5-4812-ac24-b68cff4eac2b"},"vehicle_type_id":"4","last_reported":1726434508,"current_range_meters":20000,"station_id":"ce4bh0h2rcd13ifvqd40","pricing_plan_id":"cebpf4jnsgd1na2vs0mg"},{"bike_id":"d2ca61ed-07b0-4f91-990e-b98a38e76d1b","system_id":"levelo_inurba_marseille","lat":43.24068,"lon":5.37758,"is_reserved":false,"is_disabled":false,"rental_uris":{"android":"levelo://app?vid=d2ca61ed-07b0-4f91-990e-b98a38e76d1b","ios":"levelo://app?vid=d2ca61ed-07b0-4f91-990e-b98a38e76d1b"},"vehicle_type_id":"4","last_reported":1726434508,"current_range_meters":10000,"station_id":"ce4bhnp2rcd13ifvqgvg","pricing_plan_id":"cebpf4jnsgd1na2vs0mg"},{"bike_id":"b7d2a35d-aebf-443e-8931-f50f808f2a9f","system_id":"levelo_inurba_marseille","lat":43.2694,"lon":5.4025,"is_reserved":false,"is_disabled":false,"rental_uris":{"android":"levelo://app?vid=b7d2a35d-aebf-443e-8931-f50f808f2a9f","ios":"levelo://app?vid=b7d2a35d-aebf-443e-8931-f50f808f2a9f"},"vehicle_type_id":"4","last_reported":1726434508,"current_range_meters":31200,"station_id":"cjm6bp8fraef2m0cb0m0","pricing_plan_id":"cebpf4jnsgd1na2vs0mg"},{"bike_id":"1a75ef1e-cc10-4c5c-8827-81f04c5e043a","system_id":"levelo_inurba_marseille","lat":43.29511,"lon":5.39047,"is_reserved":false,"is_disabled":false,"rental_uris":{"android":"levelo://app?vid=1a75ef1e-cc10-4c5c-8827-81f04c5e043a","ios":"levelo://app?vid=1a75ef1e-cc10-4c5c-8827-81f04c5e043a"},"vehicle_type_id":"4","last_reported":1726434508,"current_range_meters":38800,"station_id":"ce4bh3p2rcd13ifvqdp0","pricing_plan_id":"cebpf4jnsgd1na2vs0mg"},{"bike_id":"a1b069b8-c026-4c9f-8e34-d5bd0fe15995","system_id":"levelo_inurba_marseille","lat":43.30133,"lon":5.39866,"is_reserved":false,"is_disabled":false,"rental_uris":{"android":"levelo://app?vid=a1b069b8-c026-4c9f-8e34-d5bd0fe15995","ios":"levelo://app?vid=a1b069b8-c026-4c9f-8e34-d5bd0fe15995"},"vehicle_type_id":"4","last_reported":1726434508,"current_range_meters":14000,"station_id":"ce4bh0h2rcd13ifvqd40","pricing_plan_id":"cebpf4jnsgd1na2vs0mg"},{"bike_id":"f522a6fd-81f7-486f-aa4c-c48f972960df","system_id":"levelo_inurba_marseille","lat":43.28703,"lon":5.37391,"is_reserved":false,"is_disabled":false,"rental_uris":{"android":"levelo://app?vid=f522a6fd-81f7-486f-aa4c-c48f972960df","ios":"levelo://app?vid=f522a6fd-81f7-486f-aa4c-c48f972960df"},"vehicle_type_id":"4","last_reported":1726434508,"current_range_meters":38400,"station_id":"ce4bh3p2rcd13ifvqdq0","pricing_plan_id":"cebpf4jnsgd1na2vs0mg"},{"bike_id":"998460b9-5e8f-453c-b355-2194979b4112","system_id":"levelo_inurba_marseille","lat":43.31113,"lon":5.3777,"is_reserved":false,"is_disabled":false,"rental_uris":{"android":"levelo://app?vid=998460b9-5e8f-453c-b355-2194979b4112","ios":"levelo://app?vid=998460b9-5e8f-453c-b355-2194979b4112"},"vehicle_type_id":"4","last_reported":1726434508,"current_range_meters":36000,"station_id":"ce4bgt92rcd13ifvqcg0","pricing_plan_id":"cebpf4jnsgd1na2vs0mg"},{"bike_id":"452e1e49-15ff-498b-a09c-be78556bb005","system_id":"levelo_inurba_marseille","lat":43.27807,"lon":5.40717,"is_reserved":false,"is_disabled":false,"rental_uris":{"android":"levelo://app?vid=452e1e49-15ff-498b-a09c-be78556bb005","ios":"levelo://app?vid=452e1e49-15ff-498b-a09c-be78556bb005"},"vehicle_type_id":"4","last_reported":1726434508,"current_range_meters":32000,"station_id":"ce4bhnh2rcd13ifvqgtg","pricing_plan_id":"cebpf4jnsgd1na2vs0mg"},{"bike_id":"1c956d28-b66e-427b-9681-b110484fbd57","system_id":"levelo_inurba_marseille","lat":43.27989,"lon":5.41662,"is_reserved":false,"is_disabled":false,"rental_uris":{"android":"levelo://app?vid=1c956d28-b66e-427b-9681-b110484fbd57","ios":"levelo://app?vid=1c956d28-b66e-427b-9681-b110484fbd57"},"vehicle_type_id":"4","last_reported":1726434508,"current_range_meters":38800,"station_id":"ce4bho12rcd13ifvqh1g","pricing_plan_id":"cebpf4jnsgd1na2vs0mg"},{"bike_id":"f1e8ceee-9573-4b77-ab79-482d0d3b70cc","system_id":"levelo_inurba_marseille","lat":43.24172,"lon":5.36403,"is_reserved":false,"is_disabled":false,"rental_uris":{"android":"levelo://app?vid=f1e8ceee-9573-4b77-ab79-482d0d3b70cc","ios":"levelo://app?vid=f1e8ceee-9573-4b77-ab79-482d0d3b70cc"},"vehicle_type_id":"4","last_reported":1726434508,"current_range_meters":33600,"station_id":"cpo36qri1sfpv3e86is0","pricing_plan_id":"cebpf4jnsgd1na2vs0mg"},{"bike_id":"e1109701-6d35-43bb-a58b-e4a0ed786c73","system_id":"levelo_inurba_marseille","lat":43.32286,"lon":5.3828,"is_reserved":false,"is_disabled":false,"rental_uris":{"android":"levelo://app?vid=e1109701-6d35-43bb-a58b-e4a0ed786c73","ios":"levelo://app?vid=e1109701-6d35-43bb-a58b-e4a0ed786c73"},"vehicle_type_id":"4","last_reported":1726434508,"current_range_meters":6800,"station_id":"ce4bhr12rcd13ifvqhqg","pricing_plan_id":"cebpf4jnsgd1na2vs0mg"},