{"last_updated":1747419272,"ttl":60,"version":"2.2","data":{"bikes":[{"bike_id":"c8107b40-4e78-47e4-a23d-10a935f8e353","system_id":"levelo_inurba_marseille","lat":43.26861,"lon":5.37036,"is_reserved":false,"is_disabled":false,"rental_uris":{"android":"levelo://app?vid=c8107b40-4e78-47e4-a23d-10a935f8e353","ios":"levelo://app?vid=c8107b40-4e78-47e4-a23d-10a935f8e353"},"vehicle_type_id":"4","last_reported":1747419272,"current_range_meters":2800,"station_id":"","pricing_plan_id":"cebpf4jnsgd1na2vs0mg"},{"bike_id":"6d22dee7-c292-4825-a2b3-d8f5a4fef44e","system_id":"levelo_inurba_marseille","lat":43.28078,"lon":5.39662,"is_reserved":false,"is_disabled":false,"rental_uris":{"android":"levelo://app?vid=6d22dee7-c292-4825-a2b3-d8f5a4fef44e","ios":"levelo://app?vid=6d22dee7-c292-4825-a2b3-d8f5a4fef44e"},"vehicle_type_id":"4","last_reported":1747419272,"current_range_meters":0,"station_id":"ce4bho12rcd13ifvqh2g","pricing_plan_id":"cebpf4jnsgd1na2vs0mg"},{"bike_id":"5d5f5755-5b3b-4308-8b78-c8614cdd189d","system_id":"levelo_inurba_marseille","lat":43.30462,"lon":5.36738,"is_reserved":false,"is_disabled":false,"rental_uris":{"android":"levelo://app?vid=5d5f5755-5b3b-4308-8b78-c8614cdd189d","ios":"levelo://app?vid=5d5f5755-5b3b-4308-8b78-c8614cdd189d"},"vehicle_type_id":"4","last_reported":1747419272,"current_range_meters":2800,"station_id":"","pricing_plan_id":"cebpf4jnsgd1na2vs0mg"},{"bike_id":"8c7406ff-4087-4635-b76c-876ef9d53981","system_id":"levelo_inurba_marseille","lat":43.26938,"lon":5.40268,"is_reserved":false,"is_disabled":false,"rental_uris":{"android":"levelo://app?vid=8c7406ff-4087-4635-b76c-876ef9d53981","ios":"levelo://app?vid=8c7406ff-4087-4635-b76c-876ef9d53981"},"vehicle_type_id":"4","last_reported":1747419272,"current_range_meters":2800,"station_id":"cjm6bp8fraef2m0cb0m0","pricing_plan_id":"cebpf4jnsgd1na2vs0mg"},{"bike_id":"d312c322-d9ba-44b4-af2e-3590f1143331","system_id":"levelo_inurba_marseille","lat":43.29252,"lon":5.40908,"is_reserved":false,"is_disabled":false,"rental_uris":{"android":"levelo://app?vid=d312c322-d9ba-44b4-af2e-3590f1143331","ios":"levelo://app?vid=d312c322-d9ba-44b4-af2e-3590f1143331"},"vehicle_type_id":"4","last_reported":1747419272,"current_range_meters":2800,"station_id":"ce4bh192rcd13ifvqdc0","pricing_plan_id":"cebpf4jnsgd1na2vs0mg"},{"bike_id":"304c543a-b331-424b-ad6a-5a26e480cfbe","system_id":"levelo_inurba_marseille","lat":43.337444,"lon":5.374475,"is_reserved":false,"is_disabled":false,"rental_uris":{"android":"levelo://app?vid=304c543a-b331-424b-ad6a-5a26e480cfbe","ios":"levelo://app?vid=304c543a-b331-424b-ad6a-5a26e480cfbe"},"vehicle_type_id":"4","last_reported":1747419272,"current_range_meters":3200,"station_id":"","pricing_plan_id":"cebpf4jnsgd1na2vs0mg"},{"bike_id":"8a819867-17bd-44ac-84cc-7c82c16e4576","system_id":"levelo_inurba_marseille","lat":43.28921,"lon":5.38402,"is_reserved":false,"is_disabled":true,"rental_uris":{"android":"levelo://app?vid=8a819867-17bd-44ac-84cc-7c82c16e4576","ios":"levelo://app?vid=8a819867-17bd-44ac-84cc-7c82c16e4576"},"vehicle_type_id":"4","last_reported":1747419272,"current_range_meters":3200,"station_id":"ce4bh612rcd13ifvqe6g","pricing_plan_id":"cebpf4jnsgd1na2vs0mg"},{"bike_id":"304e76eb-bb1b-4246-b2b6-1e363e8f64ed","system_id":"levelo_inurba_marseille","lat":43.29223,"lon":5.36048,"is_reserved":false,"is_disabled":false,"rental_uris":{"android":"levelo://app?vid=304e76eb-bb1b-4246-b2b6-1e363e8f64ed","ios":"levelo://app?vid=304e76eb-bb1b-4246-b2b6-1e363e8f64ed"},"vehicle_type_id":"4","last_reported":1747419272,"current_range_meters":3200,"station_id":"ce4bhbh2rcd13ifvqeqg","pricing_plan_id":"cebpf4jnsgd1na2vs0mg"},{"bike_id":"92bdeb5c-0d8f-4588-9a82-ee53cfe3c124","system_id":"levelo_inurba_marseille","lat":43.28848,"lon":5.35836,"is_reserved":false,"is_disabled":false,"rental_uris":{"android":"levelo://app?vid=92bdeb5c-0d8f-4588-9a82-ee53cfe3c124","ios":"levelo://app?vid=92bdeb5c-0d8f-4588-9a82-ee53cfe3c124"},"vehicle_type_id":"4","last_reported":1747419272,"current_range_meters":3600,"station_id":"ce4bhb12rcd13ifvqem0","pricing_plan_id":"cebpf4jnsgd1na2vs0mg"},{"bike_id":"e9afbbc4-3030-4f1b-bafd-4b886147a2ce","system_id":"levelo_inurba_marseille","lat":43.29423,"lon":5.38623,"is_reserved":false,"is_disabled":false,"rental_uris":{"android":"levelo://app?vid=e9afbbc4-3030-4f1b-bafd-4b886147a2ce","ios":"levelo://app?vid=e9afbbc4-3030-4f1b-bafd-4b886147a2ce"},"vehicle_type_id":"4","last_reported":1747419272,"current_range_meters":3600,"station_id":"ce4bh2h2rcd13ifvqdh0","pricing_plan_id":"cebpf4jnsgd1na2vs0mg"},{"bike_id":"9cabd100-f0f6-4bb0-aa08-6de77e2d3d4e","system_id":"levelo_inurba_marseille","lat":43.28153,"lon":5.42643,"is_reserved":false,"is_disabled":false,"rental_uris":{"android":"levelo://app?vid=9cabd100-f0f6-4bb0-aa08-6de77e2d3d4e","ios":"levelo://app?vid=9cabd100-f0f6-4bb0-aa08-6de77e2d3d4e"},"vehicle_type_id":"4","last_reported":1747419272,"current_range_meters":4000,"station_id":"ce4bhnh2rcd13ifvqgug","pricing_plan_id":"cebpf4jnsgd1na2vs0mg"},{"bike_id":"b1d2c971-1407-4e5e-b781-b472e4f33c39","system_id":"levelo_inurba_marseille","lat":43.27612,"lon":5.3611,"is_reserved":false,"is_disabled":false,"rental_uris":{"android":"levelo://app?vid=b1d2c971-1407-4e5e-b781-b472e4f33c39","ios":"levelo://app?vid=b1d2c971-1407-4e5e-b781-b472e4f33c39"},"vehicle_type_id":"4","last_reported":1747419272,"current_range_meters":8000,"station_id":"ce4bgj92rcd13ifvqbe0","pricing_plan_id":"cebpf4jnsgd1na2vs0mg"},{"bike_id":"dbcdca18-d23c-4988-8f0b-1871804dda9d","system_id":"levelo_inurba_marseille","lat":43.29029,"lon":5.37558,"is_reserved":false,"is_disabled":false,"rental_uris":{"android":"levelo://app?vid=dbcdca18-d23c-4988-8f0b-1871804dda9d","ios":"levelo://app?vid=dbcdca18-d23c-4988-8f0b-1871804dda9d"},"vehicle_type_id":"4","last_reported":1747419272,"current_range_meters":3600,"station_id":"ce4bh692rcd13ifvqe90","pricing_plan_id":"cebpf4jnsgd1na2vs0mg"},{"bike_id":"5f6ec453-c30d-485f-bec6-36366fd07fed","system_id":"levelo_inurba_marseille","lat":43.30779,"lon":5.37647,"is_reserved":false,"is_disabled":false,"rental_uris":{"android":"levelo://app?vid=5f6ec453-c30d-485f-bec6-36366fd07fed","ios":"levelo://app?vid=5f6ec453-c30d-485f-bec6-36366fd07fed"},"vehicle_type_id":"4","last_reported":1747419272,"current_range_meters":3600,"station_id":"ce4bgv92rcd13ifvqcq0","pricing_plan_id":"cebpf4jnsgd1na2vs0mg"},{"bike_id":"28c19875-1542-49ca-8224-34f115609f5c","system_id":"levelo_inurba_marseille","lat":43.28107,"lon":5.37837,"is_reserved":false,"is_disabled":false,"rental_uris":{"android":"levelo://app?vid=28c19875-1542-49ca-8224-34f115609f5c","ios":"levelo://app?vid=28c19875-1542-49ca-8224-34f115609f5c"},"vehicle_type_id":"4","last_reported":1747419272,"current_range_meters":4000,"station_id":"ce4bha12rcd13ifvqee0","pricing_plan_id":"cebpf4jnsgd1na2vs0mg"},{"bike_id":"6a66fe29-c381-4b92-9fc8-1f0014166e93","system_id":"levelo_inurba_marseille","lat":43.29367,"lon":5.37843,"is_reserved":false,"is_disabled":false,"rental_uris":{"android":"levelo://app?vid=6a66fe29-c381-4b92-9fc8-1f0014166e93","ios":"levelo://app?vid=6a66fe29-c381-4b92-9fc8-1f0014166e93"},"vehicle_type_id":"4","last_reported":1747419272,"current_range_meters":2000,"station_id":"ce4bgjh2rcd13ifvqbf0","pricing_plan_id":"cebpf4jnsgd1na2vs0mg"},{"bike_id":"e18f007c-e012-47e4-a6ef-5a233ca81b45","system_id":"levelo_inurba_marseille","lat":43.29257,"lon":5.40892,"is_reserved":false,"is_disabled":false,"rental_uris":{"android":"levelo://app?vid=e18f007c-e012-47e4-a6ef-5a233ca81b45","ios":"levelo://app?vid=e18f007c-e012-47e4-a6ef-5a233ca81b45"},"vehicle_type_id":"4","last_reported":1747419272,"current_range_meters":4000,"station_id":"ce4bh192rcd13ifvqdc0","pricing_plan_id":"cebpf4jnsgd1na2vs0mg"},{"bike_id":"2aa8615b-786b-4dca-9e49-4fa8f7860d97","system_id":"levelo_inurba_marseille","lat":43.303009,"lon":5.365038,"is_reserved":false,"is_disabled":false,"rental_uris":{"android":"levelo://app?vid=2aa8615b-786b-4dca-9e49-4fa8f7860d97","ios":"levelo://app?vid=2aa8615b-786b-4dca-9e49-4fa8f7860d97"},"vehicle_type_id":"4","last_reported":1747419272,"current_range_meters":4000,"station_id":"","pricing_plan_id":"cebpf4jnsgd1na2vs0mg"},{"bike_id":"40ebe1f0-18f2-467a-b82e-b7ea6f555fcd","system_id":"levelo_inurba_marseille","lat":43.24179,"lon":5.39727,"is_reserved":false,"is_disabled":false,"rental_uris":{"android":"levelo://app?vid=40ebe1f0-18f2-467a-b82e-b7ea6f555fcd","ios":"levelo://app?vid=40ebe1f0-18f2-467a-b82e-b7ea6f555fcd"},"vehicle_type_id":"4","last_reported":1747419272,"current_range_meters":4000,"station_id":"","pricing_plan_id":"cebpf4jnsgd1na2vs0mg"},{"bike_id":"45671e88-9bc3-4676-bde4-db613529b8da","system_id":"levelo_inurba_marseille","lat":43.29186,"lon":5.35806,"is_reserved":false,"is_disabled":false,"rental_uris":{"android":"levelo://app?vid=45671e88-9bc3-4676-bde4-db613529b8da","ios":"levelo://app?vid=45671e88-9bc3-4676-bde4-db613529b8da"},"vehicle_type_id":"4","last_reported":1747419272,"current_range_meters":4000,"station_id":"ce4bhb12rcd13ifvqel0","pricing_plan_id":"cebpf4jnsgd1na2vs0mg"},{"bike_id":"dabfd71d-b920-48be-a290-3bab14aeb43d","system_id":"levelo_inurba_marseille","lat":43.309277,"lon":5.40147,"is_reserved":false,"is_disabled":true,"rental_uris":{"android":"levelo://app?vid=dabfd71d-b920-48be-a290-3bab14aeb43d","ios":"levelo://app?vid=dabfd71d-b920-48be-a290-3bab14aeb43d"},"vehicle_type_id":"4","last_reported":1747419272,"current_range_meters":4400,"station_id":"ce4bgvp2rcd13ifvqct0","pricing_plan_id":"cebpf4jnsgd1na2vs0mg"},{"bike_id":"f833fbbd-a310-46ea-b8d0-727068e89da2","system_id":"levelo_inurba_marseille","lat":43.24803,"lon":5.374596,"is_reserved":false,"is_disabled":false,"rental_uris":{"android":"levelo://app?vid=f833fbbd-a310-46ea-b8d0-727068e89da2","ios":"levelo://app?vid=f833fbbd-a310-46ea-b8d0-727068e89da2"},"vehicle_type_id":"4","last_reported":1747419272,"current_range_meters":4400,"station_id":"ce4bhgh2rcd13ifvqfb0","pricing_plan_id":"cebpf4jnsgd1na2vs0mg"},{"bike_id":"9e36db1c-78c7-4066-9ae9-cd17948dec56","system_id":"levelo_inurba_marseille","lat":43.284734,"lon":5.359081,"is_reserved":false,"is_disabled":false,"rental_uris":{"android":"levelo://app?vid=9e36db1c-78c7-4066-9ae9-cd17948dec56","ios":"levelo://app?vid=9e36db1c-78c7-4066-9ae9-cd17948dec56"},"vehicle_type_id":"4","last_reported":1747419272,"current_range_meters":4400,"station_id":"ce4bhah2rcd13ifvqei0","pricing_plan_id":"cebpf4jnsgd1na2vs0mg"},{"bike_id":"534b5d36-9e69-4a53-b19c-b0012ca623ad","system_id":"levelo_inurba_marseille","lat":43.27837,"lon":5.39201,"is_reserved":false,"is_disabled":false,"rental_uris":{"android":"levelo://app?vid=534b5d36-9e69-4a53-b19c-b0012ca623ad","ios":"levelo://app?vid=534b5d36-9e69-4a53-b19c-b0012ca623ad"},"vehicle_type_id":"4","last_reported":1747419272,"current_range_meters":4000,"station_id":"ce4bhjp2rcd13ifvqga0","pricing_plan_id":"cebpf4jnsgd1na2vs0mg"},{"bike_id":"2daac1b0-a39a-464a-87cc-d34fe2447343","system_id":"levelo_inurba_marseille","lat":43.30142,"lon":5.37422,"is_reserved":false,"is_disabled":false,"rental_uris":{"android":"levelo://app?vid=2daac1b0-a39a-464a-87cc-d34fe2447343","ios":"levelo://app?vid=2daac1b0-a39a-464a-87cc-d34fe2447343"},"vehicle_type_id":"4","last_reported":1747419272,"current_range_meters":4000,"station_id":"ce4bgs92rcd13ifvqcc0","pricing_plan_id":"cebpf4jnsgd1na2vs0mg"},{"bike_id":"66ddfd32-eeec-49d2-bb00-8339ed5967f2","system_id":"levelo_inurba_marseille","lat":43.2816,"lon":5.42641,"is_reserved":false,"is_disabled":false,"rental_uris":{"android":"levelo://app?vid=66ddfd32-eeec-49d2-bb00-8339ed5967f2","ios":"levelo://app?vid=66ddfd32-eeec-49d2-bb00-8339ed5967f2"},"vehicle_type_id":"4","last_reported":1747419272,"current_range_meters":4800,"station_id":"ce4bhnh2rcd13ifvqgug","pricing_plan_id":"cebpf4jnsgd1na2vs0mg"},{"bike_id":"63ea77c1-c0a2-48d6-92fb-5112e9a1901e","system_id":"levelo_inurba_marseille","lat":43.25501,"lon":5.3765,"is_reserved":false,"is_disabled":false,"rental_uris":{"android":"levelo://app?vid=63ea77c1-c0a2-48d6-92fb-5112e9a1901e","ios":"levelo://app?vid=63ea77c1-c0a2-48d6-92fb-5112e9a1901e"},"vehicle_type_id":"4","last_reported":1747419272,"current_range_meters":4800,"station_id":"ce4bhh12rcd13ifvqff0","pricing_plan_id":"cebpf4jnsgd1na2vs0mg"},{"bike_id":"767ed713-dbc8-4cdd-8a42-d73e2810bc01","system_id":"levelo_inurba_marseille","lat":43.24166,"lon":5.36393,"is_reserved":false,"is_disabled":false,"rental_uris":{"android":"levelo://app?vid=767ed713-dbc8-4cdd-8a42-d73e2810bc01","ios":"levelo://app?vid=767ed713-dbc8-4cdd-8a42-d73e2810bc01"},"vehicle_type_id":"4","last_reported":1747419272,"current_range_meters":4800,"station_id":"cpo36qri1sfpv3e86is0","pricing_plan_id":"cebpf4jnsgd1na2vs0mg"},{"bike_id":"1e2486e1-0e62-4f26-9776-dc665e4a43fc","system_id":"levelo_inurba_marseille","lat":43.24183,"lon":5.36389,"is_reserved":false,"is_disabled":false,"rental_uris":{"android":"levelo://app?vid=1e2486e1-0e62-4f26-9776-dc665e4a43fc","ios":"levelo://app?vid=1e2486e1-0e62-4f26-9776-dc665e4a43fc"},"vehicle_type_id":"4","last_reported":1747419272,"current_range_meters":4800,"station_id":"cpo36qri1sfpv3e86is0","pricing_plan_id":"cebpf4jnsgd1na2vs0mg"},{"bike_id":"45fce2e2-839c-4c77-bf55-55905978b238","system_id":"levelo_inurba_marseille","lat":43.29203,"lon":5.36015,"is_reserved":false,"is_disabled":true,"rental_uris":{"android":"levelo://app?vid=45fce2e2-839c-4c77-bf55-55905978b238","ios":"levelo://app?vid=45fce2e2-839c-4c77-bf55-55905978b238"},"vehicle_type_id":"4","last_reported":1747419272,"current_range_meters":5600,"station_id":"ce4bhbh2rcd13ifvqeqg","pricing_plan_id":"cebpf4jnsgd1na2vs0mg"},{"bike_id":"a926f7fe-9cff-4c1a-9e4e-04cc9136d73a","system_id":"levelo_inurba_marseille","lat":43.28001,"lon":5.40011,"is_reserved":false,"is_disabled":false,"rental_uris":{"android":"levelo://app?vid=a926f7fe-9cff-4c1a-9e4e-04cc9136d73a","ios":"levelo://app?vid=a926f7fe-9cff-4c1a-9e4e-04cc9136d73a"},"vehicle_type_id":"4","last_reported":1747419272,"current_range_meters":5600,"station_id":"ce4bho92rcd13ifvqh4g","pricing_plan_id":"cebpf4jnsgd1na2vs0mg"},{"bike_id":"e2bcc0fc-1005-43c1-b933-d11c1b0fd874","system_id":"levelo_inurba_marseille","lat":43.25495,"lon":5.37649,"is_reserved":false,"is_disabled":false,"rental_uris":{"android":"levelo://app?vid=e2bcc0fc-1005-43c1-b933-d11c1b0fd874","ios":"levelo://app?vid=e2bcc0fc-1005-43c1-b933-d11c1b0fd874"},"vehicle_type_id":"4","last_reported":1747419272,"current_range_meters":6000,"station_id":"ce4bhh12rcd13ifvqff0","pricing_plan_id":"cebpf4jnsgd1na2vs0mg"},{"bike_id":"f3e8f26f-834b-477c-9c43-3c0faff351b3","system_id":"levelo_inurba_marseille","lat":43.30656,"lon":5.40074,"is_reserved":false,"is_disabled":true,"rental_uris":{"android":"levelo://app?vid=f3e8f26f-834b-477c-9c43-3c0faff351b3","ios":"levelo://app?vid=f3e8f26f-834b-477c-9c43-3c0faff351b3"},"vehicle_type_id":"4","last_reported":1747419272,"current_range_meters":6000,"station_id":"ce4bh112rcd13ifvqda0","pricing_plan_id":"cebpf4jnsgd1na2vs0mg"},{"bike_id":"503b6692-7e4a-4c9a-b1cb-d43be80b74b1","system_id":"levelo_inurba_marseille","lat":43.29795,"lon":5.40406,"is_reserved":false,"is_disabled":false,"rental_uris":{"android":"levelo://app?vid=503b6692-7e4a-4c9a-b1cb-d43be80b74b1","ios":"levelo://app?vid=503b6692-7e4a-4c9a-b1cb-d43be80b74b1"},"vehicle_type_id":"4","last_reported":1747419272,"current_range_meters":6000,"station_id":"ce4bh112rcd13ifvqd90","pricing_plan_id":"cebpf4jnsgd1na2vs0mg"},{"bike_id":"bf3f9f38-5b0c-4f2d-a8cb-161fa9fb1bcd","system_id":"levelo_inurba_marseille","lat":43.31162,"lon":5.38706,"is_reserved":false,"is_disabled":false,"rental_uris":{"android":"levelo://app?vid=bf3f9f38-5b0c-4f2d-a8cb-161fa9fb1bcd","ios":"levelo://app?vid=bf3f9f38-5b0c-4f2d-a8cb-161fa9fb1bcd"},"vehicle_type_id":"4","last_reported":1747419272,"current_range_meters":5600,"station_id":"ce4bgv12rcd13ifvqcp0","pricing_plan_id":"cebpf4jnsgd1na2vs0mg"},{"bike_id":"6fa9e772-3d07-48cc-af00-0a04d4ffa1a2","system_id":"levelo_inurba_marseille","lat":43.250948,"lon":5.403268,"is_reserved":false,"is_disabled":false,"rental_uris":{"android":"levelo://app?vid=6fa9e772-3d07-48cc-af00-0a04d4ffa1a2","ios":"levelo://app?vid=6fa9e772-3d07-48cc-af00-0a04d4ffa1a2"},"vehicle_type_id":"4","last_reported":1747419272,"current_range_meters":6000,"station_id":"ce4bhlh2rcd13ifvqgig","pricing_plan_id":"cebpf4jnsgd1na2vs0mg"},{"bike_id":"38134588-529f-480a-b8d3-95e70d6e6fb9","system_id":"levelo_inurba_marseille","lat":43.217456,"lon":5.346019,"is_reserved":false,"is_disabled":true,"rental_uris":{"android":"levelo://app?vid=38134588-529f-480a-b8d3-95e70d6e6fb9","ios":"levelo://app?vid=38134588-529f-480a-b8d3-95e70d6e6fb9"},"vehicle_type_id":"4","last_reported":1747419272,"current_range_meters":6000,"station_id":"st_cvj6r9ubvosntc0bgbag","pricing_plan_id":"cebpf4jnsgd1na2vs0mg"},{"bike_id":"c5c13adf-c0f2-44d0-9f98-294ffc512742","system_id":"levelo_inurba_marseille","lat":43.31484,"lon":5.37308,"is_reserved":false,"is_disabled":false,"rental_uris":{"android":"levelo://app?vid=c5c13adf-c0f2-44d0-9f98-294ffc512742","ios":"levelo://app?vid=c5c13adf-c0f2-44d0-9f98-294ffc512742"},"vehicle_type_id":"4","last_reported":1747419272,"current_range_meters":6000,"station_id":"ce4bgt12rcd13ifvqcd0","pricing_plan_id":"cebpf4jnsgd1na2vs0mg"},{"bike_id":"435018a6-be7f-422b-8207-12f74bd632df","system_id":"levelo_inurba_marseille","lat":43.29902,"lon":5.43659,"is_reserved":false,"is_disabled":false,"rental_uris":{"android":"levelo://app?vid=435018a6-be7f-422b-8207-12f74bd632df","ios":"levelo://app?vid=435018a6-be7f-422b-8207-12f74bd632df"},"vehicle_type_id":"4","last_reported":1747419272,"current_range_meters":6400,"station_id":"ce4bhpp2rcd13ifvqhfg","pricing_plan_id":"cebpf4jnsgd1na2vs0mg"},{"bike_id":"3b4e3867-4aa4-4114-a773-a7a02d1da23f","system_id":"levelo_inurba_marseille","lat":43.24807,"lon":5.37459,"is_reserved":false,"is_disabled":false,"rental_uris":{"android":"levelo://app?vid=3b4e3867-4aa4-4114-a773-a7a02d1da23f","ios":"levelo://app?vid=3b4e3867-4aa4-4114-a773-a7a02d1da23f"},"vehicle_type_id":"4","last_reported":1747419272,"current_range_meters":6800,"station_id":"ce4bhgh2rcd13ifvqfb0","pricing_plan_id":"cebpf4jnsgd1na2vs0mg"},{"bike_id":"7406b058-a87f-44fc-a02f-c34c4694ffcd","system_id":"levelo_inurba_marseille","lat":43.32453,"lon":5.3902,"is_reserved":false,"is_disabled":false,"rental_uris":{"android":"levelo://app?vid=7406b058-a87f-44fc-a02f-c34c4694ffcd","ios":"levelo://app?vid=7406b058-a87f-44fc-a02f-c34c4694ffcd"},"vehicle_type_id":"4","last_reported":1747419272,"current_range_meters":7200,"station_id":"","pricing_plan_id":"cebpf4jnsgd1na2vs0mg"},{"bike_id":"c264ca84-60ea-43d7-8d66-262825784b7c","system_id":"levelo_inurba_marseille","lat":43.29706,"lon":5.37942,"is_reserved":false,"is_disabled":false,"rental_uris":{"android":"levelo://app?vid=c264ca84-60ea-43d7-8d66-262825784b7c","ios":"levelo://app?vid=c264ca84-60ea-43d7-8d66-262825784b7c"},"vehicle_type_id":"4","last_reported":1747419272,"current_range_meters":7200,"station_id":"","pricing_plan_id":"cebpf4jnsgd1na2vs0mg"},{"bike_id":"5090aa98-7860-4af7-b8d4-b9228e5204e3","system_id":"levelo_inurba_marseille","lat":43.26032,"lon":5.37546,"is_reserved":false,"is_disabled":false,"rental_uris":{"android":"levelo://app?vid=5090aa98-7860-4af7-b8d4-b9228e5204e3","ios":"levelo://app?vid=5090aa98-7860-4af7-b8d4-b9228e5204e3"},"vehicle_type_id":"4","last_reported":1747419272,"current_range_meters":7200,"station_id":"ce4bhgh2rcd13ifvqfa0","pricing_plan_id":"cebpf4jnsgd1na2vs0mg"},{"bike_id":"765de2c1-e493-4693-8828-8e616db452d6","system_id":"levelo_inurba_marseille","lat":43.26788,"lon":5.39413,"is_reserved":false,"is_disabled":false,"rental_uris":{"android":"levelo://app?vid=765de2c1-e493-4693-8828-8e616db452d6","ios":"levelo://app?vid=765de2c1-e493-4693-8828-8e616db452d6"},"vehicle_type_id":"4","last_reported":1747419272,"current_range_meters":7200,"station_id":"ce4bhh12rcd13ifvqfg0","pricing_plan_id":"cebpf4jnsgd1na2vs0mg"},{"bike_id":"9604fdd5-bba4-47b0-81f1-43233cb3badb","system_id":"levelo_inurba_marseille","lat":43.28428,"lon":5.34983,"is_reserved":false,"is_disabled":false,"rental_uris":{"android":"levelo://app?vid=9604fdd5-bba4-47b0-81f1-43233cb3badb","ios":"levelo://app?vid=9604fdd5-bba4-47b0-81f1-43233cb3badb"},"vehicle_type_id":"4","last_reported":1747419272,"current_range_meters":7200,"station_id":"ce4bhbh2rcd13ifvqepg","pricing_plan_id":"cebpf4jnsgd1na2vs0mg"},{"bike_id":"f768f02c-a770-46ed-b9fb-ed1e435a3c0f","system_id":"levelo_inurba_marseille","lat":43.32953,"lon":5.39003,"is_reserved":false,"is_disabled":false,"rental_uris":{"android":"levelo://app?vid=f768f02c-a770-46ed-b9fb-ed1e435a3c0f","ios":"levelo://app?vid=f768f02c-a770-46ed-b9fb-ed1e435a3c0f"},"vehicle_type_id":"4","last_reported":1747419272,"current_range_meters":7200,"station_id":"","pricing_plan_id":"cebpf4jnsgd1na2vs0mg"},{"bike_id":"d93d0c6d-be90-4a1f-bc81-4d02d1453c4b","system_id":"levelo_inurba_marseille","lat":43.225,"lon":5.34782,"is_reserved":false,"is_disabled":false,"rental_uris":{"android":"levelo://app?vid=d93d0c6d-be90-4a1f-bc81-4d02d1453c4b","ios":"levelo://app?vid=d93d0c6d-be90-4a1f-bc81-4d02d1453c4b"},"vehicle_type_id":"4","last_reported":1747419272,"current_range_meters":7200,"station_id":"st_cvj5dfep6f1abm77gieg","pricing_plan_id":"cebpf4jnsgd1na2vs0mg"},{"bike_id":"b456bb81-0f84-429d-b35d-c40a1d204f24","system_id":"levelo_inurba_marseille","lat":43.24163,"lon":5.36381,"is_reserved":false,"is_disabled":false,"rental_uris":{"android":"levelo://app?vid=b456bb81-0f84-429d-b35d-c40a1d204f24","ios":"levelo://app?vid=b456bb81-0f84-429d-b35d-c40a1d204f24"},"vehicle_type_id":"4","last_reported":1747419272,"current_range_meters":7200,"station_id":"cpo36qri1sfpv3e86is0","pricing_plan_id":"cebpf4jnsgd1na2vs0mg"},{"bike_id":"7e060d20-94c3-464a-9943-3054ab37446c","system_id":"levelo_inurba_marseille","lat":43.288618,"lon":5.358433,"is_reserved":false,"is_disabled":true,"rental_uris":{"android":"levelo://app?vid=7e060d20-94c3-464a-9943-3054ab37446c","ios":"levelo://app?vid=7e060d20-94c3-464a-9943-3054ab37446c"},"vehicle_type_id":"4","last_reported":1747419272,"current_range_meters":7200,"station_id":"","pricing_plan_id":"cebpf4jnsgd1na2vs0mg"},{"bike_id":"7938e038-163e-4d49-9eae-d2a5c2894b40","system_id":"levelo_inurba_marseille","lat":43.27968,"lon":5.38772,"is_reserved":false,"is_disabled":true,"rental_uris":{"android":"levelo://app?vid=7938e038-163e-4d49-9eae-d2a5c2894b40","ios":"levelo://app?vid=7938e038-163e-4d49-9eae-d2a5c2894b40"},"vehicle_type_id":"4","last_reported":1747419272,"current_range_meters":7200,"station_id":"ce4bhg12rcd13ifvqf80","pricing_plan_id":"cebpf4jnsgd1na2vs0mg"},{"bike_id":"ef56424a-56b4-43c0-a25b-22b4026c6b4f","system_id":"levelo_inurba_marseille","lat":43.32358,"lon":5.40594,"is_reserved":false,"is_disabled":false,"rental_uris":{"android":"levelo://app?vid=ef56424a-56b4-43c0-a25b-22b4026c6b4f","ios":"levelo://app?vid=ef56424a-56b4-43c0-a25b-22b4026c6b4f"},"vehicle_type_id":"4","last_reported":1747419272,"current_range_meters":7200,"station_id":"ce4bhq92rcd13ifvqhjg","pricing_plan_id":"cebpf4jnsgd1na2vs0mg"},{"bike_id":"9f8d4ea5-9501-4e1d-a103-b2c550235410","system_id":"levelo_inurba_marseille","lat":43.3042,"lon":5.39749,"is_reserved":false,"is_disabled":false,"rental_uris":{"android":"levelo://app?vid=9f8d4ea5-9501-4e1d-a103-b2c550235410","ios":"levelo://app?vid=9f8d4ea5-9501-4e1d-a103-b2c550235410"},"vehicle_type_id":"4","last_reported":1747419272,"current_range_meters":7200,"station_id":"ce4bh092rcd13ifvqd20","pricing_plan_id":"cebpf4jnsgd1na2vs0mg"},{"bike_id":"a4254f33-dfdc-4beb-9ee4-21271a8a3aac","system_id":"levelo_inurba_marseille","lat":43.304216,"lon":5.412737,"is_reserved":false,"is_disabled":true,"rental_uris":{"android":"levelo://app?vid=a4254f33-dfdc-4beb-9ee4-21271a8a3aac","ios":"levelo://app?vid=a4254f33-dfdc-4beb-9ee4-21271a8a3aac"},"vehicle_type_id":"4","last_reported":1747419272,"current_range_meters":7200,"station_id":"ce4bhop2rcd13ifvqh8g","pricing_plan_id":"cebpf4jnsgd1na2vs0mg"},{"bike_id":"c4caefe5-d3aa-4938-b2d6-06565d454365","system_id":"levelo_inurba_marseille","lat":43.29416,"lon":5.38622,"is_reserved":false,"is_disabled":false,"rental_uris":{"android":"levelo://app?vid=c4caefe5-d3aa-4938-b2d6-06565d454365","ios":"levelo://app?vid=c4caefe5-d3aa-4938-b2d6-06565d454365"},"vehicle_type_id":"4","last_reported":1747419272,"current_range_meters":8000,"station_id":"ce4bh2h2rcd13ifvqdh0","pricing_plan_id":"cebpf4jnsgd1na2vs0mg"},{"bike_id":"952adc22-dc6b-4168-ab87-c9391992235f","system_id":"levelo_inurba_marseille","lat":43.30733,"lon":5.4244,"is_reserved":false,"is_disabled":false,"rental_uris":{"android":"levelo://app?vid=952adc22-dc6b-4168-ab87-c9391992235f","ios":"levelo://app?vid=952adc22-dc6b-4168-ab87-c9391992235f"},"vehicle_type_id":"4","last_reported":1747419272,"current_range_meters":8000,"station_id":"st_cvj6ca6bvosntc0bfgr0","pricing_plan_id":"cebpf4jnsgd1na2vs0mg"},{"bike_id":"b297b32b-72f1-47a4-9e2e-44162528f5e1","system_id":"levelo_inurba_marseille","lat":43.229342,"lon":5.35375,"is_reserved":false,"is_disabled":false,"rental_uris":{"android":"levelo://app?vid=b297b32b-72f1-47a4-9e2e-44162528f5e1","ios":"levelo://app?vid=b297b32b-72f1-47a4-9e2e-44162528f5e1"},"vehicle_type_id":"4","last_reported":1747419272,"current_range_meters":8000,"station_id":"cpo3532slgdg3j2ikp40","pricing_plan_id":"cebpf4jnsgd1na2vs0mg"},{"bike_id":"ee085233-3a25-4142-8078-3138f68b44d4","system_id":"levelo_inurba_marseille","lat":43.28928,"lon":5.38393,"is_reserved":false,"is_disabled":false,"rental_uris":{"android":"levelo://app?vid=ee085233-3a25-4142-8078-3138f68b44d4","ios":"levelo://app?vid=ee085233-3a25-4142-8078-3138f68b44d4"},"vehicle_type_id":"4","last_reported":1747419272,"current_range_meters":6000,"station_id":"ce4bh612rcd13ifvqe6g","pricing_plan_id":"cebpf4jnsgd1na2vs0mg"},{"bike_id":"a7c610ba-e794-49c0-a61c-82b61d578d58","system_id":"levelo_inurba_marseille","lat":43.2397,"lon":5.36626,"is_reserved":false,"is_disabled":false,"rental_uris":{"android":"levelo://app?vid=a7c610ba-e794-49c0-a61c-82b61d578d58","ios":"levelo://app?vid=a7c610ba-e794-49c0-a61c-82b61d578d58"},"vehicle_type_id":"4","last_reported":1747419272,"current_range_meters":8000,"station_id":"ce4bhi12rcd13ifvqfp0","pricing_plan_id":"cebpf4jnsgd1na2vs0mg"},{"bike_id":"ffc09ab6-80f8-4231-a773-09187bc0da18","system_id":"levelo_inurba_marseille","lat":43.29552,"lon":5.42292,"is_reserved":false,"is_disabled":false,"rental_uris":{"android":"levelo://app?vid=ffc09ab6-80f8-4231-a773-09187bc0da18","ios":"levelo://app?vid=ffc09ab6-80f8-4231-a773-09187bc0da18"},"vehicle_type_id":"4","last_reported":1747419272,"current_range_meters":8000,"station_id":"ce4bhph2rcd13ifvqhdg","pricing_plan_id":"cebpf4jnsgd1na2vs0mg"},{"bike_id":"dd4345d1-03de-4651-9011-1c290837e3eb","system_id":"levelo_inurba_marseille","lat":43.28405,"lon":5.37503,"is_reserved":false,"is_disabled":false,"rental_uris":{"android":"levelo://app?vid=dd4345d1-03de-4651-9011-1c290837e3eb","ios":"levelo://app?vid=dd4345d1-03de-4651-9011-1c290837e3eb"},"vehicle_type_id":"4","last_reported":1747419272,"current_range_meters":8000,"station_id":"ce4bh412rcd13ifvqds0","pricing_plan_id":"cebpf4jnsgd1na2vs0mg"},{"bike_id":"49b240fc-cf31-4529-925a-1775c6f5ab72","system_id":"levelo_inurba_marseille","lat":43.28929,"lon":5.36393,"is_reserved":false,"is_disabled":false,"rental_uris":{"android":"levelo://app?vid=49b240fc-cf31-4529-925a-1775c6f5ab72","ios":"levelo://app?vid=49b240fc-cf31-4529-925a-1775c6f5ab72"},"vehicle_type_id":"4","last_reported":1747419272,"current_range_meters":8000,"station_id":"ce4bhc92rcd13ifvqetg","pricing_plan_id":"cebpf4jnsgd1na2vs0mg"},{"bike_id":"fd28e35b-b191-4022-b3a6-d010c8079569","system_id":"levelo_inurba_marseille","lat":43.300354,"lon":5.38948,"is_reserved":false,"is_disabled":false,"rental_uris":{"android":"levelo://app?vid=fd28e35b-b191-4022-b3a6-d010c8079569","ios":"levelo://app?vid=fd28e35b-b191-4022-b3a6-d010c8079569"},"vehicle_type_id":"4","last_reported":1747419272,"current_range_meters":8400,"station_id":"ce4bh192rcd13ifvqdb0","pricing_plan_id":"cebpf4jnsgd1na2vs0mg"},{"bike_id":"3d2b302e-b783-4b8c-9962-6ed84ca55514","system_id":"levelo_inurba_marseille","lat":43.28268,"lon":5.35077,"is_reserved":false,"is_disabled":false,"rental_uris":{"android":"levelo://app?vid=3d2b302e-b783-4b8c-9962-6ed84ca55514","ios":"levelo://app?vid=3d2b302e-b783-4b8c-9962-6ed84ca55514"},"vehicle_type_id":"4","last_reported":1747419272,"current_range_meters":8400,"station_id":"ce4bhbp2rcd13ifvqerg","pricing_plan_id":"cebpf4jnsgd1na2vs0mg"},{"bike_id":"58d43377-0f81-43a0-9ce8-7b5a22cd8ac0","system_id":"levelo_inurba_marseille","lat":43.29368,"lon":5.37855,"is_reserved":false,"is_disabled":false,"rental_uris":{"android":"levelo://app?vid=58d43377-0f81-43a0-9ce8-7b5a22cd8ac0","ios":"levelo://app?vid=58d43377-0f81-43a0-9ce8-7b5a22cd8ac0"},"vehicle_type_id":"4","last_reported":1747419272,"current_range_meters":6800,"station_id":"ce4bgjh2rcd13ifvqbf0","pricing_plan_id":"cebpf4jnsgd1na2vs0mg"},{"bike_id":"62e7f802-a0c0-46eb-ae39-17322efd0569","system_id":"levelo_inurba_marseille","lat":43.281567,"lon":5.426433,"is_reserved":false,"is_disabled":false,"rental_uris":{"android":"levelo://app?vid=62e7f802-a0c0-46eb-ae39-17322efd0569","ios":"levelo://app?vid=62e7f802-a0c0-46eb-ae39-17322efd0569"},"vehicle_type_id":"4","last_reported":1747419272,"current_range_meters":8400,"station_id":"ce4bhnh2rcd13ifvqgug","pricing_plan_id":"cebpf4jnsgd1na2vs0mg"},{"bike_id":"d06a81f7-6bbe-4687-bfbe-932949dc466c","system_id":"levelo_inurba_marseille","lat":43.26114,"lon":5.38734,"is_reserved":false,"is_disabled":false,"rental_uris":{"android":"levelo://app?vid=d06a81f7-6bbe-4687-bfbe-932949dc466c","ios":"levelo://app?vid=d06a81f7-6bbe-4687-bfbe-932949dc466c"},"vehicle_type_id":"4","last_reported":1747419272,"current_range_meters":8400,"station_id":"","pricing_plan_id":"cebpf4jnsgd1na2vs0mg"},{"bike_id":"a76d2f21-b36a-4f25-9312-26b1ccc6c2df","system_id":"levelo_inurba_marseille","lat":43.24393,"lon":5.37065,"is_reserved":false,"is_disabled":false,"rental_uris":{"android":"levelo://app?vid=a76d2f21-b36a-4f25-9312-26b1ccc6c2df","ios":"levelo://app?vid=a76d2f21-b36a-4f25-9312-26b1ccc6c2df"},"vehicle_type_id":"4","last_reported":1747419272,"current_range_meters":8400,"station_id":"ce4bhhh2rcd13ifvqfk0","pricing_plan_id":"cebpf4jnsgd1na2vs0mg"},{"bike_id":"345cffa0-29b1-4e14-91c8-8f581afe5ee4","system_id":"levelo_inurba_marseille","lat":43.29197,"lon":5.39323,"is_reserved":false,"is_disabled":true,"rental_uris":{"android":"levelo://app?vid=345cffa0-29b1-4e14-91c8-8f581afe5ee4","ios":"levelo://app?vid=345cffa0-29b1-4e14-91c8-8f581afe5ee4"},"vehicle_type_id":"4","last_reported":1747419272,"current_range_meters":8400,"station_id":"ce4bh192rcd13ifvqdd0","pricing_plan_id":"cebpf4jnsgd1na2vs0mg"},{"bike_id":"80712b11-474e-442c-b3d5-b50ef59df938","system_id":"levelo_inurba_marseille","lat":43.25596,"lon":5.38242,"is_reserved":false,"is_disabled":false,"rental_uris":{"android":"levelo://app?vid=80712b11-474e-442c-b3d5-b50ef59df938","ios":"levelo://app?vid=80712b11-474e-442c-b3d5-b50ef59df938"},"vehicle_type_id":"4","last_reported":1747419272,"current_range_meters":8400,"station_id":"ce4bhih2rcd13ifvqfs0","pricing_plan_id":"cebpf4jnsgd1na2vs0mg"},{"bike_id":"b89a24e6-5078-471a-88fa-2c70cdf078ca","system_id":"levelo_inurba_marseille","lat":43.310083,"lon":5.37548,"is_reserved":false,"is_disabled":false,"rental_uris":{"android":"levelo://app?vid=b89a24e6-5078-471a-88fa-2c70cdf078ca","ios":"levelo://app?vid=b89a24e6-5078-471a-88fa-2c70cdf078ca"},"vehicle_type_id":"4","last_reported":1747419272,"current_range_meters":8400,"station_id":"","pricing_plan_id":"cebpf4jnsgd1na2vs0mg"},{"bike_id":"11051d32-281d-40b5-8849-edd94940252d","system_id":"levelo_inurba_marseille","lat":43.31698,"lon":5.37755,"is_reserved":false,"is_disabled":false,"rental_uris":{"android":"levelo://app?vid=11051d32-281d-40b5-8849-edd94940252d","ios":"levelo://app?vid=11051d32-281d-40b5-8849-edd94940252d"},"vehicle_type_id":"4","last_reported":1747419272,"current_range_meters":8000,"station_id":"ce4bgth2rcd13ifvqch0","pricing_plan_id":"cebpf4jnsgd1na2vs0mg"},{"bike_id":"f8e4732a-2ecf-431c-8f66-abc7aabb8aa1","system_id":"levelo_inurba_marseille","lat":43.32948,"lon":5.38988,"is_reserved":false,"is_disabled":false,"rental_uris":{"android":"levelo://app?vid=f8e4732a-2ecf-431c-8f66-abc7aabb8aa1","ios":"levelo://app?vid=f8e4732a-2ecf-431c-8f66-abc7aabb8aa1"},"vehicle_type_id":"4","last_reported":1747419272,"current_range_meters":8400,"station_id":"","pricing_plan_id":"cebpf4jnsgd1na2vs0mg"},{"bike_id":"7817e51d-7beb-4538-bb6d-9fc596f0174b","system_id":"levelo_inurba_marseille","lat":43.31533,"lon":5.38042,"is_reserved":false,"is_disabled":false,"rental_uris":{"android":"levelo://app?vid=7817e51d-7beb-4538-bb6d-9fc596f0174b","ios":"levelo://app?vid=7817e51d-7beb-4538-bb6d-9fc596f0174b"},"vehicle_type_id":"4","last_reported":1747419272,"current_range_meters":8400,"station_id":"ce4bhsp2rcd13ifvqi50","pricing_plan_id":"cebpf4jnsgd1na2vs0mg"},{"bike_id":"00beb716-ee1b-4159-8026-97f4d75a9c89","system_id":"levelo_inurba_marseille","lat":43.25119,"lon":5.40318,"is_reserved":false,"is_disabled":false,"rental_uris":{"android":"levelo://app?vid=00beb716-ee1b-4159-8026-97f4d75a9c89","ios":"levelo://app?vid=00beb716-ee1b-4159-8026-97f4d75a9c89"},"vehicle_type_id":"4","last_reported":1747419272,"current_range_meters":8400,"station_id":"ce4bhlh2rcd13ifvqgig","pricing_plan_id":"cebpf4jnsgd1na2vs0mg"},{"bike_id":"bc45efe0-071f-4aaa-aef4-e77d7627576f","system_id":"levelo_inurba_marseille","lat":43.29215,"lon":5.36048,"is_reserved":false,"is_disabled":false,"rental_uris":{"android":"levelo://app?vid=bc45efe0-071f-4aaa-aef4-e77d7627576f","ios":"levelo://app?vid=bc45efe0-071f-4aaa-aef4-e77d7627576f"},"vehicle_type_id":"4","last_reported":1747419272,"current_range_meters":8400,"station_id":"","pricing_plan_id":"cebpf4jnsgd1na2vs0mg"},{"bike_id":"0902eb3a-2564-4381-a677-2b169114d97f","system_id":"levelo_inurba_marseille","lat":43.29248,"lon":5.38428,"is_reserved":false,"is_disabled":false,"rental_uris":{"android":"levelo://app?vid=0902eb3a-2564-4381-a677-2b169114d97f","ios":"levelo://app?vid=0902eb3a-2564-4381-a677-2b169114d97f"},"vehicle_type_id":"4","last_reported":1747419272,"current_range_meters":8400,"station_id":"ce4bh692rcd13ifvqea0","pricing_plan_id":"cebpf4jnsgd1na2vs0mg"},{"bike_id":"6d485413-0a5b-4296-862c-2c19c83ee78f","system_id":"levelo_inurba_marseille","lat":43.32311,"lon":5.40638,"is_reserved":false,"is_disabled":false,"rental_uris":{"android":"levelo://app?vid=6d485413-0a5b-4296-862c-2c19c83ee78f","ios":"levelo://app?vid=6d485413-0a5b-4296-862c-2c19c83ee78f"},"vehicle_type_id":"4","last_reported":1747419272,"current_range_meters":8800,"station_id":"ce4bhq92rcd13ifvqhjg","pricing_plan_id":"cebpf4jnsgd1na2vs0mg"},{"bike_id":"feae91c7-5588-469e-bd35-ed4ba1b67a24","system_id":"levelo_inurba_marseille","lat":43.26785,"lon":5.421112,"is_reserved":false,"is_disabled":false,"rental_uris":{"android":"levelo://app?vid=feae91c7-5588-469e-bd35-ed4ba1b67a24","ios":"levelo://app?vid=feae91c7-5588-469e-bd35-ed4ba1b67a24"},"vehicle_type_id":"4","last_reported":1747419272,"current_range_meters":8800,"station_id":"ce4bhn92rcd13ifvqgrg","pricing_plan_id":"cebpf4jnsgd1na2vs0mg"},{"bike_id":"e64e4484-2db6-41f4-beb8-e0c0ae1263cd","system_id":"levelo_inurba_marseille","lat":43.28524,"lon":5.43027,"is_reserved":false,"is_disabled":false,"rental_uris":{"android":"levelo://app?vid=e64e4484-2db6-41f4-beb8-e0c0ae1263cd","ios":"levelo://app?vid=e64e4484-2db6-41f4-beb8-e0c0ae1263cd"},"vehicle_type_id":"4","last_reported":1747419272,"current_range_meters":8800,"station_id":"","pricing_plan_id":"cebpf4jnsgd1na2vs0mg"},{"bike_id":"2781ef4e-3651-4ce5-9a2e-f1d46595d329","system_id":"levelo_inurba_marseille","lat":43.32111,"lon":5.367677,"is_reserved":false,"is_disabled":false,"rental_uris":{"android":"levelo://app?vid=2781ef4e-3651-4ce5-9a2e-f1d46595d329","ios":"levelo://app?vid=2781ef4e-3651-4ce5-9a2e-f1d46595d329"},"vehicle_type_id":"4","last_reported":1747419272,"current_range_meters":8800,"station_id":"ce4bhrh2rcd13ifvqhug","pricing_plan_id":"cebpf4jnsgd1na2vs0mg"},{"bike_id":"fd3e156a-6016-40b0-bf2b-6c1d8952dfd1","system_id":"levelo_inurba_marseille","lat":43.22934,"lon":5.35377,"is_reserved":false,"is_disabled":false,"rental_uris":{"android":"levelo://app?vid=fd3e156a-6016-40b0-bf2b-6c1d8952dfd1","ios":"levelo://app?vid=fd3e156a-6016-40b0-bf2b-6c1d8952dfd1"},"vehicle_type_id":"4","last_reported":1747419272,"current_range_meters":8800,"station_id":"cpo3532slgdg3j2ikp40","pricing_plan_id":"cebpf4jnsgd1na2vs0mg"},{"bike_id":"839e0735-a61d-4e46-8190-7ff9422e6405","system_id":"levelo_inurba_marseille","lat":43.28257,"lon":5.35075,"is_reserved":false,"is_disabled":false,"rental_uris":{"android":"levelo://app?vid=839e0735-a61d-4e46-8190-7ff9422e6405","ios":"levelo://app?vid=839e0735-a61d-4e46-8190-7ff9422e6405"},"vehicle_type_id":"4","last_reported":1747419272,"current_range_meters":8800,"station_id":"ce4bhbp2rcd13ifvqerg","pricing_plan_id":"cebpf4jnsgd1na2vs0mg"},{"bike_id":"e182c071-b920-429f-abcd-6b77e4cc76e2","system_id":"levelo_inurba_marseille","lat":43.32468,"lon":5.36533,"is_reserved":false,"is_disabled":false,"rental_uris":{"android":"levelo://app?vid=e182c071-b920-429f-abcd-6b77e4cc76e2","ios":"levelo://app?vid=e182c071-b920-429f-abcd-6b77e4cc76e2"},"vehicle_type_id":"4","last_reported":1747419272,"current_range_meters":8800,"station_id":"ce4bhs12rcd13ifvqhvg","pricing_plan_id":"cebpf4jnsgd1na2vs0mg"},{"bike_id":"6dd57cf4-65e0-489e-905f-ab0dc1fdf6dd","system_id":"levelo_inurba_marseille","lat":43.32973,"lon":5.39379,"is_reserved":false,"is_disabled":false,"rental_uris":{"android":"levelo://app?vid=6dd57cf4-65e0-489e-905f-ab0dc1fdf6dd","ios":"levelo://app?vid=6dd57cf4-65e0-489e-905f-ab0dc1fdf6dd"},"vehicle_type_id":"4","last_reported":1747419272,"current_range_meters":8800,"station_id":"","pricing_plan_id":"cebpf4jnsgd1na2vs0mg"},{"bike_id":"14f64a8e-57bf-4f8a-8f76-40ba8a1efd77","system_id":"levelo_inurba_marseille","lat":43.28239,"lon":5.35093,"is_reserved":false,"is_disabled":false,"rental_uris":{"android":"levelo://app?vid=14f64a8e-57bf-4f8a-8f76-40ba8a1efd77","ios":"levelo://app?vid=14f64a8e-57bf-4f8a-8f76-40ba8a1efd77"},"vehicle_type_id":"4","last_reported":1747419272,"current_range_meters":8800,"station_id":"ce4bhbp2rcd13ifvqerg","pricing_plan_id":"cebpf4jnsgd1na2vs0mg"},{"bike_id":"bacd5098-f3af-4944-a479-d4f5151aec8f","system_id":"levelo_inurba_marseille","lat":43.28155,"lon":5.42633,"is_reserved":false,"is_disabled":false,"rental_uris":{"android":"levelo://app?vid=bacd5098-f3af-4944-a479-d4f5151aec8f","ios":"levelo://app?vid=bacd5098-f3af-4944-a479-d4f5151aec8f"},"vehicle_type_id":"4","last_reported":1747419272,"current_range_meters":9200,"station_id":"ce4bhnh2rcd13ifvqgug","pricing_plan_id":"cebpf4jnsgd1na2vs0mg"},{"bike_id":"11776691-813d-4222-855b-90c360095d98","system_id":"levelo_inurba_marseille","lat":43.29419,"lon":5.38624,"is_reserved":false,"is_disabled":false,"rental_uris":{"android":"levelo://app?vid=11776691-813d-4222-855b-90c360095d98","ios":"levelo://app?vid=11776691-813d-4222-855b-90c360095d98"},"vehicle_type_id":"4","last_reported":1747419272,"current_range_meters":9200,"station_id":"ce4bh2h2rcd13ifvqdh0","pricing_plan_id":"cebpf4jnsgd1na2vs0mg"},{"bike_id":"f587ae3d-eaaf-4295-885c-5933069c31e5","system_id":"levelo_inurba_marseille","lat":43.28125,"lon":5.351614,"is_reserved":false,"is_disabled":false,"rental_uris":{"android":"levelo://app?vid=f587ae3d-eaaf-4295-885c-5933069c31e5","ios":"levelo://app?vid=f587ae3d-eaaf-4295-885c-5933069c31e5"},"vehicle_type_id":"4","last_reported":1747419272,"current_range_meters":9200,"station_id":"ce4bhgp2rcd13ifvqfc0","pricing_plan_id":"cebpf4jnsgd1na2vs0mg"},{"bike_id":"dd7bcbc1-fa0e-49dd-9a60-0bb1bacd4b72","system_id":"levelo_inurba_marseille","lat":43.29283,"lon":5.40113,"is_reserved":false,"is_disabled":false,"rental_uris":{"android":"levelo://app?vid=dd7bcbc1-fa0e-49dd-9a60-0bb1bacd4b72","ios":"levelo://app?vid=dd7bcbc1-fa0e-49dd-9a60-0bb1bacd4b72"},"vehicle_type_id":"4","last_reported":1747419272,"current_range_meters":9200,"station_id":"ce4bh312rcd13ifvqdk0","pricing_plan_id":"cebpf4jnsgd1na2vs0mg"},{"bike_id":"aabd7029-90ff-4176-bf5f-86f96949e315","system_id":"levelo_inurba_marseille","lat":43.29062,"lon":5.37166,"is_reserved":false,"is_disabled":false,"rental_uris":{"android":"levelo://app?vid=aabd7029-90ff-4176-bf5f-86f96949e315","ios":"levelo://app?vid=aabd7029-90ff-4176-bf5f-86f96949e315"},"vehicle_type_id":"4","last_reported":1747419272,"current_range_meters":9200,"station_id":"ce4bh5p2rcd13ifvqe4g","pricing_plan_id":"cebpf4jnsgd1na2vs0mg"},{"bike_id":"60e9f027-db42-4f18-a683-5a09bb67f294","system_id":"levelo_inurba_marseille","lat":43.2894,"lon":5.39626,"is_reserved":false,"is_disabled":false,"rental_uris":{"android":"levelo://app?vid=60e9f027-db42-4f18-a683-5a09bb67f294","ios":"levelo://app?vid=60e9f027-db42-4f18-a683-5a09bb67f294"},"vehicle_type_id":"4","last_reported":1747419272,"current_range_meters":8800,"station_id":"ce4bh3h2rcd13ifvqdn0","pricing_plan_id":"cebpf4jnsgd1na2vs0mg"},{"bike_id":"7b11eff9-5aaa-457b-b53b-826688b57f1f","system_id":"levelo_inurba_marseille","lat":43.30802,"lon":5.43523,"is_reserved":false,"is_disabled":false,"rental_uris":{"android":"levelo://app?vid=7b11eff9-5aaa-457b-b53b-826688b57f1f","ios":"levelo://app?vid=7b11eff9-5aaa-457b-b53b-826688b57f1f"},"vehicle_type_id":"4","last_reported":1747419272,"current_range_meters":9200,"station_id":"ce4bhph2rcd13ifvqheg","pricing_plan_id":"cebpf4jnsgd1na2vs0mg"},{"bike_id":"a866e083-b3d9-4a72-a457-f99f34c46039","system_id":"levelo_inurba_marseille","lat":43.23182,"lon":5.39983,"is_reserved":false,"is_disabled":false,"rental_uris":{"android":"levelo://app?vid=a866e083-b3d9-4a72-a457-f99f34c46039","ios":"levelo://app?vid=a866e083-b3d9-4a72-a457-f99f34c46039"},"vehicle_type_id":"4","last_reported":1747419272,"current_range_meters":9200,"station_id":"ce4bhn12rcd13ifvqgqg","pricing_plan_id":"cebpf4jnsgd1na2vs0mg"},{"bike_id":"faf24003-9199-4f52-bdfb-1931803b48f3","system_id":"levelo_inurba_marseille","lat":43.27808,"lon":5.4071,"is_reserved":false,"is_disabled":false,"rental_uris":{"android":"levelo://app?vid=faf24003-9199-4f52-bdfb-1931803b48f3","ios":"levelo://app?vid=faf24003-9199-4f52-bdfb-1931803b48f3"},"vehicle_type_id":"4","last_reported":1747419272,"current_range_meters":9200,"station_id":"ce4bhnh2rcd13ifvqgtg","pricing_plan_id":"cebpf4jnsgd1na2vs0mg"},{"bike_id":"c0b9fd4f-e181-46ce-b0bf-f5119973334f","system_id":"levelo_inurba_marseille","lat":43.33771,"lon":5.37424,"is_reserved":false,"is_disabled":false,"rental_uris":{"android":"levelo://app?vid=c0b9fd4f-e181-46ce-b0bf-f5119973334f","ios":"levelo://app?vid=c0b9fd4f-e181-46ce-b0bf-f5119973334f"},"vehicle_type_id":"4","last_reported":1747419272,"current_range_meters":9200,"station_id":"","pricing_plan_id":"cebpf4jnsgd1na2vs0mg"},{"bike_id":"d65be1e0-eb3c-4026-9992-99249b1238e1","system_id":"levelo_inurba_marseille","lat":43.29521,"lon":5.38551,"is_reserved":false,"is_disabled":false,"rental_uris":{"android":"levelo://app?vid=d65be1e0-eb3c-4026-9992-99249b1238e1","ios":"levelo://app?vid=d65be1e0-eb3c-4026-9992-99249b1238e1"},"vehicle_type_id":"4","last_reported":1747419272,"current_range_meters":9600,"station_id":"ce4bgih2rcd13ifvqba0","pricing_plan_id":"cebpf4jnsgd1na2vs0mg"},{"bike_id":"80585bbf-abcc-44b7-8fff-7d932ab9d15e","system_id":"levelo_inurba_marseille","lat":43.27377,"lon":5.3627,"is_reserved":false,"is_disabled":false,"rental_uris":{"android":"levelo://app?vid=80585bbf-abcc-44b7-8fff-7d932ab9d15e","ios":"levelo://app?vid=80585bbf-abcc-44b7-8fff-7d932ab9d15e"},"vehicle_type_id":"4","last_reported":1747419272,"current_range_meters":9600,"station_id":"ce4bhbh2rcd13ifvqeo0","pricing_plan_id":"cebpf4jnsgd1na2vs0mg"},{"bike_id":"bec84a4b-89c1-4e4d-8f2e-2eafdd2dad65","system_id":"levelo_inurba_marseille","lat":43.2512,"lon":5.4032,"is_reserved":false,"is_disabled":false,"rental_uris":{"android":"levelo://app?vid=bec84a4b-89c1-4e4d-8f2e-2eafdd2dad65","ios":"levelo://app?vid=bec84a4b-89c1-4e4d-8f2e-2eafdd2dad65"},"vehicle_type_id":"4","last_reported":1747419272,"current_range_meters":9600,"station_id":"ce4bhlh2rcd13ifvqgig","pricing_plan_id":"cebpf4jnsgd1na2vs0mg"},{"bike_id":"7a82acff-6b22-4ef7-a791-a420705624f3","system_id":"levelo_inurba_marseille","lat":43.23193,"lon":5.39987,"is_reserved":false,"is_disabled":false,"rental_uris":{"android":"levelo://app?vid=7a82acff-6b22-4ef7-a791-a420705624f3","ios":"levelo://app?vid=7a82acff-6b22-4ef7-a791-a420705624f3"},"vehicle_type_id":"4","last_reported":1747419272,"current_range_meters":9600,"station_id":"ce4bhn12rcd13ifvqgqg","pricing_plan_id":"cebpf4jnsgd1na2vs0mg"},{"bike_id":"14840cde-cb2f-425a-a53d-0e3063d2ef0b","system_id":"levelo_inurba_marseille","lat":43.301567,"lon":5.380991,"is_reserved":false,"is_disabled":true,"rental_uris":{"android":"levelo://app?vid=14840cde-cb2f-425a-a53d-0e3063d2ef0b","ios":"levelo://app?vid=14840cde-cb2f-425a-a53d-0e3063d2ef0b"},"vehicle_type_id":"4","last_reported":1747419272,"current_range_meters":9600,"station_id":"ce4bgjp2rcd13ifvqbh0","pricing_plan_id":"cebpf4jnsgd1na2vs0mg"},{"bike_id":"02288632-79f4-483c-92bd-91cd61a950da","system_id":"levelo_inurba_marseille","lat":43.296417,"lon":5.36215,"is_reserved":false,"is_disabled":false,"rental_uris":{"android":"levelo://app?vid=02288632-79f4-483c-92bd-91cd61a950da","ios":"levelo://app?vid=02288632-79f4-483c-92bd-91cd61a950da"},"vehicle_type_id":"4","last_reported":1747419272,"current_range_meters":9600,"station_id":"","pricing_plan_id":"cebpf4jnsgd1na2vs0mg"},{"bike_id":"cc73f69d-9150-437d-9f1c-10307f4397a4","system_id":"levelo_inurba_marseille","lat":43.30961,"lon":5.39039,"is_reserved":false,"is_disabled":false,"rental_uris":{"android":"levelo://app?vid=cc73f69d-9150-437d-9f1c-10307f4397a4","ios":"levelo://app?vid=cc73f69d-9150-437d-9f1c-10307f4397a4"},"vehicle_type_id":"4","last_reported":1747419272,"current_range_meters":9600,"station_id":"ce4bgup2rcd13ifvqco0","pricing_plan_id":"cebpf4jnsgd1na2vs0mg"},{"bike_id":"9288031b-a73c-4e1b-8426-b4f2e315cba7","system_id":"levelo_inurba_marseille","lat":43.29847,"lon":5.36291,"is_reserved":false,"is_disabled":false,"rental_uris":{"android":"levelo://app?vid=9288031b-a73c-4e1b-8426-b4f2e315cba7","ios":"levelo://app?vid=9288031b-a73c-4e1b-8426-b4f2e315cba7"},"vehicle_type_id":"4","last_reported":1747419272,"current_range_meters":9600,"station_id":"ce4bgpp2rcd13ifvqc3g","pricing_plan_id":"cebpf4jnsgd1na2vs0mg"},{"bike_id":"b08b46b3-cae3-4ecc-a2e7-adc8461ce2e0","system_id":"levelo_inurba_marseille","lat":43.31362,"lon":5.385,"is_reserved":false,"is_disabled":false,"rental_uris":{"android":"levelo://app?vid=b08b46b3-cae3-4ecc-a2e7-adc8461ce2e0","ios":"levelo://app?vid=b08b46b3-cae3-4ecc-a2e7-adc8461ce2e0"},"vehicle_type_id":"4","last_reported":1747419272,"current_range_meters":9600,"station_id":"ce4bgt92rcd13ifvqcf0","pricing_plan_id":"cebpf4jnsgd1na2vs0mg"},{"bike_id":"daa5b0ff-3055-467f-a221-9fe35b536eb7","system_id":"levelo_inurba_marseille","lat":43.26188,"lon":5.3746,"is_reserved":false,"is_disabled":false,"rental_uris":{"android":"levelo://app?vid=daa5b0ff-3055-467f-a221-9fe35b536eb7","ios":"levelo://app?vid=daa5b0ff-3055-467f-a221-9fe35b536eb7"},"vehicle_type_id":"4","last_reported":1747419272,"current_range_meters":9600,"station_id":"ce4bhgp2rcd13ifvqfc0","pricing_plan_id":"cebpf4jnsgd1na2vs0mg"},{"bike_id":"439b8ae7-af6e-46ed-b094-a94990a6fd15","system_id":"levelo_inurba_marseille","lat":43.25079,"lon":5.39528,"is_reserved":false,"is_disabled":false,"rental_uris":{"android":"levelo://app?vid=439b8ae7-af6e-46ed-b094-a94990a6fd15","ios":"levelo://app?vid=439b8ae7-af6e-46ed-b094-a94990a6fd15"},"vehicle_type_id":"4","last_reported":1747419272,"current_range_meters":9600,"station_id":"ce4bhm12rcd13ifvqgkg","pricing_plan_id":"cebpf4jnsgd1na2vs0mg"},{"bike_id":"d0f8a570-79ce-4db5-ad10-7354341136f7","system_id":"levelo_inurba_marseille","lat":43.29785,"lon":5.39344,"is_reserved":false,"is_disabled":false,"rental_uris":{"android":"levelo://app?vid=d0f8a570-79ce-4db5-ad10-7354341136f7","ios":"levelo://app?vid=d0f8a570-79ce-4db5-ad10-7354341136f7"},"vehicle_type_id":"4","last_reported":1747419272,"current_range_meters":9600,"station_id":"chh1huq6cuj3fo74tm60","pricing_plan_id":"cebpf4jnsgd1na2vs0mg"},{"bike_id":"b4c6a17d-feb5-4063-9be6-0235d25ac35f","system_id":"levelo_inurba_marseille","lat":43.29272,"lon":5.40117,"is_reserved":false,"is_disabled":false,"rental_uris":{"android":"levelo://app?vid=b4c6a17d-feb5-4063-9be6-0235d25ac35f","ios":"levelo://app?vid=b4c6a17d-feb5-4063-9be6-0235d25ac35f"},"vehicle_type_id":"4","last_reported":1747419272,"current_range_meters":9600,"station_id":"ce4bh312rcd13ifvqdk0","pricing_plan_id":"cebpf4jnsgd1na2vs0mg"},{"bike_id":"6d36ce03-b344-4b5e-9465-9800cf819cb5","system_id":"levelo_inurba_marseille","lat":43.21191,"lon":5.3507,"is_reserved":false,"is_disabled":false,"rental_uris":{"android":"levelo://app?vid=6d36ce03-b344-4b5e-9465-9800cf819cb5","ios":"levelo://app?vid=6d36ce03-b344-4b5e-9465-9800cf819cb5"},"vehicle_type_id":"4","last_reported":1747419272,"current_range_meters":9600,"station_id":"st_cvj6sg6p6f1abm77japg","pricing_plan_id":"cebpf4jnsgd1na2vs0mg"},{"bike_id":"c8172a1b-1886-41c2-8dfc-a075b35ae9c2","system_id":"levelo_inurba_marseille","lat":43.32344,"lon":5.40588,"is_reserved":false,"is_disabled":false,"rental_uris":{"android":"levelo://app?vid=c8172a1b-1886-41c2-8dfc-a075b35ae9c2","ios":"levelo://app?vid=c8172a1b-1886-41c2-8dfc-a075b35ae9c2"},"vehicle_type_id":"4","last_reported":1747419272,"current_range_meters":10000,"station_id":"ce4bhq92rcd13ifvqhjg","pricing_plan_id":"cebpf4jnsgd1na2vs0mg"},{"bike_id":"f9a0d2e5-9d0f-4918-81a4-22e483428085","system_id":"levelo_inurba_marseille","lat":43.28139,"lon":5.42645,"is_reserved":false,"is_disabled":false,"rental_uris":{"android":"levelo://app?vid=f9a0d2e5-9d0f-4918-81a4-22e483428085","ios":"levelo://app?vid=f9a0d2e5-9d0f-4918-81a4-22e483428085"},"vehicle_type_id":"4","last_reported":1747419272,"current_range_meters":10000,"station_id":"ce4bhnh2rcd13ifvqgug","pricing_plan_id":"cebpf4jnsgd1na2vs0mg"},{"bike_id":"f0f7ca87-7ffb-46bd-ab65-ff44d1578193","system_id":"levelo_inurba_marseille","lat":43.32336,"lon":5.40608,"is_reserved":false,"is_disabled":false,"rental_uris":{"android":"levelo://app?vid=f0f7ca87-7ffb-46bd-ab65-ff44d1578193","ios":"levelo://app?vid=f0f7ca87-7ffb-46bd-ab65-ff44d1578193"},"vehicle_type_id":"4","last_reported":1747419272,"current_range_meters":10000,"station_id":"ce4bhq92rcd13ifvqhjg","pricing_plan_id":"cebpf4jnsgd1na2vs0mg"},{"bike_id":"3d6b5b36-a314-45fa-8bc0-68e5f98a5dde","system_id":"levelo_inurba_marseille","lat":43.229323,"lon":5.353797,"is_reserved":false,"is_disabled":false,"rental_uris":{"android":"levelo://app?vid=3d6b5b36-a314-45fa-8bc0-68e5f98a5dde","ios":"levelo://app?vid=3d6b5b36-a314-45fa-8bc0-68e5f98a5dde"},"vehicle_type_id":"4","last_reported":1747419272,"current_range_meters":10000,"station_id":"cpo3532slgdg3j2ikp40","pricing_plan_id":"cebpf4jnsgd1na2vs0mg"},{"bike_id":"5deb8060-b584-45ba-8ee7-be227a41b5a4","system_id":"levelo_inurba_marseille","lat":43.24657,"lon":5.38167,"is_reserved":false,"is_disabled":false,"rental_uris":{"android":"levelo://app?vid=5deb8060-b584-45ba-8ee7-be227a41b5a4","ios":"levelo://app?vid=5deb8060-b584-45ba-8ee7-be227a41b5a4"},"vehicle_type_id":"4","last_reported":1747419272,"current_range_meters":10000,"station_id":"ce4bhih2rcd13ifvqfr0","pricing_plan_id":"cebpf4jnsgd1na2vs0mg"},{"bike_id":"4f061462-aff3-4aca-8f35-6c46a7f08202","system_id":"levelo_inurba_marseille","lat":43.27364,"lon":5.36223,"is_reserved":false,"is_disabled":false,"rental_uris":{"android":"levelo://app?vid=4f061462-aff3-4aca-8f35-6c46a7f08202","ios":"levelo://app?vid=4f061462-aff3-4aca-8f35-6c46a7f08202"},"vehicle_type_id":"4","last_reported":1747419272,"current_range_meters":10000,"station_id":"ce4bhbh2rcd13ifvqeo0","pricing_plan_id":"cebpf4jnsgd1na2vs0mg"},{"bike_id":"dcbd93e2-9e31-4049-9d4e-1649bdec36ac","system_id":"levelo_inurba_marseille","lat":43.2942,"lon":5.38615,"is_reserved":false,"is_disabled":false,"rental_uris":{"android":"levelo://app?vid=dcbd93e2-9e31-4049-9d4e-1649bdec36ac","ios":"levelo://app?vid=dcbd93e2-9e31-4049-9d4e-1649bdec36ac"},"vehicle_type_id":"4","last_reported":1747419272,"current_range_meters":10000,"station_id":"ce4bh2h2rcd13ifvqdh0","pricing_plan_id":"cebpf4jnsgd1na2vs0mg"},{"bike_id":"c5b6c937-a53a-4f37-af1d-491c28f70c79","system_id":"levelo_inurba_marseille","lat":43.28631,"lon":5.35114,"is_reserved":false,"is_disabled":false,"rental_uris":{"android":"levelo://app?vid=c5b6c937-a53a-4f37-af1d-491c28f70c79","ios":"levelo://app?vid=c5b6c937-a53a-4f37-af1d-491c28f70c79"},"vehicle_type_id":"4","last_reported":1747419272,"current_range_meters":10000,"station_id":"ce4bhch2rcd13ifvqeug","pricing_plan_id":"cebpf4jnsgd1na2vs0mg"},{"bike_id":"a488853e-8708-42f9-a9f1-40f4dc62e03d","system_id":"levelo_inurba_marseille","lat":43.305723,"lon":5.37304,"is_reserved":false,"is_disabled":false,"rental_uris":{"android":"levelo://app?vid=a488853e-8708-42f9-a9f1-40f4dc62e03d","ios":"levelo://app?vid=a488853e-8708-42f9-a9f1-40f4dc62e03d"},"vehicle_type_id":"4","last_reported":1747419272,"current_range_meters":10000,"station_id":"","pricing_plan_id":"cebpf4jnsgd1na2vs0mg"},{"bike_id":"504ad2f0-d163-4e17-ad77-a6eb436d6f44","system_id":"levelo_inurba_marseille","lat":43.25721,"lon":5.41095,"is_reserved":false,"is_disabled":false,"rental_uris":{"android":"levelo://app?vid=504ad2f0-d163-4e17-ad77-a6eb436d6f44","ios":"levelo://app?vid=504ad2f0-d163-4e17-ad77-a6eb436d6f44"},"vehicle_type_id":"4","last_reported":1747419272,"current_range_meters":13600,"station_id":"ce4bhkp2rcd13ifvqgd0","pricing_plan_id":"cebpf4jnsgd1na2vs0mg"},{"bike_id":"a6a6f83b-65ce-4689-aa4d-7a8e8e844cad","system_id":"levelo_inurba_marseille","lat":43.30141,"lon":5.37411,"is_reserved":false,"is_disabled":false,"rental_uris":{"android":"levelo://app?vid=a6a6f83b-65ce-4689-aa4d-7a8e8e844cad","ios":"levelo://app?vid=a6a6f83b-65ce-4689-aa4d-7a8e8e844cad"},"vehicle_type_id":"4","last_reported":1747419272,"current_range_meters":10800,"station_id":"ce4bgs92rcd13ifvqcc0","pricing_plan_id":"cebpf4jnsgd1na2vs0mg"},{"bike_id":"e44cf235-0752-40e3-824c-b0d147edd05e","system_id":"levelo_inurba_marseille","lat":43.29577,"lon":5.36737,"is_reserved":false,"is_disabled":false,"rental_uris":{"android":"levelo://app?vid=e44cf235-0752-40e3-824c-b0d147edd05e","ios":"levelo://app?vid=e44cf235-0752-40e3-824c-b0d147edd05e"},"vehicle_type_id":"4","last_reported":1747419272,"current_range_meters":10000,"station_id":"ce4bgph2rcd13ifvqc2g","pricing_plan_id":"cebpf4jnsgd1na2vs0mg"},{"bike_id":"20906cca-9647-4454-8ded-42cee0331c72","system_id":"levelo_inurba_marseille","lat":43.29413,"lon":5.38625,"is_reserved":false,"is_disabled":false,"rental_uris":{"android":"levelo://app?vid=20906cca-9647-4454-8ded-42cee0331c72","ios":"levelo://app?vid=20906cca-9647-4454-8ded-42cee0331c72"},"vehicle_type_id":"4","last_reported":1747419272,"current_range_meters":10800,"station_id":"ce4bh2h2rcd13ifvqdh0","pricing_plan_id":"cebpf4jnsgd1na2vs0mg"},{"bike_id":"48bd4087-7492-42f4-b163-f53e6e2e7010","system_id":"levelo_inurba_marseille","lat":43.284579,"lon":5.35878,"is_reserved":false,"is_disabled":false,"rental_uris":{"android":"levelo://app?vid=48bd4087-7492-42f4-b163-f53e6e2e7010","ios":"levelo://app?vid=48bd4087-7492-42f4-b163-f53e6e2e7010"},"vehicle_type_id":"4","last_reported":1747419272,"current_range_meters":10800,"station_id":"ce4bhah2rcd13ifvqei0","pricing_plan_id":"cebpf4jnsgd1na2vs0mg"},{"bike_id":"26dd65e2-987d-4ee0-a32f-5cbf28da3f96","system_id":"levelo_inurba_marseille","lat":43.29539,"lon":5.38544,"is_reserved":false,"is_disabled":false,"rental_uris":{"android":"levelo://app?vid=26dd65e2-987d-4ee0-a32f-5cbf28da3f96","ios":"levelo://app?vid=26dd65e2-987d-4ee0-a32f-5cbf28da3f96"},"vehicle_type_id":"4","last_reported":1747419272,"current_range_meters":10800,"station_id":"ce4bgih2rcd13ifvqba0","pricing_plan_id":"cebpf4jnsgd1na2vs0mg"},{"bike_id":"069861d6-2772-4672-8c53-85152ee7a5ed","system_id":"levelo_inurba_marseille","lat":43.27366,"lon":5.36243,"is_reserved":false,"is_disabled":false,"rental_uris":{"android":"levelo://app?vid=069861d6-2772-4672-8c53-85152ee7a5ed","ios":"levelo://app?vid=069861d6-2772-4672-8c53-85152ee7a5ed"},"vehicle_type_id":"4","last_reported":1747419272,"current_range_meters":10800,"station_id":"ce4bhbh2rcd13ifvqeo0","pricing_plan_id":"cebpf4jnsgd1na2vs0mg"},{"bike_id":"27579346-963f-4c68-b2c6-31681b5eca5d","system_id":"levelo_inurba_marseille","lat":43.30641,"lon":5.40093,"is_reserved":false,"is_disabled":false,"rental_uris":{"android":"levelo://app?vid=27579346-963f-4c68-b2c6-31681b5eca5d","ios":"levelo://app?vid=27579346-963f-4c68-b2c6-31681b5eca5d"},"vehicle_type_id":"4","last_reported":1747419272,"current_range_meters":10800,"station_id":"ce4bh112rcd13ifvqda0","pricing_plan_id":"cebpf4jnsgd1na2vs0mg"},{"bike_id":"d01e1aeb-1d00-491e-afb5-3436c7661af7","system_id":"levelo_inurba_marseille","lat":43.29277,"lon":5.40115,"is_reserved":false,"is_disabled":false,"rental_uris":{"android":"levelo://app?vid=d01e1aeb-1d00-491e-afb5-3436c7661af7","ios":"levelo://app?vid=d01e1aeb-1d00-491e-afb5-3436c7661af7"},"vehicle_type_id":"4","last_reported":1747419272,"current_range_meters":11200,"station_id":"ce4bh312rcd13ifvqdk0","pricing_plan_id":"cebpf4jnsgd1na2vs0mg"},{"bike_id":"b0acf859-8be4-4016-8062-311f31795791","system_id":"levelo_inurba_marseille","lat":43.28406,"lon":5.349955,"is_reserved":false,"is_disabled":false,"rental_uris":{"android":"levelo://app?vid=b0acf859-8be4-4016-8062-311f31795791","ios":"levelo://app?vid=b0acf859-8be4-4016-8062-311f31795791"},"vehicle_type_id":"4","last_reported":1747419272,"current_range_meters":11200,"station_id":"ce4bhbh2rcd13ifvqepg","pricing_plan_id":"cebpf4jnsgd1na2vs0mg"},{"bike_id":"174e6fcf-0444-41d3-824d-d671a5914d0e","system_id":"levelo_inurba_marseille","lat":43.2861,"lon":5.37065,"is_reserved":false,"is_disabled":false,"rental_uris":{"android":"levelo://app?vid=174e6fcf-0444-41d3-824d-d671a5914d0e","ios":"levelo://app?vid=174e6fcf-0444-41d3-824d-d671a5914d0e"},"vehicle_type_id":"4","last_reported":1747419272,"current_range_meters":11200,"station_id":"ce4bht12rcd13ifvqi60","pricing_plan_id":"cebpf4jnsgd1na2vs0mg"},{"bike_id":"5cf74a5b-3237-4306-8708-835ce896cf40","system_id":"levelo_inurba_marseille","lat":43.31995,"lon":5.38135,"is_reserved":false,"is_disabled":false,"rental_uris":{"android":"levelo://app?vid=5cf74a5b-3237-4306-8708-835ce896cf40","ios":"levelo://app?vid=5cf74a5b-3237-4306-8708-835ce896cf40"},"vehicle_type_id":"4","last_reported":1747419272,"current_range_meters":11200,"station_id":"ce4bhr12rcd13ifvqhpg","pricing_plan_id":"cebpf4jnsgd1na2vs0mg"},{"bike_id":"0d74c1a1-4a2e-48aa-ac33-2bc611c82ebd","system_id":"levelo_inurba_marseille","lat":43.26194,"lon":5.37449,"is_reserved":false,"is_disabled":false,"rental_uris":{"android":"levelo://app?vid=0d74c1a1-4a2e-48aa-ac33-2bc611c82ebd","ios":"levelo://app?vid=0d74c1a1-4a2e-48aa-ac33-2bc611c82ebd"},"vehicle_type_id":"4","last_reported":1747419272,"current_range_meters":11200,"station_id":"ce4bhgp2rcd13ifvqfc0","pricing_plan_id":"cebpf4jnsgd1na2vs0mg"},{"bike_id":"5aab96d0-db93-41bb-8405-985cd9d396a8","system_id":"levelo_inurba_marseille","lat":43.2418,"lon":5.3638,"is_reserved":false,"is_disabled":false,"rental_uris":{"android":"levelo://app?vid=5aab96d0-db93-41bb-8405-985cd9d396a8","ios":"levelo://app?vid=5aab96d0-db93-41bb-8405-985cd9d396a8"},"vehicle_type_id":"4","last_reported":1747419272,"current_range_meters":11600,"station_id":"cpo36qri1sfpv3e86is0","pricing_plan_id":"cebpf4jnsgd1na2vs0mg"},{"bike_id":"5402217f-e93b-4267-9fd7-ee9755408ab2","system_id":"levelo_inurba_marseille","lat":43.27372,"lon":5.36258,"is_reserved":false,"is_disabled":false,"rental_uris":{"android":"levelo://app?vid=5402217f-e93b-4267-9fd7-ee9755408ab2","ios":"levelo://app?vid=5402217f-e93b-4267-9fd7-ee9755408ab2"},"vehicle_type_id":"4","last_reported":1747419272,"current_range_meters":11600,"station_id":"ce4bhbh2rcd13ifvqeo0","pricing_plan_id":"cebpf4jnsgd1na2vs0mg"},{"bike_id":"4c30a309-c8b4-4f3a-a24c-d1727c584bcd","system_id":"levelo_inurba_marseille","lat":43.273728,"lon":5.36261,"is_reserved":false,"is_disabled":false,"rental_uris":{"android":"levelo://app?vid=4c30a309-c8b4-4f3a-a24c-d1727c584bcd","ios":"levelo://app?vid=4c30a309-c8b4-4f3a-a24c-d1727c584bcd"},"vehicle_type_id":"4","last_reported":1747419272,"current_range_meters":11600,"station_id":"ce4bhbh2rcd13ifvqeo0","pricing_plan_id":"cebpf4jnsgd1na2vs0mg"},{"bike_id":"8a61a1bc-5a2c-4409-b911-e09287002183","system_id":"levelo_inurba_marseille","lat":43.31009,"lon":5.3793,"is_reserved":false,"is_disabled":false,"rental_uris":{"android":"levelo://app?vid=8a61a1bc-5a2c-4409-b911-e09287002183","ios":"levelo://app?vid=8a61a1bc-5a2c-4409-b911-e09287002183"},"vehicle_type_id":"4","last_reported":1747419272,"current_range_meters":11600,"station_id":"","pricing_plan_id":"cebpf4jnsgd1na2vs0mg"},{"bike_id":"f7c31dd2-47f7-46c3-a769-ecda17b690c7","system_id":"levelo_inurba_marseille","lat":43.313548,"lon":5.367183,"is_reserved":false,"is_disabled":true,"rental_uris":{"android":"levelo://app?vid=f7c31dd2-47f7-46c3-a769-ecda17b690c7","ios":"levelo://app?vid=f7c31dd2-47f7-46c3-a769-ecda17b690c7"},"vehicle_type_id":"4","last_reported":1747419272,"current_range_meters":12000,"station_id":"ce4bgr92rcd13ifvqc6g","pricing_plan_id":"cebpf4jnsgd1na2vs0mg"},{"bike_id":"976614c5-5509-4c20-944f-057f3a34a873","system_id":"levelo_inurba_marseille","lat":43.29043,"lon":5.359097,"is_reserved":false,"is_disabled":false,"rental_uris":{"android":"levelo://app?vid=976614c5-5509-4c20-944f-057f3a34a873","ios":"levelo://app?vid=976614c5-5509-4c20-944f-057f3a34a873"},"vehicle_type_id":"4","last_reported":1747419272,"current_range_meters":12000,"station_id":"ce4bha92rcd13ifvqeg0","pricing_plan_id":"cebpf4jnsgd1na2vs0mg"},{"bike_id":"9db231b9-9835-4acd-ad8a-6bba8386ed00","system_id":"levelo_inurba_marseille","lat":43.28406,"lon":5.35003,"is_reserved":false,"is_disabled":false,"rental_uris":{"android":"levelo://app?vid=9db231b9-9835-4acd-ad8a-6bba8386ed00","ios":"levelo://app?vid=9db231b9-9835-4acd-ad8a-6bba8386ed00"},"vehicle_type_id":"4","last_reported":1747419272,"current_range_meters":12000,"station_id":"ce4bhbh2rcd13ifvqepg","pricing_plan_id":"cebpf4jnsgd1na2vs0mg"},{"bike_id":"0bbae27d-252b-4ebb-871e-0cea87aa3c08","system_id":"levelo_inurba_marseille","lat":43.308,"lon":5.435274,"is_reserved":false,"is_disabled":false,"rental_uris":{"android":"levelo://app?vid=0bbae27d-252b-4ebb-871e-0cea87aa3c08","ios":"levelo://app?vid=0bbae27d-252b-4ebb-871e-0cea87aa3c08"},"vehicle_type_id":"4","last_reported":1747419272,"current_range_meters":11600,"station_id":"ce4bhph2rcd13ifvqheg","pricing_plan_id":"cebpf4jnsgd1na2vs0mg"},{"bike_id":"a9f99404-3f60-42eb-8aad-cf1dafd436fc","system_id":"levelo_inurba_marseille","lat":43.27365,"lon":5.36252,"is_reserved":false,"is_disabled":false,"rental_uris":{"android":"levelo://app?vid=a9f99404-3f60-42eb-8aad-cf1dafd436fc","ios":"levelo://app?vid=a9f99404-3f60-42eb-8aad-cf1dafd436fc"},"vehicle_type_id":"4","last_reported":1747419272,"current_range_meters":12400,"station_id":"ce4bhbh2rcd13ifvqeo0","pricing_plan_id":"cebpf4jnsgd1na2vs0mg"},{"bike_id":"490b3892-573e-44d4-9bd9-a7b0f61dc8a6","system_id":"levelo_inurba_marseille","lat":43.24158,"lon":5.36406,"is_reserved":false,"is_disabled":false,"rental_uris":{"android":"levelo://app?vid=490b3892-573e-44d4-9bd9-a7b0f61dc8a6","ios":"levelo://app?vid=490b3892-573e-44d4-9bd9-a7b0f61dc8a6"},"vehicle_type_id":"4","last_reported":1747419272,"current_range_meters":12400,"station_id":"cpo36qri1sfpv3e86is0","pricing_plan_id":"cebpf4jnsgd1na2vs0mg"},{"bike_id":"fa896132-845c-44a7-bc55-5f47764540d7","system_id":"levelo_inurba_marseille","lat":43.28292,"lon":5.35066,"is_reserved":false,"is_disabled":false,"rental_uris":{"android":"levelo://app?vid=fa896132-845c-44a7-bc55-5f47764540d7","ios":"levelo://app?vid=fa896132-845c-44a7-bc55-5f47764540d7"},"vehicle_type_id":"4","last_reported":1747419272,"current_range_meters":12400,"station_id":"ce4bhbp2rcd13ifvqerg","pricing_plan_id":"cebpf4jnsgd1na2vs0mg"},{"bike_id":"1e6b0c0f-6be2-47da-a300-f62b1ae17bae","system_id":"levelo_inurba_marseille","lat":43.28614,"lon":5.35134,"is_reserved":false,"is_disabled":true,"rental_uris":{"android":"levelo://app?vid=1e6b0c0f-6be2-47da-a300-f62b1ae17bae","ios":"levelo://app?vid=1e6b0c0f-6be2-47da-a300-f62b1ae17bae"},"vehicle_type_id":"4","last_reported":1747419272,"current_range_meters":12400,"station_id":"ce4bhch2rcd13ifvqeug","pricing_plan_id":"cebpf4jnsgd1na2vs0mg"},{"bike_id":"fc48c643-706b-47c0-8c25-5ccd807aa56d","system_id":"levelo_inurba_marseille","lat":43.28991,"lon":5.35597,"is_reserved":false,"is_disabled":false,"rental_uris":{"android":"levelo://app?vid=fc48c643-706b-47c0-8c25-5ccd807aa56d","ios":"levelo://app?vid=fc48c643-706b-47c0-8c25-5ccd807aa56d"},"vehicle_type_id":"4","last_reported":1747419272,"current_range_meters":12400,"station_id":"ce4bhb92rcd13ifvqen0","pricing_plan_id":"cebpf4jnsgd1na2vs0mg"},{"bike_id":"83b5b573-ee09-4132-9753-487ea4560b33","system_id":"levelo_inurba_marseille","lat":43.27609,"lon":5.36104,"is_reserved":false,"is_disabled":false,"rental_uris":{"android":"levelo://app?vid=83b5b573-ee09-4132-9753-487ea4560b33","ios":"levelo://app?vid=83b5b573-ee09-4132-9753-487ea4560b33"},"vehicle_type_id":"4","last_reported":1747419272,"current_range_meters":12800,"station_id":"ce4bgj92rcd13ifvqbe0","pricing_plan_id":"cebpf4jnsgd1na2vs0mg"},{"bike_id":"bd444cd5-f32e-4a92-b2cb-b72f6429bc23","system_id":"levelo_inurba_marseille","lat":43.31699,"lon":5.37772,"is_reserved":false,"is_disabled":false,"rental_uris":{"android":"levelo://app?vid=bd444cd5-f32e-4a92-b2cb-b72f6429bc23","ios":"levelo://app?vid=bd444cd5-f32e-4a92-b2cb-b72f6429bc23"},"vehicle_type_id":"4","last_reported":1747419272,"current_range_meters":12800,"station_id":"ce4bgth2rcd13ifvqch0","pricing_plan_id":"cebpf4jnsgd1na2vs0mg"},{"bike_id":"6166b985-0354-4810-8d21-87856bdbb10c","system_id":"levelo_inurba_marseille","lat":43.29803,"lon":5.37099,"is_reserved":false,"is_disabled":false,"rental_uris":{"android":"levelo://app?vid=6166b985-0354-4810-8d21-87856bdbb10c","ios":"levelo://app?vid=6166b985-0354-4810-8d21-87856bdbb10c"},"vehicle_type_id":"4","last_reported":1747419272,"current_range_meters":12800,"station_id":"ce4bgop2rcd13ifvqc1g","pricing_plan_id":"cebpf4jnsgd1na2vs0mg"},{"bike_id":"b8f48a03-1b3c-4f41-b74c-2b637af725d5","system_id":"levelo_inurba_marseille","lat":43.30389,"lon":5.39776,"is_reserved":false,"is_disabled":true,"rental_uris":{"android":"levelo://app?vid=b8f48a03-1b3c-4f41-b74c-2b637af725d5","ios":"levelo://app?vid=b8f48a03-1b3c-4f41-b74c-2b637af725d5"},"vehicle_type_id":"4","last_reported":1747419272,"current_range_meters":12800,"station_id":"ce4bh092rcd13ifvqd20","pricing_plan_id":"cebpf4jnsgd1na2vs0mg"},{"bike_id":"248354d9-319a-4fda-a327-9b1e5e28cf99","system_id":"levelo_inurba_marseille","lat":43.29524,"lon":5.37474,"is_reserved":false,"is_disabled":true,"rental_uris":{"android":"levelo://app?vid=248354d9-319a-4fda-a327-9b1e5e28cf99","ios":"levelo://app?vid=248354d9-319a-4fda-a327-9b1e5e28cf99"},"vehicle_type_id":"4","last_reported":1747419272,"current_range_meters":13600,"station_id":"ce4bgkp2rcd13ifvqbmg","pricing_plan_id":"cebpf4jnsgd1na2vs0mg"},{"bike_id":"658ea39f-e71b-439b-953f-22a95147ddf6","system_id":"levelo_inurba_marseille","lat":43.29631,"lon":5.40592,"is_reserved":false,"is_disabled":false,"rental_uris":{"android":"levelo://app?vid=658ea39f-e71b-439b-953f-22a95147ddf6","ios":"levelo://app?vid=658ea39f-e71b-439b-953f-22a95147ddf6"},"vehicle_type_id":"4","last_reported":1747419272,"current_range_meters":13600,"station_id":"ce4bh0h2rcd13ifvqd60","pricing_plan_id":"cebpf4jnsgd1na2vs0mg"},{"bike_id":"7a9cfabe-0a4f-4754-a09c-db4df5f8503f","system_id":"levelo_inurba_marseille","lat":43.2901,"lon":5.35613,"is_reserved":false,"is_disabled":false,"rental_uris":{"android":"levelo://app?vid=7a9cfabe-0a4f-4754-a09c-db4df5f8503f","ios":"levelo://app?vid=7a9cfabe-0a4f-4754-a09c-db4df5f8503f"},"vehicle_type_id":"4","last_reported":1747419272,"current_range_meters":13600,"station_id":"ce4bhb92rcd13ifvqen0","pricing_plan_id":"cebpf4jnsgd1na2vs0mg"},{"bike_id":"b5393c3b-35d4-4329-9737-672d08abfe2d","system_id":"levelo_inurba_marseille","lat":43.29875,"lon":5.39733,"is_reserved":false,"is_disabled":false,"rental_uris":{"android":"levelo://app?vid=b5393c3b-35d4-4329-9737-672d08abfe2d","ios":"levelo://app?vid=b5393c3b-35d4-4329-9737-672d08abfe2d"},"vehicle_type_id":"4","last_reported":1747419272,"current_range_meters":12800,"station_id":"ce4bh0h2rcd13ifvqd50","pricing_plan_id":"cebpf4jnsgd1na2vs0mg"},{"bike_id":"c462edac-629f-47ae-91a1-fc91820cc32c","system_id":"levelo_inurba_marseille","lat":43.29305,"lon":5.37188,"is_reserved":false,"is_disabled":true,"rental_uris":{"android":"levelo://app?vid=c462edac-629f-47ae-91a1-fc91820cc32c","ios":"levelo://app?vid=c462edac-629f-47ae-91a1-fc91820cc32c"},"vehicle_type_id":"4","last_reported":1747419272,"current_range_meters":14000,"station_id":"ce4bgh92rcd13ifvqb40","pricing_plan_id":"cebpf4jnsgd1na2vs0mg"},{"bike_id":"f495968d-d982-4514-ab98-db984cf03219","system_id":"levelo_inurba_marseille","lat":43.31418,"lon":5.383354,"is_reserved":false,"is_disabled":false,"rental_uris":{"android":"levelo://app?vid=f495968d-d982-4514-ab98-db984cf03219","ios":"levelo://app?vid=f495968d-d982-4514-ab98-db984cf03219"},"vehicle_type_id":"4","last_reported":1747419272,"current_range_meters":14000,"station_id":"","pricing_plan_id":"cebpf4jnsgd1na2vs0mg"},{"bike_id":"7f629e08-1a82-4616-8dc4-2937dfb1e93c","system_id":"levelo_inurba_marseille","lat":43.2466,"lon":5.38165,"is_reserved":false,"is_disabled":false,"rental_uris":{"android":"levelo://app?vid=7f629e08-1a82-4616-8dc4-2937dfb1e93c","ios":"levelo://app?vid=7f629e08-1a82-4616-8dc4-2937dfb1e93c"},"vehicle_type_id":"4","last_reported":1747419272,"current_range_meters":14000,"station_id":"ce4bhih2rcd13ifvqfr0","pricing_plan_id":"cebpf4jnsgd1na2vs0mg"},{"bike_id":"a3eb42e0-d556-46d5-b7b3-7086cd954758","system_id":"levelo_inurba_marseille","lat":43.26191,"lon":5.3745,"is_reserved":false,"is_disabled":false,"rental_uris":{"android":"levelo://app?vid=a3eb42e0-d556-46d5-b7b3-7086cd954758","ios":"levelo://app?vid=a3eb42e0-d556-46d5-b7b3-7086cd954758"},"vehicle_type_id":"4","last_reported":1747419272,"current_range_meters":14400,"station_id":"ce4bhgp2rcd13ifvqfc0","pricing_plan_id":"cebpf4jnsgd1na2vs0mg"},{"bike_id":"87c35e81-23a3-47e5-94ce-f3eeee628452","system_id":"levelo_inurba_marseille","lat":43.29601,"lon":5.38111,"is_reserved":false,"is_disabled":false,"rental_uris":{"android":"levelo://app?vid=87c35e81-23a3-47e5-94ce-f3eeee628452","ios":"levelo://app?vid=87c35e81-23a3-47e5-94ce-f3eeee628452"},"vehicle_type_id":"4","last_reported":1747419272,"current_range_meters":14400,"station_id":"","pricing_plan_id":"cebpf4jnsgd1na2vs0mg"},{"bike_id":"ea0f1347-e44f-441b-92ab-c6214413c0cc","system_id":"levelo_inurba_marseille","lat":43.32106,"lon":5.36755,"is_reserved":false,"is_disabled":false,"rental_uris":{"android":"levelo://app?vid=ea0f1347-e44f-441b-92ab-c6214413c0cc","ios":"levelo://app?vid=ea0f1347-e44f-441b-92ab-c6214413c0cc"},"vehicle_type_id":"4","last_reported":1747419272,"current_range_meters":14400,"station_id":"ce4bhrh2rcd13ifvqhug","pricing_plan_id":"cebpf4jnsgd1na2vs0mg"},{"bike_id":"2380eda2-8e6b-4dd7-abfc-438d02044ce0","system_id":"levelo_inurba_marseille","lat":43.28416,"lon":5.34975,"is_reserved":false,"is_disabled":false,"rental_uris":{"android":"levelo://app?vid=2380eda2-8e6b-4dd7-abfc-438d02044ce0","ios":"levelo://app?vid=2380eda2-8e6b-4dd7-abfc-438d02044ce0"},"vehicle_type_id":"4","last_reported":1747419272,"current_range_meters":14400,"station_id":"ce4bhbh2rcd13ifvqepg","pricing_plan_id":"cebpf4jnsgd1na2vs0mg"},{"bike_id":"d96bb083-26a4-4f73-b13f-efe5b4ea0cbe","system_id":"levelo_inurba_marseille","lat":43.26566,"lon":5.39009,"is_reserved":false,"is_disabled":false,"rental_uris":{"android":"levelo://app?vid=d96bb083-26a4-4f73-b13f-efe5b4ea0cbe","ios":"levelo://app?vid=d96bb083-26a4-4f73-b13f-efe5b4ea0cbe"},"vehicle_type_id":"4","last_reported":1747419272,"current_range_meters":14800,"station_id":"ce4bhe12rcd13ifvqf30","pricing_plan_id":"cebpf4jnsgd1na2vs0mg"},{"bike_id":"ca535b49-9e68-425a-85f8-88d8029ff71b","system_id":"levelo_inurba_marseille","lat":43.29425,"lon":5.38616,"is_reserved":false,"is_disabled":false,"rental_uris":{"android":"levelo://app?vid=ca535b49-9e68-425a-85f8-88d8029ff71b","ios":"levelo://app?vid=ca535b49-9e68-425a-85f8-88d8029ff71b"},"vehicle_type_id":"4","last_reported":1747419272,"current_range_meters":14800,"station_id":"ce4bh2h2rcd13ifvqdh0","pricing_plan_id":"cebpf4jnsgd1na2vs0mg"},{"bike_id":"148e042f-88eb-4919-80a4-998cd4074c81","system_id":"levelo_inurba_marseille","lat":43.29236,"lon":5.36063,"is_reserved":false,"is_disabled":false,"rental_uris":{"android":"levelo://app?vid=148e042f-88eb-4919-80a4-998cd4074c81","ios":"levelo://app?vid=148e042f-88eb-4919-80a4-998cd4074c81"},"vehicle_type_id":"4","last_reported":1747419272,"current_range_meters":14800,"station_id":"ce4bhbh2rcd13ifvqeqg","pricing_plan_id":"cebpf4jnsgd1na2vs0mg"},{"bike_id":"9471e4e8-8558-4fd0-9dfb-542123afed23","system_id":"levelo_inurba_marseille","lat":43.29559,"lon":5.42284,"is_reserved":false,"is_disabled":false,"rental_uris":{"android":"levelo://app?vid=9471e4e8-8558-4fd0-9dfb-542123afed23","ios":"levelo://app?vid=9471e4e8-8558-4fd0-9dfb-542123afed23"},"vehicle_type_id":"4","last_reported":1747419272,"current_range_meters":14800,"station_id":"ce4bhph2rcd13ifvqhdg","pricing_plan_id":"cebpf4jnsgd1na2vs0mg"},{"bike_id":"cfd3832a-f5d3-4d3b-b89a-37bf7844a418","system_id":"levelo_inurba_marseille","lat":43.29008,"lon":5.35591,"is_reserved":false,"is_disabled":false,"rental_uris":{"android":"levelo://app?vid=cfd3832a-f5d3-4d3b-b89a-37bf7844a418","ios":"levelo://app?vid=cfd3832a-f5d3-4d3b-b89a-37bf7844a418"},"vehicle_type_id":"4","last_reported":1747419272,"current_range_meters":15200,"station_id":"ce4bhb92rcd13ifvqen0","pricing_plan_id":"cebpf4jnsgd1na2vs0mg"},{"bike_id":"e0448571-9035-44a7-a5a2-a3834486ce1f","system_id":"levelo_inurba_marseille","lat":43.29237,"lon":5.36063,"is_reserved":false,"is_disabled":false,"rental_uris":{"android":"levelo://app?vid=e0448571-9035-44a7-a5a2-a3834486ce1f","ios":"levelo://app?vid=e0448571-9035-44a7-a5a2-a3834486ce1f"},"vehicle_type_id":"4","last_reported":1747419272,"current_range_meters":15200,"station_id":"ce4bhbh2rcd13ifvqeqg","pricing_plan_id":"cebpf4jnsgd1na2vs0mg"},{"bike_id":"6da655b8-0421-4e8a-ae32-6637af746f6a","system_id":"levelo_inurba_marseille","lat":43.26828,"lon":5.41115,"is_reserved":false,"is_disabled":false,"rental_uris":{"android":"levelo://app?vid=6da655b8-0421-4e8a-ae32-6637af746f6a","ios":"levelo://app?vid=6da655b8-0421-4e8a-ae32-6637af746f6a"},"vehicle_type_id":"4","last_reported":1747419272,"current_range_meters":15200,"station_id":"","pricing_plan_id":"cebpf4jnsgd1na2vs0mg"},{"bike_id":"25f3c7db-2821-453a-a5f0-828c271f567e","system_id":"levelo_inurba_marseille","lat":43.29422,"lon":5.38624,"is_reserved":false,"is_disabled":false,"rental_uris":{"android":"levelo://app?vid=25f3c7db-2821-453a-a5f0-828c271f567e","ios":"levelo://app?vid=25f3c7db-2821-453a-a5f0-828c271f567e"},"vehicle_type_id":"4","last_reported":1747419272,"current_range_meters":15200,"station_id":"ce4bh2h2rcd13ifvqdh0","pricing_plan_id":"cebpf4jnsgd1na2vs0mg"},{"bike_id":"d12750c2-3f6a-4297-b3f9-7259142f7c2b","system_id":"levelo_inurba_marseille","lat":43.29189,"lon":5.35798,"is_reserved":false,"is_disabled":false,"rental_uris":{"android":"levelo://app?vid=d12750c2-3f6a-4297-b3f9-7259142f7c2b","ios":"levelo://app?vid=d12750c2-3f6a-4297-b3f9-7259142f7c2b"},"vehicle_type_id":"4","last_reported":1747419272,"current_range_meters":15200,"station_id":"ce4bhb12rcd13ifvqel0","pricing_plan_id":"cebpf4jnsgd1na2vs0mg"},{"bike_id":"4b296f2f-78ea-4922-91e5-32dcdb913265","system_id":"levelo_inurba_marseille","lat":43.25115,"lon":5.40328,"is_reserved":false,"is_disabled":false,"rental_uris":{"android":"levelo://app?vid=4b296f2f-78ea-4922-91e5-32dcdb913265","ios":"levelo://app?vid=4b296f2f-78ea-4922-91e5-32dcdb913265"},"vehicle_type_id":"4","last_reported":1747419272,"current_range_meters":15200,"station_id":"ce4bhlh2rcd13ifvqgig","pricing_plan_id":"cebpf4jnsgd1na2vs0mg"},{"bike_id":"208d7a25-cd6e-47fe-addd-1b889cabc092","system_id":"levelo_inurba_marseille","lat":43.284074,"lon":5.349892,"is_reserved":false,"is_disabled":false,"rental_uris":{"android":"levelo://app?vid=208d7a25-cd6e-47fe-addd-1b889cabc092","ios":"levelo://app?vid=208d7a25-cd6e-47fe-addd-1b889cabc092"},"vehicle_type_id":"4","last_reported":1747419272,"current_range_meters":16000,"station_id":"ce4bhbh2rcd13ifvqepg","pricing_plan_id":"cebpf4jnsgd1na2vs0mg"},{"bike_id":"db08a07a-6ee7-42b6-8112-e4733686885b","system_id":"levelo_inurba_marseille","lat":43.27363,"lon":5.36237,"is_reserved":false,"is_disabled":false,"rental_uris":{"android":"levelo://app?vid=db08a07a-6ee7-42b6-8112-e4733686885b","ios":"levelo://app?vid=db08a07a-6ee7-42b6-8112-e4733686885b"},"vehicle_type_id":"4","last_reported":1747419272,"current_range_meters":16000,"station_id":"ce4bhbh2rcd13ifvqeo0","pricing_plan_id":"cebpf4jnsgd1na2vs0mg"},{"bike_id":"d97a9be7-0d2f-4288-8b15-87732668622b","system_id":"levelo_inurba_marseille","lat":43.29526,"lon":5.38552,"is_reserved":false,"is_disabled":false,"rental_uris":{"android":"levelo://app?vid=d97a9be7-0d2f-4288-8b15-87732668622b","ios":"levelo://app?vid=d97a9be7-0d2f-4288-8b15-87732668622b"},"vehicle_type_id":"4","last_reported":1747419272,"current_range_meters":16000,"station_id":"ce4bgih2rcd13ifvqba0","pricing_plan_id":"cebpf4jnsgd1na2vs0mg"},{"bike_id":"eb2070a5-7416-4436-ac07-5c2a6ffc84af","system_id":"levelo_inurba_marseille","lat":43.30328,"lon":5.40435,"is_reserved":false,"is_disabled":false,"rental_uris":{"android":"levelo://app?vid=eb2070a5-7416-4436-ac07-5c2a6ffc84af","ios":"levelo://app?vid=eb2070a5-7416-4436-ac07-5c2a6ffc84af"},"vehicle_type_id":"4","last_reported":1747419272,"current_range_meters":16000,"station_id":"ce4bh012rcd13ifvqd10","pricing_plan_id":"cebpf4jnsgd1na2vs0mg"},{"bike_id":"9375eefb-4ebf-4a4e-b6e0-ddc49775c2c1","system_id":"levelo_inurba_marseille","lat":43.29029,"lon":5.35922,"is_reserved":false,"is_disabled":false,"rental_uris":{"android":"levelo://app?vid=9375eefb-4ebf-4a4e-b6e0-ddc49775c2c1","ios":"levelo://app?vid=9375eefb-4ebf-4a4e-b6e0-ddc49775c2c1"},"vehicle_type_id":"4","last_reported":1747419272,"current_range_meters":16000,"station_id":"ce4bha92rcd13ifvqeg0","pricing_plan_id":"cebpf4jnsgd1na2vs0mg"},{"bike_id":"2ae60620-d2b0-42ca-a176-1b3030e97f86","system_id":"levelo_inurba_marseille","lat":43.29042,"lon":5.359142,"is_reserved":false,"is_disabled":false,"rental_uris":{"android":"levelo://app?vid=2ae60620-d2b0-42ca-a176-1b3030e97f86","ios":"levelo://app?vid=2ae60620-d2b0-42ca-a176-1b3030e97f86"},"vehicle_type_id":"4","last_reported":1747419272,"current_range_meters":16000,"station_id":"ce4bha92rcd13ifvqeg0","pricing_plan_id":"cebpf4jnsgd1na2vs0mg"},{"bike_id":"852ea9ac-6507-488a-87c5-b27d54b34b2e","system_id":"levelo_inurba_marseille","lat":43.281507,"lon":5.426343,"is_reserved":false,"is_disabled":false,"rental_uris":{"android":"levelo://app?vid=852ea9ac-6507-488a-87c5-b27d54b34b2e","ios":"levelo://app?vid=852ea9ac-6507-488a-87c5-b27d54b34b2e"},"vehicle_type_id":"4","last_reported":1747419272,"current_range_meters":16000,"station_id":"ce4bhnh2rcd13ifvqgug","pricing_plan_id":"cebpf4jnsgd1na2vs0mg"},{"bike_id":"57998330-bd4e-4496-9478-652e1094fb7e","system_id":"levelo_inurba_marseille","lat":43.2829,"lon":5.35033,"is_reserved":false,"is_disabled":false,"rental_uris":{"android":"levelo://app?vid=57998330-bd4e-4496-9478-652e1094fb7e","ios":"levelo://app?vid=57998330-bd4e-4496-9478-652e1094fb7e"},"vehicle_type_id":"4","last_reported":1747419272,"current_range_meters":16000,"station_id":"ce4bhbp2rcd13ifvqerg","pricing_plan_id":"cebpf4jnsgd1na2vs0mg"},{"bike_id":"eebf0417-4098-4672-a6ae-d82fc3dc3062","system_id":"levelo_inurba_marseille","lat":43.29691,"lon":5.37683,"is_reserved":false,"is_disabled":false,"rental_uris":{"android":"levelo://app?vid=eebf0417-4098-4672-a6ae-d82fc3dc3062","ios":"levelo://app?vid=eebf0417-4098-4672-a6ae-d82fc3dc3062"},"vehicle_type_id":"4","last_reported":1747419272,"current_range_meters":16000,"station_id":"ce4bgkh2rcd13ifvqbl0","pricing_plan_id":"cebpf4jnsgd1na2vs0mg"},{"bike_id":"4286cad5-ae8a-4a1b-8fea-52a9616cab4f","system_id":"levelo_inurba_marseille","lat":43.26063,"lon":5.39399,"is_reserved":false,"is_disabled":false,"rental_uris":{"android":"levelo://app?vid=4286cad5-ae8a-4a1b-8fea-52a9616cab4f","ios":"levelo://app?vid=4286cad5-ae8a-4a1b-8fea-52a9616cab4f"},"vehicle_type_id":"4","last_reported":1747419272,"current_range_meters":15200,"station_id":"ce4bhh92rcd13ifvqfj0","pricing_plan_id":"cebpf4jnsgd1na2vs0mg"},{"bike_id":"b04bd58d-ab68-46b4-9085-1ddf540e912e","system_id":"levelo_inurba_marseille","lat":43.24065,"lon":5.37684,"is_reserved":false,"is_disabled":true,"rental_uris":{"android":"levelo://app?vid=b04bd58d-ab68-46b4-9085-1ddf540e912e","ios":"levelo://app?vid=b04bd58d-ab68-46b4-9085-1ddf540e912e"},"vehicle_type_id":"4","last_reported":1747419272,"current_range_meters":16000,"station_id":"","pricing_plan_id":"cebpf4jnsgd1na2vs0mg"},{"bike_id":"bdea0fe3-08ce-4ffc-8736-10882432a1d4","system_id":"levelo_inurba_marseille","lat":43.281568,"lon":5.426488,"is_reserved":false,"is_disabled":false,"rental_uris":{"android":"levelo://app?vid=bdea0fe3-08ce-4ffc-8736-10882432a1d4","ios":"levelo://app?vid=bdea0fe3-08ce-4ffc-8736-10882432a1d4"},"vehicle_type_id":"4","last_reported":1747419272,"current_range_meters":16000,"station_id":"ce4bhnh2rcd13ifvqgug","pricing_plan_id":"cebpf4jnsgd1na2vs0mg"},{"bike_id":"a4d7457e-a382-4ab7-9876-e9ba20692ec9","system_id":"levelo_inurba_marseille","lat":43.32001,"lon":5.38176,"is_reserved":false,"is_disabled":false,"rental_uris":{"android":"levelo://app?vid=a4d7457e-a382-4ab7-9876-e9ba20692ec9","ios":"levelo://app?vid=a4d7457e-a382-4ab7-9876-e9ba20692ec9"},"vehicle_type_id":"4","last_reported":1747419272,"current_range_meters":16000,"station_id":"ce4bhr12rcd13ifvqhpg","pricing_plan_id":"cebpf4jnsgd1na2vs0mg"},{"bike_id":"4a23c6f3-a110-47e4-a053-8d19a9ea4702","system_id":"levelo_inurba_marseille","lat":43.29522,"lon":5.3904,"is_reserved":false,"is_disabled":false,"rental_uris":{"android":"levelo://app?vid=4a23c6f3-a110-47e4-a053-8d19a9ea4702","ios":"levelo://app?vid=4a23c6f3-a110-47e4-a053-8d19a9ea4702"},"vehicle_type_id":"4","last_reported":1747419272,"current_range_meters":16000,"station_id":"ce4bh3p2rcd13ifvqdp0","pricing_plan_id":"cebpf4jnsgd1na2vs0mg"},{"bike_id":"2a9d0bc3-deae-4a39-b85c-52d709abed2e","system_id":"levelo_inurba_marseille","lat":43.30959,"lon":5.3783,"is_reserved":false,"is_disabled":false,"rental_uris":{"android":"levelo://app?vid=2a9d0bc3-deae-4a39-b85c-52d709abed2e","ios":"levelo://app?vid=2a9d0bc3-deae-4a39-b85c-52d709abed2e"},"vehicle_type_id":"4","last_reported":1747419272,"current_range_meters":16400,"station_id":"","pricing_plan_id":"cebpf4jnsgd1na2vs0mg"},{"bike_id":"ed05fb1a-601c-4607-a802-dae078c7fa30","system_id":"levelo_inurba_marseille","lat":43.30302,"lon":5.40443,"is_reserved":false,"is_disabled":false,"rental_uris":{"android":"levelo://app?vid=ed05fb1a-601c-4607-a802-dae078c7fa30","ios":"levelo://app?vid=ed05fb1a-601c-4607-a802-dae078c7fa30"},"vehicle_type_id":"4","last_reported":1747419272,"current_range_meters":14800,"station_id":"ce4bh012rcd13ifvqd10","pricing_plan_id":"cebpf4jnsgd1na2vs0mg"},{"bike_id":"dd234179-c496-4f23-bcbc-1c6f48ade4e2","system_id":"levelo_inurba_marseille","lat":43.24799,"lon":5.37457,"is_reserved":false,"is_disabled":false,"rental_uris":{"android":"levelo://app?vid=dd234179-c496-4f23-bcbc-1c6f48ade4e2","ios":"levelo://app?vid=dd234179-c496-4f23-bcbc-1c6f48ade4e2"},"vehicle_type_id":"4","last_reported":1747419272,"current_range_meters":16400,"station_id":"ce4bhgh2rcd13ifvqfb0","pricing_plan_id":"cebpf4jnsgd1na2vs0mg"},{"bike_id":"07c3382b-46ed-43f9-9d01-d343ce58a69f","system_id":"levelo_inurba_marseille","lat":43.30326,"lon":5.4043,"is_reserved":false,"is_disabled":false,"rental_uris":{"android":"levelo://app?vid=07c3382b-46ed-43f9-9d01-d343ce58a69f","ios":"levelo://app?vid=07c3382b-46ed-43f9-9d01-d343ce58a69f"},"vehicle_type_id":"4","last_reported":1747419272,"current_range_meters":16800,"station_id":"ce4bh012rcd13ifvqd10","pricing_plan_id":"cebpf4jnsgd1na2vs0mg"},{"bike_id":"c8c23b94-3bb2-4142-ae6e-7544f49c1642","system_id":"levelo_inurba_marseille","lat":43.3055,"lon":5.38431,"is_reserved":false,"is_disabled":true,"rental_uris":{"android":"levelo://app?vid=c8c23b94-3bb2-4142-ae6e-7544f49c1642","ios":"levelo://app?vid=c8c23b94-3bb2-4142-ae6e-7544f49c1642"},"vehicle_type_id":"4","last_reported":1747419272,"current_range_meters":16800,"station_id":"ce4bgg92rcd13ifvqb30","pricing_plan_id":"cebpf4jnsgd1na2vs0mg"},{"bike_id":"3be14d9a-43b5-46ba-b111-2b43b870e206","system_id":"levelo_inurba_marseille","lat":43.28434,"lon":5.34975,"is_reserved":false,"is_disabled":false,"rental_uris":{"android":"levelo://app?vid=3be14d9a-43b5-46ba-b111-2b43b870e206","ios":"levelo://app?vid=3be14d9a-43b5-46ba-b111-2b43b870e206"},"vehicle_type_id":"4","last_reported":1747419272,"current_range_meters":16800,"station_id":"ce4bhbh2rcd13ifvqepg","pricing_plan_id":"cebpf4jnsgd1na2vs0mg"},{"bike_id":"3e5cb87d-6988-4c08-a34e-24479fcca70b","system_id":"levelo_inurba_marseille","lat":43.28272,"lon":5.35079,"is_reserved":false,"is_disabled":false,"rental_uris":{"android":"levelo://app?vid=3e5cb87d-6988-4c08-a34e-24479fcca70b","ios":"levelo://app?vid=3e5cb87d-6988-4c08-a34e-24479fcca70b"},"vehicle_type_id":"4","last_reported":1747419272,"current_range_meters":17200,"station_id":"ce4bhbp2rcd13ifvqerg","pricing_plan_id":"cebpf4jnsgd1na2vs0mg"},{"bike_id":"7881075b-14bd-4fe7-82ee-be7e9a670fff","system_id":"levelo_inurba_marseille","lat":43.29222,"lon":5.36063,"is_reserved":false,"is_disabled":false,"rental_uris":{"android":"levelo://app?vid=7881075b-14bd-4fe7-82ee-be7e9a670fff","ios":"levelo://app?vid=7881075b-14bd-4fe7-82ee-be7e9a670fff"},"vehicle_type_id":"4","last_reported":1747419272,"current_range_meters":17200,"station_id":"ce4bhbh2rcd13ifvqeqg","pricing_plan_id":"cebpf4jnsgd1na2vs0mg"},{"bike_id":"7138af59-1380-475f-9add-da10355761e2","system_id":"levelo_inurba_marseille","lat":43.2694,"lon":5.40261,"is_reserved":false,"is_disabled":true,"rental_uris":{"android":"levelo://app?vid=7138af59-1380-475f-9add-da10355761e2","ios":"levelo://app?vid=7138af59-1380-475f-9add-da10355761e2"},"vehicle_type_id":"4","last_reported":1747419272,"current_range_meters":17200,"station_id":"cjm6bp8fraef2m0cb0m0","pricing_plan_id":"cebpf4jnsgd1na2vs0mg"},{"bike_id":"45f71629-e57e-4650-a835-f5868dcfd9d1","system_id":"levelo_inurba_marseille","lat":43.296368,"lon":5.363242,"is_reserved":false,"is_disabled":false,"rental_uris":{"android":"levelo://app?vid=45f71629-e57e-4650-a835-f5868dcfd9d1","ios":"levelo://app?vid=45f71629-e57e-4650-a835-f5868dcfd9d1"},"vehicle_type_id":"4","last_reported":1747419272,"current_range_meters":17200,"station_id":"","pricing_plan_id":"cebpf4jnsgd1na2vs0mg"},{"bike_id":"3215e918-ee74-41b4-945a-ef55a153b621","system_id":"levelo_inurba_marseille","lat":43.30255,"lon":5.40088,"is_reserved":false,"is_disabled":false,"rental_uris":{"android":"levelo://app?vid=3215e918-ee74-41b4-945a-ef55a153b621","ios":"levelo://app?vid=3215e918-ee74-41b4-945a-ef55a153b621"},"vehicle_type_id":"4","last_reported":1747419272,"current_range_meters":17200,"station_id":"ce4bgvh2rcd13ifvqcs0","pricing_plan_id":"cebpf4jnsgd1na2vs0mg"},{"bike_id":"1ca8c141-a048-4e44-a16c-50aafb33b176","system_id":"levelo_inurba_marseille","lat":43.29555,"lon":5.42291,"is_reserved":false,"is_disabled":false,"rental_uris":{"android":"levelo://app?vid=1ca8c141-a048-4e44-a16c-50aafb33b176","ios":"levelo://app?vid=1ca8c141-a048-4e44-a16c-50aafb33b176"},"vehicle_type_id":"4","last_reported":1747419272,"current_range_meters":17200,"station_id":"ce4bhph2rcd13ifvqhdg","pricing_plan_id":"cebpf4jnsgd1na2vs0mg"},{"bike_id":"0ce4a26e-2130-424d-8ab4-b23993f894e4","system_id":"levelo_inurba_marseille","lat":43.28853,"lon":5.35855,"is_reserved":false,"is_disabled":false,"rental_uris":{"android":"levelo://app?vid=0ce4a26e-2130-424d-8ab4-b23993f894e4","ios":"levelo://app?vid=0ce4a26e-2130-424d-8ab4-b23993f894e4"},"vehicle_type_id":"4","last_reported":1747419272,"current_range_meters":17200,"station_id":"ce4bhb12rcd13ifvqem0","pricing_plan_id":"cebpf4jnsgd1na2vs0mg"},{"bike_id":"fe2ca8f9-de1d-44da-8854-f8828cb142e2","system_id":"levelo_inurba_marseille","lat":43.27367,"lon":5.36241,"is_reserved":false,"is_disabled":false,"rental_uris":{"android":"levelo://app?vid=fe2ca8f9-de1d-44da-8854-f8828cb142e2","ios":"levelo://app?vid=fe2ca8f9-de1d-44da-8854-f8828cb142e2"},"vehicle_type_id":"4","last_reported":1747419272,"current_range_meters":17200,"station_id":"ce4bhbh2rcd13ifvqeo0","pricing_plan_id":"cebpf4jnsgd1na2vs0mg"},{"bike_id":"6fe716ec-3e66-40a0-90cd-a86ee2fdef59","system_id":"levelo_inurba_marseille","lat":43.32113,"lon":5.36764,"is_reserved":false,"is_disabled":false,"rental_uris":{"android":"levelo://app?vid=6fe716ec-3e66-40a0-90cd-a86ee2fdef59","ios":"levelo://app?vid=6fe716ec-3e66-40a0-90cd-a86ee2fdef59"},"vehicle_type_id":"4","last_reported":1747419272,"current_range_meters":17200,"station_id":"ce4bhrh2rcd13ifvqhug","pricing_plan_id":"cebpf4jnsgd1na2vs0mg"},{"bike_id":"e08c279c-32bf-43e4-9e5d-b06e47d61f58","system_id":"levelo_inurba_marseille","lat":43.25493,"lon":5.37651,"is_reserved":false,"is_disabled":false,"rental_uris":{"android":"levelo://app?vid=e08c279c-32bf-43e4-9e5d-b06e47d61f58","ios":"levelo://app?vid=e08c279c-32bf-43e4-9e5d-b06e47d61f58"},"vehicle_type_id":"4","last_reported":1747419272,"current_range_meters":17600,"station_id":"ce4bhh12rcd13ifvqff0","pricing_plan_id":"cebpf4jnsgd1na2vs0mg"},{"bike_id":"3e3d89fc-8904-4635-9858-19fe943b04e2","system_id":"levelo_inurba_marseille","lat":43.29034,"lon":5.35918,"is_reserved":false,"is_disabled":false,"rental_uris":{"android":"levelo://app?vid=3e3d89fc-8904-4635-9858-19fe943b04e2","ios":"levelo://app?vid=3e3d89fc-8904-4635-9858-19fe943b04e2"},"vehicle_type_id":"4","last_reported":1747419272,"current_range_meters":17600,"station_id":"ce4bha92rcd13ifvqeg0","pricing_plan_id":"cebpf4jnsgd1na2vs0mg"},{"bike_id":"3ee5051f-9c9d-4335-ac10-931ea4f5b1bb","system_id":"levelo_inurba_marseille","lat":43.31755,"lon":5.39015,"is_reserved":false,"is_disabled":false,"rental_uris":{"android":"levelo://app?vid=3ee5051f-9c9d-4335-ac10-931ea4f5b1bb","ios":"levelo://app?vid=3ee5051f-9c9d-4335-ac10-931ea4f5b1bb"},"vehicle_type_id":"4","last_reported":1747419272,"current_range_meters":17600,"station_id":"ce4bhqp2rcd13ifvqhng","pricing_plan_id":"cebpf4jnsgd1na2vs0mg"},{"bike_id":"cc200859-2d90-4769-a11d-f082f70efd7a","system_id":"levelo_inurba_marseille","lat":43.29226,"lon":5.36068,"is_reserved":false,"is_disabled":false,"rental_uris":{"android":"levelo://app?vid=cc200859-2d90-4769-a11d-f082f70efd7a","ios":"levelo://app?vid=cc200859-2d90-4769-a11d-f082f70efd7a"},"vehicle_type_id":"4","last_reported":1747419272,"current_range_meters":17600,"station_id":"ce4bhbh2rcd13ifvqeqg","pricing_plan_id":"cebpf4jnsgd1na2vs0mg"},{"bike_id":"d9b504ee-8007-4760-a4a1-f54f52b040ce","system_id":"levelo_inurba_marseille","lat":43.30281,"lon":5.37276,"is_reserved":false,"is_disabled":false,"rental_uris":{"android":"levelo://app?vid=d9b504ee-8007-4760-a4a1-f54f52b040ce","ios":"levelo://app?vid=d9b504ee-8007-4760-a4a1-f54f52b040ce"},"vehicle_type_id":"4","last_reported":1747419272,"current_range_meters":17600,"station_id":"","pricing_plan_id":"cebpf4jnsgd1na2vs0mg"},{"bike_id":"e36001dc-9491-4a77-9b7f-94632741ef0e","system_id":"levelo_inurba_marseille","lat":43.28435,"lon":5.34999,"is_reserved":false,"is_disabled":false,"rental_uris":{"android":"levelo://app?vid=e36001dc-9491-4a77-9b7f-94632741ef0e","ios":"levelo://app?vid=e36001dc-9491-4a77-9b7f-94632741ef0e"},"vehicle_type_id":"4","last_reported":1747419272,"current_range_meters":17600,"station_id":"ce4bhbh2rcd13ifvqepg","pricing_plan_id":"cebpf4jnsgd1na2vs0mg"},{"bike_id":"a7ac679b-96f8-4d5e-85ee-cb26313f35c5","system_id":"levelo_inurba_marseille","lat":43.29044,"lon":5.35913,"is_reserved":false,"is_disabled":false,"rental_uris":{"android":"levelo://app?vid=a7ac679b-96f8-4d5e-85ee-cb26313f35c5","ios":"levelo://app?vid=a7ac679b-96f8-4d5e-85ee-cb26313f35c5"},"vehicle_type_id":"4","last_reported":1747419272,"current_range_meters":17600,"station_id":"ce4bha92rcd13ifvqeg0","pricing_plan_id":"cebpf4jnsgd1na2vs0mg"},{"bike_id":"d46ee759-53f1-479a-9fd4-d42094101448","system_id":"levelo_inurba_marseille","lat":43.28412,"lon":5.34996,"is_reserved":false,"is_disabled":false,"rental_uris":{"android":"levelo://app?vid=d46ee759-53f1-479a-9fd4-d42094101448","ios":"levelo://app?vid=d46ee759-53f1-479a-9fd4-d42094101448"},"vehicle_type_id":"4","last_reported":1747419272,"current_range_meters":18000,"station_id":"ce4bhbh2rcd13ifvqepg","pricing_plan_id":"cebpf4jnsgd1na2vs0mg"},{"bike_id":"07260f60-a10d-47fb-ab9d-b5825f142e30","system_id":"levelo_inurba_marseille","lat":43.27364,"lon":5.36257,"is_reserved":false,"is_disabled":false,"rental_uris":{"android":"levelo://app?vid=07260f60-a10d-47fb-ab9d-b5825f142e30","ios":"levelo://app?vid=07260f60-a10d-47fb-ab9d-b5825f142e30"},"vehicle_type_id":"4","last_reported":1747419272,"current_range_meters":18000,"station_id":"ce4bhbh2rcd13ifvqeo0","pricing_plan_id":"cebpf4jnsgd1na2vs0mg"},{"bike_id":"dd39e91a-7659-4bd3-a14e-b42e260e5132","system_id":"levelo_inurba_marseille","lat":43.32365,"lon":5.38882,"is_reserved":false,"is_disabled":false,"rental_uris":{"android":"levelo://app?vid=dd39e91a-7659-4bd3-a14e-b42e260e5132","ios":"levelo://app?vid=dd39e91a-7659-4bd3-a14e-b42e260e5132"},"vehicle_type_id":"4","last_reported":1747419272,"current_range_meters":18000,"station_id":"ce4bhqp2rcd13ifvqhog","pricing_plan_id":"cebpf4jnsgd1na2vs0mg"},{"bike_id":"e501108f-34ec-4aa3-822e-59ce71625436","system_id":"levelo_inurba_marseille","lat":43.25587,"lon":5.38235,"is_reserved":false,"is_disabled":false,"rental_uris":{"android":"levelo://app?vid=e501108f-34ec-4aa3-822e-59ce71625436","ios":"levelo://app?vid=e501108f-34ec-4aa3-822e-59ce71625436"},"vehicle_type_id":"4","last_reported":1747419272,"current_range_meters":18000,"station_id":"ce4bhih2rcd13ifvqfs0","pricing_plan_id":"cebpf4jnsgd1na2vs0mg"},{"bike_id":"92daedc9-997e-4e51-a6a7-8556d4714f07","system_id":"levelo_inurba_marseille","lat":43.30139,"lon":5.39857,"is_reserved":false,"is_disabled":false,"rental_uris":{"android":"levelo://app?vid=92daedc9-997e-4e51-a6a7-8556d4714f07","ios":"levelo://app?vid=92daedc9-997e-4e51-a6a7-8556d4714f07"},"vehicle_type_id":"4","last_reported":1747419272,"current_range_meters":18000,"station_id":"ce4bh0h2rcd13ifvqd40","pricing_plan_id":"cebpf4jnsgd1na2vs0mg"},{"bike_id":"2fb90383-700d-445f-a80f-2b6c51148e4e","system_id":"levelo_inurba_marseille","lat":43.27373,"lon":5.36259,"is_reserved":false,"is_disabled":false,"rental_uris":{"android":"levelo://app?vid=2fb90383-700d-445f-a80f-2b6c51148e4e","ios":"levelo://app?vid=2fb90383-700d-445f-a80f-2b6c51148e4e"},"vehicle_type_id":"4","last_reported":1747419272,"current_range_meters":18000,"station_id":"ce4bhbh2rcd13ifvqeo0","pricing_plan_id":"cebpf4jnsgd1na2vs0mg"},{"bike_id":"10273fe1-66a1-4853-8c3b-4c8939d68db1","system_id":"levelo_inurba_marseille","lat":43.29511,"lon":5.37488,"is_reserved":false,"is_disabled":true,"rental_uris":{"android":"levelo://app?vid=10273fe1-66a1-4853-8c3b-4c8939d68db1","ios":"levelo://app?vid=10273fe1-66a1-4853-8c3b-4c8939d68db1"},"vehicle_type_id":"4","last_reported":1747419272,"current_range_meters":18000,"station_id":"ce4bgkp2rcd13ifvqbmg","pricing_plan_id":"cebpf4jnsgd1na2vs0mg"},{"bike_id":"0dfa217b-0263-4b1f-9def-d6a21543eb27","system_id":"levelo_inurba_marseille","lat":43.27356,"lon":5.36263,"is_reserved":false,"is_disabled":false,"rental_uris":{"android":"levelo://app?vid=0dfa217b-0263-4b1f-9def-d6a21543eb27","ios":"levelo://app?vid=0dfa217b-0263-4b1f-9def-d6a21543eb27"},"vehicle_type_id":"4","last_reported":1747419272,"current_range_meters":18000,"station_id":"ce4bhbh2rcd13ifvqeo0","pricing_plan_id":"cebpf4jnsgd1na2vs0mg"},{"bike_id":"62eced11-b196-46d0-97a0-c41915d8ae09","system_id":"levelo_inurba_marseille","lat":43.29245,"lon":5.38445,"is_reserved":false,"is_disabled":false,"rental_uris":{"android":"levelo://app?vid=62eced11-b196-46d0-97a0-c41915d8ae09","ios":"levelo://app?vid=62eced11-b196-46d0-97a0-c41915d8ae09"},"vehicle_type_id":"4","last_reported":1747419272,"current_range_meters":18000,"station_id":"ce4bh692rcd13ifvqea0","pricing_plan_id":"cebpf4jnsgd1na2vs0mg"},{"bike_id":"41f08218-a971-4318-9423-d2076702b2cd","system_id":"levelo_inurba_marseille","lat":43.3094,"lon":5.40145,"is_reserved":false,"is_disabled":false,"rental_uris":{"android":"levelo://app?vid=41f08218-a971-4318-9423-d2076702b2cd","ios":"levelo://app?vid=41f08218-a971-4318-9423-d2076702b2cd"},"vehicle_type_id":"4","last_reported":1747419272,"current_range_meters":18000,"station_id":"ce4bgvp2rcd13ifvqct0","pricing_plan_id":"cebpf4jnsgd1na2vs0mg"},{"bike_id":"d9d0d1fc-8c58-433b-a825-e4b1a68667e5","system_id":"levelo_inurba_marseille","lat":43.29628,"lon":5.40599,"is_reserved":false,"is_disabled":false,"rental_uris":{"android":"levelo://app?vid=d9d0d1fc-8c58-433b-a825-e4b1a68667e5","ios":"levelo://app?vid=d9d0d1fc-8c58-433b-a825-e4b1a68667e5"},"vehicle_type_id":"4","last_reported":1747419272,"current_range_meters":18000,"station_id":"ce4bh0h2rcd13ifvqd60","pricing_plan_id":"cebpf4jnsgd1na2vs0mg"},{"bike_id":"79053c56-ecde-43b1-807d-b0c1b2ea71c2","system_id":"levelo_inurba_marseille","lat":43.28405,"lon":5.34996,"is_reserved":false,"is_disabled":false,"rental_uris":{"android":"levelo://app?vid=79053c56-ecde-43b1-807d-b0c1b2ea71c2","ios":"levelo://app?vid=79053c56-ecde-43b1-807d-b0c1b2ea71c2"},"vehicle_type_id":"4","last_reported":1747419272,"current_range_meters":18000,"station_id":"ce4bhbh2rcd13ifvqepg","pricing_plan_id":"cebpf4jnsgd1na2vs0mg"},{"bike_id":"833de515-cc7a-42de-9aed-4bebaee4cf8c","system_id":"levelo_inurba_marseille","lat":43.2417,"lon":5.36391,"is_reserved":false,"is_disabled":false,"rental_uris":{"android":"levelo://app?vid=833de515-cc7a-42de-9aed-4bebaee4cf8c","ios":"levelo://app?vid=833de515-cc7a-42de-9aed-4bebaee4cf8c"},"vehicle_type_id":"4","last_reported":1747419272,"current_range_meters":18000,"station_id":"cpo36qri1sfpv3e86is0","pricing_plan_id":"cebpf4jnsgd1na2vs0mg"},{"bike_id":"194f17c8-93f0-4ff7-9d7b-60238225a3ec","system_id":"levelo_inurba_marseille","lat":43.26157,"lon":5.42076,"is_reserved":false,"is_disabled":false,"rental_uris":{"android":"levelo://app?vid=194f17c8-93f0-4ff7-9d7b-60238225a3ec","ios":"levelo://app?vid=194f17c8-93f0-4ff7-9d7b-60238225a3ec"},"vehicle_type_id":"4","last_reported":1747419272,"current_range_meters":18000,"station_id":"","pricing_plan_id":"cebpf4jnsgd1na2vs0mg"},{"bike_id":"78440c17-fbe9-4d77-95f8-1c1592c3d408","system_id":"levelo_inurba_marseille","lat":43.29029,"lon":5.3814,"is_reserved":false,"is_disabled":true,"rental_uris":{"android":"levelo://app?vid=78440c17-fbe9-4d77-95f8-1c1592c3d408","ios":"levelo://app?vid=78440c17-fbe9-4d77-95f8-1c1592c3d408"},"vehicle_type_id":"4","last_reported":1747419272,"current_range_meters":18000,"station_id":"ce4bh4p2rcd13ifvqe1g","pricing_plan_id":"cebpf4jnsgd1na2vs0mg"},