{"last_updated":1762456120,"ttl":60,"version":"2.2","data":{"bikes":[{"bike_id":"9c46a9f5-39cb-461a-ac28-286dc216524b","system_id":"levelo_inurba_marseille","lat":43.337444,"lon":5.374475,"is_reserved":false,"is_disabled":false,"rental_uris":{"android":"levelo://app?vid=9c46a9f5-39cb-461a-ac28-286dc216524b","ios":"levelo://app?vid=9c46a9f5-39cb-461a-ac28-286dc216524b"},"vehicle_type_id":"4","last_reported":1762456120,"current_range_meters":0,"station_id":"","pricing_plan_id":"cebpf4jnsgd1na2vs0mg"},{"bike_id":"6a4a05de-8152-40de-a8b6-933d2435c6b9","system_id":"levelo_inurba_marseille","lat":43.30668,"lon":5.4008,"is_reserved":false,"is_disabled":false,"rental_uris":{"android":"levelo://app?vid=6a4a05de-8152-40de-a8b6-933d2435c6b9","ios":"levelo://app?vid=6a4a05de-8152-40de-a8b6-933d2435c6b9"},"vehicle_type_id":"4","last_reported":1762456120,"current_range_meters":3200,"station_id":"ce4bh112rcd13ifvqda0","pricing_plan_id":"cebpf4jnsgd1na2vs0mg"},{"bike_id":"858cfbb4-3fac-4df0-8379-1061c54e0669","system_id":"levelo_inurba_marseille","lat":43.29273,"lon":5.36842,"is_reserved":false,"is_disabled":false,"rental_uris":{"android":"levelo://app?vid=858cfbb4-3fac-4df0-8379-1061c54e0669","ios":"levelo://app?vid=858cfbb4-3fac-4df0-8379-1061c54e0669"},"vehicle_type_id":"4","last_reported":1762456120,"current_range_meters":3200,"station_id":"ce4bhbp2rcd13ifvqesg","pricing_plan_id":"cebpf4jnsgd1na2vs0mg"},{"bike_id":"4e255d04-9436-450d-a2bf-7c4e0c7bad10","system_id":"levelo_inurba_marseille","lat":43.32368,"lon":5.38886,"is_reserved":false,"is_disabled":false,"rental_uris":{"android":"levelo://app?vid=4e255d04-9436-450d-a2bf-7c4e0c7bad10","ios":"levelo://app?vid=4e255d04-9436-450d-a2bf-7c4e0c7bad10"},"vehicle_type_id":"4","last_reported":1762456120,"current_range_meters":3600,"station_id":"ce4bhqp2rcd13ifvqhog","pricing_plan_id":"cebpf4jnsgd1na2vs0mg"},{"bike_id":"9db23817-100d-4feb-906a-faeaa5a942cd","system_id":"levelo_inurba_marseille","lat":43.30552,"lon":5.3656,"is_reserved":false,"is_disabled":false,"rental_uris":{"android":"levelo://app?vid=9db23817-100d-4feb-906a-faeaa5a942cd","ios":"levelo://app?vid=9db23817-100d-4feb-906a-faeaa5a942cd"},"vehicle_type_id":"4","last_reported":1762456120,"current_range_meters":3600,"station_id":"ce4bgs12rcd13ifvqcag","pricing_plan_id":"cebpf4jnsgd1na2vs0mg"},{"bike_id":"cd9c6c8f-813a-4b2c-b0c7-7a3265cb2fa0","system_id":"levelo_inurba_marseille","lat":43.24237,"lon":5.39322,"is_reserved":false,"is_disabled":false,"rental_uris":{"android":"levelo://app?vid=cd9c6c8f-813a-4b2c-b0c7-7a3265cb2fa0","ios":"levelo://app?vid=cd9c6c8f-813a-4b2c-b0c7-7a3265cb2fa0"},"vehicle_type_id":"4","last_reported":1762456120,"current_range_meters":4000,"station_id":"","pricing_plan_id":"cebpf4jnsgd1na2vs0mg"},{"bike_id":"c6dcf8ce-8171-4c73-8365-fca137d0c9d2","system_id":"levelo_inurba_marseille","lat":43.27069,"lon":5.42281,"is_reserved":false,"is_disabled":false,"rental_uris":{"android":"levelo://app?vid=c6dcf8ce-8171-4c73-8365-fca137d0c9d2","ios":"levelo://app?vid=c6dcf8ce-8171-4c73-8365-fca137d0c9d2"},"vehicle_type_id":"4","last_reported":1762456120,"current_range_meters":4000,"station_id":"ce4bhk92rcd13ifvqgb0","pricing_plan_id":"cebpf4jnsgd1na2vs0mg"},{"bike_id":"a3d867ae-f4dd-486a-a20d-682f4496217d","system_id":"levelo_inurba_marseille","lat":43.33779,"lon":5.37413,"is_reserved":false,"is_disabled":false,"rental_uris":{"android":"levelo://app?vid=a3d867ae-f4dd-486a-a20d-682f4496217d","ios":"levelo://app?vid=a3d867ae-f4dd-486a-a20d-682f4496217d"},"vehicle_type_id":"4","last_reported":1762456120,"current_range_meters":4400,"station_id":"","pricing_plan_id":"cebpf4jnsgd1na2vs0mg"},{"bike_id":"5e6b5e6b-9f8a-43ab-9eb8-b69e41a6c1e6","system_id":"levelo_inurba_marseille","lat":43.22538,"lon":5.34841,"is_reserved":false,"is_disabled":false,"rental_uris":{"android":"levelo://app?vid=5e6b5e6b-9f8a-43ab-9eb8-b69e41a6c1e6","ios":"levelo://app?vid=5e6b5e6b-9f8a-43ab-9eb8-b69e41a6c1e6"},"vehicle_type_id":"4","last_reported":1762456120,"current_range_meters":4400,"station_id":"","pricing_plan_id":"cebpf4jnsgd1na2vs0mg"},{"bike_id":"16e8ecd0-1bbc-4db1-8997-1affeee864a8","system_id":"levelo_inurba_marseille","lat":43.29814,"lon":5.44061,"is_reserved":false,"is_disabled":false,"rental_uris":{"android":"levelo://app?vid=16e8ecd0-1bbc-4db1-8997-1affeee864a8","ios":"levelo://app?vid=16e8ecd0-1bbc-4db1-8997-1affeee864a8"},"vehicle_type_id":"4","last_reported":1762456120,"current_range_meters":4400,"station_id":"st_d3jp68qikq2c7381ktn0","pricing_plan_id":"cebpf4jnsgd1na2vs0mg"},{"bike_id":"ea4f4b84-78b0-4180-a7f8-ecb8c6182713","system_id":"levelo_inurba_marseille","lat":43.2953,"lon":5.36104,"is_reserved":false,"is_disabled":true,"rental_uris":{"android":"levelo://app?vid=ea4f4b84-78b0-4180-a7f8-ecb8c6182713","ios":"levelo://app?vid=ea4f4b84-78b0-4180-a7f8-ecb8c6182713"},"vehicle_type_id":"4","last_reported":1762456120,"current_range_meters":4400,"station_id":"","pricing_plan_id":"cebpf4jnsgd1na2vs0mg"},{"bike_id":"5a6da05d-441d-4a34-8d97-55d33b8f8225","system_id":"levelo_inurba_marseille","lat":43.29563,"lon":5.37529,"is_reserved":false,"is_disabled":false,"rental_uris":{"android":"levelo://app?vid=5a6da05d-441d-4a34-8d97-55d33b8f8225","ios":"levelo://app?vid=5a6da05d-441d-4a34-8d97-55d33b8f8225"},"vehicle_type_id":"4","last_reported":1762456120,"current_range_meters":4800,"station_id":"ce4bgh92rcd13ifvqb50","pricing_plan_id":"cebpf4jnsgd1na2vs0mg"},{"bike_id":"6a64520d-e8bd-47fe-abfc-1394dd338b06","system_id":"levelo_inurba_marseille","lat":43.258199,"lon":5.39436,"is_reserved":false,"is_disabled":false,"rental_uris":{"android":"levelo://app?vid=6a64520d-e8bd-47fe-abfc-1394dd338b06","ios":"levelo://app?vid=6a64520d-e8bd-47fe-abfc-1394dd338b06"},"vehicle_type_id":"4","last_reported":1762456120,"current_range_meters":4800,"station_id":"ce4bhip2rcd13ifvqft0","pricing_plan_id":"cebpf4jnsgd1na2vs0mg"},{"bike_id":"804232ff-fcf0-4b13-89ff-c73ee993e60d","system_id":"levelo_inurba_marseille","lat":43.30302,"lon":5.39209,"is_reserved":false,"is_disabled":false,"rental_uris":{"android":"levelo://app?vid=804232ff-fcf0-4b13-89ff-c73ee993e60d","ios":"levelo://app?vid=804232ff-fcf0-4b13-89ff-c73ee993e60d"},"vehicle_type_id":"4","last_reported":1762456120,"current_range_meters":5600,"station_id":"ce4bgkh2rcd13ifvqbk0","pricing_plan_id":"cebpf4jnsgd1na2vs0mg"},{"bike_id":"cbbfc684-d206-45c0-b7c6-db55d35effb6","system_id":"levelo_inurba_marseille","lat":43.2953,"lon":5.38552,"is_reserved":false,"is_disabled":false,"rental_uris":{"android":"levelo://app?vid=cbbfc684-d206-45c0-b7c6-db55d35effb6","ios":"levelo://app?vid=cbbfc684-d206-45c0-b7c6-db55d35effb6"},"vehicle_type_id":"4","last_reported":1762456120,"current_range_meters":6000,"station_id":"ce4bgih2rcd13ifvqba0","pricing_plan_id":"cebpf4jnsgd1na2vs0mg"},{"bike_id":"95ae1777-b7c8-4c2b-a8ca-f03f887e0169","system_id":"levelo_inurba_marseille","lat":43.29753,"lon":5.38103,"is_reserved":false,"is_disabled":false,"rental_uris":{"android":"levelo://app?vid=95ae1777-b7c8-4c2b-a8ca-f03f887e0169","ios":"levelo://app?vid=95ae1777-b7c8-4c2b-a8ca-f03f887e0169"},"vehicle_type_id":"4","last_reported":1762456120,"current_range_meters":6000,"station_id":"","pricing_plan_id":"cebpf4jnsgd1na2vs0mg"},{"bike_id":"daf97c11-7ec1-4a07-b2b0-ef25e7125ce6","system_id":"levelo_inurba_marseille","lat":43.28672,"lon":5.38674,"is_reserved":false,"is_disabled":false,"rental_uris":{"android":"levelo://app?vid=daf97c11-7ec1-4a07-b2b0-ef25e7125ce6","ios":"levelo://app?vid=daf97c11-7ec1-4a07-b2b0-ef25e7125ce6"},"vehicle_type_id":"4","last_reported":1762456120,"current_range_meters":6000,"station_id":"ce4bh492rcd13ifvqdug","pricing_plan_id":"cebpf4jnsgd1na2vs0mg"},{"bike_id":"e7002296-a724-4792-9c77-9aa7da662e7d","system_id":"levelo_inurba_marseille","lat":43.29752,"lon":5.36248,"is_reserved":false,"is_disabled":false,"rental_uris":{"android":"levelo://app?vid=e7002296-a724-4792-9c77-9aa7da662e7d","ios":"levelo://app?vid=e7002296-a724-4792-9c77-9aa7da662e7d"},"vehicle_type_id":"4","last_reported":1762456120,"current_range_meters":6000,"station_id":"","pricing_plan_id":"cebpf4jnsgd1na2vs0mg"},{"bike_id":"e5d284cd-0bc3-4fd2-8826-6b91c3c548cd","system_id":"levelo_inurba_marseille","lat":43.28629,"lon":5.38195,"is_reserved":false,"is_disabled":false,"rental_uris":{"android":"levelo://app?vid=e5d284cd-0bc3-4fd2-8826-6b91c3c548cd","ios":"levelo://app?vid=e5d284cd-0bc3-4fd2-8826-6b91c3c548cd"},"vehicle_type_id":"4","last_reported":1762456120,"current_range_meters":6400,"station_id":"","pricing_plan_id":"cebpf4jnsgd1na2vs0mg"},{"bike_id":"765b9661-2b24-4c0f-a9fb-732d7409b10c","system_id":"levelo_inurba_marseille","lat":43.21611,"lon":5.34423,"is_reserved":false,"is_disabled":false,"rental_uris":{"android":"levelo://app?vid=765b9661-2b24-4c0f-a9fb-732d7409b10c","ios":"levelo://app?vid=765b9661-2b24-4c0f-a9fb-732d7409b10c"},"vehicle_type_id":"4","last_reported":1762456120,"current_range_meters":6400,"station_id":"","pricing_plan_id":"cebpf4jnsgd1na2vs0mg"},{"bike_id":"9ef83f14-79b3-439b-b858-6fc07db48173","system_id":"levelo_inurba_marseille","lat":43.28877,"lon":5.38221,"is_reserved":false,"is_disabled":false,"rental_uris":{"android":"levelo://app?vid=9ef83f14-79b3-439b-b858-6fc07db48173","ios":"levelo://app?vid=9ef83f14-79b3-439b-b858-6fc07db48173"},"vehicle_type_id":"4","last_reported":1762456120,"current_range_meters":6400,"station_id":"","pricing_plan_id":"cebpf4jnsgd1na2vs0mg"},{"bike_id":"dcd7cc05-09ca-451c-b5c3-aec30ed844a3","system_id":"levelo_inurba_marseille","lat":43.29492,"lon":5.42748,"is_reserved":false,"is_disabled":false,"rental_uris":{"android":"levelo://app?vid=dcd7cc05-09ca-451c-b5c3-aec30ed844a3","ios":"levelo://app?vid=dcd7cc05-09ca-451c-b5c3-aec30ed844a3"},"vehicle_type_id":"4","last_reported":1762456120,"current_range_meters":6800,"station_id":"","pricing_plan_id":"cebpf4jnsgd1na2vs0mg"},{"bike_id":"9783ba8c-3c4f-4914-ad33-7b35db3d6704","system_id":"levelo_inurba_marseille","lat":43.27448,"lon":5.39433,"is_reserved":false,"is_disabled":false,"rental_uris":{"android":"levelo://app?vid=9783ba8c-3c4f-4914-ad33-7b35db3d6704","ios":"levelo://app?vid=9783ba8c-3c4f-4914-ad33-7b35db3d6704"},"vehicle_type_id":"4","last_reported":1762456120,"current_range_meters":6800,"station_id":"ce4bhdp2rcd13ifvqf20","pricing_plan_id":"cebpf4jnsgd1na2vs0mg"},{"bike_id":"e63b906b-1e2b-4b0e-bbf0-4d3516fe1c53","system_id":"levelo_inurba_marseille","lat":43.29644,"lon":5.41913,"is_reserved":false,"is_disabled":false,"rental_uris":{"android":"levelo://app?vid=e63b906b-1e2b-4b0e-bbf0-4d3516fe1c53","ios":"levelo://app?vid=e63b906b-1e2b-4b0e-bbf0-4d3516fe1c53"},"vehicle_type_id":"4","last_reported":1762456120,"current_range_meters":6800,"station_id":"","pricing_plan_id":"cebpf4jnsgd1na2vs0mg"},{"bike_id":"571bd3a6-912b-44a3-9841-50c558a61481","system_id":"levelo_inurba_marseille","lat":43.28163,"lon":5.40527,"is_reserved":false,"is_disabled":false,"rental_uris":{"android":"levelo://app?vid=571bd3a6-912b-44a3-9841-50c558a61481","ios":"levelo://app?vid=571bd3a6-912b-44a3-9841-50c558a61481"},"vehicle_type_id":"4","last_reported":1762456120,"current_range_meters":7200,"station_id":"","pricing_plan_id":"cebpf4jnsgd1na2vs0mg"},{"bike_id":"9a755bdd-a994-4fc9-8c05-e9fa43f3c582","system_id":"levelo_inurba_marseille","lat":43.27811,"lon":5.40714,"is_reserved":false,"is_disabled":false,"rental_uris":{"android":"levelo://app?vid=9a755bdd-a994-4fc9-8c05-e9fa43f3c582","ios":"levelo://app?vid=9a755bdd-a994-4fc9-8c05-e9fa43f3c582"},"vehicle_type_id":"4","last_reported":1762456120,"current_range_meters":7200,"station_id":"ce4bhnh2rcd13ifvqgtg","pricing_plan_id":"cebpf4jnsgd1na2vs0mg"},{"bike_id":"3ed02add-87f3-41d7-bdf1-1cf82493034f","system_id":"levelo_inurba_marseille","lat":43.293,"lon":5.38272,"is_reserved":false,"is_disabled":false,"rental_uris":{"android":"levelo://app?vid=3ed02add-87f3-41d7-bdf1-1cf82493034f","ios":"levelo://app?vid=3ed02add-87f3-41d7-bdf1-1cf82493034f"},"vehicle_type_id":"4","last_reported":1762456120,"current_range_meters":7200,"station_id":"","pricing_plan_id":"cebpf4jnsgd1na2vs0mg"},{"bike_id":"c2b28093-73b1-45c7-883a-8e398fbad1a1","system_id":"levelo_inurba_marseille","lat":43.28352,"lon":5.38098,"is_reserved":false,"is_disabled":false,"rental_uris":{"android":"levelo://app?vid=c2b28093-73b1-45c7-883a-8e398fbad1a1","ios":"levelo://app?vid=c2b28093-73b1-45c7-883a-8e398fbad1a1"},"vehicle_type_id":"4","last_reported":1762456120,"current_range_meters":7200,"station_id":"ce4bh412rcd13ifvqdr0","pricing_plan_id":"cebpf4jnsgd1na2vs0mg"},{"bike_id":"d3a8c452-bd73-4909-9cfe-f1c0285f3d0c","system_id":"levelo_inurba_marseille","lat":43.28483,"lon":5.48407,"is_reserved":false,"is_disabled":false,"rental_uris":{"android":"levelo://app?vid=d3a8c452-bd73-4909-9cfe-f1c0285f3d0c","ios":"levelo://app?vid=d3a8c452-bd73-4909-9cfe-f1c0285f3d0c"},"vehicle_type_id":"4","last_reported":1762456120,"current_range_meters":8000,"station_id":"","pricing_plan_id":"cebpf4jnsgd1na2vs0mg"},{"bike_id":"fc77f0d5-7f86-4180-92cb-31fe1865f593","system_id":"levelo_inurba_marseille","lat":43.28032,"lon":5.36948,"is_reserved":false,"is_disabled":false,"rental_uris":{"android":"levelo://app?vid=fc77f0d5-7f86-4180-92cb-31fe1865f593","ios":"levelo://app?vid=fc77f0d5-7f86-4180-92cb-31fe1865f593"},"vehicle_type_id":"4","last_reported":1762456120,"current_range_meters":8000,"station_id":"ce4bha12rcd13ifvqef0","pricing_plan_id":"cebpf4jnsgd1na2vs0mg"},{"bike_id":"a80322af-ed5b-4292-a927-2fe8792435d5","system_id":"levelo_inurba_marseille","lat":43.29398,"lon":5.3847,"is_reserved":false,"is_disabled":false,"rental_uris":{"android":"levelo://app?vid=a80322af-ed5b-4292-a927-2fe8792435d5","ios":"levelo://app?vid=a80322af-ed5b-4292-a927-2fe8792435d5"},"vehicle_type_id":"4","last_reported":1762456120,"current_range_meters":8000,"station_id":"","pricing_plan_id":"cebpf4jnsgd1na2vs0mg"},{"bike_id":"b3c37c3a-d58d-4595-aad6-e28bb8a5d0ca","system_id":"levelo_inurba_marseille","lat":43.27946,"lon":5.41047,"is_reserved":false,"is_disabled":false,"rental_uris":{"android":"levelo://app?vid=b3c37c3a-d58d-4595-aad6-e28bb8a5d0ca","ios":"levelo://app?vid=b3c37c3a-d58d-4595-aad6-e28bb8a5d0ca"},"vehicle_type_id":"4","last_reported":1762456120,"current_range_meters":8400,"station_id":"ce4bhnp2rcd13ifvqh0g","pricing_plan_id":"cebpf4jnsgd1na2vs0mg"},{"bike_id":"773ad1fd-b993-47b7-87fa-ad001e35edf7","system_id":"levelo_inurba_marseille","lat":43.31244,"lon":5.3688,"is_reserved":false,"is_disabled":false,"rental_uris":{"android":"levelo://app?vid=773ad1fd-b993-47b7-87fa-ad001e35edf7","ios":"levelo://app?vid=773ad1fd-b993-47b7-87fa-ad001e35edf7"},"vehicle_type_id":"4","last_reported":1762456120,"current_range_meters":8800,"station_id":"ce4bgl92rcd13ifvqbq0","pricing_plan_id":"cebpf4jnsgd1na2vs0mg"},{"bike_id":"00065666-b382-40c8-87f2-d52ded706b03","system_id":"levelo_inurba_marseille","lat":43.301741,"lon":5.392022,"is_reserved":false,"is_disabled":false,"rental_uris":{"android":"levelo://app?vid=00065666-b382-40c8-87f2-d52ded706b03","ios":"levelo://app?vid=00065666-b382-40c8-87f2-d52ded706b03"},"vehicle_type_id":"4","last_reported":1762456120,"current_range_meters":8800,"station_id":"","pricing_plan_id":"cebpf4jnsgd1na2vs0mg"},{"bike_id":"9c5caae6-2b17-4d1d-860a-00ab28183f6e","system_id":"levelo_inurba_marseille","lat":43.28114,"lon":5.37846,"is_reserved":false,"is_disabled":false,"rental_uris":{"android":"levelo://app?vid=9c5caae6-2b17-4d1d-860a-00ab28183f6e","ios":"levelo://app?vid=9c5caae6-2b17-4d1d-860a-00ab28183f6e"},"vehicle_type_id":"4","last_reported":1762456120,"current_range_meters":8800,"station_id":"ce4bha12rcd13ifvqee0","pricing_plan_id":"cebpf4jnsgd1na2vs0mg"},{"bike_id":"cda8ee5f-cad7-4035-b7f0-7ee3b38adda9","system_id":"levelo_inurba_marseille","lat":43.31243,"lon":5.38154,"is_reserved":false,"is_disabled":false,"rental_uris":{"android":"levelo://app?vid=cda8ee5f-cad7-4035-b7f0-7ee3b38adda9","ios":"levelo://app?vid=cda8ee5f-cad7-4035-b7f0-7ee3b38adda9"},"vehicle_type_id":"4","last_reported":1762456120,"current_range_meters":8800,"station_id":"","pricing_plan_id":"cebpf4jnsgd1na2vs0mg"},{"bike_id":"81dcc136-dea2-46c0-98af-42dbdee92b54","system_id":"levelo_inurba_marseille","lat":43.28492,"lon":5.48399,"is_reserved":false,"is_disabled":false,"rental_uris":{"android":"levelo://app?vid=81dcc136-dea2-46c0-98af-42dbdee92b54","ios":"levelo://app?vid=81dcc136-dea2-46c0-98af-42dbdee92b54"},"vehicle_type_id":"4","last_reported":1762456120,"current_range_meters":8800,"station_id":"","pricing_plan_id":"cebpf4jnsgd1na2vs0mg"},{"bike_id":"bcb3c39b-ec48-48ef-9eac-eb8b71840959","system_id":"levelo_inurba_marseille","lat":43.33757,"lon":5.37464,"is_reserved":false,"is_disabled":false,"rental_uris":{"android":"levelo://app?vid=bcb3c39b-ec48-48ef-9eac-eb8b71840959","ios":"levelo://app?vid=bcb3c39b-ec48-48ef-9eac-eb8b71840959"},"vehicle_type_id":"4","last_reported":1762456120,"current_range_meters":9200,"station_id":"","pricing_plan_id":"cebpf4jnsgd1na2vs0mg"},{"bike_id":"2c89c3ed-62de-4c74-8e11-a37172c6c77b","system_id":"levelo_inurba_marseille","lat":43.228696,"lon":5.402408,"is_reserved":false,"is_disabled":false,"rental_uris":{"android":"levelo://app?vid=2c89c3ed-62de-4c74-8e11-a37172c6c77b","ios":"levelo://app?vid=2c89c3ed-62de-4c74-8e11-a37172c6c77b"},"vehicle_type_id":"4","last_reported":1762456120,"current_range_meters":9200,"station_id":"","pricing_plan_id":"cebpf4jnsgd1na2vs0mg"},{"bike_id":"f8339228-1e24-4b71-9f39-f84add257cd8","system_id":"levelo_inurba_marseille","lat":43.24951,"lon":5.40493,"is_reserved":false,"is_disabled":false,"rental_uris":{"android":"levelo://app?vid=f8339228-1e24-4b71-9f39-f84add257cd8","ios":"levelo://app?vid=f8339228-1e24-4b71-9f39-f84add257cd8"},"vehicle_type_id":"4","last_reported":1762456120,"current_range_meters":9200,"station_id":"st_d2ngiaodas8pm72gd1h0","pricing_plan_id":"cebpf4jnsgd1na2vs0mg"},{"bike_id":"94b06f3e-9c43-404e-899a-d1e48d6d7a76","system_id":"levelo_inurba_marseille","lat":43.287102,"lon":5.399967,"is_reserved":false,"is_disabled":false,"rental_uris":{"android":"levelo://app?vid=94b06f3e-9c43-404e-899a-d1e48d6d7a76","ios":"levelo://app?vid=94b06f3e-9c43-404e-899a-d1e48d6d7a76"},"vehicle_type_id":"4","last_reported":1762456120,"current_range_meters":9600,"station_id":"ce4bho92rcd13ifvqh3g","pricing_plan_id":"cebpf4jnsgd1na2vs0mg"},{"bike_id":"a715c0ef-3857-414c-967a-b5d1a542eb13","system_id":"levelo_inurba_marseille","lat":43.22534,"lon":5.34827,"is_reserved":false,"is_disabled":false,"rental_uris":{"android":"levelo://app?vid=a715c0ef-3857-414c-967a-b5d1a542eb13","ios":"levelo://app?vid=a715c0ef-3857-414c-967a-b5d1a542eb13"},"vehicle_type_id":"4","last_reported":1762456120,"current_range_meters":9600,"station_id":"","pricing_plan_id":"cebpf4jnsgd1na2vs0mg"},{"bike_id":"bc5cc91e-d4c6-4052-9eb0-fe46073d53d7","system_id":"levelo_inurba_marseille","lat":43.28457,"lon":5.35882,"is_reserved":false,"is_disabled":false,"rental_uris":{"android":"levelo://app?vid=bc5cc91e-d4c6-4052-9eb0-fe46073d53d7","ios":"levelo://app?vid=bc5cc91e-d4c6-4052-9eb0-fe46073d53d7"},"vehicle_type_id":"4","last_reported":1762456120,"current_range_meters":9600,"station_id":"ce4bhah2rcd13ifvqei0","pricing_plan_id":"cebpf4jnsgd1na2vs0mg"},{"bike_id":"4889624c-543a-42d9-a9c2-2f78c927e209","system_id":"levelo_inurba_marseille","lat":43.31493,"lon":5.37309,"is_reserved":false,"is_disabled":false,"rental_uris":{"android":"levelo://app?vid=4889624c-543a-42d9-a9c2-2f78c927e209","ios":"levelo://app?vid=4889624c-543a-42d9-a9c2-2f78c927e209"},"vehicle_type_id":"4","last_reported":1762456120,"current_range_meters":10000,"station_id":"ce4bgt12rcd13ifvqcd0","pricing_plan_id":"cebpf4jnsgd1na2vs0mg"},{"bike_id":"f0dc7254-913b-4960-b9a0-67e32f447551","system_id":"levelo_inurba_marseille","lat":43.29306,"lon":5.37451,"is_reserved":false,"is_disabled":false,"rental_uris":{"android":"levelo://app?vid=f0dc7254-913b-4960-b9a0-67e32f447551","ios":"levelo://app?vid=f0dc7254-913b-4960-b9a0-67e32f447551"},"vehicle_type_id":"4","last_reported":1762456120,"current_range_meters":10000,"station_id":"ce4bgi12rcd13ifvqb70","pricing_plan_id":"cebpf4jnsgd1na2vs0mg"},{"bike_id":"e4542ea5-bcc1-4cf3-abd0-0b44945ebd9f","system_id":"levelo_inurba_marseille","lat":43.296013,"lon":5.381,"is_reserved":false,"is_disabled":false,"rental_uris":{"android":"levelo://app?vid=e4542ea5-bcc1-4cf3-abd0-0b44945ebd9f","ios":"levelo://app?vid=e4542ea5-bcc1-4cf3-abd0-0b44945ebd9f"},"vehicle_type_id":"4","last_reported":1762456120,"current_range_meters":10000,"station_id":"ce4bhhp2rcd13ifvqfm0","pricing_plan_id":"cebpf4jnsgd1na2vs0mg"},{"bike_id":"25790fae-30a7-4568-9d75-5f4390645f01","system_id":"levelo_inurba_marseille","lat":43.337444,"lon":5.374475,"is_reserved":false,"is_disabled":false,"rental_uris":{"android":"levelo://app?vid=25790fae-30a7-4568-9d75-5f4390645f01","ios":"levelo://app?vid=25790fae-30a7-4568-9d75-5f4390645f01"},"vehicle_type_id":"4","last_reported":1762456120,"current_range_meters":10000,"station_id":"","pricing_plan_id":"cebpf4jnsgd1na2vs0mg"},{"bike_id":"1847eee7-2ec5-4aa7-b613-7d4a2df6d5be","system_id":"levelo_inurba_marseille","lat":43.28107,"lon":5.3785,"is_reserved":false,"is_disabled":false,"rental_uris":{"android":"levelo://app?vid=1847eee7-2ec5-4aa7-b613-7d4a2df6d5be","ios":"levelo://app?vid=1847eee7-2ec5-4aa7-b613-7d4a2df6d5be"},"vehicle_type_id":"4","last_reported":1762456120,"current_range_meters":10000,"station_id":"ce4bha12rcd13ifvqee0","pricing_plan_id":"cebpf4jnsgd1na2vs0mg"},{"bike_id":"78a2ab8f-4f7c-4ddc-9701-1001c917a1ce","system_id":"levelo_inurba_marseille","lat":43.28536,"lon":5.44105,"is_reserved":false,"is_disabled":false,"rental_uris":{"android":"levelo://app?vid=78a2ab8f-4f7c-4ddc-9701-1001c917a1ce","ios":"levelo://app?vid=78a2ab8f-4f7c-4ddc-9701-1001c917a1ce"},"vehicle_type_id":"4","last_reported":1762456120,"current_range_meters":10000,"station_id":"st_d3j3df2ikq2c7380ej80","pricing_plan_id":"cebpf4jnsgd1na2vs0mg"},{"bike_id":"dd9dd3ba-f841-4d2a-b206-9ab2184df950","system_id":"levelo_inurba_marseille","lat":43.29148,"lon":5.37082,"is_reserved":false,"is_disabled":false,"rental_uris":{"android":"levelo://app?vid=dd9dd3ba-f841-4d2a-b206-9ab2184df950","ios":"levelo://app?vid=dd9dd3ba-f841-4d2a-b206-9ab2184df950"},"vehicle_type_id":"4","last_reported":1762456120,"current_range_meters":10800,"station_id":"","pricing_plan_id":"cebpf4jnsgd1na2vs0mg"},{"bike_id":"6e9601c8-3a9b-4c4f-8a50-e778f7d9a229","system_id":"levelo_inurba_marseille","lat":43.29944,"lon":5.36562,"is_reserved":false,"is_disabled":false,"rental_uris":{"android":"levelo://app?vid=6e9601c8-3a9b-4c4f-8a50-e778f7d9a229","ios":"levelo://app?vid=6e9601c8-3a9b-4c4f-8a50-e778f7d9a229"},"vehicle_type_id":"4","last_reported":1762456120,"current_range_meters":10800,"station_id":"ce4bgm92rcd13ifvqbr0","pricing_plan_id":"cebpf4jnsgd1na2vs0mg"},{"bike_id":"bc70d1bb-6cfc-4ac1-bfbf-36b4bb30105b","system_id":"levelo_inurba_marseille","lat":43.255077,"lon":5.376493,"is_reserved":false,"is_disabled":false,"rental_uris":{"android":"levelo://app?vid=bc70d1bb-6cfc-4ac1-bfbf-36b4bb30105b","ios":"levelo://app?vid=bc70d1bb-6cfc-4ac1-bfbf-36b4bb30105b"},"vehicle_type_id":"4","last_reported":1762456120,"current_range_meters":10800,"station_id":"","pricing_plan_id":"cebpf4jnsgd1na2vs0mg"},{"bike_id":"8d00dbca-b5c1-42d2-89ba-f167016578da","system_id":"levelo_inurba_marseille","lat":43.29881,"lon":5.36273,"is_reserved":false,"is_disabled":false,"rental_uris":{"android":"levelo://app?vid=8d00dbca-b5c1-42d2-89ba-f167016578da","ios":"levelo://app?vid=8d00dbca-b5c1-42d2-89ba-f167016578da"},"vehicle_type_id":"4","last_reported":1762456120,"current_range_meters":10800,"station_id":"ce4bgpp2rcd13ifvqc3g","pricing_plan_id":"cebpf4jnsgd1na2vs0mg"},{"bike_id":"d1df350f-56fd-491e-be56-8dcad3bb2ea2","system_id":"levelo_inurba_marseille","lat":43.22583,"lon":5.41631,"is_reserved":false,"is_disabled":false,"rental_uris":{"android":"levelo://app?vid=d1df350f-56fd-491e-be56-8dcad3bb2ea2","ios":"levelo://app?vid=d1df350f-56fd-491e-be56-8dcad3bb2ea2"},"vehicle_type_id":"4","last_reported":1762456120,"current_range_meters":10800,"station_id":"st_d2o4gvlbi1j2169b742g","pricing_plan_id":"cebpf4jnsgd1na2vs0mg"},{"bike_id":"dae30738-204c-4787-a9b5-e056fa94e0c9","system_id":"levelo_inurba_marseille","lat":43.22571,"lon":5.41617,"is_reserved":false,"is_disabled":false,"rental_uris":{"android":"levelo://app?vid=dae30738-204c-4787-a9b5-e056fa94e0c9","ios":"levelo://app?vid=dae30738-204c-4787-a9b5-e056fa94e0c9"},"vehicle_type_id":"4","last_reported":1762456120,"current_range_meters":10800,"station_id":"st_d2o4gvlbi1j2169b742g","pricing_plan_id":"cebpf4jnsgd1na2vs0mg"},{"bike_id":"09ed3eb5-c2d4-4c5e-b9d1-44fb102a0a7e","system_id":"levelo_inurba_marseille","lat":43.22566,"lon":5.41619,"is_reserved":false,"is_disabled":false,"rental_uris":{"android":"levelo://app?vid=09ed3eb5-c2d4-4c5e-b9d1-44fb102a0a7e","ios":"levelo://app?vid=09ed3eb5-c2d4-4c5e-b9d1-44fb102a0a7e"},"vehicle_type_id":"4","last_reported":1762456120,"current_range_meters":10800,"station_id":"st_d2o4gvlbi1j2169b742g","pricing_plan_id":"cebpf4jnsgd1na2vs0mg"},{"bike_id":"f41ce188-677d-4f64-b9a0-6661f25ec6f3","system_id":"levelo_inurba_marseille","lat":43.257264,"lon":5.411056,"is_reserved":false,"is_disabled":false,"rental_uris":{"android":"levelo://app?vid=f41ce188-677d-4f64-b9a0-6661f25ec6f3","ios":"levelo://app?vid=f41ce188-677d-4f64-b9a0-6661f25ec6f3"},"vehicle_type_id":"4","last_reported":1762456120,"current_range_meters":10800,"station_id":"ce4bhkp2rcd13ifvqgd0","pricing_plan_id":"cebpf4jnsgd1na2vs0mg"},{"bike_id":"4c6ca120-a093-4c9f-8b37-1f78ee0123a5","system_id":"levelo_inurba_marseille","lat":43.29571,"lon":5.37526,"is_reserved":false,"is_disabled":false,"rental_uris":{"android":"levelo://app?vid=4c6ca120-a093-4c9f-8b37-1f78ee0123a5","ios":"levelo://app?vid=4c6ca120-a093-4c9f-8b37-1f78ee0123a5"},"vehicle_type_id":"4","last_reported":1762456120,"current_range_meters":11200,"station_id":"ce4bgh92rcd13ifvqb50","pricing_plan_id":"cebpf4jnsgd1na2vs0mg"},{"bike_id":"39c243bb-a405-42fa-b50e-53adb5534ed5","system_id":"levelo_inurba_marseille","lat":43.301253,"lon":5.398716,"is_reserved":false,"is_disabled":false,"rental_uris":{"android":"levelo://app?vid=39c243bb-a405-42fa-b50e-53adb5534ed5","ios":"levelo://app?vid=39c243bb-a405-42fa-b50e-53adb5534ed5"},"vehicle_type_id":"4","last_reported":1762456120,"current_range_meters":11200,"station_id":"ce4bh0h2rcd13ifvqd40","pricing_plan_id":"cebpf4jnsgd1na2vs0mg"},{"bike_id":"05bac233-8b70-46d4-a480-f148fb7e8001","system_id":"levelo_inurba_marseille","lat":43.28929,"lon":5.38389,"is_reserved":false,"is_disabled":false,"rental_uris":{"android":"levelo://app?vid=05bac233-8b70-46d4-a480-f148fb7e8001","ios":"levelo://app?vid=05bac233-8b70-46d4-a480-f148fb7e8001"},"vehicle_type_id":"4","last_reported":1762456120,"current_range_meters":11200,"station_id":"ce4bh612rcd13ifvqe6g","pricing_plan_id":"cebpf4jnsgd1na2vs0mg"},{"bike_id":"dba60c66-4523-4ed7-9759-2b897dda9e66","system_id":"levelo_inurba_marseille","lat":43.29781,"lon":5.381131,"is_reserved":false,"is_disabled":false,"rental_uris":{"android":"levelo://app?vid=dba60c66-4523-4ed7-9759-2b897dda9e66","ios":"levelo://app?vid=dba60c66-4523-4ed7-9759-2b897dda9e66"},"vehicle_type_id":"4","last_reported":1762456120,"current_range_meters":11200,"station_id":"ce4bgjh2rcd13ifvqbf0","pricing_plan_id":"cebpf4jnsgd1na2vs0mg"},{"bike_id":"3ffe2c7b-f27f-49bd-95c3-0ecfbf0880d2","system_id":"levelo_inurba_marseille","lat":43.30696,"lon":5.38427,"is_reserved":false,"is_disabled":false,"rental_uris":{"android":"levelo://app?vid=3ffe2c7b-f27f-49bd-95c3-0ecfbf0880d2","ios":"levelo://app?vid=3ffe2c7b-f27f-49bd-95c3-0ecfbf0880d2"},"vehicle_type_id":"4","last_reported":1762456120,"current_range_meters":11200,"station_id":"","pricing_plan_id":"cebpf4jnsgd1na2vs0mg"},{"bike_id":"71967476-752a-4f5e-b222-99c0eea95f39","system_id":"levelo_inurba_marseille","lat":43.32324,"lon":5.38422,"is_reserved":false,"is_disabled":false,"rental_uris":{"android":"levelo://app?vid=71967476-752a-4f5e-b222-99c0eea95f39","ios":"levelo://app?vid=71967476-752a-4f5e-b222-99c0eea95f39"},"vehicle_type_id":"4","last_reported":1762456120,"current_range_meters":11200,"station_id":"","pricing_plan_id":"cebpf4jnsgd1na2vs0mg"},{"bike_id":"bb24e88c-b2f4-456a-8628-aa2a5f358ac4","system_id":"levelo_inurba_marseille","lat":43.30199,"lon":5.36598,"is_reserved":false,"is_disabled":false,"rental_uris":{"android":"levelo://app?vid=bb24e88c-b2f4-456a-8628-aa2a5f358ac4","ios":"levelo://app?vid=bb24e88c-b2f4-456a-8628-aa2a5f358ac4"},"vehicle_type_id":"4","last_reported":1762456120,"current_range_meters":11200,"station_id":"ce4bgrh2rcd13ifvqc8g","pricing_plan_id":"cebpf4jnsgd1na2vs0mg"},{"bike_id":"864a9729-ce58-4e79-982b-8161767b37d8","system_id":"levelo_inurba_marseille","lat":43.33753,"lon":5.37438,"is_reserved":false,"is_disabled":false,"rental_uris":{"android":"levelo://app?vid=864a9729-ce58-4e79-982b-8161767b37d8","ios":"levelo://app?vid=864a9729-ce58-4e79-982b-8161767b37d8"},"vehicle_type_id":"4","last_reported":1762456120,"current_range_meters":11200,"station_id":"","pricing_plan_id":"cebpf4jnsgd1na2vs0mg"},{"bike_id":"f780ad37-4f5d-446c-b676-dc3e379bbb1c","system_id":"levelo_inurba_marseille","lat":43.3113,"lon":5.37747,"is_reserved":false,"is_disabled":false,"rental_uris":{"android":"levelo://app?vid=f780ad37-4f5d-446c-b676-dc3e379bbb1c","ios":"levelo://app?vid=f780ad37-4f5d-446c-b676-dc3e379bbb1c"},"vehicle_type_id":"4","last_reported":1762456120,"current_range_meters":11600,"station_id":"ce4bgt92rcd13ifvqcg0","pricing_plan_id":"cebpf4jnsgd1na2vs0mg"},{"bike_id":"faf02dba-a063-4be7-b738-20d510b602ef","system_id":"levelo_inurba_marseille","lat":43.29853,"lon":5.38276,"is_reserved":false,"is_disabled":false,"rental_uris":{"android":"levelo://app?vid=faf02dba-a063-4be7-b738-20d510b602ef","ios":"levelo://app?vid=faf02dba-a063-4be7-b738-20d510b602ef"},"vehicle_type_id":"4","last_reported":1762456120,"current_range_meters":11600,"station_id":"","pricing_plan_id":"cebpf4jnsgd1na2vs0mg"},{"bike_id":"59b31ef2-3fe3-46e5-b5a5-685f264695ce","system_id":"levelo_inurba_marseille","lat":43.28474,"lon":5.48389,"is_reserved":false,"is_disabled":false,"rental_uris":{"android":"levelo://app?vid=59b31ef2-3fe3-46e5-b5a5-685f264695ce","ios":"levelo://app?vid=59b31ef2-3fe3-46e5-b5a5-685f264695ce"},"vehicle_type_id":"4","last_reported":1762456120,"current_range_meters":11600,"station_id":"","pricing_plan_id":"cebpf4jnsgd1na2vs0mg"},{"bike_id":"ac034e5a-871e-452b-9658-fd7e70d3f0b2","system_id":"levelo_inurba_marseille","lat":43.29314,"lon":5.37456,"is_reserved":false,"is_disabled":true,"rental_uris":{"android":"levelo://app?vid=ac034e5a-871e-452b-9658-fd7e70d3f0b2","ios":"levelo://app?vid=ac034e5a-871e-452b-9658-fd7e70d3f0b2"},"vehicle_type_id":"4","last_reported":1762456120,"current_range_meters":12000,"station_id":"ce4bgi12rcd13ifvqb70","pricing_plan_id":"cebpf4jnsgd1na2vs0mg"},{"bike_id":"1456d6a5-ce97-4c9e-812f-ed1c1d554c5e","system_id":"levelo_inurba_marseille","lat":43.28161,"lon":5.42637,"is_reserved":false,"is_disabled":false,"rental_uris":{"android":"levelo://app?vid=1456d6a5-ce97-4c9e-812f-ed1c1d554c5e","ios":"levelo://app?vid=1456d6a5-ce97-4c9e-812f-ed1c1d554c5e"},"vehicle_type_id":"4","last_reported":1762456120,"current_range_meters":12000,"station_id":"ce4bhnh2rcd13ifvqgug","pricing_plan_id":"cebpf4jnsgd1na2vs0mg"},{"bike_id":"a9f0228c-c173-45f6-890b-4660fb12ed0e","system_id":"levelo_inurba_marseille","lat":43.240791,"lon":5.377653,"is_reserved":false,"is_disabled":false,"rental_uris":{"android":"levelo://app?vid=a9f0228c-c173-45f6-890b-4660fb12ed0e","ios":"levelo://app?vid=a9f0228c-c173-45f6-890b-4660fb12ed0e"},"vehicle_type_id":"4","last_reported":1762456120,"current_range_meters":12000,"station_id":"ce4bhnp2rcd13ifvqgvg","pricing_plan_id":"cebpf4jnsgd1na2vs0mg"},{"bike_id":"7e7213ec-2249-40ec-b5fd-d1d235238496","system_id":"levelo_inurba_marseille","lat":43.28076,"lon":5.39662,"is_reserved":false,"is_disabled":false,"rental_uris":{"android":"levelo://app?vid=7e7213ec-2249-40ec-b5fd-d1d235238496","ios":"levelo://app?vid=7e7213ec-2249-40ec-b5fd-d1d235238496"},"vehicle_type_id":"4","last_reported":1762456120,"current_range_meters":12000,"station_id":"ce4bho12rcd13ifvqh2g","pricing_plan_id":"cebpf4jnsgd1na2vs0mg"},{"bike_id":"ab3a4d6b-b442-44b9-8f02-c1c222f445ba","system_id":"levelo_inurba_marseille","lat":43.27442,"lon":5.39289,"is_reserved":false,"is_disabled":false,"rental_uris":{"android":"levelo://app?vid=ab3a4d6b-b442-44b9-8f02-c1c222f445ba","ios":"levelo://app?vid=ab3a4d6b-b442-44b9-8f02-c1c222f445ba"},"vehicle_type_id":"4","last_reported":1762456120,"current_range_meters":12400,"station_id":"","pricing_plan_id":"cebpf4jnsgd1na2vs0mg"},{"bike_id":"9fee6752-8cb7-40e9-bcdf-cfa5eb1b3b44","system_id":"levelo_inurba_marseille","lat":43.30586,"lon":5.39354,"is_reserved":false,"is_disabled":false,"rental_uris":{"android":"levelo://app?vid=9fee6752-8cb7-40e9-bcdf-cfa5eb1b3b44","ios":"levelo://app?vid=9fee6752-8cb7-40e9-bcdf-cfa5eb1b3b44"},"vehicle_type_id":"4","last_reported":1762456120,"current_range_meters":12400,"station_id":"ce4bh0p2rcd13ifvqd80","pricing_plan_id":"cebpf4jnsgd1na2vs0mg"},{"bike_id":"e3ac346c-0805-4945-ad7e-2886590e1e41","system_id":"levelo_inurba_marseille","lat":43.249548,"lon":5.404916,"is_reserved":false,"is_disabled":false,"rental_uris":{"android":"levelo://app?vid=e3ac346c-0805-4945-ad7e-2886590e1e41","ios":"levelo://app?vid=e3ac346c-0805-4945-ad7e-2886590e1e41"},"vehicle_type_id":"4","last_reported":1762456120,"current_range_meters":12400,"station_id":"st_d2ngiaodas8pm72gd1h0","pricing_plan_id":"cebpf4jnsgd1na2vs0mg"},{"bike_id":"21b93312-5688-495a-be55-165dc9da6ce0","system_id":"levelo_inurba_marseille","lat":43.29938,"lon":5.36535,"is_reserved":false,"is_disabled":false,"rental_uris":{"android":"levelo://app?vid=21b93312-5688-495a-be55-165dc9da6ce0","ios":"levelo://app?vid=21b93312-5688-495a-be55-165dc9da6ce0"},"vehicle_type_id":"4","last_reported":1762456120,"current_range_meters":12400,"station_id":"ce4bgm92rcd13ifvqbr0","pricing_plan_id":"cebpf4jnsgd1na2vs0mg"},{"bike_id":"b565574a-9bdf-4792-b451-221643610acf","system_id":"levelo_inurba_marseille","lat":43.22508,"lon":5.34904,"is_reserved":false,"is_disabled":false,"rental_uris":{"android":"levelo://app?vid=b565574a-9bdf-4792-b451-221643610acf","ios":"levelo://app?vid=b565574a-9bdf-4792-b451-221643610acf"},"vehicle_type_id":"4","last_reported":1762456120,"current_range_meters":12800,"station_id":"","pricing_plan_id":"cebpf4jnsgd1na2vs0mg"},{"bike_id":"ab9b2bcc-ea75-449d-adbb-4add292d38c4","system_id":"levelo_inurba_marseille","lat":43.3405,"lon":5.38253,"is_reserved":false,"is_disabled":false,"rental_uris":{"android":"levelo://app?vid=ab9b2bcc-ea75-449d-adbb-4add292d38c4","ios":"levelo://app?vid=ab9b2bcc-ea75-449d-adbb-4add292d38c4"},"vehicle_type_id":"4","last_reported":1762456120,"current_range_meters":12800,"station_id":"","pricing_plan_id":"cebpf4jnsgd1na2vs0mg"},{"bike_id":"d0581743-e06c-4ad1-9f8a-41b25975ba07","system_id":"levelo_inurba_marseille","lat":43.29814,"lon":5.44062,"is_reserved":false,"is_disabled":false,"rental_uris":{"android":"levelo://app?vid=d0581743-e06c-4ad1-9f8a-41b25975ba07","ios":"levelo://app?vid=d0581743-e06c-4ad1-9f8a-41b25975ba07"},"vehicle_type_id":"4","last_reported":1762456120,"current_range_meters":12800,"station_id":"st_d3jp68qikq2c7381ktn0","pricing_plan_id":"cebpf4jnsgd1na2vs0mg"},{"bike_id":"93fdce70-ebd3-4171-95a1-c27d6d292d8a","system_id":"levelo_inurba_marseille","lat":43.28037,"lon":5.36949,"is_reserved":false,"is_disabled":false,"rental_uris":{"android":"levelo://app?vid=93fdce70-ebd3-4171-95a1-c27d6d292d8a","ios":"levelo://app?vid=93fdce70-ebd3-4171-95a1-c27d6d292d8a"},"vehicle_type_id":"4","last_reported":1762456120,"current_range_meters":12800,"station_id":"ce4bha12rcd13ifvqef0","pricing_plan_id":"cebpf4jnsgd1na2vs0mg"},{"bike_id":"9a416984-4d50-4452-8988-8292cc3b03ae","system_id":"levelo_inurba_marseille","lat":43.31689,"lon":5.4047,"is_reserved":false,"is_disabled":false,"rental_uris":{"android":"levelo://app?vid=9a416984-4d50-4452-8988-8292cc3b03ae","ios":"levelo://app?vid=9a416984-4d50-4452-8988-8292cc3b03ae"},"vehicle_type_id":"4","last_reported":1762456120,"current_range_meters":13600,"station_id":"ce4bh012rcd13ifvqd00","pricing_plan_id":"cebpf4jnsgd1na2vs0mg"},{"bike_id":"319ffc4e-7711-40e6-a5bd-4d90d7a995da","system_id":"levelo_inurba_marseille","lat":43.31105,"lon":5.42412,"is_reserved":false,"is_disabled":false,"rental_uris":{"android":"levelo://app?vid=319ffc4e-7711-40e6-a5bd-4d90d7a995da","ios":"levelo://app?vid=319ffc4e-7711-40e6-a5bd-4d90d7a995da"},"vehicle_type_id":"4","last_reported":1762456120,"current_range_meters":13600,"station_id":"ce4bhp92rcd13ifvqhag","pricing_plan_id":"cebpf4jnsgd1na2vs0mg"},{"bike_id":"76bb29b8-40e2-42af-b2d4-2b51e853d022","system_id":"levelo_inurba_marseille","lat":43.27809,"lon":5.40716,"is_reserved":false,"is_disabled":false,"rental_uris":{"android":"levelo://app?vid=76bb29b8-40e2-42af-b2d4-2b51e853d022","ios":"levelo://app?vid=76bb29b8-40e2-42af-b2d4-2b51e853d022"},"vehicle_type_id":"4","last_reported":1762456120,"current_range_meters":13600,"station_id":"ce4bhnh2rcd13ifvqgtg","pricing_plan_id":"cebpf4jnsgd1na2vs0mg"},{"bike_id":"f0162dd0-493e-4789-b7c3-cabd55d30c5f","system_id":"levelo_inurba_marseille","lat":43.32445,"lon":5.36563,"is_reserved":false,"is_disabled":false,"rental_uris":{"android":"levelo://app?vid=f0162dd0-493e-4789-b7c3-cabd55d30c5f","ios":"levelo://app?vid=f0162dd0-493e-4789-b7c3-cabd55d30c5f"},"vehicle_type_id":"4","last_reported":1762456120,"current_range_meters":13600,"station_id":"ce4bhs12rcd13ifvqhvg","pricing_plan_id":"cebpf4jnsgd1na2vs0mg"},{"bike_id":"54a1426f-ab8c-4ef5-b7b1-c239d546b191","system_id":"levelo_inurba_marseille","lat":43.24167,"lon":5.36413,"is_reserved":false,"is_disabled":false,"rental_uris":{"android":"levelo://app?vid=54a1426f-ab8c-4ef5-b7b1-c239d546b191","ios":"levelo://app?vid=54a1426f-ab8c-4ef5-b7b1-c239d546b191"},"vehicle_type_id":"4","last_reported":1762456120,"current_range_meters":14000,"station_id":"cpo36qri1sfpv3e86is0","pricing_plan_id":"cebpf4jnsgd1na2vs0mg"},{"bike_id":"33ae4984-5f12-485a-9589-62afcaed0591","system_id":"levelo_inurba_marseille","lat":43.2915,"lon":5.40782,"is_reserved":false,"is_disabled":false,"rental_uris":{"android":"levelo://app?vid=33ae4984-5f12-485a-9589-62afcaed0591","ios":"levelo://app?vid=33ae4984-5f12-485a-9589-62afcaed0591"},"vehicle_type_id":"4","last_reported":1762456120,"current_range_meters":14000,"station_id":"","pricing_plan_id":"cebpf4jnsgd1na2vs0mg"},{"bike_id":"6b546487-40e6-4d31-809f-b59610404506","system_id":"levelo_inurba_marseille","lat":43.287048,"lon":5.373802,"is_reserved":false,"is_disabled":false,"rental_uris":{"android":"levelo://app?vid=6b546487-40e6-4d31-809f-b59610404506","ios":"levelo://app?vid=6b546487-40e6-4d31-809f-b59610404506"},"vehicle_type_id":"4","last_reported":1762456120,"current_range_meters":14000,"station_id":"ce4bh3p2rcd13ifvqdq0","pricing_plan_id":"cebpf4jnsgd1na2vs0mg"},{"bike_id":"788c34b2-59d2-4ec0-8ff1-b95cacfac94b","system_id":"levelo_inurba_marseille","lat":43.2949,"lon":5.3935,"is_reserved":false,"is_disabled":false,"rental_uris":{"android":"levelo://app?vid=788c34b2-59d2-4ec0-8ff1-b95cacfac94b","ios":"levelo://app?vid=788c34b2-59d2-4ec0-8ff1-b95cacfac94b"},"vehicle_type_id":"4","last_reported":1762456120,"current_range_meters":14000,"station_id":"","pricing_plan_id":"cebpf4jnsgd1na2vs0mg"},{"bike_id":"24e2a0b1-a4d5-4f1b-abbb-aa22e0fbb736","system_id":"levelo_inurba_marseille","lat":43.23154,"lon":5.43705,"is_reserved":false,"is_disabled":false,"rental_uris":{"android":"levelo://app?vid=24e2a0b1-a4d5-4f1b-abbb-aa22e0fbb736","ios":"levelo://app?vid=24e2a0b1-a4d5-4f1b-abbb-aa22e0fbb736"},"vehicle_type_id":"4","last_reported":1762456120,"current_range_meters":14400,"station_id":"ce4bhmp2rcd13ifvqgog","pricing_plan_id":"cebpf4jnsgd1na2vs0mg"},{"bike_id":"1c1406c3-ccbf-4c7e-948d-af3d562996c8","system_id":"levelo_inurba_marseille","lat":43.29825,"lon":5.44056,"is_reserved":false,"is_disabled":false,"rental_uris":{"android":"levelo://app?vid=1c1406c3-ccbf-4c7e-948d-af3d562996c8","ios":"levelo://app?vid=1c1406c3-ccbf-4c7e-948d-af3d562996c8"},"vehicle_type_id":"4","last_reported":1762456120,"current_range_meters":14400,"station_id":"st_d3jp68qikq2c7381ktn0","pricing_plan_id":"cebpf4jnsgd1na2vs0mg"},{"bike_id":"1e89aa19-8456-4398-b70e-ce2874dd6d89","system_id":"levelo_inurba_marseille","lat":43.21555,"lon":5.34445,"is_reserved":false,"is_disabled":false,"rental_uris":{"android":"levelo://app?vid=1e89aa19-8456-4398-b70e-ce2874dd6d89","ios":"levelo://app?vid=1e89aa19-8456-4398-b70e-ce2874dd6d89"},"vehicle_type_id":"4","last_reported":1762456120,"current_range_meters":14400,"station_id":"","pricing_plan_id":"cebpf4jnsgd1na2vs0mg"},{"bike_id":"0990d13d-02e1-4e54-9d32-bff81dbbfd6f","system_id":"levelo_inurba_marseille","lat":43.30166,"lon":5.37419,"is_reserved":false,"is_disabled":false,"rental_uris":{"android":"levelo://app?vid=0990d13d-02e1-4e54-9d32-bff81dbbfd6f","ios":"levelo://app?vid=0990d13d-02e1-4e54-9d32-bff81dbbfd6f"},"vehicle_type_id":"4","last_reported":1762456120,"current_range_meters":14400,"station_id":"ce4bgs92rcd13ifvqcc0","pricing_plan_id":"cebpf4jnsgd1na2vs0mg"},{"bike_id":"4a440a57-1f4b-45b1-ae85-351b9b3e414d","system_id":"levelo_inurba_marseille","lat":43.27379,"lon":5.36241,"is_reserved":false,"is_disabled":false,"rental_uris":{"android":"levelo://app?vid=4a440a57-1f4b-45b1-ae85-351b9b3e414d","ios":"levelo://app?vid=4a440a57-1f4b-45b1-ae85-351b9b3e414d"},"vehicle_type_id":"4","last_reported":1762456120,"current_range_meters":14400,"station_id":"ce4bhbh2rcd13ifvqeo0","pricing_plan_id":"cebpf4jnsgd1na2vs0mg"},{"bike_id":"6b965bfc-884a-484d-88c5-749454f2331e","system_id":"levelo_inurba_marseille","lat":43.27492,"lon":5.42461,"is_reserved":false,"is_disabled":true,"rental_uris":{"android":"levelo://app?vid=6b965bfc-884a-484d-88c5-749454f2331e","ios":"levelo://app?vid=6b965bfc-884a-484d-88c5-749454f2331e"},"vehicle_type_id":"4","last_reported":1762456120,"current_range_meters":14400,"station_id":"ce4bhn92rcd13ifvqgrg","pricing_plan_id":"cebpf4jnsgd1na2vs0mg"},{"bike_id":"c25fb099-fabe-4020-89b4-74cf157cc05d","system_id":"levelo_inurba_marseille","lat":43.28105,"lon":5.37839,"is_reserved":false,"is_disabled":false,"rental_uris":{"android":"levelo://app?vid=c25fb099-fabe-4020-89b4-74cf157cc05d","ios":"levelo://app?vid=c25fb099-fabe-4020-89b4-74cf157cc05d"},"vehicle_type_id":"4","last_reported":1762456120,"current_range_meters":14400,"station_id":"ce4bha12rcd13ifvqee0","pricing_plan_id":"cebpf4jnsgd1na2vs0mg"},{"bike_id":"50240306-a2a0-43f4-94e9-3211133f58d6","system_id":"levelo_inurba_marseille","lat":43.281088,"lon":5.378316,"is_reserved":false,"is_disabled":false,"rental_uris":{"android":"levelo://app?vid=50240306-a2a0-43f4-94e9-3211133f58d6","ios":"levelo://app?vid=50240306-a2a0-43f4-94e9-3211133f58d6"},"vehicle_type_id":"4","last_reported":1762456120,"current_range_meters":15200,"station_id":"ce4bha12rcd13ifvqee0","pricing_plan_id":"cebpf4jnsgd1na2vs0mg"},{"bike_id":"2fc33c35-c0e9-4123-b94b-2ef2456f02e8","system_id":"levelo_inurba_marseille","lat":43.30882,"lon":5.39655,"is_reserved":false,"is_disabled":false,"rental_uris":{"android":"levelo://app?vid=2fc33c35-c0e9-4123-b94b-2ef2456f02e8","ios":"levelo://app?vid=2fc33c35-c0e9-4123-b94b-2ef2456f02e8"},"vehicle_type_id":"4","last_reported":1762456120,"current_range_meters":15200,"station_id":"ce4bh012rcd13ifvqcv0","pricing_plan_id":"cebpf4jnsgd1na2vs0mg"},{"bike_id":"ea3493ac-549f-4563-8ebc-3496272766af","system_id":"levelo_inurba_marseille","lat":43.25341,"lon":5.42173,"is_reserved":false,"is_disabled":false,"rental_uris":{"android":"levelo://app?vid=ea3493ac-549f-4563-8ebc-3496272766af","ios":"levelo://app?vid=ea3493ac-549f-4563-8ebc-3496272766af"},"vehicle_type_id":"4","last_reported":1762456120,"current_range_meters":15200,"station_id":"st_d2m65c5bi1j21697t3ng","pricing_plan_id":"cebpf4jnsgd1na2vs0mg"},{"bike_id":"06f25dea-ca18-4cca-a251-573298dd6aba","system_id":"levelo_inurba_marseille","lat":43.3211,"lon":5.36778,"is_reserved":false,"is_disabled":false,"rental_uris":{"android":"levelo://app?vid=06f25dea-ca18-4cca-a251-573298dd6aba","ios":"levelo://app?vid=06f25dea-ca18-4cca-a251-573298dd6aba"},"vehicle_type_id":"4","last_reported":1762456120,"current_range_meters":15200,"station_id":"ce4bhrh2rcd13ifvqhug","pricing_plan_id":"cebpf4jnsgd1na2vs0mg"},{"bike_id":"14ea9fcf-7b2f-4bb6-9e1f-c68482485c41","system_id":"levelo_inurba_marseille","lat":43.28353,"lon":5.38102,"is_reserved":false,"is_disabled":false,"rental_uris":{"android":"levelo://app?vid=14ea9fcf-7b2f-4bb6-9e1f-c68482485c41","ios":"levelo://app?vid=14ea9fcf-7b2f-4bb6-9e1f-c68482485c41"},"vehicle_type_id":"4","last_reported":1762456120,"current_range_meters":15200,"station_id":"ce4bh412rcd13ifvqdr0","pricing_plan_id":"cebpf4jnsgd1na2vs0mg"},{"bike_id":"43cfab9e-f547-4304-9999-4a8329474751","system_id":"levelo_inurba_marseille","lat":43.211907,"lon":5.350755,"is_reserved":false,"is_disabled":false,"rental_uris":{"android":"levelo://app?vid=43cfab9e-f547-4304-9999-4a8329474751","ios":"levelo://app?vid=43cfab9e-f547-4304-9999-4a8329474751"},"vehicle_type_id":"4","last_reported":1762456120,"current_range_meters":15200,"station_id":"st_cvj6sg6p6f1abm77japg","pricing_plan_id":"cebpf4jnsgd1na2vs0mg"},{"bike_id":"01eed466-66d3-43b6-acb9-94704c7a5d64","system_id":"levelo_inurba_marseille","lat":43.29792,"lon":5.37905,"is_reserved":false,"is_disabled":false,"rental_uris":{"android":"levelo://app?vid=01eed466-66d3-43b6-acb9-94704c7a5d64","ios":"levelo://app?vid=01eed466-66d3-43b6-acb9-94704c7a5d64"},"vehicle_type_id":"4","last_reported":1762456120,"current_range_meters":15200,"station_id":"","pricing_plan_id":"cebpf4jnsgd1na2vs0mg"},{"bike_id":"d5703978-5353-417c-aef6-f07822df052b","system_id":"levelo_inurba_marseille","lat":43.2606,"lon":5.3939,"is_reserved":false,"is_disabled":false,"rental_uris":{"android":"levelo://app?vid=d5703978-5353-417c-aef6-f07822df052b","ios":"levelo://app?vid=d5703978-5353-417c-aef6-f07822df052b"},"vehicle_type_id":"4","last_reported":1762456120,"current_range_meters":15200,"station_id":"ce4bhh92rcd13ifvqfj0","pricing_plan_id":"cebpf4jnsgd1na2vs0mg"},{"bike_id":"0f4ffc77-cafe-489d-b8b6-ccbf6aa9af95","system_id":"levelo_inurba_marseille","lat":43.28607,"lon":5.35112,"is_reserved":false,"is_disabled":false,"rental_uris":{"android":"levelo://app?vid=0f4ffc77-cafe-489d-b8b6-ccbf6aa9af95","ios":"levelo://app?vid=0f4ffc77-cafe-489d-b8b6-ccbf6aa9af95"},"vehicle_type_id":"4","last_reported":1762456120,"current_range_meters":15200,"station_id":"ce4bhch2rcd13ifvqeug","pricing_plan_id":"cebpf4jnsgd1na2vs0mg"},{"bike_id":"e071e82c-cdb6-459f-b22d-eefcbaca951d","system_id":"levelo_inurba_marseille","lat":43.31091,"lon":5.38376,"is_reserved":false,"is_disabled":false,"rental_uris":{"android":"levelo://app?vid=e071e82c-cdb6-459f-b22d-eefcbaca951d","ios":"levelo://app?vid=e071e82c-cdb6-459f-b22d-eefcbaca951d"},"vehicle_type_id":"4","last_reported":1762456120,"current_range_meters":16000,"station_id":"ce4bgv92rcd13ifvqcr0","pricing_plan_id":"cebpf4jnsgd1na2vs0mg"},{"bike_id":"ef860c1c-3e4f-49da-9f52-3ad2e51b444c","system_id":"levelo_inurba_marseille","lat":43.30541,"lon":5.36526,"is_reserved":false,"is_disabled":false,"rental_uris":{"android":"levelo://app?vid=ef860c1c-3e4f-49da-9f52-3ad2e51b444c","ios":"levelo://app?vid=ef860c1c-3e4f-49da-9f52-3ad2e51b444c"},"vehicle_type_id":"4","last_reported":1762456120,"current_range_meters":16000,"station_id":"ce4bgs12rcd13ifvqcag","pricing_plan_id":"cebpf4jnsgd1na2vs0mg"},{"bike_id":"30c901a5-fadb-4b55-8150-2440d6cb35b2","system_id":"levelo_inurba_marseille","lat":43.28535,"lon":5.44095,"is_reserved":false,"is_disabled":false,"rental_uris":{"android":"levelo://app?vid=30c901a5-fadb-4b55-8150-2440d6cb35b2","ios":"levelo://app?vid=30c901a5-fadb-4b55-8150-2440d6cb35b2"},"vehicle_type_id":"4","last_reported":1762456120,"current_range_meters":16000,"station_id":"st_d3j3df2ikq2c7380ej80","pricing_plan_id":"cebpf4jnsgd1na2vs0mg"},{"bike_id":"08a5e107-b9a4-49b9-ab0c-f27456172446","system_id":"levelo_inurba_marseille","lat":43.29257,"lon":5.3763,"is_reserved":false,"is_disabled":false,"rental_uris":{"android":"levelo://app?vid=08a5e107-b9a4-49b9-ab0c-f27456172446","ios":"levelo://app?vid=08a5e107-b9a4-49b9-ab0c-f27456172446"},"vehicle_type_id":"4","last_reported":1762456120,"current_range_meters":16000,"station_id":"ce4bgi12rcd13ifvqb80","pricing_plan_id":"cebpf4jnsgd1na2vs0mg"},{"bike_id":"5ef84235-eddd-425b-8be4-c31c46a00271","system_id":"levelo_inurba_marseille","lat":43.24172,"lon":5.36399,"is_reserved":false,"is_disabled":false,"rental_uris":{"android":"levelo://app?vid=5ef84235-eddd-425b-8be4-c31c46a00271","ios":"levelo://app?vid=5ef84235-eddd-425b-8be4-c31c46a00271"},"vehicle_type_id":"4","last_reported":1762456120,"current_range_meters":16000,"station_id":"cpo36qri1sfpv3e86is0","pricing_plan_id":"cebpf4jnsgd1na2vs0mg"},{"bike_id":"0ab43d90-1272-4d3e-93ca-d153c21b67be","system_id":"levelo_inurba_marseille","lat":43.30566,"lon":5.36541,"is_reserved":false,"is_disabled":false,"rental_uris":{"android":"levelo://app?vid=0ab43d90-1272-4d3e-93ca-d153c21b67be","ios":"levelo://app?vid=0ab43d90-1272-4d3e-93ca-d153c21b67be"},"vehicle_type_id":"4","last_reported":1762456120,"current_range_meters":16000,"station_id":"","pricing_plan_id":"cebpf4jnsgd1na2vs0mg"},{"bike_id":"a5173696-5ba0-4fe6-bac5-de4a58477c02","system_id":"levelo_inurba_marseille","lat":43.33777,"lon":5.37447,"is_reserved":false,"is_disabled":false,"rental_uris":{"android":"levelo://app?vid=a5173696-5ba0-4fe6-bac5-de4a58477c02","ios":"levelo://app?vid=a5173696-5ba0-4fe6-bac5-de4a58477c02"},"vehicle_type_id":"4","last_reported":1762456120,"current_range_meters":16400,"station_id":"","pricing_plan_id":"cebpf4jnsgd1na2vs0mg"},{"bike_id":"711b5184-06a1-46c6-b1ad-270408b914a4","system_id":"levelo_inurba_marseille","lat":43.30007,"lon":5.40958,"is_reserved":false,"is_disabled":false,"rental_uris":{"android":"levelo://app?vid=711b5184-06a1-46c6-b1ad-270408b914a4","ios":"levelo://app?vid=711b5184-06a1-46c6-b1ad-270408b914a4"},"vehicle_type_id":"4","last_reported":1762456120,"current_range_meters":16400,"station_id":"","pricing_plan_id":"cebpf4jnsgd1na2vs0mg"},{"bike_id":"331f7316-a3a4-4e2a-9a38-a84fc34d22c1","system_id":"levelo_inurba_marseille","lat":43.3044,"lon":5.38886,"is_reserved":false,"is_disabled":false,"rental_uris":{"android":"levelo://app?vid=331f7316-a3a4-4e2a-9a38-a84fc34d22c1","ios":"levelo://app?vid=331f7316-a3a4-4e2a-9a38-a84fc34d22c1"},"vehicle_type_id":"4","last_reported":1762456120,"current_range_meters":16400,"station_id":"ce4bgk12rcd13ifvqbi0","pricing_plan_id":"cebpf4jnsgd1na2vs0mg"},{"bike_id":"735af335-66bf-4340-87fb-78f795989dcc","system_id":"levelo_inurba_marseille","lat":43.2997,"lon":5.38251,"is_reserved":false,"is_disabled":false,"rental_uris":{"android":"levelo://app?vid=735af335-66bf-4340-87fb-78f795989dcc","ios":"levelo://app?vid=735af335-66bf-4340-87fb-78f795989dcc"},"vehicle_type_id":"4","last_reported":1762456120,"current_range_meters":16400,"station_id":"","pricing_plan_id":"cebpf4jnsgd1na2vs0mg"},{"bike_id":"acd11f1f-a797-4d8a-ac97-7cfd85277af2","system_id":"levelo_inurba_marseille","lat":43.22942,"lon":5.35359,"is_reserved":false,"is_disabled":false,"rental_uris":{"android":"levelo://app?vid=acd11f1f-a797-4d8a-ac97-7cfd85277af2","ios":"levelo://app?vid=acd11f1f-a797-4d8a-ac97-7cfd85277af2"},"vehicle_type_id":"4","last_reported":1762456120,"current_range_meters":16400,"station_id":"cpo3532slgdg3j2ikp40","pricing_plan_id":"cebpf4jnsgd1na2vs0mg"},{"bike_id":"dae6d0ac-38d1-4c25-ad6e-f65be5f24b0b","system_id":"levelo_inurba_marseille","lat":43.2407,"lon":5.37764,"is_reserved":false,"is_disabled":false,"rental_uris":{"android":"levelo://app?vid=dae6d0ac-38d1-4c25-ad6e-f65be5f24b0b","ios":"levelo://app?vid=dae6d0ac-38d1-4c25-ad6e-f65be5f24b0b"},"vehicle_type_id":"4","last_reported":1762456120,"current_range_meters":16400,"station_id":"ce4bhnp2rcd13ifvqgvg","pricing_plan_id":"cebpf4jnsgd1na2vs0mg"},{"bike_id":"28b54568-250f-48ad-b030-25d760bf4abc","system_id":"levelo_inurba_marseille","lat":43.32121,"lon":5.36759,"is_reserved":false,"is_disabled":false,"rental_uris":{"android":"levelo://app?vid=28b54568-250f-48ad-b030-25d760bf4abc","ios":"levelo://app?vid=28b54568-250f-48ad-b030-25d760bf4abc"},"vehicle_type_id":"4","last_reported":1762456120,"current_range_meters":16400,"station_id":"ce4bhrh2rcd13ifvqhug","pricing_plan_id":"cebpf4jnsgd1na2vs0mg"},{"bike_id":"b6d6ed38-4c87-427d-b530-709237f9a962","system_id":"levelo_inurba_marseille","lat":43.23187,"lon":5.43684,"is_reserved":false,"is_disabled":false,"rental_uris":{"android":"levelo://app?vid=b6d6ed38-4c87-427d-b530-709237f9a962","ios":"levelo://app?vid=b6d6ed38-4c87-427d-b530-709237f9a962"},"vehicle_type_id":"4","last_reported":1762456120,"current_range_meters":16400,"station_id":"ce4bhmp2rcd13ifvqgog","pricing_plan_id":"cebpf4jnsgd1na2vs0mg"},{"bike_id":"5bee8f0f-57fe-4257-a72a-04a4967570b5","system_id":"levelo_inurba_marseille","lat":43.30058,"lon":5.37707,"is_reserved":false,"is_disabled":false,"rental_uris":{"android":"levelo://app?vid=5bee8f0f-57fe-4257-a72a-04a4967570b5","ios":"levelo://app?vid=5bee8f0f-57fe-4257-a72a-04a4967570b5"},"vehicle_type_id":"4","last_reported":1762456120,"current_range_meters":16400,"station_id":"","pricing_plan_id":"cebpf4jnsgd1na2vs0mg"},{"bike_id":"c2a09d20-92fa-4c5d-9c9d-6d1d92e8e00d","system_id":"levelo_inurba_marseille","lat":43.29534,"lon":5.39407,"is_reserved":false,"is_disabled":true,"rental_uris":{"android":"levelo://app?vid=c2a09d20-92fa-4c5d-9c9d-6d1d92e8e00d","ios":"levelo://app?vid=c2a09d20-92fa-4c5d-9c9d-6d1d92e8e00d"},"vehicle_type_id":"4","last_reported":1762456120,"current_range_meters":16400,"station_id":"ce4bh292rcd13ifvqdf0","pricing_plan_id":"cebpf4jnsgd1na2vs0mg"},{"bike_id":"fa78b530-e94c-4303-9152-5f5df6990fc2","system_id":"levelo_inurba_marseille","lat":43.28234,"lon":5.39831,"is_reserved":false,"is_disabled":false,"rental_uris":{"android":"levelo://app?vid=fa78b530-e94c-4303-9152-5f5df6990fc2","ios":"levelo://app?vid=fa78b530-e94c-4303-9152-5f5df6990fc2"},"vehicle_type_id":"4","last_reported":1762456120,"current_range_meters":16400,"station_id":"","pricing_plan_id":"cebpf4jnsgd1na2vs0mg"},{"bike_id":"364e7252-6c8d-481d-b075-6ed46540f13b","system_id":"levelo_inurba_marseille","lat":43.26275,"lon":5.39878,"is_reserved":false,"is_disabled":false,"rental_uris":{"android":"levelo://app?vid=364e7252-6c8d-481d-b075-6ed46540f13b","ios":"levelo://app?vid=364e7252-6c8d-481d-b075-6ed46540f13b"},"vehicle_type_id":"4","last_reported":1762456120,"current_range_meters":16800,"station_id":"","pricing_plan_id":"cebpf4jnsgd1na2vs0mg"},{"bike_id":"91195dc3-7219-4139-a8eb-8e52bb6d271e","system_id":"levelo_inurba_marseille","lat":43.23188,"lon":5.35555,"is_reserved":false,"is_disabled":false,"rental_uris":{"android":"levelo://app?vid=91195dc3-7219-4139-a8eb-8e52bb6d271e","ios":"levelo://app?vid=91195dc3-7219-4139-a8eb-8e52bb6d271e"},"vehicle_type_id":"4","last_reported":1762456120,"current_range_meters":16800,"station_id":"ce4bhu92rcd13ifvqi70","pricing_plan_id":"cebpf4jnsgd1na2vs0mg"},{"bike_id":"65d83eaf-428a-43cd-a356-ecaed95948ff","system_id":"levelo_inurba_marseille","lat":43.24841,"lon":5.39777,"is_reserved":false,"is_disabled":false,"rental_uris":{"android":"levelo://app?vid=65d83eaf-428a-43cd-a356-ecaed95948ff","ios":"levelo://app?vid=65d83eaf-428a-43cd-a356-ecaed95948ff"},"vehicle_type_id":"4","last_reported":1762456120,"current_range_meters":16800,"station_id":"","pricing_plan_id":"cebpf4jnsgd1na2vs0mg"},{"bike_id":"329070e8-d502-4a6c-b48c-e60c98fc285b","system_id":"levelo_inurba_marseille","lat":43.31265,"lon":5.38931,"is_reserved":false,"is_disabled":false,"rental_uris":{"android":"levelo://app?vid=329070e8-d502-4a6c-b48c-e60c98fc285b","ios":"levelo://app?vid=329070e8-d502-4a6c-b48c-e60c98fc285b"},"vehicle_type_id":"4","last_reported":1762456120,"current_range_meters":16800,"station_id":"","pricing_plan_id":"cebpf4jnsgd1na2vs0mg"},{"bike_id":"4db561fa-0133-449c-a0eb-011343a5bd3a","system_id":"levelo_inurba_marseille","lat":43.288634,"lon":5.425235,"is_reserved":false,"is_disabled":false,"rental_uris":{"android":"levelo://app?vid=4db561fa-0133-449c-a0eb-011343a5bd3a","ios":"levelo://app?vid=4db561fa-0133-449c-a0eb-011343a5bd3a"},"vehicle_type_id":"4","last_reported":1762456120,"current_range_meters":16800,"station_id":"st_d3b462108ojc7389ooeg","pricing_plan_id":"cebpf4jnsgd1na2vs0mg"},{"bike_id":"4ccea25f-2fc3-4ed4-a980-08ad43f86d65","system_id":"levelo_inurba_marseille","lat":43.26563,"lon":5.40324,"is_reserved":false,"is_disabled":false,"rental_uris":{"android":"levelo://app?vid=4ccea25f-2fc3-4ed4-a980-08ad43f86d65","ios":"levelo://app?vid=4ccea25f-2fc3-4ed4-a980-08ad43f86d65"},"vehicle_type_id":"4","last_reported":1762456120,"current_range_meters":16800,"station_id":"ce4bhmp2rcd13ifvqgng","pricing_plan_id":"cebpf4jnsgd1na2vs0mg"},{"bike_id":"decad613-875f-4e39-a5cc-a2636a2419c6","system_id":"levelo_inurba_marseille","lat":43.23151,"lon":5.43708,"is_reserved":false,"is_disabled":false,"rental_uris":{"android":"levelo://app?vid=decad613-875f-4e39-a5cc-a2636a2419c6","ios":"levelo://app?vid=decad613-875f-4e39-a5cc-a2636a2419c6"},"vehicle_type_id":"4","last_reported":1762456120,"current_range_meters":16800,"station_id":"ce4bhmp2rcd13ifvqgog","pricing_plan_id":"cebpf4jnsgd1na2vs0mg"},{"bike_id":"b3ef1f8f-45a0-41b6-b3fd-960c674e4ba3","system_id":"levelo_inurba_marseille","lat":43.30141,"lon":5.374,"is_reserved":false,"is_disabled":false,"rental_uris":{"android":"levelo://app?vid=b3ef1f8f-45a0-41b6-b3fd-960c674e4ba3","ios":"levelo://app?vid=b3ef1f8f-45a0-41b6-b3fd-960c674e4ba3"},"vehicle_type_id":"4","last_reported":1762456120,"current_range_meters":16800,"station_id":"ce4bgs92rcd13ifvqcc0","pricing_plan_id":"cebpf4jnsgd1na2vs0mg"},{"bike_id":"55c6a609-9074-4f89-a752-5a65b39a1df5","system_id":"levelo_inurba_marseille","lat":43.321136,"lon":5.367781,"is_reserved":false,"is_disabled":false,"rental_uris":{"android":"levelo://app?vid=55c6a609-9074-4f89-a752-5a65b39a1df5","ios":"levelo://app?vid=55c6a609-9074-4f89-a752-5a65b39a1df5"},"vehicle_type_id":"4","last_reported":1762456120,"current_range_meters":17200,"station_id":"ce4bhrh2rcd13ifvqhug","pricing_plan_id":"cebpf4jnsgd1na2vs0mg"},{"bike_id":"809f7a44-c5b2-41d0-b5fd-761522a121c5","system_id":"levelo_inurba_marseille","lat":43.25581,"lon":5.38243,"is_reserved":false,"is_disabled":false,"rental_uris":{"android":"levelo://app?vid=809f7a44-c5b2-41d0-b5fd-761522a121c5","ios":"levelo://app?vid=809f7a44-c5b2-41d0-b5fd-761522a121c5"},"vehicle_type_id":"4","last_reported":1762456120,"current_range_meters":17200,"station_id":"ce4bhih2rcd13ifvqfs0","pricing_plan_id":"cebpf4jnsgd1na2vs0mg"},{"bike_id":"f68cdb11-4ad5-494f-8b44-dc318ce342e5","system_id":"levelo_inurba_marseille","lat":43.27818,"lon":5.407013,"is_reserved":false,"is_disabled":false,"rental_uris":{"android":"levelo://app?vid=f68cdb11-4ad5-494f-8b44-dc318ce342e5","ios":"levelo://app?vid=f68cdb11-4ad5-494f-8b44-dc318ce342e5"},"vehicle_type_id":"4","last_reported":1762456120,"current_range_meters":17200,"station_id":"ce4bhnh2rcd13ifvqgtg","pricing_plan_id":"cebpf4jnsgd1na2vs0mg"},{"bike_id":"ada7c068-07f5-4885-8cb5-5c4f9b537ace","system_id":"levelo_inurba_marseille","lat":43.2317,"lon":5.43717,"is_reserved":false,"is_disabled":false,"rental_uris":{"android":"levelo://app?vid=ada7c068-07f5-4885-8cb5-5c4f9b537ace","ios":"levelo://app?vid=ada7c068-07f5-4885-8cb5-5c4f9b537ace"},"vehicle_type_id":"4","last_reported":1762456120,"current_range_meters":17200,"station_id":"ce4bhmp2rcd13ifvqgog","pricing_plan_id":"cebpf4jnsgd1na2vs0mg"},{"bike_id":"ec44e195-cde1-4252-aadf-701a64256dd7","system_id":"levelo_inurba_marseille","lat":43.24637,"lon":5.43136,"is_reserved":false,"is_disabled":false,"rental_uris":{"android":"levelo://app?vid=ec44e195-cde1-4252-aadf-701a64256dd7","ios":"levelo://app?vid=ec44e195-cde1-4252-aadf-701a64256dd7"},"vehicle_type_id":"4","last_reported":1762456120,"current_range_meters":17200,"station_id":"st_d2m6c4gdas8pm72e190g","pricing_plan_id":"cebpf4jnsgd1na2vs0mg"},{"bike_id":"781f864f-0610-42a1-8539-b44ad3ca704a","system_id":"levelo_inurba_marseille","lat":43.23197,"lon":5.35534,"is_reserved":false,"is_disabled":false,"rental_uris":{"android":"levelo://app?vid=781f864f-0610-42a1-8539-b44ad3ca704a","ios":"levelo://app?vid=781f864f-0610-42a1-8539-b44ad3ca704a"},"vehicle_type_id":"4","last_reported":1762456120,"current_range_meters":17200,"station_id":"ce4bhu92rcd13ifvqi70","pricing_plan_id":"cebpf4jnsgd1na2vs0mg"},{"bike_id":"35d7944b-1162-4d76-8666-cbec43ba680f","system_id":"levelo_inurba_marseille","lat":43.24947,"lon":5.40489,"is_reserved":false,"is_disabled":false,"rental_uris":{"android":"levelo://app?vid=35d7944b-1162-4d76-8666-cbec43ba680f","ios":"levelo://app?vid=35d7944b-1162-4d76-8666-cbec43ba680f"},"vehicle_type_id":"4","last_reported":1762456120,"current_range_meters":17200,"station_id":"st_d2ngiaodas8pm72gd1h0","pricing_plan_id":"cebpf4jnsgd1na2vs0mg"},{"bike_id":"7c8627a5-565b-4b37-9dc9-7bce13187d0b","system_id":"levelo_inurba_marseille","lat":43.31757,"lon":5.39019,"is_reserved":false,"is_disabled":false,"rental_uris":{"android":"levelo://app?vid=7c8627a5-565b-4b37-9dc9-7bce13187d0b","ios":"levelo://app?vid=7c8627a5-565b-4b37-9dc9-7bce13187d0b"},"vehicle_type_id":"4","last_reported":1762456120,"current_range_meters":17200,"station_id":"ce4bhqp2rcd13ifvqhng","pricing_plan_id":"cebpf4jnsgd1na2vs0mg"},{"bike_id":"6b7c4495-d3c9-4a4e-8114-da3bfcfae759","system_id":"levelo_inurba_marseille","lat":43.30664,"lon":5.40086,"is_reserved":false,"is_disabled":false,"rental_uris":{"android":"levelo://app?vid=6b7c4495-d3c9-4a4e-8114-da3bfcfae759","ios":"levelo://app?vid=6b7c4495-d3c9-4a4e-8114-da3bfcfae759"},"vehicle_type_id":"4","last_reported":1762456120,"current_range_meters":17600,"station_id":"ce4bh112rcd13ifvqda0","pricing_plan_id":"cebpf4jnsgd1na2vs0mg"},{"bike_id":"335ae773-6a9b-4f84-b3dc-4f08f3d6fd0d","system_id":"levelo_inurba_marseille","lat":43.2465,"lon":5.38894,"is_reserved":false,"is_disabled":false,"rental_uris":{"android":"levelo://app?vid=335ae773-6a9b-4f84-b3dc-4f08f3d6fd0d","ios":"levelo://app?vid=335ae773-6a9b-4f84-b3dc-4f08f3d6fd0d"},"vehicle_type_id":"4","last_reported":1762456120,"current_range_meters":17600,"station_id":"ce4bhg12rcd13ifvqf60","pricing_plan_id":"cebpf4jnsgd1na2vs0mg"},{"bike_id":"d9217edb-2a77-46d2-8c74-1939f00ab8dd","system_id":"levelo_inurba_marseille","lat":43.25093,"lon":5.39518,"is_reserved":false,"is_disabled":false,"rental_uris":{"android":"levelo://app?vid=d9217edb-2a77-46d2-8c74-1939f00ab8dd","ios":"levelo://app?vid=d9217edb-2a77-46d2-8c74-1939f00ab8dd"},"vehicle_type_id":"4","last_reported":1762456120,"current_range_meters":17600,"station_id":"ce4bhm12rcd13ifvqgkg","pricing_plan_id":"cebpf4jnsgd1na2vs0mg"},{"bike_id":"abfdcd69-858a-49af-8dd5-9b1f28c7cf76","system_id":"levelo_inurba_marseille","lat":43.30126,"lon":5.43122,"is_reserved":false,"is_disabled":false,"rental_uris":{"android":"levelo://app?vid=abfdcd69-858a-49af-8dd5-9b1f28c7cf76","ios":"levelo://app?vid=abfdcd69-858a-49af-8dd5-9b1f28c7cf76"},"vehicle_type_id":"4","last_reported":1762456120,"current_range_meters":17600,"station_id":"st_d3js3co5814s73ftftug","pricing_plan_id":"cebpf4jnsgd1na2vs0mg"},{"bike_id":"2214147d-b2bc-47a5-8262-b29a2f3cbd90","system_id":"levelo_inurba_marseille","lat":43.28869,"lon":5.42512,"is_reserved":false,"is_disabled":false,"rental_uris":{"android":"levelo://app?vid=2214147d-b2bc-47a5-8262-b29a2f3cbd90","ios":"levelo://app?vid=2214147d-b2bc-47a5-8262-b29a2f3cbd90"},"vehicle_type_id":"4","last_reported":1762456120,"current_range_meters":17600,"station_id":"st_d3b462108ojc7389ooeg","pricing_plan_id":"cebpf4jnsgd1na2vs0mg"},{"bike_id":"b2d7e0a7-bae5-4b10-b5e2-5ff9bb25824d","system_id":"levelo_inurba_marseille","lat":43.285559,"lon":5.37766,"is_reserved":false,"is_disabled":false,"rental_uris":{"android":"levelo://app?vid=b2d7e0a7-bae5-4b10-b5e2-5ff9bb25824d","ios":"levelo://app?vid=b2d7e0a7-bae5-4b10-b5e2-5ff9bb25824d"},"vehicle_type_id":"4","last_reported":1762456120,"current_range_meters":18000,"station_id":"ce4bha12rcd13ifvqee0","pricing_plan_id":"cebpf4jnsgd1na2vs0mg"},{"bike_id":"a0268f72-51b3-47c5-a008-fa38e7b7cd0d","system_id":"levelo_inurba_marseille","lat":43.309609,"lon":5.390333,"is_reserved":false,"is_disabled":false,"rental_uris":{"android":"levelo://app?vid=a0268f72-51b3-47c5-a008-fa38e7b7cd0d","ios":"levelo://app?vid=a0268f72-51b3-47c5-a008-fa38e7b7cd0d"},"vehicle_type_id":"4","last_reported":1762456120,"current_range_meters":18000,"station_id":"ce4bh3p2rcd13ifvqdp0","pricing_plan_id":"cebpf4jnsgd1na2vs0mg"},{"bike_id":"a88522c2-7f31-460d-8b59-1c10109fed19","system_id":"levelo_inurba_marseille","lat":43.31441,"lon":5.3759,"is_reserved":false,"is_disabled":false,"rental_uris":{"android":"levelo://app?vid=a88522c2-7f31-460d-8b59-1c10109fed19","ios":"levelo://app?vid=a88522c2-7f31-460d-8b59-1c10109fed19"},"vehicle_type_id":"4","last_reported":1762456120,"current_range_meters":18000,"station_id":"","pricing_plan_id":"cebpf4jnsgd1na2vs0mg"},{"bike_id":"0767b797-8806-47e8-9164-d5c7e2e97d33","system_id":"levelo_inurba_marseille","lat":43.30173,"lon":5.37373,"is_reserved":false,"is_disabled":false,"rental_uris":{"android":"levelo://app?vid=0767b797-8806-47e8-9164-d5c7e2e97d33","ios":"levelo://app?vid=0767b797-8806-47e8-9164-d5c7e2e97d33"},"vehicle_type_id":"4","last_reported":1762456120,"current_range_meters":18000,"station_id":"ce4bgs92rcd13ifvqcc0","pricing_plan_id":"cebpf4jnsgd1na2vs0mg"},{"bike_id":"51b9afea-e3f9-46da-a79d-624b2847ee35","system_id":"levelo_inurba_marseille","lat":43.29919,"lon":5.36529,"is_reserved":false,"is_disabled":false,"rental_uris":{"android":"levelo://app?vid=51b9afea-e3f9-46da-a79d-624b2847ee35","ios":"levelo://app?vid=51b9afea-e3f9-46da-a79d-624b2847ee35"},"vehicle_type_id":"4","last_reported":1762456120,"current_range_meters":18000,"station_id":"ce4bgm92rcd13ifvqbr0","pricing_plan_id":"cebpf4jnsgd1na2vs0mg"},{"bike_id":"c677b586-dbe3-4301-9b4e-19ce9afad917","system_id":"levelo_inurba_marseille","lat":43.31706,"lon":5.37784,"is_reserved":false,"is_disabled":false,"rental_uris":{"android":"levelo://app?vid=c677b586-dbe3-4301-9b4e-19ce9afad917","ios":"levelo://app?vid=c677b586-dbe3-4301-9b4e-19ce9afad917"},"vehicle_type_id":"4","last_reported":1762456120,"current_range_meters":18000,"station_id":"ce4bgth2rcd13ifvqch0","pricing_plan_id":"cebpf4jnsgd1na2vs0mg"},{"bike_id":"ba00a797-bc94-42f1-aba8-9bf207fe458c","system_id":"levelo_inurba_marseille","lat":43.30539,"lon":5.3654,"is_reserved":false,"is_disabled":false,"rental_uris":{"android":"levelo://app?vid=ba00a797-bc94-42f1-aba8-9bf207fe458c","ios":"levelo://app?vid=ba00a797-bc94-42f1-aba8-9bf207fe458c"},"vehicle_type_id":"4","last_reported":1762456120,"current_range_meters":18000,"station_id":"ce4bgs12rcd13ifvqcag","pricing_plan_id":"cebpf4jnsgd1na2vs0mg"},{"bike_id":"1679969c-611f-47e9-9d02-40ff3326d6bf","system_id":"levelo_inurba_marseille","lat":43.299207,"lon":5.374723,"is_reserved":false,"is_disabled":false,"rental_uris":{"android":"levelo://app?vid=1679969c-611f-47e9-9d02-40ff3326d6bf","ios":"levelo://app?vid=1679969c-611f-47e9-9d02-40ff3326d6bf"},"vehicle_type_id":"4","last_reported":1762456120,"current_range_meters":18800,"station_id":"ce4bgjh2rcd13ifvqbg0","pricing_plan_id":"cebpf4jnsgd1na2vs0mg"},{"bike_id":"d08ee228-c2c7-475f-9a3e-386d21e2995f","system_id":"levelo_inurba_marseille","lat":43.28856,"lon":5.42515,"is_reserved":false,"is_disabled":false,"rental_uris":{"android":"levelo://app?vid=d08ee228-c2c7-475f-9a3e-386d21e2995f","ios":"levelo://app?vid=d08ee228-c2c7-475f-9a3e-386d21e2995f"},"vehicle_type_id":"4","last_reported":1762456120,"current_range_meters":18800,"station_id":"st_d3b462108ojc7389ooeg","pricing_plan_id":"cebpf4jnsgd1na2vs0mg"},{"bike_id":"702b228e-48c7-4846-ad48-f2ad00aac197","system_id":"levelo_inurba_marseille","lat":43.30311,"lon":5.36892,"is_reserved":false,"is_disabled":false,"rental_uris":{"android":"levelo://app?vid=702b228e-48c7-4846-ad48-f2ad00aac197","ios":"levelo://app?vid=702b228e-48c7-4846-ad48-f2ad00aac197"},"vehicle_type_id":"4","last_reported":1762456120,"current_range_meters":18800,"station_id":"ce4bgqh2rcd13ifvqc5g","pricing_plan_id":"cebpf4jnsgd1na2vs0mg"},{"bike_id":"89a91f04-ec5f-419d-ba7e-0ced18f2d259","system_id":"levelo_inurba_marseille","lat":43.305188,"lon":5.366289,"is_reserved":false,"is_disabled":false,"rental_uris":{"android":"levelo://app?vid=89a91f04-ec5f-419d-ba7e-0ced18f2d259","ios":"levelo://app?vid=89a91f04-ec5f-419d-ba7e-0ced18f2d259"},"vehicle_type_id":"4","last_reported":1762456120,"current_range_meters":18800,"station_id":"","pricing_plan_id":"cebpf4jnsgd1na2vs0mg"},{"bike_id":"14bede57-e6c3-42e3-85ea-7147697689db","system_id":"levelo_inurba_marseille","lat":43.24958,"lon":5.4048,"is_reserved":false,"is_disabled":false,"rental_uris":{"android":"levelo://app?vid=14bede57-e6c3-42e3-85ea-7147697689db","ios":"levelo://app?vid=14bede57-e6c3-42e3-85ea-7147697689db"},"vehicle_type_id":"4","last_reported":1762456120,"current_range_meters":18800,"station_id":"st_d2ngiaodas8pm72gd1h0","pricing_plan_id":"cebpf4jnsgd1na2vs0mg"},{"bike_id":"783a3475-cddf-41b9-848d-525e83f4bd21","system_id":"levelo_inurba_marseille","lat":43.304331,"lon":5.388807,"is_reserved":false,"is_disabled":false,"rental_uris":{"android":"levelo://app?vid=783a3475-cddf-41b9-848d-525e83f4bd21","ios":"levelo://app?vid=783a3475-cddf-41b9-848d-525e83f4bd21"},"vehicle_type_id":"4","last_reported":1762456120,"current_range_meters":18800,"station_id":"ce4bgk12rcd13ifvqbi0","pricing_plan_id":"cebpf4jnsgd1na2vs0mg"},{"bike_id":"5557556a-fa8d-4b28-8cca-1df677730186","system_id":"levelo_inurba_marseille","lat":43.25079,"lon":5.40458,"is_reserved":false,"is_disabled":false,"rental_uris":{"android":"levelo://app?vid=5557556a-fa8d-4b28-8cca-1df677730186","ios":"levelo://app?vid=5557556a-fa8d-4b28-8cca-1df677730186"},"vehicle_type_id":"4","last_reported":1762456120,"current_range_meters":18800,"station_id":"","pricing_plan_id":"cebpf4jnsgd1na2vs0mg"},{"bike_id":"f0bc3f78-8247-434d-b9ec-89fca1027ea4","system_id":"levelo_inurba_marseille","lat":43.27907,"lon":5.39546,"is_reserved":false,"is_disabled":false,"rental_uris":{"android":"levelo://app?vid=f0bc3f78-8247-434d-b9ec-89fca1027ea4","ios":"levelo://app?vid=f0bc3f78-8247-434d-b9ec-89fca1027ea4"},"vehicle_type_id":"4","last_reported":1762456120,"current_range_meters":18800,"station_id":"ce4bhf92rcd13ifvqf40","pricing_plan_id":"cebpf4jnsgd1na2vs0mg"},{"bike_id":"a0780bc9-5bab-46f2-8d08-98e1e3141e80","system_id":"levelo_inurba_marseille","lat":43.30902,"lon":5.36843,"is_reserved":false,"is_disabled":false,"rental_uris":{"android":"levelo://app?vid=a0780bc9-5bab-46f2-8d08-98e1e3141e80","ios":"levelo://app?vid=a0780bc9-5bab-46f2-8d08-98e1e3141e80"},"vehicle_type_id":"4","last_reported":1762456120,"current_range_meters":18800,"station_id":"ce4bgn92rcd13ifvqbvg","pricing_plan_id":"cebpf4jnsgd1na2vs0mg"},{"bike_id":"a643746f-5e52-400a-b0f4-5dc85d6de4c2","system_id":"levelo_inurba_marseille","lat":43.29196,"lon":5.35816,"is_reserved":false,"is_disabled":false,"rental_uris":{"android":"levelo://app?vid=a643746f-5e52-400a-b0f4-5dc85d6de4c2","ios":"levelo://app?vid=a643746f-5e52-400a-b0f4-5dc85d6de4c2"},"vehicle_type_id":"4","last_reported":1762456120,"current_range_meters":18800,"station_id":"ce4bhb12rcd13ifvqel0","pricing_plan_id":"cebpf4jnsgd1na2vs0mg"},{"bike_id":"3a6b939b-8483-4a00-8652-d825cdd856d7","system_id":"levelo_inurba_marseille","lat":43.22544,"lon":5.41589,"is_reserved":false,"is_disabled":false,"rental_uris":{"android":"levelo://app?vid=3a6b939b-8483-4a00-8652-d825cdd856d7","ios":"levelo://app?vid=3a6b939b-8483-4a00-8652-d825cdd856d7"},"vehicle_type_id":"4","last_reported":1762456120,"current_range_meters":18800,"station_id":"st_d2o4gvlbi1j2169b742g","pricing_plan_id":"cebpf4jnsgd1na2vs0mg"},{"bike_id":"9599e800-c0f3-4d1c-ae6f-0370f8960f5c","system_id":"levelo_inurba_marseille","lat":43.32106,"lon":5.36754,"is_reserved":false,"is_disabled":false,"rental_uris":{"android":"levelo://app?vid=9599e800-c0f3-4d1c-ae6f-0370f8960f5c","ios":"levelo://app?vid=9599e800-c0f3-4d1c-ae6f-0370f8960f5c"},"vehicle_type_id":"4","last_reported":1762456120,"current_range_meters":18800,"station_id":"ce4bhrh2rcd13ifvqhug","pricing_plan_id":"cebpf4jnsgd1na2vs0mg"},{"bike_id":"401209f9-1098-407a-9275-182f209531f6","system_id":"levelo_inurba_marseille","lat":43.29554,"lon":5.42277,"is_reserved":false,"is_disabled":false,"rental_uris":{"android":"levelo://app?vid=401209f9-1098-407a-9275-182f209531f6","ios":"levelo://app?vid=401209f9-1098-407a-9275-182f209531f6"},"vehicle_type_id":"4","last_reported":1762456120,"current_range_meters":18800,"station_id":"ce4bhph2rcd13ifvqhdg","pricing_plan_id":"cebpf4jnsgd1na2vs0mg"},{"bike_id":"310115a0-7bf2-4a4a-9d53-56bf6918e4d0","system_id":"levelo_inurba_marseille","lat":43.28474,"lon":5.484,"is_reserved":false,"is_disabled":false,"rental_uris":{"android":"levelo://app?vid=310115a0-7bf2-4a4a-9d53-56bf6918e4d0","ios":"levelo://app?vid=310115a0-7bf2-4a4a-9d53-56bf6918e4d0"},"vehicle_type_id":"4","last_reported":1762456120,"current_range_meters":19200,"station_id":"st_d3svhcjqgbts73a3dn0g","pricing_plan_id":"cebpf4jnsgd1na2vs0mg"},{"bike_id":"4b18c56b-4410-45b0-bd39-2e4be739c205","system_id":"levelo_inurba_marseille","lat":43.32483,"lon":5.36563,"is_reserved":false,"is_disabled":false,"rental_uris":{"android":"levelo://app?vid=4b18c56b-4410-45b0-bd39-2e4be739c205","ios":"levelo://app?vid=4b18c56b-4410-45b0-bd39-2e4be739c205"},"vehicle_type_id":"4","last_reported":1762456120,"current_range_meters":19200,"station_id":"ce4bhs12rcd13ifvqhvg","pricing_plan_id":"cebpf4jnsgd1na2vs0mg"},{"bike_id":"55f1dab9-4e73-4d5a-a5af-9097e35c1bc1","system_id":"levelo_inurba_marseille","lat":43.24953,"lon":5.40485,"is_reserved":false,"is_disabled":false,"rental_uris":{"android":"levelo://app?vid=55f1dab9-4e73-4d5a-a5af-9097e35c1bc1","ios":"levelo://app?vid=55f1dab9-4e73-4d5a-a5af-9097e35c1bc1"},"vehicle_type_id":"4","last_reported":1762456120,"current_range_meters":19200,"station_id":"st_d2ngiaodas8pm72gd1h0","pricing_plan_id":"cebpf4jnsgd1na2vs0mg"},{"bike_id":"72c701a1-9fd9-4f9a-b832-fc70c1466ce5","system_id":"levelo_inurba_marseille","lat":43.29602,"lon":5.38101,"is_reserved":false,"is_disabled":false,"rental_uris":{"android":"levelo://app?vid=72c701a1-9fd9-4f9a-b832-fc70c1466ce5","ios":"levelo://app?vid=72c701a1-9fd9-4f9a-b832-fc70c1466ce5"},"vehicle_type_id":"4","last_reported":1762456120,"current_range_meters":19200,"station_id":"ce4bgl12rcd13ifvqbo0","pricing_plan_id":"cebpf4jnsgd1na2vs0mg"},{"bike_id":"79606fcb-c57e-4cfd-a218-339376c90dd9","system_id":"levelo_inurba_marseille","lat":43.3378,"lon":5.37463,"is_reserved":false,"is_disabled":false,"rental_uris":{"android":"levelo://app?vid=79606fcb-c57e-4cfd-a218-339376c90dd9","ios":"levelo://app?vid=79606fcb-c57e-4cfd-a218-339376c90dd9"},"vehicle_type_id":"4","last_reported":1762456120,"current_range_meters":19200,"station_id":"","pricing_plan_id":"cebpf4jnsgd1na2vs0mg"},{"bike_id":"2f51570f-1a0f-493b-9917-21b8a12585d6","system_id":"levelo_inurba_marseille","lat":43.28046,"lon":5.36953,"is_reserved":false,"is_disabled":false,"rental_uris":{"android":"levelo://app?vid=2f51570f-1a0f-493b-9917-21b8a12585d6","ios":"levelo://app?vid=2f51570f-1a0f-493b-9917-21b8a12585d6"},"vehicle_type_id":"4","last_reported":1762456120,"current_range_meters":19200,"station_id":"ce4bha12rcd13ifvqef0","pricing_plan_id":"cebpf4jnsgd1na2vs0mg"},{"bike_id":"165aff21-73e8-4451-9d3e-5e99dd0c2bd0","system_id":"levelo_inurba_marseille","lat":43.27972,"lon":5.41043,"is_reserved":false,"is_disabled":false,"rental_uris":{"android":"levelo://app?vid=165aff21-73e8-4451-9d3e-5e99dd0c2bd0","ios":"levelo://app?vid=165aff21-73e8-4451-9d3e-5e99dd0c2bd0"},"vehicle_type_id":"4","last_reported":1762456120,"current_range_meters":19200,"station_id":"ce4bhnp2rcd13ifvqh0g","pricing_plan_id":"cebpf4jnsgd1na2vs0mg"},{"bike_id":"85f6acdc-81ad-4320-94f8-05d1cf71a9db","system_id":"levelo_inurba_marseille","lat":43.250904,"lon":5.39526,"is_reserved":false,"is_disabled":false,"rental_uris":{"android":"levelo://app?vid=85f6acdc-81ad-4320-94f8-05d1cf71a9db","ios":"levelo://app?vid=85f6acdc-81ad-4320-94f8-05d1cf71a9db"},"vehicle_type_id":"4","last_reported":1762456120,"current_range_meters":19200,"station_id":"ce4bhm12rcd13ifvqgkg","pricing_plan_id":"cebpf4jnsgd1na2vs0mg"},{"bike_id":"cc764aa3-0859-4ae5-8ae6-ab9995233624","system_id":"levelo_inurba_marseille","lat":43.291,"lon":5.38119,"is_reserved":false,"is_disabled":false,"rental_uris":{"android":"levelo://app?vid=cc764aa3-0859-4ae5-8ae6-ab9995233624","ios":"levelo://app?vid=cc764aa3-0859-4ae5-8ae6-ab9995233624"},"vehicle_type_id":"4","last_reported":1762456120,"current_range_meters":19200,"station_id":"ce4bh512rcd13ifvqe2g","pricing_plan_id":"cebpf4jnsgd1na2vs0mg"},{"bike_id":"3ab21f04-3c40-4908-afbe-83e7ca374ea7","system_id":"levelo_inurba_marseille","lat":43.28624,"lon":5.35099,"is_reserved":false,"is_disabled":false,"rental_uris":{"android":"levelo://app?vid=3ab21f04-3c40-4908-afbe-83e7ca374ea7","ios":"levelo://app?vid=3ab21f04-3c40-4908-afbe-83e7ca374ea7"},"vehicle_type_id":"4","last_reported":1762456120,"current_range_meters":19600,"station_id":"ce4bhch2rcd13ifvqeug","pricing_plan_id":"cebpf4jnsgd1na2vs0mg"},{"bike_id":"f2ee0327-2532-4f68-9a04-468c09658714","system_id":"levelo_inurba_marseille","lat":43.26576,"lon":5.40317,"is_reserved":false,"is_disabled":false,"rental_uris":{"android":"levelo://app?vid=f2ee0327-2532-4f68-9a04-468c09658714","ios":"levelo://app?vid=f2ee0327-2532-4f68-9a04-468c09658714"},"vehicle_type_id":"4","last_reported":1762456120,"current_range_meters":19600,"station_id":"ce4bhmp2rcd13ifvqgng","pricing_plan_id":"cebpf4jnsgd1na2vs0mg"},{"bike_id":"36ccda77-26f7-498c-b092-0edbc7df336b","system_id":"levelo_inurba_marseille","lat":43.27381,"lon":5.36229,"is_reserved":false,"is_disabled":false,"rental_uris":{"android":"levelo://app?vid=36ccda77-26f7-498c-b092-0edbc7df336b","ios":"levelo://app?vid=36ccda77-26f7-498c-b092-0edbc7df336b"},"vehicle_type_id":"4","last_reported":1762456120,"current_range_meters":19600,"station_id":"ce4bhbh2rcd13ifvqeo0","pricing_plan_id":"cebpf4jnsgd1na2vs0mg"},{"bike_id":"403170e3-dd2c-4b20-b12f-8cd8ee70c37d","system_id":"levelo_inurba_marseille","lat":43.30886,"lon":5.39643,"is_reserved":false,"is_disabled":false,"rental_uris":{"android":"levelo://app?vid=403170e3-dd2c-4b20-b12f-8cd8ee70c37d","ios":"levelo://app?vid=403170e3-dd2c-4b20-b12f-8cd8ee70c37d"},"vehicle_type_id":"4","last_reported":1762456120,"current_range_meters":19600,"station_id":"ce4bh012rcd13ifvqcv0","pricing_plan_id":"cebpf4jnsgd1na2vs0mg"},{"bike_id":"aecb97f5-54bc-4fe4-94cb-ad69643bef71","system_id":"levelo_inurba_marseille","lat":43.28454,"lon":5.38309,"is_reserved":false,"is_disabled":false,"rental_uris":{"android":"levelo://app?vid=aecb97f5-54bc-4fe4-94cb-ad69643bef71","ios":"levelo://app?vid=aecb97f5-54bc-4fe4-94cb-ad69643bef71"},"vehicle_type_id":"4","last_reported":1762456120,"current_range_meters":19600,"station_id":"ce4bh512rcd13ifvqe3g","pricing_plan_id":"cebpf4jnsgd1na2vs0mg"},{"bike_id":"10fd47f6-b05f-46a0-b02d-f6e3b6940f16","system_id":"levelo_inurba_marseille","lat":43.28861,"lon":5.35855,"is_reserved":false,"is_disabled":false,"rental_uris":{"android":"levelo://app?vid=10fd47f6-b05f-46a0-b02d-f6e3b6940f16","ios":"levelo://app?vid=10fd47f6-b05f-46a0-b02d-f6e3b6940f16"},"vehicle_type_id":"4","last_reported":1762456120,"current_range_meters":19600,"station_id":"ce4bhb12rcd13ifvqem0","pricing_plan_id":"cebpf4jnsgd1na2vs0mg"},{"bike_id":"45fdad9c-319d-4c25-aed9-ddd9e38d861d","system_id":"levelo_inurba_marseille","lat":43.25581,"lon":5.38224,"is_reserved":false,"is_disabled":false,"rental_uris":{"android":"levelo://app?vid=45fdad9c-319d-4c25-aed9-ddd9e38d861d","ios":"levelo://app?vid=45fdad9c-319d-4c25-aed9-ddd9e38d861d"},"vehicle_type_id":"4","last_reported":1762456120,"current_range_meters":19600,"station_id":"ce4bhih2rcd13ifvqfs0","pricing_plan_id":"cebpf4jnsgd1na2vs0mg"},{"bike_id":"500a8c98-1e13-4816-a26f-9492071128c9","system_id":"levelo_inurba_marseille","lat":43.29815,"lon":5.3807,"is_reserved":false,"is_disabled":false,"rental_uris":{"android":"levelo://app?vid=500a8c98-1e13-4816-a26f-9492071128c9","ios":"levelo://app?vid=500a8c98-1e13-4816-a26f-9492071128c9"},"vehicle_type_id":"4","last_reported":1762456120,"current_range_meters":20000,"station_id":"ce4bgip2rcd13ifvqbb0","pricing_plan_id":"cebpf4jnsgd1na2vs0mg"},{"bike_id":"f995ba9a-93be-4f35-bb12-aac69a56c762","system_id":"levelo_inurba_marseille","lat":43.27995,"lon":5.41672,"is_reserved":false,"is_disabled":true,"rental_uris":{"android":"levelo://app?vid=f995ba9a-93be-4f35-bb12-aac69a56c762","ios":"levelo://app?vid=f995ba9a-93be-4f35-bb12-aac69a56c762"},"vehicle_type_id":"4","last_reported":1762456120,"current_range_meters":20000,"station_id":"ce4bho12rcd13ifvqh1g","pricing_plan_id":"cebpf4jnsgd1na2vs0mg"},{"bike_id":"a24ecaa7-dc5d-4c8e-a910-6021da3d40da","system_id":"levelo_inurba_marseille","lat":43.2257,"lon":5.41629,"is_reserved":false,"is_disabled":false,"rental_uris":{"android":"levelo://app?vid=a24ecaa7-dc5d-4c8e-a910-6021da3d40da","ios":"levelo://app?vid=a24ecaa7-dc5d-4c8e-a910-6021da3d40da"},"vehicle_type_id":"4","last_reported":1762456120,"current_range_meters":20000,"station_id":"st_d2o4gvlbi1j2169b742g","pricing_plan_id":"cebpf4jnsgd1na2vs0mg"},{"bike_id":"011c8469-4db8-40a3-bf70-1afd53260839","system_id":"levelo_inurba_marseille","lat":43.23245,"lon":5.35556,"is_reserved":false,"is_disabled":false,"rental_uris":{"android":"levelo://app?vid=011c8469-4db8-40a3-bf70-1afd53260839","ios":"levelo://app?vid=011c8469-4db8-40a3-bf70-1afd53260839"},"vehicle_type_id":"4","last_reported":1762456120,"current_range_meters":20000,"station_id":"ce4bhu92rcd13ifvqi70","pricing_plan_id":"cebpf4jnsgd1na2vs0mg"},{"bike_id":"d975e5c1-3a94-457d-8066-9bb046a73e78","system_id":"levelo_inurba_marseille","lat":43.23178,"lon":5.39991,"is_reserved":false,"is_disabled":false,"rental_uris":{"android":"levelo://app?vid=d975e5c1-3a94-457d-8066-9bb046a73e78","ios":"levelo://app?vid=d975e5c1-3a94-457d-8066-9bb046a73e78"},"vehicle_type_id":"4","last_reported":1762456120,"current_range_meters":20000,"station_id":"ce4bhn12rcd13ifvqgqg","pricing_plan_id":"cebpf4jnsgd1na2vs0mg"},{"bike_id":"01577a22-b98f-48ef-9a42-92c5c1d2580a","system_id":"levelo_inurba_marseille","lat":43.27815,"lon":5.4072,"is_reserved":false,"is_disabled":false,"rental_uris":{"android":"levelo://app?vid=01577a22-b98f-48ef-9a42-92c5c1d2580a","ios":"levelo://app?vid=01577a22-b98f-48ef-9a42-92c5c1d2580a"},"vehicle_type_id":"4","last_reported":1762456120,"current_range_meters":20000,"station_id":"ce4bhnh2rcd13ifvqgtg","pricing_plan_id":"cebpf4jnsgd1na2vs0mg"},{"bike_id":"ed0dd75a-77b6-48fd-a14f-692768d095c4","system_id":"levelo_inurba_marseille","lat":43.28855,"lon":5.39322,"is_reserved":false,"is_disabled":true,"rental_uris":{"android":"levelo://app?vid=ed0dd75a-77b6-48fd-a14f-692768d095c4","ios":"levelo://app?vid=ed0dd75a-77b6-48fd-a14f-692768d095c4"},"vehicle_type_id":"4","last_reported":1762456120,"current_range_meters":20000,"station_id":"ce4bh2p2rcd13ifvqdi0","pricing_plan_id":"cebpf4jnsgd1na2vs0mg"},{"bike_id":"0a693bd9-ea79-409d-9256-4f1db0292c0c","system_id":"levelo_inurba_marseille","lat":43.297071,"lon":5.362925,"is_reserved":false,"is_disabled":false,"rental_uris":{"android":"levelo://app?vid=0a693bd9-ea79-409d-9256-4f1db0292c0c","ios":"levelo://app?vid=0a693bd9-ea79-409d-9256-4f1db0292c0c"},"vehicle_type_id":"4","last_reported":1762456120,"current_range_meters":20000,"station_id":"","pricing_plan_id":"cebpf4jnsgd1na2vs0mg"},{"bike_id":"5b03e0a7-e5b7-4bb1-a15f-78dcdc45fd57","system_id":"levelo_inurba_marseille","lat":43.23154,"lon":5.43711,"is_reserved":false,"is_disabled":false,"rental_uris":{"android":"levelo://app?vid=5b03e0a7-e5b7-4bb1-a15f-78dcdc45fd57","ios":"levelo://app?vid=5b03e0a7-e5b7-4bb1-a15f-78dcdc45fd57"},"vehicle_type_id":"4","last_reported":1762456120,"current_range_meters":20000,"station_id":"ce4bhmp2rcd13ifvqgog","pricing_plan_id":"cebpf4jnsgd1na2vs0mg"},{"bike_id":"a718cc29-6f54-49e3-862a-351d7a32001f","system_id":"levelo_inurba_marseille","lat":43.28529,"lon":5.48399,"is_reserved":false,"is_disabled":false,"rental_uris":{"android":"levelo://app?vid=a718cc29-6f54-49e3-862a-351d7a32001f","ios":"levelo://app?vid=a718cc29-6f54-49e3-862a-351d7a32001f"},"vehicle_type_id":"4","last_reported":1762456120,"current_range_meters":20000,"station_id":"","pricing_plan_id":"cebpf4jnsgd1na2vs0mg"},{"bike_id":"d2270021-6bf8-44d3-8ee4-7a93247c7a5f","system_id":"levelo_inurba_marseille","lat":43.28612,"lon":5.35117,"is_reserved":false,"is_disabled":false,"rental_uris":{"android":"levelo://app?vid=d2270021-6bf8-44d3-8ee4-7a93247c7a5f","ios":"levelo://app?vid=d2270021-6bf8-44d3-8ee4-7a93247c7a5f"},"vehicle_type_id":"4","last_reported":1762456120,"current_range_meters":20000,"station_id":"ce4bhch2rcd13ifvqeug","pricing_plan_id":"cebpf4jnsgd1na2vs0mg"},{"bike_id":"88722cbb-56a3-4f2a-8d3d-f62e66eae1d6","system_id":"levelo_inurba_marseille","lat":43.29164,"lon":5.37163,"is_reserved":false,"is_disabled":false,"rental_uris":{"android":"levelo://app?vid=88722cbb-56a3-4f2a-8d3d-f62e66eae1d6","ios":"levelo://app?vid=88722cbb-56a3-4f2a-8d3d-f62e66eae1d6"},"vehicle_type_id":"4","last_reported":1762456120,"current_range_meters":20000,"station_id":"ce4bha92rcd13ifvqeh0","pricing_plan_id":"cebpf4jnsgd1na2vs0mg"},{"bike_id":"0236ac4e-72be-4155-9d27-45ec528c0391","system_id":"levelo_inurba_marseille","lat":43.26004,"lon":5.41756,"is_reserved":false,"is_disabled":false,"rental_uris":{"android":"levelo://app?vid=0236ac4e-72be-4155-9d27-45ec528c0391","ios":"levelo://app?vid=0236ac4e-72be-4155-9d27-45ec528c0391"},"vehicle_type_id":"4","last_reported":1762456120,"current_range_meters":20400,"station_id":"","pricing_plan_id":"cebpf4jnsgd1na2vs0mg"},{"bike_id":"22918fb7-a391-4f35-8c21-8eb60e2ab03f","system_id":"levelo_inurba_marseille","lat":43.2255,"lon":5.4163,"is_reserved":false,"is_disabled":false,"rental_uris":{"android":"levelo://app?vid=22918fb7-a391-4f35-8c21-8eb60e2ab03f","ios":"levelo://app?vid=22918fb7-a391-4f35-8c21-8eb60e2ab03f"},"vehicle_type_id":"4","last_reported":1762456120,"current_range_meters":20400,"station_id":"st_d2o4gvlbi1j2169b742g","pricing_plan_id":"cebpf4jnsgd1na2vs0mg"},{"bike_id":"9af0687b-3e79-4e11-b844-dd239618aeba","system_id":"levelo_inurba_marseille","lat":43.28881,"lon":5.425,"is_reserved":false,"is_disabled":false,"rental_uris":{"android":"levelo://app?vid=9af0687b-3e79-4e11-b844-dd239618aeba","ios":"levelo://app?vid=9af0687b-3e79-4e11-b844-dd239618aeba"},"vehicle_type_id":"4","last_reported":1762456120,"current_range_meters":20400,"station_id":"st_d3b462108ojc7389ooeg","pricing_plan_id":"cebpf4jnsgd1na2vs0mg"},{"bike_id":"cbaf6e70-be37-4c92-8bb7-677f9be0a37d","system_id":"levelo_inurba_marseille","lat":43.3013,"lon":5.431,"is_reserved":false,"is_disabled":false,"rental_uris":{"android":"levelo://app?vid=cbaf6e70-be37-4c92-8bb7-677f9be0a37d","ios":"levelo://app?vid=cbaf6e70-be37-4c92-8bb7-677f9be0a37d"},"vehicle_type_id":"4","last_reported":1762456120,"current_range_meters":20400,"station_id":"st_d3js3co5814s73ftftug","pricing_plan_id":"cebpf4jnsgd1na2vs0mg"},{"bike_id":"96cc7a39-a6ae-4e7d-87f5-3c2bdbdfc0ea","system_id":"levelo_inurba_marseille","lat":43.23181,"lon":5.39984,"is_reserved":false,"is_disabled":false,"rental_uris":{"android":"levelo://app?vid=96cc7a39-a6ae-4e7d-87f5-3c2bdbdfc0ea","ios":"levelo://app?vid=96cc7a39-a6ae-4e7d-87f5-3c2bdbdfc0ea"},"vehicle_type_id":"4","last_reported":1762456120,"current_range_meters":20400,"station_id":"ce4bhn12rcd13ifvqgqg","pricing_plan_id":"cebpf4jnsgd1na2vs0mg"},{"bike_id":"9e99e30a-2056-4ac4-af06-9928a87c3521","system_id":"levelo_inurba_marseille","lat":43.283427,"lon":5.381042,"is_reserved":false,"is_disabled":false,"rental_uris":{"android":"levelo://app?vid=9e99e30a-2056-4ac4-af06-9928a87c3521","ios":"levelo://app?vid=9e99e30a-2056-4ac4-af06-9928a87c3521"},"vehicle_type_id":"4","last_reported":1762456120,"current_range_meters":20800,"station_id":"ce4bh412rcd13ifvqdr0","pricing_plan_id":"cebpf4jnsgd1na2vs0mg"},{"bike_id":"f4a31bd8-b6ca-4d2b-9c79-309bc9179a63","system_id":"levelo_inurba_marseille","lat":43.25522,"lon":5.37673,"is_reserved":false,"is_disabled":false,"rental_uris":{"android":"levelo://app?vid=f4a31bd8-b6ca-4d2b-9c79-309bc9179a63","ios":"levelo://app?vid=f4a31bd8-b6ca-4d2b-9c79-309bc9179a63"},"vehicle_type_id":"4","last_reported":1762456120,"current_range_meters":20800,"station_id":"ce4bhh12rcd13ifvqff0","pricing_plan_id":"cebpf4jnsgd1na2vs0mg"},{"bike_id":"2bc35301-5d1d-49b4-8ced-c4286b076e2b","system_id":"levelo_inurba_marseille","lat":43.31362,"lon":5.38486,"is_reserved":false,"is_disabled":false,"rental_uris":{"android":"levelo://app?vid=2bc35301-5d1d-49b4-8ced-c4286b076e2b","ios":"levelo://app?vid=2bc35301-5d1d-49b4-8ced-c4286b076e2b"},"vehicle_type_id":"4","last_reported":1762456120,"current_range_meters":20800,"station_id":"ce4bgt92rcd13ifvqcf0","pricing_plan_id":"cebpf4jnsgd1na2vs0mg"},{"bike_id":"adc728c4-7d88-468c-be89-220c19218372","system_id":"levelo_inurba_marseille","lat":43.3219,"lon":5.3787,"is_reserved":false,"is_disabled":false,"rental_uris":{"android":"levelo://app?vid=adc728c4-7d88-468c-be89-220c19218372","ios":"levelo://app?vid=adc728c4-7d88-468c-be89-220c19218372"},"vehicle_type_id":"4","last_reported":1762456120,"current_range_meters":20800,"station_id":"","pricing_plan_id":"cebpf4jnsgd1na2vs0mg"},{"bike_id":"101702e2-1b44-4c12-bcf9-5c543e0da166","system_id":"levelo_inurba_marseille","lat":43.3212,"lon":5.36765,"is_reserved":false,"is_disabled":false,"rental_uris":{"android":"levelo://app?vid=101702e2-1b44-4c12-bcf9-5c543e0da166","ios":"levelo://app?vid=101702e2-1b44-4c12-bcf9-5c543e0da166"},"vehicle_type_id":"4","last_reported":1762456120,"current_range_meters":20800,"station_id":"ce4bhrh2rcd13ifvqhug","pricing_plan_id":"cebpf4jnsgd1na2vs0mg"},{"bike_id":"77f8622c-e666-4a4a-b5de-f97e102ed591","system_id":"levelo_inurba_marseille","lat":43.23153,"lon":5.43708,"is_reserved":false,"is_disabled":false,"rental_uris":{"android":"levelo://app?vid=77f8622c-e666-4a4a-b5de-f97e102ed591","ios":"levelo://app?vid=77f8622c-e666-4a4a-b5de-f97e102ed591"},"vehicle_type_id":"4","last_reported":1762456120,"current_range_meters":20800,"station_id":"ce4bhmp2rcd13ifvqgog","pricing_plan_id":"cebpf4jnsgd1na2vs0mg"},{"bike_id":"684e1ab9-d3e3-494c-9783-db6329bbc12b","system_id":"levelo_inurba_marseille","lat":43.297844,"lon":5.36435,"is_reserved":false,"is_disabled":false,"rental_uris":{"android":"levelo://app?vid=684e1ab9-d3e3-494c-9783-db6329bbc12b","ios":"levelo://app?vid=684e1ab9-d3e3-494c-9783-db6329bbc12b"},"vehicle_type_id":"4","last_reported":1762456120,"current_range_meters":20800,"station_id":"ce4bgm92rcd13ifvqbr0","pricing_plan_id":"cebpf4jnsgd1na2vs0mg"},{"bike_id":"8e4d1b5b-b5b9-49d8-8947-f984cd0c32db","system_id":"levelo_inurba_marseille","lat":43.30318,"lon":5.3691,"is_reserved":false,"is_disabled":false,"rental_uris":{"android":"levelo://app?vid=8e4d1b5b-b5b9-49d8-8947-f984cd0c32db","ios":"levelo://app?vid=8e4d1b5b-b5b9-49d8-8947-f984cd0c32db"},"vehicle_type_id":"4","last_reported":1762456120,"current_range_meters":20800,"station_id":"ce4bgqh2rcd13ifvqc5g","pricing_plan_id":"cebpf4jnsgd1na2vs0mg"},{"bike_id":"09742958-d3e6-4ec0-b4f0-504594c894d6","system_id":"levelo_inurba_marseille","lat":43.29275,"lon":5.40144,"is_reserved":false,"is_disabled":false,"rental_uris":{"android":"levelo://app?vid=09742958-d3e6-4ec0-b4f0-504594c894d6","ios":"levelo://app?vid=09742958-d3e6-4ec0-b4f0-504594c894d6"},"vehicle_type_id":"4","last_reported":1762456120,"current_range_meters":21600,"station_id":"ce4bh312rcd13ifvqdk0","pricing_plan_id":"cebpf4jnsgd1na2vs0mg"},{"bike_id":"c448769d-72a1-4a2a-80b2-791ccf525608","system_id":"levelo_inurba_marseille","lat":43.25704,"lon":5.40954,"is_reserved":false,"is_disabled":false,"rental_uris":{"android":"levelo://app?vid=c448769d-72a1-4a2a-80b2-791ccf525608","ios":"levelo://app?vid=c448769d-72a1-4a2a-80b2-791ccf525608"},"vehicle_type_id":"4","last_reported":1762456120,"current_range_meters":21600,"station_id":"","pricing_plan_id":"cebpf4jnsgd1na2vs0mg"},{"bike_id":"75d7dc47-dceb-471d-8668-ef13189f4f02","system_id":"levelo_inurba_marseille","lat":43.32362,"lon":5.36751,"is_reserved":false,"is_disabled":false,"rental_uris":{"android":"levelo://app?vid=75d7dc47-dceb-471d-8668-ef13189f4f02","ios":"levelo://app?vid=75d7dc47-dceb-471d-8668-ef13189f4f02"},"vehicle_type_id":"4","last_reported":1762456120,"current_range_meters":21600,"station_id":"ce4bhsh2rcd13ifvqi2g","pricing_plan_id":"cebpf4jnsgd1na2vs0mg"},{"bike_id":"4297aaf6-744a-4771-b441-342f845ef03c","system_id":"levelo_inurba_marseille","lat":43.26695,"lon":5.38268,"is_reserved":false,"is_disabled":true,"rental_uris":{"android":"levelo://app?vid=4297aaf6-744a-4771-b441-342f845ef03c","ios":"levelo://app?vid=4297aaf6-744a-4771-b441-342f845ef03c"},"vehicle_type_id":"4","last_reported":1762456120,"current_range_meters":21600,"station_id":"ce4bhg92rcd13ifvqf90","pricing_plan_id":"cebpf4jnsgd1na2vs0mg"},{"bike_id":"dbee49ee-a6a4-424c-8899-e49861d4509e","system_id":"levelo_inurba_marseille","lat":43.28183,"lon":5.38577,"is_reserved":false,"is_disabled":false,"rental_uris":{"android":"levelo://app?vid=dbee49ee-a6a4-424c-8899-e49861d4509e","ios":"levelo://app?vid=dbee49ee-a6a4-424c-8899-e49861d4509e"},"vehicle_type_id":"4","last_reported":1762456120,"current_range_meters":21600,"station_id":"","pricing_plan_id":"cebpf4jnsgd1na2vs0mg"},{"bike_id":"d0bcad29-eafb-4526-b711-d22ba2919f6b","system_id":"levelo_inurba_marseille","lat":43.30311,"lon":5.36894,"is_reserved":false,"is_disabled":false,"rental_uris":{"android":"levelo://app?vid=d0bcad29-eafb-4526-b711-d22ba2919f6b","ios":"levelo://app?vid=d0bcad29-eafb-4526-b711-d22ba2919f6b"},"vehicle_type_id":"4","last_reported":1762456120,"current_range_meters":21600,"station_id":"ce4bgqh2rcd13ifvqc5g","pricing_plan_id":"cebpf4jnsgd1na2vs0mg"},{"bike_id":"b475319b-5fb0-4db9-959e-91762c4798b3","system_id":"levelo_inurba_marseille","lat":43.29272,"lon":5.38441,"is_reserved":false,"is_disabled":false,"rental_uris":{"android":"levelo://app?vid=b475319b-5fb0-4db9-959e-91762c4798b3","ios":"levelo://app?vid=b475319b-5fb0-4db9-959e-91762c4798b3"},"vehicle_type_id":"4","last_reported":1762456120,"current_range_meters":21600,"station_id":"ce4bh692rcd13ifvqea0","pricing_plan_id":"cebpf4jnsgd1na2vs0mg"},{"bike_id":"74bb8ce2-1ec5-4414-94bf-bc4889d1e14c","system_id":"levelo_inurba_marseille","lat":43.3248,"lon":5.39523,"is_reserved":false,"is_disabled":false,"rental_uris":{"android":"levelo://app?vid=74bb8ce2-1ec5-4414-94bf-bc4889d1e14c","ios":"levelo://app?vid=74bb8ce2-1ec5-4414-94bf-bc4889d1e14c"},"vehicle_type_id":"4","last_reported":1762456120,"current_range_meters":21600,"station_id":"","pricing_plan_id":"cebpf4jnsgd1na2vs0mg"},{"bike_id":"23129c13-b1b4-4b90-85f7-5a3fe4251f0c","system_id":"levelo_inurba_marseille","lat":43.31057,"lon":5.38623,"is_reserved":false,"is_disabled":false,"rental_uris":{"android":"levelo://app?vid=23129c13-b1b4-4b90-85f7-5a3fe4251f0c","ios":"levelo://app?vid=23129c13-b1b4-4b90-85f7-5a3fe4251f0c"},"vehicle_type_id":"4","last_reported":1762456120,"current_range_meters":21600,"station_id":"","pricing_plan_id":"cebpf4jnsgd1na2vs0mg"},{"bike_id":"2c17eeb7-e808-46be-b258-0d75b2e03425","system_id":"levelo_inurba_marseille","lat":43.29599,"lon":5.381021,"is_reserved":false,"is_disabled":false,"rental_uris":{"android":"levelo://app?vid=2c17eeb7-e808-46be-b258-0d75b2e03425","ios":"levelo://app?vid=2c17eeb7-e808-46be-b258-0d75b2e03425"},"vehicle_type_id":"4","last_reported":1762456120,"current_range_meters":22000,"station_id":"ce4bgl92rcd13ifvqbq0","pricing_plan_id":"cebpf4jnsgd1na2vs0mg"},{"bike_id":"59708499-0e55-43f3-9f3c-032e7587d869","system_id":"levelo_inurba_marseille","lat":43.24076,"lon":5.37758,"is_reserved":false,"is_disabled":false,"rental_uris":{"android":"levelo://app?vid=59708499-0e55-43f3-9f3c-032e7587d869","ios":"levelo://app?vid=59708499-0e55-43f3-9f3c-032e7587d869"},"vehicle_type_id":"4","last_reported":1762456120,"current_range_meters":22000,"station_id":"ce4bhnp2rcd13ifvqgvg","pricing_plan_id":"cebpf4jnsgd1na2vs0mg"},{"bike_id":"1c6c8640-b108-4277-8d69-9014077e683f","system_id":"levelo_inurba_marseille","lat":43.30559,"lon":5.36747,"is_reserved":false,"is_disabled":false,"rental_uris":{"android":"levelo://app?vid=1c6c8640-b108-4277-8d69-9014077e683f","ios":"levelo://app?vid=1c6c8640-b108-4277-8d69-9014077e683f"},"vehicle_type_id":"4","last_reported":1762456120,"current_range_meters":22000,"station_id":"ce4bgrp2rcd13ifvqc9g","pricing_plan_id":"cebpf4jnsgd1na2vs0mg"},{"bike_id":"87e687f9-66c1-4b42-8294-9162dcde2558","system_id":"levelo_inurba_marseille","lat":43.27914,"lon":5.3958,"is_reserved":false,"is_disabled":false,"rental_uris":{"android":"levelo://app?vid=87e687f9-66c1-4b42-8294-9162dcde2558","ios":"levelo://app?vid=87e687f9-66c1-4b42-8294-9162dcde2558"},"vehicle_type_id":"4","last_reported":1762456120,"current_range_meters":22000,"station_id":"ce4bhf92rcd13ifvqf40","pricing_plan_id":"cebpf4jnsgd1na2vs0mg"},{"bike_id":"22fed03e-b30a-44e2-9178-38877ca2e9b4","system_id":"levelo_inurba_marseille","lat":43.33022,"lon":5.39042,"is_reserved":false,"is_disabled":false,"rental_uris":{"android":"levelo://app?vid=22fed03e-b30a-44e2-9178-38877ca2e9b4","ios":"levelo://app?vid=22fed03e-b30a-44e2-9178-38877ca2e9b4"},"vehicle_type_id":"4","last_reported":1762456120,"current_range_meters":22000,"station_id":"ce4bhr92rcd13ifvqhrg","pricing_plan_id":"cebpf4jnsgd1na2vs0mg"},{"bike_id":"bc1d3d7f-a2eb-43c7-8bb8-ab0c93529967","system_id":"levelo_inurba_marseille","lat":43.24399,"lon":5.37066,"is_reserved":false,"is_disabled":false,"rental_uris":{"android":"levelo://app?vid=bc1d3d7f-a2eb-43c7-8bb8-ab0c93529967","ios":"levelo://app?vid=bc1d3d7f-a2eb-43c7-8bb8-ab0c93529967"},"vehicle_type_id":"4","last_reported":1762456120,"current_range_meters":22400,"station_id":"ce4bhhh2rcd13ifvqfk0","pricing_plan_id":"cebpf4jnsgd1na2vs0mg"},{"bike_id":"67d92443-261c-4064-8e94-eb08c0497a74","system_id":"levelo_inurba_marseille","lat":43.29038,"lon":5.38634,"is_reserved":false,"is_disabled":false,"rental_uris":{"android":"levelo://app?vid=67d92443-261c-4064-8e94-eb08c0497a74","ios":"levelo://app?vid=67d92443-261c-4064-8e94-eb08c0497a74"},"vehicle_type_id":"4","last_reported":1762456120,"current_range_meters":22400,"station_id":"ce4bh4p2rcd13ifvqe0g","pricing_plan_id":"cebpf4jnsgd1na2vs0mg"},{"bike_id":"514003a6-df36-471b-be9e-811d4c4f75a5","system_id":"levelo_inurba_marseille","lat":43.2893,"lon":5.38391,"is_reserved":false,"is_disabled":false,"rental_uris":{"android":"levelo://app?vid=514003a6-df36-471b-be9e-811d4c4f75a5","ios":"levelo://app?vid=514003a6-df36-471b-be9e-811d4c4f75a5"},"vehicle_type_id":"4","last_reported":1762456120,"current_range_meters":22400,"station_id":"ce4bh612rcd13ifvqe6g","pricing_plan_id":"cebpf4jnsgd1na2vs0mg"},{"bike_id":"5fff5486-6e7f-42de-9e12-db9dbaa3c695","system_id":"levelo_inurba_marseille","lat":43.28001,"lon":5.40013,"is_reserved":false,"is_disabled":false,"rental_uris":{"android":"levelo://app?vid=5fff5486-6e7f-42de-9e12-db9dbaa3c695","ios":"levelo://app?vid=5fff5486-6e7f-42de-9e12-db9dbaa3c695"},"vehicle_type_id":"4","last_reported":1762456120,"current_range_meters":22400,"station_id":"ce4bho92rcd13ifvqh4g","pricing_plan_id":"cebpf4jnsgd1na2vs0mg"},