{"last_updated":1722283748,"ttl":30,"version":"2.2","data":{"bikes":[{"bike_id":"def5710e-d266-4f5d-9f1f-fd3103fccbef","system_id":"levelo_inurba_marseille","lat":43.31243,"lon":5.36825,"is_reserved":false,"is_disabled":false,"rental_uris":{"android":"levelo://app?vid=def5710e-d266-4f5d-9f1f-fd3103fccbef","ios":"levelo://app?vid=def5710e-d266-4f5d-9f1f-fd3103fccbef"},"vehicle_type_id":"4","last_reported":1722283748,"current_range_meters":2000,"station_id":"","pricing_plan_id":"cebpf4jnsgd1na2vs0mg"},{"bike_id":"b600dce5-74ab-44b3-982c-e3b3c401978b","system_id":"levelo_inurba_marseille","lat":43.31233,"lon":5.36848,"is_reserved":false,"is_disabled":false,"rental_uris":{"android":"levelo://app?vid=b600dce5-74ab-44b3-982c-e3b3c401978b","ios":"levelo://app?vid=b600dce5-74ab-44b3-982c-e3b3c401978b"},"vehicle_type_id":"4","last_reported":1722283748,"current_range_meters":0,"station_id":"ce4bgl92rcd13ifvqbq0","pricing_plan_id":"cebpf4jnsgd1na2vs0mg"},{"bike_id":"97319a2f-0ccd-4263-a04a-6ef72749776e","system_id":"levelo_inurba_marseille","lat":43.31227,"lon":5.36854,"is_reserved":false,"is_disabled":false,"rental_uris":{"android":"levelo://app?vid=97319a2f-0ccd-4263-a04a-6ef72749776e","ios":"levelo://app?vid=97319a2f-0ccd-4263-a04a-6ef72749776e"},"vehicle_type_id":"4","last_reported":1722283748,"current_range_meters":3600,"station_id":"ce4bgl92rcd13ifvqbq0","pricing_plan_id":"cebpf4jnsgd1na2vs0mg"},{"bike_id":"8e7bcd4f-ca4b-407d-9b14-741fe7e5fc5d","system_id":"levelo_inurba_marseille","lat":43.31229,"lon":5.368577,"is_reserved":false,"is_disabled":false,"rental_uris":{"android":"levelo://app?vid=8e7bcd4f-ca4b-407d-9b14-741fe7e5fc5d","ios":"levelo://app?vid=8e7bcd4f-ca4b-407d-9b14-741fe7e5fc5d"},"vehicle_type_id":"4","last_reported":1722283748,"current_range_meters":0,"station_id":"ce4bgl92rcd13ifvqbq0","pricing_plan_id":"cebpf4jnsgd1na2vs0mg"},{"bike_id":"9f691cbd-e2ba-4ea2-bf8a-4a0dc4abdf83","system_id":"levelo_inurba_marseille","lat":43.312239,"lon":5.368562,"is_reserved":false,"is_disabled":false,"rental_uris":{"android":"levelo://app?vid=9f691cbd-e2ba-4ea2-bf8a-4a0dc4abdf83","ios":"levelo://app?vid=9f691cbd-e2ba-4ea2-bf8a-4a0dc4abdf83"},"vehicle_type_id":"4","last_reported":1722283748,"current_range_meters":6000,"station_id":"ce4bgl92rcd13ifvqbq0","pricing_plan_id":"cebpf4jnsgd1na2vs0mg"},{"bike_id":"eb13b83d-f798-431e-98f6-ea4aafec9191","system_id":"levelo_inurba_marseille","lat":43.31227,"lon":5.368637,"is_reserved":false,"is_disabled":false,"rental_uris":{"android":"levelo://app?vid=eb13b83d-f798-431e-98f6-ea4aafec9191","ios":"levelo://app?vid=eb13b83d-f798-431e-98f6-ea4aafec9191"},"vehicle_type_id":"4","last_reported":1722283748,"current_range_meters":0,"station_id":"ce4bgl92rcd13ifvqbq0","pricing_plan_id":"cebpf4jnsgd1na2vs0mg"},{"bike_id":"50179df2-d287-438c-acdf-e76c12b895cd","system_id":"levelo_inurba_marseille","lat":43.309076,"lon":5.368465,"is_reserved":false,"is_disabled":false,"rental_uris":{"android":"levelo://app?vid=50179df2-d287-438c-acdf-e76c12b895cd","ios":"levelo://app?vid=50179df2-d287-438c-acdf-e76c12b895cd"},"vehicle_type_id":"4","last_reported":1722283748,"current_range_meters":1600,"station_id":"ce4bgn92rcd13ifvqbvg","pricing_plan_id":"cebpf4jnsgd1na2vs0mg"},{"bike_id":"dbac5a5d-d772-4e54-a653-ca6975342fcb","system_id":"levelo_inurba_marseille","lat":43.30907,"lon":5.36845,"is_reserved":false,"is_disabled":false,"rental_uris":{"android":"levelo://app?vid=dbac5a5d-d772-4e54-a653-ca6975342fcb","ios":"levelo://app?vid=dbac5a5d-d772-4e54-a653-ca6975342fcb"},"vehicle_type_id":"4","last_reported":1722283748,"current_range_meters":0,"station_id":"ce4bgn92rcd13ifvqbvg","pricing_plan_id":"cebpf4jnsgd1na2vs0mg"},{"bike_id":"ecdea441-41ec-478e-8be2-c97fa19dbcb2","system_id":"levelo_inurba_marseille","lat":43.309076,"lon":5.368465,"is_reserved":false,"is_disabled":false,"rental_uris":{"android":"levelo://app?vid=ecdea441-41ec-478e-8be2-c97fa19dbcb2","ios":"levelo://app?vid=ecdea441-41ec-478e-8be2-c97fa19dbcb2"},"vehicle_type_id":"4","last_reported":1722283748,"current_range_meters":0,"station_id":"ce4bgn92rcd13ifvqbvg","pricing_plan_id":"cebpf4jnsgd1na2vs0mg"},{"bike_id":"d366aaf1-8b3c-45e2-ad95-38c8cc96e64d","system_id":"levelo_inurba_marseille","lat":43.3149,"lon":5.37308,"is_reserved":false,"is_disabled":false,"rental_uris":{"android":"levelo://app?vid=d366aaf1-8b3c-45e2-ad95-38c8cc96e64d","ios":"levelo://app?vid=d366aaf1-8b3c-45e2-ad95-38c8cc96e64d"},"vehicle_type_id":"4","last_reported":1722283748,"current_range_meters":28000,"station_id":"ce4bgt12rcd13ifvqcd0","pricing_plan_id":"cebpf4jnsgd1na2vs0mg"},{"bike_id":"efcbe44f-1bf5-4415-9e68-b55f446cdb23","system_id":"levelo_inurba_marseille","lat":43.31492,"lon":5.37313,"is_reserved":false,"is_disabled":false,"rental_uris":{"android":"levelo://app?vid=efcbe44f-1bf5-4415-9e68-b55f446cdb23","ios":"levelo://app?vid=efcbe44f-1bf5-4415-9e68-b55f446cdb23"},"vehicle_type_id":"4","last_reported":1722283748,"current_range_meters":4800,"station_id":"ce4bgt12rcd13ifvqcd0","pricing_plan_id":"cebpf4jnsgd1na2vs0mg"},{"bike_id":"080d38dd-36dd-4127-a603-6667867a3daf","system_id":"levelo_inurba_marseille","lat":43.309039,"lon":5.371797,"is_reserved":false,"is_disabled":false,"rental_uris":{"android":"levelo://app?vid=080d38dd-36dd-4127-a603-6667867a3daf","ios":"levelo://app?vid=080d38dd-36dd-4127-a603-6667867a3daf"},"vehicle_type_id":"4","last_reported":1722283748,"current_range_meters":7200,"station_id":"ce4bguh2rcd13ifvqckg","pricing_plan_id":"cebpf4jnsgd1na2vs0mg"},{"bike_id":"918495d2-d0e1-470b-8365-0d17cdf583a6","system_id":"levelo_inurba_marseille","lat":43.305368,"lon":5.367343,"is_reserved":false,"is_disabled":false,"rental_uris":{"android":"levelo://app?vid=918495d2-d0e1-470b-8365-0d17cdf583a6","ios":"levelo://app?vid=918495d2-d0e1-470b-8365-0d17cdf583a6"},"vehicle_type_id":"4","last_reported":1722283748,"current_range_meters":9200,"station_id":"ce4bgrp2rcd13ifvqc9g","pricing_plan_id":"cebpf4jnsgd1na2vs0mg"},{"bike_id":"1efe3508-61b9-4347-a2bf-ff1d22e1ef7a","system_id":"levelo_inurba_marseille","lat":43.305989,"lon":5.37225,"is_reserved":false,"is_disabled":false,"rental_uris":{"android":"levelo://app?vid=1efe3508-61b9-4347-a2bf-ff1d22e1ef7a","ios":"levelo://app?vid=1efe3508-61b9-4347-a2bf-ff1d22e1ef7a"},"vehicle_type_id":"4","last_reported":1722283748,"current_range_meters":400,"station_id":"ce4bgqh2rcd13ifvqc4g","pricing_plan_id":"cebpf4jnsgd1na2vs0mg"},{"bike_id":"dd0c037f-1878-433d-a3d4-c976c87af073","system_id":"levelo_inurba_marseille","lat":43.311167,"lon":5.377614,"is_reserved":false,"is_disabled":false,"rental_uris":{"android":"levelo://app?vid=dd0c037f-1878-433d-a3d4-c976c87af073","ios":"levelo://app?vid=dd0c037f-1878-433d-a3d4-c976c87af073"},"vehicle_type_id":"4","last_reported":1722283748,"current_range_meters":0,"station_id":"ce4bgt92rcd13ifvqcg0","pricing_plan_id":"cebpf4jnsgd1na2vs0mg"},{"bike_id":"10085715-23d2-4046-a560-986cd0d74193","system_id":"levelo_inurba_marseille","lat":43.307945,"lon":5.376487,"is_reserved":false,"is_disabled":false,"rental_uris":{"android":"levelo://app?vid=10085715-23d2-4046-a560-986cd0d74193","ios":"levelo://app?vid=10085715-23d2-4046-a560-986cd0d74193"},"vehicle_type_id":"4","last_reported":1722283748,"current_range_meters":20000,"station_id":"ce4bgv92rcd13ifvqcq0","pricing_plan_id":"cebpf4jnsgd1na2vs0mg"},{"bike_id":"636b6b98-514f-4e50-9ba0-0a6085e416d0","system_id":"levelo_inurba_marseille","lat":43.307945,"lon":5.376487,"is_reserved":false,"is_disabled":false,"rental_uris":{"android":"levelo://app?vid=636b6b98-514f-4e50-9ba0-0a6085e416d0","ios":"levelo://app?vid=636b6b98-514f-4e50-9ba0-0a6085e416d0"},"vehicle_type_id":"4","last_reported":1722283748,"current_range_meters":14400,"station_id":"ce4bgv92rcd13ifvqcq0","pricing_plan_id":"cebpf4jnsgd1na2vs0mg"},{"bike_id":"3437cab5-4d61-41f2-9e9e-de07a1900aff","system_id":"levelo_inurba_marseille","lat":43.307945,"lon":5.376487,"is_reserved":false,"is_disabled":false,"rental_uris":{"android":"levelo://app?vid=3437cab5-4d61-41f2-9e9e-de07a1900aff","ios":"levelo://app?vid=3437cab5-4d61-41f2-9e9e-de07a1900aff"},"vehicle_type_id":"4","last_reported":1722283748,"current_range_meters":29200,"station_id":"ce4bgv92rcd13ifvqcq0","pricing_plan_id":"cebpf4jnsgd1na2vs0mg"},{"bike_id":"e31f90ea-7cca-4dcb-bfc9-467e6c9667a0","system_id":"levelo_inurba_marseille","lat":43.317075,"lon":5.377367,"is_reserved":false,"is_disabled":false,"rental_uris":{"android":"levelo://app?vid=e31f90ea-7cca-4dcb-bfc9-467e6c9667a0","ios":"levelo://app?vid=e31f90ea-7cca-4dcb-bfc9-467e6c9667a0"},"vehicle_type_id":"4","last_reported":1722283748,"current_range_meters":22000,"station_id":"ce4bgth2rcd13ifvqch0","pricing_plan_id":"cebpf4jnsgd1na2vs0mg"},{"bike_id":"b8280a5e-10c9-4932-93ef-c7e48a1330df","system_id":"levelo_inurba_marseille","lat":43.317075,"lon":5.377367,"is_reserved":false,"is_disabled":false,"rental_uris":{"android":"levelo://app?vid=b8280a5e-10c9-4932-93ef-c7e48a1330df","ios":"levelo://app?vid=b8280a5e-10c9-4932-93ef-c7e48a1330df"},"vehicle_type_id":"4","last_reported":1722283748,"current_range_meters":6400,"station_id":"ce4bgth2rcd13ifvqch0","pricing_plan_id":"cebpf4jnsgd1na2vs0mg"},{"bike_id":"52168e9c-4ab2-4c91-860a-ae11ae35f7c5","system_id":"levelo_inurba_marseille","lat":43.317075,"lon":5.377367,"is_reserved":false,"is_disabled":false,"rental_uris":{"android":"levelo://app?vid=52168e9c-4ab2-4c91-860a-ae11ae35f7c5","ios":"levelo://app?vid=52168e9c-4ab2-4c91-860a-ae11ae35f7c5"},"vehicle_type_id":"4","last_reported":1722283748,"current_range_meters":28000,"station_id":"ce4bgth2rcd13ifvqch0","pricing_plan_id":"cebpf4jnsgd1na2vs0mg"},{"bike_id":"2da070f6-a457-4b0a-8ec2-7005b9088380","system_id":"levelo_inurba_marseille","lat":43.315289,"lon":5.380349,"is_reserved":false,"is_disabled":false,"rental_uris":{"android":"levelo://app?vid=2da070f6-a457-4b0a-8ec2-7005b9088380","ios":"levelo://app?vid=2da070f6-a457-4b0a-8ec2-7005b9088380"},"vehicle_type_id":"4","last_reported":1722283748,"current_range_meters":2000,"station_id":"ce4bhsp2rcd13ifvqi50","pricing_plan_id":"cebpf4jnsgd1na2vs0mg"},{"bike_id":"6ebac61a-553b-4978-8d53-7ea32375e1ea","system_id":"levelo_inurba_marseille","lat":43.301939,"lon":5.366286,"is_reserved":false,"is_disabled":false,"rental_uris":{"android":"levelo://app?vid=6ebac61a-553b-4978-8d53-7ea32375e1ea","ios":"levelo://app?vid=6ebac61a-553b-4978-8d53-7ea32375e1ea"},"vehicle_type_id":"4","last_reported":1722283748,"current_range_meters":12400,"station_id":"ce4bgrh2rcd13ifvqc8g","pricing_plan_id":"cebpf4jnsgd1na2vs0mg"},{"bike_id":"a282bc8f-e6d4-40bb-a7c8-3c7c0acdbbcb","system_id":"levelo_inurba_marseille","lat":43.301939,"lon":5.366286,"is_reserved":false,"is_disabled":false,"rental_uris":{"android":"levelo://app?vid=a282bc8f-e6d4-40bb-a7c8-3c7c0acdbbcb","ios":"levelo://app?vid=a282bc8f-e6d4-40bb-a7c8-3c7c0acdbbcb"},"vehicle_type_id":"4","last_reported":1722283748,"current_range_meters":12400,"station_id":"ce4bgrh2rcd13ifvqc8g","pricing_plan_id":"cebpf4jnsgd1na2vs0mg"},{"bike_id":"50c43493-c06f-4611-af93-25a1928df92a","system_id":"levelo_inurba_marseille","lat":43.308012,"lon":5.381511,"is_reserved":false,"is_disabled":false,"rental_uris":{"android":"levelo://app?vid=50c43493-c06f-4611-af93-25a1928df92a","ios":"levelo://app?vid=50c43493-c06f-4611-af93-25a1928df92a"},"vehicle_type_id":"4","last_reported":1722283748,"current_range_meters":3200,"station_id":"ce4bgt12rcd13ifvqce0","pricing_plan_id":"cebpf4jnsgd1na2vs0mg"},{"bike_id":"11337172-1a4d-4988-9bbe-cc581a9cae76","system_id":"levelo_inurba_marseille","lat":43.308012,"lon":5.381511,"is_reserved":false,"is_disabled":false,"rental_uris":{"android":"levelo://app?vid=11337172-1a4d-4988-9bbe-cc581a9cae76","ios":"levelo://app?vid=11337172-1a4d-4988-9bbe-cc581a9cae76"},"vehicle_type_id":"4","last_reported":1722283748,"current_range_meters":12400,"station_id":"ce4bgt12rcd13ifvqce0","pricing_plan_id":"cebpf4jnsgd1na2vs0mg"},{"bike_id":"c78fbc47-1b10-4287-ae4b-467375bd990d","system_id":"levelo_inurba_marseille","lat":43.30111,"lon":5.36444,"is_reserved":false,"is_disabled":false,"rental_uris":{"android":"levelo://app?vid=c78fbc47-1b10-4287-ae4b-467375bd990d","ios":"levelo://app?vid=c78fbc47-1b10-4287-ae4b-467375bd990d"},"vehicle_type_id":"4","last_reported":1722283748,"current_range_meters":0,"station_id":"","pricing_plan_id":"cebpf4jnsgd1na2vs0mg"},{"bike_id":"b860bb5f-523b-4242-a573-d5de8d277743","system_id":"levelo_inurba_marseille","lat":43.306873,"lon":5.380967,"is_reserved":false,"is_disabled":false,"rental_uris":{"android":"levelo://app?vid=b860bb5f-523b-4242-a573-d5de8d277743","ios":"levelo://app?vid=b860bb5f-523b-4242-a573-d5de8d277743"},"vehicle_type_id":"4","last_reported":1722283748,"current_range_meters":800,"station_id":"","pricing_plan_id":"cebpf4jnsgd1na2vs0mg"},{"bike_id":"99bd0741-5faa-4815-a2e1-13964c9aab5f","system_id":"levelo_inurba_marseille","lat":43.324771,"lon":5.36557,"is_reserved":false,"is_disabled":false,"rental_uris":{"android":"levelo://app?vid=99bd0741-5faa-4815-a2e1-13964c9aab5f","ios":"levelo://app?vid=99bd0741-5faa-4815-a2e1-13964c9aab5f"},"vehicle_type_id":"4","last_reported":1722283748,"current_range_meters":3200,"station_id":"ce4bhs12rcd13ifvqhvg","pricing_plan_id":"cebpf4jnsgd1na2vs0mg"},{"bike_id":"cf2295fe-e9a5-4fa3-992d-424feac9b7ac","system_id":"levelo_inurba_marseille","lat":43.324771,"lon":5.36557,"is_reserved":false,"is_disabled":false,"rental_uris":{"android":"levelo://app?vid=cf2295fe-e9a5-4fa3-992d-424feac9b7ac","ios":"levelo://app?vid=cf2295fe-e9a5-4fa3-992d-424feac9b7ac"},"vehicle_type_id":"4","last_reported":1722283748,"current_range_meters":6000,"station_id":"ce4bhs12rcd13ifvqhvg","pricing_plan_id":"cebpf4jnsgd1na2vs0mg"},{"bike_id":"bbc4a081-5d44-4c70-aca6-ba0be4373e40","system_id":"levelo_inurba_marseille","lat":43.324771,"lon":5.36557,"is_reserved":false,"is_disabled":false,"rental_uris":{"android":"levelo://app?vid=bbc4a081-5d44-4c70-aca6-ba0be4373e40","ios":"levelo://app?vid=bbc4a081-5d44-4c70-aca6-ba0be4373e40"},"vehicle_type_id":"4","last_reported":1722283748,"current_range_meters":27200,"station_id":"ce4bhs12rcd13ifvqhvg","pricing_plan_id":"cebpf4jnsgd1na2vs0mg"},{"bike_id":"2cea40d3-5fd0-4d75-8dd2-15c4087239df","system_id":"levelo_inurba_marseille","lat":43.324771,"lon":5.36557,"is_reserved":false,"is_disabled":false,"rental_uris":{"android":"levelo://app?vid=2cea40d3-5fd0-4d75-8dd2-15c4087239df","ios":"levelo://app?vid=2cea40d3-5fd0-4d75-8dd2-15c4087239df"},"vehicle_type_id":"4","last_reported":1722283748,"current_range_meters":28400,"station_id":"ce4bhs12rcd13ifvqhvg","pricing_plan_id":"cebpf4jnsgd1na2vs0mg"},{"bike_id":"a7c1ffd1-9fe0-4487-bf27-a30b2301a239","system_id":"levelo_inurba_marseille","lat":43.310804,"lon":5.38359,"is_reserved":false,"is_disabled":false,"rental_uris":{"android":"levelo://app?vid=a7c1ffd1-9fe0-4487-bf27-a30b2301a239","ios":"levelo://app?vid=a7c1ffd1-9fe0-4487-bf27-a30b2301a239"},"vehicle_type_id":"4","last_reported":1722283748,"current_range_meters":4400,"station_id":"ce4bgv92rcd13ifvqcr0","pricing_plan_id":"cebpf4jnsgd1na2vs0mg"},{"bike_id":"f63e09ce-e3c8-4143-9dbb-7a5680b0c604","system_id":"levelo_inurba_marseille","lat":43.304606,"lon":5.379026,"is_reserved":false,"is_disabled":false,"rental_uris":{"android":"levelo://app?vid=f63e09ce-e3c8-4143-9dbb-7a5680b0c604","ios":"levelo://app?vid=f63e09ce-e3c8-4143-9dbb-7a5680b0c604"},"vehicle_type_id":"4","last_reported":1722283748,"current_range_meters":20800,"station_id":"ce4bgup2rcd13ifvqcn0","pricing_plan_id":"cebpf4jnsgd1na2vs0mg"},{"bike_id":"a5c63302-d1f4-4bd9-a350-b445a5c8c3eb","system_id":"levelo_inurba_marseille","lat":43.302784,"lon":5.377158,"is_reserved":false,"is_disabled":false,"rental_uris":{"android":"levelo://app?vid=a5c63302-d1f4-4bd9-a350-b445a5c8c3eb","ios":"levelo://app?vid=a5c63302-d1f4-4bd9-a350-b445a5c8c3eb"},"vehicle_type_id":"4","last_reported":1722283748,"current_range_meters":4800,"station_id":"ce4bguh2rcd13ifvqcj0","pricing_plan_id":"cebpf4jnsgd1na2vs0mg"},{"bike_id":"baff2518-192d-4e03-b6c8-80d7ae052787","system_id":"levelo_inurba_marseille","lat":43.30706,"lon":5.38249,"is_reserved":false,"is_disabled":false,"rental_uris":{"android":"levelo://app?vid=baff2518-192d-4e03-b6c8-80d7ae052787","ios":"levelo://app?vid=baff2518-192d-4e03-b6c8-80d7ae052787"},"vehicle_type_id":"4","last_reported":1722283748,"current_range_meters":400,"station_id":"","pricing_plan_id":"cebpf4jnsgd1na2vs0mg"},{"bike_id":"18d7eb59-bf8e-47e2-858f-5ade3b9b4c59","system_id":"levelo_inurba_marseille","lat":43.319935,"lon":5.381699,"is_reserved":false,"is_disabled":false,"rental_uris":{"android":"levelo://app?vid=18d7eb59-bf8e-47e2-858f-5ade3b9b4c59","ios":"levelo://app?vid=18d7eb59-bf8e-47e2-858f-5ade3b9b4c59"},"vehicle_type_id":"4","last_reported":1722283748,"current_range_meters":4000,"station_id":"ce4bhr12rcd13ifvqhpg","pricing_plan_id":"cebpf4jnsgd1na2vs0mg"},{"bike_id":"71c418ba-9c9e-47bf-af82-11a3bfe14db1","system_id":"levelo_inurba_marseille","lat":43.319963,"lon":5.381603,"is_reserved":false,"is_disabled":false,"rental_uris":{"android":"levelo://app?vid=71c418ba-9c9e-47bf-af82-11a3bfe14db1","ios":"levelo://app?vid=71c418ba-9c9e-47bf-af82-11a3bfe14db1"},"vehicle_type_id":"4","last_reported":1722283748,"current_range_meters":400,"station_id":"ce4bhr12rcd13ifvqhpg","pricing_plan_id":"cebpf4jnsgd1na2vs0mg"},{"bike_id":"a0aacf68-221f-44ff-a245-f29c8bd7eae7","system_id":"levelo_inurba_marseille","lat":43.313571,"lon":5.384829,"is_reserved":false,"is_disabled":false,"rental_uris":{"android":"levelo://app?vid=a0aacf68-221f-44ff-a245-f29c8bd7eae7","ios":"levelo://app?vid=a0aacf68-221f-44ff-a245-f29c8bd7eae7"},"vehicle_type_id":"4","last_reported":1722283748,"current_range_meters":800,"station_id":"ce4bgt92rcd13ifvqcf0","pricing_plan_id":"cebpf4jnsgd1na2vs0mg"},{"bike_id":"26d4ce63-6473-437e-8557-afd6f059f5af","system_id":"levelo_inurba_marseille","lat":43.313571,"lon":5.384829,"is_reserved":false,"is_disabled":false,"rental_uris":{"android":"levelo://app?vid=26d4ce63-6473-437e-8557-afd6f059f5af","ios":"levelo://app?vid=26d4ce63-6473-437e-8557-afd6f059f5af"},"vehicle_type_id":"4","last_reported":1722283748,"current_range_meters":25200,"station_id":"ce4bgt92rcd13ifvqcf0","pricing_plan_id":"cebpf4jnsgd1na2vs0mg"},{"bike_id":"ba51bcde-8add-4ec1-8a90-e5c3ea82f24b","system_id":"levelo_inurba_marseille","lat":43.30141,"lon":5.37633,"is_reserved":false,"is_disabled":false,"rental_uris":{"android":"levelo://app?vid=ba51bcde-8add-4ec1-8a90-e5c3ea82f24b","ios":"levelo://app?vid=ba51bcde-8add-4ec1-8a90-e5c3ea82f24b"},"vehicle_type_id":"4","last_reported":1722283748,"current_range_meters":1600,"station_id":"","pricing_plan_id":"cebpf4jnsgd1na2vs0mg"},{"bike_id":"7c3e0e27-c088-4b8c-b19a-fe29bfb39c45","system_id":"levelo_inurba_marseille","lat":43.299222,"lon":5.365554,"is_reserved":false,"is_disabled":false,"rental_uris":{"android":"levelo://app?vid=7c3e0e27-c088-4b8c-b19a-fe29bfb39c45","ios":"levelo://app?vid=7c3e0e27-c088-4b8c-b19a-fe29bfb39c45"},"vehicle_type_id":"4","last_reported":1722283748,"current_range_meters":2800,"station_id":"ce4bgm92rcd13ifvqbr0","pricing_plan_id":"cebpf4jnsgd1na2vs0mg"},{"bike_id":"3ee70534-e838-4670-a02e-abc4fc44b1f5","system_id":"levelo_inurba_marseille","lat":43.299724,"lon":5.371829,"is_reserved":false,"is_disabled":false,"rental_uris":{"android":"levelo://app?vid=3ee70534-e838-4670-a02e-abc4fc44b1f5","ios":"levelo://app?vid=3ee70534-e838-4670-a02e-abc4fc44b1f5"},"vehicle_type_id":"4","last_reported":1722283748,"current_range_meters":16000,"station_id":"ce4bgr92rcd13ifvqc7g","pricing_plan_id":"cebpf4jnsgd1na2vs0mg"},{"bike_id":"780c49a6-3aad-4244-b1ee-e86591599e14","system_id":"levelo_inurba_marseille","lat":43.299724,"lon":5.371829,"is_reserved":false,"is_disabled":false,"rental_uris":{"android":"levelo://app?vid=780c49a6-3aad-4244-b1ee-e86591599e14","ios":"levelo://app?vid=780c49a6-3aad-4244-b1ee-e86591599e14"},"vehicle_type_id":"4","last_reported":1722283748,"current_range_meters":27600,"station_id":"ce4bgr92rcd13ifvqc7g","pricing_plan_id":"cebpf4jnsgd1na2vs0mg"},{"bike_id":"2fbdf4ad-0ef0-49d2-883c-8f7ca36298cd","system_id":"levelo_inurba_marseille","lat":43.32025,"lon":5.38306,"is_reserved":false,"is_disabled":false,"rental_uris":{"android":"levelo://app?vid=2fbdf4ad-0ef0-49d2-883c-8f7ca36298cd","ios":"levelo://app?vid=2fbdf4ad-0ef0-49d2-883c-8f7ca36298cd"},"vehicle_type_id":"4","last_reported":1722283748,"current_range_meters":24400,"station_id":"","pricing_plan_id":"cebpf4jnsgd1na2vs0mg"},{"bike_id":"166e0923-f8e1-4577-a205-1360b1ef3a39","system_id":"levelo_inurba_marseille","lat":43.32137,"lon":5.38283,"is_reserved":false,"is_disabled":false,"rental_uris":{"android":"levelo://app?vid=166e0923-f8e1-4577-a205-1360b1ef3a39","ios":"levelo://app?vid=166e0923-f8e1-4577-a205-1360b1ef3a39"},"vehicle_type_id":"4","last_reported":1722283748,"current_range_meters":800,"station_id":"","pricing_plan_id":"cebpf4jnsgd1na2vs0mg"},{"bike_id":"38358f88-bad1-48b8-8a32-b0b9be5f1e45","system_id":"levelo_inurba_marseille","lat":43.305364,"lon":5.384119,"is_reserved":false,"is_disabled":false,"rental_uris":{"android":"levelo://app?vid=38358f88-bad1-48b8-8a32-b0b9be5f1e45","ios":"levelo://app?vid=38358f88-bad1-48b8-8a32-b0b9be5f1e45"},"vehicle_type_id":"4","last_reported":1722283748,"current_range_meters":4000,"station_id":"ce4bgg92rcd13ifvqb30","pricing_plan_id":"cebpf4jnsgd1na2vs0mg"},{"bike_id":"1d7d0b23-8054-4709-b90a-4f33fb5f8add","system_id":"levelo_inurba_marseille","lat":43.305364,"lon":5.384119,"is_reserved":false,"is_disabled":false,"rental_uris":{"android":"levelo://app?vid=1d7d0b23-8054-4709-b90a-4f33fb5f8add","ios":"levelo://app?vid=1d7d0b23-8054-4709-b90a-4f33fb5f8add"},"vehicle_type_id":"4","last_reported":1722283748,"current_range_meters":12400,"station_id":"ce4bgg92rcd13ifvqb30","pricing_plan_id":"cebpf4jnsgd1na2vs0mg"},{"bike_id":"837d1adf-9880-4b92-9a8a-512221548333","system_id":"levelo_inurba_marseille","lat":43.299243,"lon":5.37481,"is_reserved":false,"is_disabled":false,"rental_uris":{"android":"levelo://app?vid=837d1adf-9880-4b92-9a8a-512221548333","ios":"levelo://app?vid=837d1adf-9880-4b92-9a8a-512221548333"},"vehicle_type_id":"4","last_reported":1722283748,"current_range_meters":26400,"station_id":"ce4bgjh2rcd13ifvqbg0","pricing_plan_id":"cebpf4jnsgd1na2vs0mg"},{"bike_id":"b4470ea4-8872-45e2-bcc8-19058d387b60","system_id":"levelo_inurba_marseille","lat":43.31167,"lon":5.3871,"is_reserved":false,"is_disabled":false,"rental_uris":{"android":"levelo://app?vid=b4470ea4-8872-45e2-bcc8-19058d387b60","ios":"levelo://app?vid=b4470ea4-8872-45e2-bcc8-19058d387b60"},"vehicle_type_id":"4","last_reported":1722283748,"current_range_meters":0,"station_id":"ce4bgv12rcd13ifvqcp0","pricing_plan_id":"cebpf4jnsgd1na2vs0mg"},{"bike_id":"0b11e633-61a2-451a-8720-c9a24637ef87","system_id":"levelo_inurba_marseille","lat":43.299243,"lon":5.374807,"is_reserved":false,"is_disabled":false,"rental_uris":{"android":"levelo://app?vid=0b11e633-61a2-451a-8720-c9a24637ef87","ios":"levelo://app?vid=0b11e633-61a2-451a-8720-c9a24637ef87"},"vehicle_type_id":"4","last_reported":1722283748,"current_range_meters":4800,"station_id":"ce4bgjh2rcd13ifvqbg0","pricing_plan_id":"cebpf4jnsgd1na2vs0mg"},{"bike_id":"43bdb86b-718d-434e-bb5c-38e7240016d4","system_id":"levelo_inurba_marseille","lat":43.311722,"lon":5.387247,"is_reserved":false,"is_disabled":false,"rental_uris":{"android":"levelo://app?vid=43bdb86b-718d-434e-bb5c-38e7240016d4","ios":"levelo://app?vid=43bdb86b-718d-434e-bb5c-38e7240016d4"},"vehicle_type_id":"4","last_reported":1722283748,"current_range_meters":0,"station_id":"ce4bgv12rcd13ifvqcp0","pricing_plan_id":"cebpf4jnsgd1na2vs0mg"},{"bike_id":"e83fec7b-89bb-4763-897e-548ce7f9a7e2","system_id":"levelo_inurba_marseille","lat":43.311722,"lon":5.387247,"is_reserved":false,"is_disabled":false,"rental_uris":{"android":"levelo://app?vid=e83fec7b-89bb-4763-897e-548ce7f9a7e2","ios":"levelo://app?vid=e83fec7b-89bb-4763-897e-548ce7f9a7e2"},"vehicle_type_id":"4","last_reported":1722283748,"current_range_meters":9600,"station_id":"ce4bgv12rcd13ifvqcp0","pricing_plan_id":"cebpf4jnsgd1na2vs0mg"},{"bike_id":"8e579639-fcc5-4ca4-8a6f-72080ede4e61","system_id":"levelo_inurba_marseille","lat":43.311722,"lon":5.387247,"is_reserved":false,"is_disabled":false,"rental_uris":{"android":"levelo://app?vid=8e579639-fcc5-4ca4-8a6f-72080ede4e61","ios":"levelo://app?vid=8e579639-fcc5-4ca4-8a6f-72080ede4e61"},"vehicle_type_id":"4","last_reported":1722283748,"current_range_meters":4800,"station_id":"ce4bgv12rcd13ifvqcp0","pricing_plan_id":"cebpf4jnsgd1na2vs0mg"},{"bike_id":"0848c8d2-69f4-4c47-ae74-6f9fae251925","system_id":"levelo_inurba_marseille","lat":43.299243,"lon":5.37481,"is_reserved":false,"is_disabled":false,"rental_uris":{"android":"levelo://app?vid=0848c8d2-69f4-4c47-ae74-6f9fae251925","ios":"levelo://app?vid=0848c8d2-69f4-4c47-ae74-6f9fae251925"},"vehicle_type_id":"4","last_reported":1722283748,"current_range_meters":19200,"station_id":"ce4bgjh2rcd13ifvqbg0","pricing_plan_id":"cebpf4jnsgd1na2vs0mg"},{"bike_id":"cb652c43-00ac-4d76-acd2-c703a7c0afa2","system_id":"levelo_inurba_marseille","lat":43.311722,"lon":5.387247,"is_reserved":false,"is_disabled":false,"rental_uris":{"android":"levelo://app?vid=cb652c43-00ac-4d76-acd2-c703a7c0afa2","ios":"levelo://app?vid=cb652c43-00ac-4d76-acd2-c703a7c0afa2"},"vehicle_type_id":"4","last_reported":1722283748,"current_range_meters":5600,"station_id":"ce4bgv12rcd13ifvqcp0","pricing_plan_id":"cebpf4jnsgd1na2vs0mg"},{"bike_id":"e537863d-f560-4566-bf9f-d01aa11240c8","system_id":"levelo_inurba_marseille","lat":43.311722,"lon":5.387247,"is_reserved":false,"is_disabled":false,"rental_uris":{"android":"levelo://app?vid=e537863d-f560-4566-bf9f-d01aa11240c8","ios":"levelo://app?vid=e537863d-f560-4566-bf9f-d01aa11240c8"},"vehicle_type_id":"4","last_reported":1722283748,"current_range_meters":5200,"station_id":"ce4bgv12rcd13ifvqcp0","pricing_plan_id":"cebpf4jnsgd1na2vs0mg"},{"bike_id":"e0908873-6834-41e2-88d1-48f77e9ff239","system_id":"levelo_inurba_marseille","lat":43.311722,"lon":5.387247,"is_reserved":false,"is_disabled":false,"rental_uris":{"android":"levelo://app?vid=e0908873-6834-41e2-88d1-48f77e9ff239","ios":"levelo://app?vid=e0908873-6834-41e2-88d1-48f77e9ff239"},"vehicle_type_id":"4","last_reported":1722283748,"current_range_meters":8800,"station_id":"ce4bgv12rcd13ifvqcp0","pricing_plan_id":"cebpf4jnsgd1na2vs0mg"},{"bike_id":"c67e8aa8-757e-4462-8239-cb05c676d72a","system_id":"levelo_inurba_marseille","lat":43.311722,"lon":5.387247,"is_reserved":false,"is_disabled":false,"rental_uris":{"android":"levelo://app?vid=c67e8aa8-757e-4462-8239-cb05c676d72a","ios":"levelo://app?vid=c67e8aa8-757e-4462-8239-cb05c676d72a"},"vehicle_type_id":"4","last_reported":1722283748,"current_range_meters":15600,"station_id":"ce4bgv12rcd13ifvqcp0","pricing_plan_id":"cebpf4jnsgd1na2vs0mg"},{"bike_id":"7159a551-a3be-467e-82ad-4d9f535554f3","system_id":"levelo_inurba_marseille","lat":43.297774,"lon":5.370875,"is_reserved":false,"is_disabled":false,"rental_uris":{"android":"levelo://app?vid=7159a551-a3be-467e-82ad-4d9f535554f3","ios":"levelo://app?vid=7159a551-a3be-467e-82ad-4d9f535554f3"},"vehicle_type_id":"4","last_reported":1722283748,"current_range_meters":3600,"station_id":"ce4bgop2rcd13ifvqc1g","pricing_plan_id":"cebpf4jnsgd1na2vs0mg"},{"bike_id":"9fae2bf9-33df-4b6a-8552-2eace4051824","system_id":"levelo_inurba_marseille","lat":43.30152,"lon":5.38082,"is_reserved":false,"is_disabled":false,"rental_uris":{"android":"levelo://app?vid=9fae2bf9-33df-4b6a-8552-2eace4051824","ios":"levelo://app?vid=9fae2bf9-33df-4b6a-8552-2eace4051824"},"vehicle_type_id":"4","last_reported":1722283748,"current_range_meters":0,"station_id":"","pricing_plan_id":"cebpf4jnsgd1na2vs0mg"},{"bike_id":"d04b0b7c-d2e7-43f4-85b9-9e2b1c973014","system_id":"levelo_inurba_marseille","lat":43.322872,"lon":5.382756,"is_reserved":false,"is_disabled":false,"rental_uris":{"android":"levelo://app?vid=d04b0b7c-d2e7-43f4-85b9-9e2b1c973014","ios":"levelo://app?vid=d04b0b7c-d2e7-43f4-85b9-9e2b1c973014"},"vehicle_type_id":"4","last_reported":1722283748,"current_range_meters":400,"station_id":"ce4bhr12rcd13ifvqhqg","pricing_plan_id":"cebpf4jnsgd1na2vs0mg"},{"bike_id":"1b694876-1032-4ee2-a32a-38ab367e264f","system_id":"levelo_inurba_marseille","lat":43.32804,"lon":5.36688,"is_reserved":false,"is_disabled":false,"rental_uris":{"android":"levelo://app?vid=1b694876-1032-4ee2-a32a-38ab367e264f","ios":"levelo://app?vid=1b694876-1032-4ee2-a32a-38ab367e264f"},"vehicle_type_id":"4","last_reported":1722283748,"current_range_meters":800,"station_id":"","pricing_plan_id":"cebpf4jnsgd1na2vs0mg"},{"bike_id":"d78bf4aa-2d0a-486c-84a5-e164728c1fd5","system_id":"levelo_inurba_marseille","lat":43.322872,"lon":5.382756,"is_reserved":false,"is_disabled":false,"rental_uris":{"android":"levelo://app?vid=d78bf4aa-2d0a-486c-84a5-e164728c1fd5","ios":"levelo://app?vid=d78bf4aa-2d0a-486c-84a5-e164728c1fd5"},"vehicle_type_id":"4","last_reported":1722283748,"current_range_meters":28400,"station_id":"ce4bhr12rcd13ifvqhqg","pricing_plan_id":"cebpf4jnsgd1na2vs0mg"},{"bike_id":"dc2e4a52-52c9-4d85-9897-abcf0f18eb23","system_id":"levelo_inurba_marseille","lat":43.297163,"lon":5.365866,"is_reserved":false,"is_disabled":false,"rental_uris":{"android":"levelo://app?vid=dc2e4a52-52c9-4d85-9897-abcf0f18eb23","ios":"levelo://app?vid=dc2e4a52-52c9-4d85-9897-abcf0f18eb23"},"vehicle_type_id":"4","last_reported":1722283748,"current_range_meters":25200,"station_id":"ce4bgn12rcd13ifvqbt0","pricing_plan_id":"cebpf4jnsgd1na2vs0mg"},{"bike_id":"87645f95-a4b2-4434-8d1e-4bed19d781d9","system_id":"levelo_inurba_marseille","lat":43.297163,"lon":5.365866,"is_reserved":false,"is_disabled":false,"rental_uris":{"android":"levelo://app?vid=87645f95-a4b2-4434-8d1e-4bed19d781d9","ios":"levelo://app?vid=87645f95-a4b2-4434-8d1e-4bed19d781d9"},"vehicle_type_id":"4","last_reported":1722283748,"current_range_meters":27600,"station_id":"ce4bgn12rcd13ifvqbt0","pricing_plan_id":"cebpf4jnsgd1na2vs0mg"},{"bike_id":"7e420390-46e3-4400-a547-9310b3cf16d6","system_id":"levelo_inurba_marseille","lat":43.29713,"lon":5.36622,"is_reserved":false,"is_disabled":false,"rental_uris":{"android":"levelo://app?vid=7e420390-46e3-4400-a547-9310b3cf16d6","ios":"levelo://app?vid=7e420390-46e3-4400-a547-9310b3cf16d6"},"vehicle_type_id":"4","last_reported":1722283748,"current_range_meters":31200,"station_id":"ce4bgn12rcd13ifvqbt0","pricing_plan_id":"cebpf4jnsgd1na2vs0mg"},{"bike_id":"35b6e779-5c82-42d9-aad2-a5f388b7e4aa","system_id":"levelo_inurba_marseille","lat":43.297163,"lon":5.365866,"is_reserved":false,"is_disabled":false,"rental_uris":{"android":"levelo://app?vid=35b6e779-5c82-42d9-aad2-a5f388b7e4aa","ios":"levelo://app?vid=35b6e779-5c82-42d9-aad2-a5f388b7e4aa"},"vehicle_type_id":"4","last_reported":1722283748,"current_range_meters":1600,"station_id":"ce4bgn12rcd13ifvqbt0","pricing_plan_id":"cebpf4jnsgd1na2vs0mg"},{"bike_id":"9266143a-9546-4c26-9e06-b1ecc4abae8a","system_id":"levelo_inurba_marseille","lat":43.3007,"lon":5.381087,"is_reserved":false,"is_disabled":false,"rental_uris":{"android":"levelo://app?vid=9266143a-9546-4c26-9e06-b1ecc4abae8a","ios":"levelo://app?vid=9266143a-9546-4c26-9e06-b1ecc4abae8a"},"vehicle_type_id":"4","last_reported":1722283748,"current_range_meters":10000,"station_id":"","pricing_plan_id":"cebpf4jnsgd1na2vs0mg"},{"bike_id":"dab66a24-90d8-4797-a4c1-320daad5505b","system_id":"levelo_inurba_marseille","lat":43.322872,"lon":5.382756,"is_reserved":false,"is_disabled":false,"rental_uris":{"android":"levelo://app?vid=dab66a24-90d8-4797-a4c1-320daad5505b","ios":"levelo://app?vid=dab66a24-90d8-4797-a4c1-320daad5505b"},"vehicle_type_id":"4","last_reported":1722283748,"current_range_meters":800,"station_id":"ce4bhr12rcd13ifvqhqg","pricing_plan_id":"cebpf4jnsgd1na2vs0mg"},{"bike_id":"2b03c609-7a5a-4795-8af6-776b4637882a","system_id":"levelo_inurba_marseille","lat":43.296676,"lon":5.368553,"is_reserved":false,"is_disabled":false,"rental_uris":{"android":"levelo://app?vid=2b03c609-7a5a-4795-8af6-776b4637882a","ios":"levelo://app?vid=2b03c609-7a5a-4795-8af6-776b4637882a"},"vehicle_type_id":"4","last_reported":1722283748,"current_range_meters":0,"station_id":"","pricing_plan_id":"cebpf4jnsgd1na2vs0mg"},{"bike_id":"fb6712f6-e3d2-4e70-9a10-260796e0336d","system_id":"levelo_inurba_marseille","lat":43.325941,"lon":5.379713,"is_reserved":false,"is_disabled":false,"rental_uris":{"android":"levelo://app?vid=fb6712f6-e3d2-4e70-9a10-260796e0336d","ios":"levelo://app?vid=fb6712f6-e3d2-4e70-9a10-260796e0336d"},"vehicle_type_id":"4","last_reported":1722283748,"current_range_meters":10800,"station_id":"","pricing_plan_id":"cebpf4jnsgd1na2vs0mg"},{"bike_id":"2e0aa72d-6df6-4ab1-91b8-8f50b9a4b438","system_id":"levelo_inurba_marseille","lat":43.2968,"lon":5.37291,"is_reserved":false,"is_disabled":false,"rental_uris":{"android":"levelo://app?vid=2e0aa72d-6df6-4ab1-91b8-8f50b9a4b438","ios":"levelo://app?vid=2e0aa72d-6df6-4ab1-91b8-8f50b9a4b438"},"vehicle_type_id":"4","last_reported":1722283748,"current_range_meters":14400,"station_id":"ce4bgk12rcd13ifvqbj0","pricing_plan_id":"cebpf4jnsgd1na2vs0mg"},{"bike_id":"5932ee77-83d9-4b91-9255-21dca70643b8","system_id":"levelo_inurba_marseille","lat":43.2962,"lon":5.37169,"is_reserved":false,"is_disabled":false,"rental_uris":{"android":"levelo://app?vid=5932ee77-83d9-4b91-9255-21dca70643b8","ios":"levelo://app?vid=5932ee77-83d9-4b91-9255-21dca70643b8"},"vehicle_type_id":"4","last_reported":1722283748,"current_range_meters":20000,"station_id":"ce4bgnh2rcd13ifvqc0g","pricing_plan_id":"cebpf4jnsgd1na2vs0mg"},{"bike_id":"63b009a7-b63b-463f-8a94-88652b603820","system_id":"levelo_inurba_marseille","lat":43.29573,"lon":5.367355,"is_reserved":false,"is_disabled":false,"rental_uris":{"android":"levelo://app?vid=63b009a7-b63b-463f-8a94-88652b603820","ios":"levelo://app?vid=63b009a7-b63b-463f-8a94-88652b603820"},"vehicle_type_id":"4","last_reported":1722283748,"current_range_meters":31200,"station_id":"ce4bgph2rcd13ifvqc2g","pricing_plan_id":"cebpf4jnsgd1na2vs0mg"},{"bike_id":"694a1d31-1e87-4d95-b8aa-222de898cb49","system_id":"levelo_inurba_marseille","lat":43.29877,"lon":5.38084,"is_reserved":false,"is_disabled":false,"rental_uris":{"android":"levelo://app?vid=694a1d31-1e87-4d95-b8aa-222de898cb49","ios":"levelo://app?vid=694a1d31-1e87-4d95-b8aa-222de898cb49"},"vehicle_type_id":"4","last_reported":1722283748,"current_range_meters":4000,"station_id":"","pricing_plan_id":"cebpf4jnsgd1na2vs0mg"},{"bike_id":"8d4202e5-ab9f-481c-bde3-78a07ebbbafa","system_id":"levelo_inurba_marseille","lat":43.3095,"lon":5.39024,"is_reserved":false,"is_disabled":false,"rental_uris":{"android":"levelo://app?vid=8d4202e5-ab9f-481c-bde3-78a07ebbbafa","ios":"levelo://app?vid=8d4202e5-ab9f-481c-bde3-78a07ebbbafa"},"vehicle_type_id":"4","last_reported":1722283748,"current_range_meters":0,"station_id":"ce4bgup2rcd13ifvqco0","pricing_plan_id":"cebpf4jnsgd1na2vs0mg"},{"bike_id":"616c5145-2819-48fa-a27e-0ee55b11cbf5","system_id":"levelo_inurba_marseille","lat":43.309589,"lon":5.390258,"is_reserved":false,"is_disabled":false,"rental_uris":{"android":"levelo://app?vid=616c5145-2819-48fa-a27e-0ee55b11cbf5","ios":"levelo://app?vid=616c5145-2819-48fa-a27e-0ee55b11cbf5"},"vehicle_type_id":"4","last_reported":1722283748,"current_range_meters":12000,"station_id":"ce4bgup2rcd13ifvqco0","pricing_plan_id":"cebpf4jnsgd1na2vs0mg"},{"bike_id":"5261b4d8-cf90-49b2-beaf-e0443bed77a6","system_id":"levelo_inurba_marseille","lat":43.309589,"lon":5.390258,"is_reserved":false,"is_disabled":false,"rental_uris":{"android":"levelo://app?vid=5261b4d8-cf90-49b2-beaf-e0443bed77a6","ios":"levelo://app?vid=5261b4d8-cf90-49b2-beaf-e0443bed77a6"},"vehicle_type_id":"4","last_reported":1722283748,"current_range_meters":13200,"station_id":"ce4bgup2rcd13ifvqco0","pricing_plan_id":"cebpf4jnsgd1na2vs0mg"},{"bike_id":"4bd1fc52-fe43-4c15-94a3-132802427d9f","system_id":"levelo_inurba_marseille","lat":43.296921,"lon":5.376579,"is_reserved":false,"is_disabled":false,"rental_uris":{"android":"levelo://app?vid=4bd1fc52-fe43-4c15-94a3-132802427d9f","ios":"levelo://app?vid=4bd1fc52-fe43-4c15-94a3-132802427d9f"},"vehicle_type_id":"4","last_reported":1722283748,"current_range_meters":0,"station_id":"ce4bgkh2rcd13ifvqbl0","pricing_plan_id":"cebpf4jnsgd1na2vs0mg"},{"bike_id":"466eb33e-8736-4cb9-bb50-4bd93ef82123","system_id":"levelo_inurba_marseille","lat":43.31762,"lon":5.39002,"is_reserved":false,"is_disabled":false,"rental_uris":{"android":"levelo://app?vid=466eb33e-8736-4cb9-bb50-4bd93ef82123","ios":"levelo://app?vid=466eb33e-8736-4cb9-bb50-4bd93ef82123"},"vehicle_type_id":"4","last_reported":1722283748,"current_range_meters":11200,"station_id":"ce4bhqp2rcd13ifvqhng","pricing_plan_id":"cebpf4jnsgd1na2vs0mg"},{"bike_id":"f7dd39be-26f0-409d-8b7c-a302b89b7805","system_id":"levelo_inurba_marseille","lat":43.3175,"lon":5.390132,"is_reserved":false,"is_disabled":false,"rental_uris":{"android":"levelo://app?vid=f7dd39be-26f0-409d-8b7c-a302b89b7805","ios":"levelo://app?vid=f7dd39be-26f0-409d-8b7c-a302b89b7805"},"vehicle_type_id":"4","last_reported":1722283748,"current_range_meters":14400,"station_id":"ce4bhqp2rcd13ifvqhng","pricing_plan_id":"cebpf4jnsgd1na2vs0mg"},{"bike_id":"ff2dd3e3-0211-4577-92b5-ac50ba95d965","system_id":"levelo_inurba_marseille","lat":43.3176,"lon":5.390117,"is_reserved":false,"is_disabled":false,"rental_uris":{"android":"levelo://app?vid=ff2dd3e3-0211-4577-92b5-ac50ba95d965","ios":"levelo://app?vid=ff2dd3e3-0211-4577-92b5-ac50ba95d965"},"vehicle_type_id":"4","last_reported":1722283748,"current_range_meters":400,"station_id":"ce4bhqp2rcd13ifvqhng","pricing_plan_id":"cebpf4jnsgd1na2vs0mg"},{"bike_id":"84e40c82-bbae-488f-af28-e900c5d48af9","system_id":"levelo_inurba_marseille","lat":43.298037,"lon":5.381066,"is_reserved":false,"is_disabled":false,"rental_uris":{"android":"levelo://app?vid=84e40c82-bbae-488f-af28-e900c5d48af9","ios":"levelo://app?vid=84e40c82-bbae-488f-af28-e900c5d48af9"},"vehicle_type_id":"4","last_reported":1722283748,"current_range_meters":26400,"station_id":"ce4bgip2rcd13ifvqbb0","pricing_plan_id":"cebpf4jnsgd1na2vs0mg"},{"bike_id":"8a2e629b-235a-4fc0-b890-6b6eb1788d94","system_id":"levelo_inurba_marseille","lat":43.30429,"lon":5.38887,"is_reserved":false,"is_disabled":false,"rental_uris":{"android":"levelo://app?vid=8a2e629b-235a-4fc0-b890-6b6eb1788d94","ios":"levelo://app?vid=8a2e629b-235a-4fc0-b890-6b6eb1788d94"},"vehicle_type_id":"4","last_reported":1722283748,"current_range_meters":2400,"station_id":"ce4bgk12rcd13ifvqbi0","pricing_plan_id":"cebpf4jnsgd1na2vs0mg"},{"bike_id":"be5cfc5c-4dab-49cd-8620-5f04cabd260a","system_id":"levelo_inurba_marseille","lat":43.298037,"lon":5.381066,"is_reserved":false,"is_disabled":false,"rental_uris":{"android":"levelo://app?vid=be5cfc5c-4dab-49cd-8620-5f04cabd260a","ios":"levelo://app?vid=be5cfc5c-4dab-49cd-8620-5f04cabd260a"},"vehicle_type_id":"4","last_reported":1722283748,"current_range_meters":28400,"station_id":"ce4bgip2rcd13ifvqbb0","pricing_plan_id":"cebpf4jnsgd1na2vs0mg"},{"bike_id":"6a10fa48-80f0-4c5f-baa5-bce60adb96ee","system_id":"levelo_inurba_marseille","lat":43.296263,"lon":5.377094,"is_reserved":false,"is_disabled":false,"rental_uris":{"android":"levelo://app?vid=6a10fa48-80f0-4c5f-baa5-bce60adb96ee","ios":"levelo://app?vid=6a10fa48-80f0-4c5f-baa5-bce60adb96ee"},"vehicle_type_id":"4","last_reported":1722283748,"current_range_meters":4400,"station_id":"ce4bgi92rcd13ifvqb90","pricing_plan_id":"cebpf4jnsgd1na2vs0mg"},{"bike_id":"95c9ea42-52bb-4ace-8e2e-260d72f0147f","system_id":"levelo_inurba_marseille","lat":43.304278,"lon":5.388868,"is_reserved":false,"is_disabled":false,"rental_uris":{"android":"levelo://app?vid=95c9ea42-52bb-4ace-8e2e-260d72f0147f","ios":"levelo://app?vid=95c9ea42-52bb-4ace-8e2e-260d72f0147f"},"vehicle_type_id":"4","last_reported":1722283748,"current_range_meters":17600,"station_id":"ce4bgk12rcd13ifvqbi0","pricing_plan_id":"cebpf4jnsgd1na2vs0mg"},{"bike_id":"9d25ba92-e1ae-49ce-b70c-fbb31271014c","system_id":"levelo_inurba_marseille","lat":43.29566,"lon":5.37522,"is_reserved":false,"is_disabled":false,"rental_uris":{"android":"levelo://app?vid=9d25ba92-e1ae-49ce-b70c-fbb31271014c","ios":"levelo://app?vid=9d25ba92-e1ae-49ce-b70c-fbb31271014c"},"vehicle_type_id":"4","last_reported":1722283748,"current_range_meters":31200,"station_id":"","pricing_plan_id":"cebpf4jnsgd1na2vs0mg"},{"bike_id":"436ba77f-a241-45b0-8ab5-e596dd72a083","system_id":"levelo_inurba_marseille","lat":43.29479,"lon":5.36343,"is_reserved":false,"is_disabled":false,"rental_uris":{"android":"levelo://app?vid=436ba77f-a241-45b0-8ab5-e596dd72a083","ios":"levelo://app?vid=436ba77f-a241-45b0-8ab5-e596dd72a083"},"vehicle_type_id":"4","last_reported":1722283748,"current_range_meters":5600,"station_id":"","pricing_plan_id":"cebpf4jnsgd1na2vs0mg"},{"bike_id":"1c207209-b906-42c8-ba28-40205f9ed5a2","system_id":"levelo_inurba_marseille","lat":43.298037,"lon":5.381066,"is_reserved":false,"is_disabled":false,"rental_uris":{"android":"levelo://app?vid=1c207209-b906-42c8-ba28-40205f9ed5a2","ios":"levelo://app?vid=1c207209-b906-42c8-ba28-40205f9ed5a2"},"vehicle_type_id":"4","last_reported":1722283748,"current_range_meters":10800,"station_id":"ce4bgip2rcd13ifvqbb0","pricing_plan_id":"cebpf4jnsgd1na2vs0mg"},{"bike_id":"37492e3f-cc51-4c20-b53d-3c4ee380129d","system_id":"levelo_inurba_marseille","lat":43.296263,"lon":5.377094,"is_reserved":false,"is_disabled":false,"rental_uris":{"android":"levelo://app?vid=37492e3f-cc51-4c20-b53d-3c4ee380129d","ios":"levelo://app?vid=37492e3f-cc51-4c20-b53d-3c4ee380129d"},"vehicle_type_id":"4","last_reported":1722283748,"current_range_meters":28800,"station_id":"ce4bgi92rcd13ifvqb90","pricing_plan_id":"cebpf4jnsgd1na2vs0mg"},{"bike_id":"d3e61a78-ada5-41be-9c9a-96f981b9a24a","system_id":"levelo_inurba_marseille","lat":43.29608,"lon":5.37709,"is_reserved":false,"is_disabled":false,"rental_uris":{"android":"levelo://app?vid=d3e61a78-ada5-41be-9c9a-96f981b9a24a","ios":"levelo://app?vid=d3e61a78-ada5-41be-9c9a-96f981b9a24a"},"vehicle_type_id":"4","last_reported":1722283748,"current_range_meters":15200,"station_id":"ce4bgi92rcd13ifvqb90","pricing_plan_id":"cebpf4jnsgd1na2vs0mg"},{"bike_id":"7bdea2ef-6aec-4b1d-80a8-58a15e9d5cbd","system_id":"levelo_inurba_marseille","lat":43.295279,"lon":5.375048,"is_reserved":false,"is_disabled":false,"rental_uris":{"android":"levelo://app?vid=7bdea2ef-6aec-4b1d-80a8-58a15e9d5cbd","ios":"levelo://app?vid=7bdea2ef-6aec-4b1d-80a8-58a15e9d5cbd"},"vehicle_type_id":"4","last_reported":1722283748,"current_range_meters":8800,"station_id":"ce4bgkp2rcd13ifvqbmg","pricing_plan_id":"cebpf4jnsgd1na2vs0mg"},{"bike_id":"c63c8eb4-fe58-4749-a0eb-59276f6a9bb6","system_id":"levelo_inurba_marseille","lat":43.295279,"lon":5.375048,"is_reserved":false,"is_disabled":false,"rental_uris":{"android":"levelo://app?vid=c63c8eb4-fe58-4749-a0eb-59276f6a9bb6","ios":"levelo://app?vid=c63c8eb4-fe58-4749-a0eb-59276f6a9bb6"},"vehicle_type_id":"4","last_reported":1722283748,"current_range_meters":0,"station_id":"ce4bgkp2rcd13ifvqbmg","pricing_plan_id":"cebpf4jnsgd1na2vs0mg"},{"bike_id":"57f3bfca-3e43-4cc2-93c1-36310a1ab919","system_id":"levelo_inurba_marseille","lat":43.29531,"lon":5.37506,"is_reserved":false,"is_disabled":false,"rental_uris":{"android":"levelo://app?vid=57f3bfca-3e43-4cc2-93c1-36310a1ab919","ios":"levelo://app?vid=57f3bfca-3e43-4cc2-93c1-36310a1ab919"},"vehicle_type_id":"4","last_reported":1722283748,"current_range_meters":400,"station_id":"ce4bgkp2rcd13ifvqbmg","pricing_plan_id":"cebpf4jnsgd1na2vs0mg"},{"bike_id":"e78fb988-812a-478c-ade5-d14d4ba71177","system_id":"levelo_inurba_marseille","lat":43.29977,"lon":5.38489,"is_reserved":false,"is_disabled":false,"rental_uris":{"android":"levelo://app?vid=e78fb988-812a-478c-ade5-d14d4ba71177","ios":"levelo://app?vid=e78fb988-812a-478c-ade5-d14d4ba71177"},"vehicle_type_id":"4","last_reported":1722283748,"current_range_meters":4000,"station_id":"ce4bgj92rcd13ifvqbd0","pricing_plan_id":"cebpf4jnsgd1na2vs0mg"},{"bike_id":"b80d77fb-eca8-4582-85f3-05793ee65a8f","system_id":"levelo_inurba_marseille","lat":43.295279,"lon":5.375048,"is_reserved":false,"is_disabled":false,"rental_uris":{"android":"levelo://app?vid=b80d77fb-eca8-4582-85f3-05793ee65a8f","ios":"levelo://app?vid=b80d77fb-eca8-4582-85f3-05793ee65a8f"},"vehicle_type_id":"4","last_reported":1722283748,"current_range_meters":12000,"station_id":"ce4bgkp2rcd13ifvqbmg","pricing_plan_id":"cebpf4jnsgd1na2vs0mg"},{"bike_id":"04eef4c2-e907-4cec-ab40-724de759b1d8","system_id":"levelo_inurba_marseille","lat":43.295279,"lon":5.375048,"is_reserved":false,"is_disabled":false,"rental_uris":{"android":"levelo://app?vid=04eef4c2-e907-4cec-ab40-724de759b1d8","ios":"levelo://app?vid=04eef4c2-e907-4cec-ab40-724de759b1d8"},"vehicle_type_id":"4","last_reported":1722283748,"current_range_meters":14400,"station_id":"ce4bgkp2rcd13ifvqbmg","pricing_plan_id":"cebpf4jnsgd1na2vs0mg"},{"bike_id":"c4d72df8-e070-4e60-b290-670db76a6566","system_id":"levelo_inurba_marseille","lat":43.299724,"lon":5.384848,"is_reserved":false,"is_disabled":false,"rental_uris":{"android":"levelo://app?vid=c4d72df8-e070-4e60-b290-670db76a6566","ios":"levelo://app?vid=c4d72df8-e070-4e60-b290-670db76a6566"},"vehicle_type_id":"4","last_reported":1722283748,"current_range_meters":5200,"station_id":"ce4bgj92rcd13ifvqbd0","pricing_plan_id":"cebpf4jnsgd1na2vs0mg"},{"bike_id":"c5fd7997-6504-466f-bd02-46aecd05263d","system_id":"levelo_inurba_marseille","lat":43.295279,"lon":5.375048,"is_reserved":false,"is_disabled":false,"rental_uris":{"android":"levelo://app?vid=c5fd7997-6504-466f-bd02-46aecd05263d","ios":"levelo://app?vid=c5fd7997-6504-466f-bd02-46aecd05263d"},"vehicle_type_id":"4","last_reported":1722283748,"current_range_meters":17200,"station_id":"ce4bgkp2rcd13ifvqbmg","pricing_plan_id":"cebpf4jnsgd1na2vs0mg"},{"bike_id":"97dc636f-f590-4160-87b6-3572a6ab065c","system_id":"levelo_inurba_marseille","lat":43.299717,"lon":5.384845,"is_reserved":false,"is_disabled":false,"rental_uris":{"android":"levelo://app?vid=97dc636f-f590-4160-87b6-3572a6ab065c","ios":"levelo://app?vid=97dc636f-f590-4160-87b6-3572a6ab065c"},"vehicle_type_id":"4","last_reported":1722283748,"current_range_meters":22400,"station_id":"ce4bgj92rcd13ifvqbd0","pricing_plan_id":"cebpf4jnsgd1na2vs0mg"},{"bike_id":"522b2042-f534-4577-a97b-dafc858f5350","system_id":"levelo_inurba_marseille","lat":43.299724,"lon":5.384848,"is_reserved":false,"is_disabled":false,"rental_uris":{"android":"levelo://app?vid=522b2042-f534-4577-a97b-dafc858f5350","ios":"levelo://app?vid=522b2042-f534-4577-a97b-dafc858f5350"},"vehicle_type_id":"4","last_reported":1722283748,"current_range_meters":28400,"station_id":"ce4bgj92rcd13ifvqbd0","pricing_plan_id":"cebpf4jnsgd1na2vs0mg"},{"bike_id":"c919b85e-16f4-4a04-8cb1-2a20c68a9c64","system_id":"levelo_inurba_marseille","lat":43.295279,"lon":5.375048,"is_reserved":false,"is_disabled":false,"rental_uris":{"android":"levelo://app?vid=c919b85e-16f4-4a04-8cb1-2a20c68a9c64","ios":"levelo://app?vid=c919b85e-16f4-4a04-8cb1-2a20c68a9c64"},"vehicle_type_id":"4","last_reported":1722283748,"current_range_meters":7200,"station_id":"ce4bgkp2rcd13ifvqbmg","pricing_plan_id":"cebpf4jnsgd1na2vs0mg"},{"bike_id":"08dadd80-c878-4935-8fee-b545fae754aa","system_id":"levelo_inurba_marseille","lat":43.299724,"lon":5.384848,"is_reserved":false,"is_disabled":false,"rental_uris":{"android":"levelo://app?vid=08dadd80-c878-4935-8fee-b545fae754aa","ios":"levelo://app?vid=08dadd80-c878-4935-8fee-b545fae754aa"},"vehicle_type_id":"4","last_reported":1722283748,"current_range_meters":27600,"station_id":"ce4bgj92rcd13ifvqbd0","pricing_plan_id":"cebpf4jnsgd1na2vs0mg"},{"bike_id":"8d04b60f-d153-4f92-af50-666f2be4c577","system_id":"levelo_inurba_marseille","lat":43.299717,"lon":5.384845,"is_reserved":false,"is_disabled":false,"rental_uris":{"android":"levelo://app?vid=8d04b60f-d153-4f92-af50-666f2be4c577","ios":"levelo://app?vid=8d04b60f-d153-4f92-af50-666f2be4c577"},"vehicle_type_id":"4","last_reported":1722283748,"current_range_meters":31200,"station_id":"ce4bgj92rcd13ifvqbd0","pricing_plan_id":"cebpf4jnsgd1na2vs0mg"},{"bike_id":"7c01e74b-c2d1-4c22-9783-10625359cbd3","system_id":"levelo_inurba_marseille","lat":43.299717,"lon":5.384845,"is_reserved":false,"is_disabled":false,"rental_uris":{"android":"levelo://app?vid=7c01e74b-c2d1-4c22-9783-10625359cbd3","ios":"levelo://app?vid=7c01e74b-c2d1-4c22-9783-10625359cbd3"},"vehicle_type_id":"4","last_reported":1722283748,"current_range_meters":7600,"station_id":"ce4bgj92rcd13ifvqbd0","pricing_plan_id":"cebpf4jnsgd1na2vs0mg"},{"bike_id":"0cc06612-46a5-46e1-b4d7-2c97838c6f6c","system_id":"levelo_inurba_marseille","lat":43.299717,"lon":5.384845,"is_reserved":false,"is_disabled":false,"rental_uris":{"android":"levelo://app?vid=0cc06612-46a5-46e1-b4d7-2c97838c6f6c","ios":"levelo://app?vid=0cc06612-46a5-46e1-b4d7-2c97838c6f6c"},"vehicle_type_id":"4","last_reported":1722283748,"current_range_meters":16800,"station_id":"ce4bgj92rcd13ifvqbd0","pricing_plan_id":"cebpf4jnsgd1na2vs0mg"},{"bike_id":"7aa87e49-ba8d-43ba-81f2-0de33435dcbd","system_id":"levelo_inurba_marseille","lat":43.299717,"lon":5.384845,"is_reserved":false,"is_disabled":false,"rental_uris":{"android":"levelo://app?vid=7aa87e49-ba8d-43ba-81f2-0de33435dcbd","ios":"levelo://app?vid=7aa87e49-ba8d-43ba-81f2-0de33435dcbd"},"vehicle_type_id":"4","last_reported":1722283748,"current_range_meters":30400,"station_id":"ce4bgj92rcd13ifvqbd0","pricing_plan_id":"cebpf4jnsgd1na2vs0mg"},{"bike_id":"99ef7e87-9585-430f-aa38-719ba97ecbce","system_id":"levelo_inurba_marseille","lat":43.301396,"lon":5.387812,"is_reserved":false,"is_disabled":false,"rental_uris":{"android":"levelo://app?vid=99ef7e87-9585-430f-aa38-719ba97ecbce","ios":"levelo://app?vid=99ef7e87-9585-430f-aa38-719ba97ecbce"},"vehicle_type_id":"4","last_reported":1722283748,"current_range_meters":15200,"station_id":"ce4bghh2rcd13ifvqb60","pricing_plan_id":"cebpf4jnsgd1na2vs0mg"},{"bike_id":"4659caf9-c78e-4fc6-9918-987068329484","system_id":"levelo_inurba_marseille","lat":43.301396,"lon":5.387812,"is_reserved":false,"is_disabled":false,"rental_uris":{"android":"levelo://app?vid=4659caf9-c78e-4fc6-9918-987068329484","ios":"levelo://app?vid=4659caf9-c78e-4fc6-9918-987068329484"},"vehicle_type_id":"4","last_reported":1722283748,"current_range_meters":2400,"station_id":"ce4bghh2rcd13ifvqb60","pricing_plan_id":"cebpf4jnsgd1na2vs0mg"},{"bike_id":"f724d001-3e5a-420a-ba1f-b72eeceb0f0d","system_id":"levelo_inurba_marseille","lat":43.301396,"lon":5.387812,"is_reserved":false,"is_disabled":false,"rental_uris":{"android":"levelo://app?vid=f724d001-3e5a-420a-ba1f-b72eeceb0f0d","ios":"levelo://app?vid=f724d001-3e5a-420a-ba1f-b72eeceb0f0d"},"vehicle_type_id":"4","last_reported":1722283748,"current_range_meters":0,"station_id":"ce4bghh2rcd13ifvqb60","pricing_plan_id":"cebpf4jnsgd1na2vs0mg"},{"bike_id":"426918af-05b5-4e1c-8f97-13ad824648db","system_id":"levelo_inurba_marseille","lat":43.32364,"lon":5.38873,"is_reserved":false,"is_disabled":false,"rental_uris":{"android":"levelo://app?vid=426918af-05b5-4e1c-8f97-13ad824648db","ios":"levelo://app?vid=426918af-05b5-4e1c-8f97-13ad824648db"},"vehicle_type_id":"4","last_reported":1722283748,"current_range_meters":4000,"station_id":"ce4bhqp2rcd13ifvqhog","pricing_plan_id":"cebpf4jnsgd1na2vs0mg"},{"bike_id":"2a8ef76a-8573-4dc5-ab80-cff87e0222cc","system_id":"levelo_inurba_marseille","lat":43.32364,"lon":5.38876,"is_reserved":false,"is_disabled":false,"rental_uris":{"android":"levelo://app?vid=2a8ef76a-8573-4dc5-ab80-cff87e0222cc","ios":"levelo://app?vid=2a8ef76a-8573-4dc5-ab80-cff87e0222cc"},"vehicle_type_id":"4","last_reported":1722283748,"current_range_meters":0,"station_id":"ce4bhqp2rcd13ifvqhog","pricing_plan_id":"cebpf4jnsgd1na2vs0mg"},{"bike_id":"83214de5-9631-4cbf-b279-cc81d7313287","system_id":"levelo_inurba_marseille","lat":43.32367,"lon":5.388836,"is_reserved":false,"is_disabled":false,"rental_uris":{"android":"levelo://app?vid=83214de5-9631-4cbf-b279-cc81d7313287","ios":"levelo://app?vid=83214de5-9631-4cbf-b279-cc81d7313287"},"vehicle_type_id":"4","last_reported":1722283748,"current_range_meters":25600,"station_id":"ce4bhqp2rcd13ifvqhog","pricing_plan_id":"cebpf4jnsgd1na2vs0mg"},{"bike_id":"08283361-ac73-452b-8e23-2284cbf3f0fe","system_id":"levelo_inurba_marseille","lat":43.32368,"lon":5.38884,"is_reserved":false,"is_disabled":false,"rental_uris":{"android":"levelo://app?vid=08283361-ac73-452b-8e23-2284cbf3f0fe","ios":"levelo://app?vid=08283361-ac73-452b-8e23-2284cbf3f0fe"},"vehicle_type_id":"4","last_reported":1722283748,"current_range_meters":0,"station_id":"ce4bhqp2rcd13ifvqhog","pricing_plan_id":"cebpf4jnsgd1na2vs0mg"},{"bike_id":"4c9b2a69-157c-4d96-9abb-2a7226d78bd9","system_id":"levelo_inurba_marseille","lat":43.32304,"lon":5.38955,"is_reserved":false,"is_disabled":false,"rental_uris":{"android":"levelo://app?vid=4c9b2a69-157c-4d96-9abb-2a7226d78bd9","ios":"levelo://app?vid=4c9b2a69-157c-4d96-9abb-2a7226d78bd9"},"vehicle_type_id":"4","last_reported":1722283748,"current_range_meters":11600,"station_id":"","pricing_plan_id":"cebpf4jnsgd1na2vs0mg"},{"bike_id":"105c646d-1900-42b7-9028-cb119d37850a","system_id":"levelo_inurba_marseille","lat":43.29616,"lon":5.38113,"is_reserved":false,"is_disabled":false,"rental_uris":{"android":"levelo://app?vid=105c646d-1900-42b7-9028-cb119d37850a","ios":"levelo://app?vid=105c646d-1900-42b7-9028-cb119d37850a"},"vehicle_type_id":"4","last_reported":1722283748,"current_range_meters":7200,"station_id":"ce4bgl12rcd13ifvqbo0","pricing_plan_id":"cebpf4jnsgd1na2vs0mg"},{"bike_id":"30e481ac-02a9-4507-9318-657741a76c55","system_id":"levelo_inurba_marseille","lat":43.29603,"lon":5.38101,"is_reserved":false,"is_disabled":false,"rental_uris":{"android":"levelo://app?vid=30e481ac-02a9-4507-9318-657741a76c55","ios":"levelo://app?vid=30e481ac-02a9-4507-9318-657741a76c55"},"vehicle_type_id":"4","last_reported":1722283748,"current_range_meters":11200,"station_id":"ce4bgl12rcd13ifvqbo0","pricing_plan_id":"cebpf4jnsgd1na2vs0mg"},{"bike_id":"6f7cf1a1-dae6-478e-87a6-64c19e4f84f6","system_id":"levelo_inurba_marseille","lat":43.29602,"lon":5.38103,"is_reserved":false,"is_disabled":false,"rental_uris":{"android":"levelo://app?vid=6f7cf1a1-dae6-478e-87a6-64c19e4f84f6","ios":"levelo://app?vid=6f7cf1a1-dae6-478e-87a6-64c19e4f84f6"},"vehicle_type_id":"4","last_reported":1722283748,"current_range_meters":4800,"station_id":"ce4bgl12rcd13ifvqbo0","pricing_plan_id":"cebpf4jnsgd1na2vs0mg"},{"bike_id":"2d26b415-8784-4606-80db-578e87125e73","system_id":"levelo_inurba_marseille","lat":43.29599,"lon":5.38097,"is_reserved":false,"is_disabled":false,"rental_uris":{"android":"levelo://app?vid=2d26b415-8784-4606-80db-578e87125e73","ios":"levelo://app?vid=2d26b415-8784-4606-80db-578e87125e73"},"vehicle_type_id":"4","last_reported":1722283748,"current_range_meters":31200,"station_id":"ce4bgl12rcd13ifvqbo0","pricing_plan_id":"cebpf4jnsgd1na2vs0mg"},{"bike_id":"d59219fa-d2ac-45ae-abbb-0e4b7bd40a9d","system_id":"levelo_inurba_marseille","lat":43.29605,"lon":5.38111,"is_reserved":false,"is_disabled":false,"rental_uris":{"android":"levelo://app?vid=d59219fa-d2ac-45ae-abbb-0e4b7bd40a9d","ios":"levelo://app?vid=d59219fa-d2ac-45ae-abbb-0e4b7bd40a9d"},"vehicle_type_id":"4","last_reported":1722283748,"current_range_meters":12800,"station_id":"ce4bgl12rcd13ifvqbo0","pricing_plan_id":"cebpf4jnsgd1na2vs0mg"},{"bike_id":"c21894b0-2c6e-4d71-9cad-2a6c62b2da84","system_id":"levelo_inurba_marseille","lat":43.29596,"lon":5.38095,"is_reserved":false,"is_disabled":false,"rental_uris":{"android":"levelo://app?vid=c21894b0-2c6e-4d71-9cad-2a6c62b2da84","ios":"levelo://app?vid=c21894b0-2c6e-4d71-9cad-2a6c62b2da84"},"vehicle_type_id":"4","last_reported":1722283748,"current_range_meters":30800,"station_id":"ce4bgl12rcd13ifvqbo0","pricing_plan_id":"cebpf4jnsgd1na2vs0mg"},{"bike_id":"4875e42c-feb9-48db-84c4-32879139da20","system_id":"levelo_inurba_marseille","lat":43.293249,"lon":5.371578,"is_reserved":false,"is_disabled":false,"rental_uris":{"android":"levelo://app?vid=4875e42c-feb9-48db-84c4-32879139da20","ios":"levelo://app?vid=4875e42c-feb9-48db-84c4-32879139da20"},"vehicle_type_id":"4","last_reported":1722283748,"current_range_meters":26000,"station_id":"ce4bgh92rcd13ifvqb40","pricing_plan_id":"cebpf4jnsgd1na2vs0mg"},{"bike_id":"41c1da4b-712b-447e-9504-c5b6b6b34473","system_id":"levelo_inurba_marseille","lat":43.29278,"lon":5.36846,"is_reserved":false,"is_disabled":false,"rental_uris":{"android":"levelo://app?vid=41c1da4b-712b-447e-9504-c5b6b6b34473","ios":"levelo://app?vid=41c1da4b-712b-447e-9504-c5b6b6b34473"},"vehicle_type_id":"4","last_reported":1722283748,"current_range_meters":0,"station_id":"ce4bhbp2rcd13ifvqesg","pricing_plan_id":"cebpf4jnsgd1na2vs0mg"},{"bike_id":"32888617-ef93-4f89-8a20-4b076006eaa8","system_id":"levelo_inurba_marseille","lat":43.29278,"lon":5.36849,"is_reserved":false,"is_disabled":false,"rental_uris":{"android":"levelo://app?vid=32888617-ef93-4f89-8a20-4b076006eaa8","ios":"levelo://app?vid=32888617-ef93-4f89-8a20-4b076006eaa8"},"vehicle_type_id":"4","last_reported":1722283748,"current_range_meters":0,"station_id":"ce4bhbp2rcd13ifvqesg","pricing_plan_id":"cebpf4jnsgd1na2vs0mg"},{"bike_id":"b1933162-15e9-43b9-89f9-ff885b78c93e","system_id":"levelo_inurba_marseille","lat":43.293259,"lon":5.371586,"is_reserved":false,"is_disabled":false,"rental_uris":{"android":"levelo://app?vid=b1933162-15e9-43b9-89f9-ff885b78c93e","ios":"levelo://app?vid=b1933162-15e9-43b9-89f9-ff885b78c93e"},"vehicle_type_id":"4","last_reported":1722283748,"current_range_meters":21600,"station_id":"ce4bgh92rcd13ifvqb40","pricing_plan_id":"cebpf4jnsgd1na2vs0mg"},{"bike_id":"aeeec97c-3ee1-4e61-998d-afa7b51c01dc","system_id":"levelo_inurba_marseille","lat":43.293015,"lon":5.371688,"is_reserved":false,"is_disabled":false,"rental_uris":{"android":"levelo://app?vid=aeeec97c-3ee1-4e61-998d-afa7b51c01dc","ios":"levelo://app?vid=aeeec97c-3ee1-4e61-998d-afa7b51c01dc"},"vehicle_type_id":"4","last_reported":1722283748,"current_range_meters":0,"station_id":"ce4bgh92rcd13ifvqb40","pricing_plan_id":"cebpf4jnsgd1na2vs0mg"},{"bike_id":"b8fc08a1-f5da-460f-bf95-5eb237b6c51e","system_id":"levelo_inurba_marseille","lat":43.292749,"lon":5.368402,"is_reserved":false,"is_disabled":false,"rental_uris":{"android":"levelo://app?vid=b8fc08a1-f5da-460f-bf95-5eb237b6c51e","ios":"levelo://app?vid=b8fc08a1-f5da-460f-bf95-5eb237b6c51e"},"vehicle_type_id":"4","last_reported":1722283748,"current_range_meters":31200,"station_id":"ce4bhbp2rcd13ifvqesg","pricing_plan_id":"cebpf4jnsgd1na2vs0mg"},{"bike_id":"5b106e41-7561-4db5-8925-ac4a579020c1","system_id":"levelo_inurba_marseille","lat":43.292749,"lon":5.368402,"is_reserved":false,"is_disabled":false,"rental_uris":{"android":"levelo://app?vid=5b106e41-7561-4db5-8925-ac4a579020c1","ios":"levelo://app?vid=5b106e41-7561-4db5-8925-ac4a579020c1"},"vehicle_type_id":"4","last_reported":1722283748,"current_range_meters":31200,"station_id":"ce4bhbp2rcd13ifvqesg","pricing_plan_id":"cebpf4jnsgd1na2vs0mg"},{"bike_id":"e94808bf-5279-4c71-949b-23de8f8d33ee","system_id":"levelo_inurba_marseille","lat":43.292749,"lon":5.368402,"is_reserved":false,"is_disabled":false,"rental_uris":{"android":"levelo://app?vid=e94808bf-5279-4c71-949b-23de8f8d33ee","ios":"levelo://app?vid=e94808bf-5279-4c71-949b-23de8f8d33ee"},"vehicle_type_id":"4","last_reported":1722283748,"current_range_meters":31200,"station_id":"ce4bhbp2rcd13ifvqesg","pricing_plan_id":"cebpf4jnsgd1na2vs0mg"},{"bike_id":"a50fe2ca-d722-4e01-85a5-99b883317fc7","system_id":"levelo_inurba_marseille","lat":43.292749,"lon":5.368402,"is_reserved":false,"is_disabled":false,"rental_uris":{"android":"levelo://app?vid=a50fe2ca-d722-4e01-85a5-99b883317fc7","ios":"levelo://app?vid=a50fe2ca-d722-4e01-85a5-99b883317fc7"},"vehicle_type_id":"4","last_reported":1722283748,"current_range_meters":31200,"station_id":"ce4bhbp2rcd13ifvqesg","pricing_plan_id":"cebpf4jnsgd1na2vs0mg"},{"bike_id":"4d077237-1064-4c28-9beb-c309cc76afac","system_id":"levelo_inurba_marseille","lat":43.292749,"lon":5.368402,"is_reserved":false,"is_disabled":false,"rental_uris":{"android":"levelo://app?vid=4d077237-1064-4c28-9beb-c309cc76afac","ios":"levelo://app?vid=4d077237-1064-4c28-9beb-c309cc76afac"},"vehicle_type_id":"4","last_reported":1722283748,"current_range_meters":30800,"station_id":"ce4bhbp2rcd13ifvqesg","pricing_plan_id":"cebpf4jnsgd1na2vs0mg"},{"bike_id":"fa914ad9-57fc-4c5b-a2d6-80c6185f17f8","system_id":"levelo_inurba_marseille","lat":43.29221,"lon":5.36484,"is_reserved":false,"is_disabled":false,"rental_uris":{"android":"levelo://app?vid=fa914ad9-57fc-4c5b-a2d6-80c6185f17f8","ios":"levelo://app?vid=fa914ad9-57fc-4c5b-a2d6-80c6185f17f8"},"vehicle_type_id":"4","last_reported":1722283748,"current_range_meters":26400,"station_id":"","pricing_plan_id":"cebpf4jnsgd1na2vs0mg"},{"bike_id":"08e0deb2-4832-47e8-87b3-b28121156145","system_id":"levelo_inurba_marseille","lat":43.303002,"lon":5.392142,"is_reserved":false,"is_disabled":false,"rental_uris":{"android":"levelo://app?vid=08e0deb2-4832-47e8-87b3-b28121156145","ios":"levelo://app?vid=08e0deb2-4832-47e8-87b3-b28121156145"},"vehicle_type_id":"4","last_reported":1722283748,"current_range_meters":20400,"station_id":"ce4bgkh2rcd13ifvqbk0","pricing_plan_id":"cebpf4jnsgd1na2vs0mg"},{"bike_id":"6198a9c0-3b23-4f72-9dcb-3f1a44b5189d","system_id":"levelo_inurba_marseille","lat":43.303002,"lon":5.392142,"is_reserved":false,"is_disabled":false,"rental_uris":{"android":"levelo://app?vid=6198a9c0-3b23-4f72-9dcb-3f1a44b5189d","ios":"levelo://app?vid=6198a9c0-3b23-4f72-9dcb-3f1a44b5189d"},"vehicle_type_id":"4","last_reported":1722283748,"current_range_meters":2000,"station_id":"ce4bgkh2rcd13ifvqbk0","pricing_plan_id":"cebpf4jnsgd1na2vs0mg"},{"bike_id":"3e56dc30-9d19-4cfb-b3e0-bfa1af8b02d1","system_id":"levelo_inurba_marseille","lat":43.2936,"lon":5.37835,"is_reserved":false,"is_disabled":false,"rental_uris":{"android":"levelo://app?vid=3e56dc30-9d19-4cfb-b3e0-bfa1af8b02d1","ios":"levelo://app?vid=3e56dc30-9d19-4cfb-b3e0-bfa1af8b02d1"},"vehicle_type_id":"4","last_reported":1722283748,"current_range_meters":29200,"station_id":"ce4bgjh2rcd13ifvqbf0","pricing_plan_id":"cebpf4jnsgd1na2vs0mg"},{"bike_id":"63e6861c-e58f-42be-bcf9-51e7b54082cf","system_id":"levelo_inurba_marseille","lat":43.29267,"lon":5.37623,"is_reserved":false,"is_disabled":false,"rental_uris":{"android":"levelo://app?vid=63e6861c-e58f-42be-bcf9-51e7b54082cf","ios":"levelo://app?vid=63e6861c-e58f-42be-bcf9-51e7b54082cf"},"vehicle_type_id":"4","last_reported":1722283748,"current_range_meters":800,"station_id":"ce4bgi12rcd13ifvqb80","pricing_plan_id":"cebpf4jnsgd1na2vs0mg"},{"bike_id":"2326cbfa-4b9c-4225-b692-5380d94a3214","system_id":"levelo_inurba_marseille","lat":43.298764,"lon":5.388973,"is_reserved":false,"is_disabled":false,"rental_uris":{"android":"levelo://app?vid=2326cbfa-4b9c-4225-b692-5380d94a3214","ios":"levelo://app?vid=2326cbfa-4b9c-4225-b692-5380d94a3214"},"vehicle_type_id":"4","last_reported":1722283748,"current_range_meters":28800,"station_id":"ce4bh392rcd13ifvqdl0","pricing_plan_id":"cebpf4jnsgd1na2vs0mg"},{"bike_id":"14d8d4f8-8ed1-45b7-ae29-67121a125c23","system_id":"levelo_inurba_marseille","lat":43.292581,"lon":5.376143,"is_reserved":false,"is_disabled":false,"rental_uris":{"android":"levelo://app?vid=14d8d4f8-8ed1-45b7-ae29-67121a125c23","ios":"levelo://app?vid=14d8d4f8-8ed1-45b7-ae29-67121a125c23"},"vehicle_type_id":"4","last_reported":1722283748,"current_range_meters":15200,"station_id":"ce4bgi12rcd13ifvqb80","pricing_plan_id":"cebpf4jnsgd1na2vs0mg"},{"bike_id":"28419f62-b671-45bb-aeb7-d6bd22cc0271","system_id":"levelo_inurba_marseille","lat":43.293009,"lon":5.374584,"is_reserved":false,"is_disabled":false,"rental_uris":{"android":"levelo://app?vid=28419f62-b671-45bb-aeb7-d6bd22cc0271","ios":"levelo://app?vid=28419f62-b671-45bb-aeb7-d6bd22cc0271"},"vehicle_type_id":"4","last_reported":1722283748,"current_range_meters":10800,"station_id":"ce4bgi12rcd13ifvqb70","pricing_plan_id":"cebpf4jnsgd1na2vs0mg"},{"bike_id":"c45c18b9-12f1-465c-a9bb-236d35f92e46","system_id":"levelo_inurba_marseille","lat":43.298764,"lon":5.388973,"is_reserved":false,"is_disabled":false,"rental_uris":{"android":"levelo://app?vid=c45c18b9-12f1-465c-a9bb-236d35f92e46","ios":"levelo://app?vid=c45c18b9-12f1-465c-a9bb-236d35f92e46"},"vehicle_type_id":"4","last_reported":1722283748,"current_range_meters":30800,"station_id":"ce4bh392rcd13ifvqdl0","pricing_plan_id":"cebpf4jnsgd1na2vs0mg"},{"bike_id":"7ea10b4c-56d8-43f4-ba0e-514e7e4dea71","system_id":"levelo_inurba_marseille","lat":43.31331,"lon":5.39695,"is_reserved":false,"is_disabled":false,"rental_uris":{"android":"levelo://app?vid=7ea10b4c-56d8-43f4-ba0e-514e7e4dea71","ios":"levelo://app?vid=7ea10b4c-56d8-43f4-ba0e-514e7e4dea71"},"vehicle_type_id":"4","last_reported":1722283748,"current_range_meters":0,"station_id":"ce4bgvp2rcd13ifvqcu0","pricing_plan_id":"cebpf4jnsgd1na2vs0mg"},{"bike_id":"4df976b3-261c-45c6-a7f0-aeb19e8113ea","system_id":"levelo_inurba_marseille","lat":43.30085,"lon":5.390856,"is_reserved":false,"is_disabled":false,"rental_uris":{"android":"levelo://app?vid=4df976b3-261c-45c6-a7f0-aeb19e8113ea","ios":"levelo://app?vid=4df976b3-261c-45c6-a7f0-aeb19e8113ea"},"vehicle_type_id":"4","last_reported":1722283748,"current_range_meters":0,"station_id":"ce4bh192rcd13ifvqdb0","pricing_plan_id":"cebpf4jnsgd1na2vs0mg"},{"bike_id":"71d63286-7cf7-4f6a-a282-57ba786465a0","system_id":"levelo_inurba_marseille","lat":43.309047,"lon":5.396551,"is_reserved":false,"is_disabled":false,"rental_uris":{"android":"levelo://app?vid=71d63286-7cf7-4f6a-a282-57ba786465a0","ios":"levelo://app?vid=71d63286-7cf7-4f6a-a282-57ba786465a0"},"vehicle_type_id":"4","last_reported":1722283748,"current_range_meters":0,"station_id":"ce4bh012rcd13ifvqcv0","pricing_plan_id":"cebpf4jnsgd1na2vs0mg"},{"bike_id":"70e25c13-6e47-41fd-93f8-576f9a2dcf62","system_id":"levelo_inurba_marseille","lat":43.29529,"lon":5.385581,"is_reserved":false,"is_disabled":false,"rental_uris":{"android":"levelo://app?vid=70e25c13-6e47-41fd-93f8-576f9a2dcf62","ios":"levelo://app?vid=70e25c13-6e47-41fd-93f8-576f9a2dcf62"},"vehicle_type_id":"4","last_reported":1722283748,"current_range_meters":8800,"station_id":"ce4bgih2rcd13ifvqba0","pricing_plan_id":"cebpf4jnsgd1na2vs0mg"},{"bike_id":"534a94dc-515e-4895-9db7-8dd015dea746","system_id":"levelo_inurba_marseille","lat":43.29531,"lon":5.38536,"is_reserved":false,"is_disabled":false,"rental_uris":{"android":"levelo://app?vid=534a94dc-515e-4895-9db7-8dd015dea746","ios":"levelo://app?vid=534a94dc-515e-4895-9db7-8dd015dea746"},"vehicle_type_id":"4","last_reported":1722283748,"current_range_meters":4400,"station_id":"ce4bgih2rcd13ifvqba0","pricing_plan_id":"cebpf4jnsgd1na2vs0mg"},{"bike_id":"e4753366-2ce8-4e25-b5c4-1564e1d53cb3","system_id":"levelo_inurba_marseille","lat":43.29536,"lon":5.38547,"is_reserved":false,"is_disabled":false,"rental_uris":{"android":"levelo://app?vid=e4753366-2ce8-4e25-b5c4-1564e1d53cb3","ios":"levelo://app?vid=e4753366-2ce8-4e25-b5c4-1564e1d53cb3"},"vehicle_type_id":"4","last_reported":1722283748,"current_range_meters":12400,"station_id":"ce4bgih2rcd13ifvqba0","pricing_plan_id":"cebpf4jnsgd1na2vs0mg"},{"bike_id":"b72cb341-36fb-4a99-bc2b-29c1a5e01482","system_id":"levelo_inurba_marseille","lat":43.29529,"lon":5.385581,"is_reserved":false,"is_disabled":false,"rental_uris":{"android":"levelo://app?vid=b72cb341-36fb-4a99-bc2b-29c1a5e01482","ios":"levelo://app?vid=b72cb341-36fb-4a99-bc2b-29c1a5e01482"},"vehicle_type_id":"4","last_reported":1722283748,"current_range_meters":18800,"station_id":"ce4bgih2rcd13ifvqba0","pricing_plan_id":"cebpf4jnsgd1na2vs0mg"},{"bike_id":"be903ebb-aa6b-4572-acf1-5af35c2c8f09","system_id":"levelo_inurba_marseille","lat":43.29531,"lon":5.38547,"is_reserved":false,"is_disabled":false,"rental_uris":{"android":"levelo://app?vid=be903ebb-aa6b-4572-acf1-5af35c2c8f09","ios":"levelo://app?vid=be903ebb-aa6b-4572-acf1-5af35c2c8f09"},"vehicle_type_id":"4","last_reported":1722283748,"current_range_meters":31200,"station_id":"ce4bgih2rcd13ifvqba0","pricing_plan_id":"cebpf4jnsgd1na2vs0mg"},{"bike_id":"a41701f3-72fb-45e4-a2c5-2d7b9b3acd31","system_id":"levelo_inurba_marseille","lat":43.2953,"lon":5.38546,"is_reserved":false,"is_disabled":false,"rental_uris":{"android":"levelo://app?vid=a41701f3-72fb-45e4-a2c5-2d7b9b3acd31","ios":"levelo://app?vid=a41701f3-72fb-45e4-a2c5-2d7b9b3acd31"},"vehicle_type_id":"4","last_reported":1722283748,"current_range_meters":31200,"station_id":"","pricing_plan_id":"cebpf4jnsgd1na2vs0mg"},{"bike_id":"14117964-af52-435d-ac85-76153d64f200","system_id":"levelo_inurba_marseille","lat":43.29529,"lon":5.385581,"is_reserved":false,"is_disabled":false,"rental_uris":{"android":"levelo://app?vid=14117964-af52-435d-ac85-76153d64f200","ios":"levelo://app?vid=14117964-af52-435d-ac85-76153d64f200"},"vehicle_type_id":"4","last_reported":1722283748,"current_range_meters":30000,"station_id":"ce4bgih2rcd13ifvqba0","pricing_plan_id":"cebpf4jnsgd1na2vs0mg"},{"bike_id":"1842eb94-a107-4001-9c05-a76bd268da1e","system_id":"levelo_inurba_marseille","lat":43.29529,"lon":5.385581,"is_reserved":false,"is_disabled":false,"rental_uris":{"android":"levelo://app?vid=1842eb94-a107-4001-9c05-a76bd268da1e","ios":"levelo://app?vid=1842eb94-a107-4001-9c05-a76bd268da1e"},"vehicle_type_id":"4","last_reported":1722283748,"current_range_meters":26800,"station_id":"ce4bgih2rcd13ifvqba0","pricing_plan_id":"cebpf4jnsgd1na2vs0mg"},{"bike_id":"1e2f01c8-75e4-4bbb-a52e-131c5f65d986","system_id":"levelo_inurba_marseille","lat":43.29529,"lon":5.385581,"is_reserved":false,"is_disabled":false,"rental_uris":{"android":"levelo://app?vid=1e2f01c8-75e4-4bbb-a52e-131c5f65d986","ios":"levelo://app?vid=1e2f01c8-75e4-4bbb-a52e-131c5f65d986"},"vehicle_type_id":"4","last_reported":1722283748,"current_range_meters":29200,"station_id":"ce4bgih2rcd13ifvqba0","pricing_plan_id":"cebpf4jnsgd1na2vs0mg"},{"bike_id":"e10989d0-af35-485f-be29-cd525a2243a6","system_id":"levelo_inurba_marseille","lat":43.29529,"lon":5.385581,"is_reserved":false,"is_disabled":false,"rental_uris":{"android":"levelo://app?vid=e10989d0-af35-485f-be29-cd525a2243a6","ios":"levelo://app?vid=e10989d0-af35-485f-be29-cd525a2243a6"},"vehicle_type_id":"4","last_reported":1722283748,"current_range_meters":12800,"station_id":"ce4bgih2rcd13ifvqba0","pricing_plan_id":"cebpf4jnsgd1na2vs0mg"},{"bike_id":"445a7bac-3757-48d1-90c1-a01091364def","system_id":"levelo_inurba_marseille","lat":43.313291,"lon":5.396838,"is_reserved":false,"is_disabled":false,"rental_uris":{"android":"levelo://app?vid=445a7bac-3757-48d1-90c1-a01091364def","ios":"levelo://app?vid=445a7bac-3757-48d1-90c1-a01091364def"},"vehicle_type_id":"4","last_reported":1722283748,"current_range_meters":12000,"station_id":"ce4bgvp2rcd13ifvqcu0","pricing_plan_id":"cebpf4jnsgd1na2vs0mg"},{"bike_id":"eb292118-3da4-4721-ba60-d5a96c386b0e","system_id":"levelo_inurba_marseille","lat":43.294219,"lon":5.38616,"is_reserved":false,"is_disabled":false,"rental_uris":{"android":"levelo://app?vid=eb292118-3da4-4721-ba60-d5a96c386b0e","ios":"levelo://app?vid=eb292118-3da4-4721-ba60-d5a96c386b0e"},"vehicle_type_id":"4","last_reported":1722283748,"current_range_meters":24800,"station_id":"","pricing_plan_id":"cebpf4jnsgd1na2vs0mg"},{"bike_id":"5db7c6c4-3206-4b95-b045-86b33407aae0","system_id":"levelo_inurba_marseille","lat":43.29418,"lon":5.38617,"is_reserved":false,"is_disabled":false,"rental_uris":{"android":"levelo://app?vid=5db7c6c4-3206-4b95-b045-86b33407aae0","ios":"levelo://app?vid=5db7c6c4-3206-4b95-b045-86b33407aae0"},"vehicle_type_id":"4","last_reported":1722283748,"current_range_meters":21200,"station_id":"ce4bh2h2rcd13ifvqdh0","pricing_plan_id":"cebpf4jnsgd1na2vs0mg"},{"bike_id":"2602ad3f-23e0-4c13-ba1f-6832d3a6b15b","system_id":"levelo_inurba_marseille","lat":43.2942,"lon":5.38622,"is_reserved":false,"is_disabled":false,"rental_uris":{"android":"levelo://app?vid=2602ad3f-23e0-4c13-ba1f-6832d3a6b15b","ios":"levelo://app?vid=2602ad3f-23e0-4c13-ba1f-6832d3a6b15b"},"vehicle_type_id":"4","last_reported":1722283748,"current_range_meters":22000,"station_id":"ce4bh2h2rcd13ifvqdh0","pricing_plan_id":"cebpf4jnsgd1na2vs0mg"},{"bike_id":"7d4d7306-6bbf-4e56-a464-d9dd0016ce27","system_id":"levelo_inurba_marseille","lat":43.2942,"lon":5.38626,"is_reserved":false,"is_disabled":false,"rental_uris":{"android":"levelo://app?vid=7d4d7306-6bbf-4e56-a464-d9dd0016ce27","ios":"levelo://app?vid=7d4d7306-6bbf-4e56-a464-d9dd0016ce27"},"vehicle_type_id":"4","last_reported":1722283748,"current_range_meters":11200,"station_id":"ce4bh2h2rcd13ifvqdh0","pricing_plan_id":"cebpf4jnsgd1na2vs0mg"},{"bike_id":"d6499bc2-37af-409e-aaec-187a7db2b3cc","system_id":"levelo_inurba_marseille","lat":43.29419,"lon":5.38626,"is_reserved":false,"is_disabled":false,"rental_uris":{"android":"levelo://app?vid=d6499bc2-37af-409e-aaec-187a7db2b3cc","ios":"levelo://app?vid=d6499bc2-37af-409e-aaec-187a7db2b3cc"},"vehicle_type_id":"4","last_reported":1722283748,"current_range_meters":17600,"station_id":"ce4bh2h2rcd13ifvqdh0","pricing_plan_id":"cebpf4jnsgd1na2vs0mg"},{"bike_id":"381efe29-1d18-46e1-bb49-83f42281e794","system_id":"levelo_inurba_marseille","lat":43.29415,"lon":5.38619,"is_reserved":false,"is_disabled":false,"rental_uris":{"android":"levelo://app?vid=381efe29-1d18-46e1-bb49-83f42281e794","ios":"levelo://app?vid=381efe29-1d18-46e1-bb49-83f42281e794"},"vehicle_type_id":"4","last_reported":1722283748,"current_range_meters":0,"station_id":"ce4bh2h2rcd13ifvqdh0","pricing_plan_id":"cebpf4jnsgd1na2vs0mg"},{"bike_id":"a99dde7e-a700-4d66-93c5-bbd80848c2c8","system_id":"levelo_inurba_marseille","lat":43.29418,"lon":5.38626,"is_reserved":false,"is_disabled":false,"rental_uris":{"android":"levelo://app?vid=a99dde7e-a700-4d66-93c5-bbd80848c2c8","ios":"levelo://app?vid=a99dde7e-a700-4d66-93c5-bbd80848c2c8"},"vehicle_type_id":"4","last_reported":1722283748,"current_range_meters":14400,"station_id":"ce4bh2h2rcd13ifvqdh0","pricing_plan_id":"cebpf4jnsgd1na2vs0mg"},{"bike_id":"a3ec187f-22c4-4b15-bfa5-23e9fbead812","system_id":"levelo_inurba_marseille","lat":43.28945,"lon":5.36636,"is_reserved":false,"is_disabled":false,"rental_uris":{"android":"levelo://app?vid=a3ec187f-22c4-4b15-bfa5-23e9fbead812","ios":"levelo://app?vid=a3ec187f-22c4-4b15-bfa5-23e9fbead812"},"vehicle_type_id":"4","last_reported":1722283748,"current_range_meters":0,"station_id":"ce4bhap2rcd13ifvqek0","pricing_plan_id":"cebpf4jnsgd1na2vs0mg"},{"bike_id":"90d9d397-1012-472b-bf9c-26566f67b2bf","system_id":"levelo_inurba_marseille","lat":43.29417,"lon":5.38627,"is_reserved":false,"is_disabled":false,"rental_uris":{"android":"levelo://app?vid=90d9d397-1012-472b-bf9c-26566f67b2bf","ios":"levelo://app?vid=90d9d397-1012-472b-bf9c-26566f67b2bf"},"vehicle_type_id":"4","last_reported":1722283748,"current_range_meters":25600,"station_id":"ce4bh2h2rcd13ifvqdh0","pricing_plan_id":"cebpf4jnsgd1na2vs0mg"},{"bike_id":"b7b40cfc-71e5-4675-b85f-ad1877e50955","system_id":"levelo_inurba_marseille","lat":43.294144,"lon":5.386227,"is_reserved":false,"is_disabled":false,"rental_uris":{"android":"levelo://app?vid=b7b40cfc-71e5-4675-b85f-ad1877e50955","ios":"levelo://app?vid=b7b40cfc-71e5-4675-b85f-ad1877e50955"},"vehicle_type_id":"4","last_reported":1722283748,"current_range_meters":11600,"station_id":"ce4bh2h2rcd13ifvqdh0","pricing_plan_id":"cebpf4jnsgd1na2vs0mg"},{"bike_id":"efbb1a93-2ea5-4a39-8058-da9a0b2b7606","system_id":"levelo_inurba_marseille","lat":43.29417,"lon":5.38628,"is_reserved":false,"is_disabled":false,"rental_uris":{"android":"levelo://app?vid=efbb1a93-2ea5-4a39-8058-da9a0b2b7606","ios":"levelo://app?vid=efbb1a93-2ea5-4a39-8058-da9a0b2b7606"},"vehicle_type_id":"4","last_reported":1722283748,"current_range_meters":19200,"station_id":"ce4bh2h2rcd13ifvqdh0","pricing_plan_id":"cebpf4jnsgd1na2vs0mg"},{"bike_id":"26ef19c3-1bbc-45cb-bc66-9c794bb04568","system_id":"levelo_inurba_marseille","lat":43.28943,"lon":5.36629,"is_reserved":false,"is_disabled":false,"rental_uris":{"android":"levelo://app?vid=26ef19c3-1bbc-45cb-bc66-9c794bb04568","ios":"levelo://app?vid=26ef19c3-1bbc-45cb-bc66-9c794bb04568"},"vehicle_type_id":"4","last_reported":1722283748,"current_range_meters":0,"station_id":"ce4bhap2rcd13ifvqek0","pricing_plan_id":"cebpf4jnsgd1na2vs0mg"},{"bike_id":"767be3f3-b3c2-43ba-acc6-4f0def088d67","system_id":"levelo_inurba_marseille","lat":43.289427,"lon":5.366447,"is_reserved":false,"is_disabled":false,"rental_uris":{"android":"levelo://app?vid=767be3f3-b3c2-43ba-acc6-4f0def088d67","ios":"levelo://app?vid=767be3f3-b3c2-43ba-acc6-4f0def088d67"},"vehicle_type_id":"4","last_reported":1722283748,"current_range_meters":800,"station_id":"ce4bhap2rcd13ifvqek0","pricing_plan_id":"cebpf4jnsgd1na2vs0mg"},{"bike_id":"98a71fb1-2c25-4ce0-b575-542a5efd862e","system_id":"levelo_inurba_marseille","lat":43.294162,"lon":5.386292,"is_reserved":false,"is_disabled":false,"rental_uris":{"android":"levelo://app?vid=98a71fb1-2c25-4ce0-b575-542a5efd862e","ios":"levelo://app?vid=98a71fb1-2c25-4ce0-b575-542a5efd862e"},"vehicle_type_id":"4","last_reported":1722283748,"current_range_meters":27200,"station_id":"ce4bh2h2rcd13ifvqdh0","pricing_plan_id":"cebpf4jnsgd1na2vs0mg"},{"bike_id":"f3cb0fee-16f2-42f7-897a-bdccca1625f3","system_id":"levelo_inurba_marseille","lat":43.29413,"lon":5.38625,"is_reserved":false,"is_disabled":false,"rental_uris":{"android":"levelo://app?vid=f3cb0fee-16f2-42f7-897a-bdccca1625f3","ios":"levelo://app?vid=f3cb0fee-16f2-42f7-897a-bdccca1625f3"},"vehicle_type_id":"4","last_reported":1722283748,"current_range_meters":2400,"station_id":"ce4bh2h2rcd13ifvqdh0","pricing_plan_id":"cebpf4jnsgd1na2vs0mg"},{"bike_id":"29cafbaf-1acd-4ec2-bf72-de82d388a67d","system_id":"levelo_inurba_marseille","lat":43.290255,"lon":5.375505,"is_reserved":false,"is_disabled":false,"rental_uris":{"android":"levelo://app?vid=29cafbaf-1acd-4ec2-bf72-de82d388a67d","ios":"levelo://app?vid=29cafbaf-1acd-4ec2-bf72-de82d388a67d"},"vehicle_type_id":"4","last_reported":1722283748,"current_range_meters":0,"station_id":"ce4bh692rcd13ifvqe90","pricing_plan_id":"cebpf4jnsgd1na2vs0mg"},{"bike_id":"98a26483-9a5b-4091-98b8-53164b029329","system_id":"levelo_inurba_marseille","lat":43.29415,"lon":5.38631,"is_reserved":false,"is_disabled":false,"rental_uris":{"android":"levelo://app?vid=98a26483-9a5b-4091-98b8-53164b029329","ios":"levelo://app?vid=98a26483-9a5b-4091-98b8-53164b029329"},"vehicle_type_id":"4","last_reported":1722283748,"current_range_meters":23600,"station_id":"ce4bh2h2rcd13ifvqdh0","pricing_plan_id":"cebpf4jnsgd1na2vs0mg"},{"bike_id":"b3ca27f3-8cab-4c6a-8d7b-35256f3ac574","system_id":"levelo_inurba_marseille","lat":43.289184,"lon":5.366408,"is_reserved":false,"is_disabled":false,"rental_uris":{"android":"levelo://app?vid=b3ca27f3-8cab-4c6a-8d7b-35256f3ac574","ios":"levelo://app?vid=b3ca27f3-8cab-4c6a-8d7b-35256f3ac574"},"vehicle_type_id":"4","last_reported":1722283748,"current_range_meters":2800,"station_id":"ce4bhap2rcd13ifvqek0","pricing_plan_id":"cebpf4jnsgd1na2vs0mg"},{"bike_id":"02dd62db-5efc-47f8-bcb1-6e1402595d76","system_id":"levelo_inurba_marseille","lat":43.2894,"lon":5.36637,"is_reserved":false,"is_disabled":false,"rental_uris":{"android":"levelo://app?vid=02dd62db-5efc-47f8-bcb1-6e1402595d76","ios":"levelo://app?vid=02dd62db-5efc-47f8-bcb1-6e1402595d76"},"vehicle_type_id":"4","last_reported":1722283748,"current_range_meters":0,"station_id":"ce4bhap2rcd13ifvqek0","pricing_plan_id":"cebpf4jnsgd1na2vs0mg"},{"bike_id":"2efc4c48-914c-4839-8845-d9e085e7041e","system_id":"levelo_inurba_marseille","lat":43.2894,"lon":5.36628,"is_reserved":false,"is_disabled":false,"rental_uris":{"android":"levelo://app?vid=2efc4c48-914c-4839-8845-d9e085e7041e","ios":"levelo://app?vid=2efc4c48-914c-4839-8845-d9e085e7041e"},"vehicle_type_id":"4","last_reported":1722283748,"current_range_meters":0,"station_id":"ce4bhap2rcd13ifvqek0","pricing_plan_id":"cebpf4jnsgd1na2vs0mg"},{"bike_id":"846efbaa-cbb3-41d7-a9c6-15624a039977","system_id":"levelo_inurba_marseille","lat":43.29413,"lon":5.3863,"is_reserved":false,"is_disabled":false,"rental_uris":{"android":"levelo://app?vid=846efbaa-cbb3-41d7-a9c6-15624a039977","ios":"levelo://app?vid=846efbaa-cbb3-41d7-a9c6-15624a039977"},"vehicle_type_id":"4","last_reported":1722283748,"current_range_meters":800,"station_id":"ce4bh2h2rcd13ifvqdh0","pricing_plan_id":"cebpf4jnsgd1na2vs0mg"},{"bike_id":"51845e01-32e0-4eb7-95de-0560917ab035","system_id":"levelo_inurba_marseille","lat":43.28939,"lon":5.36637,"is_reserved":false,"is_disabled":false,"rental_uris":{"android":"levelo://app?vid=51845e01-32e0-4eb7-95de-0560917ab035","ios":"levelo://app?vid=51845e01-32e0-4eb7-95de-0560917ab035"},"vehicle_type_id":"4","last_reported":1722283748,"current_range_meters":24000,"station_id":"ce4bhap2rcd13ifvqek0","pricing_plan_id":"cebpf4jnsgd1na2vs0mg"},{"bike_id":"00c15126-65e0-45f9-8cba-173482930f03","system_id":"levelo_inurba_marseille","lat":43.289184,"lon":5.366408,"is_reserved":false,"is_disabled":false,"rental_uris":{"android":"levelo://app?vid=00c15126-65e0-45f9-8cba-173482930f03","ios":"levelo://app?vid=00c15126-65e0-45f9-8cba-173482930f03"},"vehicle_type_id":"4","last_reported":1722283748,"current_range_meters":6400,"station_id":"ce4bhap2rcd13ifvqek0","pricing_plan_id":"cebpf4jnsgd1na2vs0mg"},{"bike_id":"19f61a6b-601a-4345-995a-844ef8c82459","system_id":"levelo_inurba_marseille","lat":43.289184,"lon":5.366408,"is_reserved":false,"is_disabled":false,"rental_uris":{"android":"levelo://app?vid=19f61a6b-601a-4345-995a-844ef8c82459","ios":"levelo://app?vid=19f61a6b-601a-4345-995a-844ef8c82459"},"vehicle_type_id":"4","last_reported":1722283748,"current_range_meters":27200,"station_id":"ce4bhap2rcd13ifvqek0","pricing_plan_id":"cebpf4jnsgd1na2vs0mg"},{"bike_id":"1779b685-4273-446b-b0bd-1bbedc674177","system_id":"levelo_inurba_marseille","lat":43.289184,"lon":5.366408,"is_reserved":false,"is_disabled":false,"rental_uris":{"android":"levelo://app?vid=1779b685-4273-446b-b0bd-1bbedc674177","ios":"levelo://app?vid=1779b685-4273-446b-b0bd-1bbedc674177"},"vehicle_type_id":"4","last_reported":1722283748,"current_range_meters":24000,"station_id":"ce4bhap2rcd13ifvqek0","pricing_plan_id":"cebpf4jnsgd1na2vs0mg"},{"bike_id":"edf1bd04-025a-4bc8-bca3-9660d5971460","system_id":"levelo_inurba_marseille","lat":43.29265,"lon":5.38437,"is_reserved":false,"is_disabled":false,"rental_uris":{"android":"levelo://app?vid=edf1bd04-025a-4bc8-bca3-9660d5971460","ios":"levelo://app?vid=edf1bd04-025a-4bc8-bca3-9660d5971460"},"vehicle_type_id":"4","last_reported":1722283748,"current_range_meters":0,"station_id":"ce4bh692rcd13ifvqea0","pricing_plan_id":"cebpf4jnsgd1na2vs0mg"},{"bike_id":"be026ea5-ec2b-4988-ae21-3e60a4f7891a","system_id":"levelo_inurba_marseille","lat":43.292642,"lon":5.384254,"is_reserved":false,"is_disabled":false,"rental_uris":{"android":"levelo://app?vid=be026ea5-ec2b-4988-ae21-3e60a4f7891a","ios":"levelo://app?vid=be026ea5-ec2b-4988-ae21-3e60a4f7891a"},"vehicle_type_id":"4","last_reported":1722283748,"current_range_meters":3600,"station_id":"ce4bh692rcd13ifvqea0","pricing_plan_id":"cebpf4jnsgd1na2vs0mg"},{"bike_id":"b5bce02e-5485-4ba7-b5fc-a47eb012ef5c","system_id":"levelo_inurba_marseille","lat":43.292663,"lon":5.384463,"is_reserved":false,"is_disabled":false,"rental_uris":{"android":"levelo://app?vid=b5bce02e-5485-4ba7-b5fc-a47eb012ef5c","ios":"levelo://app?vid=b5bce02e-5485-4ba7-b5fc-a47eb012ef5c"},"vehicle_type_id":"4","last_reported":1722283748,"current_range_meters":21600,"station_id":"ce4bh692rcd13ifvqea0","pricing_plan_id":"cebpf4jnsgd1na2vs0mg"},{"bike_id":"240b8784-d487-4190-9980-39b475558187","system_id":"levelo_inurba_marseille","lat":43.292647,"lon":5.384447,"is_reserved":false,"is_disabled":false,"rental_uris":{"android":"levelo://app?vid=240b8784-d487-4190-9980-39b475558187","ios":"levelo://app?vid=240b8784-d487-4190-9980-39b475558187"},"vehicle_type_id":"4","last_reported":1722283748,"current_range_meters":3200,"station_id":"ce4bh692rcd13ifvqea0","pricing_plan_id":"cebpf4jnsgd1na2vs0mg"},{"bike_id":"1968b0ec-0103-40ea-be4f-a3b448453574","system_id":"levelo_inurba_marseille","lat":43.304274,"lon":5.397513,"is_reserved":false,"is_disabled":false,"rental_uris":{"android":"levelo://app?vid=1968b0ec-0103-40ea-be4f-a3b448453574","ios":"levelo://app?vid=1968b0ec-0103-40ea-be4f-a3b448453574"},"vehicle_type_id":"4","last_reported":1722283748,"current_range_meters":7600,"station_id":"ce4bh092rcd13ifvqd20","pricing_plan_id":"cebpf4jnsgd1na2vs0mg"},{"bike_id":"85e7546f-44e9-4323-b361-008f89c168ca","system_id":"levelo_inurba_marseille","lat":43.28727,"lon":5.36078,"is_reserved":false,"is_disabled":false,"rental_uris":{"android":"levelo://app?vid=85e7546f-44e9-4323-b361-008f89c168ca","ios":"levelo://app?vid=85e7546f-44e9-4323-b361-008f89c168ca"},"vehicle_type_id":"4","last_reported":1722283748,"current_range_meters":16400,"station_id":"cki0cbj6b192h4jlfktg","pricing_plan_id":"cebpf4jnsgd1na2vs0mg"},{"bike_id":"101318d6-5ccd-49c6-ad73-6e59c539acce","system_id":"levelo_inurba_marseille","lat":43.29009,"lon":5.35615,"is_reserved":false,"is_disabled":false,"rental_uris":{"android":"levelo://app?vid=101318d6-5ccd-49c6-ad73-6e59c539acce","ios":"levelo://app?vid=101318d6-5ccd-49c6-ad73-6e59c539acce"},"vehicle_type_id":"4","last_reported":1722283748,"current_range_meters":14400,"station_id":"ce4bhb92rcd13ifvqen0","pricing_plan_id":"cebpf4jnsgd1na2vs0mg"},{"bike_id":"070a013d-f2f8-42e4-899d-47328948e155","system_id":"levelo_inurba_marseille","lat":43.29004,"lon":5.35615,"is_reserved":false,"is_disabled":false,"rental_uris":{"android":"levelo://app?vid=070a013d-f2f8-42e4-899d-47328948e155","ios":"levelo://app?vid=070a013d-f2f8-42e4-899d-47328948e155"},"vehicle_type_id":"4","last_reported":1722283748,"current_range_meters":0,"station_id":"ce4bhb92rcd13ifvqen0","pricing_plan_id":"cebpf4jnsgd1na2vs0mg"},{"bike_id":"bc0be0d6-006d-45aa-a18d-1ba2ef6d2f04","system_id":"levelo_inurba_marseille","lat":43.29098,"lon":5.381265,"is_reserved":false,"is_disabled":false,"rental_uris":{"android":"levelo://app?vid=bc0be0d6-006d-45aa-a18d-1ba2ef6d2f04","ios":"levelo://app?vid=bc0be0d6-006d-45aa-a18d-1ba2ef6d2f04"},"vehicle_type_id":"4","last_reported":1722283748,"current_range_meters":3200,"station_id":"ce4bh512rcd13ifvqe2g","pricing_plan_id":"cebpf4jnsgd1na2vs0mg"},{"bike_id":"4a3a90ef-b448-4824-a4ea-f4de608b64ca","system_id":"levelo_inurba_marseille","lat":43.29096,"lon":5.38128,"is_reserved":false,"is_disabled":false,"rental_uris":{"android":"levelo://app?vid=4a3a90ef-b448-4824-a4ea-f4de608b64ca","ios":"levelo://app?vid=4a3a90ef-b448-4824-a4ea-f4de608b64ca"},"vehicle_type_id":"4","last_reported":1722283748,"current_range_meters":27600,"station_id":"ce4bh512rcd13ifvqe2g","pricing_plan_id":"cebpf4jnsgd1na2vs0mg"},{"bike_id":"59c88050-3a7c-4540-a3d4-07b5949811f0","system_id":"levelo_inurba_marseille","lat":43.290995,"lon":5.381361,"is_reserved":false,"is_disabled":false,"rental_uris":{"android":"levelo://app?vid=59c88050-3a7c-4540-a3d4-07b5949811f0","ios":"levelo://app?vid=59c88050-3a7c-4540-a3d4-07b5949811f0"},"vehicle_type_id":"4","last_reported":1722283748,"current_range_meters":10000,"station_id":"ce4bh512rcd13ifvqe2g","pricing_plan_id":"cebpf4jnsgd1na2vs0mg"},{"bike_id":"70c0034a-4ca9-4dc8-9ef7-4cc56508bac5","system_id":"levelo_inurba_marseille","lat":43.290995,"lon":5.381361,"is_reserved":false,"is_disabled":false,"rental_uris":{"android":"levelo://app?vid=70c0034a-4ca9-4dc8-9ef7-4cc56508bac5","ios":"levelo://app?vid=70c0034a-4ca9-4dc8-9ef7-4cc56508bac5"},"vehicle_type_id":"4","last_reported":1722283748,"current_range_meters":24800,"station_id":"ce4bh512rcd13ifvqe2g","pricing_plan_id":"cebpf4jnsgd1na2vs0mg"},{"bike_id":"b324c18f-216d-484c-963f-6e88c8d939e3","system_id":"levelo_inurba_marseille","lat":43.290995,"lon":5.381361,"is_reserved":false,"is_disabled":false,"rental_uris":{"android":"levelo://app?vid=b324c18f-216d-484c-963f-6e88c8d939e3","ios":"levelo://app?vid=b324c18f-216d-484c-963f-6e88c8d939e3"},"vehicle_type_id":"4","last_reported":1722283748,"current_range_meters":6800,"station_id":"ce4bh512rcd13ifvqe2g","pricing_plan_id":"cebpf4jnsgd1na2vs0mg"},{"bike_id":"c289189a-8590-47b2-8eb6-34ced6e7cc52","system_id":"levelo_inurba_marseille","lat":43.297815,"lon":5.393548,"is_reserved":false,"is_disabled":false,"rental_uris":{"android":"levelo://app?vid=c289189a-8590-47b2-8eb6-34ced6e7cc52","ios":"levelo://app?vid=c289189a-8590-47b2-8eb6-34ced6e7cc52"},"vehicle_type_id":"4","last_reported":1722283748,"current_range_meters":3200,"station_id":"chh1huq6cuj3fo74tm60","pricing_plan_id":"cebpf4jnsgd1na2vs0mg"},{"bike_id":"2df3ffbc-67dc-4407-9ba5-2ee1b5a1cf06","system_id":"levelo_inurba_marseille","lat":43.28973,"lon":5.37841,"is_reserved":false,"is_disabled":false,"rental_uris":{"android":"levelo://app?vid=2df3ffbc-67dc-4407-9ba5-2ee1b5a1cf06","ios":"levelo://app?vid=2df3ffbc-67dc-4407-9ba5-2ee1b5a1cf06"},"vehicle_type_id":"4","last_reported":1722283748,"current_range_meters":5200,"station_id":"ce4bh9p2rcd13ifvqed0","pricing_plan_id":"cebpf4jnsgd1na2vs0mg"},{"bike_id":"6b52f6b4-cccc-4044-9746-e121e65f4531","system_id":"levelo_inurba_marseille","lat":43.295169,"lon":5.390426,"is_reserved":false,"is_disabled":false,"rental_uris":{"android":"levelo://app?vid=6b52f6b4-cccc-4044-9746-e121e65f4531","ios":"levelo://app?vid=6b52f6b4-cccc-4044-9746-e121e65f4531"},"vehicle_type_id":"4","last_reported":1722283748,"current_range_meters":16800,"station_id":"ce4bh3p2rcd13ifvqdp0","pricing_plan_id":"cebpf4jnsgd1na2vs0mg"},{"bike_id":"98006afe-8f34-4289-9b84-b845877df418","system_id":"levelo_inurba_marseille","lat":43.295169,"lon":5.390426,"is_reserved":false,"is_disabled":false,"rental_uris":{"android":"levelo://app?vid=98006afe-8f34-4289-9b84-b845877df418","ios":"levelo://app?vid=98006afe-8f34-4289-9b84-b845877df418"},"vehicle_type_id":"4","last_reported":1722283748,"current_range_meters":18800,"station_id":"ce4bh3p2rcd13ifvqdp0","pricing_plan_id":"cebpf4jnsgd1na2vs0mg"},{"bike_id":"6d9125d2-3947-4d3b-8e84-69c56fc4ad9f","system_id":"levelo_inurba_marseille","lat":43.33028,"lon":5.390497,"is_reserved":false,"is_disabled":false,"rental_uris":{"android":"levelo://app?vid=6d9125d2-3947-4d3b-8e84-69c56fc4ad9f","ios":"levelo://app?vid=6d9125d2-3947-4d3b-8e84-69c56fc4ad9f"},"vehicle_type_id":"4","last_reported":1722283748,"current_range_meters":19600,"station_id":"ce4bhr92rcd13ifvqhrg","pricing_plan_id":"cebpf4jnsgd1na2vs0mg"},{"bike_id":"fb45f73a-a68c-44b8-b608-88a53238c28e","system_id":"levelo_inurba_marseille","lat":43.29029,"lon":5.38135,"is_reserved":false,"is_disabled":false,"rental_uris":{"android":"levelo://app?vid=fb45f73a-a68c-44b8-b608-88a53238c28e","ios":"levelo://app?vid=fb45f73a-a68c-44b8-b608-88a53238c28e"},"vehicle_type_id":"4","last_reported":1722283748,"current_range_meters":7600,"station_id":"ce4bh4p2rcd13ifvqe1g","pricing_plan_id":"cebpf4jnsgd1na2vs0mg"},{"bike_id":"19807d80-d016-48ef-a001-d750648f464f","system_id":"levelo_inurba_marseille","lat":43.29025,"lon":5.38134,"is_reserved":false,"is_disabled":false,"rental_uris":{"android":"levelo://app?vid=19807d80-d016-48ef-a001-d750648f464f","ios":"levelo://app?vid=19807d80-d016-48ef-a001-d750648f464f"},"vehicle_type_id":"4","last_reported":1722283748,"current_range_meters":18000,"station_id":"ce4bh4p2rcd13ifvqe1g","pricing_plan_id":"cebpf4jnsgd1na2vs0mg"},{"bike_id":"88b9551f-5d62-428c-8f3b-9dc101a9f05c","system_id":"levelo_inurba_marseille","lat":43.29024,"lon":5.38136,"is_reserved":false,"is_disabled":false,"rental_uris":{"android":"levelo://app?vid=88b9551f-5d62-428c-8f3b-9dc101a9f05c","ios":"levelo://app?vid=88b9551f-5d62-428c-8f3b-9dc101a9f05c"},"vehicle_type_id":"4","last_reported":1722283748,"current_range_meters":0,"station_id":"ce4bh4p2rcd13ifvqe1g","pricing_plan_id":"cebpf4jnsgd1na2vs0mg"},{"bike_id":"f4cdf6f8-59cc-4926-bbd3-bf830cd7e7b6","system_id":"levelo_inurba_marseille","lat":43.29019,"lon":5.38125,"is_reserved":false,"is_disabled":false,"rental_uris":{"android":"levelo://app?vid=f4cdf6f8-59cc-4926-bbd3-bf830cd7e7b6","ios":"levelo://app?vid=f4cdf6f8-59cc-4926-bbd3-bf830cd7e7b6"},"vehicle_type_id":"4","last_reported":1722283748,"current_range_meters":25600,"station_id":"ce4bh4p2rcd13ifvqe1g","pricing_plan_id":"cebpf4jnsgd1na2vs0mg"},{"bike_id":"e06c9e7a-6356-48d6-9843-abefbf9231ca","system_id":"levelo_inurba_marseille","lat":43.290094,"lon":5.381264,"is_reserved":false,"is_disabled":false,"rental_uris":{"android":"levelo://app?vid=e06c9e7a-6356-48d6-9843-abefbf9231ca","ios":"levelo://app?vid=e06c9e7a-6356-48d6-9843-abefbf9231ca"},"vehicle_type_id":"4","last_reported":1722283748,"current_range_meters":10400,"station_id":"ce4bh4p2rcd13ifvqe1g","pricing_plan_id":"cebpf4jnsgd1na2vs0mg"},{"bike_id":"099bd739-fd60-41a1-9743-4d1bdbfaaf94","system_id":"levelo_inurba_marseille","lat":43.290182,"lon":5.381282,"is_reserved":false,"is_disabled":false,"rental_uris":{"android":"levelo://app?vid=099bd739-fd60-41a1-9743-4d1bdbfaaf94","ios":"levelo://app?vid=099bd739-fd60-41a1-9743-4d1bdbfaaf94"},"vehicle_type_id":"4","last_reported":1722283748,"current_range_meters":0,"station_id":"ce4bh4p2rcd13ifvqe1g","pricing_plan_id":"cebpf4jnsgd1na2vs0mg"},{"bike_id":"4fabf254-48ec-447f-affc-c482b162900b","system_id":"levelo_inurba_marseille","lat":43.29016,"lon":5.381355,"is_reserved":false,"is_disabled":false,"rental_uris":{"android":"levelo://app?vid=4fabf254-48ec-447f-affc-c482b162900b","ios":"levelo://app?vid=4fabf254-48ec-447f-affc-c482b162900b"},"vehicle_type_id":"4","last_reported":1722283748,"current_range_meters":0,"station_id":"ce4bh4p2rcd13ifvqe1g","pricing_plan_id":"cebpf4jnsgd1na2vs0mg"},{"bike_id":"7f0dc52c-cd2c-45d5-a94a-87ba788ef313","system_id":"levelo_inurba_marseille","lat":43.28845,"lon":5.35843,"is_reserved":false,"is_disabled":false,"rental_uris":{"android":"levelo://app?vid=7f0dc52c-cd2c-45d5-a94a-87ba788ef313","ios":"levelo://app?vid=7f0dc52c-cd2c-45d5-a94a-87ba788ef313"},"vehicle_type_id":"4","last_reported":1722283748,"current_range_meters":0,"station_id":"ce4bhb12rcd13ifvqem0","pricing_plan_id":"cebpf4jnsgd1na2vs0mg"},{"bike_id":"b5ed86f7-8e8e-4c8e-bd18-856c5da7abdc","system_id":"levelo_inurba_marseille","lat":43.28843,"lon":5.35827,"is_reserved":false,"is_disabled":false,"rental_uris":{"android":"levelo://app?vid=b5ed86f7-8e8e-4c8e-bd18-856c5da7abdc","ios":"levelo://app?vid=b5ed86f7-8e8e-4c8e-bd18-856c5da7abdc"},"vehicle_type_id":"4","last_reported":1722283748,"current_range_meters":0,"station_id":"ce4bhb12rcd13ifvqem0","pricing_plan_id":"cebpf4jnsgd1na2vs0mg"},{"bike_id":"64ab59ad-1c1c-457a-a7dd-ad1ccdc9bd25","system_id":"levelo_inurba_marseille","lat":43.302787,"lon":5.398757,"is_reserved":false,"is_disabled":false,"rental_uris":{"android":"levelo://app?vid=64ab59ad-1c1c-457a-a7dd-ad1ccdc9bd25","ios":"levelo://app?vid=64ab59ad-1c1c-457a-a7dd-ad1ccdc9bd25"},"vehicle_type_id":"4","last_reported":1722283748,"current_range_meters":6800,"station_id":"","pricing_plan_id":"cebpf4jnsgd1na2vs0mg"},{"bike_id":"06893d85-53a4-4867-afd8-82559233763e","system_id":"levelo_inurba_marseille","lat":43.287812,"lon":5.373682,"is_reserved":false,"is_disabled":false,"rental_uris":{"android":"levelo://app?vid=06893d85-53a4-4867-afd8-82559233763e","ios":"levelo://app?vid=06893d85-53a4-4867-afd8-82559233763e"},"vehicle_type_id":"4","last_reported":1722283748,"current_range_meters":22000,"station_id":"","pricing_plan_id":"cebpf4jnsgd1na2vs0mg"},{"bike_id":"0947d520-5902-43d2-9e61-47bf12ff75f9","system_id":"levelo_inurba_marseille","lat":43.337553,"lon":5.374554,"is_reserved":false,"is_disabled":false,"rental_uris":{"android":"levelo://app?vid=0947d520-5902-43d2-9e61-47bf12ff75f9","ios":"levelo://app?vid=0947d520-5902-43d2-9e61-47bf12ff75f9"},"vehicle_type_id":"4","last_reported":1722283748,"current_range_meters":21200,"station_id":"","pricing_plan_id":"cebpf4jnsgd1na2vs0mg"},{"bike_id":"3d66e4ba-d21d-4c4f-a74f-8c22411acbbd","system_id":"levelo_inurba_marseille","lat":43.33755,"lon":5.37491,"is_reserved":false,"is_disabled":false,"rental_uris":{"android":"levelo://app?vid=3d66e4ba-d21d-4c4f-a74f-8c22411acbbd","ios":"levelo://app?vid=3d66e4ba-d21d-4c4f-a74f-8c22411acbbd"},"vehicle_type_id":"4","last_reported":1722283748,"current_range_meters":17200,"station_id":"","pricing_plan_id":"cebpf4jnsgd1na2vs0mg"},{"bike_id":"2d1366a4-7508-4a48-b358-8c9d8eb240e2","system_id":"levelo_inurba_marseille","lat":43.306412,"lon":5.401035,"is_reserved":false,"is_disabled":false,"rental_uris":{"android":"levelo://app?vid=2d1366a4-7508-4a48-b358-8c9d8eb240e2","ios":"levelo://app?vid=2d1366a4-7508-4a48-b358-8c9d8eb240e2"},"vehicle_type_id":"4","last_reported":1722283748,"current_range_meters":26800,"station_id":"ce4bh112rcd13ifvqda0","pricing_plan_id":"cebpf4jnsgd1na2vs0mg"},{"bike_id":"41a8c5a6-9ae1-47ad-9915-205bb40fea0e","system_id":"levelo_inurba_marseille","lat":43.3062,"lon":5.40095,"is_reserved":false,"is_disabled":false,"rental_uris":{"android":"levelo://app?vid=41a8c5a6-9ae1-47ad-9915-205bb40fea0e","ios":"levelo://app?vid=41a8c5a6-9ae1-47ad-9915-205bb40fea0e"},"vehicle_type_id":"4","last_reported":1722283748,"current_range_meters":0,"station_id":"ce4bh112rcd13ifvqda0","pricing_plan_id":"cebpf4jnsgd1na2vs0mg"},{"bike_id":"a1c87420-407c-4b67-81b6-9f0fa54df7df","system_id":"levelo_inurba_marseille","lat":43.30138,"lon":5.3987,"is_reserved":false,"is_disabled":false,"rental_uris":{"android":"levelo://app?vid=a1c87420-407c-4b67-81b6-9f0fa54df7df","ios":"levelo://app?vid=a1c87420-407c-4b67-81b6-9f0fa54df7df"},"vehicle_type_id":"4","last_reported":1722283748,"current_range_meters":0,"station_id":"ce4bh0h2rcd13ifvqd40","pricing_plan_id":"cebpf4jnsgd1na2vs0mg"},{"bike_id":"00803520-c83c-45a1-b511-1967f3978c8b","system_id":"levelo_inurba_marseille","lat":43.301117,"lon":5.398795,"is_reserved":false,"is_disabled":false,"rental_uris":{"android":"levelo://app?vid=00803520-c83c-45a1-b511-1967f3978c8b","ios":"levelo://app?vid=00803520-c83c-45a1-b511-1967f3978c8b"},"vehicle_type_id":"4","last_reported":1722283748,"current_range_meters":0,"station_id":"ce4bh0h2rcd13ifvqd40","pricing_plan_id":"cebpf4jnsgd1na2vs0mg"},{"bike_id":"4dbf37a3-6faf-4bb4-b7ee-5b59721dc3ca","system_id":"levelo_inurba_marseille","lat":43.301117,"lon":5.398795,"is_reserved":false,"is_disabled":false,"rental_uris":{"android":"levelo://app?vid=4dbf37a3-6faf-4bb4-b7ee-5b59721dc3ca","ios":"levelo://app?vid=4dbf37a3-6faf-4bb4-b7ee-5b59721dc3ca"},"vehicle_type_id":"4","last_reported":1722283748,"current_range_meters":16400,"station_id":"ce4bh0h2rcd13ifvqd40","pricing_plan_id":"cebpf4jnsgd1na2vs0mg"},{"bike_id":"7abd7b05-8793-4ad6-b072-4414827862e1","system_id":"levelo_inurba_marseille","lat":43.286961,"lon":5.373785,"is_reserved":false,"is_disabled":false,"rental_uris":{"android":"levelo://app?vid=7abd7b05-8793-4ad6-b072-4414827862e1","ios":"levelo://app?vid=7abd7b05-8793-4ad6-b072-4414827862e1"},"vehicle_type_id":"4","last_reported":1722283748,"current_range_meters":14000,"station_id":"ce4bh3p2rcd13ifvqdq0","pricing_plan_id":"cebpf4jnsgd1na2vs0mg"},{"bike_id":"2b967eae-1795-409b-aafa-6024673ca12d","system_id":"levelo_inurba_marseille","lat":43.28704,"lon":5.37399,"is_reserved":false,"is_disabled":false,"rental_uris":{"android":"levelo://app?vid=2b967eae-1795-409b-aafa-6024673ca12d","ios":"levelo://app?vid=2b967eae-1795-409b-aafa-6024673ca12d"},"vehicle_type_id":"4","last_reported":1722283748,"current_range_meters":2000,"station_id":"ce4bh3p2rcd13ifvqdq0","pricing_plan_id":"cebpf4jnsgd1na2vs0mg"},{"bike_id":"e3c9005c-f1b0-4fe9-ab56-c8c481f70453","system_id":"levelo_inurba_marseille","lat":43.286591,"lon":5.363346,"is_reserved":false,"is_disabled":false,"rental_uris":{"android":"levelo://app?vid=e3c9005c-f1b0-4fe9-ab56-c8c481f70453","ios":"levelo://app?vid=e3c9005c-f1b0-4fe9-ab56-c8c481f70453"},