{"last_updated":1726596721,"ttl":30,"version":"2.2","data":{"bikes":[{"bike_id":"90abfe11-9420-4213-85a0-428c7dca4e9c","system_id":"levelo_inurba_marseille","lat":43.288572,"lon":5.358496,"is_reserved":false,"is_disabled":false,"rental_uris":{"android":"levelo://app?vid=90abfe11-9420-4213-85a0-428c7dca4e9c","ios":"levelo://app?vid=90abfe11-9420-4213-85a0-428c7dca4e9c"},"vehicle_type_id":"4","last_reported":1726596721,"current_range_meters":20400,"station_id":"ce4bho92rcd13ifvqh3g","pricing_plan_id":"cebpf4jnsgd1na2vs0mg"},{"bike_id":"d8a7bbae-3d0e-457c-8e82-e6128d956f4d","system_id":"levelo_inurba_marseille","lat":43.2749,"lon":5.42465,"is_reserved":false,"is_disabled":false,"rental_uris":{"android":"levelo://app?vid=d8a7bbae-3d0e-457c-8e82-e6128d956f4d","ios":"levelo://app?vid=d8a7bbae-3d0e-457c-8e82-e6128d956f4d"},"vehicle_type_id":"4","last_reported":1726596721,"current_range_meters":10800,"station_id":"ce4bhn92rcd13ifvqgrg","pricing_plan_id":"cebpf4jnsgd1na2vs0mg"},{"bike_id":"65712b9a-28c5-4e00-ab3a-ec23b0f45f3c","system_id":"levelo_inurba_marseille","lat":43.27942,"lon":5.41041,"is_reserved":false,"is_disabled":false,"rental_uris":{"android":"levelo://app?vid=65712b9a-28c5-4e00-ab3a-ec23b0f45f3c","ios":"levelo://app?vid=65712b9a-28c5-4e00-ab3a-ec23b0f45f3c"},"vehicle_type_id":"4","last_reported":1726596721,"current_range_meters":8000,"station_id":"ce4bhnp2rcd13ifvqh0g","pricing_plan_id":"cebpf4jnsgd1na2vs0mg"},{"bike_id":"37271e53-1719-46db-8813-3e19d0e025a8","system_id":"levelo_inurba_marseille","lat":43.25866,"lon":5.399,"is_reserved":false,"is_disabled":false,"rental_uris":{"android":"levelo://app?vid=37271e53-1719-46db-8813-3e19d0e025a8","ios":"levelo://app?vid=37271e53-1719-46db-8813-3e19d0e025a8"},"vehicle_type_id":"4","last_reported":1726596721,"current_range_meters":26800,"station_id":"ce4bhl92rcd13ifvqghg","pricing_plan_id":"cebpf4jnsgd1na2vs0mg"},{"bike_id":"beec7f21-2cc6-4924-9dc8-b63fcd079dba","system_id":"levelo_inurba_marseille","lat":43.29605,"lon":5.37212,"is_reserved":false,"is_disabled":false,"rental_uris":{"android":"levelo://app?vid=beec7f21-2cc6-4924-9dc8-b63fcd079dba","ios":"levelo://app?vid=beec7f21-2cc6-4924-9dc8-b63fcd079dba"},"vehicle_type_id":"4","last_reported":1726596721,"current_range_meters":6800,"station_id":"ce4bgk12rcd13ifvqbj0","pricing_plan_id":"cebpf4jnsgd1na2vs0mg"},{"bike_id":"5e58480d-6fe4-44d6-8999-27e0414f1157","system_id":"levelo_inurba_marseille","lat":43.28933,"lon":5.38389,"is_reserved":false,"is_disabled":false,"rental_uris":{"android":"levelo://app?vid=5e58480d-6fe4-44d6-8999-27e0414f1157","ios":"levelo://app?vid=5e58480d-6fe4-44d6-8999-27e0414f1157"},"vehicle_type_id":"4","last_reported":1726596721,"current_range_meters":14800,"station_id":"ce4bh612rcd13ifvqe6g","pricing_plan_id":"cebpf4jnsgd1na2vs0mg"},{"bike_id":"43176770-eaee-4996-86c7-d408161e4ce6","system_id":"levelo_inurba_marseille","lat":43.29897,"lon":5.43658,"is_reserved":false,"is_disabled":false,"rental_uris":{"android":"levelo://app?vid=43176770-eaee-4996-86c7-d408161e4ce6","ios":"levelo://app?vid=43176770-eaee-4996-86c7-d408161e4ce6"},"vehicle_type_id":"4","last_reported":1726596721,"current_range_meters":4400,"station_id":"ce4bhpp2rcd13ifvqhfg","pricing_plan_id":"cebpf4jnsgd1na2vs0mg"},{"bike_id":"98dbbabc-9f8d-44e6-86dd-2ae0464166df","system_id":"levelo_inurba_marseille","lat":43.31336,"lon":5.39713,"is_reserved":false,"is_disabled":false,"rental_uris":{"android":"levelo://app?vid=98dbbabc-9f8d-44e6-86dd-2ae0464166df","ios":"levelo://app?vid=98dbbabc-9f8d-44e6-86dd-2ae0464166df"},"vehicle_type_id":"4","last_reported":1726596721,"current_range_meters":38800,"station_id":"ce4bgvp2rcd13ifvqcu0","pricing_plan_id":"cebpf4jnsgd1na2vs0mg"},{"bike_id":"7d3f0122-d2f2-480e-bb1c-9741d43c8a79","system_id":"levelo_inurba_marseille","lat":43.2803,"lon":5.36947,"is_reserved":false,"is_disabled":false,"rental_uris":{"android":"levelo://app?vid=7d3f0122-d2f2-480e-bb1c-9741d43c8a79","ios":"levelo://app?vid=7d3f0122-d2f2-480e-bb1c-9741d43c8a79"},"vehicle_type_id":"4","last_reported":1726596721,"current_range_meters":36800,"station_id":"ce4bha12rcd13ifvqef0","pricing_plan_id":"cebpf4jnsgd1na2vs0mg"},{"bike_id":"017ad941-2bc7-4c23-aa10-a9af1a423d28","system_id":"levelo_inurba_marseille","lat":43.33019,"lon":5.39047,"is_reserved":false,"is_disabled":false,"rental_uris":{"android":"levelo://app?vid=017ad941-2bc7-4c23-aa10-a9af1a423d28","ios":"levelo://app?vid=017ad941-2bc7-4c23-aa10-a9af1a423d28"},"vehicle_type_id":"4","last_reported":1726596721,"current_range_meters":14800,"station_id":"ce4bhr92rcd13ifvqhrg","pricing_plan_id":"cebpf4jnsgd1na2vs0mg"},{"bike_id":"b679e135-2e71-4d04-938c-7a569bd0801a","system_id":"levelo_inurba_marseille","lat":43.274888,"lon":5.435506,"is_reserved":false,"is_disabled":false,"rental_uris":{"android":"levelo://app?vid=b679e135-2e71-4d04-938c-7a569bd0801a","ios":"levelo://app?vid=b679e135-2e71-4d04-938c-7a569bd0801a"},"vehicle_type_id":"4","last_reported":1726596721,"current_range_meters":34000,"station_id":"ce4bhk92rcd13ifvqgb0","pricing_plan_id":"cebpf4jnsgd1na2vs0mg"},{"bike_id":"b3f0c19a-bb5b-40a5-9edd-2ed1554481bd","system_id":"levelo_inurba_marseille","lat":43.2973,"lon":5.37683,"is_reserved":false,"is_disabled":false,"rental_uris":{"android":"levelo://app?vid=b3f0c19a-bb5b-40a5-9edd-2ed1554481bd","ios":"levelo://app?vid=b3f0c19a-bb5b-40a5-9edd-2ed1554481bd"},"vehicle_type_id":"4","last_reported":1726596721,"current_range_meters":25200,"station_id":"ce4bgkh2rcd13ifvqbl0","pricing_plan_id":"cebpf4jnsgd1na2vs0mg"},{"bike_id":"cbf79b87-1606-4d6b-8412-d50b8f725d44","system_id":"levelo_inurba_marseille","lat":43.29572,"lon":5.39984,"is_reserved":false,"is_disabled":false,"rental_uris":{"android":"levelo://app?vid=cbf79b87-1606-4d6b-8412-d50b8f725d44","ios":"levelo://app?vid=cbf79b87-1606-4d6b-8412-d50b8f725d44"},"vehicle_type_id":"4","last_reported":1726596721,"current_range_meters":4800,"station_id":"ce4bh312rcd13ifvqdj0","pricing_plan_id":"cebpf4jnsgd1na2vs0mg"},{"bike_id":"4463c26d-d160-4e33-9ed8-3ab6290669c4","system_id":"levelo_inurba_marseille","lat":43.3171,"lon":5.43706,"is_reserved":false,"is_disabled":false,"rental_uris":{"android":"levelo://app?vid=4463c26d-d160-4e33-9ed8-3ab6290669c4","ios":"levelo://app?vid=4463c26d-d160-4e33-9ed8-3ab6290669c4"},"vehicle_type_id":"4","last_reported":1726596721,"current_range_meters":28800,"station_id":"ce4bhp92rcd13ifvqhcg","pricing_plan_id":"cebpf4jnsgd1na2vs0mg"},{"bike_id":"bf2f4e0c-cd5c-4276-8f8a-e0f8f1a0a3db","system_id":"levelo_inurba_marseille","lat":43.29628,"lon":5.40604,"is_reserved":false,"is_disabled":false,"rental_uris":{"android":"levelo://app?vid=bf2f4e0c-cd5c-4276-8f8a-e0f8f1a0a3db","ios":"levelo://app?vid=bf2f4e0c-cd5c-4276-8f8a-e0f8f1a0a3db"},"vehicle_type_id":"4","last_reported":1726596721,"current_range_meters":3200,"station_id":"ce4bh0h2rcd13ifvqd60","pricing_plan_id":"cebpf4jnsgd1na2vs0mg"},{"bike_id":"5e56a4df-2e48-45d3-b816-932e85b83fb8","system_id":"levelo_inurba_marseille","lat":43.31755,"lon":5.39019,"is_reserved":false,"is_disabled":false,"rental_uris":{"android":"levelo://app?vid=5e56a4df-2e48-45d3-b816-932e85b83fb8","ios":"levelo://app?vid=5e56a4df-2e48-45d3-b816-932e85b83fb8"},"vehicle_type_id":"4","last_reported":1726596721,"current_range_meters":3600,"station_id":"ce4bhqp2rcd13ifvqhng","pricing_plan_id":"cebpf4jnsgd1na2vs0mg"},{"bike_id":"02a5ac25-ed5b-41d7-8a0c-4208bd30892b","system_id":"levelo_inurba_marseille","lat":43.308853,"lon":5.396502,"is_reserved":false,"is_disabled":false,"rental_uris":{"android":"levelo://app?vid=02a5ac25-ed5b-41d7-8a0c-4208bd30892b","ios":"levelo://app?vid=02a5ac25-ed5b-41d7-8a0c-4208bd30892b"},"vehicle_type_id":"4","last_reported":1726596721,"current_range_meters":15200,"station_id":"ce4bh012rcd13ifvqcv0","pricing_plan_id":"cebpf4jnsgd1na2vs0mg"},{"bike_id":"04802112-1398-447a-bc2d-b87684325f30","system_id":"levelo_inurba_marseille","lat":43.291869,"lon":5.401966,"is_reserved":false,"is_disabled":false,"rental_uris":{"android":"levelo://app?vid=04802112-1398-447a-bc2d-b87684325f30","ios":"levelo://app?vid=04802112-1398-447a-bc2d-b87684325f30"},"vehicle_type_id":"4","last_reported":1726596721,"current_range_meters":16800,"station_id":"ce4bhk92rcd13ifvqgb0","pricing_plan_id":"cebpf4jnsgd1na2vs0mg"},{"bike_id":"e5324e86-752d-4b90-9b71-e4acf8c1da5d","system_id":"levelo_inurba_marseille","lat":43.28943,"lon":5.3639,"is_reserved":false,"is_disabled":false,"rental_uris":{"android":"levelo://app?vid=e5324e86-752d-4b90-9b71-e4acf8c1da5d","ios":"levelo://app?vid=e5324e86-752d-4b90-9b71-e4acf8c1da5d"},"vehicle_type_id":"4","last_reported":1726596721,"current_range_meters":37600,"station_id":"ce4bhc92rcd13ifvqetg","pricing_plan_id":"cebpf4jnsgd1na2vs0mg"},{"bike_id":"36587967-1e79-47c3-ba21-dd6bfe64ec87","system_id":"levelo_inurba_marseille","lat":43.32361,"lon":5.38882,"is_reserved":false,"is_disabled":false,"rental_uris":{"android":"levelo://app?vid=36587967-1e79-47c3-ba21-dd6bfe64ec87","ios":"levelo://app?vid=36587967-1e79-47c3-ba21-dd6bfe64ec87"},"vehicle_type_id":"4","last_reported":1726596721,"current_range_meters":14400,"station_id":"ce4bhqp2rcd13ifvqhog","pricing_plan_id":"cebpf4jnsgd1na2vs0mg"},{"bike_id":"e8f01e28-5e79-467a-9e5c-d081a8389981","system_id":"levelo_inurba_marseille","lat":43.31362,"lon":5.38499,"is_reserved":false,"is_disabled":false,"rental_uris":{"android":"levelo://app?vid=e8f01e28-5e79-467a-9e5c-d081a8389981","ios":"levelo://app?vid=e8f01e28-5e79-467a-9e5c-d081a8389981"},"vehicle_type_id":"4","last_reported":1726596721,"current_range_meters":12000,"station_id":"ce4bgt92rcd13ifvqcf0","pricing_plan_id":"cebpf4jnsgd1na2vs0mg"},{"bike_id":"8043d702-42a5-4215-848a-8c7838ed1702","system_id":"levelo_inurba_marseille","lat":43.32289,"lon":5.38263,"is_reserved":false,"is_disabled":false,"rental_uris":{"android":"levelo://app?vid=8043d702-42a5-4215-848a-8c7838ed1702","ios":"levelo://app?vid=8043d702-42a5-4215-848a-8c7838ed1702"},"vehicle_type_id":"4","last_reported":1726596721,"current_range_meters":26800,"station_id":"ce4bhr12rcd13ifvqhqg","pricing_plan_id":"cebpf4jnsgd1na2vs0mg"},{"bike_id":"36ff1673-e996-4918-8958-9ffc564ae753","system_id":"levelo_inurba_marseille","lat":43.29256,"lon":5.40911,"is_reserved":false,"is_disabled":false,"rental_uris":{"android":"levelo://app?vid=36ff1673-e996-4918-8958-9ffc564ae753","ios":"levelo://app?vid=36ff1673-e996-4918-8958-9ffc564ae753"},"vehicle_type_id":"4","last_reported":1726596721,"current_range_meters":36000,"station_id":"ce4bh192rcd13ifvqdc0","pricing_plan_id":"cebpf4jnsgd1na2vs0mg"},{"bike_id":"7b1be020-a90f-4f1f-b544-732190d38034","system_id":"levelo_inurba_marseille","lat":43.29654,"lon":5.37942,"is_reserved":false,"is_disabled":false,"rental_uris":{"android":"levelo://app?vid=7b1be020-a90f-4f1f-b544-732190d38034","ios":"levelo://app?vid=7b1be020-a90f-4f1f-b544-732190d38034"},"vehicle_type_id":"4","last_reported":1726596721,"current_range_meters":28400,"station_id":"","pricing_plan_id":"cebpf4jnsgd1na2vs0mg"},{"bike_id":"63c40384-8eb2-4b55-a4cb-9c0d33f27a75","system_id":"levelo_inurba_marseille","lat":43.287009,"lon":5.373893,"is_reserved":false,"is_disabled":false,"rental_uris":{"android":"levelo://app?vid=63c40384-8eb2-4b55-a4cb-9c0d33f27a75","ios":"levelo://app?vid=63c40384-8eb2-4b55-a4cb-9c0d33f27a75"},"vehicle_type_id":"4","last_reported":1726596721,"current_range_meters":30400,"station_id":"ce4bh3p2rcd13ifvqdq0","pricing_plan_id":"cebpf4jnsgd1na2vs0mg"},{"bike_id":"2a5808e5-1612-4dc1-a62b-b9c71459256c","system_id":"levelo_inurba_marseille","lat":43.34084,"lon":5.39112,"is_reserved":false,"is_disabled":false,"rental_uris":{"android":"levelo://app?vid=2a5808e5-1612-4dc1-a62b-b9c71459256c","ios":"levelo://app?vid=2a5808e5-1612-4dc1-a62b-b9c71459256c"},"vehicle_type_id":"4","last_reported":1726596721,"current_range_meters":9200,"station_id":"","pricing_plan_id":"cebpf4jnsgd1na2vs0mg"},{"bike_id":"9def4d63-7cec-4ef3-bac5-883bf42519e2","system_id":"levelo_inurba_marseille","lat":43.28466,"lon":5.35884,"is_reserved":false,"is_disabled":false,"rental_uris":{"android":"levelo://app?vid=9def4d63-7cec-4ef3-bac5-883bf42519e2","ios":"levelo://app?vid=9def4d63-7cec-4ef3-bac5-883bf42519e2"},"vehicle_type_id":"4","last_reported":1726596721,"current_range_meters":16400,"station_id":"ce4bhah2rcd13ifvqei0","pricing_plan_id":"cebpf4jnsgd1na2vs0mg"},{"bike_id":"aa588dff-f0a0-4546-92f8-010af2b30587","system_id":"levelo_inurba_marseille","lat":43.29097,"lon":5.3814,"is_reserved":false,"is_disabled":false,"rental_uris":{"android":"levelo://app?vid=aa588dff-f0a0-4546-92f8-010af2b30587","ios":"levelo://app?vid=aa588dff-f0a0-4546-92f8-010af2b30587"},"vehicle_type_id":"4","last_reported":1726596721,"current_range_meters":16000,"station_id":"ce4bh512rcd13ifvqe2g","pricing_plan_id":"cebpf4jnsgd1na2vs0mg"},{"bike_id":"69fabb06-4e65-4b54-9c62-ea4ce601487a","system_id":"levelo_inurba_marseille","lat":43.32295,"lon":5.38266,"is_reserved":false,"is_disabled":false,"rental_uris":{"android":"levelo://app?vid=69fabb06-4e65-4b54-9c62-ea4ce601487a","ios":"levelo://app?vid=69fabb06-4e65-4b54-9c62-ea4ce601487a"},"vehicle_type_id":"4","last_reported":1726596721,"current_range_meters":6400,"station_id":"ce4bhr12rcd13ifvqhqg","pricing_plan_id":"cebpf4jnsgd1na2vs0mg"},{"bike_id":"8e348505-df72-410a-93d0-1c9770028c82","system_id":"levelo_inurba_marseille","lat":43.30796,"lon":5.43521,"is_reserved":false,"is_disabled":false,"rental_uris":{"android":"levelo://app?vid=8e348505-df72-410a-93d0-1c9770028c82","ios":"levelo://app?vid=8e348505-df72-410a-93d0-1c9770028c82"},"vehicle_type_id":"4","last_reported":1726596721,"current_range_meters":36400,"station_id":"ce4bhph2rcd13ifvqheg","pricing_plan_id":"cebpf4jnsgd1na2vs0mg"},{"bike_id":"d7593cf5-9f85-41c1-9847-53a7a7227ad6","system_id":"levelo_inurba_marseille","lat":43.292285,"lon":5.36067,"is_reserved":false,"is_disabled":false,"rental_uris":{"android":"levelo://app?vid=d7593cf5-9f85-41c1-9847-53a7a7227ad6","ios":"levelo://app?vid=d7593cf5-9f85-41c1-9847-53a7a7227ad6"},"vehicle_type_id":"4","last_reported":1726596721,"current_range_meters":32400,"station_id":"ce4bhbh2rcd13ifvqeqg","pricing_plan_id":"cebpf4jnsgd1na2vs0mg"},{"bike_id":"c2667222-5d26-4d9c-a938-761c480fe584","system_id":"levelo_inurba_marseille","lat":43.33024,"lon":5.39038,"is_reserved":false,"is_disabled":false,"rental_uris":{"android":"levelo://app?vid=c2667222-5d26-4d9c-a938-761c480fe584","ios":"levelo://app?vid=c2667222-5d26-4d9c-a938-761c480fe584"},"vehicle_type_id":"4","last_reported":1726596721,"current_range_meters":11200,"station_id":"ce4bhr92rcd13ifvqhrg","pricing_plan_id":"cebpf4jnsgd1na2vs0mg"},{"bike_id":"498e795b-c158-46ba-9d30-4a239a5ef6a1","system_id":"levelo_inurba_marseille","lat":43.27997,"lon":5.40012,"is_reserved":false,"is_disabled":false,"rental_uris":{"android":"levelo://app?vid=498e795b-c158-46ba-9d30-4a239a5ef6a1","ios":"levelo://app?vid=498e795b-c158-46ba-9d30-4a239a5ef6a1"},"vehicle_type_id":"4","last_reported":1726596721,"current_range_meters":8400,"station_id":"ce4bho92rcd13ifvqh4g","pricing_plan_id":"cebpf4jnsgd1na2vs0mg"},{"bike_id":"7912119e-bf7a-45cb-b431-7c607c11ea93","system_id":"levelo_inurba_marseille","lat":43.25578,"lon":5.38243,"is_reserved":false,"is_disabled":false,"rental_uris":{"android":"levelo://app?vid=7912119e-bf7a-45cb-b431-7c607c11ea93","ios":"levelo://app?vid=7912119e-bf7a-45cb-b431-7c607c11ea93"},"vehicle_type_id":"4","last_reported":1726596721,"current_range_meters":38800,"station_id":"ce4bhih2rcd13ifvqfs0","pricing_plan_id":"cebpf4jnsgd1na2vs0mg"},{"bike_id":"5fbc3e0a-46a7-4ad7-bacc-ba5c08e8395b","system_id":"levelo_inurba_marseille","lat":43.297943,"lon":5.380906,"is_reserved":false,"is_disabled":false,"rental_uris":{"android":"levelo://app?vid=5fbc3e0a-46a7-4ad7-bacc-ba5c08e8395b","ios":"levelo://app?vid=5fbc3e0a-46a7-4ad7-bacc-ba5c08e8395b"},"vehicle_type_id":"4","last_reported":1726596721,"current_range_meters":38800,"station_id":"ce4bh192rcd13ifvqdd0","pricing_plan_id":"cebpf4jnsgd1na2vs0mg"},{"bike_id":"394e6ae4-aa38-47e5-ad65-1154f489383d","system_id":"levelo_inurba_marseille","lat":43.290962,"lon":5.35595,"is_reserved":false,"is_disabled":false,"rental_uris":{"android":"levelo://app?vid=394e6ae4-aa38-47e5-ad65-1154f489383d","ios":"levelo://app?vid=394e6ae4-aa38-47e5-ad65-1154f489383d"},"vehicle_type_id":"4","last_reported":1726596721,"current_range_meters":25200,"station_id":"","pricing_plan_id":"cebpf4jnsgd1na2vs0mg"},{"bike_id":"a02150e3-2d48-4d9f-bb25-686b6cad8811","system_id":"levelo_inurba_marseille","lat":43.28154,"lon":5.42644,"is_reserved":false,"is_disabled":false,"rental_uris":{"android":"levelo://app?vid=a02150e3-2d48-4d9f-bb25-686b6cad8811","ios":"levelo://app?vid=a02150e3-2d48-4d9f-bb25-686b6cad8811"},"vehicle_type_id":"4","last_reported":1726596721,"current_range_meters":24800,"station_id":"ce4bhnh2rcd13ifvqgug","pricing_plan_id":"cebpf4jnsgd1na2vs0mg"},{"bike_id":"f409a27c-3291-4d9b-ac57-9e74e75d80d1","system_id":"levelo_inurba_marseille","lat":43.32365,"lon":5.38878,"is_reserved":false,"is_disabled":false,"rental_uris":{"android":"levelo://app?vid=f409a27c-3291-4d9b-ac57-9e74e75d80d1","ios":"levelo://app?vid=f409a27c-3291-4d9b-ac57-9e74e75d80d1"},"vehicle_type_id":"4","last_reported":1726596721,"current_range_meters":12400,"station_id":"ce4bhqp2rcd13ifvqhog","pricing_plan_id":"cebpf4jnsgd1na2vs0mg"},{"bike_id":"bae243a2-b669-4eeb-aea4-f8296134bfda","system_id":"levelo_inurba_marseille","lat":43.294187,"lon":5.386246,"is_reserved":false,"is_disabled":false,"rental_uris":{"android":"levelo://app?vid=bae243a2-b669-4eeb-aea4-f8296134bfda","ios":"levelo://app?vid=bae243a2-b669-4eeb-aea4-f8296134bfda"},"vehicle_type_id":"4","last_reported":1726596721,"current_range_meters":22000,"station_id":"ce4bh2h2rcd13ifvqdh0","pricing_plan_id":"cebpf4jnsgd1na2vs0mg"},{"bike_id":"03c5c2e4-7d5d-4c10-90b3-101993cd2e77","system_id":"levelo_inurba_marseille","lat":43.28852,"lon":5.39314,"is_reserved":false,"is_disabled":false,"rental_uris":{"android":"levelo://app?vid=03c5c2e4-7d5d-4c10-90b3-101993cd2e77","ios":"levelo://app?vid=03c5c2e4-7d5d-4c10-90b3-101993cd2e77"},"vehicle_type_id":"4","last_reported":1726596721,"current_range_meters":8800,"station_id":"ce4bh2p2rcd13ifvqdi0","pricing_plan_id":"cebpf4jnsgd1na2vs0mg"},{"bike_id":"ee7cab51-ac41-4df2-a570-0b8afed077f6","system_id":"levelo_inurba_marseille","lat":43.33,"lon":5.39051,"is_reserved":false,"is_disabled":false,"rental_uris":{"android":"levelo://app?vid=ee7cab51-ac41-4df2-a570-0b8afed077f6","ios":"levelo://app?vid=ee7cab51-ac41-4df2-a570-0b8afed077f6"},"vehicle_type_id":"4","last_reported":1726596721,"current_range_meters":28400,"station_id":"ce4bhr92rcd13ifvqhrg","pricing_plan_id":"cebpf4jnsgd1na2vs0mg"},{"bike_id":"c7f93bf2-2b30-4c5c-aa72-447b3f4a28ea","system_id":"levelo_inurba_marseille","lat":43.29896,"lon":5.43664,"is_reserved":false,"is_disabled":false,"rental_uris":{"android":"levelo://app?vid=c7f93bf2-2b30-4c5c-aa72-447b3f4a28ea","ios":"levelo://app?vid=c7f93bf2-2b30-4c5c-aa72-447b3f4a28ea"},"vehicle_type_id":"4","last_reported":1726596721,"current_range_meters":8400,"station_id":"ce4bhpp2rcd13ifvqhfg","pricing_plan_id":"cebpf4jnsgd1na2vs0mg"},{"bike_id":"6d398055-ba33-4127-aa64-5cbde7e549c4","system_id":"levelo_inurba_marseille","lat":43.31999,"lon":5.38164,"is_reserved":false,"is_disabled":false,"rental_uris":{"android":"levelo://app?vid=6d398055-ba33-4127-aa64-5cbde7e549c4","ios":"levelo://app?vid=6d398055-ba33-4127-aa64-5cbde7e549c4"},"vehicle_type_id":"4","last_reported":1726596721,"current_range_meters":36800,"station_id":"ce4bhr12rcd13ifvqhpg","pricing_plan_id":"cebpf4jnsgd1na2vs0mg"},{"bike_id":"b2f8fbca-7a23-48ee-8529-37e22b6ec65d","system_id":"levelo_inurba_marseille","lat":43.30134,"lon":5.39876,"is_reserved":false,"is_disabled":false,"rental_uris":{"android":"levelo://app?vid=b2f8fbca-7a23-48ee-8529-37e22b6ec65d","ios":"levelo://app?vid=b2f8fbca-7a23-48ee-8529-37e22b6ec65d"},"vehicle_type_id":"4","last_reported":1726596721,"current_range_meters":21600,"station_id":"ce4bh0h2rcd13ifvqd40","pricing_plan_id":"cebpf4jnsgd1na2vs0mg"},{"bike_id":"57c55890-9622-407f-92d9-6af7734663b4","system_id":"levelo_inurba_marseille","lat":43.2318,"lon":5.39992,"is_reserved":false,"is_disabled":false,"rental_uris":{"android":"levelo://app?vid=57c55890-9622-407f-92d9-6af7734663b4","ios":"levelo://app?vid=57c55890-9622-407f-92d9-6af7734663b4"},"vehicle_type_id":"4","last_reported":1726596721,"current_range_meters":17200,"station_id":"ce4bhn12rcd13ifvqgqg","pricing_plan_id":"cebpf4jnsgd1na2vs0mg"},{"bike_id":"24743457-5f42-41c6-bed7-b8ed08b24661","system_id":"levelo_inurba_marseille","lat":43.25116,"lon":5.4032,"is_reserved":false,"is_disabled":false,"rental_uris":{"android":"levelo://app?vid=24743457-5f42-41c6-bed7-b8ed08b24661","ios":"levelo://app?vid=24743457-5f42-41c6-bed7-b8ed08b24661"},"vehicle_type_id":"4","last_reported":1726596721,"current_range_meters":10000,"station_id":"ce4bhlh2rcd13ifvqgig","pricing_plan_id":"cebpf4jnsgd1na2vs0mg"},{"bike_id":"b88d8bac-711e-49d2-9eee-8f0f2fcec434","system_id":"levelo_inurba_marseille","lat":43.3303,"lon":5.39038,"is_reserved":false,"is_disabled":false,"rental_uris":{"android":"levelo://app?vid=b88d8bac-711e-49d2-9eee-8f0f2fcec434","ios":"levelo://app?vid=b88d8bac-711e-49d2-9eee-8f0f2fcec434"},"vehicle_type_id":"4","last_reported":1726596721,"current_range_meters":28400,"station_id":"ce4bhr92rcd13ifvqhrg","pricing_plan_id":"cebpf4jnsgd1na2vs0mg"},{"bike_id":"869060af-f0f6-4cbc-90e7-2eeecec7cfa4","system_id":"levelo_inurba_marseille","lat":43.302136,"lon":5.394624,"is_reserved":false,"is_disabled":false,"rental_uris":{"android":"levelo://app?vid=869060af-f0f6-4cbc-90e7-2eeecec7cfa4","ios":"levelo://app?vid=869060af-f0f6-4cbc-90e7-2eeecec7cfa4"},"vehicle_type_id":"4","last_reported":1726596721,"current_range_meters":7200,"station_id":"ce4bh0p2rcd13ifvqd70","pricing_plan_id":"cebpf4jnsgd1na2vs0mg"},{"bike_id":"5ab07dd3-0cd8-4069-8eb1-cb9c1c45cb6b","system_id":"levelo_inurba_marseille","lat":43.26567,"lon":5.39012,"is_reserved":false,"is_disabled":false,"rental_uris":{"android":"levelo://app?vid=5ab07dd3-0cd8-4069-8eb1-cb9c1c45cb6b","ios":"levelo://app?vid=5ab07dd3-0cd8-4069-8eb1-cb9c1c45cb6b"},"vehicle_type_id":"4","last_reported":1726596721,"current_range_meters":34000,"station_id":"ce4bhe12rcd13ifvqf30","pricing_plan_id":"cebpf4jnsgd1na2vs0mg"},{"bike_id":"2e2254f6-d3ed-4277-af5f-ee204e464f40","system_id":"levelo_inurba_marseille","lat":43.29937,"lon":5.41323,"is_reserved":false,"is_disabled":false,"rental_uris":{"android":"levelo://app?vid=2e2254f6-d3ed-4277-af5f-ee204e464f40","ios":"levelo://app?vid=2e2254f6-d3ed-4277-af5f-ee204e464f40"},"vehicle_type_id":"4","last_reported":1726596721,"current_range_meters":38800,"station_id":"ce4bhp12rcd13ifvqh9g","pricing_plan_id":"cebpf4jnsgd1na2vs0mg"},{"bike_id":"8cb592d9-f82f-4171-894f-8d7ffa6525e5","system_id":"levelo_inurba_marseille","lat":43.23191,"lon":5.35549,"is_reserved":false,"is_disabled":false,"rental_uris":{"android":"levelo://app?vid=8cb592d9-f82f-4171-894f-8d7ffa6525e5","ios":"levelo://app?vid=8cb592d9-f82f-4171-894f-8d7ffa6525e5"},"vehicle_type_id":"4","last_reported":1726596721,"current_range_meters":18000,"station_id":"ce4bhu92rcd13ifvqi70","pricing_plan_id":"cebpf4jnsgd1na2vs0mg"},{"bike_id":"8d88c07c-4556-43d6-8940-ca6809bdad6b","system_id":"levelo_inurba_marseille","lat":43.28076,"lon":5.39652,"is_reserved":false,"is_disabled":false,"rental_uris":{"android":"levelo://app?vid=8d88c07c-4556-43d6-8940-ca6809bdad6b","ios":"levelo://app?vid=8d88c07c-4556-43d6-8940-ca6809bdad6b"},"vehicle_type_id":"4","last_reported":1726596721,"current_range_meters":30000,"station_id":"ce4bho12rcd13ifvqh2g","pricing_plan_id":"cebpf4jnsgd1na2vs0mg"},{"bike_id":"699d09b8-17ae-4b5a-81a4-f0906a954e6d","system_id":"levelo_inurba_marseille","lat":43.32292,"lon":5.38274,"is_reserved":false,"is_disabled":false,"rental_uris":{"android":"levelo://app?vid=699d09b8-17ae-4b5a-81a4-f0906a954e6d","ios":"levelo://app?vid=699d09b8-17ae-4b5a-81a4-f0906a954e6d"},"vehicle_type_id":"4","last_reported":1726596721,"current_range_meters":14000,"station_id":"ce4bhr12rcd13ifvqhqg","pricing_plan_id":"cebpf4jnsgd1na2vs0mg"},{"bike_id":"20a4a91d-8541-4958-9b2e-4e75165c8a2a","system_id":"levelo_inurba_marseille","lat":43.30799,"lon":5.43518,"is_reserved":false,"is_disabled":false,"rental_uris":{"android":"levelo://app?vid=20a4a91d-8541-4958-9b2e-4e75165c8a2a","ios":"levelo://app?vid=20a4a91d-8541-4958-9b2e-4e75165c8a2a"},"vehicle_type_id":"4","last_reported":1726596721,"current_range_meters":12400,"station_id":"ce4bhph2rcd13ifvqheg","pricing_plan_id":"cebpf4jnsgd1na2vs0mg"},{"bike_id":"c3bcca86-6294-4639-9d07-9722d40f464e","system_id":"levelo_inurba_marseille","lat":43.299,"lon":5.4367,"is_reserved":false,"is_disabled":false,"rental_uris":{"android":"levelo://app?vid=c3bcca86-6294-4639-9d07-9722d40f464e","ios":"levelo://app?vid=c3bcca86-6294-4639-9d07-9722d40f464e"},"vehicle_type_id":"4","last_reported":1726596721,"current_range_meters":31200,"station_id":"ce4bhpp2rcd13ifvqhfg","pricing_plan_id":"cebpf4jnsgd1na2vs0mg"},{"bike_id":"f562ffa1-a8dd-41c9-9769-f0e225d595e4","system_id":"levelo_inurba_marseille","lat":43.29047,"lon":5.35921,"is_reserved":false,"is_disabled":false,"rental_uris":{"android":"levelo://app?vid=f562ffa1-a8dd-41c9-9769-f0e225d595e4","ios":"levelo://app?vid=f562ffa1-a8dd-41c9-9769-f0e225d595e4"},"vehicle_type_id":"4","last_reported":1726596721,"current_range_meters":25600,"station_id":"ce4bha92rcd13ifvqeg0","pricing_plan_id":"cebpf4jnsgd1na2vs0mg"},{"bike_id":"464b765a-5bcf-418f-9058-526dab1b44f9","system_id":"levelo_inurba_marseille","lat":43.32289,"lon":5.38281,"is_reserved":false,"is_disabled":false,"rental_uris":{"android":"levelo://app?vid=464b765a-5bcf-418f-9058-526dab1b44f9","ios":"levelo://app?vid=464b765a-5bcf-418f-9058-526dab1b44f9"},"vehicle_type_id":"4","last_reported":1726596721,"current_range_meters":25600,"station_id":"ce4bhr12rcd13ifvqhqg","pricing_plan_id":"cebpf4jnsgd1na2vs0mg"},{"bike_id":"b8495eab-26ab-4f1a-b6a6-949e075109e5","system_id":"levelo_inurba_marseille","lat":43.29791,"lon":5.39341,"is_reserved":false,"is_disabled":false,"rental_uris":{"android":"levelo://app?vid=b8495eab-26ab-4f1a-b6a6-949e075109e5","ios":"levelo://app?vid=b8495eab-26ab-4f1a-b6a6-949e075109e5"},"vehicle_type_id":"4","last_reported":1726596721,"current_range_meters":7200,"station_id":"ce4bhgh2rcd13ifvqfb0","pricing_plan_id":"cebpf4jnsgd1na2vs0mg"},{"bike_id":"0d958ce1-0dfd-49f1-92e6-34b30c699003","system_id":"levelo_inurba_marseille","lat":43.30887,"lon":5.39655,"is_reserved":false,"is_disabled":false,"rental_uris":{"android":"levelo://app?vid=0d958ce1-0dfd-49f1-92e6-34b30c699003","ios":"levelo://app?vid=0d958ce1-0dfd-49f1-92e6-34b30c699003"},"vehicle_type_id":"4","last_reported":1726596721,"current_range_meters":6800,"station_id":"ce4bh012rcd13ifvqcv0","pricing_plan_id":"cebpf4jnsgd1na2vs0mg"},{"bike_id":"8e3c84db-879d-4669-8d43-f74eed3d4c1b","system_id":"levelo_inurba_marseille","lat":43.27376,"lon":5.36262,"is_reserved":false,"is_disabled":false,"rental_uris":{"android":"levelo://app?vid=8e3c84db-879d-4669-8d43-f74eed3d4c1b","ios":"levelo://app?vid=8e3c84db-879d-4669-8d43-f74eed3d4c1b"},"vehicle_type_id":"4","last_reported":1726596721,"current_range_meters":39200,"station_id":"ce4bhbh2rcd13ifvqeo0","pricing_plan_id":"cebpf4jnsgd1na2vs0mg"},{"bike_id":"932e06e0-9bec-4e3e-8b15-5d116b9a2067","system_id":"levelo_inurba_marseille","lat":43.27905,"lon":5.38009,"is_reserved":false,"is_disabled":false,"rental_uris":{"android":"levelo://app?vid=932e06e0-9bec-4e3e-8b15-5d116b9a2067","ios":"levelo://app?vid=932e06e0-9bec-4e3e-8b15-5d116b9a2067"},"vehicle_type_id":"4","last_reported":1726596721,"current_range_meters":8400,"station_id":"ce4bhf92rcd13ifvqf50","pricing_plan_id":"cebpf4jnsgd1na2vs0mg"},{"bike_id":"b1db6496-7d7b-4acc-a88c-e5406d38e100","system_id":"levelo_inurba_marseille","lat":43.23194,"lon":5.35553,"is_reserved":false,"is_disabled":false,"rental_uris":{"android":"levelo://app?vid=b1db6496-7d7b-4acc-a88c-e5406d38e100","ios":"levelo://app?vid=b1db6496-7d7b-4acc-a88c-e5406d38e100"},"vehicle_type_id":"4","last_reported":1726596721,"current_range_meters":26000,"station_id":"ce4bhu92rcd13ifvqi70","pricing_plan_id":"cebpf4jnsgd1na2vs0mg"},{"bike_id":"f2d7df8e-014a-484a-b2fb-bf3667c6509a","system_id":"levelo_inurba_marseille","lat":43.30308,"lon":5.36891,"is_reserved":false,"is_disabled":false,"rental_uris":{"android":"levelo://app?vid=f2d7df8e-014a-484a-b2fb-bf3667c6509a","ios":"levelo://app?vid=f2d7df8e-014a-484a-b2fb-bf3667c6509a"},"vehicle_type_id":"4","last_reported":1726596721,"current_range_meters":32000,"station_id":"ce4bgqh2rcd13ifvqc5g","pricing_plan_id":"cebpf4jnsgd1na2vs0mg"},{"bike_id":"81597a8f-3526-43cf-a0f5-01371efa03ce","system_id":"levelo_inurba_marseille","lat":43.26495,"lon":5.3954,"is_reserved":false,"is_disabled":false,"rental_uris":{"android":"levelo://app?vid=81597a8f-3526-43cf-a0f5-01371efa03ce","ios":"levelo://app?vid=81597a8f-3526-43cf-a0f5-01371efa03ce"},"vehicle_type_id":"4","last_reported":1726596721,"current_range_meters":28400,"station_id":"ce4bhi12rcd13ifvqfq0","pricing_plan_id":"cebpf4jnsgd1na2vs0mg"},{"bike_id":"b645ac77-0d58-4fa9-8ad3-947af8bdb1d9","system_id":"levelo_inurba_marseille","lat":43.29897,"lon":5.43669,"is_reserved":false,"is_disabled":false,"rental_uris":{"android":"levelo://app?vid=b645ac77-0d58-4fa9-8ad3-947af8bdb1d9","ios":"levelo://app?vid=b645ac77-0d58-4fa9-8ad3-947af8bdb1d9"},"vehicle_type_id":"4","last_reported":1726596721,"current_range_meters":24000,"station_id":"ce4bhpp2rcd13ifvqhfg","pricing_plan_id":"cebpf4jnsgd1na2vs0mg"},{"bike_id":"92fff5b1-8f99-4398-903d-ab692309f5a2","system_id":"levelo_inurba_marseille","lat":43.29178,"lon":5.39322,"is_reserved":false,"is_disabled":false,"rental_uris":{"android":"levelo://app?vid=92fff5b1-8f99-4398-903d-ab692309f5a2","ios":"levelo://app?vid=92fff5b1-8f99-4398-903d-ab692309f5a2"},"vehicle_type_id":"4","last_reported":1726596721,"current_range_meters":32800,"station_id":"ce4bh192rcd13ifvqdd0","pricing_plan_id":"cebpf4jnsgd1na2vs0mg"},{"bike_id":"f2622df9-3e59-4b0a-8884-37dbdb2ebc9c","system_id":"levelo_inurba_marseille","lat":43.28725,"lon":5.37951,"is_reserved":false,"is_disabled":false,"rental_uris":{"android":"levelo://app?vid=f2622df9-3e59-4b0a-8884-37dbdb2ebc9c","ios":"levelo://app?vid=f2622df9-3e59-4b0a-8884-37dbdb2ebc9c"},"vehicle_type_id":"4","last_reported":1726596721,"current_range_meters":7200,"station_id":"ce4bh9p2rcd13ifvqec0","pricing_plan_id":"cebpf4jnsgd1na2vs0mg"},{"bike_id":"f57575c1-8221-4c3d-b069-a8d9182208f3","system_id":"levelo_inurba_marseille","lat":43.27921,"lon":5.39586,"is_reserved":false,"is_disabled":false,"rental_uris":{"android":"levelo://app?vid=f57575c1-8221-4c3d-b069-a8d9182208f3","ios":"levelo://app?vid=f57575c1-8221-4c3d-b069-a8d9182208f3"},"vehicle_type_id":"4","last_reported":1726596721,"current_range_meters":9200,"station_id":"ce4bhf92rcd13ifvqf40","pricing_plan_id":"cebpf4jnsgd1na2vs0mg"},{"bike_id":"e836156f-966e-4b75-8bf0-18495ca20864","system_id":"levelo_inurba_marseille","lat":43.28614,"lon":5.35103,"is_reserved":false,"is_disabled":false,"rental_uris":{"android":"levelo://app?vid=e836156f-966e-4b75-8bf0-18495ca20864","ios":"levelo://app?vid=e836156f-966e-4b75-8bf0-18495ca20864"},"vehicle_type_id":"4","last_reported":1726596721,"current_range_meters":11200,"station_id":"ce4bhch2rcd13ifvqeug","pricing_plan_id":"cebpf4jnsgd1na2vs0mg"},{"bike_id":"677498c9-746b-4650-9a8e-2c7479635944","system_id":"levelo_inurba_marseille","lat":43.33026,"lon":5.39046,"is_reserved":false,"is_disabled":false,"rental_uris":{"android":"levelo://app?vid=677498c9-746b-4650-9a8e-2c7479635944","ios":"levelo://app?vid=677498c9-746b-4650-9a8e-2c7479635944"},"vehicle_type_id":"4","last_reported":1726596721,"current_range_meters":20000,"station_id":"ce4bhr92rcd13ifvqhrg","pricing_plan_id":"cebpf4jnsgd1na2vs0mg"},{"bike_id":"0c683c1c-3c89-48aa-a5d8-cda09f4dbf26","system_id":"levelo_inurba_marseille","lat":43.275611,"lon":5.384112,"is_reserved":false,"is_disabled":false,"rental_uris":{"android":"levelo://app?vid=0c683c1c-3c89-48aa-a5d8-cda09f4dbf26","ios":"levelo://app?vid=0c683c1c-3c89-48aa-a5d8-cda09f4dbf26"},"vehicle_type_id":"4","last_reported":1726596721,"current_range_meters":32400,"station_id":"ce4bhh92rcd13ifvqfi0","pricing_plan_id":"cebpf4jnsgd1na2vs0mg"},{"bike_id":"e99fd3da-9d85-48ec-88b3-0b975f3dd034","system_id":"levelo_inurba_marseille","lat":43.32663,"lon":5.40997,"is_reserved":false,"is_disabled":false,"rental_uris":{"android":"levelo://app?vid=e99fd3da-9d85-48ec-88b3-0b975f3dd034","ios":"levelo://app?vid=e99fd3da-9d85-48ec-88b3-0b975f3dd034"},"vehicle_type_id":"4","last_reported":1726596721,"current_range_meters":27600,"station_id":"ce4bhpp2rcd13ifvqhgg","pricing_plan_id":"cebpf4jnsgd1na2vs0mg"},{"bike_id":"0e7fa0af-7f2f-4ef9-9134-c3fffbdc0a42","system_id":"levelo_inurba_marseille","lat":43.31359,"lon":5.38503,"is_reserved":false,"is_disabled":false,"rental_uris":{"android":"levelo://app?vid=0e7fa0af-7f2f-4ef9-9134-c3fffbdc0a42","ios":"levelo://app?vid=0e7fa0af-7f2f-4ef9-9134-c3fffbdc0a42"},"vehicle_type_id":"4","last_reported":1726596721,"current_range_meters":32000,"station_id":"ce4bgt92rcd13ifvqcf0","pricing_plan_id":"cebpf4jnsgd1na2vs0mg"},{"bike_id":"0adb2951-6f98-45a4-b3a5-5cbac31df9ed","system_id":"levelo_inurba_marseille","lat":43.31358,"lon":5.38507,"is_reserved":false,"is_disabled":false,"rental_uris":{"android":"levelo://app?vid=0adb2951-6f98-45a4-b3a5-5cbac31df9ed","ios":"levelo://app?vid=0adb2951-6f98-45a4-b3a5-5cbac31df9ed"},"vehicle_type_id":"4","last_reported":1726596721,"current_range_meters":27200,"station_id":"ce4bgt92rcd13ifvqcf0","pricing_plan_id":"cebpf4jnsgd1na2vs0mg"},{"bike_id":"c42c569f-da80-4794-aeb2-c9ae7310ca55","system_id":"levelo_inurba_marseille","lat":43.3135,"lon":5.3671,"is_reserved":false,"is_disabled":false,"rental_uris":{"android":"levelo://app?vid=c42c569f-da80-4794-aeb2-c9ae7310ca55","ios":"levelo://app?vid=c42c569f-da80-4794-aeb2-c9ae7310ca55"},"vehicle_type_id":"4","last_reported":1726596721,"current_range_meters":36400,"station_id":"ce4bgr92rcd13ifvqc6g","pricing_plan_id":"cebpf4jnsgd1na2vs0mg"},{"bike_id":"e322896a-9301-4e00-8a2b-00ac0afcf56a","system_id":"levelo_inurba_marseille","lat":43.29707,"lon":5.36624,"is_reserved":false,"is_disabled":false,"rental_uris":{"android":"levelo://app?vid=e322896a-9301-4e00-8a2b-00ac0afcf56a","ios":"levelo://app?vid=e322896a-9301-4e00-8a2b-00ac0afcf56a"},"vehicle_type_id":"4","last_reported":1726596721,"current_range_meters":38800,"station_id":"ce4bgn12rcd13ifvqbt0","pricing_plan_id":"cebpf4jnsgd1na2vs0mg"},{"bike_id":"07acf0e2-1b44-4d3c-a0b9-7de84183d7b4","system_id":"levelo_inurba_marseille","lat":43.27835,"lon":5.39202,"is_reserved":false,"is_disabled":false,"rental_uris":{"android":"levelo://app?vid=07acf0e2-1b44-4d3c-a0b9-7de84183d7b4","ios":"levelo://app?vid=07acf0e2-1b44-4d3c-a0b9-7de84183d7b4"},"vehicle_type_id":"4","last_reported":1726596721,"current_range_meters":20400,"station_id":"ce4bhjp2rcd13ifvqga0","pricing_plan_id":"cebpf4jnsgd1na2vs0mg"},{"bike_id":"20c56279-8c45-4039-b2ec-4b93001c9d8d","system_id":"levelo_inurba_marseille","lat":43.27996,"lon":5.39992,"is_reserved":false,"is_disabled":false,"rental_uris":{"android":"levelo://app?vid=20c56279-8c45-4039-b2ec-4b93001c9d8d","ios":"levelo://app?vid=20c56279-8c45-4039-b2ec-4b93001c9d8d"},"vehicle_type_id":"4","last_reported":1726596721,"current_range_meters":33200,"station_id":"ce4bho92rcd13ifvqh4g","pricing_plan_id":"cebpf4jnsgd1na2vs0mg"},{"bike_id":"6419d252-3859-49c5-9bc4-168ce9d84be9","system_id":"levelo_inurba_marseille","lat":43.29958,"lon":5.41316,"is_reserved":false,"is_disabled":false,"rental_uris":{"android":"levelo://app?vid=6419d252-3859-49c5-9bc4-168ce9d84be9","ios":"levelo://app?vid=6419d252-3859-49c5-9bc4-168ce9d84be9"},"vehicle_type_id":"4","last_reported":1726596721,"current_range_meters":8800,"station_id":"ce4bhp12rcd13ifvqh9g","pricing_plan_id":"cebpf4jnsgd1na2vs0mg"},{"bike_id":"9ea9f2c6-e3d7-4c8d-bac8-7d45ea471e22","system_id":"levelo_inurba_marseille","lat":43.29782,"lon":5.39336,"is_reserved":false,"is_disabled":false,"rental_uris":{"android":"levelo://app?vid=9ea9f2c6-e3d7-4c8d-bac8-7d45ea471e22","ios":"levelo://app?vid=9ea9f2c6-e3d7-4c8d-bac8-7d45ea471e22"},"vehicle_type_id":"4","last_reported":1726596721,"current_range_meters":18800,"station_id":"chh1huq6cuj3fo74tm60","pricing_plan_id":"cebpf4jnsgd1na2vs0mg"},{"bike_id":"99684f50-b398-427b-a4e9-7ca0a0382c79","system_id":"levelo_inurba_marseille","lat":43.23199,"lon":5.35544,"is_reserved":false,"is_disabled":false,"rental_uris":{"android":"levelo://app?vid=99684f50-b398-427b-a4e9-7ca0a0382c79","ios":"levelo://app?vid=99684f50-b398-427b-a4e9-7ca0a0382c79"},"vehicle_type_id":"4","last_reported":1726596721,"current_range_meters":38800,"station_id":"ce4bhu92rcd13ifvqi70","pricing_plan_id":"cebpf4jnsgd1na2vs0mg"},{"bike_id":"3035210a-8e82-44b6-b145-b99eb6bcaa5e","system_id":"levelo_inurba_marseille","lat":43.28466,"lon":5.35888,"is_reserved":false,"is_disabled":false,"rental_uris":{"android":"levelo://app?vid=3035210a-8e82-44b6-b145-b99eb6bcaa5e","ios":"levelo://app?vid=3035210a-8e82-44b6-b145-b99eb6bcaa5e"},"vehicle_type_id":"4","last_reported":1726596721,"current_range_meters":14800,"station_id":"ce4bhah2rcd13ifvqei0","pricing_plan_id":"cebpf4jnsgd1na2vs0mg"},{"bike_id":"d782c430-b2c7-45ce-aaaf-78dc9a80ca97","system_id":"levelo_inurba_marseille","lat":43.3302,"lon":5.39049,"is_reserved":false,"is_disabled":false,"rental_uris":{"android":"levelo://app?vid=d782c430-b2c7-45ce-aaaf-78dc9a80ca97","ios":"levelo://app?vid=d782c430-b2c7-45ce-aaaf-78dc9a80ca97"},"vehicle_type_id":"4","last_reported":1726596721,"current_range_meters":26800,"station_id":"ce4bhr92rcd13ifvqhrg","pricing_plan_id":"cebpf4jnsgd1na2vs0mg"},{"bike_id":"dd4b5128-6c65-4324-96d6-df731de78aa8","system_id":"levelo_inurba_marseille","lat":43.33023,"lon":5.39036,"is_reserved":false,"is_disabled":false,"rental_uris":{"android":"levelo://app?vid=dd4b5128-6c65-4324-96d6-df731de78aa8","ios":"levelo://app?vid=dd4b5128-6c65-4324-96d6-df731de78aa8"},"vehicle_type_id":"4","last_reported":1726596721,"current_range_meters":24800,"station_id":"ce4bhr92rcd13ifvqhrg","pricing_plan_id":"cebpf4jnsgd1na2vs0mg"},{"bike_id":"6c1468de-e14a-407b-9a20-3cdfa0922744","system_id":"levelo_inurba_marseille","lat":43.28462,"lon":5.35892,"is_reserved":false,"is_disabled":false,"rental_uris":{"android":"levelo://app?vid=6c1468de-e14a-407b-9a20-3cdfa0922744","ios":"levelo://app?vid=6c1468de-e14a-407b-9a20-3cdfa0922744"},"vehicle_type_id":"4","last_reported":1726596721,"current_range_meters":38800,"station_id":"ce4bhah2rcd13ifvqei0","pricing_plan_id":"cebpf4jnsgd1na2vs0mg"},{"bike_id":"0492eecb-b4a4-443a-885f-f977e84bba00","system_id":"levelo_inurba_marseille","lat":43.29526,"lon":5.3903,"is_reserved":false,"is_disabled":false,"rental_uris":{"android":"levelo://app?vid=0492eecb-b4a4-443a-885f-f977e84bba00","ios":"levelo://app?vid=0492eecb-b4a4-443a-885f-f977e84bba00"},"vehicle_type_id":"4","last_reported":1726596721,"current_range_meters":28400,"station_id":"ce4bh3p2rcd13ifvqdp0","pricing_plan_id":"cebpf4jnsgd1na2vs0mg"},{"bike_id":"3b659b38-d4a8-4e26-b101-2a5fc3036f97","system_id":"levelo_inurba_marseille","lat":43.29974,"lon":5.38492,"is_reserved":false,"is_disabled":false,"rental_uris":{"android":"levelo://app?vid=3b659b38-d4a8-4e26-b101-2a5fc3036f97","ios":"levelo://app?vid=3b659b38-d4a8-4e26-b101-2a5fc3036f97"},"vehicle_type_id":"4","last_reported":1726596721,"current_range_meters":24800,"station_id":"ce4bgj92rcd13ifvqbd0","pricing_plan_id":"cebpf4jnsgd1na2vs0mg"},{"bike_id":"2b714e73-49f8-4f26-bb6d-7d72ce23aabc","system_id":"levelo_inurba_marseille","lat":43.23053,"lon":5.35488,"is_reserved":false,"is_disabled":false,"rental_uris":{"android":"levelo://app?vid=2b714e73-49f8-4f26-bb6d-7d72ce23aabc","ios":"levelo://app?vid=2b714e73-49f8-4f26-bb6d-7d72ce23aabc"},"vehicle_type_id":"4","last_reported":1726596721,"current_range_meters":11600,"station_id":"cpo3342slgdg3j2ifvpg","pricing_plan_id":"cebpf4jnsgd1na2vs0mg"},{"bike_id":"24b6223a-97c2-4a98-b8cd-63273ae1c7bd","system_id":"levelo_inurba_marseille","lat":43.31354,"lon":5.38507,"is_reserved":false,"is_disabled":false,"rental_uris":{"android":"levelo://app?vid=24b6223a-97c2-4a98-b8cd-63273ae1c7bd","ios":"levelo://app?vid=24b6223a-97c2-4a98-b8cd-63273ae1c7bd"},"vehicle_type_id":"4","last_reported":1726596721,"current_range_meters":32400,"station_id":"ce4bgt92rcd13ifvqcf0","pricing_plan_id":"cebpf4jnsgd1na2vs0mg"},{"bike_id":"09a9083f-e5fe-4928-a0df-7e196ecdfb02","system_id":"levelo_inurba_marseille","lat":43.2795,"lon":5.41043,"is_reserved":false,"is_disabled":false,"rental_uris":{"android":"levelo://app?vid=09a9083f-e5fe-4928-a0df-7e196ecdfb02","ios":"levelo://app?vid=09a9083f-e5fe-4928-a0df-7e196ecdfb02"},"vehicle_type_id":"4","last_reported":1726596721,"current_range_meters":18800,"station_id":"ce4bhnp2rcd13ifvqh0g","pricing_plan_id":"cebpf4jnsgd1na2vs0mg"},{"bike_id":"2e4c0d1a-a4a2-40d5-9c70-26993c46a5f6","system_id":"levelo_inurba_marseille","lat":43.23191,"lon":5.35548,"is_reserved":false,"is_disabled":false,"rental_uris":{"android":"levelo://app?vid=2e4c0d1a-a4a2-40d5-9c70-26993c46a5f6","ios":"levelo://app?vid=2e4c0d1a-a4a2-40d5-9c70-26993c46a5f6"},"vehicle_type_id":"4","last_reported":1726596721,"current_range_meters":38800,"station_id":"ce4bhu92rcd13ifvqi70","pricing_plan_id":"cebpf4jnsgd1na2vs0mg"},{"bike_id":"a14e4777-859a-4e32-b79a-581ef707c108","system_id":"levelo_inurba_marseille","lat":43.29689,"lon":5.37299,"is_reserved":false,"is_disabled":false,"rental_uris":{"android":"levelo://app?vid=a14e4777-859a-4e32-b79a-581ef707c108","ios":"levelo://app?vid=a14e4777-859a-4e32-b79a-581ef707c108"},"vehicle_type_id":"4","last_reported":1726596721,"current_range_meters":38800,"station_id":"ce4bgk12rcd13ifvqbj0","pricing_plan_id":"cebpf4jnsgd1na2vs0mg"},{"bike_id":"883b0f70-5b2a-4fae-ad4d-f95872e47fd9","system_id":"levelo_inurba_marseille","lat":43.28001,"lon":5.40009,"is_reserved":false,"is_disabled":false,"rental_uris":{"android":"levelo://app?vid=883b0f70-5b2a-4fae-ad4d-f95872e47fd9","ios":"levelo://app?vid=883b0f70-5b2a-4fae-ad4d-f95872e47fd9"},"vehicle_type_id":"4","last_reported":1726596721,"current_range_meters":16800,"station_id":"ce4bho92rcd13ifvqh4g","pricing_plan_id":"cebpf4jnsgd1na2vs0mg"},{"bike_id":"45591303-774c-4a20-bce0-16a76eb6254f","system_id":"levelo_inurba_marseille","lat":43.29619,"lon":5.37155,"is_reserved":false,"is_disabled":false,"rental_uris":{"android":"levelo://app?vid=45591303-774c-4a20-bce0-16a76eb6254f","ios":"levelo://app?vid=45591303-774c-4a20-bce0-16a76eb6254f"},"vehicle_type_id":"4","last_reported":1726596721,"current_range_meters":20000,"station_id":"ce4bgnh2rcd13ifvqc0g","pricing_plan_id":"cebpf4jnsgd1na2vs0mg"},{"bike_id":"9e7e6ba6-8a52-4ded-a04c-6611360fb83e","system_id":"levelo_inurba_marseille","lat":43.29437,"lon":5.39756,"is_reserved":false,"is_disabled":false,"rental_uris":{"android":"levelo://app?vid=9e7e6ba6-8a52-4ded-a04c-6611360fb83e","ios":"levelo://app?vid=9e7e6ba6-8a52-4ded-a04c-6611360fb83e"},"vehicle_type_id":"4","last_reported":1726596721,"current_range_meters":21600,"station_id":"ce4bh3h2rcd13ifvqdo0","pricing_plan_id":"cebpf4jnsgd1na2vs0mg"},{"bike_id":"255def12-1a7e-4787-b2e4-a6a54888a394","system_id":"levelo_inurba_marseille","lat":43.32487,"lon":5.36557,"is_reserved":false,"is_disabled":false,"rental_uris":{"android":"levelo://app?vid=255def12-1a7e-4787-b2e4-a6a54888a394","ios":"levelo://app?vid=255def12-1a7e-4787-b2e4-a6a54888a394"},"vehicle_type_id":"4","last_reported":1726596721,"current_range_meters":6400,"station_id":"ce4bhs12rcd13ifvqhvg","pricing_plan_id":"cebpf4jnsgd1na2vs0mg"},{"bike_id":"6dd17a2f-59bb-4453-859d-2c09ab795824","system_id":"levelo_inurba_marseille","lat":43.33024,"lon":5.39043,"is_reserved":false,"is_disabled":false,"rental_uris":{"android":"levelo://app?vid=6dd17a2f-59bb-4453-859d-2c09ab795824","ios":"levelo://app?vid=6dd17a2f-59bb-4453-859d-2c09ab795824"},"vehicle_type_id":"4","last_reported":1726596721,"current_range_meters":29600,"station_id":"ce4bhr92rcd13ifvqhrg","pricing_plan_id":"cebpf4jnsgd1na2vs0mg"},{"bike_id":"88d2b912-cc09-457a-8c75-48c24155dfba","system_id":"levelo_inurba_marseille","lat":43.27994,"lon":5.40006,"is_reserved":false,"is_disabled":false,"rental_uris":{"android":"levelo://app?vid=88d2b912-cc09-457a-8c75-48c24155dfba","ios":"levelo://app?vid=88d2b912-cc09-457a-8c75-48c24155dfba"},"vehicle_type_id":"4","last_reported":1726596721,"current_range_meters":4000,"station_id":"ce4bho92rcd13ifvqh4g","pricing_plan_id":"cebpf4jnsgd1na2vs0mg"},{"bike_id":"0e35b643-b45a-4dae-92ea-4f02271e281d","system_id":"levelo_inurba_marseille","lat":43.31759,"lon":5.39016,"is_reserved":false,"is_disabled":false,"rental_uris":{"android":"levelo://app?vid=0e35b643-b45a-4dae-92ea-4f02271e281d","ios":"levelo://app?vid=0e35b643-b45a-4dae-92ea-4f02271e281d"},"vehicle_type_id":"4","last_reported":1726596721,"current_range_meters":12800,"station_id":"ce4bhqp2rcd13ifvqhng","pricing_plan_id":"cebpf4jnsgd1na2vs0mg"},{"bike_id":"f7f0d33a-f3c8-4f25-8108-dca4c9de0a53","system_id":"levelo_inurba_marseille","lat":43.29609,"lon":5.37714,"is_reserved":false,"is_disabled":false,"rental_uris":{"android":"levelo://app?vid=f7f0d33a-f3c8-4f25-8108-dca4c9de0a53","ios":"levelo://app?vid=f7f0d33a-f3c8-4f25-8108-dca4c9de0a53"},"vehicle_type_id":"4","last_reported":1726596721,"current_range_meters":22000,"station_id":"ce4bgi92rcd13ifvqb90","pricing_plan_id":"cebpf4jnsgd1na2vs0mg"},{"bike_id":"70fc7e83-326c-4da5-9b44-70451b78b4c2","system_id":"levelo_inurba_marseille","lat":43.32483,"lon":5.3658,"is_reserved":false,"is_disabled":false,"rental_uris":{"android":"levelo://app?vid=70fc7e83-326c-4da5-9b44-70451b78b4c2","ios":"levelo://app?vid=70fc7e83-326c-4da5-9b44-70451b78b4c2"},"vehicle_type_id":"4","last_reported":1726596721,"current_range_meters":14800,"station_id":"ce4bhs12rcd13ifvqhvg","pricing_plan_id":"cebpf4jnsgd1na2vs0mg"},{"bike_id":"0308f358-78cd-4ed3-9f73-03a0aff7b7aa","system_id":"levelo_inurba_marseille","lat":43.29897,"lon":5.43665,"is_reserved":false,"is_disabled":false,"rental_uris":{"android":"levelo://app?vid=0308f358-78cd-4ed3-9f73-03a0aff7b7aa","ios":"levelo://app?vid=0308f358-78cd-4ed3-9f73-03a0aff7b7aa"},"vehicle_type_id":"4","last_reported":1726596721,"current_range_meters":17200,"station_id":"ce4bhpp2rcd13ifvqhfg","pricing_plan_id":"cebpf4jnsgd1na2vs0mg"},{"bike_id":"1522ee2e-2bde-44fb-9e73-60b151d9acc2","system_id":"levelo_inurba_marseille","lat":43.25086,"lon":5.39511,"is_reserved":false,"is_disabled":false,"rental_uris":{"android":"levelo://app?vid=1522ee2e-2bde-44fb-9e73-60b151d9acc2","ios":"levelo://app?vid=1522ee2e-2bde-44fb-9e73-60b151d9acc2"},"vehicle_type_id":"4","last_reported":1726596721,"current_range_meters":10000,"station_id":"ce4bhm12rcd13ifvqgkg","pricing_plan_id":"cebpf4jnsgd1na2vs0mg"},{"bike_id":"446b2bff-a89e-45e8-a0b9-5ba39ecd2ea0","system_id":"levelo_inurba_marseille","lat":43.27371,"lon":5.36261,"is_reserved":false,"is_disabled":false,"rental_uris":{"android":"levelo://app?vid=446b2bff-a89e-45e8-a0b9-5ba39ecd2ea0","ios":"levelo://app?vid=446b2bff-a89e-45e8-a0b9-5ba39ecd2ea0"},"vehicle_type_id":"4","last_reported":1726596721,"current_range_meters":28400,"station_id":"ce4bhbh2rcd13ifvqeo0","pricing_plan_id":"cebpf4jnsgd1na2vs0mg"},{"bike_id":"84fff7ff-831a-4fef-a815-767fc6abb806","system_id":"levelo_inurba_marseille","lat":43.27988,"lon":5.40004,"is_reserved":false,"is_disabled":false,"rental_uris":{"android":"levelo://app?vid=84fff7ff-831a-4fef-a815-767fc6abb806","ios":"levelo://app?vid=84fff7ff-831a-4fef-a815-767fc6abb806"},"vehicle_type_id":"4","last_reported":1726596721,"current_range_meters":18800,"station_id":"ce4bho92rcd13ifvqh4g","pricing_plan_id":"cebpf4jnsgd1na2vs0mg"},{"bike_id":"fe78de42-3113-4d74-9793-bfa3fe7c2bfc","system_id":"levelo_inurba_marseille","lat":43.29255,"lon":5.40912,"is_reserved":false,"is_disabled":false,"rental_uris":{"android":"levelo://app?vid=fe78de42-3113-4d74-9793-bfa3fe7c2bfc","ios":"levelo://app?vid=fe78de42-3113-4d74-9793-bfa3fe7c2bfc"},"vehicle_type_id":"4","last_reported":1726596721,"current_range_meters":38800,"station_id":"ce4bh192rcd13ifvqdc0","pricing_plan_id":"cebpf4jnsgd1na2vs0mg"},{"bike_id":"4e7610a5-9867-422f-a1e3-ff8c4d964791","system_id":"levelo_inurba_marseille","lat":43.25085,"lon":5.3952,"is_reserved":false,"is_disabled":false,"rental_uris":{"android":"levelo://app?vid=4e7610a5-9867-422f-a1e3-ff8c4d964791","ios":"levelo://app?vid=4e7610a5-9867-422f-a1e3-ff8c4d964791"},"vehicle_type_id":"4","last_reported":1726596721,"current_range_meters":30800,"station_id":"ce4bhm12rcd13ifvqgkg","pricing_plan_id":"cebpf4jnsgd1na2vs0mg"},{"bike_id":"65eecb51-7024-4f30-af20-d65f809bce2b","system_id":"levelo_inurba_marseille","lat":43.31344,"lon":5.37942,"is_reserved":false,"is_disabled":false,"rental_uris":{"android":"levelo://app?vid=65eecb51-7024-4f30-af20-d65f809bce2b","ios":"levelo://app?vid=65eecb51-7024-4f30-af20-d65f809bce2b"},"vehicle_type_id":"4","last_reported":1726596721,"current_range_meters":6800,"station_id":"","pricing_plan_id":"cebpf4jnsgd1na2vs0mg"},{"bike_id":"85f35905-070a-4a43-b69b-19cfcf5195a8","system_id":"levelo_inurba_marseille","lat":43.29551,"lon":5.42279,"is_reserved":false,"is_disabled":false,"rental_uris":{"android":"levelo://app?vid=85f35905-070a-4a43-b69b-19cfcf5195a8","ios":"levelo://app?vid=85f35905-070a-4a43-b69b-19cfcf5195a8"},"vehicle_type_id":"4","last_reported":1726596721,"current_range_meters":12400,"station_id":"ce4bhph2rcd13ifvqhdg","pricing_plan_id":"cebpf4jnsgd1na2vs0mg"},{"bike_id":"3c3dc6cb-8bed-432c-a579-82ecc42f545e","system_id":"levelo_inurba_marseille","lat":43.27999,"lon":5.4001,"is_reserved":false,"is_disabled":false,"rental_uris":{"android":"levelo://app?vid=3c3dc6cb-8bed-432c-a579-82ecc42f545e","ios":"levelo://app?vid=3c3dc6cb-8bed-432c-a579-82ecc42f545e"},"vehicle_type_id":"4","last_reported":1726596721,"current_range_meters":27200,"station_id":"ce4bho92rcd13ifvqh4g","pricing_plan_id":"cebpf4jnsgd1na2vs0mg"},{"bike_id":"ec8469ef-b6ba-4ac7-b27f-168446b93e8e","system_id":"levelo_inurba_marseille","lat":43.29863,"lon":5.39736,"is_reserved":false,"is_disabled":false,"rental_uris":{"android":"levelo://app?vid=ec8469ef-b6ba-4ac7-b27f-168446b93e8e","ios":"levelo://app?vid=ec8469ef-b6ba-4ac7-b27f-168446b93e8e"},"vehicle_type_id":"4","last_reported":1726596721,"current_range_meters":38800,"station_id":"ce4bh0h2rcd13ifvqd50","pricing_plan_id":"cebpf4jnsgd1na2vs0mg"},{"bike_id":"5ad76090-8691-48ec-9040-016e70c34f7b","system_id":"levelo_inurba_marseille","lat":43.28035,"lon":5.36946,"is_reserved":false,"is_disabled":false,"rental_uris":{"android":"levelo://app?vid=5ad76090-8691-48ec-9040-016e70c34f7b","ios":"levelo://app?vid=5ad76090-8691-48ec-9040-016e70c34f7b"},"vehicle_type_id":"4","last_reported":1726596721,"current_range_meters":32800,"station_id":"ce4bha12rcd13ifvqef0","pricing_plan_id":"cebpf4jnsgd1na2vs0mg"},{"bike_id":"0c96a80d-1a27-4af3-a67a-82dc4ba0b381","system_id":"levelo_inurba_marseille","lat":43.25723,"lon":5.41104,"is_reserved":false,"is_disabled":false,"rental_uris":{"android":"levelo://app?vid=0c96a80d-1a27-4af3-a67a-82dc4ba0b381","ios":"levelo://app?vid=0c96a80d-1a27-4af3-a67a-82dc4ba0b381"},"vehicle_type_id":"4","last_reported":1726596721,"current_range_meters":6400,"station_id":"ce4bhkp2rcd13ifvqgd0","pricing_plan_id":"cebpf4jnsgd1na2vs0mg"},{"bike_id":"488f6208-7d65-408c-8e8a-7fd5ce88a449","system_id":"levelo_inurba_marseille","lat":43.28728,"lon":5.36088,"is_reserved":false,"is_disabled":false,"rental_uris":{"android":"levelo://app?vid=488f6208-7d65-408c-8e8a-7fd5ce88a449","ios":"levelo://app?vid=488f6208-7d65-408c-8e8a-7fd5ce88a449"},"vehicle_type_id":"4","last_reported":1726596721,"current_range_meters":8400,"station_id":"cki0cbj6b192h4jlfktg","pricing_plan_id":"cebpf4jnsgd1na2vs0mg"},{"bike_id":"135f7a05-ba61-4293-bc8a-22a6432afaf0","system_id":"levelo_inurba_marseille","lat":43.29714,"lon":5.36606,"is_reserved":false,"is_disabled":false,"rental_uris":{"android":"levelo://app?vid=135f7a05-ba61-4293-bc8a-22a6432afaf0","ios":"levelo://app?vid=135f7a05-ba61-4293-bc8a-22a6432afaf0"},"vehicle_type_id":"4","last_reported":1726596721,"current_range_meters":39200,"station_id":"ce4bgn12rcd13ifvqbt0","pricing_plan_id":"cebpf4jnsgd1na2vs0mg"},{"bike_id":"07b25e26-757d-4624-9669-327a18e3dae2","system_id":"levelo_inurba_marseille","lat":43.286163,"lon":5.351025,"is_reserved":false,"is_disabled":false,"rental_uris":{"android":"levelo://app?vid=07b25e26-757d-4624-9669-327a18e3dae2","ios":"levelo://app?vid=07b25e26-757d-4624-9669-327a18e3dae2"},"vehicle_type_id":"4","last_reported":1726596721,"current_range_meters":8000,"station_id":"ce4bhch2rcd13ifvqeug","pricing_plan_id":"cebpf4jnsgd1na2vs0mg"},{"bike_id":"e1055f26-c66c-41ee-bf2f-25406c6db080","system_id":"levelo_inurba_marseille","lat":43.33026,"lon":5.39037,"is_reserved":false,"is_disabled":false,"rental_uris":{"android":"levelo://app?vid=e1055f26-c66c-41ee-bf2f-25406c6db080","ios":"levelo://app?vid=e1055f26-c66c-41ee-bf2f-25406c6db080"},"vehicle_type_id":"4","last_reported":1726596721,"current_range_meters":38000,"station_id":"ce4bhr92rcd13ifvqhrg","pricing_plan_id":"cebpf4jnsgd1na2vs0mg"},{"bike_id":"7f4c1b54-da33-4cbd-8666-5285f9a039ca","system_id":"levelo_inurba_marseille","lat":43.295197,"lon":5.389957,"is_reserved":false,"is_disabled":false,"rental_uris":{"android":"levelo://app?vid=7f4c1b54-da33-4cbd-8666-5285f9a039ca","ios":"levelo://app?vid=7f4c1b54-da33-4cbd-8666-5285f9a039ca"},"vehicle_type_id":"4","last_reported":1726596721,"current_range_meters":35600,"station_id":"ce4bh3p2rcd13ifvqdp0","pricing_plan_id":"cebpf4jnsgd1na2vs0mg"},{"bike_id":"a13b8302-4ea2-4c29-8731-e0e42e68149a","system_id":"levelo_inurba_marseille","lat":43.32293,"lon":5.38277,"is_reserved":false,"is_disabled":false,"rental_uris":{"android":"levelo://app?vid=a13b8302-4ea2-4c29-8731-e0e42e68149a","ios":"levelo://app?vid=a13b8302-4ea2-4c29-8731-e0e42e68149a"},"vehicle_type_id":"4","last_reported":1726596721,"current_range_meters":38800,"station_id":"ce4bhr12rcd13ifvqhqg","pricing_plan_id":"cebpf4jnsgd1na2vs0mg"},{"bike_id":"dc17347b-6de9-4ce4-9462-db5c81d57c80","system_id":"levelo_inurba_marseille","lat":43.2396,"lon":5.36634,"is_reserved":false,"is_disabled":false,"rental_uris":{"android":"levelo://app?vid=dc17347b-6de9-4ce4-9462-db5c81d57c80","ios":"levelo://app?vid=dc17347b-6de9-4ce4-9462-db5c81d57c80"},"vehicle_type_id":"4","last_reported":1726596721,"current_range_meters":5600,"station_id":"ce4bhi12rcd13ifvqfp0","pricing_plan_id":"cebpf4jnsgd1na2vs0mg"},{"bike_id":"753be345-5bd8-48be-95a3-4cd9a9007429","system_id":"levelo_inurba_marseille","lat":43.27992,"lon":5.40008,"is_reserved":false,"is_disabled":false,"rental_uris":{"android":"levelo://app?vid=753be345-5bd8-48be-95a3-4cd9a9007429","ios":"levelo://app?vid=753be345-5bd8-48be-95a3-4cd9a9007429"},"vehicle_type_id":"4","last_reported":1726596721,"current_range_meters":9200,"station_id":"ce4bho92rcd13ifvqh4g","pricing_plan_id":"cebpf4jnsgd1na2vs0mg"},{"bike_id":"b1559c59-1d0a-43b0-8987-a73a3702d69b","system_id":"levelo_inurba_marseille","lat":43.28352,"lon":5.38105,"is_reserved":false,"is_disabled":false,"rental_uris":{"android":"levelo://app?vid=b1559c59-1d0a-43b0-8987-a73a3702d69b","ios":"levelo://app?vid=b1559c59-1d0a-43b0-8987-a73a3702d69b"},"vehicle_type_id":"4","last_reported":1726596721,"current_range_meters":14000,"station_id":"ce4bh412rcd13ifvqdr0","pricing_plan_id":"cebpf4jnsgd1na2vs0mg"},{"bike_id":"ce1e6254-7131-49d1-8c9c-fb1cdd0a26d4","system_id":"levelo_inurba_marseille","lat":43.29225,"lon":5.36066,"is_reserved":false,"is_disabled":false,"rental_uris":{"android":"levelo://app?vid=ce1e6254-7131-49d1-8c9c-fb1cdd0a26d4","ios":"levelo://app?vid=ce1e6254-7131-49d1-8c9c-fb1cdd0a26d4"},"vehicle_type_id":"4","last_reported":1726596721,"current_range_meters":27200,"station_id":"ce4bhbh2rcd13ifvqeqg","pricing_plan_id":"cebpf4jnsgd1na2vs0mg"},{"bike_id":"db7df4a6-605a-4035-a15c-80a3493b0d52","system_id":"levelo_inurba_marseille","lat":43.27951,"lon":5.4104,"is_reserved":false,"is_disabled":false,"rental_uris":{"android":"levelo://app?vid=db7df4a6-605a-4035-a15c-80a3493b0d52","ios":"levelo://app?vid=db7df4a6-605a-4035-a15c-80a3493b0d52"},"vehicle_type_id":"4","last_reported":1726596721,"current_range_meters":9200,"station_id":"ce4bhnp2rcd13ifvqh0g","pricing_plan_id":"cebpf4jnsgd1na2vs0mg"},{"bike_id":"fa6378f4-ba4d-4ad3-995b-0543fa6b4ed8","system_id":"levelo_inurba_marseille","lat":43.297821,"lon":5.37105,"is_reserved":false,"is_disabled":false,"rental_uris":{"android":"levelo://app?vid=fa6378f4-ba4d-4ad3-995b-0543fa6b4ed8","ios":"levelo://app?vid=fa6378f4-ba4d-4ad3-995b-0543fa6b4ed8"},"vehicle_type_id":"4","last_reported":1726596721,"current_range_meters":10800,"station_id":"ce4bgjh2rcd13ifvqbf0","pricing_plan_id":"cebpf4jnsgd1na2vs0mg"},{"bike_id":"d4acae4a-ea4c-4f8e-ae45-dcaa31e7b118","system_id":"levelo_inurba_marseille","lat":43.23195,"lon":5.35555,"is_reserved":false,"is_disabled":false,"rental_uris":{"android":"levelo://app?vid=d4acae4a-ea4c-4f8e-ae45-dcaa31e7b118","ios":"levelo://app?vid=d4acae4a-ea4c-4f8e-ae45-dcaa31e7b118"},"vehicle_type_id":"4","last_reported":1726596721,"current_range_meters":12400,"station_id":"ce4bhu92rcd13ifvqi70","pricing_plan_id":"cebpf4jnsgd1na2vs0mg"},{"bike_id":"cbaf03bf-0340-4293-a424-18d0ef0b595f","system_id":"levelo_inurba_marseille","lat":43.29898,"lon":5.43664,"is_reserved":false,"is_disabled":false,"rental_uris":{"android":"levelo://app?vid=cbaf03bf-0340-4293-a424-18d0ef0b595f","ios":"levelo://app?vid=cbaf03bf-0340-4293-a424-18d0ef0b595f"},"vehicle_type_id":"4","last_reported":1726596721,"current_range_meters":20000,"station_id":"ce4bhpp2rcd13ifvqhfg","pricing_plan_id":"cebpf4jnsgd1na2vs0mg"},{"bike_id":"25325a8a-2e85-4e60-97c1-7920b8843e3a","system_id":"levelo_inurba_marseille","lat":43.28154,"lon":5.42647,"is_reserved":false,"is_disabled":false,"rental_uris":{"android":"levelo://app?vid=25325a8a-2e85-4e60-97c1-7920b8843e3a","ios":"levelo://app?vid=25325a8a-2e85-4e60-97c1-7920b8843e3a"},"vehicle_type_id":"4","last_reported":1726596721,"current_range_meters":5600,"station_id":"ce4bhnh2rcd13ifvqgug","pricing_plan_id":"cebpf4jnsgd1na2vs0mg"},{"bike_id":"d8e751ce-68d8-4843-af31-f29be99d953d","system_id":"levelo_inurba_marseille","lat":43.23957,"lon":5.36629,"is_reserved":false,"is_disabled":false,"rental_uris":{"android":"levelo://app?vid=d8e751ce-68d8-4843-af31-f29be99d953d","ios":"levelo://app?vid=d8e751ce-68d8-4843-af31-f29be99d953d"},"vehicle_type_id":"4","last_reported":1726596721,"current_range_meters":11600,"station_id":"ce4bhi12rcd13ifvqfp0","pricing_plan_id":"cebpf4jnsgd1na2vs0mg"},{"bike_id":"ac0e27a9-a199-4114-9237-e60e67a6666d","system_id":"levelo_inurba_marseille","lat":43.28155,"lon":5.42642,"is_reserved":false,"is_disabled":false,"rental_uris":{"android":"levelo://app?vid=ac0e27a9-a199-4114-9237-e60e67a6666d","ios":"levelo://app?vid=ac0e27a9-a199-4114-9237-e60e67a6666d"},"vehicle_type_id":"4","last_reported":1726596721,"current_range_meters":11200,"station_id":"ce4bhnh2rcd13ifvqgug","pricing_plan_id":"cebpf4jnsgd1na2vs0mg"},{"bike_id":"73e17ec8-e47d-415b-a693-9917ccf29905","system_id":"levelo_inurba_marseille","lat":43.31758,"lon":5.39005,"is_reserved":false,"is_disabled":false,"rental_uris":{"android":"levelo://app?vid=73e17ec8-e47d-415b-a693-9917ccf29905","ios":"levelo://app?vid=73e17ec8-e47d-415b-a693-9917ccf29905"},"vehicle_type_id":"4","last_reported":1726596721,"current_range_meters":38800,"station_id":"ce4bhqp2rcd13ifvqhng","pricing_plan_id":"cebpf4jnsgd1na2vs0mg"},{"bike_id":"1f355529-5ae1-4b9b-8cf5-039bf1803d01","system_id":"levelo_inurba_marseille","lat":43.3173,"lon":5.42391,"is_reserved":false,"is_disabled":false,"rental_uris":{"android":"levelo://app?vid=1f355529-5ae1-4b9b-8cf5-039bf1803d01","ios":"levelo://app?vid=1f355529-5ae1-4b9b-8cf5-039bf1803d01"},"vehicle_type_id":"4","last_reported":1726596721,"current_range_meters":27200,"station_id":"ce4bhp92rcd13ifvqhbg","pricing_plan_id":"cebpf4jnsgd1na2vs0mg"},{"bike_id":"d56be32f-c337-409a-bf02-33073f022f1e","system_id":"levelo_inurba_marseille","lat":43.301292,"lon":5.398621,"is_reserved":false,"is_disabled":false,"rental_uris":{"android":"levelo://app?vid=d56be32f-c337-409a-bf02-33073f022f1e","ios":"levelo://app?vid=d56be32f-c337-409a-bf02-33073f022f1e"},"vehicle_type_id":"4","last_reported":1726596721,"current_range_meters":8000,"station_id":"ce4bh0h2rcd13ifvqd40","pricing_plan_id":"cebpf4jnsgd1na2vs0mg"},{"bike_id":"bb9b0b96-fc7b-46c6-8bd7-e61f24aa0921","system_id":"levelo_inurba_marseille","lat":43.3236,"lon":5.38881,"is_reserved":false,"is_disabled":false,"rental_uris":{"android":"levelo://app?vid=bb9b0b96-fc7b-46c6-8bd7-e61f24aa0921","ios":"levelo://app?vid=bb9b0b96-fc7b-46c6-8bd7-e61f24aa0921"},"vehicle_type_id":"4","last_reported":1726596721,"current_range_meters":4000,"station_id":"ce4bhqp2rcd13ifvqhog","pricing_plan_id":"cebpf4jnsgd1na2vs0mg"},{"bike_id":"fab0bd94-d39d-4613-9a3d-d8fa519b31d4","system_id":"levelo_inurba_marseille","lat":43.25868,"lon":5.39895,"is_reserved":false,"is_disabled":false,"rental_uris":{"android":"levelo://app?vid=fab0bd94-d39d-4613-9a3d-d8fa519b31d4","ios":"levelo://app?vid=fab0bd94-d39d-4613-9a3d-d8fa519b31d4"},"vehicle_type_id":"4","last_reported":1726596721,"current_range_meters":8000,"station_id":"ce4bhl92rcd13ifvqghg","pricing_plan_id":"cebpf4jnsgd1na2vs0mg"},{"bike_id":"c82d7f3c-afe2-4dff-9dcb-16ae1a7b7ae3","system_id":"levelo_inurba_marseille","lat":43.32286,"lon":5.38269,"is_reserved":false,"is_disabled":false,"rental_uris":{"android":"levelo://app?vid=c82d7f3c-afe2-4dff-9dcb-16ae1a7b7ae3","ios":"levelo://app?vid=c82d7f3c-afe2-4dff-9dcb-16ae1a7b7ae3"},"vehicle_type_id":"4","last_reported":1726596721,"current_range_meters":8800,"station_id":"ce4bhr12rcd13ifvqhqg","pricing_plan_id":"cebpf4jnsgd1na2vs0mg"},{"bike_id":"cd5bcc1f-6586-4314-9ac3-73bb4c6b0673","system_id":"levelo_inurba_marseille","lat":43.274872,"lon":5.424514,"is_reserved":false,"is_disabled":false,"rental_uris":{"android":"levelo://app?vid=cd5bcc1f-6586-4314-9ac3-73bb4c6b0673","ios":"levelo://app?vid=cd5bcc1f-6586-4314-9ac3-73bb4c6b0673"},"vehicle_type_id":"4","last_reported":1726596721,"current_range_meters":23200,"station_id":"ce4bhn92rcd13ifvqgrg","pricing_plan_id":"cebpf4jnsgd1na2vs0mg"},{"bike_id":"db134a01-c8be-483f-ba9f-31d7a2901e3b","system_id":"levelo_inurba_marseille","lat":43.28723,"lon":5.36088,"is_reserved":false,"is_disabled":false,"rental_uris":{"android":"levelo://app?vid=db134a01-c8be-483f-ba9f-31d7a2901e3b","ios":"levelo://app?vid=db134a01-c8be-483f-ba9f-31d7a2901e3b"},"vehicle_type_id":"4","last_reported":1726596721,"current_range_meters":14400,"station_id":"cki0cbj6b192h4jlfktg","pricing_plan_id":"cebpf4jnsgd1na2vs0mg"},{"bike_id":"328d45f9-980e-4811-97c0-47d761861509","system_id":"levelo_inurba_marseille","lat":43.29847,"lon":5.37836,"is_reserved":false,"is_disabled":false,"rental_uris":{"android":"levelo://app?vid=328d45f9-980e-4811-97c0-47d761861509","ios":"levelo://app?vid=328d45f9-980e-4811-97c0-47d761861509"},"vehicle_type_id":"4","last_reported":1726596721,"current_range_meters":16400,"station_id":"ce4bgkh2rcd13ifvqbl0","pricing_plan_id":"cebpf4jnsgd1na2vs0mg"},{"bike_id":"4041c218-907b-4313-b8b5-99f8bf494117","system_id":"levelo_inurba_marseille","lat":43.23964,"lon":5.36628,"is_reserved":false,"is_disabled":false,"rental_uris":{"android":"levelo://app?vid=4041c218-907b-4313-b8b5-99f8bf494117","ios":"levelo://app?vid=4041c218-907b-4313-b8b5-99f8bf494117"},"vehicle_type_id":"4","last_reported":1726596721,"current_range_meters":22800,"station_id":"ce4bhi12rcd13ifvqfp0","pricing_plan_id":"cebpf4jnsgd1na2vs0mg"},{"bike_id":"c7582910-854f-4d26-be1a-bbe820fab3a2","system_id":"levelo_inurba_marseille","lat":43.24999,"lon":5.38926,"is_reserved":false,"is_disabled":false,"rental_uris":{"android":"levelo://app?vid=c7582910-854f-4d26-be1a-bbe820fab3a2","ios":"levelo://app?vid=c7582910-854f-4d26-be1a-bbe820fab3a2"},"vehicle_type_id":"4","last_reported":1726596721,"current_range_meters":24400,"station_id":"ce4bhgp2rcd13ifvqfd0","pricing_plan_id":"cebpf4jnsgd1na2vs0mg"},{"bike_id":"cbd9b4a5-bad3-4c54-a847-884eb24d50fe","system_id":"levelo_inurba_marseille","lat":43.32649,"lon":5.40975,"is_reserved":false,"is_disabled":false,"rental_uris":{"android":"levelo://app?vid=cbd9b4a5-bad3-4c54-a847-884eb24d50fe","ios":"levelo://app?vid=cbd9b4a5-bad3-4c54-a847-884eb24d50fe"},"vehicle_type_id":"4","last_reported":1726596721,"current_range_meters":22400,"station_id":"ce4bhpp2rcd13ifvqhgg","pricing_plan_id":"cebpf4jnsgd1na2vs0mg"},{"bike_id":"b1512e21-0d75-4511-8316-0151c5567a4e","system_id":"levelo_inurba_marseille","lat":43.29709,"lon":5.36625,"is_reserved":false,"is_disabled":false,"rental_uris":{"android":"levelo://app?vid=b1512e21-0d75-4511-8316-0151c5567a4e","ios":"levelo://app?vid=b1512e21-0d75-4511-8316-0151c5567a4e"},"vehicle_type_id":"4","last_reported":1726596721,"current_range_meters":20800,"station_id":"ce4bgn12rcd13ifvqbt0","pricing_plan_id":"cebpf4jnsgd1na2vs0mg"},{"bike_id":"75e7fd6e-8221-4e11-8676-da14e45d21f7","system_id":"levelo_inurba_marseille","lat":43.27999,"lon":5.40018,"is_reserved":false,"is_disabled":false,"rental_uris":{"android":"levelo://app?vid=75e7fd6e-8221-4e11-8676-da14e45d21f7","ios":"levelo://app?vid=75e7fd6e-8221-4e11-8676-da14e45d21f7"},"vehicle_type_id":"4","last_reported":1726596721,"current_range_meters":35600,"station_id":"ce4bho92rcd13ifvqh4g","pricing_plan_id":"cebpf4jnsgd1na2vs0mg"},{"bike_id":"fa690805-233a-4a70-a9f3-33f1b67cdb1f","system_id":"levelo_inurba_marseille","lat":43.32283,"lon":5.38281,"is_reserved":false,"is_disabled":false,"rental_uris":{"android":"levelo://app?vid=fa690805-233a-4a70-a9f3-33f1b67cdb1f","ios":"levelo://app?vid=fa690805-233a-4a70-a9f3-33f1b67cdb1f"},"vehicle_type_id":"4","last_reported":1726596721,"current_range_meters":31200,"station_id":"ce4bhr12rcd13ifvqhqg","pricing_plan_id":"cebpf4jnsgd1na2vs0mg"},{"bike_id":"8b608b96-fedf-4511-8d4b-09bad2606e1a","system_id":"levelo_inurba_marseille","lat":43.27724,"lon":5.41128,"is_reserved":false,"is_disabled":false,"rental_uris":{"android":"levelo://app?vid=8b608b96-fedf-4511-8d4b-09bad2606e1a","ios":"levelo://app?vid=8b608b96-fedf-4511-8d4b-09bad2606e1a"},"vehicle_type_id":"4","last_reported":1726596721,"current_range_meters":8800,"station_id":"","pricing_plan_id":"cebpf4jnsgd1na2vs0mg"},{"bike_id":"e7aa2c66-5d42-4d6a-9c7a-cc018d87e110","system_id":"levelo_inurba_marseille","lat":43.28664,"lon":5.36349,"is_reserved":false,"is_disabled":false,"rental_uris":{"android":"levelo://app?vid=e7aa2c66-5d42-4d6a-9c7a-cc018d87e110","ios":"levelo://app?vid=e7aa2c66-5d42-4d6a-9c7a-cc018d87e110"},"vehicle_type_id":"4","last_reported":1726596721,"current_range_meters":12800,"station_id":"ce4bhah2rcd13ifvqej0","pricing_plan_id":"cebpf4jnsgd1na2vs0mg"},{"bike_id":"74fcf1e7-64a1-42f8-bcec-bf0af491e527","system_id":"levelo_inurba_marseille","lat":43.31713,"lon":5.43708,"is_reserved":false,"is_disabled":false,"rental_uris":{"android":"levelo://app?vid=74fcf1e7-64a1-42f8-bcec-bf0af491e527","ios":"levelo://app?vid=74fcf1e7-64a1-42f8-bcec-bf0af491e527"},"vehicle_type_id":"4","last_reported":1726596721,"current_range_meters":7200,"station_id":"ce4bhp92rcd13ifvqhcg","pricing_plan_id":"cebpf4jnsgd1na2vs0mg"},{"bike_id":"7934c2b6-1bac-43bf-8ede-d33bc81e347b","system_id":"levelo_inurba_marseille","lat":43.23966,"lon":5.36632,"is_reserved":false,"is_disabled":false,"rental_uris":{"android":"levelo://app?vid=7934c2b6-1bac-43bf-8ede-d33bc81e347b","ios":"levelo://app?vid=7934c2b6-1bac-43bf-8ede-d33bc81e347b"},"vehicle_type_id":"4","last_reported":1726596721,"current_range_meters":2800,"station_id":"ce4bhi12rcd13ifvqfp0","pricing_plan_id":"cebpf4jnsgd1na2vs0mg"},{"bike_id":"8e1fdf17-2211-46da-9d6a-081bb876b3c5","system_id":"levelo_inurba_marseille","lat":43.29254,"lon":5.40902,"is_reserved":false,"is_disabled":false,"rental_uris":{"android":"levelo://app?vid=8e1fdf17-2211-46da-9d6a-081bb876b3c5","ios":"levelo://app?vid=8e1fdf17-2211-46da-9d6a-081bb876b3c5"},"vehicle_type_id":"4","last_reported":1726596721,"current_range_meters":28400,"station_id":"ce4bh192rcd13ifvqdc0","pricing_plan_id":"cebpf4jnsgd1na2vs0mg"},{"bike_id":"35c9b345-8a9c-416a-b6b2-9a402f966d92","system_id":"levelo_inurba_marseille","lat":43.280029,"lon":5.400086,"is_reserved":false,"is_disabled":false,"rental_uris":{"android":"levelo://app?vid=35c9b345-8a9c-416a-b6b2-9a402f966d92","ios":"levelo://app?vid=35c9b345-8a9c-416a-b6b2-9a402f966d92"},"vehicle_type_id":"4","last_reported":1726596721,"current_range_meters":17200,"station_id":"ce4bho92rcd13ifvqh4g","pricing_plan_id":"cebpf4jnsgd1na2vs0mg"},{"bike_id":"0ca07b35-9246-4b30-89e9-8a540414eb4f","system_id":"levelo_inurba_marseille","lat":43.30139,"lon":5.37423,"is_reserved":false,"is_disabled":false,"rental_uris":{"android":"levelo://app?vid=0ca07b35-9246-4b30-89e9-8a540414eb4f","ios":"levelo://app?vid=0ca07b35-9246-4b30-89e9-8a540414eb4f"},"vehicle_type_id":"4","last_reported":1726596721,"current_range_meters":38400,"station_id":"ce4bgs92rcd13ifvqcc0","pricing_plan_id":"cebpf4jnsgd1na2vs0mg"},{"bike_id":"a3c26967-12ec-448c-b21a-bb691683b716","system_id":"levelo_inurba_marseille","lat":43.23177,"lon":5.39987,"is_reserved":false,"is_disabled":false,"rental_uris":{"android":"levelo://app?vid=a3c26967-12ec-448c-b21a-bb691683b716","ios":"levelo://app?vid=a3c26967-12ec-448c-b21a-bb691683b716"},"vehicle_type_id":"4","last_reported":1726596721,"current_range_meters":4000,"station_id":"ce4bhn12rcd13ifvqgqg","pricing_plan_id":"cebpf4jnsgd1na2vs0mg"},{"bike_id":"dca6edef-be7c-47c9-9c5a-10162f983a78","system_id":"levelo_inurba_marseille","lat":43.287079,"lon":5.379258,"is_reserved":false,"is_disabled":false,"rental_uris":{"android":"levelo://app?vid=dca6edef-be7c-47c9-9c5a-10162f983a78","ios":"levelo://app?vid=dca6edef-be7c-47c9-9c5a-10162f983a78"},"vehicle_type_id":"4","last_reported":1726596721,"current_range_meters":12800,"station_id":"ce4bh9p2rcd13ifvqec0","pricing_plan_id":"cebpf4jnsgd1na2vs0mg"},{"bike_id":"449c4548-5a49-437b-a706-37a1689ac5e4","system_id":"levelo_inurba_marseille","lat":43.28107,"lon":5.3784,"is_reserved":false,"is_disabled":false,"rental_uris":{"android":"levelo://app?vid=449c4548-5a49-437b-a706-37a1689ac5e4","ios":"levelo://app?vid=449c4548-5a49-437b-a706-37a1689ac5e4"},"vehicle_type_id":"4","last_reported":1726596721,"current_range_meters":24000,"station_id":"ce4bha12rcd13ifvqee0","pricing_plan_id":"cebpf4jnsgd1na2vs0mg"},{"bike_id":"36998750-85f9-4601-a517-26167687809f","system_id":"levelo_inurba_marseille","lat":43.31326,"lon":5.39698,"is_reserved":false,"is_disabled":false,"rental_uris":{"android":"levelo://app?vid=36998750-85f9-4601-a517-26167687809f","ios":"levelo://app?vid=36998750-85f9-4601-a517-26167687809f"},"vehicle_type_id":"4","last_reported":1726596721,"current_range_meters":22800,"station_id":"ce4bgvp2rcd13ifvqcu0","pricing_plan_id":"cebpf4jnsgd1na2vs0mg"},{"bike_id":"0174f6a3-e612-4fce-95db-f4844b365c04","system_id":"levelo_inurba_marseille","lat":43.292999,"lon":5.371585,"is_reserved":false,"is_disabled":false,"rental_uris":{"android":"levelo://app?vid=0174f6a3-e612-4fce-95db-f4844b365c04","ios":"levelo://app?vid=0174f6a3-e612-4fce-95db-f4844b365c04"},"vehicle_type_id":"4","last_reported":1726596721,"current_range_meters":12400,"station_id":"ce4bgh92rcd13ifvqb40","pricing_plan_id":"cebpf4jnsgd1na2vs0mg"},{"bike_id":"70a56108-96ed-4142-9d42-dc14255f2988","system_id":"levelo_inurba_marseille","lat":43.26991,"lon":5.39895,"is_reserved":false,"is_disabled":false,"rental_uris":{"android":"levelo://app?vid=70a56108-96ed-4142-9d42-dc14255f2988","ios":"levelo://app?vid=70a56108-96ed-4142-9d42-dc14255f2988"},"vehicle_type_id":"4","last_reported":1726596721,"current_range_meters":24400,"station_id":"","pricing_plan_id":"cebpf4jnsgd1na2vs0mg"},{"bike_id":"763311e2-11d6-4b84-a9e9-b0617866ec04","system_id":"levelo_inurba_marseille","lat":43.31327,"lon":5.39689,"is_reserved":false,"is_disabled":false,"rental_uris":{"android":"levelo://app?vid=763311e2-11d6-4b84-a9e9-b0617866ec04","ios":"levelo://app?vid=763311e2-11d6-4b84-a9e9-b0617866ec04"},"vehicle_type_id":"4","last_reported":1726596721,"current_range_meters":22000,"station_id":"ce4bgvp2rcd13ifvqcu0","pricing_plan_id":"cebpf4jnsgd1na2vs0mg"},{"bike_id":"aa8b7cdb-15d5-4564-a036-3a3b2fc0ac1c","system_id":"levelo_inurba_marseille","lat":43.29216,"lon":5.36066,"is_reserved":false,"is_disabled":false,"rental_uris":{"android":"levelo://app?vid=aa8b7cdb-15d5-4564-a036-3a3b2fc0ac1c","ios":"levelo://app?vid=aa8b7cdb-15d5-4564-a036-3a3b2fc0ac1c"},"vehicle_type_id":"4","last_reported":1726596721,"current_range_meters":8400,"station_id":"ce4bhbh2rcd13ifvqeqg","pricing_plan_id":"cebpf4jnsgd1na2vs0mg"},{"bike_id":"06087df5-c4c8-4da6-9ee2-7e1ac9f7c7c9","system_id":"levelo_inurba_marseille","lat":43.29572,"lon":5.39984,"is_reserved":false,"is_disabled":false,"rental_uris":{"android":"levelo://app?vid=06087df5-c4c8-4da6-9ee2-7e1ac9f7c7c9","ios":"levelo://app?vid=06087df5-c4c8-4da6-9ee2-7e1ac9f7c7c9"},"vehicle_type_id":"4","last_reported":1726596721,"current_range_meters":38800,"station_id":"ce4bh312rcd13ifvqdj0","pricing_plan_id":"cebpf4jnsgd1na2vs0mg"},{"bike_id":"e5ce120e-f189-4882-876a-d185220bcf95","system_id":"levelo_inurba_marseille","lat":43.33015,"lon":5.39048,"is_reserved":false,"is_disabled":false,"rental_uris":{"android":"levelo://app?vid=e5ce120e-f189-4882-876a-d185220bcf95","ios":"levelo://app?vid=e5ce120e-f189-4882-876a-d185220bcf95"},"vehicle_type_id":"4","last_reported":1726596721,"current_range_meters":16000,"station_id":"ce4bhr92rcd13ifvqhrg","pricing_plan_id":"cebpf4jnsgd1na2vs0mg"},{"bike_id":"95f8bd80-423e-4ea8-ad50-2e9854f65eb3","system_id":"levelo_inurba_marseille","lat":43.27999,"lon":5.40002,"is_reserved":false,"is_disabled":false,"rental_uris":{"android":"levelo://app?vid=95f8bd80-423e-4ea8-ad50-2e9854f65eb3","ios":"levelo://app?vid=95f8bd80-423e-4ea8-ad50-2e9854f65eb3"},"vehicle_type_id":"4","last_reported":1726596721,"current_range_meters":7200,"station_id":"ce4bho92rcd13ifvqh4g","pricing_plan_id":"cebpf4jnsgd1na2vs0mg"},{"bike_id":"648a8058-3978-4bdc-b6dd-222902e3989a","system_id":"levelo_inurba_marseille","lat":43.25106,"lon":5.40326,"is_reserved":false,"is_disabled":false,"rental_uris":{"android":"levelo://app?vid=648a8058-3978-4bdc-b6dd-222902e3989a","ios":"levelo://app?vid=648a8058-3978-4bdc-b6dd-222902e3989a"},"vehicle_type_id":"4","last_reported":1726596721,"current_range_meters":30800,"station_id":"ce4bhlh2rcd13ifvqgig","pricing_plan_id":"cebpf4jnsgd1na2vs0mg"},{"bike_id":"2a9eb325-09d8-4812-bd52-afbf993e623b","system_id":"levelo_inurba_marseille","lat":43.25822,"lon":5.39441,"is_reserved":false,"is_disabled":false,"rental_uris":{"android":"levelo://app?vid=2a9eb325-09d8-4812-bd52-afbf993e623b","ios":"levelo://app?vid=2a9eb325-09d8-4812-bd52-afbf993e623b"},"vehicle_type_id":"4","last_reported":1726596721,"current_range_meters":27600,"station_id":"ce4bhip2rcd13ifvqft0","pricing_plan_id":"cebpf4jnsgd1na2vs0mg"},{"bike_id":"6f387a41-1a28-4619-ac86-26875678b81b","system_id":"levelo_inurba_marseille","lat":43.29897,"lon":5.43672,"is_reserved":false,"is_disabled":false,"rental_uris":{"android":"levelo://app?vid=6f387a41-1a28-4619-ac86-26875678b81b","ios":"levelo://app?vid=6f387a41-1a28-4619-ac86-26875678b81b"},"vehicle_type_id":"4","last_reported":1726596721,"current_range_meters":19600,"station_id":"ce4bhpp2rcd13ifvqhfg","pricing_plan_id":"cebpf4jnsgd1na2vs0mg"},{"bike_id":"00e2dbb3-9468-4211-948a-0de230f05298","system_id":"levelo_inurba_marseille","lat":43.296295,"lon":5.377206,"is_reserved":false,"is_disabled":false,"rental_uris":{"android":"levelo://app?vid=00e2dbb3-9468-4211-948a-0de230f05298","ios":"levelo://app?vid=00e2dbb3-9468-4211-948a-0de230f05298"},"vehicle_type_id":"4","last_reported":1726596721,"current_range_meters":14400,"station_id":"ce4bgip2rcd13ifvqbb0","pricing_plan_id":"cebpf4jnsgd1na2vs0mg"},{"bike_id":"69409c6a-d368-430e-a2af-377d83bb4ae7","system_id":"levelo_inurba_marseille","lat":43.27999,"lon":5.40004,"is_reserved":false,"is_disabled":false,"rental_uris":{"android":"levelo://app?vid=69409c6a-d368-430e-a2af-377d83bb4ae7","ios":"levelo://app?vid=69409c6a-d368-430e-a2af-377d83bb4ae7"},"vehicle_type_id":"4","last_reported":1726596721,"current_range_meters":28400,"station_id":"ce4bho92rcd13ifvqh4g","pricing_plan_id":"cebpf4jnsgd1na2vs0mg"},{"bike_id":"ad68a82b-bd80-4fc2-b221-0a2e1342d3da","system_id":"levelo_inurba_marseille","lat":43.3176,"lon":5.39019,"is_reserved":false,"is_disabled":false,"rental_uris":{"android":"levelo://app?vid=ad68a82b-bd80-4fc2-b221-0a2e1342d3da","ios":"levelo://app?vid=ad68a82b-bd80-4fc2-b221-0a2e1342d3da"},"vehicle_type_id":"4","last_reported":1726596721,"current_range_meters":14000,"station_id":"ce4bhqp2rcd13ifvqhng","pricing_plan_id":"cebpf4jnsgd1na2vs0mg"},{"bike_id":"c0d62fad-42ba-4d3e-a95c-a33a39dfef05","system_id":"levelo_inurba_marseille","lat":43.31171,"lon":5.38723,"is_reserved":false,"is_disabled":false,"rental_uris":{"android":"levelo://app?vid=c0d62fad-42ba-4d3e-a95c-a33a39dfef05","ios":"levelo://app?vid=c0d62fad-42ba-4d3e-a95c-a33a39dfef05"},"vehicle_type_id":"4","last_reported":1726596721,"current_range_meters":24400,"station_id":"ce4bgv12rcd13ifvqcp0","pricing_plan_id":"cebpf4jnsgd1na2vs0mg"},{"bike_id":"d2e9915b-6def-4d28-9ee7-7a207ee3e5e7","system_id":"levelo_inurba_marseille","lat":43.27614,"lon":5.36119,"is_reserved":false,"is_disabled":false,"rental_uris":{"android":"levelo://app?vid=d2e9915b-6def-4d28-9ee7-7a207ee3e5e7","ios":"levelo://app?vid=d2e9915b-6def-4d28-9ee7-7a207ee3e5e7"},"vehicle_type_id":"4","last_reported":1726596721,"current_range_meters":26800,"station_id":"ce4bgj92rcd13ifvqbe0","pricing_plan_id":"cebpf4jnsgd1na2vs0mg"},{"bike_id":"0b056705-e3ce-4d85-80d0-7288863b7d52","system_id":"levelo_inurba_marseille","lat":43.30329,"lon":5.40434,"is_reserved":false,"is_disabled":false,"rental_uris":{"android":"levelo://app?vid=0b056705-e3ce-4d85-80d0-7288863b7d52","ios":"levelo://app?vid=0b056705-e3ce-4d85-80d0-7288863b7d52"},"vehicle_type_id":"4","last_reported":1726596721,"current_range_meters":38800,"station_id":"ce4bh012rcd13ifvqd10","pricing_plan_id":"cebpf4jnsgd1na2vs0mg"},{"bike_id":"21c847ca-66cd-4e35-96d5-5c1e6ed5ecd1","system_id":"levelo_inurba_marseille","lat":43.29433,"lon":5.39752,"is_reserved":false,"is_disabled":false,"rental_uris":{"android":"levelo://app?vid=21c847ca-66cd-4e35-96d5-5c1e6ed5ecd1","ios":"levelo://app?vid=21c847ca-66cd-4e35-96d5-5c1e6ed5ecd1"},"vehicle_type_id":"4","last_reported":1726596721,"current_range_meters":18000,"station_id":"ce4bh3h2rcd13ifvqdo0","pricing_plan_id":"cebpf4jnsgd1na2vs0mg"},{"bike_id":"dbd98bc5-b0a2-4da5-bab8-fcdfea9ab87e","system_id":"levelo_inurba_marseille","lat":43.29706,"lon":5.36616,"is_reserved":false,"is_disabled":false,"rental_uris":{"android":"levelo://app?vid=dbd98bc5-b0a2-4da5-bab8-fcdfea9ab87e","ios":"levelo://app?vid=dbd98bc5-b0a2-4da5-bab8-fcdfea9ab87e"},"vehicle_type_id":"4","last_reported":1726596721,"current_range_meters":38400,"station_id":"ce4bgn12rcd13ifvqbt0","pricing_plan_id":"cebpf4jnsgd1na2vs0mg"},{"bike_id":"ea5728e8-c42b-4cf5-a7de-69f15e4b03b7","system_id":"levelo_inurba_marseille","lat":43.24177,"lon":5.3973,"is_reserved":false,"is_disabled":false,"rental_uris":{"android":"levelo://app?vid=ea5728e8-c42b-4cf5-a7de-69f15e4b03b7","ios":"levelo://app?vid=ea5728e8-c42b-4cf5-a7de-69f15e4b03b7"},"vehicle_type_id":"4","last_reported":1726596721,"current_range_meters":5600,"station_id":"ce4bhn12rcd13ifvqgpg","pricing_plan_id":"cebpf4jnsgd1na2vs0mg"},{"bike_id":"0b6c4659-b7fa-4187-a116-65ed29a85a9d","system_id":"levelo_inurba_marseille","lat":43.28567,"lon":5.39497,"is_reserved":false,"is_disabled":false,"rental_uris":{"android":"levelo://app?vid=0b6c4659-b7fa-4187-a116-65ed29a85a9d","ios":"levelo://app?vid=0b6c4659-b7fa-4187-a116-65ed29a85a9d"},"vehicle_type_id":"4","last_reported":1726596721,"current_range_meters":2800,"station_id":"ce4bh292rcd13ifvqdg0","pricing_plan_id":"cebpf4jnsgd1na2vs0mg"},{"bike_id":"ca42bf31-578d-4027-86c9-a89c31ecd503","system_id":"levelo_inurba_marseille","lat":43.3237,"lon":5.38879,"is_reserved":false,"is_disabled":false,"rental_uris":{"android":"levelo://app?vid=ca42bf31-578d-4027-86c9-a89c31ecd503","ios":"levelo://app?vid=ca42bf31-578d-4027-86c9-a89c31ecd503"},"vehicle_type_id":"4","last_reported":1726596721,"current_range_meters":10800,"station_id":"ce4bhqp2rcd13ifvqhog","pricing_plan_id":"cebpf4jnsgd1na2vs0mg"},{"bike_id":"4fbdb9b7-b760-4550-bf29-9bf6e794ceb9","system_id":"levelo_inurba_marseille","lat":43.25112,"lon":5.40323,"is_reserved":false,"is_disabled":false,"rental_uris":{"android":"levelo://app?vid=4fbdb9b7-b760-4550-bf29-9bf6e794ceb9","ios":"levelo://app?vid=4fbdb9b7-b760-4550-bf29-9bf6e794ceb9"},"vehicle_type_id":"4","last_reported":1726596721,"current_range_meters":30400,"station_id":"ce4bhlh2rcd13ifvqgig","pricing_plan_id":"cebpf4jnsgd1na2vs0mg"},{"bike_id":"a6cd3dbd-5ae0-48ab-b169-5762e564585c","system_id":"levelo_inurba_marseille","lat":43.29276,"lon":5.40113,"is_reserved":false,"is_disabled":false,"rental_uris":{"android":"levelo://app?vid=a6cd3dbd-5ae0-48ab-b169-5762e564585c","ios":"levelo://app?vid=a6cd3dbd-5ae0-48ab-b169-5762e564585c"},"vehicle_type_id":"4","last_reported":1726596721,"current_range_meters":11600,"station_id":"ce4bh312rcd13ifvqdk0","pricing_plan_id":"cebpf4jnsgd1na2vs0mg"},{"bike_id":"b19bdb04-768d-4ba2-a58f-5557970c2c47","system_id":"levelo_inurba_marseille","lat":43.31755,"lon":5.39015,"is_reserved":false,"is_disabled":false,"rental_uris":{"android":"levelo://app?vid=b19bdb04-768d-4ba2-a58f-5557970c2c47","ios":"levelo://app?vid=b19bdb04-768d-4ba2-a58f-5557970c2c47"},"vehicle_type_id":"4","last_reported":1726596721,"current_range_meters":24800,"station_id":"ce4bhqp2rcd13ifvqhng","pricing_plan_id":"cebpf4jnsgd1na2vs0mg"},{"bike_id":"ab6fbebf-fd10-4f8e-aa27-f7b38c8f2571","system_id":"levelo_inurba_marseille","lat":43.28267,"lon":5.35082,"is_reserved":false,"is_disabled":false,"rental_uris":{"android":"levelo://app?vid=ab6fbebf-fd10-4f8e-aa27-f7b38c8f2571","ios":"levelo://app?vid=ab6fbebf-fd10-4f8e-aa27-f7b38c8f2571"},"vehicle_type_id":"4","last_reported":1726596721,"current_range_meters":23200,"station_id":"ce4bhbp2rcd13ifvqerg","pricing_plan_id":"cebpf4jnsgd1na2vs0mg"},{"bike_id":"e65b3629-964c-49ef-84de-cd855198ec9e","system_id":"levelo_inurba_marseille","lat":43.29259,"lon":5.4091,"is_reserved":false,"is_disabled":false,"rental_uris":{"android":"levelo://app?vid=e65b3629-964c-49ef-84de-cd855198ec9e","ios":"levelo://app?vid=e65b3629-964c-49ef-84de-cd855198ec9e"},"vehicle_type_id":"4","last_reported":1726596721,"current_range_meters":11200,"station_id":"ce4bh192rcd13ifvqdc0","pricing_plan_id":"cebpf4jnsgd1na2vs0mg"},{"bike_id":"6a598ca4-efdb-449c-80d3-3722713430ea","system_id":"levelo_inurba_marseille","lat":43.25584,"lon":5.38228,"is_reserved":false,"is_disabled":false,"rental_uris":{"android":"levelo://app?vid=6a598ca4-efdb-449c-80d3-3722713430ea","ios":"levelo://app?vid=6a598ca4-efdb-449c-80d3-3722713430ea"},"vehicle_type_id":"4","last_reported":1726596721,"current_range_meters":3200,"station_id":"ce4bhih2rcd13ifvqfs0","pricing_plan_id":"cebpf4jnsgd1na2vs0mg"},{"bike_id":"2446dc4e-2bef-4cb7-9f7d-d93f7a2420dc","system_id":"levelo_inurba_marseille","lat":43.3137,"lon":5.38507,"is_reserved":false,"is_disabled":false,"rental_uris":{"android":"levelo://app?vid=2446dc4e-2bef-4cb7-9f7d-d93f7a2420dc","ios":"levelo://app?vid=2446dc4e-2bef-4cb7-9f7d-d93f7a2420dc"},"vehicle_type_id":"4","last_reported":1726596721,"current_range_meters":26800,"station_id":"ce4bgt92rcd13ifvqcf0","pricing_plan_id":"cebpf4jnsgd1na2vs0mg"},{"bike_id":"b03b30b2-8686-414b-a68e-a5c846928347","system_id":"levelo_inurba_marseille","lat":43.265,"lon":5.39541,"is_reserved":false,"is_disabled":false,"rental_uris":{"android":"levelo://app?vid=b03b30b2-8686-414b-a68e-a5c846928347","ios":"levelo://app?vid=b03b30b2-8686-414b-a68e-a5c846928347"},"vehicle_type_id":"4","last_reported":1726596721,"current_range_meters":16400,"station_id":"ce4bhi12rcd13ifvqfq0","pricing_plan_id":"cebpf4jnsgd1na2vs0mg"},{"bike_id":"e4b02895-8217-460a-b203-baf864033608","system_id":"levelo_inurba_marseille","lat":43.31688,"lon":5.40478,"is_reserved":false,"is_disabled":false,"rental_uris":{"android":"levelo://app?vid=e4b02895-8217-460a-b203-baf864033608","ios":"levelo://app?vid=e4b02895-8217-460a-b203-baf864033608"},"vehicle_type_id":"4","last_reported":1726596721,"current_range_meters":36400,"station_id":"ce4bh012rcd13ifvqd00","pricing_plan_id":"cebpf4jnsgd1na2vs0mg"},{"bike_id":"110f240c-282b-4952-824c-db726a1b2b0b","system_id":"levelo_inurba_marseille","lat":43.32291,"lon":5.38276,"is_reserved":false,"is_disabled":false,"rental_uris":{"android":"levelo://app?vid=110f240c-282b-4952-824c-db726a1b2b0b","ios":"levelo://app?vid=110f240c-282b-4952-824c-db726a1b2b0b"},"vehicle_type_id":"4","last_reported":1726596721,"current_range_meters":34800,"station_id":"ce4bhr12rcd13ifvqhqg","pricing_plan_id":"cebpf4jnsgd1na2vs0mg"},{"bike_id":"7337a495-b52b-423b-b156-cbe2db4eef04","system_id":"levelo_inurba_marseille","lat":43.284607,"lon":5.35886,"is_reserved":false,"is_disabled":false,"rental_uris":{"android":"levelo://app?vid=7337a495-b52b-423b-b156-cbe2db4eef04","ios":"levelo://app?vid=7337a495-b52b-423b-b156-cbe2db4eef04"},"vehicle_type_id":"4","last_reported":1726596721,"current_range_meters":3200,"station_id":"ce4bh3h2rcd13ifvqdn0","pricing_plan_id":"cebpf4jnsgd1na2vs0mg"},{"bike_id":"dbbb39fb-3ae7-43f2-b8e5-721a034057e6","system_id":"levelo_inurba_marseille","lat":43.28853,"lon":5.35856,"is_reserved":false,"is_disabled":false,"rental_uris":{"android":"levelo://app?vid=dbbb39fb-3ae7-43f2-b8e5-721a034057e6","ios":"levelo://app?vid=dbbb39fb-3ae7-43f2-b8e5-721a034057e6"},"vehicle_type_id":"4","last_reported":1726596721,"current_range_meters":24000,"station_id":"ce4bhh12rcd13ifvqff0","pricing_plan_id":"cebpf4jnsgd1na2vs0mg"},{"bike_id":"4009b1ef-b14b-4d2b-af81-3d5adc2090b5","system_id":"levelo_inurba_marseille","lat":43.29619,"lon":5.37161,"is_reserved":false,"is_disabled":false,"rental_uris":{"android":"levelo://app?vid=4009b1ef-b14b-4d2b-af81-3d5adc2090b5","ios":"levelo://app?vid=4009b1ef-b14b-4d2b-af81-3d5adc2090b5"},"vehicle_type_id":"4","last_reported":1726596721,"current_range_meters":38000,"station_id":"ce4bgnh2rcd13ifvqc0g","pricing_plan_id":"cebpf4jnsgd1na2vs0mg"},{"bike_id":"ca55e5e3-92f8-4ea2-b657-25e0e41ba561","system_id":"levelo_inurba_marseille","lat":43.301208,"lon":5.398524,"is_reserved":false,"is_disabled":false,"rental_uris":{"android":"levelo://app?vid=ca55e5e3-92f8-4ea2-b657-25e0e41ba561","ios":"levelo://app?vid=ca55e5e3-92f8-4ea2-b657-25e0e41ba561"},"vehicle_type_id":"4","last_reported":1726596721,"current_range_meters":32800,"station_id":"ce4bhn92rcd13ifvqgrg","pricing_plan_id":"cebpf4jnsgd1na2vs0mg"},{"bike_id":"c5aa382d-4eb5-4913-bdac-e8eb88a83b89","system_id":"levelo_inurba_marseille","lat":43.29972,"lon":5.38487,"is_reserved":false,"is_disabled":false,"rental_uris":{"android":"levelo://app?vid=c5aa382d-4eb5-4913-bdac-e8eb88a83b89","ios":"levelo://app?vid=c5aa382d-4eb5-4913-bdac-e8eb88a83b89"},"vehicle_type_id":"4","last_reported":1726596721,"current_range_meters":35600,"station_id":"ce4bh0p2rcd13ifvqd70","pricing_plan_id":"cebpf4jnsgd1na2vs0mg"},{"bike_id":"5eb67e71-1ca8-4433-b555-fd908236978b","system_id":"levelo_inurba_marseille","lat":43.28075,"lon":5.3966,"is_reserved":false,"is_disabled":false,"rental_uris":{"android":"levelo://app?vid=5eb67e71-1ca8-4433-b555-fd908236978b","ios":"levelo://app?vid=5eb67e71-1ca8-4433-b555-fd908236978b"},"vehicle_type_id":"4","last_reported":1726596721,"current_range_meters":6000,"station_id":"ce4bho12rcd13ifvqh2g","pricing_plan_id":"cebpf4jnsgd1na2vs0mg"},{"bike_id":"1b7a399b-dace-4639-8d47-1683d6692079","system_id":"levelo_inurba_marseille","lat":43.28446,"lon":5.37527,"is_reserved":false,"is_disabled":false,"rental_uris":{"android":"levelo://app?vid=1b7a399b-dace-4639-8d47-1683d6692079","ios":"levelo://app?vid=1b7a399b-dace-4639-8d47-1683d6692079"},"vehicle_type_id":"4","last_reported":1726596721,"current_range_meters":6000,"station_id":"ce4bh512rcd13ifvqe2g","pricing_plan_id":"cebpf4jnsgd1na2vs0mg"},{"bike_id":"5bb1d010-0238-448f-a470-fc44e8685316","system_id":"levelo_inurba_marseille","lat":43.23198,"lon":5.35546,"is_reserved":false,"is_disabled":false,"rental_uris":{"android":"levelo://app?vid=5bb1d010-0238-448f-a470-fc44e8685316","ios":"levelo://app?vid=5bb1d010-0238-448f-a470-fc44e8685316"},"vehicle_type_id":"4","last_reported":1726596721,"current_range_meters":33200,"station_id":"ce4bhu92rcd13ifvqi70","pricing_plan_id":"cebpf4jnsgd1na2vs0mg"},{"bike_id":"7ed691ad-cf2e-4278-8166-adc7971f7075","system_id":"levelo_inurba_marseille","lat":43.33024,"lon":5.39033,"is_reserved":false,"is_disabled":false,"rental_uris":{"android":"levelo://app?vid=7ed691ad-cf2e-4278-8166-adc7971f7075","ios":"levelo://app?vid=7ed691ad-cf2e-4278-8166-adc7971f7075"},"vehicle_type_id":"4","last_reported":1726596721,"current_range_meters":24000,"station_id":"ce4bhr92rcd13ifvqhrg","pricing_plan_id":"cebpf4jnsgd1na2vs0mg"},{"bike_id":"a774a980-1461-47a5-86e2-5fe8d0608fe7","system_id":"levelo_inurba_marseille","lat":43.31712,"lon":5.43718,"is_reserved":false,"is_disabled":false,"rental_uris":{"android":"levelo://app?vid=a774a980-1461-47a5-86e2-5fe8d0608fe7","ios":"levelo://app?vid=a774a980-1461-47a5-86e2-5fe8d0608fe7"},"vehicle_type_id":"4","last_reported":1726596721,"current_range_meters":28400,"station_id":"ce4bhp92rcd13ifvqhcg","pricing_plan_id":"cebpf4jnsgd1na2vs0mg"},{"bike_id":"f0cb8906-20e8-4ded-89fc-5f22fd8d721c","system_id":"levelo_inurba_marseille","lat":43.30131,"lon":5.3987,"is_reserved":false,"is_disabled":false,"rental_uris":{"android":"levelo://app?vid=f0cb8906-20e8-4ded-89fc-5f22fd8d721c","ios":"levelo://app?vid=f0cb8906-20e8-4ded-89fc-5f22fd8d721c"},"vehicle_type_id":"4","last_reported":1726596721,"current_range_meters":38800,"station_id":"ce4bh0h2rcd13ifvqd40","pricing_plan_id":"cebpf4jnsgd1na2vs0mg"},{"bike_id":"3f6da51c-ee59-4d40-aaf1-215c6db6e0e8","system_id":"levelo_inurba_marseille","lat":43.32287,"lon":5.38271,"is_reserved":false,"is_disabled":false,"rental_uris":{"android":"levelo://app?vid=3f6da51c-ee59-4d40-aaf1-215c6db6e0e8","ios":"levelo://app?vid=3f6da51c-ee59-4d40-aaf1-215c6db6e0e8"},"vehicle_type_id":"4","last_reported":1726596721,"current_range_meters":30400,"station_id":"ce4bhr12rcd13ifvqhqg","pricing_plan_id":"cebpf4jnsgd1na2vs0mg"},{"bike_id":"01d832f9-c2a2-46f2-a393-d1ff61d6b2c3","system_id":"levelo_inurba_marseille","lat":43.2928,"lon":5.40116,"is_reserved":false,"is_disabled":false,"rental_uris":{"android":"levelo://app?vid=01d832f9-c2a2-46f2-a393-d1ff61d6b2c3","ios":"levelo://app?vid=01d832f9-c2a2-46f2-a393-d1ff61d6b2c3"},"vehicle_type_id":"4","last_reported":1726596721,"current_range_meters":8000,"station_id":"ce4bh312rcd13ifvqdk0","pricing_plan_id":"cebpf4jnsgd1na2vs0mg"},{"bike_id":"90e92013-5635-462d-8771-7dba287c887f","system_id":"levelo_inurba_marseille","lat":43.28155,"lon":5.42649,"is_reserved":false,"is_disabled":false,"rental_uris":{"android":"levelo://app?vid=90e92013-5635-462d-8771-7dba287c887f","ios":"levelo://app?vid=90e92013-5635-462d-8771-7dba287c887f"},"vehicle_type_id":"4","last_reported":1726596721,"current_range_meters":17600,"station_id":"ce4bhnh2rcd13ifvqgug","pricing_plan_id":"cebpf4jnsgd1na2vs0mg"},{"bike_id":"ffc66140-10c8-4137-ae5a-d076c5621c31","system_id":"levelo_inurba_marseille","lat":43.27496,"lon":5.42459,"is_reserved":false,"is_disabled":false,"rental_uris":{"android":"levelo://app?vid=ffc66140-10c8-4137-ae5a-d076c5621c31","ios":"levelo://app?vid=ffc66140-10c8-4137-ae5a-d076c5621c31"},"vehicle_type_id":"4","last_reported":1726596721,"current_range_meters":34800,"station_id":"ce4bhn92rcd13ifvqgrg","pricing_plan_id":"cebpf4jnsgd1na2vs0mg"},{"bike_id":"50b610fb-7ea0-47c1-8b10-38573b82da0e","system_id":"levelo_inurba_marseille","lat":43.270447,"lon":5.407672,"is_reserved":false,"is_disabled":false,"rental_uris":{"android":"levelo://app?vid=50b610fb-7ea0-47c1-8b10-38573b82da0e","ios":"levelo://app?vid=50b610fb-7ea0-47c1-8b10-38573b82da0e"},"vehicle_type_id":"4","last_reported":1726596721,"current_range_meters":4000,"station_id":"","pricing_plan_id":"cebpf4jnsgd1na2vs0mg"},{"bike_id":"30975ad5-515e-4293-8243-f98d471fc3b2","system_id":"levelo_inurba_marseille","lat":43.2944,"lon":5.39743,"is_reserved":false,"is_disabled":false,"rental_uris":{"android":"levelo://app?vid=30975ad5-515e-4293-8243-f98d471fc3b2","ios":"levelo://app?vid=30975ad5-515e-4293-8243-f98d471fc3b2"},"vehicle_type_id":"4","last_reported":1726596721,"current_range_meters":11200,"station_id":"ce4bh3h2rcd13ifvqdo0","pricing_plan_id":"cebpf4jnsgd1na2vs0mg"},{"bike_id":"f6fdaa6c-8ffe-4864-97b4-d218c88f7394","system_id":"levelo_inurba_marseille","lat":43.2737,"lon":5.36252,"is_reserved":false,"is_disabled":false,"rental_uris":{"android":"levelo://app?vid=f6fdaa6c-8ffe-4864-97b4-d218c88f7394","ios":"levelo://app?vid=f6fdaa6c-8ffe-4864-97b4-d218c88f7394"},"vehicle_type_id":"4","last_reported":1726596721,"current_range_meters":39200,"station_id":"ce4bhbh2rcd13ifvqeo0","pricing_plan_id":"cebpf4jnsgd1na2vs0mg"},{"bike_id":"7b645483-238f-48f7-9ffd-0c0103becab3","system_id":"levelo_inurba_marseille","lat":43.30798,"lon":5.43527,"is_reserved":false,"is_disabled":false,"rental_uris":{"android":"levelo://app?vid=7b645483-238f-48f7-9ffd-0c0103becab3","ios":"levelo://app?vid=7b645483-238f-48f7-9ffd-0c0103becab3"},"vehicle_type_id":"4","last_reported":1726596721,"current_range_meters":10800,"station_id":"ce4bhph2rcd13ifvqheg","pricing_plan_id":"cebpf4jnsgd1na2vs0mg"},{"bike_id":"20d1a692-7fa9-42b4-afe5-c9049739a1d7","system_id":"levelo_inurba_marseille","lat":43.29539,"lon":5.3939,"is_reserved":false,"is_disabled":false,"rental_uris":{"android":"levelo://app?vid=20d1a692-7fa9-42b4-afe5-c9049739a1d7","ios":"levelo://app?vid=20d1a692-7fa9-42b4-afe5-c9049739a1d7"},"vehicle_type_id":"4","last_reported":1726596721,"current_range_meters":19600,"station_id":"ce4bh292rcd13ifvqdf0","pricing_plan_id":"cebpf4jnsgd1na2vs0mg"},{"bike_id":"a464eb1d-5f36-4cdc-ae0e-74e8c55812ff","system_id":"levelo_inurba_marseille","lat":43.27949,"lon":5.4105,"is_reserved":false,"is_disabled":false,"rental_uris":{"android":"levelo://app?vid=a464eb1d-5f36-4cdc-ae0e-74e8c55812ff","ios":"levelo://app?vid=a464eb1d-5f36-4cdc-ae0e-74e8c55812ff"},"vehicle_type_id":"4","last_reported":1726596721,"current_range_meters":19200,"station_id":"ce4bhnp2rcd13ifvqh0g","pricing_plan_id":"cebpf4jnsgd1na2vs0mg"},{"bike_id":"0a33859e-bd8e-40d6-89a3-928c4c40622d","system_id":"levelo_inurba_marseille","lat":43.29955,"lon":5.41326,"is_reserved":false,"is_disabled":false,"rental_uris":{"android":"levelo://app?vid=0a33859e-bd8e-40d6-89a3-928c4c40622d","ios":"levelo://app?vid=0a33859e-bd8e-40d6-89a3-928c4c40622d"},"vehicle_type_id":"4","last_reported":1726596721,"current_range_meters":28400,"station_id":"ce4bhp12rcd13ifvqh9g","pricing_plan_id":"cebpf4jnsgd1na2vs0mg"},{"bike_id":"996c1db0-6d53-45eb-9f9b-ed64ea715095","system_id":"levelo_inurba_marseille","lat":43.28853,"lon":5.3585,"is_reserved":false,"is_disabled":false,"rental_uris":{"android":"levelo://app?vid=996c1db0-6d53-45eb-9f9b-ed64ea715095","ios":"levelo://app?vid=996c1db0-6d53-45eb-9f9b-ed64ea715095"},"vehicle_type_id":"4","last_reported":1726596721,"current_range_meters":24000,"station_id":"ce4bhb12rcd13ifvqem0","pricing_plan_id":"cebpf4jnsgd1na2vs0mg"},{"bike_id":"b4ccaeb1-2827-484d-b833-6dd578ad31ff","system_id":"levelo_inurba_marseille","lat":43.275635,"lon":5.38418,"is_reserved":false,"is_disabled":false,"rental_uris":{"android":"levelo://app?vid=b4ccaeb1-2827-484d-b833-6dd578ad31ff","ios":"levelo://app?vid=b4ccaeb1-2827-484d-b833-6dd578ad31ff"},"vehicle_type_id":"4","last_reported":1726596721,"current_range_meters":16800,"station_id":"ce4bho92rcd13ifvqh4g","pricing_plan_id":"cebpf4jnsgd1na2vs0mg"},{"bike_id":"e48fe4b2-76b4-449a-890a-ed1c4378fd95","system_id":"levelo_inurba_marseille","lat":43.285431,"lon":5.36007,"is_reserved":false,"is_disabled":false,"rental_uris":{"android":"levelo://app?vid=e48fe4b2-76b4-449a-890a-ed1c4378fd95","ios":"levelo://app?vid=e48fe4b2-76b4-449a-890a-ed1c4378fd95"},"vehicle_type_id":"4","last_reported":1726596721,"current_range_meters":19600,"station_id":"ce4bhah2rcd13ifvqei0","pricing_plan_id":"cebpf4jnsgd1na2vs0mg"},{"bike_id":"9a96885a-b302-4853-8c03-7b1c1d2b8132","system_id":"levelo_inurba_marseille","lat":43.3094,"lon":5.3904,"is_reserved":false,"is_disabled":false,"rental_uris":{"android":"levelo://app?vid=9a96885a-b302-4853-8c03-7b1c1d2b8132","ios":"levelo://app?vid=9a96885a-b302-4853-8c03-7b1c1d2b8132"},"vehicle_type_id":"4","last_reported":1726596721,"current_range_meters":20800,"station_id":"ce4bgup2rcd13ifvqco0","pricing_plan_id":"cebpf4jnsgd1na2vs0mg"},{"bike_id":"571d9039-d151-4146-9e0d-559d30a43073","system_id":"levelo_inurba_marseille","lat":43.24068,"lon":5.37764,"is_reserved":false,"is_disabled":false,"rental_uris":{"android":"levelo://app?vid=571d9039-d151-4146-9e0d-559d30a43073","ios":"levelo://app?vid=571d9039-d151-4146-9e0d-559d30a43073"},"vehicle_type_id":"4","last_reported":1726596721,"current_range_meters":3200,"station_id":"ce4bhnp2rcd13ifvqgvg","pricing_plan_id":"cebpf4jnsgd1na2vs0mg"},{"bike_id":"43435b3a-3182-44e8-a6b8-7a5dc851cca5","system_id":"levelo_inurba_marseille","lat":43.29555,"lon":5.42293,"is_reserved":false,"is_disabled":false,"rental_uris":{"android":"levelo://app?vid=43435b3a-3182-44e8-a6b8-7a5dc851cca5","ios":"levelo://app?vid=43435b3a-3182-44e8-a6b8-7a5dc851cca5"},"vehicle_type_id":"4","last_reported":1726596721,"current_range_meters":23200,"station_id":"ce4bhph2rcd13ifvqhdg","pricing_plan_id":"cebpf4jnsgd1na2vs0mg"},{"bike_id":"5119c20d-8a43-4489-b425-ba9511dac743","system_id":"levelo_inurba_marseille","lat":43.3025,"lon":5.40061,"is_reserved":false,"is_disabled":false,"rental_uris":{"android":"levelo://app?vid=5119c20d-8a43-4489-b425-ba9511dac743","ios":"levelo://app?vid=5119c20d-8a43-4489-b425-ba9511dac743"},"vehicle_type_id":"4","last_reported":1726596721,"current_range_meters":3600,"station_id":"ce4bgvh2rcd13ifvqcs0","pricing_plan_id":"cebpf4jnsgd1na2vs0mg"},{"bike_id":"91568254-5ac1-4779-bc6c-9ad6db8a0e0b","system_id":"levelo_inurba_marseille","lat":43.28434,"lon":5.39206,"is_reserved":false,"is_disabled":false,"rental_uris":{"android":"levelo://app?vid=91568254-5ac1-4779-bc6c-9ad6db8a0e0b","ios":"levelo://app?vid=91568254-5ac1-4779-bc6c-9ad6db8a0e0b"},"vehicle_type_id":"4","last_reported":1726596721,"current_range_meters":18800,"station_id":"ce4bhoh2rcd13ifvqh5g","pricing_plan_id":"cebpf4jnsgd1na2vs0mg"},{"bike_id":"39556530-89ea-4bc1-8504-221698cf3425","system_id":"levelo_inurba_marseille","lat":43.23964,"lon":5.36628,"is_reserved":false,"is_disabled":false,"rental_uris":{"android":"levelo://app?vid=39556530-89ea-4bc1-8504-221698cf3425","ios":"levelo://app?vid=39556530-89ea-4bc1-8504-221698cf3425"},"vehicle_type_id":"4","last_reported":1726596721,"current_range_meters":8400,"station_id":"ce4bhi12rcd13ifvqfp0","pricing_plan_id":"cebpf4jnsgd1na2vs0mg"},{"bike_id":"ac92ede7-4299-4a39-8395-ae0b535578ed","system_id":"levelo_inurba_marseille","lat":43.3176,"lon":5.39026,"is_reserved":false,"is_disabled":false,"rental_uris":{"android":"levelo://app?vid=ac92ede7-4299-4a39-8395-ae0b535578ed","ios":"levelo://app?vid=ac92ede7-4299-4a39-8395-ae0b535578ed"},"vehicle_type_id":"4","last_reported":1726596721,"current_range_meters":24400,"station_id":"ce4bhqp2rcd13ifvqhng","pricing_plan_id":"cebpf4jnsgd1na2vs0mg"},