{"last_updated":1714500627,"ttl":30,"version":"2.2","data":{"bikes":[{"bike_id":"e9a50d52-9e84-4dfd-9970-5295119879c3","system_id":"levelo_inurba_marseille","lat":43.31358,"lon":5.36701,"is_reserved":false,"is_disabled":false,"rental_uris":{"android":"levelo://app?vid=e9a50d52-9e84-4dfd-9970-5295119879c3","ios":"levelo://app?vid=e9a50d52-9e84-4dfd-9970-5295119879c3"},"vehicle_type_id":"4","last_reported":1714500627,"current_range_meters":0,"station_id":"ce4bgr92rcd13ifvqc6g","pricing_plan_id":"cebpf4jnsgd1na2vs0mg"},{"bike_id":"4f9f2cd6-08cd-4cba-aedc-da498449b2af","system_id":"levelo_inurba_marseille","lat":43.313763,"lon":5.367042,"is_reserved":false,"is_disabled":false,"rental_uris":{"android":"levelo://app?vid=4f9f2cd6-08cd-4cba-aedc-da498449b2af","ios":"levelo://app?vid=4f9f2cd6-08cd-4cba-aedc-da498449b2af"},"vehicle_type_id":"4","last_reported":1714500627,"current_range_meters":0,"station_id":"ce4bgr92rcd13ifvqc6g","pricing_plan_id":"cebpf4jnsgd1na2vs0mg"},{"bike_id":"898d7a20-dd49-4031-8627-ecc9685e6fbe","system_id":"levelo_inurba_marseille","lat":43.312239,"lon":5.368562,"is_reserved":false,"is_disabled":false,"rental_uris":{"android":"levelo://app?vid=898d7a20-dd49-4031-8627-ecc9685e6fbe","ios":"levelo://app?vid=898d7a20-dd49-4031-8627-ecc9685e6fbe"},"vehicle_type_id":"4","last_reported":1714500627,"current_range_meters":5600,"station_id":"ce4bgl92rcd13ifvqbq0","pricing_plan_id":"cebpf4jnsgd1na2vs0mg"},{"bike_id":"3e40825f-a0f9-49c9-b85e-12d3d238fade","system_id":"levelo_inurba_marseille","lat":43.312239,"lon":5.368562,"is_reserved":false,"is_disabled":false,"rental_uris":{"android":"levelo://app?vid=3e40825f-a0f9-49c9-b85e-12d3d238fade","ios":"levelo://app?vid=3e40825f-a0f9-49c9-b85e-12d3d238fade"},"vehicle_type_id":"4","last_reported":1714500627,"current_range_meters":5200,"station_id":"ce4bgl92rcd13ifvqbq0","pricing_plan_id":"cebpf4jnsgd1na2vs0mg"},{"bike_id":"a536c1c2-6b9c-4662-9623-8f9677772a3f","system_id":"levelo_inurba_marseille","lat":43.312239,"lon":5.368562,"is_reserved":false,"is_disabled":false,"rental_uris":{"android":"levelo://app?vid=a536c1c2-6b9c-4662-9623-8f9677772a3f","ios":"levelo://app?vid=a536c1c2-6b9c-4662-9623-8f9677772a3f"},"vehicle_type_id":"4","last_reported":1714500627,"current_range_meters":6400,"station_id":"ce4bgl92rcd13ifvqbq0","pricing_plan_id":"cebpf4jnsgd1na2vs0mg"},{"bike_id":"92179a4b-c419-4503-9b72-def8ae3a21fd","system_id":"levelo_inurba_marseille","lat":43.312239,"lon":5.368562,"is_reserved":false,"is_disabled":false,"rental_uris":{"android":"levelo://app?vid=92179a4b-c419-4503-9b72-def8ae3a21fd","ios":"levelo://app?vid=92179a4b-c419-4503-9b72-def8ae3a21fd"},"vehicle_type_id":"4","last_reported":1714500627,"current_range_meters":12000,"station_id":"ce4bgl92rcd13ifvqbq0","pricing_plan_id":"cebpf4jnsgd1na2vs0mg"},{"bike_id":"f0bccfa0-d026-4cf1-b1ad-821dfd922513","system_id":"levelo_inurba_marseille","lat":43.309187,"lon":5.368457,"is_reserved":false,"is_disabled":false,"rental_uris":{"android":"levelo://app?vid=f0bccfa0-d026-4cf1-b1ad-821dfd922513","ios":"levelo://app?vid=f0bccfa0-d026-4cf1-b1ad-821dfd922513"},"vehicle_type_id":"4","last_reported":1714500627,"current_range_meters":0,"station_id":"ce4bgn92rcd13ifvqbvg","pricing_plan_id":"cebpf4jnsgd1na2vs0mg"},{"bike_id":"30efe9bf-c08a-4f9f-8d7d-55bf91ef5528","system_id":"levelo_inurba_marseille","lat":43.309076,"lon":5.368465,"is_reserved":false,"is_disabled":false,"rental_uris":{"android":"levelo://app?vid=30efe9bf-c08a-4f9f-8d7d-55bf91ef5528","ios":"levelo://app?vid=30efe9bf-c08a-4f9f-8d7d-55bf91ef5528"},"vehicle_type_id":"4","last_reported":1714500627,"current_range_meters":3200,"station_id":"ce4bgn92rcd13ifvqbvg","pricing_plan_id":"cebpf4jnsgd1na2vs0mg"},{"bike_id":"0a7cd30f-0131-44be-91d8-d0cc13651bdf","system_id":"levelo_inurba_marseille","lat":43.309076,"lon":5.368465,"is_reserved":false,"is_disabled":false,"rental_uris":{"android":"levelo://app?vid=0a7cd30f-0131-44be-91d8-d0cc13651bdf","ios":"levelo://app?vid=0a7cd30f-0131-44be-91d8-d0cc13651bdf"},"vehicle_type_id":"4","last_reported":1714500627,"current_range_meters":12000,"station_id":"ce4bgn92rcd13ifvqbvg","pricing_plan_id":"cebpf4jnsgd1na2vs0mg"},{"bike_id":"4a44e359-390a-4d58-ab29-e58f2b078342","system_id":"levelo_inurba_marseille","lat":43.314811,"lon":5.373103,"is_reserved":false,"is_disabled":false,"rental_uris":{"android":"levelo://app?vid=4a44e359-390a-4d58-ab29-e58f2b078342","ios":"levelo://app?vid=4a44e359-390a-4d58-ab29-e58f2b078342"},"vehicle_type_id":"4","last_reported":1714500627,"current_range_meters":9200,"station_id":"ce4bgt12rcd13ifvqcd0","pricing_plan_id":"cebpf4jnsgd1na2vs0mg"},{"bike_id":"0eec1134-d829-46d6-8d9e-8685db388188","system_id":"levelo_inurba_marseille","lat":43.309039,"lon":5.371797,"is_reserved":false,"is_disabled":false,"rental_uris":{"android":"levelo://app?vid=0eec1134-d829-46d6-8d9e-8685db388188","ios":"levelo://app?vid=0eec1134-d829-46d6-8d9e-8685db388188"},"vehicle_type_id":"4","last_reported":1714500627,"current_range_meters":17600,"station_id":"ce4bguh2rcd13ifvqckg","pricing_plan_id":"cebpf4jnsgd1na2vs0mg"},{"bike_id":"78516493-1885-4c4e-ae8a-12ccddb9cd5a","system_id":"levelo_inurba_marseille","lat":43.309039,"lon":5.371797,"is_reserved":false,"is_disabled":false,"rental_uris":{"android":"levelo://app?vid=78516493-1885-4c4e-ae8a-12ccddb9cd5a","ios":"levelo://app?vid=78516493-1885-4c4e-ae8a-12ccddb9cd5a"},"vehicle_type_id":"4","last_reported":1714500627,"current_range_meters":25600,"station_id":"ce4bguh2rcd13ifvqckg","pricing_plan_id":"cebpf4jnsgd1na2vs0mg"},{"bike_id":"2eff3c8d-cb34-4706-9b19-af2f7986341d","system_id":"levelo_inurba_marseille","lat":43.305368,"lon":5.367343,"is_reserved":false,"is_disabled":false,"rental_uris":{"android":"levelo://app?vid=2eff3c8d-cb34-4706-9b19-af2f7986341d","ios":"levelo://app?vid=2eff3c8d-cb34-4706-9b19-af2f7986341d"},"vehicle_type_id":"4","last_reported":1714500627,"current_range_meters":18000,"station_id":"ce4bgrp2rcd13ifvqc9g","pricing_plan_id":"cebpf4jnsgd1na2vs0mg"},{"bike_id":"f3e1b689-9955-46b3-affb-c20341e4a434","system_id":"levelo_inurba_marseille","lat":43.305989,"lon":5.37225,"is_reserved":false,"is_disabled":false,"rental_uris":{"android":"levelo://app?vid=f3e1b689-9955-46b3-affb-c20341e4a434","ios":"levelo://app?vid=f3e1b689-9955-46b3-affb-c20341e4a434"},"vehicle_type_id":"4","last_reported":1714500627,"current_range_meters":23600,"station_id":"ce4bgqh2rcd13ifvqc4g","pricing_plan_id":"cebpf4jnsgd1na2vs0mg"},{"bike_id":"4ac261f5-9ce2-4e4e-bc7a-6bc3baf29bdd","system_id":"levelo_inurba_marseille","lat":43.311131,"lon":5.377651,"is_reserved":false,"is_disabled":false,"rental_uris":{"android":"levelo://app?vid=4ac261f5-9ce2-4e4e-bc7a-6bc3baf29bdd","ios":"levelo://app?vid=4ac261f5-9ce2-4e4e-bc7a-6bc3baf29bdd"},"vehicle_type_id":"4","last_reported":1714500627,"current_range_meters":12000,"station_id":"ce4bgt92rcd13ifvqcg0","pricing_plan_id":"cebpf4jnsgd1na2vs0mg"},{"bike_id":"56d8f3d2-48da-43c5-9685-c984909aef9f","system_id":"levelo_inurba_marseille","lat":43.311286,"lon":5.377696,"is_reserved":false,"is_disabled":false,"rental_uris":{"android":"levelo://app?vid=56d8f3d2-48da-43c5-9685-c984909aef9f","ios":"levelo://app?vid=56d8f3d2-48da-43c5-9685-c984909aef9f"},"vehicle_type_id":"4","last_reported":1714500627,"current_range_meters":0,"station_id":"ce4bgt92rcd13ifvqcg0","pricing_plan_id":"cebpf4jnsgd1na2vs0mg"},{"bike_id":"9438f6f0-6401-4671-9c8c-f2063f71566e","system_id":"levelo_inurba_marseille","lat":43.311131,"lon":5.377651,"is_reserved":false,"is_disabled":false,"rental_uris":{"android":"levelo://app?vid=9438f6f0-6401-4671-9c8c-f2063f71566e","ios":"levelo://app?vid=9438f6f0-6401-4671-9c8c-f2063f71566e"},"vehicle_type_id":"4","last_reported":1714500627,"current_range_meters":27600,"station_id":"ce4bgt92rcd13ifvqcg0","pricing_plan_id":"cebpf4jnsgd1na2vs0mg"},{"bike_id":"9166075f-5c96-4837-888c-ebed73013eb6","system_id":"levelo_inurba_marseille","lat":43.311125,"lon":5.377624,"is_reserved":false,"is_disabled":false,"rental_uris":{"android":"levelo://app?vid=9166075f-5c96-4837-888c-ebed73013eb6","ios":"levelo://app?vid=9166075f-5c96-4837-888c-ebed73013eb6"},"vehicle_type_id":"4","last_reported":1714500627,"current_range_meters":15200,"station_id":"ce4bgt92rcd13ifvqcg0","pricing_plan_id":"cebpf4jnsgd1na2vs0mg"},{"bike_id":"d89ef1d3-80d8-4a24-b785-423aee3311a7","system_id":"levelo_inurba_marseille","lat":43.311125,"lon":5.377624,"is_reserved":false,"is_disabled":false,"rental_uris":{"android":"levelo://app?vid=d89ef1d3-80d8-4a24-b785-423aee3311a7","ios":"levelo://app?vid=d89ef1d3-80d8-4a24-b785-423aee3311a7"},"vehicle_type_id":"4","last_reported":1714500627,"current_range_meters":24800,"station_id":"ce4bgt92rcd13ifvqcg0","pricing_plan_id":"cebpf4jnsgd1na2vs0mg"},{"bike_id":"af7b275b-482c-478d-a6c2-7b710b69ac94","system_id":"levelo_inurba_marseille","lat":43.317075,"lon":5.377367,"is_reserved":false,"is_disabled":false,"rental_uris":{"android":"levelo://app?vid=af7b275b-482c-478d-a6c2-7b710b69ac94","ios":"levelo://app?vid=af7b275b-482c-478d-a6c2-7b710b69ac94"},"vehicle_type_id":"4","last_reported":1714500627,"current_range_meters":15600,"station_id":"ce4bgth2rcd13ifvqch0","pricing_plan_id":"cebpf4jnsgd1na2vs0mg"},{"bike_id":"8a5fbd6d-19ee-4769-bbc8-48b4f6e3a6d9","system_id":"levelo_inurba_marseille","lat":43.303046,"lon":5.368981,"is_reserved":false,"is_disabled":false,"rental_uris":{"android":"levelo://app?vid=8a5fbd6d-19ee-4769-bbc8-48b4f6e3a6d9","ios":"levelo://app?vid=8a5fbd6d-19ee-4769-bbc8-48b4f6e3a6d9"},"vehicle_type_id":"4","last_reported":1714500627,"current_range_meters":16800,"station_id":"ce4bgqh2rcd13ifvqc5g","pricing_plan_id":"cebpf4jnsgd1na2vs0mg"},{"bike_id":"590c010e-db7a-431d-add3-ec12a4bfd8c0","system_id":"levelo_inurba_marseille","lat":43.315247,"lon":5.380417,"is_reserved":false,"is_disabled":false,"rental_uris":{"android":"levelo://app?vid=590c010e-db7a-431d-add3-ec12a4bfd8c0","ios":"levelo://app?vid=590c010e-db7a-431d-add3-ec12a4bfd8c0"},"vehicle_type_id":"4","last_reported":1714500627,"current_range_meters":28800,"station_id":"ce4bhsp2rcd13ifvqi50","pricing_plan_id":"cebpf4jnsgd1na2vs0mg"},{"bike_id":"e7ac3f0c-b456-4028-9899-3a8b111f30fa","system_id":"levelo_inurba_marseille","lat":43.31527,"lon":5.38045,"is_reserved":false,"is_disabled":false,"rental_uris":{"android":"levelo://app?vid=e7ac3f0c-b456-4028-9899-3a8b111f30fa","ios":"levelo://app?vid=e7ac3f0c-b456-4028-9899-3a8b111f30fa"},"vehicle_type_id":"4","last_reported":1714500627,"current_range_meters":19600,"station_id":"ce4bhsp2rcd13ifvqi50","pricing_plan_id":"cebpf4jnsgd1na2vs0mg"},{"bike_id":"17be4694-40ec-48af-9266-5eb21e04f273","system_id":"levelo_inurba_marseille","lat":43.308012,"lon":5.381511,"is_reserved":false,"is_disabled":false,"rental_uris":{"android":"levelo://app?vid=17be4694-40ec-48af-9266-5eb21e04f273","ios":"levelo://app?vid=17be4694-40ec-48af-9266-5eb21e04f273"},"vehicle_type_id":"4","last_reported":1714500627,"current_range_meters":14800,"station_id":"ce4bgt12rcd13ifvqce0","pricing_plan_id":"cebpf4jnsgd1na2vs0mg"},{"bike_id":"3d3f19de-22ec-4d1d-9b32-f6e3ea25e8f1","system_id":"levelo_inurba_marseille","lat":43.304278,"lon":5.388868,"is_reserved":false,"is_disabled":false,"rental_uris":{"android":"levelo://app?vid=3d3f19de-22ec-4d1d-9b32-f6e3ea25e8f1","ios":"levelo://app?vid=3d3f19de-22ec-4d1d-9b32-f6e3ea25e8f1"},"vehicle_type_id":"4","last_reported":1714500627,"current_range_meters":10800,"station_id":"ce4bgk12rcd13ifvqbi0","pricing_plan_id":"cebpf4jnsgd1na2vs0mg"},{"bike_id":"20ee36ab-83ec-4fcb-9465-adbceb8bedfc","system_id":"levelo_inurba_marseille","lat":43.324771,"lon":5.36557,"is_reserved":false,"is_disabled":false,"rental_uris":{"android":"levelo://app?vid=20ee36ab-83ec-4fcb-9465-adbceb8bedfc","ios":"levelo://app?vid=20ee36ab-83ec-4fcb-9465-adbceb8bedfc"},"vehicle_type_id":"4","last_reported":1714500627,"current_range_meters":30400,"station_id":"ce4bhs12rcd13ifvqhvg","pricing_plan_id":"cebpf4jnsgd1na2vs0mg"},{"bike_id":"775b5193-55cb-42f1-b0fa-acd6f40ef433","system_id":"levelo_inurba_marseille","lat":43.324771,"lon":5.36557,"is_reserved":false,"is_disabled":false,"rental_uris":{"android":"levelo://app?vid=775b5193-55cb-42f1-b0fa-acd6f40ef433","ios":"levelo://app?vid=775b5193-55cb-42f1-b0fa-acd6f40ef433"},"vehicle_type_id":"4","last_reported":1714500627,"current_range_meters":29200,"station_id":"ce4bhs12rcd13ifvqhvg","pricing_plan_id":"cebpf4jnsgd1na2vs0mg"},{"bike_id":"0a4a6ca4-0474-4f68-b089-af26c0c8b25a","system_id":"levelo_inurba_marseille","lat":43.324771,"lon":5.36557,"is_reserved":false,"is_disabled":false,"rental_uris":{"android":"levelo://app?vid=0a4a6ca4-0474-4f68-b089-af26c0c8b25a","ios":"levelo://app?vid=0a4a6ca4-0474-4f68-b089-af26c0c8b25a"},"vehicle_type_id":"4","last_reported":1714500627,"current_range_meters":19200,"station_id":"ce4bhs12rcd13ifvqhvg","pricing_plan_id":"cebpf4jnsgd1na2vs0mg"},{"bike_id":"c309f7ba-6ad6-4d3f-a1a7-a3843971cf8b","system_id":"levelo_inurba_marseille","lat":43.324771,"lon":5.36557,"is_reserved":false,"is_disabled":false,"rental_uris":{"android":"levelo://app?vid=c309f7ba-6ad6-4d3f-a1a7-a3843971cf8b","ios":"levelo://app?vid=c309f7ba-6ad6-4d3f-a1a7-a3843971cf8b"},"vehicle_type_id":"4","last_reported":1714500627,"current_range_meters":23600,"station_id":"ce4bhs12rcd13ifvqhvg","pricing_plan_id":"cebpf4jnsgd1na2vs0mg"},{"bike_id":"cb5035c4-9e66-46e5-baea-a68bc4206adf","system_id":"levelo_inurba_marseille","lat":43.324822,"lon":5.365888,"is_reserved":false,"is_disabled":false,"rental_uris":{"android":"levelo://app?vid=cb5035c4-9e66-46e5-baea-a68bc4206adf","ios":"levelo://app?vid=cb5035c4-9e66-46e5-baea-a68bc4206adf"},"vehicle_type_id":"4","last_reported":1714500627,"current_range_meters":14000,"station_id":"ce4bhs12rcd13ifvqhvg","pricing_plan_id":"cebpf4jnsgd1na2vs0mg"},{"bike_id":"1c9411c0-d42f-4c9c-954b-623621242b42","system_id":"levelo_inurba_marseille","lat":43.324771,"lon":5.36557,"is_reserved":false,"is_disabled":false,"rental_uris":{"android":"levelo://app?vid=1c9411c0-d42f-4c9c-954b-623621242b42","ios":"levelo://app?vid=1c9411c0-d42f-4c9c-954b-623621242b42"},"vehicle_type_id":"4","last_reported":1714500627,"current_range_meters":13600,"station_id":"ce4bhs12rcd13ifvqhvg","pricing_plan_id":"cebpf4jnsgd1na2vs0mg"},{"bike_id":"06ac2027-09f1-4680-aa1f-6ab726213cb9","system_id":"levelo_inurba_marseille","lat":43.324771,"lon":5.36557,"is_reserved":false,"is_disabled":false,"rental_uris":{"android":"levelo://app?vid=06ac2027-09f1-4680-aa1f-6ab726213cb9","ios":"levelo://app?vid=06ac2027-09f1-4680-aa1f-6ab726213cb9"},"vehicle_type_id":"4","last_reported":1714500627,"current_range_meters":9200,"station_id":"ce4bhs12rcd13ifvqhvg","pricing_plan_id":"cebpf4jnsgd1na2vs0mg"},{"bike_id":"e560c9f7-9a68-4c7c-a574-1ae51de44590","system_id":"levelo_inurba_marseille","lat":43.324771,"lon":5.36557,"is_reserved":false,"is_disabled":false,"rental_uris":{"android":"levelo://app?vid=e560c9f7-9a68-4c7c-a574-1ae51de44590","ios":"levelo://app?vid=e560c9f7-9a68-4c7c-a574-1ae51de44590"},"vehicle_type_id":"4","last_reported":1714500627,"current_range_meters":9200,"station_id":"ce4bhs12rcd13ifvqhvg","pricing_plan_id":"cebpf4jnsgd1na2vs0mg"},{"bike_id":"ff14dfe6-78af-413d-a3ea-3b224d7ea33d","system_id":"levelo_inurba_marseille","lat":43.324771,"lon":5.36557,"is_reserved":false,"is_disabled":false,"rental_uris":{"android":"levelo://app?vid=ff14dfe6-78af-413d-a3ea-3b224d7ea33d","ios":"levelo://app?vid=ff14dfe6-78af-413d-a3ea-3b224d7ea33d"},"vehicle_type_id":"4","last_reported":1714500627,"current_range_meters":23600,"station_id":"ce4bhs12rcd13ifvqhvg","pricing_plan_id":"cebpf4jnsgd1na2vs0mg"},{"bike_id":"caadc003-ff39-41d7-a207-143cea53cb36","system_id":"levelo_inurba_marseille","lat":43.324829,"lon":5.365804,"is_reserved":false,"is_disabled":false,"rental_uris":{"android":"levelo://app?vid=caadc003-ff39-41d7-a207-143cea53cb36","ios":"levelo://app?vid=caadc003-ff39-41d7-a207-143cea53cb36"},"vehicle_type_id":"4","last_reported":1714500627,"current_range_meters":30400,"station_id":"ce4bhs12rcd13ifvqhvg","pricing_plan_id":"cebpf4jnsgd1na2vs0mg"},{"bike_id":"7a10f6e8-8083-4b57-a90f-541d4663b3eb","system_id":"levelo_inurba_marseille","lat":43.324771,"lon":5.36557,"is_reserved":false,"is_disabled":false,"rental_uris":{"android":"levelo://app?vid=7a10f6e8-8083-4b57-a90f-541d4663b3eb","ios":"levelo://app?vid=7a10f6e8-8083-4b57-a90f-541d4663b3eb"},"vehicle_type_id":"4","last_reported":1714500627,"current_range_meters":15200,"station_id":"ce4bhs12rcd13ifvqhvg","pricing_plan_id":"cebpf4jnsgd1na2vs0mg"},{"bike_id":"b21ae7ee-dd87-4fb7-a859-109931d2977d","system_id":"levelo_inurba_marseille","lat":43.324771,"lon":5.36557,"is_reserved":false,"is_disabled":false,"rental_uris":{"android":"levelo://app?vid=b21ae7ee-dd87-4fb7-a859-109931d2977d","ios":"levelo://app?vid=b21ae7ee-dd87-4fb7-a859-109931d2977d"},"vehicle_type_id":"4","last_reported":1714500627,"current_range_meters":14800,"station_id":"ce4bhs12rcd13ifvqhvg","pricing_plan_id":"cebpf4jnsgd1na2vs0mg"},{"bike_id":"38034195-f3ea-4a5f-9ad9-18410ccfb664","system_id":"levelo_inurba_marseille","lat":43.32483,"lon":5.36573,"is_reserved":false,"is_disabled":false,"rental_uris":{"android":"levelo://app?vid=38034195-f3ea-4a5f-9ad9-18410ccfb664","ios":"levelo://app?vid=38034195-f3ea-4a5f-9ad9-18410ccfb664"},"vehicle_type_id":"4","last_reported":1714500627,"current_range_meters":15200,"station_id":"ce4bhs12rcd13ifvqhvg","pricing_plan_id":"cebpf4jnsgd1na2vs0mg"},{"bike_id":"9ff0830f-e0f2-4f56-8687-5dd0c71549f1","system_id":"levelo_inurba_marseille","lat":43.32483,"lon":5.36567,"is_reserved":false,"is_disabled":false,"rental_uris":{"android":"levelo://app?vid=9ff0830f-e0f2-4f56-8687-5dd0c71549f1","ios":"levelo://app?vid=9ff0830f-e0f2-4f56-8687-5dd0c71549f1"},"vehicle_type_id":"4","last_reported":1714500627,"current_range_meters":2000,"station_id":"ce4bhs12rcd13ifvqhvg","pricing_plan_id":"cebpf4jnsgd1na2vs0mg"},{"bike_id":"263ddf92-f97b-4bde-af65-350aba08e4ca","system_id":"levelo_inurba_marseille","lat":43.324771,"lon":5.36557,"is_reserved":false,"is_disabled":false,"rental_uris":{"android":"levelo://app?vid=263ddf92-f97b-4bde-af65-350aba08e4ca","ios":"levelo://app?vid=263ddf92-f97b-4bde-af65-350aba08e4ca"},"vehicle_type_id":"4","last_reported":1714500627,"current_range_meters":11200,"station_id":"ce4bhs12rcd13ifvqhvg","pricing_plan_id":"cebpf4jnsgd1na2vs0mg"},{"bike_id":"478271a2-c857-4c44-88c4-4cdec904e587","system_id":"levelo_inurba_marseille","lat":43.324771,"lon":5.36557,"is_reserved":false,"is_disabled":false,"rental_uris":{"android":"levelo://app?vid=478271a2-c857-4c44-88c4-4cdec904e587","ios":"levelo://app?vid=478271a2-c857-4c44-88c4-4cdec904e587"},"vehicle_type_id":"4","last_reported":1714500627,"current_range_meters":14400,"station_id":"ce4bhs12rcd13ifvqhvg","pricing_plan_id":"cebpf4jnsgd1na2vs0mg"},{"bike_id":"ec9ad42d-7bf5-43ef-a2cf-ce73f78031d9","system_id":"levelo_inurba_marseille","lat":43.324844,"lon":5.365651,"is_reserved":false,"is_disabled":false,"rental_uris":{"android":"levelo://app?vid=ec9ad42d-7bf5-43ef-a2cf-ce73f78031d9","ios":"levelo://app?vid=ec9ad42d-7bf5-43ef-a2cf-ce73f78031d9"},"vehicle_type_id":"4","last_reported":1714500627,"current_range_meters":8400,"station_id":"ce4bhs12rcd13ifvqhvg","pricing_plan_id":"cebpf4jnsgd1na2vs0mg"},{"bike_id":"a220ad8e-30f9-4404-aa2e-6db3aa6afb45","system_id":"levelo_inurba_marseille","lat":43.324771,"lon":5.36557,"is_reserved":false,"is_disabled":false,"rental_uris":{"android":"levelo://app?vid=a220ad8e-30f9-4404-aa2e-6db3aa6afb45","ios":"levelo://app?vid=a220ad8e-30f9-4404-aa2e-6db3aa6afb45"},"vehicle_type_id":"4","last_reported":1714500627,"current_range_meters":9600,"station_id":"ce4bhs12rcd13ifvqhvg","pricing_plan_id":"cebpf4jnsgd1na2vs0mg"},{"bike_id":"fca0512a-e514-43b3-a37e-665741369b77","system_id":"levelo_inurba_marseille","lat":43.324771,"lon":5.36557,"is_reserved":false,"is_disabled":false,"rental_uris":{"android":"levelo://app?vid=fca0512a-e514-43b3-a37e-665741369b77","ios":"levelo://app?vid=fca0512a-e514-43b3-a37e-665741369b77"},"vehicle_type_id":"4","last_reported":1714500627,"current_range_meters":18400,"station_id":"ce4bhs12rcd13ifvqhvg","pricing_plan_id":"cebpf4jnsgd1na2vs0mg"},{"bike_id":"3233b655-0e42-4745-9352-e7ab6daacfd8","system_id":"levelo_inurba_marseille","lat":43.324771,"lon":5.36557,"is_reserved":false,"is_disabled":false,"rental_uris":{"android":"levelo://app?vid=3233b655-0e42-4745-9352-e7ab6daacfd8","ios":"levelo://app?vid=3233b655-0e42-4745-9352-e7ab6daacfd8"},"vehicle_type_id":"4","last_reported":1714500627,"current_range_meters":30400,"station_id":"ce4bhs12rcd13ifvqhvg","pricing_plan_id":"cebpf4jnsgd1na2vs0mg"},{"bike_id":"505c9fc0-49c3-4c39-ab88-1ba2555dbf58","system_id":"levelo_inurba_marseille","lat":43.32488,"lon":5.36557,"is_reserved":false,"is_disabled":false,"rental_uris":{"android":"levelo://app?vid=505c9fc0-49c3-4c39-ab88-1ba2555dbf58","ios":"levelo://app?vid=505c9fc0-49c3-4c39-ab88-1ba2555dbf58"},"vehicle_type_id":"4","last_reported":1714500627,"current_range_meters":11200,"station_id":"ce4bhs12rcd13ifvqhvg","pricing_plan_id":"cebpf4jnsgd1na2vs0mg"},{"bike_id":"d689d75b-2503-4c26-a0fd-e4e182d9b314","system_id":"levelo_inurba_marseille","lat":43.324771,"lon":5.36557,"is_reserved":false,"is_disabled":false,"rental_uris":{"android":"levelo://app?vid=d689d75b-2503-4c26-a0fd-e4e182d9b314","ios":"levelo://app?vid=d689d75b-2503-4c26-a0fd-e4e182d9b314"},"vehicle_type_id":"4","last_reported":1714500627,"current_range_meters":13200,"station_id":"ce4bhs12rcd13ifvqhvg","pricing_plan_id":"cebpf4jnsgd1na2vs0mg"},{"bike_id":"b542f8ad-0de0-40a1-9ef7-53b385381a12","system_id":"levelo_inurba_marseille","lat":43.324771,"lon":5.36557,"is_reserved":false,"is_disabled":false,"rental_uris":{"android":"levelo://app?vid=b542f8ad-0de0-40a1-9ef7-53b385381a12","ios":"levelo://app?vid=b542f8ad-0de0-40a1-9ef7-53b385381a12"},"vehicle_type_id":"4","last_reported":1714500627,"current_range_meters":8000,"station_id":"ce4bhs12rcd13ifvqhvg","pricing_plan_id":"cebpf4jnsgd1na2vs0mg"},{"bike_id":"2cb8d4af-041d-4bec-a228-7f59da5d6549","system_id":"levelo_inurba_marseille","lat":43.3249,"lon":5.36571,"is_reserved":false,"is_disabled":false,"rental_uris":{"android":"levelo://app?vid=2cb8d4af-041d-4bec-a228-7f59da5d6549","ios":"levelo://app?vid=2cb8d4af-041d-4bec-a228-7f59da5d6549"},"vehicle_type_id":"4","last_reported":1714500627,"current_range_meters":2400,"station_id":"ce4bhs12rcd13ifvqhvg","pricing_plan_id":"cebpf4jnsgd1na2vs0mg"},{"bike_id":"5fd70dae-9eb2-4cfa-affc-897d4900fe73","system_id":"levelo_inurba_marseille","lat":43.324771,"lon":5.36557,"is_reserved":false,"is_disabled":false,"rental_uris":{"android":"levelo://app?vid=5fd70dae-9eb2-4cfa-affc-897d4900fe73","ios":"levelo://app?vid=5fd70dae-9eb2-4cfa-affc-897d4900fe73"},"vehicle_type_id":"4","last_reported":1714500627,"current_range_meters":22800,"station_id":"ce4bhs12rcd13ifvqhvg","pricing_plan_id":"cebpf4jnsgd1na2vs0mg"},{"bike_id":"307b2ff8-9ad6-4128-8a2f-ba86690d45f8","system_id":"levelo_inurba_marseille","lat":43.310804,"lon":5.38359,"is_reserved":false,"is_disabled":false,"rental_uris":{"android":"levelo://app?vid=307b2ff8-9ad6-4128-8a2f-ba86690d45f8","ios":"levelo://app?vid=307b2ff8-9ad6-4128-8a2f-ba86690d45f8"},"vehicle_type_id":"4","last_reported":1714500627,"current_range_meters":9200,"station_id":"ce4bgv92rcd13ifvqcr0","pricing_plan_id":"cebpf4jnsgd1na2vs0mg"},{"bike_id":"ad8aafe5-70d7-45fe-b9db-bcbbc4597c21","system_id":"levelo_inurba_marseille","lat":43.301429,"lon":5.37413,"is_reserved":false,"is_disabled":false,"rental_uris":{"android":"levelo://app?vid=ad8aafe5-70d7-45fe-b9db-bcbbc4597c21","ios":"levelo://app?vid=ad8aafe5-70d7-45fe-b9db-bcbbc4597c21"},"vehicle_type_id":"4","last_reported":1714500627,"current_range_meters":7200,"station_id":"ce4bgs92rcd13ifvqcc0","pricing_plan_id":"cebpf4jnsgd1na2vs0mg"},{"bike_id":"d6a18df4-7e0e-4bc2-8900-876a74898b23","system_id":"levelo_inurba_marseille","lat":43.301429,"lon":5.37413,"is_reserved":false,"is_disabled":false,"rental_uris":{"android":"levelo://app?vid=d6a18df4-7e0e-4bc2-8900-876a74898b23","ios":"levelo://app?vid=d6a18df4-7e0e-4bc2-8900-876a74898b23"},"vehicle_type_id":"4","last_reported":1714500627,"current_range_meters":18800,"station_id":"ce4bgs92rcd13ifvqcc0","pricing_plan_id":"cebpf4jnsgd1na2vs0mg"},{"bike_id":"4c278f1e-a9be-4065-807d-8774a97b4c17","system_id":"levelo_inurba_marseille","lat":43.302784,"lon":5.377158,"is_reserved":false,"is_disabled":false,"rental_uris":{"android":"levelo://app?vid=4c278f1e-a9be-4065-807d-8774a97b4c17","ios":"levelo://app?vid=4c278f1e-a9be-4065-807d-8774a97b4c17"},"vehicle_type_id":"4","last_reported":1714500627,"current_range_meters":11600,"station_id":"ce4bguh2rcd13ifvqcj0","pricing_plan_id":"cebpf4jnsgd1na2vs0mg"},{"bike_id":"952baf88-6145-4f3f-b32f-66ddd2b06b56","system_id":"levelo_inurba_marseille","lat":43.319935,"lon":5.381699,"is_reserved":false,"is_disabled":false,"rental_uris":{"android":"levelo://app?vid=952baf88-6145-4f3f-b32f-66ddd2b06b56","ios":"levelo://app?vid=952baf88-6145-4f3f-b32f-66ddd2b06b56"},"vehicle_type_id":"4","last_reported":1714500627,"current_range_meters":6400,"station_id":"ce4bhr12rcd13ifvqhpg","pricing_plan_id":"cebpf4jnsgd1na2vs0mg"},{"bike_id":"4b678404-bcb7-469e-8217-1687e76be9e0","system_id":"levelo_inurba_marseille","lat":43.319935,"lon":5.381699,"is_reserved":false,"is_disabled":false,"rental_uris":{"android":"levelo://app?vid=4b678404-bcb7-469e-8217-1687e76be9e0","ios":"levelo://app?vid=4b678404-bcb7-469e-8217-1687e76be9e0"},"vehicle_type_id":"4","last_reported":1714500627,"current_range_meters":23200,"station_id":"ce4bhr12rcd13ifvqhpg","pricing_plan_id":"cebpf4jnsgd1na2vs0mg"},{"bike_id":"4eabf273-d6ab-4f69-aa17-5ce3078e9cfa","system_id":"levelo_inurba_marseille","lat":43.319935,"lon":5.381699,"is_reserved":false,"is_disabled":false,"rental_uris":{"android":"levelo://app?vid=4eabf273-d6ab-4f69-aa17-5ce3078e9cfa","ios":"levelo://app?vid=4eabf273-d6ab-4f69-aa17-5ce3078e9cfa"},"vehicle_type_id":"4","last_reported":1714500627,"current_range_meters":12800,"station_id":"ce4bhr12rcd13ifvqhpg","pricing_plan_id":"cebpf4jnsgd1na2vs0mg"},{"bike_id":"6bcbcab5-2577-4102-8b16-d4b8c5fa2d0a","system_id":"levelo_inurba_marseille","lat":43.313571,"lon":5.384829,"is_reserved":false,"is_disabled":false,"rental_uris":{"android":"levelo://app?vid=6bcbcab5-2577-4102-8b16-d4b8c5fa2d0a","ios":"levelo://app?vid=6bcbcab5-2577-4102-8b16-d4b8c5fa2d0a"},"vehicle_type_id":"4","last_reported":1714500627,"current_range_meters":19200,"station_id":"ce4bgt92rcd13ifvqcf0","pricing_plan_id":"cebpf4jnsgd1na2vs0mg"},{"bike_id":"bf7237d8-45ec-4e41-a5f9-2e40df36b0a3","system_id":"levelo_inurba_marseille","lat":43.319935,"lon":5.381699,"is_reserved":false,"is_disabled":false,"rental_uris":{"android":"levelo://app?vid=bf7237d8-45ec-4e41-a5f9-2e40df36b0a3","ios":"levelo://app?vid=bf7237d8-45ec-4e41-a5f9-2e40df36b0a3"},"vehicle_type_id":"4","last_reported":1714500627,"current_range_meters":9200,"station_id":"ce4bhr12rcd13ifvqhpg","pricing_plan_id":"cebpf4jnsgd1na2vs0mg"},{"bike_id":"ad4e83bd-614d-4fae-bc45-2353752384ba","system_id":"levelo_inurba_marseille","lat":43.299222,"lon":5.365554,"is_reserved":false,"is_disabled":false,"rental_uris":{"android":"levelo://app?vid=ad4e83bd-614d-4fae-bc45-2353752384ba","ios":"levelo://app?vid=ad4e83bd-614d-4fae-bc45-2353752384ba"},"vehicle_type_id":"4","last_reported":1714500627,"current_range_meters":30800,"station_id":"ce4bgm92rcd13ifvqbr0","pricing_plan_id":"cebpf4jnsgd1na2vs0mg"},{"bike_id":"80e0b253-ac1f-4843-b5e6-25626156e75f","system_id":"levelo_inurba_marseille","lat":43.29936,"lon":5.3656,"is_reserved":false,"is_disabled":false,"rental_uris":{"android":"levelo://app?vid=80e0b253-ac1f-4843-b5e6-25626156e75f","ios":"levelo://app?vid=80e0b253-ac1f-4843-b5e6-25626156e75f"},"vehicle_type_id":"4","last_reported":1714500627,"current_range_meters":5600,"station_id":"ce4bgm92rcd13ifvqbr0","pricing_plan_id":"cebpf4jnsgd1na2vs0mg"},{"bike_id":"f46339ae-c3c0-4502-9ae5-cf473a7bbb88","system_id":"levelo_inurba_marseille","lat":43.298433,"lon":5.362774,"is_reserved":false,"is_disabled":false,"rental_uris":{"android":"levelo://app?vid=f46339ae-c3c0-4502-9ae5-cf473a7bbb88","ios":"levelo://app?vid=f46339ae-c3c0-4502-9ae5-cf473a7bbb88"},"vehicle_type_id":"4","last_reported":1714500627,"current_range_meters":32000,"station_id":"ce4bgpp2rcd13ifvqc3g","pricing_plan_id":"cebpf4jnsgd1na2vs0mg"},{"bike_id":"e9ae2185-1d4c-4f23-85eb-f91dfe072715","system_id":"levelo_inurba_marseille","lat":43.298433,"lon":5.362774,"is_reserved":false,"is_disabled":false,"rental_uris":{"android":"levelo://app?vid=e9ae2185-1d4c-4f23-85eb-f91dfe072715","ios":"levelo://app?vid=e9ae2185-1d4c-4f23-85eb-f91dfe072715"},"vehicle_type_id":"4","last_reported":1714500627,"current_range_meters":15600,"station_id":"ce4bgpp2rcd13ifvqc3g","pricing_plan_id":"cebpf4jnsgd1na2vs0mg"},{"bike_id":"c24cbb70-06f2-40a4-8735-05b4d90c99e9","system_id":"levelo_inurba_marseille","lat":43.305364,"lon":5.384119,"is_reserved":false,"is_disabled":false,"rental_uris":{"android":"levelo://app?vid=c24cbb70-06f2-40a4-8735-05b4d90c99e9","ios":"levelo://app?vid=c24cbb70-06f2-40a4-8735-05b4d90c99e9"},"vehicle_type_id":"4","last_reported":1714500627,"current_range_meters":1600,"station_id":"ce4bgg92rcd13ifvqb30","pricing_plan_id":"cebpf4jnsgd1na2vs0mg"},{"bike_id":"cc5ab70c-20b4-41d6-a85a-59e4732c5cd8","system_id":"levelo_inurba_marseille","lat":43.298433,"lon":5.362774,"is_reserved":false,"is_disabled":false,"rental_uris":{"android":"levelo://app?vid=cc5ab70c-20b4-41d6-a85a-59e4732c5cd8","ios":"levelo://app?vid=cc5ab70c-20b4-41d6-a85a-59e4732c5cd8"},"vehicle_type_id":"4","last_reported":1714500627,"current_range_meters":18000,"station_id":"ce4bgpp2rcd13ifvqc3g","pricing_plan_id":"cebpf4jnsgd1na2vs0mg"},{"bike_id":"9fb3a620-8b37-4689-a971-faa75d61c7f2","system_id":"levelo_inurba_marseille","lat":43.298433,"lon":5.362774,"is_reserved":false,"is_disabled":false,"rental_uris":{"android":"levelo://app?vid=9fb3a620-8b37-4689-a971-faa75d61c7f2","ios":"levelo://app?vid=9fb3a620-8b37-4689-a971-faa75d61c7f2"},"vehicle_type_id":"4","last_reported":1714500627,"current_range_meters":13600,"station_id":"ce4bgpp2rcd13ifvqc3g","pricing_plan_id":"cebpf4jnsgd1na2vs0mg"},{"bike_id":"42fd22b9-27f4-409b-8d5a-a317406de51e","system_id":"levelo_inurba_marseille","lat":43.299243,"lon":5.374807,"is_reserved":false,"is_disabled":false,"rental_uris":{"android":"levelo://app?vid=42fd22b9-27f4-409b-8d5a-a317406de51e","ios":"levelo://app?vid=42fd22b9-27f4-409b-8d5a-a317406de51e"},"vehicle_type_id":"4","last_reported":1714500627,"current_range_meters":29200,"station_id":"ce4bgjh2rcd13ifvqbg0","pricing_plan_id":"cebpf4jnsgd1na2vs0mg"},{"bike_id":"0fa6b7b0-744f-4c74-89a4-ac92aa582525","system_id":"levelo_inurba_marseille","lat":43.305368,"lon":5.367343,"is_reserved":false,"is_disabled":false,"rental_uris":{"android":"levelo://app?vid=0fa6b7b0-744f-4c74-89a4-ac92aa582525","ios":"levelo://app?vid=0fa6b7b0-744f-4c74-89a4-ac92aa582525"},"vehicle_type_id":"4","last_reported":1714500627,"current_range_meters":20400,"station_id":"ce4bgrp2rcd13ifvqc9g","pricing_plan_id":"cebpf4jnsgd1na2vs0mg"},{"bike_id":"43131936-f3f0-43fc-b563-629d1f3b5727","system_id":"levelo_inurba_marseille","lat":43.311691,"lon":5.387235,"is_reserved":false,"is_disabled":false,"rental_uris":{"android":"levelo://app?vid=43131936-f3f0-43fc-b563-629d1f3b5727","ios":"levelo://app?vid=43131936-f3f0-43fc-b563-629d1f3b5727"},"vehicle_type_id":"4","last_reported":1714500627,"current_range_meters":6000,"station_id":"ce4bgv12rcd13ifvqcp0","pricing_plan_id":"cebpf4jnsgd1na2vs0mg"},{"bike_id":"f10963aa-82d7-43d5-acc9-6e9bc7b22bbb","system_id":"levelo_inurba_marseille","lat":43.311722,"lon":5.387247,"is_reserved":false,"is_disabled":false,"rental_uris":{"android":"levelo://app?vid=f10963aa-82d7-43d5-acc9-6e9bc7b22bbb","ios":"levelo://app?vid=f10963aa-82d7-43d5-acc9-6e9bc7b22bbb"},"vehicle_type_id":"4","last_reported":1714500627,"current_range_meters":400,"station_id":"ce4bgv12rcd13ifvqcp0","pricing_plan_id":"cebpf4jnsgd1na2vs0mg"},{"bike_id":"df17687e-e264-406d-a8b2-d5c9f7d9a73c","system_id":"levelo_inurba_marseille","lat":43.297774,"lon":5.370875,"is_reserved":false,"is_disabled":false,"rental_uris":{"android":"levelo://app?vid=df17687e-e264-406d-a8b2-d5c9f7d9a73c","ios":"levelo://app?vid=df17687e-e264-406d-a8b2-d5c9f7d9a73c"},"vehicle_type_id":"4","last_reported":1714500627,"current_range_meters":3600,"station_id":"ce4bgop2rcd13ifvqc1g","pricing_plan_id":"cebpf4jnsgd1na2vs0mg"},{"bike_id":"7aaf9334-8417-437a-bf05-894f756dcb96","system_id":"levelo_inurba_marseille","lat":43.297794,"lon":5.370888,"is_reserved":false,"is_disabled":false,"rental_uris":{"android":"levelo://app?vid=7aaf9334-8417-437a-bf05-894f756dcb96","ios":"levelo://app?vid=7aaf9334-8417-437a-bf05-894f756dcb96"},"vehicle_type_id":"4","last_reported":1714500627,"current_range_meters":16400,"station_id":"ce4bgop2rcd13ifvqc1g","pricing_plan_id":"cebpf4jnsgd1na2vs0mg"},{"bike_id":"04adf052-58f7-4508-a4d6-959fea14c14f","system_id":"levelo_inurba_marseille","lat":43.322872,"lon":5.382756,"is_reserved":false,"is_disabled":false,"rental_uris":{"android":"levelo://app?vid=04adf052-58f7-4508-a4d6-959fea14c14f","ios":"levelo://app?vid=04adf052-58f7-4508-a4d6-959fea14c14f"},"vehicle_type_id":"4","last_reported":1714500627,"current_range_meters":4800,"station_id":"ce4bhr12rcd13ifvqhqg","pricing_plan_id":"cebpf4jnsgd1na2vs0mg"},{"bike_id":"3fe083d3-ec38-46c4-b4e5-55c2be2ec179","system_id":"levelo_inurba_marseille","lat":43.322872,"lon":5.382756,"is_reserved":false,"is_disabled":false,"rental_uris":{"android":"levelo://app?vid=3fe083d3-ec38-46c4-b4e5-55c2be2ec179","ios":"levelo://app?vid=3fe083d3-ec38-46c4-b4e5-55c2be2ec179"},"vehicle_type_id":"4","last_reported":1714500627,"current_range_meters":11200,"station_id":"ce4bhr12rcd13ifvqhqg","pricing_plan_id":"cebpf4jnsgd1na2vs0mg"},{"bike_id":"726e1e87-cba6-41f7-ad2e-489ae4aa3f9f","system_id":"levelo_inurba_marseille","lat":43.322872,"lon":5.382756,"is_reserved":false,"is_disabled":false,"rental_uris":{"android":"levelo://app?vid=726e1e87-cba6-41f7-ad2e-489ae4aa3f9f","ios":"levelo://app?vid=726e1e87-cba6-41f7-ad2e-489ae4aa3f9f"},"vehicle_type_id":"4","last_reported":1714500627,"current_range_meters":31200,"station_id":"ce4bhr12rcd13ifvqhqg","pricing_plan_id":"cebpf4jnsgd1na2vs0mg"},{"bike_id":"6506c128-ea5f-4a9e-8e94-9b1f3fce7950","system_id":"levelo_inurba_marseille","lat":43.322872,"lon":5.382756,"is_reserved":false,"is_disabled":false,"rental_uris":{"android":"levelo://app?vid=6506c128-ea5f-4a9e-8e94-9b1f3fce7950","ios":"levelo://app?vid=6506c128-ea5f-4a9e-8e94-9b1f3fce7950"},"vehicle_type_id":"4","last_reported":1714500627,"current_range_meters":18400,"station_id":"ce4bhr12rcd13ifvqhqg","pricing_plan_id":"cebpf4jnsgd1na2vs0mg"},{"bike_id":"d1aed8c1-d01c-42e8-9c9e-2e0535527a68","system_id":"levelo_inurba_marseille","lat":43.29714,"lon":5.36618,"is_reserved":false,"is_disabled":false,"rental_uris":{"android":"levelo://app?vid=d1aed8c1-d01c-42e8-9c9e-2e0535527a68","ios":"levelo://app?vid=d1aed8c1-d01c-42e8-9c9e-2e0535527a68"},"vehicle_type_id":"4","last_reported":1714500627,"current_range_meters":0,"station_id":"ce4bgn12rcd13ifvqbt0","pricing_plan_id":"cebpf4jnsgd1na2vs0mg"},{"bike_id":"0f2d986e-b4f4-4162-8b04-8c7034a73958","system_id":"levelo_inurba_marseille","lat":43.297163,"lon":5.365866,"is_reserved":false,"is_disabled":false,"rental_uris":{"android":"levelo://app?vid=0f2d986e-b4f4-4162-8b04-8c7034a73958","ios":"levelo://app?vid=0f2d986e-b4f4-4162-8b04-8c7034a73958"},"vehicle_type_id":"4","last_reported":1714500627,"current_range_meters":25600,"station_id":"ce4bgn12rcd13ifvqbt0","pricing_plan_id":"cebpf4jnsgd1na2vs0mg"},{"bike_id":"0cf27b18-aab6-49df-9929-7efcd6bc6486","system_id":"levelo_inurba_marseille","lat":43.297163,"lon":5.365866,"is_reserved":false,"is_disabled":false,"rental_uris":{"android":"levelo://app?vid=0cf27b18-aab6-49df-9929-7efcd6bc6486","ios":"levelo://app?vid=0cf27b18-aab6-49df-9929-7efcd6bc6486"},"vehicle_type_id":"4","last_reported":1714500627,"current_range_meters":15200,"station_id":"ce4bgn12rcd13ifvqbt0","pricing_plan_id":"cebpf4jnsgd1na2vs0mg"},{"bike_id":"1ad7b9e0-c1e8-4759-b408-a72858d1359f","system_id":"levelo_inurba_marseille","lat":43.29626,"lon":5.37152,"is_reserved":false,"is_disabled":false,"rental_uris":{"android":"levelo://app?vid=1ad7b9e0-c1e8-4759-b408-a72858d1359f","ios":"levelo://app?vid=1ad7b9e0-c1e8-4759-b408-a72858d1359f"},"vehicle_type_id":"4","last_reported":1714500627,"current_range_meters":0,"station_id":"ce4bgnh2rcd13ifvqc0g","pricing_plan_id":"cebpf4jnsgd1na2vs0mg"},{"bike_id":"ac1de7db-b10e-4e77-a50d-50279b6dfb1e","system_id":"levelo_inurba_marseille","lat":43.29625,"lon":5.3715,"is_reserved":false,"is_disabled":false,"rental_uris":{"android":"levelo://app?vid=ac1de7db-b10e-4e77-a50d-50279b6dfb1e","ios":"levelo://app?vid=ac1de7db-b10e-4e77-a50d-50279b6dfb1e"},"vehicle_type_id":"4","last_reported":1714500627,"current_range_meters":28000,"station_id":"ce4bgnh2rcd13ifvqc0g","pricing_plan_id":"cebpf4jnsgd1na2vs0mg"},{"bike_id":"39746e75-a7b3-4b0a-bdb9-766303f9d055","system_id":"levelo_inurba_marseille","lat":43.29573,"lon":5.367355,"is_reserved":false,"is_disabled":false,"rental_uris":{"android":"levelo://app?vid=39746e75-a7b3-4b0a-bdb9-766303f9d055","ios":"levelo://app?vid=39746e75-a7b3-4b0a-bdb9-766303f9d055"},"vehicle_type_id":"4","last_reported":1714500627,"current_range_meters":23600,"station_id":"ce4bgph2rcd13ifvqc2g","pricing_plan_id":"cebpf4jnsgd1na2vs0mg"},{"bike_id":"029bcad0-b235-428c-9f7b-a5f9631dc3c4","system_id":"levelo_inurba_marseille","lat":43.29582,"lon":5.36733,"is_reserved":false,"is_disabled":false,"rental_uris":{"android":"levelo://app?vid=029bcad0-b235-428c-9f7b-a5f9631dc3c4","ios":"levelo://app?vid=029bcad0-b235-428c-9f7b-a5f9631dc3c4"},"vehicle_type_id":"4","last_reported":1714500627,"current_range_meters":26000,"station_id":"ce4bgph2rcd13ifvqc2g","pricing_plan_id":"cebpf4jnsgd1na2vs0mg"},{"bike_id":"e064dda5-2681-4248-bd2f-00f8d5c3e5e0","system_id":"levelo_inurba_marseille","lat":43.296131,"lon":5.370773,"is_reserved":false,"is_disabled":false,"rental_uris":{"android":"levelo://app?vid=e064dda5-2681-4248-bd2f-00f8d5c3e5e0","ios":"levelo://app?vid=e064dda5-2681-4248-bd2f-00f8d5c3e5e0"},"vehicle_type_id":"4","last_reported":1714500627,"current_range_meters":16400,"station_id":"ce4bgnh2rcd13ifvqc0g","pricing_plan_id":"cebpf4jnsgd1na2vs0mg"},{"bike_id":"179c9c9e-cdb8-4b8b-b86d-6a666fd03a0e","system_id":"levelo_inurba_marseille","lat":43.296131,"lon":5.370791,"is_reserved":false,"is_disabled":false,"rental_uris":{"android":"levelo://app?vid=179c9c9e-cdb8-4b8b-b86d-6a666fd03a0e","ios":"levelo://app?vid=179c9c9e-cdb8-4b8b-b86d-6a666fd03a0e"},"vehicle_type_id":"4","last_reported":1714500627,"current_range_meters":10000,"station_id":"ce4bgnh2rcd13ifvqc0g","pricing_plan_id":"cebpf4jnsgd1na2vs0mg"},{"bike_id":"82e4fb94-294f-4c2c-bc2a-a3371d755a7f","system_id":"levelo_inurba_marseille","lat":43.299075,"lon":5.381531,"is_reserved":false,"is_disabled":false,"rental_uris":{"android":"levelo://app?vid=82e4fb94-294f-4c2c-bc2a-a3371d755a7f","ios":"levelo://app?vid=82e4fb94-294f-4c2c-bc2a-a3371d755a7f"},"vehicle_type_id":"4","last_reported":1714500627,"current_range_meters":2000,"station_id":"","pricing_plan_id":"cebpf4jnsgd1na2vs0mg"},{"bike_id":"e3cd461e-b583-4708-ad36-d3aa7721e341","system_id":"levelo_inurba_marseille","lat":43.309589,"lon":5.390258,"is_reserved":false,"is_disabled":false,"rental_uris":{"android":"levelo://app?vid=e3cd461e-b583-4708-ad36-d3aa7721e341","ios":"levelo://app?vid=e3cd461e-b583-4708-ad36-d3aa7721e341"},"vehicle_type_id":"4","last_reported":1714500627,"current_range_meters":31200,"station_id":"ce4bgup2rcd13ifvqco0","pricing_plan_id":"cebpf4jnsgd1na2vs0mg"},{"bike_id":"835fd4e3-e901-49d2-9eb5-cc42f550fa9f","system_id":"levelo_inurba_marseille","lat":43.299028,"lon":5.381509,"is_reserved":false,"is_disabled":false,"rental_uris":{"android":"levelo://app?vid=835fd4e3-e901-49d2-9eb5-cc42f550fa9f","ios":"levelo://app?vid=835fd4e3-e901-49d2-9eb5-cc42f550fa9f"},"vehicle_type_id":"4","last_reported":1714500627,"current_range_meters":22000,"station_id":"ce4bgj12rcd13ifvqbc0","pricing_plan_id":"cebpf4jnsgd1na2vs0mg"},{"bike_id":"bf90909b-e308-422b-8799-bab3326ffad1","system_id":"levelo_inurba_marseille","lat":43.309589,"lon":5.390258,"is_reserved":false,"is_disabled":false,"rental_uris":{"android":"levelo://app?vid=bf90909b-e308-422b-8799-bab3326ffad1","ios":"levelo://app?vid=bf90909b-e308-422b-8799-bab3326ffad1"},"vehicle_type_id":"4","last_reported":1714500627,"current_range_meters":17600,"station_id":"ce4bgup2rcd13ifvqco0","pricing_plan_id":"cebpf4jnsgd1na2vs0mg"},{"bike_id":"e91a6fa5-b985-4610-928f-61bbc4a9ce2c","system_id":"levelo_inurba_marseille","lat":43.317587,"lon":5.390126,"is_reserved":false,"is_disabled":false,"rental_uris":{"android":"levelo://app?vid=e91a6fa5-b985-4610-928f-61bbc4a9ce2c","ios":"levelo://app?vid=e91a6fa5-b985-4610-928f-61bbc4a9ce2c"},"vehicle_type_id":"4","last_reported":1714500627,"current_range_meters":24000,"station_id":"ce4bhqp2rcd13ifvqhng","pricing_plan_id":"cebpf4jnsgd1na2vs0mg"},{"bike_id":"e7f7f8c6-3502-40da-b88a-452fc9534ddc","system_id":"levelo_inurba_marseille","lat":43.317608,"lon":5.390124,"is_reserved":false,"is_disabled":false,"rental_uris":{"android":"levelo://app?vid=e7f7f8c6-3502-40da-b88a-452fc9534ddc","ios":"levelo://app?vid=e7f7f8c6-3502-40da-b88a-452fc9534ddc"},"vehicle_type_id":"4","last_reported":1714500627,"current_range_meters":26400,"station_id":"ce4bhqp2rcd13ifvqhng","pricing_plan_id":"cebpf4jnsgd1na2vs0mg"},{"bike_id":"57ca142f-bd81-4bd2-be4e-bd61cd00f86a","system_id":"levelo_inurba_marseille","lat":43.31757,"lon":5.39014,"is_reserved":false,"is_disabled":false,"rental_uris":{"android":"levelo://app?vid=57ca142f-bd81-4bd2-be4e-bd61cd00f86a","ios":"levelo://app?vid=57ca142f-bd81-4bd2-be4e-bd61cd00f86a"},"vehicle_type_id":"4","last_reported":1714500627,"current_range_meters":20000,"station_id":"ce4bhqp2rcd13ifvqhng","pricing_plan_id":"cebpf4jnsgd1na2vs0mg"},{"bike_id":"3e90fa85-c942-47c4-a797-7ff343ed3b41","system_id":"levelo_inurba_marseille","lat":43.317618,"lon":5.390145,"is_reserved":false,"is_disabled":false,"rental_uris":{"android":"levelo://app?vid=3e90fa85-c942-47c4-a797-7ff343ed3b41","ios":"levelo://app?vid=3e90fa85-c942-47c4-a797-7ff343ed3b41"},"vehicle_type_id":"4","last_reported":1714500627,"current_range_meters":30800,"station_id":"ce4bhqp2rcd13ifvqhng","pricing_plan_id":"cebpf4jnsgd1na2vs0mg"},{"bike_id":"37242e48-b0e9-4a6e-b541-d08e7b35f1ed","system_id":"levelo_inurba_marseille","lat":43.31755,"lon":5.39018,"is_reserved":false,"is_disabled":false,"rental_uris":{"android":"levelo://app?vid=37242e48-b0e9-4a6e-b541-d08e7b35f1ed","ios":"levelo://app?vid=37242e48-b0e9-4a6e-b541-d08e7b35f1ed"},"vehicle_type_id":"4","last_reported":1714500627,"current_range_meters":27600,"station_id":"ce4bhqp2rcd13ifvqhng","pricing_plan_id":"cebpf4jnsgd1na2vs0mg"},{"bike_id":"160120ba-f068-445d-b9bd-561cc5fe6e33","system_id":"levelo_inurba_marseille","lat":43.31759,"lon":5.39017,"is_reserved":false,"is_disabled":false,"rental_uris":{"android":"levelo://app?vid=160120ba-f068-445d-b9bd-561cc5fe6e33","ios":"levelo://app?vid=160120ba-f068-445d-b9bd-561cc5fe6e33"},"vehicle_type_id":"4","last_reported":1714500627,"current_range_meters":17200,"station_id":"ce4bhqp2rcd13ifvqhng","pricing_plan_id":"cebpf4jnsgd1na2vs0mg"},{"bike_id":"166a94cb-261a-4f89-98ff-057de9455730","system_id":"levelo_inurba_marseille","lat":43.31757,"lon":5.390185,"is_reserved":false,"is_disabled":false,"rental_uris":{"android":"levelo://app?vid=166a94cb-261a-4f89-98ff-057de9455730","ios":"levelo://app?vid=166a94cb-261a-4f89-98ff-057de9455730"},"vehicle_type_id":"4","last_reported":1714500627,"current_range_meters":21200,"station_id":"ce4bhqp2rcd13ifvqhng","pricing_plan_id":"cebpf4jnsgd1na2vs0mg"},{"bike_id":"7c9a0d23-1e6b-4a12-a9a7-6d97ddb39428","system_id":"levelo_inurba_marseille","lat":43.317651,"lon":5.390163,"is_reserved":false,"is_disabled":false,"rental_uris":{"android":"levelo://app?vid=7c9a0d23-1e6b-4a12-a9a7-6d97ddb39428","ios":"levelo://app?vid=7c9a0d23-1e6b-4a12-a9a7-6d97ddb39428"},"vehicle_type_id":"4","last_reported":1714500627,"current_range_meters":15200,"station_id":"ce4bhqp2rcd13ifvqhng","pricing_plan_id":"cebpf4jnsgd1na2vs0mg"},{"bike_id":"b5271f54-f37d-423a-b48c-8177de38a8f8","system_id":"levelo_inurba_marseille","lat":43.31759,"lon":5.39019,"is_reserved":false,"is_disabled":false,"rental_uris":{"android":"levelo://app?vid=b5271f54-f37d-423a-b48c-8177de38a8f8","ios":"levelo://app?vid=b5271f54-f37d-423a-b48c-8177de38a8f8"},"vehicle_type_id":"4","last_reported":1714500627,"current_range_meters":6000,"station_id":"ce4bhqp2rcd13ifvqhng","pricing_plan_id":"cebpf4jnsgd1na2vs0mg"},{"bike_id":"f55b98f1-7bc2-4efe-92c3-bd68f99aa2b2","system_id":"levelo_inurba_marseille","lat":43.31764,"lon":5.39018,"is_reserved":false,"is_disabled":false,"rental_uris":{"android":"levelo://app?vid=f55b98f1-7bc2-4efe-92c3-bd68f99aa2b2","ios":"levelo://app?vid=f55b98f1-7bc2-4efe-92c3-bd68f99aa2b2"},"vehicle_type_id":"4","last_reported":1714500627,"current_range_meters":20000,"station_id":"ce4bhqp2rcd13ifvqhng","pricing_plan_id":"cebpf4jnsgd1na2vs0mg"},{"bike_id":"88b24db4-632b-4045-a01f-3d312d3ba27d","system_id":"levelo_inurba_marseille","lat":43.317638,"lon":5.390187,"is_reserved":false,"is_disabled":false,"rental_uris":{"android":"levelo://app?vid=88b24db4-632b-4045-a01f-3d312d3ba27d","ios":"levelo://app?vid=88b24db4-632b-4045-a01f-3d312d3ba27d"},"vehicle_type_id":"4","last_reported":1714500627,"current_range_meters":19200,"station_id":"ce4bhqp2rcd13ifvqhng","pricing_plan_id":"cebpf4jnsgd1na2vs0mg"},{"bike_id":"b1addad9-e6b9-42db-aafc-ca3fa67234a4","system_id":"levelo_inurba_marseille","lat":43.3176,"lon":5.39021,"is_reserved":false,"is_disabled":false,"rental_uris":{"android":"levelo://app?vid=b1addad9-e6b9-42db-aafc-ca3fa67234a4","ios":"levelo://app?vid=b1addad9-e6b9-42db-aafc-ca3fa67234a4"},"vehicle_type_id":"4","last_reported":1714500627,"current_range_meters":28400,"station_id":"ce4bhqp2rcd13ifvqhng","pricing_plan_id":"cebpf4jnsgd1na2vs0mg"},{"bike_id":"5698ca47-88df-4f0e-9755-a3ed4d0b90fd","system_id":"levelo_inurba_marseille","lat":43.31755,"lon":5.39023,"is_reserved":false,"is_disabled":false,"rental_uris":{"android":"levelo://app?vid=5698ca47-88df-4f0e-9755-a3ed4d0b90fd","ios":"levelo://app?vid=5698ca47-88df-4f0e-9755-a3ed4d0b90fd"},"vehicle_type_id":"4","last_reported":1714500627,"current_range_meters":0,"station_id":"ce4bhqp2rcd13ifvqhng","pricing_plan_id":"cebpf4jnsgd1na2vs0mg"},{"bike_id":"77efcea7-0dcc-416d-9d14-2ee7b9085bd0","system_id":"levelo_inurba_marseille","lat":43.31759,"lon":5.39023,"is_reserved":false,"is_disabled":false,"rental_uris":{"android":"levelo://app?vid=77efcea7-0dcc-416d-9d14-2ee7b9085bd0","ios":"levelo://app?vid=77efcea7-0dcc-416d-9d14-2ee7b9085bd0"},"vehicle_type_id":"4","last_reported":1714500627,"current_range_meters":0,"station_id":"ce4bhqp2rcd13ifvqhng","pricing_plan_id":"cebpf4jnsgd1na2vs0mg"},{"bike_id":"80b60a5c-e16e-4998-b3db-aec15265f24e","system_id":"levelo_inurba_marseille","lat":43.31761,"lon":5.39023,"is_reserved":false,"is_disabled":false,"rental_uris":{"android":"levelo://app?vid=80b60a5c-e16e-4998-b3db-aec15265f24e","ios":"levelo://app?vid=80b60a5c-e16e-4998-b3db-aec15265f24e"},"vehicle_type_id":"4","last_reported":1714500627,"current_range_meters":5200,"station_id":"ce4bhqp2rcd13ifvqhng","pricing_plan_id":"cebpf4jnsgd1na2vs0mg"},{"bike_id":"9b1f0b76-8d20-47d6-bff5-c2eea49877ab","system_id":"levelo_inurba_marseille","lat":43.31761,"lon":5.39023,"is_reserved":false,"is_disabled":false,"rental_uris":{"android":"levelo://app?vid=9b1f0b76-8d20-47d6-bff5-c2eea49877ab","ios":"levelo://app?vid=9b1f0b76-8d20-47d6-bff5-c2eea49877ab"},"vehicle_type_id":"4","last_reported":1714500627,"current_range_meters":10400,"station_id":"ce4bhqp2rcd13ifvqhng","pricing_plan_id":"cebpf4jnsgd1na2vs0mg"},{"bike_id":"9835d808-20ce-4599-a546-cb85181704ea","system_id":"levelo_inurba_marseille","lat":43.31759,"lon":5.39024,"is_reserved":false,"is_disabled":false,"rental_uris":{"android":"levelo://app?vid=9835d808-20ce-4599-a546-cb85181704ea","ios":"levelo://app?vid=9835d808-20ce-4599-a546-cb85181704ea"},"vehicle_type_id":"4","last_reported":1714500627,"current_range_meters":22000,"station_id":"ce4bhqp2rcd13ifvqhng","pricing_plan_id":"cebpf4jnsgd1na2vs0mg"},{"bike_id":"85cc422c-2575-4754-9304-235321be6f5c","system_id":"levelo_inurba_marseille","lat":43.29691,"lon":5.377997,"is_reserved":false,"is_disabled":false,"rental_uris":{"android":"levelo://app?vid=85cc422c-2575-4754-9304-235321be6f5c","ios":"levelo://app?vid=85cc422c-2575-4754-9304-235321be6f5c"},"vehicle_type_id":"4","last_reported":1714500627,"current_range_meters":22000,"station_id":"","pricing_plan_id":"cebpf4jnsgd1na2vs0mg"},{"bike_id":"65f8c5d5-7da9-41bf-9807-518b9f5127be","system_id":"levelo_inurba_marseille","lat":43.298037,"lon":5.381066,"is_reserved":false,"is_disabled":false,"rental_uris":{"android":"levelo://app?vid=65f8c5d5-7da9-41bf-9807-518b9f5127be","ios":"levelo://app?vid=65f8c5d5-7da9-41bf-9807-518b9f5127be"},"vehicle_type_id":"4","last_reported":1714500627,"current_range_meters":10400,"station_id":"ce4bgip2rcd13ifvqbb0","pricing_plan_id":"cebpf4jnsgd1na2vs0mg"},{"bike_id":"6714a35e-f400-4807-a6cc-c8dc06bd2ba0","system_id":"levelo_inurba_marseille","lat":43.29799,"lon":5.38093,"is_reserved":false,"is_disabled":false,"rental_uris":{"android":"levelo://app?vid=6714a35e-f400-4807-a6cc-c8dc06bd2ba0","ios":"levelo://app?vid=6714a35e-f400-4807-a6cc-c8dc06bd2ba0"},"vehicle_type_id":"4","last_reported":1714500627,"current_range_meters":0,"station_id":"ce4bgip2rcd13ifvqbb0","pricing_plan_id":"cebpf4jnsgd1na2vs0mg"},{"bike_id":"58b0b4e8-9c85-4a5a-903d-a2ef0d6802c8","system_id":"levelo_inurba_marseille","lat":43.298037,"lon":5.381066,"is_reserved":false,"is_disabled":false,"rental_uris":{"android":"levelo://app?vid=58b0b4e8-9c85-4a5a-903d-a2ef0d6802c8","ios":"levelo://app?vid=58b0b4e8-9c85-4a5a-903d-a2ef0d6802c8"},"vehicle_type_id":"4","last_reported":1714500627,"current_range_meters":27600,"station_id":"ce4bgip2rcd13ifvqbb0","pricing_plan_id":"cebpf4jnsgd1na2vs0mg"},{"bike_id":"f51201b6-3226-4f42-a6f2-4db9732dcc30","system_id":"levelo_inurba_marseille","lat":43.29538,"lon":5.373758,"is_reserved":false,"is_disabled":false,"rental_uris":{"android":"levelo://app?vid=f51201b6-3226-4f42-a6f2-4db9732dcc30","ios":"levelo://app?vid=f51201b6-3226-4f42-a6f2-4db9732dcc30"},"vehicle_type_id":"4","last_reported":1714500627,"current_range_meters":14800,"station_id":"","pricing_plan_id":"cebpf4jnsgd1na2vs0mg"},{"bike_id":"d19c5f32-b096-4ad1-a1df-08adf203e11f","system_id":"levelo_inurba_marseille","lat":43.304274,"lon":5.388873,"is_reserved":false,"is_disabled":false,"rental_uris":{"android":"levelo://app?vid=d19c5f32-b096-4ad1-a1df-08adf203e11f","ios":"levelo://app?vid=d19c5f32-b096-4ad1-a1df-08adf203e11f"},"vehicle_type_id":"4","last_reported":1714500627,"current_range_meters":8400,"station_id":"ce4bgk12rcd13ifvqbi0","pricing_plan_id":"cebpf4jnsgd1na2vs0mg"},{"bike_id":"29f86a12-4d59-4ba6-ba87-41ca772aa1c0","system_id":"levelo_inurba_marseille","lat":43.296263,"lon":5.377094,"is_reserved":false,"is_disabled":false,"rental_uris":{"android":"levelo://app?vid=29f86a12-4d59-4ba6-ba87-41ca772aa1c0","ios":"levelo://app?vid=29f86a12-4d59-4ba6-ba87-41ca772aa1c0"},"vehicle_type_id":"4","last_reported":1714500627,"current_range_meters":18400,"station_id":"ce4bgi92rcd13ifvqb90","pricing_plan_id":"cebpf4jnsgd1na2vs0mg"},{"bike_id":"17018318-3ccc-4372-b7a8-d9dcb1ec2a39","system_id":"levelo_inurba_marseille","lat":43.304278,"lon":5.388868,"is_reserved":false,"is_disabled":false,"rental_uris":{"android":"levelo://app?vid=17018318-3ccc-4372-b7a8-d9dcb1ec2a39","ios":"levelo://app?vid=17018318-3ccc-4372-b7a8-d9dcb1ec2a39"},"vehicle_type_id":"4","last_reported":1714500627,"current_range_meters":13200,"station_id":"ce4bgk12rcd13ifvqbi0","pricing_plan_id":"cebpf4jnsgd1na2vs0mg"},{"bike_id":"31775f99-1c94-4d4b-a53a-439a1a109f00","system_id":"levelo_inurba_marseille","lat":43.304274,"lon":5.388873,"is_reserved":false,"is_disabled":false,"rental_uris":{"android":"levelo://app?vid=31775f99-1c94-4d4b-a53a-439a1a109f00","ios":"levelo://app?vid=31775f99-1c94-4d4b-a53a-439a1a109f00"},"vehicle_type_id":"4","last_reported":1714500627,"current_range_meters":9600,"station_id":"ce4bgk12rcd13ifvqbi0","pricing_plan_id":"cebpf4jnsgd1na2vs0mg"},{"bike_id":"5a171be6-0e8c-4760-a8aa-dbcd188de2a7","system_id":"levelo_inurba_marseille","lat":43.296277,"lon":5.377108,"is_reserved":false,"is_disabled":false,"rental_uris":{"android":"levelo://app?vid=5a171be6-0e8c-4760-a8aa-dbcd188de2a7","ios":"levelo://app?vid=5a171be6-0e8c-4760-a8aa-dbcd188de2a7"},"vehicle_type_id":"4","last_reported":1714500627,"current_range_meters":0,"station_id":"ce4bgi92rcd13ifvqb90","pricing_plan_id":"cebpf4jnsgd1na2vs0mg"},{"bike_id":"84391fdf-9586-48e1-9d40-3fe13966e845","system_id":"levelo_inurba_marseille","lat":43.299707,"lon":5.384859,"is_reserved":false,"is_disabled":false,"rental_uris":{"android":"levelo://app?vid=84391fdf-9586-48e1-9d40-3fe13966e845","ios":"levelo://app?vid=84391fdf-9586-48e1-9d40-3fe13966e845"},"vehicle_type_id":"4","last_reported":1714500627,"current_range_meters":21200,"station_id":"ce4bgj92rcd13ifvqbd0","pricing_plan_id":"cebpf4jnsgd1na2vs0mg"},{"bike_id":"02c0abee-0c02-4f14-b230-cecd47282345","system_id":"levelo_inurba_marseille","lat":43.29531,"lon":5.37508,"is_reserved":false,"is_disabled":false,"rental_uris":{"android":"levelo://app?vid=02c0abee-0c02-4f14-b230-cecd47282345","ios":"levelo://app?vid=02c0abee-0c02-4f14-b230-cecd47282345"},"vehicle_type_id":"4","last_reported":1714500627,"current_range_meters":14000,"station_id":"ce4bgkp2rcd13ifvqbmg","pricing_plan_id":"cebpf4jnsgd1na2vs0mg"},{"bike_id":"5ed92a27-8540-4337-a06b-f9b359b6f07c","system_id":"levelo_inurba_marseille","lat":43.299707,"lon":5.384859,"is_reserved":false,"is_disabled":false,"rental_uris":{"android":"levelo://app?vid=5ed92a27-8540-4337-a06b-f9b359b6f07c","ios":"levelo://app?vid=5ed92a27-8540-4337-a06b-f9b359b6f07c"},"vehicle_type_id":"4","last_reported":1714500627,"current_range_meters":8800,"station_id":"ce4bgj92rcd13ifvqbd0","pricing_plan_id":"cebpf4jnsgd1na2vs0mg"},{"bike_id":"cceb7d70-8a0c-4e81-82a3-2c056648fc24","system_id":"levelo_inurba_marseille","lat":43.29523,"lon":5.375,"is_reserved":false,"is_disabled":false,"rental_uris":{"android":"levelo://app?vid=cceb7d70-8a0c-4e81-82a3-2c056648fc24","ios":"levelo://app?vid=cceb7d70-8a0c-4e81-82a3-2c056648fc24"},"vehicle_type_id":"4","last_reported":1714500627,"current_range_meters":31200,"station_id":"ce4bgkp2rcd13ifvqbmg","pricing_plan_id":"cebpf4jnsgd1na2vs0mg"},{"bike_id":"4f5edef1-3ea3-49f6-ae62-2352d6cead9d","system_id":"levelo_inurba_marseille","lat":43.299717,"lon":5.384845,"is_reserved":false,"is_disabled":false,"rental_uris":{"android":"levelo://app?vid=4f5edef1-3ea3-49f6-ae62-2352d6cead9d","ios":"levelo://app?vid=4f5edef1-3ea3-49f6-ae62-2352d6cead9d"},"vehicle_type_id":"4","last_reported":1714500627,"current_range_meters":16400,"station_id":"ce4bgj92rcd13ifvqbd0","pricing_plan_id":"cebpf4jnsgd1na2vs0mg"},{"bike_id":"dc5fff36-537e-44cb-8e08-b4fe11f45f52","system_id":"levelo_inurba_marseille","lat":43.295279,"lon":5.375048,"is_reserved":false,"is_disabled":false,"rental_uris":{"android":"levelo://app?vid=dc5fff36-537e-44cb-8e08-b4fe11f45f52","ios":"levelo://app?vid=dc5fff36-537e-44cb-8e08-b4fe11f45f52"},"vehicle_type_id":"4","last_reported":1714500627,"current_range_meters":23600,"station_id":"ce4bgkp2rcd13ifvqbmg","pricing_plan_id":"cebpf4jnsgd1na2vs0mg"},{"bike_id":"182d15b8-aaf9-4216-b507-aae0b2120a3f","system_id":"levelo_inurba_marseille","lat":43.296013,"lon":5.379847,"is_reserved":false,"is_disabled":false,"rental_uris":{"android":"levelo://app?vid=182d15b8-aaf9-4216-b507-aae0b2120a3f","ios":"levelo://app?vid=182d15b8-aaf9-4216-b507-aae0b2120a3f"},"vehicle_type_id":"4","last_reported":1714500627,"current_range_meters":2400,"station_id":"","pricing_plan_id":"cebpf4jnsgd1na2vs0mg"},{"bike_id":"50ba30a7-4676-4969-b698-80d33bb4cd89","system_id":"levelo_inurba_marseille","lat":43.32365,"lon":5.38874,"is_reserved":false,"is_disabled":false,"rental_uris":{"android":"levelo://app?vid=50ba30a7-4676-4969-b698-80d33bb4cd89","ios":"levelo://app?vid=50ba30a7-4676-4969-b698-80d33bb4cd89"},"vehicle_type_id":"4","last_reported":1714500627,"current_range_meters":2800,"station_id":"ce4bhqp2rcd13ifvqhog","pricing_plan_id":"cebpf4jnsgd1na2vs0mg"},{"bike_id":"bbc37975-d4ed-448d-8d58-822f1b88d585","system_id":"levelo_inurba_marseille","lat":43.32367,"lon":5.388836,"is_reserved":false,"is_disabled":false,"rental_uris":{"android":"levelo://app?vid=bbc37975-d4ed-448d-8d58-822f1b88d585","ios":"levelo://app?vid=bbc37975-d4ed-448d-8d58-822f1b88d585"},"vehicle_type_id":"4","last_reported":1714500627,"current_range_meters":14400,"station_id":"ce4bhqp2rcd13ifvqhog","pricing_plan_id":"cebpf4jnsgd1na2vs0mg"},{"bike_id":"7be34543-7de1-4ccd-80dc-a7d6d72abb72","system_id":"levelo_inurba_marseille","lat":43.32367,"lon":5.388836,"is_reserved":false,"is_disabled":false,"rental_uris":{"android":"levelo://app?vid=7be34543-7de1-4ccd-80dc-a7d6d72abb72","ios":"levelo://app?vid=7be34543-7de1-4ccd-80dc-a7d6d72abb72"},"vehicle_type_id":"4","last_reported":1714500627,"current_range_meters":13200,"station_id":"ce4bhqp2rcd13ifvqhog","pricing_plan_id":"cebpf4jnsgd1na2vs0mg"},{"bike_id":"04782376-003f-4bcc-9d52-9ceb01e106e6","system_id":"levelo_inurba_marseille","lat":43.32367,"lon":5.388836,"is_reserved":false,"is_disabled":false,"rental_uris":{"android":"levelo://app?vid=04782376-003f-4bcc-9d52-9ceb01e106e6","ios":"levelo://app?vid=04782376-003f-4bcc-9d52-9ceb01e106e6"},"vehicle_type_id":"4","last_reported":1714500627,"current_range_meters":7200,"station_id":"ce4bhqp2rcd13ifvqhog","pricing_plan_id":"cebpf4jnsgd1na2vs0mg"},{"bike_id":"cddcf61d-f9d2-4e6b-b035-445ffaa965e1","system_id":"levelo_inurba_marseille","lat":43.32367,"lon":5.388836,"is_reserved":false,"is_disabled":false,"rental_uris":{"android":"levelo://app?vid=cddcf61d-f9d2-4e6b-b035-445ffaa965e1","ios":"levelo://app?vid=cddcf61d-f9d2-4e6b-b035-445ffaa965e1"},"vehicle_type_id":"4","last_reported":1714500627,"current_range_meters":4800,"station_id":"ce4bhqp2rcd13ifvqhog","pricing_plan_id":"cebpf4jnsgd1na2vs0mg"},{"bike_id":"2527e999-45d3-4877-8cce-1ac48ad483ad","system_id":"levelo_inurba_marseille","lat":43.32367,"lon":5.388836,"is_reserved":false,"is_disabled":false,"rental_uris":{"android":"levelo://app?vid=2527e999-45d3-4877-8cce-1ac48ad483ad","ios":"levelo://app?vid=2527e999-45d3-4877-8cce-1ac48ad483ad"},"vehicle_type_id":"4","last_reported":1714500627,"current_range_meters":2400,"station_id":"ce4bhqp2rcd13ifvqhog","pricing_plan_id":"cebpf4jnsgd1na2vs0mg"},{"bike_id":"9f34e799-06ce-45c9-be38-62c08a79e3d6","system_id":"levelo_inurba_marseille","lat":43.32367,"lon":5.388836,"is_reserved":false,"is_disabled":false,"rental_uris":{"android":"levelo://app?vid=9f34e799-06ce-45c9-be38-62c08a79e3d6","ios":"levelo://app?vid=9f34e799-06ce-45c9-be38-62c08a79e3d6"},"vehicle_type_id":"4","last_reported":1714500627,"current_range_meters":20000,"station_id":"ce4bhqp2rcd13ifvqhog","pricing_plan_id":"cebpf4jnsgd1na2vs0mg"},{"bike_id":"b4ca9327-927a-4234-8265-711e2b4bfdb2","system_id":"levelo_inurba_marseille","lat":43.32367,"lon":5.388836,"is_reserved":false,"is_disabled":false,"rental_uris":{"android":"levelo://app?vid=b4ca9327-927a-4234-8265-711e2b4bfdb2","ios":"levelo://app?vid=b4ca9327-927a-4234-8265-711e2b4bfdb2"},"vehicle_type_id":"4","last_reported":1714500627,"current_range_meters":25200,"station_id":"ce4bhqp2rcd13ifvqhog","pricing_plan_id":"cebpf4jnsgd1na2vs0mg"},{"bike_id":"7f58ecd5-3f67-4ca2-855b-bbcb759f0fb2","system_id":"levelo_inurba_marseille","lat":43.29602,"lon":5.381084,"is_reserved":false,"is_disabled":false,"rental_uris":{"android":"levelo://app?vid=7f58ecd5-3f67-4ca2-855b-bbcb759f0fb2","ios":"levelo://app?vid=7f58ecd5-3f67-4ca2-855b-bbcb759f0fb2"},"vehicle_type_id":"4","last_reported":1714500627,"current_range_meters":8800,"station_id":"ce4bgl12rcd13ifvqbo0","pricing_plan_id":"cebpf4jnsgd1na2vs0mg"},{"bike_id":"fcfc6f8a-007c-46ce-8132-174f3dfbe482","system_id":"levelo_inurba_marseille","lat":43.29602,"lon":5.381084,"is_reserved":false,"is_disabled":false,"rental_uris":{"android":"levelo://app?vid=fcfc6f8a-007c-46ce-8132-174f3dfbe482","ios":"levelo://app?vid=fcfc6f8a-007c-46ce-8132-174f3dfbe482"},"vehicle_type_id":"4","last_reported":1714500627,"current_range_meters":4400,"station_id":"ce4bgl12rcd13ifvqbo0","pricing_plan_id":"cebpf4jnsgd1na2vs0mg"},{"bike_id":"0a40743e-9a5c-47ee-8df9-e882b4ecb7e1","system_id":"levelo_inurba_marseille","lat":43.296015,"lon":5.381057,"is_reserved":false,"is_disabled":false,"rental_uris":{"android":"levelo://app?vid=0a40743e-9a5c-47ee-8df9-e882b4ecb7e1","ios":"levelo://app?vid=0a40743e-9a5c-47ee-8df9-e882b4ecb7e1"},"vehicle_type_id":"4","last_reported":1714500627,"current_range_meters":4000,"station_id":"ce4bgl12rcd13ifvqbo0","pricing_plan_id":"cebpf4jnsgd1na2vs0mg"},{"bike_id":"ab87eb0e-583d-46dd-9370-b2c0ecc40812","system_id":"levelo_inurba_marseille","lat":43.292749,"lon":5.368402,"is_reserved":false,"is_disabled":false,"rental_uris":{"android":"levelo://app?vid=ab87eb0e-583d-46dd-9370-b2c0ecc40812","ios":"levelo://app?vid=ab87eb0e-583d-46dd-9370-b2c0ecc40812"},"vehicle_type_id":"4","last_reported":1714500627,"current_range_meters":0,"station_id":"ce4bhbp2rcd13ifvqesg","pricing_plan_id":"cebpf4jnsgd1na2vs0mg"},{"bike_id":"7f57339b-ab2c-4378-a736-d5cb1e70219e","system_id":"levelo_inurba_marseille","lat":43.293259,"lon":5.371586,"is_reserved":false,"is_disabled":false,"rental_uris":{"android":"levelo://app?vid=7f57339b-ab2c-4378-a736-d5cb1e70219e","ios":"levelo://app?vid=7f57339b-ab2c-4378-a736-d5cb1e70219e"},"vehicle_type_id":"4","last_reported":1714500627,"current_range_meters":10000,"station_id":"ce4bgh92rcd13ifvqb40","pricing_plan_id":"cebpf4jnsgd1na2vs0mg"},{"bike_id":"cd2bfd83-ba17-49e8-a48c-8f43fa014828","system_id":"levelo_inurba_marseille","lat":43.29311,"lon":5.37183,"is_reserved":false,"is_disabled":false,"rental_uris":{"android":"levelo://app?vid=cd2bfd83-ba17-49e8-a48c-8f43fa014828","ios":"levelo://app?vid=cd2bfd83-ba17-49e8-a48c-8f43fa014828"},"vehicle_type_id":"4","last_reported":1714500627,"current_range_meters":30800,"station_id":"ce4bgh92rcd13ifvqb40","pricing_plan_id":"cebpf4jnsgd1na2vs0mg"},{"bike_id":"af261592-f9f6-47ae-8d79-f421e2eae72e","system_id":"levelo_inurba_marseille","lat":43.292749,"lon":5.368402,"is_reserved":false,"is_disabled":false,"rental_uris":{"android":"levelo://app?vid=af261592-f9f6-47ae-8d79-f421e2eae72e","ios":"levelo://app?vid=af261592-f9f6-47ae-8d79-f421e2eae72e"},"vehicle_type_id":"4","last_reported":1714500627,"current_range_meters":7200,"station_id":"ce4bhbp2rcd13ifvqesg","pricing_plan_id":"cebpf4jnsgd1na2vs0mg"},{"bike_id":"2cdea9fc-6e70-4bdb-a7d4-a2af6499c4b3","system_id":"levelo_inurba_marseille","lat":43.292793,"lon":5.368383,"is_reserved":false,"is_disabled":false,"rental_uris":{"android":"levelo://app?vid=2cdea9fc-6e70-4bdb-a7d4-a2af6499c4b3","ios":"levelo://app?vid=2cdea9fc-6e70-4bdb-a7d4-a2af6499c4b3"},"vehicle_type_id":"4","last_reported":1714500627,"current_range_meters":0,"station_id":"ce4bhbp2rcd13ifvqesg","pricing_plan_id":"cebpf4jnsgd1na2vs0mg"},{"bike_id":"e646c88b-921d-4bc8-a106-6e438b3247c1","system_id":"levelo_inurba_marseille","lat":43.29309,"lon":5.37186,"is_reserved":false,"is_disabled":false,"rental_uris":{"android":"levelo://app?vid=e646c88b-921d-4bc8-a106-6e438b3247c1","ios":"levelo://app?vid=e646c88b-921d-4bc8-a106-6e438b3247c1"},"vehicle_type_id":"4","last_reported":1714500627,"current_range_meters":0,"station_id":"ce4bgh92rcd13ifvqb40","pricing_plan_id":"cebpf4jnsgd1na2vs0mg"},{"bike_id":"034feeb7-1ec3-490f-9bc3-db1ce4326e4a","system_id":"levelo_inurba_marseille","lat":43.293259,"lon":5.371586,"is_reserved":false,"is_disabled":false,"rental_uris":{"android":"levelo://app?vid=034feeb7-1ec3-490f-9bc3-db1ce4326e4a","ios":"levelo://app?vid=034feeb7-1ec3-490f-9bc3-db1ce4326e4a"},"vehicle_type_id":"4","last_reported":1714500627,"current_range_meters":28400,"station_id":"ce4bgh92rcd13ifvqb40","pricing_plan_id":"cebpf4jnsgd1na2vs0mg"},{"bike_id":"bbfcb9a3-f1a5-43be-9fd5-59e6ec6399da","system_id":"levelo_inurba_marseille","lat":43.293259,"lon":5.371586,"is_reserved":false,"is_disabled":false,"rental_uris":{"android":"levelo://app?vid=bbfcb9a3-f1a5-43be-9fd5-59e6ec6399da","ios":"levelo://app?vid=bbfcb9a3-f1a5-43be-9fd5-59e6ec6399da"},"vehicle_type_id":"4","last_reported":1714500627,"current_range_meters":0,"station_id":"ce4bgh92rcd13ifvqb40","pricing_plan_id":"cebpf4jnsgd1na2vs0mg"},{"bike_id":"78b51b29-8223-4787-9870-a41c6fbc3d81","system_id":"levelo_inurba_marseille","lat":43.29272,"lon":5.3685,"is_reserved":false,"is_disabled":false,"rental_uris":{"android":"levelo://app?vid=78b51b29-8223-4787-9870-a41c6fbc3d81","ios":"levelo://app?vid=78b51b29-8223-4787-9870-a41c6fbc3d81"},"vehicle_type_id":"4","last_reported":1714500627,"current_range_meters":5600,"station_id":"ce4bhbp2rcd13ifvqesg","pricing_plan_id":"cebpf4jnsgd1na2vs0mg"},{"bike_id":"09f7cb5d-9edd-47d2-a04e-f1b90dc48fc4","system_id":"levelo_inurba_marseille","lat":43.292749,"lon":5.368402,"is_reserved":false,"is_disabled":false,"rental_uris":{"android":"levelo://app?vid=09f7cb5d-9edd-47d2-a04e-f1b90dc48fc4","ios":"levelo://app?vid=09f7cb5d-9edd-47d2-a04e-f1b90dc48fc4"},"vehicle_type_id":"4","last_reported":1714500627,"current_range_meters":20800,"station_id":"ce4bhbp2rcd13ifvqesg","pricing_plan_id":"cebpf4jnsgd1na2vs0mg"},{"bike_id":"afa98e61-688f-441e-9070-81ac7d21aabe","system_id":"levelo_inurba_marseille","lat":43.293144,"lon":5.37456,"is_reserved":false,"is_disabled":false,"rental_uris":{"android":"levelo://app?vid=afa98e61-688f-441e-9070-81ac7d21aabe","ios":"levelo://app?vid=afa98e61-688f-441e-9070-81ac7d21aabe"},"vehicle_type_id":"4","last_reported":1714500627,"current_range_meters":0,"station_id":"ce4bgi12rcd13ifvqb70","pricing_plan_id":"cebpf4jnsgd1na2vs0mg"},{"bike_id":"2bd060a4-ac95-481a-9d6b-7982da013f9f","system_id":"levelo_inurba_marseille","lat":43.293009,"lon":5.374584,"is_reserved":false,"is_disabled":false,"rental_uris":{"android":"levelo://app?vid=2bd060a4-ac95-481a-9d6b-7982da013f9f","ios":"levelo://app?vid=2bd060a4-ac95-481a-9d6b-7982da013f9f"},"vehicle_type_id":"4","last_reported":1714500627,"current_range_meters":800,"station_id":"ce4bgi12rcd13ifvqb70","pricing_plan_id":"cebpf4jnsgd1na2vs0mg"},{"bike_id":"ba9a2c73-c961-41cc-8f48-1991a98d5e64","system_id":"levelo_inurba_marseille","lat":43.293009,"lon":5.374584,"is_reserved":false,"is_disabled":false,"rental_uris":{"android":"levelo://app?vid=ba9a2c73-c961-41cc-8f48-1991a98d5e64","ios":"levelo://app?vid=ba9a2c73-c961-41cc-8f48-1991a98d5e64"},"vehicle_type_id":"4","last_reported":1714500627,"current_range_meters":800,"station_id":"ce4bgi12rcd13ifvqb70","pricing_plan_id":"cebpf4jnsgd1na2vs0mg"},{"bike_id":"81e3f2fb-b7bc-48e2-8fb7-fd807115f2a4","system_id":"levelo_inurba_marseille","lat":43.293009,"lon":5.374584,"is_reserved":false,"is_disabled":false,"rental_uris":{"android":"levelo://app?vid=81e3f2fb-b7bc-48e2-8fb7-fd807115f2a4","ios":"levelo://app?vid=81e3f2fb-b7bc-48e2-8fb7-fd807115f2a4"},"vehicle_type_id":"4","last_reported":1714500627,"current_range_meters":6400,"station_id":"ce4bgi12rcd13ifvqb70","pricing_plan_id":"cebpf4jnsgd1na2vs0mg"},{"bike_id":"8458ec4e-4af8-44c7-a66a-11f6ea64930c","system_id":"levelo_inurba_marseille","lat":43.293009,"lon":5.374584,"is_reserved":false,"is_disabled":false,"rental_uris":{"android":"levelo://app?vid=8458ec4e-4af8-44c7-a66a-11f6ea64930c","ios":"levelo://app?vid=8458ec4e-4af8-44c7-a66a-11f6ea64930c"},"vehicle_type_id":"4","last_reported":1714500627,"current_range_meters":18000,"station_id":"ce4bgi12rcd13ifvqb70","pricing_plan_id":"cebpf4jnsgd1na2vs0mg"},{"bike_id":"8daff62d-f196-410e-a76b-607ff8898bd9","system_id":"levelo_inurba_marseille","lat":43.293009,"lon":5.374584,"is_reserved":false,"is_disabled":false,"rental_uris":{"android":"levelo://app?vid=8daff62d-f196-410e-a76b-607ff8898bd9","ios":"levelo://app?vid=8daff62d-f196-410e-a76b-607ff8898bd9"},"vehicle_type_id":"4","last_reported":1714500627,"current_range_meters":25200,"station_id":"ce4bgi12rcd13ifvqb70","pricing_plan_id":"cebpf4jnsgd1na2vs0mg"},{"bike_id":"8f22eda8-9010-4f2e-9ad5-08b74c9ab924","system_id":"levelo_inurba_marseille","lat":43.231794,"lon":5.400052,"is_reserved":false,"is_disabled":false,"rental_uris":{"android":"levelo://app?vid=8f22eda8-9010-4f2e-9ad5-08b74c9ab924","ios":"levelo://app?vid=8f22eda8-9010-4f2e-9ad5-08b74c9ab924"},"vehicle_type_id":"4","last_reported":1714500627,"current_range_meters":14800,"station_id":"ce4bhn12rcd13ifvqgqg","pricing_plan_id":"cebpf4jnsgd1na2vs0mg"},{"bike_id":"9dfae3dc-c847-4e76-804d-35cee83b4d5a","system_id":"levelo_inurba_marseille","lat":43.30604,"lon":5.39353,"is_reserved":false,"is_disabled":false,"rental_uris":{"android":"levelo://app?vid=9dfae3dc-c847-4e76-804d-35cee83b4d5a","ios":"levelo://app?vid=9dfae3dc-c847-4e76-804d-35cee83b4d5a"},"vehicle_type_id":"4","last_reported":1714500627,"current_range_meters":0,"station_id":"ce4bh0p2rcd13ifvqd80","pricing_plan_id":"cebpf4jnsgd1na2vs0mg"},{"bike_id":"1786b2c1-7cb1-422b-8464-cadcc68e5a4b","system_id":"levelo_inurba_marseille","lat":43.305994,"lon":5.393687,"is_reserved":false,"is_disabled":false,"rental_uris":{"android":"levelo://app?vid=1786b2c1-7cb1-422b-8464-cadcc68e5a4b","ios":"levelo://app?vid=1786b2c1-7cb1-422b-8464-cadcc68e5a4b"},"vehicle_type_id":"4","last_reported":1714500627,"current_range_meters":1200,"station_id":"ce4bh0p2rcd13ifvqd80","pricing_plan_id":"cebpf4jnsgd1na2vs0mg"},{"bike_id":"6da23a77-40f7-46d8-800c-bc288bd6b9c5","system_id":"levelo_inurba_marseille","lat":43.293009,"lon":5.374584,"is_reserved":false,"is_disabled":false,"rental_uris":{"android":"levelo://app?vid=6da23a77-40f7-46d8-800c-bc288bd6b9c5","ios":"levelo://app?vid=6da23a77-40f7-46d8-800c-bc288bd6b9c5"},"vehicle_type_id":"4","last_reported":1714500627,"current_range_meters":23600,"station_id":"ce4bgi12rcd13ifvqb70","pricing_plan_id":"cebpf4jnsgd1na2vs0mg"},{"bike_id":"8eb8f42c-a47a-4edf-a0cc-d3bb208fb946","system_id":"levelo_inurba_marseille","lat":43.30592,"lon":5.39351,"is_reserved":false,"is_disabled":false,"rental_uris":{"android":"levelo://app?vid=8eb8f42c-a47a-4edf-a0cc-d3bb208fb946","ios":"levelo://app?vid=8eb8f42c-a47a-4edf-a0cc-d3bb208fb946"},"vehicle_type_id":"4","last_reported":1714500627,"current_range_meters":0,"station_id":"ce4bh0p2rcd13ifvqd80","pricing_plan_id":"cebpf4jnsgd1na2vs0mg"},{"bike_id":"9802824a-4457-4b00-9270-c65048ec1c53","system_id":"levelo_inurba_marseille","lat":43.293009,"lon":5.374584,"is_reserved":false,"is_disabled":false,"rental_uris":{"android":"levelo://app?vid=9802824a-4457-4b00-9270-c65048ec1c53","ios":"levelo://app?vid=9802824a-4457-4b00-9270-c65048ec1c53"},"vehicle_type_id":"4","last_reported":1714500627,"current_range_meters":16800,"station_id":"ce4bgi12rcd13ifvqb70","pricing_plan_id":"cebpf4jnsgd1na2vs0mg"},{"bike_id":"1ad78e50-9ac4-4c58-b398-b5bdbdcf44e8","system_id":"levelo_inurba_marseille","lat":43.305994,"lon":5.393687,"is_reserved":false,"is_disabled":false,"rental_uris":{"android":"levelo://app?vid=1ad78e50-9ac4-4c58-b398-b5bdbdcf44e8","ios":"levelo://app?vid=1ad78e50-9ac4-4c58-b398-b5bdbdcf44e8"},"vehicle_type_id":"4","last_reported":1714500627,"current_range_meters":13600,"station_id":"ce4bh0p2rcd13ifvqd80","pricing_plan_id":"cebpf4jnsgd1na2vs0mg"},{"bike_id":"ac9460de-1154-423d-90a8-c9dbc6c6ab26","system_id":"levelo_inurba_marseille","lat":43.298037,"lon":5.381066,"is_reserved":false,"is_disabled":false,"rental_uris":{"android":"levelo://app?vid=ac9460de-1154-423d-90a8-c9dbc6c6ab26","ios":"levelo://app?vid=ac9460de-1154-423d-90a8-c9dbc6c6ab26"},"vehicle_type_id":"4","last_reported":1714500627,"current_range_meters":0,"station_id":"ce4bgip2rcd13ifvqbb0","pricing_plan_id":"cebpf4jnsgd1na2vs0mg"},{"bike_id":"d7ad7dcf-00c6-4efb-8739-66df43a6edfe","system_id":"levelo_inurba_marseille","lat":43.293009,"lon":5.374584,"is_reserved":false,"is_disabled":false,"rental_uris":{"android":"levelo://app?vid=d7ad7dcf-00c6-4efb-8739-66df43a6edfe","ios":"levelo://app?vid=d7ad7dcf-00c6-4efb-8739-66df43a6edfe"},"vehicle_type_id":"4","last_reported":1714500627,"current_range_meters":8400,"station_id":"ce4bgi12rcd13ifvqb70","pricing_plan_id":"cebpf4jnsgd1na2vs0mg"},{"bike_id":"c3fae6bb-3d4c-4653-9917-2abc821d203c","system_id":"levelo_inurba_marseille","lat":43.298764,"lon":5.388973,"is_reserved":false,"is_disabled":false,"rental_uris":{"android":"levelo://app?vid=c3fae6bb-3d4c-4653-9917-2abc821d203c","ios":"levelo://app?vid=c3fae6bb-3d4c-4653-9917-2abc821d203c"},"vehicle_type_id":"4","last_reported":1714500627,"current_range_meters":9200,"station_id":"ce4bh392rcd13ifvqdl0","pricing_plan_id":"cebpf4jnsgd1na2vs0mg"},{"bike_id":"e82eab76-2d43-4585-ae80-c3d09977ac3b","system_id":"levelo_inurba_marseille","lat":43.303002,"lon":5.392142,"is_reserved":false,"is_disabled":false,"rental_uris":{"android":"levelo://app?vid=e82eab76-2d43-4585-ae80-c3d09977ac3b","ios":"levelo://app?vid=e82eab76-2d43-4585-ae80-c3d09977ac3b"},"vehicle_type_id":"4","last_reported":1714500627,"current_range_meters":6400,"station_id":"ce4bgkh2rcd13ifvqbk0","pricing_plan_id":"cebpf4jnsgd1na2vs0mg"},{"bike_id":"df716cb4-3cef-4bcb-8d3d-022dceb2ebe4","system_id":"levelo_inurba_marseille","lat":43.29222,"lon":5.36316,"is_reserved":false,"is_disabled":false,"rental_uris":{"android":"levelo://app?vid=df716cb4-3cef-4bcb-8d3d-022dceb2ebe4","ios":"levelo://app?vid=df716cb4-3cef-4bcb-8d3d-022dceb2ebe4"},"vehicle_type_id":"4","last_reported":1714500627,"current_range_meters":22800,"station_id":"","pricing_plan_id":"cebpf4jnsgd1na2vs0mg"},{"bike_id":"08137601-dfac-4797-b957-86ef73639f09","system_id":"levelo_inurba_marseille","lat":43.303002,"lon":5.392142,"is_reserved":false,"is_disabled":false,"rental_uris":{"android":"levelo://app?vid=08137601-dfac-4797-b957-86ef73639f09","ios":"levelo://app?vid=08137601-dfac-4797-b957-86ef73639f09"},"vehicle_type_id":"4","last_reported":1714500627,"current_range_meters":22000,"station_id":"ce4bgkh2rcd13ifvqbk0","pricing_plan_id":"cebpf4jnsgd1na2vs0mg"},{"bike_id":"c6849ef2-aa2d-4d87-8fe9-715cd9b41f3e","system_id":"levelo_inurba_marseille","lat":43.302992,"lon":5.392136,"is_reserved":false,"is_disabled":false,"rental_uris":{"android":"levelo://app?vid=c6849ef2-aa2d-4d87-8fe9-715cd9b41f3e","ios":"levelo://app?vid=c6849ef2-aa2d-4d87-8fe9-715cd9b41f3e"},"vehicle_type_id":"4","last_reported":1714500627,"current_range_meters":25600,"station_id":"ce4bgkh2rcd13ifvqbk0","pricing_plan_id":"cebpf4jnsgd1na2vs0mg"},{"bike_id":"47c2cf37-5c09-4f64-ae2b-5493fe457c4a","system_id":"levelo_inurba_marseille","lat":43.2936,"lon":5.37835,"is_reserved":false,"is_disabled":false,"rental_uris":{"android":"levelo://app?vid=47c2cf37-5c09-4f64-ae2b-5493fe457c4a","ios":"levelo://app?vid=47c2cf37-5c09-4f64-ae2b-5493fe457c4a"},"vehicle_type_id":"4","last_reported":1714500627,"current_range_meters":20000,"station_id":"ce4bgjh2rcd13ifvqbf0","pricing_plan_id":"cebpf4jnsgd1na2vs0mg"},{"bike_id":"9717d947-2324-4780-9755-a57b4a24145a","system_id":"levelo_inurba_marseille","lat":43.300852,"lon":5.390859,"is_reserved":false,"is_disabled":false,"rental_uris":{"android":"levelo://app?vid=9717d947-2324-4780-9755-a57b4a24145a","ios":"levelo://app?vid=9717d947-2324-4780-9755-a57b4a24145a"},"vehicle_type_id":"4","last_reported":1714500627,"current_range_meters":16800,"station_id":"ce4bh192rcd13ifvqdb0","pricing_plan_id":"cebpf4jnsgd1na2vs0mg"},{"bike_id":"4c68d71f-beb1-46ca-a349-ad9909dbe891","system_id":"levelo_inurba_marseille","lat":43.303002,"lon":5.392142,"is_reserved":false,"is_disabled":false,"rental_uris":{"android":"levelo://app?vid=4c68d71f-beb1-46ca-a349-ad9909dbe891","ios":"levelo://app?vid=4c68d71f-beb1-46ca-a349-ad9909dbe891"},"vehicle_type_id":"4","last_reported":1714500627,"current_range_meters":15600,"station_id":"ce4bgkh2rcd13ifvqbk0","pricing_plan_id":"cebpf4jnsgd1na2vs0mg"},{"bike_id":"35679f65-77ec-417a-b859-f1ac89bd6176","system_id":"levelo_inurba_marseille","lat":43.292292,"lon":5.361119,"is_reserved":false,"is_disabled":false,"rental_uris":{"android":"levelo://app?vid=35679f65-77ec-417a-b859-f1ac89bd6176","ios":"levelo://app?vid=35679f65-77ec-417a-b859-f1ac89bd6176"},"vehicle_type_id":"4","last_reported":1714500627,"current_range_meters":0,"station_id":"ce4bhbh2rcd13ifvqeqg","pricing_plan_id":"cebpf4jnsgd1na2vs0mg"},{"bike_id":"a0c48744-0bbd-4ec8-8e33-f564b4dcef6d","system_id":"levelo_inurba_marseille","lat":43.292311,"lon":5.360731,"is_reserved":false,"is_disabled":false,"rental_uris":{"android":"levelo://app?vid=a0c48744-0bbd-4ec8-8e33-f564b4dcef6d","ios":"levelo://app?vid=a0c48744-0bbd-4ec8-8e33-f564b4dcef6d"},"vehicle_type_id":"4","last_reported":1714500627,"current_range_meters":11600,"station_id":"ce4bhbh2rcd13ifvqeqg","pricing_plan_id":"cebpf4jnsgd1na2vs0mg"},{"bike_id":"4ffd6e24-55a8-4946-8bcf-76a1d9e7d90e","system_id":"levelo_inurba_marseille","lat":43.305203,"lon":5.393708,"is_reserved":false,"is_disabled":false,"rental_uris":{"android":"levelo://app?vid=4ffd6e24-55a8-4946-8bcf-76a1d9e7d90e","ios":"levelo://app?vid=4ffd6e24-55a8-4946-8bcf-76a1d9e7d90e"},"vehicle_type_id":"4","last_reported":1714500627,"current_range_meters":1600,"station_id":"","pricing_plan_id":"cebpf4jnsgd1na2vs0mg"},{"bike_id":"c5fffcb9-528e-4403-9e1a-154b45e3ec2e","system_id":"levelo_inurba_marseille","lat":43.292311,"lon":5.360731,"is_reserved":false,"is_disabled":false,"rental_uris":{"android":"levelo://app?vid=c5fffcb9-528e-4403-9e1a-154b45e3ec2e","ios":"levelo://app?vid=c5fffcb9-528e-4403-9e1a-154b45e3ec2e"},"vehicle_type_id":"4","last_reported":1714500627,"current_range_meters":28400,"station_id":"ce4bhbh2rcd13ifvqeqg","pricing_plan_id":"cebpf4jnsgd1na2vs0mg"},{"bike_id":"591ecfd8-aba8-4068-bf3c-1e908c4cd833","system_id":"levelo_inurba_marseille","lat":43.300852,"lon":5.390859,"is_reserved":false,"is_disabled":false,"rental_uris":{"android":"levelo://app?vid=591ecfd8-aba8-4068-bf3c-1e908c4cd833","ios":"levelo://app?vid=591ecfd8-aba8-4068-bf3c-1e908c4cd833"},"vehicle_type_id":"4","last_reported":1714500627,"current_range_meters":24400,"station_id":"ce4bh192rcd13ifvqdb0","pricing_plan_id":"cebpf4jnsgd1na2vs0mg"},{"bike_id":"81f9d0e1-9400-42ff-b6d5-f9ec011962eb","system_id":"levelo_inurba_marseille","lat":43.292311,"lon":5.360731,"is_reserved":false,"is_disabled":false,"rental_uris":{"android":"levelo://app?vid=81f9d0e1-9400-42ff-b6d5-f9ec011962eb","ios":"levelo://app?vid=81f9d0e1-9400-42ff-b6d5-f9ec011962eb"},"vehicle_type_id":"4","last_reported":1714500627,"current_range_meters":15600,"station_id":"ce4bhbh2rcd13ifvqeqg","pricing_plan_id":"cebpf4jnsgd1na2vs0mg"},{"bike_id":"4395d866-1897-42ce-8413-9fe0a3b543e5","system_id":"levelo_inurba_marseille","lat":43.292311,"lon":5.360731,"is_reserved":false,"is_disabled":false,"rental_uris":{"android":"levelo://app?vid=4395d866-1897-42ce-8413-9fe0a3b543e5","ios":"levelo://app?vid=4395d866-1897-42ce-8413-9fe0a3b543e5"},"vehicle_type_id":"4","last_reported":1714500627,"current_range_meters":12000,"station_id":"ce4bhbh2rcd13ifvqeqg","pricing_plan_id":"cebpf4jnsgd1na2vs0mg"},{"bike_id":"91557eb4-6148-4251-9108-a7261ac23b72","system_id":"levelo_inurba_marseille","lat":43.30085,"lon":5.390856,"is_reserved":false,"is_disabled":false,"rental_uris":{"android":"levelo://app?vid=91557eb4-6148-4251-9108-a7261ac23b72","ios":"levelo://app?vid=91557eb4-6148-4251-9108-a7261ac23b72"},"vehicle_type_id":"4","last_reported":1714500627,"current_range_meters":0,"station_id":"ce4bh192rcd13ifvqdb0","pricing_plan_id":"cebpf4jnsgd1na2vs0mg"},{"bike_id":"023d154b-fe4d-4fdc-863d-2a143e297a44","system_id":"levelo_inurba_marseille","lat":43.292311,"lon":5.360731,"is_reserved":false,"is_disabled":false,"rental_uris":{"android":"levelo://app?vid=023d154b-fe4d-4fdc-863d-2a143e297a44","ios":"levelo://app?vid=023d154b-fe4d-4fdc-863d-2a143e297a44"},"vehicle_type_id":"4","last_reported":1714500627,"current_range_meters":28800,"station_id":"ce4bhbh2rcd13ifvqeqg","pricing_plan_id":"cebpf4jnsgd1na2vs0mg"},{"bike_id":"ee03a076-92ee-4fc3-abbf-c910352671c6","system_id":"levelo_inurba_marseille","lat":43.292311,"lon":5.360731,"is_reserved":false,"is_disabled":false,"rental_uris":{"android":"levelo://app?vid=ee03a076-92ee-4fc3-abbf-c910352671c6","ios":"levelo://app?vid=ee03a076-92ee-4fc3-abbf-c910352671c6"},"vehicle_type_id":"4","last_reported":1714500627,"current_range_meters":5600,"station_id":"ce4bhbh2rcd13ifvqeqg","pricing_plan_id":"cebpf4jnsgd1na2vs0mg"},{"bike_id":"076b0328-e22f-4844-a795-2b88fd239178","system_id":"levelo_inurba_marseille","lat":43.292311,"lon":5.360731,"is_reserved":false,"is_disabled":false,"rental_uris":{"android":"levelo://app?vid=076b0328-e22f-4844-a795-2b88fd239178","ios":"levelo://app?vid=076b0328-e22f-4844-a795-2b88fd239178"},"vehicle_type_id":"4","last_reported":1714500627,"current_range_meters":19200,"station_id":"ce4bhbh2rcd13ifvqeqg","pricing_plan_id":"cebpf4jnsgd1na2vs0mg"},{"bike_id":"d8f1f7d0-cbe7-4705-ad7a-f44ef0177b57","system_id":"levelo_inurba_marseille","lat":43.292311,"lon":5.360731,"is_reserved":false,"is_disabled":false,"rental_uris":{"android":"levelo://app?vid=d8f1f7d0-cbe7-4705-ad7a-f44ef0177b57","ios":"levelo://app?vid=d8f1f7d0-cbe7-4705-ad7a-f44ef0177b57"},"vehicle_type_id":"4","last_reported":1714500627,"current_range_meters":16400,"station_id":"ce4bhbh2rcd13ifvqeqg","pricing_plan_id":"cebpf4jnsgd1na2vs0mg"},{"bike_id":"2dcc530c-422d-4014-bfe6-cf7ace39717f","system_id":"levelo_inurba_marseille","lat":43.292311,"lon":5.360731,"is_reserved":false,"is_disabled":false,"rental_uris":{"android":"levelo://app?vid=2dcc530c-422d-4014-bfe6-cf7ace39717f","ios":"levelo://app?vid=2dcc530c-422d-4014-bfe6-cf7ace39717f"},"vehicle_type_id":"4","last_reported":1714500627,"current_range_meters":24000,"station_id":"ce4bhbh2rcd13ifvqeqg","pricing_plan_id":"cebpf4jnsgd1na2vs0mg"},{"bike_id":"ffa04b84-27da-4828-b4b3-596b72f025f6","system_id":"levelo_inurba_marseille","lat":43.303002,"lon":5.392142,"is_reserved":false,"is_disabled":false,"rental_uris":{"android":"levelo://app?vid=ffa04b84-27da-4828-b4b3-596b72f025f6","ios":"levelo://app?vid=ffa04b84-27da-4828-b4b3-596b72f025f6"},"vehicle_type_id":"4","last_reported":1714500627,"current_range_meters":16800,"station_id":"ce4bgkh2rcd13ifvqbk0","pricing_plan_id":"cebpf4jnsgd1na2vs0mg"},{"bike_id":"1ec972a7-2b15-4f19-b31c-ad0b73ec44f3","system_id":"levelo_inurba_marseille","lat":43.292311,"lon":5.360731,"is_reserved":false,"is_disabled":false,"rental_uris":{"android":"levelo://app?vid=1ec972a7-2b15-4f19-b31c-ad0b73ec44f3","ios":"levelo://app?vid=1ec972a7-2b15-4f19-b31c-ad0b73ec44f3"},"vehicle_type_id":"4","last_reported":1714500627,"current_range_meters":30400,"station_id":"ce4bhbh2rcd13ifvqeqg","pricing_plan_id":"cebpf4jnsgd1na2vs0mg"},{"bike_id":"1c76af88-e031-4147-89b1-fea74dac94c5","system_id":"levelo_inurba_marseille","lat":43.303002,"lon":5.392142,"is_reserved":false,"is_disabled":false,"rental_uris":{"android":"levelo://app?vid=1c76af88-e031-4147-89b1-fea74dac94c5","ios":"levelo://app?vid=1c76af88-e031-4147-89b1-fea74dac94c5"},"vehicle_type_id":"4","last_reported":1714500627,"current_range_meters":18400,"station_id":"ce4bgkh2rcd13ifvqbk0","pricing_plan_id":"cebpf4jnsgd1na2vs0mg"},{"bike_id":"2611d235-7faf-4150-aff5-678fb8b7625d","system_id":"levelo_inurba_marseille","lat":43.300852,"lon":5.390859,"is_reserved":false,"is_disabled":false,"rental_uris":{"android":"levelo://app?vid=2611d235-7faf-4150-aff5-678fb8b7625d","ios":"levelo://app?vid=2611d235-7faf-4150-aff5-678fb8b7625d"},"vehicle_type_id":"4","last_reported":1714500627,"current_range_meters":13600,"station_id":"ce4bh192rcd13ifvqdb0","pricing_plan_id":"cebpf4jnsgd1na2vs0mg"},{"bike_id":"e8db8fcc-13ae-4884-9aaf-740a8d560aec","system_id":"levelo_inurba_marseille","lat":43.292311,"lon":5.360731,"is_reserved":false,"is_disabled":false,"rental_uris":{"android":"levelo://app?vid=e8db8fcc-13ae-4884-9aaf-740a8d560aec","ios":"levelo://app?vid=e8db8fcc-13ae-4884-9aaf-740a8d560aec"},"vehicle_type_id":"4","last_reported":1714500627,"current_range_meters":2000,"station_id":"ce4bhbh2rcd13ifvqeqg","pricing_plan_id":"cebpf4jnsgd1na2vs0mg"},{"bike_id":"2daabb35-8d04-4244-ae89-23ed247b71cf","system_id":"levelo_inurba_marseille","lat":43.292311,"lon":5.360731,"is_reserved":false,"is_disabled":false,"rental_uris":{"android":"levelo://app?vid=2daabb35-8d04-4244-ae89-23ed247b71cf","ios":"levelo://app?vid=2daabb35-8d04-4244-ae89-23ed247b71cf"},"vehicle_type_id":"4","last_reported":1714500627,"current_range_meters":0,"station_id":"ce4bhbh2rcd13ifvqeqg","pricing_plan_id":"cebpf4jnsgd1na2vs0mg"},{"bike_id":"d4f9f030-b3af-4d9a-b73d-618062483218","system_id":"levelo_inurba_marseille","lat":43.292311,"lon":5.360731,"is_reserved":false,"is_disabled":false,"rental_uris":{"android":"levelo://app?vid=d4f9f030-b3af-4d9a-b73d-618062483218","ios":"levelo://app?vid=d4f9f030-b3af-4d9a-b73d-618062483218"},"vehicle_type_id":"4","last_reported":1714500627,"current_range_meters":14800,"station_id":"ce4bhbh2rcd13ifvqeqg","pricing_plan_id":"cebpf4jnsgd1na2vs0mg"},{"bike_id":"8ef6f427-041a-4826-98fb-9a681ac71946","system_id":"levelo_inurba_marseille","lat":43.292311,"lon":5.360731,"is_reserved":false,"is_disabled":false,"rental_uris":{"android":"levelo://app?vid=8ef6f427-041a-4826-98fb-9a681ac71946","ios":"levelo://app?vid=8ef6f427-041a-4826-98fb-9a681ac71946"},"vehicle_type_id":"4","last_reported":1714500627,"current_range_meters":1200,"station_id":"ce4bhbh2rcd13ifvqeqg","pricing_plan_id":"cebpf4jnsgd1na2vs0mg"},{"bike_id":"08ef8e4f-34b7-4fdc-ba93-f6b9e4cd4904","system_id":"levelo_inurba_marseille","lat":43.292311,"lon":5.360731,"is_reserved":false,"is_disabled":false,"rental_uris":{"android":"levelo://app?vid=08ef8e4f-34b7-4fdc-ba93-f6b9e4cd4904","ios":"levelo://app?vid=08ef8e4f-34b7-4fdc-ba93-f6b9e4cd4904"},"vehicle_type_id":"4","last_reported":1714500627,"current_range_meters":10800,"station_id":"ce4bhbh2rcd13ifvqeqg","pricing_plan_id":"cebpf4jnsgd1na2vs0mg"},{"bike_id":"b6f4012e-2bc2-41f2-ae78-e07add9ba437","system_id":"levelo_inurba_marseille","lat":43.292311,"lon":5.360731,"is_reserved":false,"is_disabled":false,"rental_uris":{"android":"levelo://app?vid=b6f4012e-2bc2-41f2-ae78-e07add9ba437","ios":"levelo://app?vid=b6f4012e-2bc2-41f2-ae78-e07add9ba437"},"vehicle_type_id":"4","last_reported":1714500627,"current_range_meters":9200,"station_id":"ce4bhbh2rcd13ifvqeqg","pricing_plan_id":"cebpf4jnsgd1na2vs0mg"},{"bike_id":"c9fb7da0-ce14-49d4-9f68-9278b0d83054","system_id":"levelo_inurba_marseille","lat":43.292311,"lon":5.360731,"is_reserved":false,"is_disabled":false,"rental_uris":{"android":"levelo://app?vid=c9fb7da0-ce14-49d4-9f68-9278b0d83054","ios":"levelo://app?vid=c9fb7da0-ce14-49d4-9f68-9278b0d83054"},"vehicle_type_id":"4","last_reported":1714500627,"current_range_meters":0,"station_id":"ce4bhbh2rcd13ifvqeqg","pricing_plan_id":"cebpf4jnsgd1na2vs0mg"},{"bike_id":"17efa64e-8fef-4241-b3ed-92a561feb02c","system_id":"levelo_inurba_marseille","lat":43.292311,"lon":5.360731,"is_reserved":false,"is_disabled":false,"rental_uris":{"android":"levelo://app?vid=17efa64e-8fef-4241-b3ed-92a561feb02c","ios":"levelo://app?vid=17efa64e-8fef-4241-b3ed-92a561feb02c"},"vehicle_type_id":"4","last_reported":1714500627,"current_range_meters":12800,"station_id":"ce4bhbh2rcd13ifvqeqg","pricing_plan_id":"cebpf4jnsgd1na2vs0mg"},{"bike_id":"7112fb97-402e-46d1-ab75-113e88d3eac1","system_id":"levelo_inurba_marseille","lat":43.292311,"lon":5.360731,"is_reserved":false,"is_disabled":false,"rental_uris":{"android":"levelo://app?vid=7112fb97-402e-46d1-ab75-113e88d3eac1","ios":"levelo://app?vid=7112fb97-402e-46d1-ab75-113e88d3eac1"},"vehicle_type_id":"4","last_reported":1714500627,"current_range_meters":23200,"station_id":"ce4bhbh2rcd13ifvqeqg","pricing_plan_id":"cebpf4jnsgd1na2vs0mg"},{"bike_id":"e01711c5-ada2-40ea-b805-2bd175610af4","system_id":"levelo_inurba_marseille","lat":43.30085,"lon":5.390856,"is_reserved":false,"is_disabled":false,"rental_uris":{"android":"levelo://app?vid=e01711c5-ada2-40ea-b805-2bd175610af4","ios":"levelo://app?vid=e01711c5-ada2-40ea-b805-2bd175610af4"},"vehicle_type_id":"4","last_reported":1714500627,"current_range_meters":10000,"station_id":"ce4bh192rcd13ifvqdb0","pricing_plan_id":"cebpf4jnsgd1na2vs0mg"},{"bike_id":"ec5c67b3-7aa2-46ec-b1d7-c64141593381","system_id":"levelo_inurba_marseille","lat":43.29888,"lon":5.38921,"is_reserved":false,"is_disabled":false,"rental_uris":{"android":"levelo://app?vid=ec5c67b3-7aa2-46ec-b1d7-c64141593381","ios":"levelo://app?vid=ec5c67b3-7aa2-46ec-b1d7-c64141593381"},"vehicle_type_id":"4","last_reported":1714500627,"current_range_meters":3200,"station_id":"ce4bh392rcd13ifvqdl0","pricing_plan_id":"cebpf4jnsgd1na2vs0mg"},{"bike_id":"5c5efff7-2d49-4787-b8c6-1cde5d61d274","system_id":"levelo_inurba_marseille","lat":43.298797,"lon":5.389124,"is_reserved":false,"is_disabled":false,"rental_uris":{"android":"levelo://app?vid=5c5efff7-2d49-4787-b8c6-1cde5d61d274","ios":"levelo://app?vid=5c5efff7-2d49-4787-b8c6-1cde5d61d274"},"vehicle_type_id":"4","last_reported":1714500627,"current_range_meters":0,"station_id":"ce4bh392rcd13ifvqdl0","pricing_plan_id":"cebpf4jnsgd1na2vs0mg"},{"bike_id":"73398a0a-bfb7-48ba-bd70-11b98e252b20","system_id":"levelo_inurba_marseille","lat":43.291675,"lon":5.371583,"is_reserved":false,"is_disabled":false,"rental_uris":{"android":"levelo://app?vid=73398a0a-bfb7-48ba-bd70-11b98e252b20","ios":"levelo://app?vid=73398a0a-bfb7-48ba-bd70-11b98e252b20"},"vehicle_type_id":"4","last_reported":1714500627,"current_range_meters":6000,"station_id":"ce4bha92rcd13ifvqeh0","pricing_plan_id":"cebpf4jnsgd1na2vs0mg"},{"bike_id":"c0a3d64f-4f81-4fcb-b8f4-e842cf1430be","system_id":"levelo_inurba_marseille","lat":43.291675,"lon":5.371583,"is_reserved":false,"is_disabled":false,"rental_uris":{"android":"levelo://app?vid=c0a3d64f-4f81-4fcb-b8f4-e842cf1430be","ios":"levelo://app?vid=c0a3d64f-4f81-4fcb-b8f4-e842cf1430be"},"vehicle_type_id":"4","last_reported":1714500627,"current_range_meters":2000,"station_id":"ce4bha92rcd13ifvqeh0","pricing_plan_id":"cebpf4jnsgd1na2vs0mg"},{"bike_id":"86453155-aae0-470e-ac39-a14f3e15427a","system_id":"levelo_inurba_marseille","lat":43.31252,"lon":5.396652,"is_reserved":false,"is_disabled":false,"rental_uris":{"android":"levelo://app?vid=86453155-aae0-470e-ac39-a14f3e15427a","ios":"levelo://app?vid=86453155-aae0-470e-ac39-a14f3e15427a"},"vehicle_type_id":"4","last_reported":1714500627,"current_range_meters":0,"station_id":"ce4bgvp2rcd13ifvqcu0","pricing_plan_id":"cebpf4jnsgd1na2vs0mg"},{"bike_id":"ce5f634f-6c4e-4b96-8adf-74a1e42dec5c","system_id":"levelo_inurba_marseille","lat":43.291994,"lon":5.357886,"is_reserved":false,"is_disabled":false,"rental_uris":{"android":"levelo://app?vid=ce5f634f-6c4e-4b96-8adf-74a1e42dec5c","ios":"levelo://app?vid=ce5f634f-6c4e-4b96-8adf-74a1e42dec5c"},"vehicle_type_id":"4","last_reported":1714500627,"current_range_meters":13200,"station_id":"ce4bhb12rcd13ifvqel0","pricing_plan_id":"cebpf4jnsgd1na2vs0mg"},{"bike_id":"86b7c826-8cac-4e5a-b6b2-59ca90dd7e2b","system_id":"levelo_inurba_marseille","lat":43.291994,"lon":5.357886,"is_reserved":false,"is_disabled":false,"rental_uris":{"android":"levelo://app?vid=86b7c826-8cac-4e5a-b6b2-59ca90dd7e2b","ios":"levelo://app?vid=86b7c826-8cac-4e5a-b6b2-59ca90dd7e2b"},"vehicle_type_id":"4","last_reported":1714500627,"current_range_meters":20400,"station_id":"ce4bhb12rcd13ifvqel0","pricing_plan_id":"cebpf4jnsgd1na2vs0mg"},{"bike_id":"139c538f-a83a-4ed1-a97e-f309cb24b0c8","system_id":"levelo_inurba_marseille","lat":43.291994,"lon":5.357886,"is_reserved":false,"is_disabled":false,"rental_uris":{"android":"levelo://app?vid=139c538f-a83a-4ed1-a97e-f309cb24b0c8","ios":"levelo://app?vid=139c538f-a83a-4ed1-a97e-f309cb24b0c8"},"vehicle_type_id":"4","last_reported":1714500627,"current_range_meters":27200,"station_id":"ce4bhb12rcd13ifvqel0","pricing_plan_id":"cebpf4jnsgd1na2vs0mg"},{"bike_id":"33c49cd9-a873-4fa9-baa6-d791bf87abac","system_id":"levelo_inurba_marseille","lat":43.291994,"lon":5.357886,"is_reserved":false,"is_disabled":false,"rental_uris":{"android":"levelo://app?vid=33c49cd9-a873-4fa9-baa6-d791bf87abac","ios":"levelo://app?vid=33c49cd9-a873-4fa9-baa6-d791bf87abac"},"vehicle_type_id":"4","last_reported":1714500627,"current_range_meters":14000,"station_id":"ce4bhb12rcd13ifvqel0","pricing_plan_id":"cebpf4jnsgd1na2vs0mg"},{"bike_id":"b4e29805-7902-4911-bcac-af67ca1ddb9a","system_id":"levelo_inurba_marseille","lat":43.31329,"lon":5.39687,"is_reserved":false,"is_disabled":false,"rental_uris":{"android":"levelo://app?vid=b4e29805-7902-4911-bcac-af67ca1ddb9a","ios":"levelo://app?vid=b4e29805-7902-4911-bcac-af67ca1ddb9a"},"vehicle_type_id":"4","last_reported":1714500627,"current_range_meters":26400,"station_id":"ce4bgvp2rcd13ifvqcu0","pricing_plan_id":"cebpf4jnsgd1na2vs0mg"},{"bike_id":"611df8c9-6ed1-45ec-bbe2-214faf738afb","system_id":"levelo_inurba_marseille","lat":43.31337,"lon":5.39689,"is_reserved":false,"is_disabled":false,"rental_uris":{"android":"levelo://app?vid=611df8c9-6ed1-45ec-bbe2-214faf738afb","ios":"levelo://app?vid=611df8c9-6ed1-45ec-bbe2-214faf738afb"},"vehicle_type_id":"4","last_reported":1714500627,"current_range_meters":10400,"station_id":"ce4bgvp2rcd13ifvqcu0","pricing_plan_id":"cebpf4jnsgd1na2vs0mg"},{"bike_id":"327432dd-4f95-49c3-b23e-dcfec707efb6","system_id":"levelo_inurba_marseille","lat":43.291994,"lon":5.357886,"is_reserved":false,"is_disabled":false,"rental_uris":{"android":"levelo://app?vid=327432dd-4f95-49c3-b23e-dcfec707efb6","ios":"levelo://app?vid=327432dd-4f95-49c3-b23e-dcfec707efb6"},"vehicle_type_id":"4","last_reported":1714500627,"current_range_meters":11200,"station_id":"ce4bhb12rcd13ifvqel0","pricing_plan_id":"cebpf4jnsgd1na2vs0mg"},{"bike_id":"e27c6b69-dd14-494b-9dd1-86ea64283078","system_id":"levelo_inurba_marseille","lat":43.313325,"lon":5.39694,"is_reserved":false,"is_disabled":false,"rental_uris":{"android":"levelo://app?vid=e27c6b69-dd14-494b-9dd1-86ea64283078","ios":"levelo://app?vid=e27c6b69-dd14-494b-9dd1-86ea64283078"},"vehicle_type_id":"4","last_reported":1714500627,"current_range_meters":29600,"station_id":"ce4bgvp2rcd13ifvqcu0","pricing_plan_id":"cebpf4jnsgd1na2vs0mg"},{"bike_id":"75f114e0-a8b7-48af-af28-35559cc2e646","system_id":"levelo_inurba_marseille","lat":43.31326,"lon":5.39695,"is_reserved":false,"is_disabled":false,"rental_uris":{"android":"levelo://app?vid=75f114e0-a8b7-48af-af28-35559cc2e646","ios":"levelo://app?vid=75f114e0-a8b7-48af-af28-35559cc2e646"},"vehicle_type_id":"4","last_reported":1714500627,"current_range_meters":800,"station_id":"ce4bgvp2rcd13ifvqcu0","pricing_plan_id":"cebpf4jnsgd1na2vs0mg"},{"bike_id":"bdc55f44-53ab-4553-9b6b-cabe2ca89ab5","system_id":"levelo_inurba_marseille","lat":43.291994,"lon":5.357886,"is_reserved":false,"is_disabled":false,"rental_uris":{"android":"levelo://app?vid=bdc55f44-53ab-4553-9b6b-cabe2ca89ab5","ios":"levelo://app?vid=bdc55f44-53ab-4553-9b6b-cabe2ca89ab5"},"vehicle_type_id":"4","last_reported":1714500627,"current_range_meters":7200,"station_id":"ce4bhb12rcd13ifvqel0","pricing_plan_id":"cebpf4jnsgd1na2vs0mg"},{"bike_id":"9d6f32af-5a39-4704-8373-377a3f8097f9","system_id":"levelo_inurba_marseille","lat":43.31334,"lon":5.39696,"is_reserved":false,"is_disabled":false,"rental_uris":{"android":"levelo://app?vid=9d6f32af-5a39-4704-8373-377a3f8097f9","ios":"levelo://app?vid=9d6f32af-5a39-4704-8373-377a3f8097f9"},"vehicle_type_id":"4","last_reported":1714500627,"current_range_meters":9600,"station_id":"ce4bgvp2rcd13ifvqcu0","pricing_plan_id":"cebpf4jnsgd1na2vs0mg"},{"bike_id":"fb0a30bb-c0b6-4c34-a68f-059f412ec8cc","system_id":"levelo_inurba_marseille","lat":43.313313,"lon":5.396966,"is_reserved":false,"is_disabled":false,"rental_uris":{"android":"levelo://app?vid=fb0a30bb-c0b6-4c34-a68f-059f412ec8cc","ios":"levelo://app?vid=fb0a30bb-c0b6-4c34-a68f-059f412ec8cc"},"vehicle_type_id":"4","last_reported":1714500627,"current_range_meters":6800,"station_id":"ce4bgvp2rcd13ifvqcu0","pricing_plan_id":"cebpf4jnsgd1na2vs0mg"},{"bike_id":"7b86aec5-5b09-4911-af7f-8d93bfe914d3","system_id":"levelo_inurba_marseille","lat":43.313291,"lon":5.396838,"is_reserved":false,"is_disabled":false,"rental_uris":{"android":"levelo://app?vid=7b86aec5-5b09-4911-af7f-8d93bfe914d3","ios":"levelo://app?vid=7b86aec5-5b09-4911-af7f-8d93bfe914d3"},"vehicle_type_id":"4","last_reported":1714500627,"current_range_meters":13600,"station_id":"ce4bgvp2rcd13ifvqcu0","pricing_plan_id":"cebpf4jnsgd1na2vs0mg"},{"bike_id":"7ea34245-364a-4a5f-87f8-fbb061548b50","system_id":"levelo_inurba_marseille","lat":43.313301,"lon":5.396988,"is_reserved":false,"is_disabled":false,"rental_uris":{"android":"levelo://app?vid=7ea34245-364a-4a5f-87f8-fbb061548b50","ios":"levelo://app?vid=7ea34245-364a-4a5f-87f8-fbb061548b50"},"vehicle_type_id":"4","last_reported":1714500627,"current_range_meters":6000,"station_id":"ce4bgvp2rcd13ifvqcu0","pricing_plan_id":"cebpf4jnsgd1na2vs0mg"},{"bike_id":"80bf169c-ccfa-4c24-b395-15c776f6337a","system_id":"levelo_inurba_marseille","lat":43.313291,"lon":5.396838,"is_reserved":false,"is_disabled":false,"rental_uris":{"android":"levelo://app?vid=80bf169c-ccfa-4c24-b395-15c776f6337a","ios":"levelo://app?vid=80bf169c-ccfa-4c24-b395-15c776f6337a"},"vehicle_type_id":"4","last_reported":1714500627,"current_range_meters":30400,"station_id":"ce4bgvp2rcd13ifvqcu0","pricing_plan_id":"cebpf4jnsgd1na2vs0mg"},{"bike_id":"d13110ea-e5b2-406c-a3dc-e234cc413431","system_id":"levelo_inurba_marseille","lat":43.31326,"lon":5.39702,"is_reserved":false,"is_disabled":false,"rental_uris":{"android":"levelo://app?vid=d13110ea-e5b2-406c-a3dc-e234cc413431","ios":"levelo://app?vid=d13110ea-e5b2-406c-a3dc-e234cc413431"},"vehicle_type_id":"4","last_reported":1714500627,"current_range_meters":16800,"station_id":"ce4bgvp2rcd13ifvqcu0","pricing_plan_id":"cebpf4jnsgd1na2vs0mg"},{"bike_id":"e049464c-4c10-4d4d-bf8f-ea2ddd41576c","system_id":"levelo_inurba_marseille","lat":43.309038,"lon":5.396546,"is_reserved":false,"is_disabled":false,"rental_uris":{"android":"levelo://app?vid=e049464c-4c10-4d4d-bf8f-ea2ddd41576c","ios":"levelo://app?vid=e049464c-4c10-4d4d-bf8f-ea2ddd41576c"},"vehicle_type_id":"4","last_reported":1714500627,"current_range_meters":19600,"station_id":"ce4bh012rcd13ifvqcv0","pricing_plan_id":"cebpf4jnsgd1na2vs0mg"},{"bike_id":"454561ee-2789-484d-9b43-ba259a876a1f","system_id":"levelo_inurba_marseille","lat":43.29529,"lon":5.385581,"is_reserved":false,"is_disabled":false,"rental_uris":{"android":"levelo://app?vid=454561ee-2789-484d-9b43-ba259a876a1f","ios":"levelo://app?vid=454561ee-2789-484d-9b43-ba259a876a1f"},"vehicle_type_id":"4","last_reported":1714500627,"current_range_meters":10400,"station_id":"ce4bgih2rcd13ifvqba0","pricing_plan_id":"cebpf4jnsgd1na2vs0mg"},{"bike_id":"d51e2d9a-71ff-4e35-9189-cc5c15101735","system_id":"levelo_inurba_marseille","lat":43.29537,"lon":5.38537,"is_reserved":false,"is_disabled":false,"rental_uris":{"android":"levelo://app?vid=d51e2d9a-71ff-4e35-9189-cc5c15101735","ios":"levelo://app?vid=d51e2d9a-71ff-4e35-9189-cc5c15101735"},"vehicle_type_id":"4","last_reported":1714500627,"current_range_meters":14800,"station_id":"ce4bgih2rcd13ifvqba0","pricing_plan_id":"cebpf4jnsgd1na2vs0mg"},