{"last_updated":1687792087,"ttl":30,"version":"2.2","data":{"bikes":[{"bike_id":"60451734-cf75-4c49-b17b-fafcdc101c68","system_id":"levelo_inurba_marseille","lat":43.313391,"lon":5.36706,"is_reserved":false,"is_disabled":false,"rental_uris":{"android":"levelo://app?vid=60451734-cf75-4c49-b17b-fafcdc101c68","ios":"levelo://app?vid=60451734-cf75-4c49-b17b-fafcdc101c68"},"vehicle_type_id":"4","last_reported":1687792088,"current_range_meters":31200,"station_id":"ce4bgr92rcd13ifvqc6g","pricing_plan_id":"free"},{"bike_id":"1273bd3f-bb66-40dd-8cc5-20025c65f3c6","system_id":"levelo_inurba_marseille","lat":43.313391,"lon":5.36706,"is_reserved":false,"is_disabled":false,"rental_uris":{"android":"levelo://app?vid=1273bd3f-bb66-40dd-8cc5-20025c65f3c6","ios":"levelo://app?vid=1273bd3f-bb66-40dd-8cc5-20025c65f3c6"},"vehicle_type_id":"4","last_reported":1687792088,"current_range_meters":31200,"station_id":"ce4bgr92rcd13ifvqc6g","pricing_plan_id":"free"},{"bike_id":"71190183-e827-4270-b62e-a7ddf23f3f9b","system_id":"levelo_inurba_marseille","lat":43.31357,"lon":5.36692,"is_reserved":false,"is_disabled":false,"rental_uris":{"android":"levelo://app?vid=71190183-e827-4270-b62e-a7ddf23f3f9b","ios":"levelo://app?vid=71190183-e827-4270-b62e-a7ddf23f3f9b"},"vehicle_type_id":"4","last_reported":1687792088,"current_range_meters":22000,"station_id":"ce4bgr92rcd13ifvqc6g","pricing_plan_id":"free"},{"bike_id":"72e64a1c-3413-4b72-8875-1aee1eb6e349","system_id":"levelo_inurba_marseille","lat":43.313391,"lon":5.36706,"is_reserved":false,"is_disabled":false,"rental_uris":{"android":"levelo://app?vid=72e64a1c-3413-4b72-8875-1aee1eb6e349","ios":"levelo://app?vid=72e64a1c-3413-4b72-8875-1aee1eb6e349"},"vehicle_type_id":"4","last_reported":1687792088,"current_range_meters":30800,"station_id":"ce4bgr92rcd13ifvqc6g","pricing_plan_id":"free"},{"bike_id":"695aa43b-9c7a-4e28-a82b-a680f2826efb","system_id":"levelo_inurba_marseille","lat":43.313391,"lon":5.36706,"is_reserved":false,"is_disabled":false,"rental_uris":{"android":"levelo://app?vid=695aa43b-9c7a-4e28-a82b-a680f2826efb","ios":"levelo://app?vid=695aa43b-9c7a-4e28-a82b-a680f2826efb"},"vehicle_type_id":"4","last_reported":1687792088,"current_range_meters":31200,"station_id":"ce4bgr92rcd13ifvqc6g","pricing_plan_id":"free"},{"bike_id":"a5a1c4fc-d102-4681-861b-39299658d1c7","system_id":"levelo_inurba_marseille","lat":43.313391,"lon":5.36706,"is_reserved":false,"is_disabled":false,"rental_uris":{"android":"levelo://app?vid=a5a1c4fc-d102-4681-861b-39299658d1c7","ios":"levelo://app?vid=a5a1c4fc-d102-4681-861b-39299658d1c7"},"vehicle_type_id":"4","last_reported":1687792088,"current_range_meters":28800,"station_id":"ce4bgr92rcd13ifvqc6g","pricing_plan_id":"free"},{"bike_id":"02e32325-daa7-4403-8cdd-f18c49c9ec25","system_id":"levelo_inurba_marseille","lat":43.3136,"lon":5.36698,"is_reserved":false,"is_disabled":false,"rental_uris":{"android":"levelo://app?vid=02e32325-daa7-4403-8cdd-f18c49c9ec25","ios":"levelo://app?vid=02e32325-daa7-4403-8cdd-f18c49c9ec25"},"vehicle_type_id":"4","last_reported":1687792088,"current_range_meters":12000,"station_id":"","pricing_plan_id":"free"},{"bike_id":"b27552ae-bfc3-49ee-90f1-85c916a4632d","system_id":"levelo_inurba_marseille","lat":43.31365,"lon":5.36711,"is_reserved":false,"is_disabled":false,"rental_uris":{"android":"levelo://app?vid=b27552ae-bfc3-49ee-90f1-85c916a4632d","ios":"levelo://app?vid=b27552ae-bfc3-49ee-90f1-85c916a4632d"},"vehicle_type_id":"4","last_reported":1687792088,"current_range_meters":23600,"station_id":"","pricing_plan_id":"free"},{"bike_id":"55317375-495d-4b4e-9f5e-e9297ef87e5b","system_id":"levelo_inurba_marseille","lat":43.31368,"lon":5.36683,"is_reserved":false,"is_disabled":false,"rental_uris":{"android":"levelo://app?vid=55317375-495d-4b4e-9f5e-e9297ef87e5b","ios":"levelo://app?vid=55317375-495d-4b4e-9f5e-e9297ef87e5b"},"vehicle_type_id":"4","last_reported":1687792088,"current_range_meters":1600,"station_id":"","pricing_plan_id":"free"},{"bike_id":"0bcfe379-1efa-4d8e-8cb1-a0940c2394a5","system_id":"levelo_inurba_marseille","lat":43.313391,"lon":5.36706,"is_reserved":false,"is_disabled":false,"rental_uris":{"android":"levelo://app?vid=0bcfe379-1efa-4d8e-8cb1-a0940c2394a5","ios":"levelo://app?vid=0bcfe379-1efa-4d8e-8cb1-a0940c2394a5"},"vehicle_type_id":"4","last_reported":1687792088,"current_range_meters":31200,"station_id":"ce4bgr92rcd13ifvqc6g","pricing_plan_id":"free"},{"bike_id":"945c1a5d-a6af-4b45-8fe4-83049c828d02","system_id":"levelo_inurba_marseille","lat":43.312239,"lon":5.368562,"is_reserved":false,"is_disabled":false,"rental_uris":{"android":"levelo://app?vid=945c1a5d-a6af-4b45-8fe4-83049c828d02","ios":"levelo://app?vid=945c1a5d-a6af-4b45-8fe4-83049c828d02"},"vehicle_type_id":"4","last_reported":1687792088,"current_range_meters":21600,"station_id":"ce4bgl92rcd13ifvqbq0","pricing_plan_id":"free"},{"bike_id":"4f25f4d8-ecef-4783-92a3-896b21519866","system_id":"levelo_inurba_marseille","lat":43.312239,"lon":5.368562,"is_reserved":false,"is_disabled":false,"rental_uris":{"android":"levelo://app?vid=4f25f4d8-ecef-4783-92a3-896b21519866","ios":"levelo://app?vid=4f25f4d8-ecef-4783-92a3-896b21519866"},"vehicle_type_id":"4","last_reported":1687792088,"current_range_meters":23200,"station_id":"ce4bgl92rcd13ifvqbq0","pricing_plan_id":"free"},{"bike_id":"d09a65a5-09b8-4dfe-b7be-c235b97a64ab","system_id":"levelo_inurba_marseille","lat":43.312239,"lon":5.368562,"is_reserved":false,"is_disabled":false,"rental_uris":{"android":"levelo://app?vid=d09a65a5-09b8-4dfe-b7be-c235b97a64ab","ios":"levelo://app?vid=d09a65a5-09b8-4dfe-b7be-c235b97a64ab"},"vehicle_type_id":"4","last_reported":1687792088,"current_range_meters":30400,"station_id":"ce4bgl92rcd13ifvqbq0","pricing_plan_id":"free"},{"bike_id":"48f7a98e-53f5-43ad-ab71-5df701b1cf18","system_id":"levelo_inurba_marseille","lat":43.312085,"lon":5.368535,"is_reserved":false,"is_disabled":false,"rental_uris":{"android":"levelo://app?vid=48f7a98e-53f5-43ad-ab71-5df701b1cf18","ios":"levelo://app?vid=48f7a98e-53f5-43ad-ab71-5df701b1cf18"},"vehicle_type_id":"4","last_reported":1687792088,"current_range_meters":23200,"station_id":"","pricing_plan_id":"free"},{"bike_id":"778df9f1-15fc-4273-92c3-7035fcdb3ead","system_id":"levelo_inurba_marseille","lat":43.312239,"lon":5.368562,"is_reserved":false,"is_disabled":false,"rental_uris":{"android":"levelo://app?vid=778df9f1-15fc-4273-92c3-7035fcdb3ead","ios":"levelo://app?vid=778df9f1-15fc-4273-92c3-7035fcdb3ead"},"vehicle_type_id":"4","last_reported":1687792088,"current_range_meters":29200,"station_id":"ce4bgl92rcd13ifvqbq0","pricing_plan_id":"free"},{"bike_id":"79386fbd-bd73-42a9-8003-f73553924301","system_id":"levelo_inurba_marseille","lat":43.312239,"lon":5.368562,"is_reserved":false,"is_disabled":false,"rental_uris":{"android":"levelo://app?vid=79386fbd-bd73-42a9-8003-f73553924301","ios":"levelo://app?vid=79386fbd-bd73-42a9-8003-f73553924301"},"vehicle_type_id":"4","last_reported":1687792088,"current_range_meters":23200,"station_id":"ce4bgl92rcd13ifvqbq0","pricing_plan_id":"free"},{"bike_id":"2f16b3c8-8229-4e5d-aa4a-d29103a5f4d7","system_id":"levelo_inurba_marseille","lat":43.312239,"lon":5.368562,"is_reserved":false,"is_disabled":false,"rental_uris":{"android":"levelo://app?vid=2f16b3c8-8229-4e5d-aa4a-d29103a5f4d7","ios":"levelo://app?vid=2f16b3c8-8229-4e5d-aa4a-d29103a5f4d7"},"vehicle_type_id":"4","last_reported":1687792088,"current_range_meters":8800,"station_id":"ce4bgl92rcd13ifvqbq0","pricing_plan_id":"free"},{"bike_id":"9c720ce7-7d9b-4fc4-b8f7-c1b9d1c4420b","system_id":"levelo_inurba_marseille","lat":43.312239,"lon":5.368562,"is_reserved":false,"is_disabled":false,"rental_uris":{"android":"levelo://app?vid=9c720ce7-7d9b-4fc4-b8f7-c1b9d1c4420b","ios":"levelo://app?vid=9c720ce7-7d9b-4fc4-b8f7-c1b9d1c4420b"},"vehicle_type_id":"4","last_reported":1687792088,"current_range_meters":25600,"station_id":"ce4bgl92rcd13ifvqbq0","pricing_plan_id":"free"},{"bike_id":"2c34d321-408f-42c2-b816-f52a7d5ba983","system_id":"levelo_inurba_marseille","lat":43.309076,"lon":5.368465,"is_reserved":false,"is_disabled":false,"rental_uris":{"android":"levelo://app?vid=2c34d321-408f-42c2-b816-f52a7d5ba983","ios":"levelo://app?vid=2c34d321-408f-42c2-b816-f52a7d5ba983"},"vehicle_type_id":"4","last_reported":1687792088,"current_range_meters":31200,"station_id":"ce4bgn92rcd13ifvqbvg","pricing_plan_id":"free"},{"bike_id":"6b048862-3efc-404b-9180-8773711a5369","system_id":"levelo_inurba_marseille","lat":43.309076,"lon":5.368465,"is_reserved":false,"is_disabled":false,"rental_uris":{"android":"levelo://app?vid=6b048862-3efc-404b-9180-8773711a5369","ios":"levelo://app?vid=6b048862-3efc-404b-9180-8773711a5369"},"vehicle_type_id":"4","last_reported":1687792088,"current_range_meters":31200,"station_id":"ce4bgn92rcd13ifvqbvg","pricing_plan_id":"free"},{"bike_id":"5ab70368-3afc-4f55-8beb-7711bbad9eae","system_id":"levelo_inurba_marseille","lat":43.309076,"lon":5.368465,"is_reserved":false,"is_disabled":false,"rental_uris":{"android":"levelo://app?vid=5ab70368-3afc-4f55-8beb-7711bbad9eae","ios":"levelo://app?vid=5ab70368-3afc-4f55-8beb-7711bbad9eae"},"vehicle_type_id":"4","last_reported":1687792088,"current_range_meters":31600,"station_id":"ce4bgn92rcd13ifvqbvg","pricing_plan_id":"free"},{"bike_id":"db4b1bbc-d974-4e29-8e08-78591bd337b2","system_id":"levelo_inurba_marseille","lat":43.30909,"lon":5.36854,"is_reserved":false,"is_disabled":false,"rental_uris":{"android":"levelo://app?vid=db4b1bbc-d974-4e29-8e08-78591bd337b2","ios":"levelo://app?vid=db4b1bbc-d974-4e29-8e08-78591bd337b2"},"vehicle_type_id":"4","last_reported":1687792088,"current_range_meters":31200,"station_id":"ce4bgn92rcd13ifvqbvg","pricing_plan_id":"free"},{"bike_id":"0a87513f-7299-4f6c-9091-a3ce91bf2ad8","system_id":"levelo_inurba_marseille","lat":43.309076,"lon":5.368465,"is_reserved":false,"is_disabled":false,"rental_uris":{"android":"levelo://app?vid=0a87513f-7299-4f6c-9091-a3ce91bf2ad8","ios":"levelo://app?vid=0a87513f-7299-4f6c-9091-a3ce91bf2ad8"},"vehicle_type_id":"4","last_reported":1687792088,"current_range_meters":31200,"station_id":"ce4bgn92rcd13ifvqbvg","pricing_plan_id":"free"},{"bike_id":"0fa09393-5a55-420c-8572-c5ce67b4a00b","system_id":"levelo_inurba_marseille","lat":43.309076,"lon":5.368465,"is_reserved":false,"is_disabled":false,"rental_uris":{"android":"levelo://app?vid=0fa09393-5a55-420c-8572-c5ce67b4a00b","ios":"levelo://app?vid=0fa09393-5a55-420c-8572-c5ce67b4a00b"},"vehicle_type_id":"4","last_reported":1687792088,"current_range_meters":28000,"station_id":"ce4bgn92rcd13ifvqbvg","pricing_plan_id":"free"},{"bike_id":"e741a39c-15b3-49e6-8930-8e6267f34aff","system_id":"levelo_inurba_marseille","lat":43.31493,"lon":5.37303,"is_reserved":false,"is_disabled":false,"rental_uris":{"android":"levelo://app?vid=e741a39c-15b3-49e6-8930-8e6267f34aff","ios":"levelo://app?vid=e741a39c-15b3-49e6-8930-8e6267f34aff"},"vehicle_type_id":"4","last_reported":1687792088,"current_range_meters":18800,"station_id":"ce4bgt12rcd13ifvqcd0","pricing_plan_id":"free"},{"bike_id":"d20ef3d0-8253-496f-8555-2893dcdd59be","system_id":"levelo_inurba_marseille","lat":43.308606,"lon":5.372099,"is_reserved":false,"is_disabled":false,"rental_uris":{"android":"levelo://app?vid=d20ef3d0-8253-496f-8555-2893dcdd59be","ios":"levelo://app?vid=d20ef3d0-8253-496f-8555-2893dcdd59be"},"vehicle_type_id":"4","last_reported":1687792088,"current_range_meters":14800,"station_id":"ce4bguh2rcd13ifvqckg","pricing_plan_id":"free"},{"bike_id":"09e01703-4340-497e-a1df-35544fa2248b","system_id":"levelo_inurba_marseille","lat":43.308606,"lon":5.372099,"is_reserved":false,"is_disabled":false,"rental_uris":{"android":"levelo://app?vid=09e01703-4340-497e-a1df-35544fa2248b","ios":"levelo://app?vid=09e01703-4340-497e-a1df-35544fa2248b"},"vehicle_type_id":"4","last_reported":1687792088,"current_range_meters":12400,"station_id":"ce4bguh2rcd13ifvqckg","pricing_plan_id":"free"},{"bike_id":"b3694d33-c30c-4445-a34b-cd232b6f9e28","system_id":"levelo_inurba_marseille","lat":43.3088,"lon":5.37195,"is_reserved":false,"is_disabled":false,"rental_uris":{"android":"levelo://app?vid=b3694d33-c30c-4445-a34b-cd232b6f9e28","ios":"levelo://app?vid=b3694d33-c30c-4445-a34b-cd232b6f9e28"},"vehicle_type_id":"4","last_reported":1687792088,"current_range_meters":31600,"station_id":"ce4bguh2rcd13ifvqckg","pricing_plan_id":"free"},{"bike_id":"b69de7bf-0052-4417-9aa8-934dd86c01da","system_id":"levelo_inurba_marseille","lat":43.3055,"lon":5.36711,"is_reserved":false,"is_disabled":false,"rental_uris":{"android":"levelo://app?vid=b69de7bf-0052-4417-9aa8-934dd86c01da","ios":"levelo://app?vid=b69de7bf-0052-4417-9aa8-934dd86c01da"},"vehicle_type_id":"4","last_reported":1687792088,"current_range_meters":24400,"station_id":"ce4bgrp2rcd13ifvqc9g","pricing_plan_id":"free"},{"bike_id":"4c2a4734-d3ef-4f02-b0a4-0b1589e7125b","system_id":"levelo_inurba_marseille","lat":43.30549,"lon":5.36709,"is_reserved":false,"is_disabled":false,"rental_uris":{"android":"levelo://app?vid=4c2a4734-d3ef-4f02-b0a4-0b1589e7125b","ios":"levelo://app?vid=4c2a4734-d3ef-4f02-b0a4-0b1589e7125b"},"vehicle_type_id":"4","last_reported":1687792088,"current_range_meters":24000,"station_id":"ce4bgrp2rcd13ifvqc9g","pricing_plan_id":"free"},{"bike_id":"072f25ee-8089-41ab-882b-5a6002a20357","system_id":"levelo_inurba_marseille","lat":43.30546,"lon":5.36704,"is_reserved":false,"is_disabled":false,"rental_uris":{"android":"levelo://app?vid=072f25ee-8089-41ab-882b-5a6002a20357","ios":"levelo://app?vid=072f25ee-8089-41ab-882b-5a6002a20357"},"vehicle_type_id":"4","last_reported":1687792088,"current_range_meters":29200,"station_id":"ce4bgrp2rcd13ifvqc9g","pricing_plan_id":"free"},{"bike_id":"f472c5a1-5a56-48e8-add9-91778643ecd1","system_id":"levelo_inurba_marseille","lat":43.30544,"lon":5.36716,"is_reserved":false,"is_disabled":false,"rental_uris":{"android":"levelo://app?vid=f472c5a1-5a56-48e8-add9-91778643ecd1","ios":"levelo://app?vid=f472c5a1-5a56-48e8-add9-91778643ecd1"},"vehicle_type_id":"4","last_reported":1687792088,"current_range_meters":30400,"station_id":"ce4bgrp2rcd13ifvqc9g","pricing_plan_id":"free"},{"bike_id":"72d79d19-a1c2-49ec-8879-335a2644708a","system_id":"levelo_inurba_marseille","lat":43.305712,"lon":5.365641,"is_reserved":false,"is_disabled":false,"rental_uris":{"android":"levelo://app?vid=72d79d19-a1c2-49ec-8879-335a2644708a","ios":"levelo://app?vid=72d79d19-a1c2-49ec-8879-335a2644708a"},"vehicle_type_id":"4","last_reported":1687792088,"current_range_meters":28800,"station_id":"ce4bgs12rcd13ifvqcag","pricing_plan_id":"free"},{"bike_id":"2b31149f-2fe3-4dcc-8313-87354dd1f5ad","system_id":"levelo_inurba_marseille","lat":43.30546,"lon":5.36545,"is_reserved":false,"is_disabled":false,"rental_uris":{"android":"levelo://app?vid=2b31149f-2fe3-4dcc-8313-87354dd1f5ad","ios":"levelo://app?vid=2b31149f-2fe3-4dcc-8313-87354dd1f5ad"},"vehicle_type_id":"4","last_reported":1687792088,"current_range_meters":400,"station_id":"ce4bgs12rcd13ifvqcag","pricing_plan_id":"free"},{"bike_id":"572757ce-578b-42d8-bcf9-a4cb765e6178","system_id":"levelo_inurba_marseille","lat":43.305368,"lon":5.367343,"is_reserved":false,"is_disabled":false,"rental_uris":{"android":"levelo://app?vid=572757ce-578b-42d8-bcf9-a4cb765e6178","ios":"levelo://app?vid=572757ce-578b-42d8-bcf9-a4cb765e6178"},"vehicle_type_id":"4","last_reported":1687792088,"current_range_meters":21200,"station_id":"ce4bgrp2rcd13ifvqc9g","pricing_plan_id":"free"},{"bike_id":"45a5d24b-d807-4881-804a-16e1a05bf241","system_id":"levelo_inurba_marseille","lat":43.305368,"lon":5.367343,"is_reserved":false,"is_disabled":false,"rental_uris":{"android":"levelo://app?vid=45a5d24b-d807-4881-804a-16e1a05bf241","ios":"levelo://app?vid=45a5d24b-d807-4881-804a-16e1a05bf241"},"vehicle_type_id":"4","last_reported":1687792088,"current_range_meters":26400,"station_id":"ce4bgrp2rcd13ifvqc9g","pricing_plan_id":"free"},{"bike_id":"4cf76e68-884e-4dce-aa58-8528ca74427c","system_id":"levelo_inurba_marseille","lat":43.308606,"lon":5.372099,"is_reserved":false,"is_disabled":false,"rental_uris":{"android":"levelo://app?vid=4cf76e68-884e-4dce-aa58-8528ca74427c","ios":"levelo://app?vid=4cf76e68-884e-4dce-aa58-8528ca74427c"},"vehicle_type_id":"4","last_reported":1687792088,"current_range_meters":12400,"station_id":"ce4bguh2rcd13ifvqckg","pricing_plan_id":"free"},{"bike_id":"1a93e2cf-d249-4c72-bee0-cc1c74002186","system_id":"levelo_inurba_marseille","lat":43.305989,"lon":5.37225,"is_reserved":false,"is_disabled":false,"rental_uris":{"android":"levelo://app?vid=1a93e2cf-d249-4c72-bee0-cc1c74002186","ios":"levelo://app?vid=1a93e2cf-d249-4c72-bee0-cc1c74002186"},"vehicle_type_id":"4","last_reported":1687792088,"current_range_meters":26800,"station_id":"ce4bgqh2rcd13ifvqc4g","pricing_plan_id":"free"},{"bike_id":"be15279f-b7bb-4f99-9790-801e155d4b9f","system_id":"levelo_inurba_marseille","lat":43.30641,"lon":5.37372,"is_reserved":false,"is_disabled":false,"rental_uris":{"android":"levelo://app?vid=be15279f-b7bb-4f99-9790-801e155d4b9f","ios":"levelo://app?vid=be15279f-b7bb-4f99-9790-801e155d4b9f"},"vehicle_type_id":"4","last_reported":1687792088,"current_range_meters":18800,"station_id":"","pricing_plan_id":"free"},{"bike_id":"6af8c19f-adfd-4848-a6fb-0efca95657a3","system_id":"levelo_inurba_marseille","lat":43.31681,"lon":5.37661,"is_reserved":false,"is_disabled":false,"rental_uris":{"android":"levelo://app?vid=6af8c19f-adfd-4848-a6fb-0efca95657a3","ios":"levelo://app?vid=6af8c19f-adfd-4848-a6fb-0efca95657a3"},"vehicle_type_id":"4","last_reported":1687792088,"current_range_meters":11200,"station_id":"","pricing_plan_id":"free"},{"bike_id":"153f7746-8193-46fe-a48b-e2b7da100070","system_id":"levelo_inurba_marseille","lat":43.317075,"lon":5.377367,"is_reserved":false,"is_disabled":false,"rental_uris":{"android":"levelo://app?vid=153f7746-8193-46fe-a48b-e2b7da100070","ios":"levelo://app?vid=153f7746-8193-46fe-a48b-e2b7da100070"},"vehicle_type_id":"4","last_reported":1687792088,"current_range_meters":24000,"station_id":"ce4bgth2rcd13ifvqch0","pricing_plan_id":"free"},{"bike_id":"4fd5be37-41da-4acc-a9e7-f845c6cee45c","system_id":"levelo_inurba_marseille","lat":43.31522,"lon":5.38048,"is_reserved":false,"is_disabled":false,"rental_uris":{"android":"levelo://app?vid=4fd5be37-41da-4acc-a9e7-f845c6cee45c","ios":"levelo://app?vid=4fd5be37-41da-4acc-a9e7-f845c6cee45c"},"vehicle_type_id":"4","last_reported":1687792088,"current_range_meters":7600,"station_id":"ce4bhsp2rcd13ifvqi50","pricing_plan_id":"free"},{"bike_id":"79bf2a6c-f5a2-4145-9987-3d6127dfb81c","system_id":"levelo_inurba_marseille","lat":43.301939,"lon":5.366286,"is_reserved":false,"is_disabled":false,"rental_uris":{"android":"levelo://app?vid=79bf2a6c-f5a2-4145-9987-3d6127dfb81c","ios":"levelo://app?vid=79bf2a6c-f5a2-4145-9987-3d6127dfb81c"},"vehicle_type_id":"4","last_reported":1687792088,"current_range_meters":21200,"station_id":"ce4bgrh2rcd13ifvqc8g","pricing_plan_id":"free"},{"bike_id":"24a295f1-d7e2-4f4b-9c71-047d2620b5fe","system_id":"levelo_inurba_marseille","lat":43.301939,"lon":5.366286,"is_reserved":false,"is_disabled":false,"rental_uris":{"android":"levelo://app?vid=24a295f1-d7e2-4f4b-9c71-047d2620b5fe","ios":"levelo://app?vid=24a295f1-d7e2-4f4b-9c71-047d2620b5fe"},"vehicle_type_id":"4","last_reported":1687792088,"current_range_meters":29600,"station_id":"ce4bgrh2rcd13ifvqc8g","pricing_plan_id":"free"},{"bike_id":"7961c058-6bbf-43fe-9e62-f3ba9264f471","system_id":"levelo_inurba_marseille","lat":43.30225,"lon":5.3739,"is_reserved":false,"is_disabled":false,"rental_uris":{"android":"levelo://app?vid=7961c058-6bbf-43fe-9e62-f3ba9264f471","ios":"levelo://app?vid=7961c058-6bbf-43fe-9e62-f3ba9264f471"},"vehicle_type_id":"4","last_reported":1687792088,"current_range_meters":0,"station_id":"","pricing_plan_id":"free"},{"bike_id":"a432ae95-b315-4d9d-b10d-1ca4a454b5ba","system_id":"levelo_inurba_marseille","lat":43.30794,"lon":5.38158,"is_reserved":false,"is_disabled":false,"rental_uris":{"android":"levelo://app?vid=a432ae95-b315-4d9d-b10d-1ca4a454b5ba","ios":"levelo://app?vid=a432ae95-b315-4d9d-b10d-1ca4a454b5ba"},"vehicle_type_id":"4","last_reported":1687792088,"current_range_meters":20800,"station_id":"ce4bgt12rcd13ifvqce0","pricing_plan_id":"free"},{"bike_id":"05673976-5cf9-43ef-9b9d-536266092bb2","system_id":"levelo_inurba_marseille","lat":43.304606,"lon":5.379026,"is_reserved":false,"is_disabled":false,"rental_uris":{"android":"levelo://app?vid=05673976-5cf9-43ef-9b9d-536266092bb2","ios":"levelo://app?vid=05673976-5cf9-43ef-9b9d-536266092bb2"},"vehicle_type_id":"4","last_reported":1687792088,"current_range_meters":21600,"station_id":"ce4bgup2rcd13ifvqcn0","pricing_plan_id":"free"},{"bike_id":"ede3c5cc-6d31-4014-8bd5-73369aae5835","system_id":"levelo_inurba_marseille","lat":43.304606,"lon":5.379026,"is_reserved":false,"is_disabled":false,"rental_uris":{"android":"levelo://app?vid=ede3c5cc-6d31-4014-8bd5-73369aae5835","ios":"levelo://app?vid=ede3c5cc-6d31-4014-8bd5-73369aae5835"},"vehicle_type_id":"4","last_reported":1687792088,"current_range_meters":27200,"station_id":"ce4bgup2rcd13ifvqcn0","pricing_plan_id":"free"},{"bike_id":"f70dcad4-4123-4bb5-89a9-c8b7b3693d69","system_id":"levelo_inurba_marseille","lat":43.302784,"lon":5.377158,"is_reserved":false,"is_disabled":false,"rental_uris":{"android":"levelo://app?vid=f70dcad4-4123-4bb5-89a9-c8b7b3693d69","ios":"levelo://app?vid=f70dcad4-4123-4bb5-89a9-c8b7b3693d69"},"vehicle_type_id":"4","last_reported":1687792088,"current_range_meters":29200,"station_id":"ce4bguh2rcd13ifvqcj0","pricing_plan_id":"free"},{"bike_id":"04426054-75bc-47c6-b231-e3a423cf0bcb","system_id":"levelo_inurba_marseille","lat":43.319935,"lon":5.381699,"is_reserved":false,"is_disabled":false,"rental_uris":{"android":"levelo://app?vid=04426054-75bc-47c6-b231-e3a423cf0bcb","ios":"levelo://app?vid=04426054-75bc-47c6-b231-e3a423cf0bcb"},"vehicle_type_id":"4","last_reported":1687792088,"current_range_meters":14000,"station_id":"ce4bhr12rcd13ifvqhpg","pricing_plan_id":"free"},{"bike_id":"84e29f33-77bb-4f0c-8f6e-2bacb5c25174","system_id":"levelo_inurba_marseille","lat":43.299222,"lon":5.365554,"is_reserved":false,"is_disabled":false,"rental_uris":{"android":"levelo://app?vid=84e29f33-77bb-4f0c-8f6e-2bacb5c25174","ios":"levelo://app?vid=84e29f33-77bb-4f0c-8f6e-2bacb5c25174"},"vehicle_type_id":"4","last_reported":1687792088,"current_range_meters":10400,"station_id":"ce4bgm92rcd13ifvqbr0","pricing_plan_id":"free"},{"bike_id":"84fb82b4-c04f-42d9-8d7b-f538bf93bb1a","system_id":"levelo_inurba_marseille","lat":43.299222,"lon":5.365554,"is_reserved":false,"is_disabled":false,"rental_uris":{"android":"levelo://app?vid=84fb82b4-c04f-42d9-8d7b-f538bf93bb1a","ios":"levelo://app?vid=84fb82b4-c04f-42d9-8d7b-f538bf93bb1a"},"vehicle_type_id":"4","last_reported":1687792088,"current_range_meters":5200,"station_id":"ce4bgm92rcd13ifvqbr0","pricing_plan_id":"free"},{"bike_id":"004759af-fa9b-4007-8ef1-431ca3805723","system_id":"levelo_inurba_marseille","lat":43.299222,"lon":5.365554,"is_reserved":false,"is_disabled":false,"rental_uris":{"android":"levelo://app?vid=004759af-fa9b-4007-8ef1-431ca3805723","ios":"levelo://app?vid=004759af-fa9b-4007-8ef1-431ca3805723"},"vehicle_type_id":"4","last_reported":1687792088,"current_range_meters":24800,"station_id":"ce4bgm92rcd13ifvqbr0","pricing_plan_id":"free"},{"bike_id":"9364ac79-dab4-4d9b-ac3d-c9fd2f862497","system_id":"levelo_inurba_marseille","lat":43.29928,"lon":5.36544,"is_reserved":false,"is_disabled":false,"rental_uris":{"android":"levelo://app?vid=9364ac79-dab4-4d9b-ac3d-c9fd2f862497","ios":"levelo://app?vid=9364ac79-dab4-4d9b-ac3d-c9fd2f862497"},"vehicle_type_id":"4","last_reported":1687792088,"current_range_meters":16000,"station_id":"ce4bgm92rcd13ifvqbr0","pricing_plan_id":"free"},{"bike_id":"329556e8-d1d7-40ec-89fc-b3aac6492b40","system_id":"levelo_inurba_marseille","lat":43.29923,"lon":5.36555,"is_reserved":false,"is_disabled":false,"rental_uris":{"android":"levelo://app?vid=329556e8-d1d7-40ec-89fc-b3aac6492b40","ios":"levelo://app?vid=329556e8-d1d7-40ec-89fc-b3aac6492b40"},"vehicle_type_id":"4","last_reported":1687792088,"current_range_meters":19600,"station_id":"ce4bgm92rcd13ifvqbr0","pricing_plan_id":"free"},{"bike_id":"d416d8a6-a944-48fb-84c4-825fb7301ab4","system_id":"levelo_inurba_marseille","lat":43.29924,"lon":5.36528,"is_reserved":false,"is_disabled":false,"rental_uris":{"android":"levelo://app?vid=d416d8a6-a944-48fb-84c4-825fb7301ab4","ios":"levelo://app?vid=d416d8a6-a944-48fb-84c4-825fb7301ab4"},"vehicle_type_id":"4","last_reported":1687792088,"current_range_meters":28800,"station_id":"ce4bgm92rcd13ifvqbr0","pricing_plan_id":"free"},{"bike_id":"a7551a8a-4e2c-4808-94ae-5cc5cab1ecef","system_id":"levelo_inurba_marseille","lat":43.299222,"lon":5.365554,"is_reserved":false,"is_disabled":false,"rental_uris":{"android":"levelo://app?vid=a7551a8a-4e2c-4808-94ae-5cc5cab1ecef","ios":"levelo://app?vid=a7551a8a-4e2c-4808-94ae-5cc5cab1ecef"},"vehicle_type_id":"4","last_reported":1687792088,"current_range_meters":11600,"station_id":"ce4bgm92rcd13ifvqbr0","pricing_plan_id":"free"},{"bike_id":"04324bbc-0161-451a-a5da-04e252641f72","system_id":"levelo_inurba_marseille","lat":43.302734,"lon":5.380938,"is_reserved":false,"is_disabled":false,"rental_uris":{"android":"levelo://app?vid=04324bbc-0161-451a-a5da-04e252641f72","ios":"levelo://app?vid=04324bbc-0161-451a-a5da-04e252641f72"},"vehicle_type_id":"4","last_reported":1687792088,"current_range_meters":18400,"station_id":"ce4bgpp2rcd13ifvqc3g","pricing_plan_id":"free"},{"bike_id":"28cd812b-b48d-4c3a-a5aa-39b57ba27f8a","system_id":"levelo_inurba_marseille","lat":43.297794,"lon":5.370888,"is_reserved":false,"is_disabled":false,"rental_uris":{"android":"levelo://app?vid=28cd812b-b48d-4c3a-a5aa-39b57ba27f8a","ios":"levelo://app?vid=28cd812b-b48d-4c3a-a5aa-39b57ba27f8a"},"vehicle_type_id":"4","last_reported":1687792088,"current_range_meters":19600,"station_id":"ce4bgop2rcd13ifvqc1g","pricing_plan_id":"free"},{"bike_id":"1580a472-182f-4d91-8a6c-4c3a23a9c034","system_id":"levelo_inurba_marseille","lat":43.302,"lon":5.3821,"is_reserved":false,"is_disabled":false,"rental_uris":{"android":"levelo://app?vid=1580a472-182f-4d91-8a6c-4c3a23a9c034","ios":"levelo://app?vid=1580a472-182f-4d91-8a6c-4c3a23a9c034"},"vehicle_type_id":"4","last_reported":1687792088,"current_range_meters":9200,"station_id":"","pricing_plan_id":"free"},{"bike_id":"8679cc42-f60f-4d46-8ef1-a90dcd0c6845","system_id":"levelo_inurba_marseille","lat":43.328371,"lon":5.366909,"is_reserved":false,"is_disabled":false,"rental_uris":{"android":"levelo://app?vid=8679cc42-f60f-4d46-8ef1-a90dcd0c6845","ios":"levelo://app?vid=8679cc42-f60f-4d46-8ef1-a90dcd0c6845"},"vehicle_type_id":"4","last_reported":1687792088,"current_range_meters":14400,"station_id":"ce4bhs92rcd13ifvqi0g","pricing_plan_id":"free"},{"bike_id":"a7f0de62-cbcb-4f09-8e9e-1b6465dbbc67","system_id":"levelo_inurba_marseille","lat":43.328371,"lon":5.366909,"is_reserved":false,"is_disabled":false,"rental_uris":{"android":"levelo://app?vid=a7f0de62-cbcb-4f09-8e9e-1b6465dbbc67","ios":"levelo://app?vid=a7f0de62-cbcb-4f09-8e9e-1b6465dbbc67"},"vehicle_type_id":"4","last_reported":1687792088,"current_range_meters":26000,"station_id":"ce4bhs92rcd13ifvqi0g","pricing_plan_id":"free"},{"bike_id":"1a986163-fd5b-44c7-bf15-50a76c7f7598","system_id":"levelo_inurba_marseille","lat":43.328371,"lon":5.366909,"is_reserved":false,"is_disabled":false,"rental_uris":{"android":"levelo://app?vid=1a986163-fd5b-44c7-bf15-50a76c7f7598","ios":"levelo://app?vid=1a986163-fd5b-44c7-bf15-50a76c7f7598"},"vehicle_type_id":"4","last_reported":1687792088,"current_range_meters":8800,"station_id":"ce4bhs92rcd13ifvqi0g","pricing_plan_id":"free"},{"bike_id":"be4c2b1e-4409-4655-b800-08e6615894b0","system_id":"levelo_inurba_marseille","lat":43.328371,"lon":5.366909,"is_reserved":false,"is_disabled":false,"rental_uris":{"android":"levelo://app?vid=be4c2b1e-4409-4655-b800-08e6615894b0","ios":"levelo://app?vid=be4c2b1e-4409-4655-b800-08e6615894b0"},"vehicle_type_id":"4","last_reported":1687792088,"current_range_meters":28800,"station_id":"ce4bhs92rcd13ifvqi0g","pricing_plan_id":"free"},{"bike_id":"c0ba4054-03d2-4233-93b4-0461723bc0b5","system_id":"levelo_inurba_marseille","lat":43.328371,"lon":5.366909,"is_reserved":false,"is_disabled":false,"rental_uris":{"android":"levelo://app?vid=c0ba4054-03d2-4233-93b4-0461723bc0b5","ios":"levelo://app?vid=c0ba4054-03d2-4233-93b4-0461723bc0b5"},"vehicle_type_id":"4","last_reported":1687792088,"current_range_meters":28800,"station_id":"ce4bhs92rcd13ifvqi0g","pricing_plan_id":"free"},{"bike_id":"84310711-9ffd-45bf-a8e1-79683581878e","system_id":"levelo_inurba_marseille","lat":43.328371,"lon":5.366909,"is_reserved":false,"is_disabled":false,"rental_uris":{"android":"levelo://app?vid=84310711-9ffd-45bf-a8e1-79683581878e","ios":"levelo://app?vid=84310711-9ffd-45bf-a8e1-79683581878e"},"vehicle_type_id":"4","last_reported":1687792088,"current_range_meters":16800,"station_id":"ce4bhs92rcd13ifvqi0g","pricing_plan_id":"free"},{"bike_id":"e0d28c6d-cda5-4ad7-9ed5-96823da4f883","system_id":"levelo_inurba_marseille","lat":43.328371,"lon":5.366909,"is_reserved":false,"is_disabled":false,"rental_uris":{"android":"levelo://app?vid=e0d28c6d-cda5-4ad7-9ed5-96823da4f883","ios":"levelo://app?vid=e0d28c6d-cda5-4ad7-9ed5-96823da4f883"},"vehicle_type_id":"4","last_reported":1687792088,"current_range_meters":14000,"station_id":"ce4bhs92rcd13ifvqi0g","pricing_plan_id":"free"},{"bike_id":"8b17aad1-d072-4063-bcd5-d1dd5ac05981","system_id":"levelo_inurba_marseille","lat":43.328371,"lon":5.366909,"is_reserved":false,"is_disabled":false,"rental_uris":{"android":"levelo://app?vid=8b17aad1-d072-4063-bcd5-d1dd5ac05981","ios":"levelo://app?vid=8b17aad1-d072-4063-bcd5-d1dd5ac05981"},"vehicle_type_id":"4","last_reported":1687792088,"current_range_meters":26400,"station_id":"ce4bhs92rcd13ifvqi0g","pricing_plan_id":"free"},{"bike_id":"b6159e29-22dd-4f8a-8788-85702808985c","system_id":"levelo_inurba_marseille","lat":43.328371,"lon":5.366909,"is_reserved":false,"is_disabled":false,"rental_uris":{"android":"levelo://app?vid=b6159e29-22dd-4f8a-8788-85702808985c","ios":"levelo://app?vid=b6159e29-22dd-4f8a-8788-85702808985c"},"vehicle_type_id":"4","last_reported":1687792088,"current_range_meters":20000,"station_id":"ce4bhs92rcd13ifvqi0g","pricing_plan_id":"free"},{"bike_id":"76c65ad2-6f1a-4f0c-b95e-e8c7ce1f54bb","system_id":"levelo_inurba_marseille","lat":43.328371,"lon":5.366909,"is_reserved":false,"is_disabled":false,"rental_uris":{"android":"levelo://app?vid=76c65ad2-6f1a-4f0c-b95e-e8c7ce1f54bb","ios":"levelo://app?vid=76c65ad2-6f1a-4f0c-b95e-e8c7ce1f54bb"},"vehicle_type_id":"4","last_reported":1687792088,"current_range_meters":24400,"station_id":"ce4bhs92rcd13ifvqi0g","pricing_plan_id":"free"},{"bike_id":"5108659d-1431-4d89-a11a-e27336cba391","system_id":"levelo_inurba_marseille","lat":43.328371,"lon":5.366909,"is_reserved":false,"is_disabled":false,"rental_uris":{"android":"levelo://app?vid=5108659d-1431-4d89-a11a-e27336cba391","ios":"levelo://app?vid=5108659d-1431-4d89-a11a-e27336cba391"},"vehicle_type_id":"4","last_reported":1687792088,"current_range_meters":26400,"station_id":"ce4bhs92rcd13ifvqi0g","pricing_plan_id":"free"},{"bike_id":"8d98417a-cbe4-4269-8bc9-598373a7d5de","system_id":"levelo_inurba_marseille","lat":43.32872,"lon":5.36301,"is_reserved":false,"is_disabled":false,"rental_uris":{"android":"levelo://app?vid=8d98417a-cbe4-4269-8bc9-598373a7d5de","ios":"levelo://app?vid=8d98417a-cbe4-4269-8bc9-598373a7d5de"},"vehicle_type_id":"4","last_reported":1687792088,"current_range_meters":12400,"station_id":"","pricing_plan_id":"free"},{"bike_id":"041bc147-ef2f-419b-bb81-deca3bdf89e2","system_id":"levelo_inurba_marseille","lat":43.29611,"lon":5.36046,"is_reserved":false,"is_disabled":false,"rental_uris":{"android":"levelo://app?vid=041bc147-ef2f-419b-bb81-deca3bdf89e2","ios":"levelo://app?vid=041bc147-ef2f-419b-bb81-deca3bdf89e2"},"vehicle_type_id":"4","last_reported":1687792088,"current_range_meters":0,"station_id":"","pricing_plan_id":"free"},{"bike_id":"2870e8e3-4e67-4897-bfd2-9a869c63804a","system_id":"levelo_inurba_marseille","lat":43.30943,"lon":5.39028,"is_reserved":false,"is_disabled":false,"rental_uris":{"android":"levelo://app?vid=2870e8e3-4e67-4897-bfd2-9a869c63804a","ios":"levelo://app?vid=2870e8e3-4e67-4897-bfd2-9a869c63804a"},"vehicle_type_id":"4","last_reported":1687792088,"current_range_meters":0,"station_id":"ce4bgup2rcd13ifvqco0","pricing_plan_id":"free"},{"bike_id":"1786e1a5-e975-4cf4-be56-b6ae4daab6fa","system_id":"levelo_inurba_marseille","lat":43.29805,"lon":5.3808,"is_reserved":false,"is_disabled":false,"rental_uris":{"android":"levelo://app?vid=1786e1a5-e975-4cf4-be56-b6ae4daab6fa","ios":"levelo://app?vid=1786e1a5-e975-4cf4-be56-b6ae4daab6fa"},"vehicle_type_id":"4","last_reported":1687792088,"current_range_meters":28400,"station_id":"ce4bgip2rcd13ifvqbb0","pricing_plan_id":"free"},{"bike_id":"aa0a4d9b-eeb6-4545-9439-e8a1be77c665","system_id":"levelo_inurba_marseille","lat":43.304278,"lon":5.388868,"is_reserved":false,"is_disabled":false,"rental_uris":{"android":"levelo://app?vid=aa0a4d9b-eeb6-4545-9439-e8a1be77c665","ios":"levelo://app?vid=aa0a4d9b-eeb6-4545-9439-e8a1be77c665"},"vehicle_type_id":"4","last_reported":1687792088,"current_range_meters":7600,"station_id":"ce4bgk12rcd13ifvqbi0","pricing_plan_id":"free"},{"bike_id":"031c35cd-fd0a-4eb2-a70d-b92b3b34047f","system_id":"levelo_inurba_marseille","lat":43.304278,"lon":5.388868,"is_reserved":false,"is_disabled":false,"rental_uris":{"android":"levelo://app?vid=031c35cd-fd0a-4eb2-a70d-b92b3b34047f","ios":"levelo://app?vid=031c35cd-fd0a-4eb2-a70d-b92b3b34047f"},"vehicle_type_id":"4","last_reported":1687792088,"current_range_meters":1600,"station_id":"ce4bgk12rcd13ifvqbi0","pricing_plan_id":"free"},{"bike_id":"625f9cc7-d74e-4032-8dd8-e4ab50f2da6b","system_id":"levelo_inurba_marseille","lat":43.299717,"lon":5.384845,"is_reserved":false,"is_disabled":false,"rental_uris":{"android":"levelo://app?vid=625f9cc7-d74e-4032-8dd8-e4ab50f2da6b","ios":"levelo://app?vid=625f9cc7-d74e-4032-8dd8-e4ab50f2da6b"},"vehicle_type_id":"4","last_reported":1687792088,"current_range_meters":7200,"station_id":"ce4bgj92rcd13ifvqbd0","pricing_plan_id":"free"},{"bike_id":"8205acf7-8672-44d5-b737-fbf64241bf1a","system_id":"levelo_inurba_marseille","lat":43.29525,"lon":5.37602,"is_reserved":false,"is_disabled":false,"rental_uris":{"android":"levelo://app?vid=8205acf7-8672-44d5-b737-fbf64241bf1a","ios":"levelo://app?vid=8205acf7-8672-44d5-b737-fbf64241bf1a"},"vehicle_type_id":"4","last_reported":1687792088,"current_range_meters":6800,"station_id":"","pricing_plan_id":"free"},{"bike_id":"6f9bb765-6062-48fe-9bfa-461067668e68","system_id":"levelo_inurba_marseille","lat":43.32364,"lon":5.38885,"is_reserved":false,"is_disabled":false,"rental_uris":{"android":"levelo://app?vid=6f9bb765-6062-48fe-9bfa-461067668e68","ios":"levelo://app?vid=6f9bb765-6062-48fe-9bfa-461067668e68"},"vehicle_type_id":"4","last_reported":1687792088,"current_range_meters":13600,"station_id":"ce4bhqp2rcd13ifvqhog","pricing_plan_id":"free"},{"bike_id":"93922948-55fc-4676-a663-21f034934ee2","system_id":"levelo_inurba_marseille","lat":43.29601,"lon":5.381084,"is_reserved":false,"is_disabled":false,"rental_uris":{"android":"levelo://app?vid=93922948-55fc-4676-a663-21f034934ee2","ios":"levelo://app?vid=93922948-55fc-4676-a663-21f034934ee2"},"vehicle_type_id":"4","last_reported":1687792088,"current_range_meters":22400,"station_id":"ce4bgl12rcd13ifvqbo0","pricing_plan_id":"free"},{"bike_id":"fc3c775f-cc1a-4a8b-8abc-736071a0e46e","system_id":"levelo_inurba_marseille","lat":43.29601,"lon":5.381084,"is_reserved":false,"is_disabled":false,"rental_uris":{"android":"levelo://app?vid=fc3c775f-cc1a-4a8b-8abc-736071a0e46e","ios":"levelo://app?vid=fc3c775f-cc1a-4a8b-8abc-736071a0e46e"},"vehicle_type_id":"4","last_reported":1687792088,"current_range_meters":800,"station_id":"ce4bgl12rcd13ifvqbo0","pricing_plan_id":"free"},{"bike_id":"9aa9fa47-5bef-41a5-823e-97c17785582e","system_id":"levelo_inurba_marseille","lat":43.29601,"lon":5.381084,"is_reserved":false,"is_disabled":false,"rental_uris":{"android":"levelo://app?vid=9aa9fa47-5bef-41a5-823e-97c17785582e","ios":"levelo://app?vid=9aa9fa47-5bef-41a5-823e-97c17785582e"},"vehicle_type_id":"4","last_reported":1687792088,"current_range_meters":0,"station_id":"ce4bgl12rcd13ifvqbo0","pricing_plan_id":"free"},{"bike_id":"4783d9b9-a677-4f36-ad6a-330e59bc93c3","system_id":"levelo_inurba_marseille","lat":43.29307,"lon":5.37174,"is_reserved":false,"is_disabled":false,"rental_uris":{"android":"levelo://app?vid=4783d9b9-a677-4f36-ad6a-330e59bc93c3","ios":"levelo://app?vid=4783d9b9-a677-4f36-ad6a-330e59bc93c3"},"vehicle_type_id":"4","last_reported":1687792088,"current_range_meters":0,"station_id":"ce4bgh92rcd13ifvqb40","pricing_plan_id":"free"},{"bike_id":"bde06e34-33a1-4b4e-9c93-79f4eb4d507d","system_id":"levelo_inurba_marseille","lat":43.305994,"lon":5.393687,"is_reserved":false,"is_disabled":false,"rental_uris":{"android":"levelo://app?vid=bde06e34-33a1-4b4e-9c93-79f4eb4d507d","ios":"levelo://app?vid=bde06e34-33a1-4b4e-9c93-79f4eb4d507d"},"vehicle_type_id":"4","last_reported":1687792088,"current_range_meters":18000,"station_id":"ce4bh0p2rcd13ifvqd80","pricing_plan_id":"free"},{"bike_id":"b5020e00-a194-42cf-988e-8a9a56f2e940","system_id":"levelo_inurba_marseille","lat":43.293009,"lon":5.374584,"is_reserved":false,"is_disabled":false,"rental_uris":{"android":"levelo://app?vid=b5020e00-a194-42cf-988e-8a9a56f2e940","ios":"levelo://app?vid=b5020e00-a194-42cf-988e-8a9a56f2e940"},"vehicle_type_id":"4","last_reported":1687792088,"current_range_meters":8400,"station_id":"ce4bgi12rcd13ifvqb70","pricing_plan_id":"free"},{"bike_id":"35f22c18-ea7a-4866-9fc5-1690d1efc1b9","system_id":"levelo_inurba_marseille","lat":43.30093,"lon":5.3907,"is_reserved":false,"is_disabled":false,"rental_uris":{"android":"levelo://app?vid=35f22c18-ea7a-4866-9fc5-1690d1efc1b9","ios":"levelo://app?vid=35f22c18-ea7a-4866-9fc5-1690d1efc1b9"},"vehicle_type_id":"4","last_reported":1687792088,"current_range_meters":5600,"station_id":"","pricing_plan_id":"free"},{"bike_id":"ed2f9233-4ffc-44c0-a331-d21bdbb6ae8f","system_id":"levelo_inurba_marseille","lat":43.291675,"lon":5.371583,"is_reserved":false,"is_disabled":false,"rental_uris":{"android":"levelo://app?vid=ed2f9233-4ffc-44c0-a331-d21bdbb6ae8f","ios":"levelo://app?vid=ed2f9233-4ffc-44c0-a331-d21bdbb6ae8f"},"vehicle_type_id":"4","last_reported":1687792088,"current_range_meters":30400,"station_id":"ce4bha92rcd13ifvqeh0","pricing_plan_id":"free"},{"bike_id":"77d83e9f-cd56-43ad-9a33-66eab0091b6a","system_id":"levelo_inurba_marseille","lat":43.291675,"lon":5.371583,"is_reserved":false,"is_disabled":false,"rental_uris":{"android":"levelo://app?vid=77d83e9f-cd56-43ad-9a33-66eab0091b6a","ios":"levelo://app?vid=77d83e9f-cd56-43ad-9a33-66eab0091b6a"},"vehicle_type_id":"4","last_reported":1687792088,"current_range_meters":14000,"station_id":"ce4bha92rcd13ifvqeh0","pricing_plan_id":"free"},{"bike_id":"d87c0eaf-4eb5-4a71-8825-b513e6f66e7f","system_id":"levelo_inurba_marseille","lat":43.309038,"lon":5.396546,"is_reserved":false,"is_disabled":false,"rental_uris":{"android":"levelo://app?vid=d87c0eaf-4eb5-4a71-8825-b513e6f66e7f","ios":"levelo://app?vid=d87c0eaf-4eb5-4a71-8825-b513e6f66e7f"},"vehicle_type_id":"4","last_reported":1687792088,"current_range_meters":22000,"station_id":"ce4bh012rcd13ifvqcv0","pricing_plan_id":"free"},{"bike_id":"4bc6e62e-36bd-48aa-bc3e-a17d976ed208","system_id":"levelo_inurba_marseille","lat":43.291994,"lon":5.357886,"is_reserved":false,"is_disabled":false,"rental_uris":{"android":"levelo://app?vid=4bc6e62e-36bd-48aa-bc3e-a17d976ed208","ios":"levelo://app?vid=4bc6e62e-36bd-48aa-bc3e-a17d976ed208"},"vehicle_type_id":"4","last_reported":1687792088,"current_range_meters":4800,"station_id":"ce4bhb12rcd13ifvqel0","pricing_plan_id":"free"},{"bike_id":"9f730b31-2ced-4481-9326-72f12ee56148","system_id":"levelo_inurba_marseille","lat":43.29195,"lon":5.35815,"is_reserved":false,"is_disabled":false,"rental_uris":{"android":"levelo://app?vid=9f730b31-2ced-4481-9326-72f12ee56148","ios":"levelo://app?vid=9f730b31-2ced-4481-9326-72f12ee56148"},"vehicle_type_id":"4","last_reported":1687792088,"current_range_meters":6000,"station_id":"ce4bhb12rcd13ifvqel0","pricing_plan_id":"free"},{"bike_id":"3bdfe3c2-5d28-4c52-9eeb-56cd34c6ca4d","system_id":"levelo_inurba_marseille","lat":43.313291,"lon":5.396838,"is_reserved":false,"is_disabled":false,"rental_uris":{"android":"levelo://app?vid=3bdfe3c2-5d28-4c52-9eeb-56cd34c6ca4d","ios":"levelo://app?vid=3bdfe3c2-5d28-4c52-9eeb-56cd34c6ca4d"},"vehicle_type_id":"4","last_reported":1687792088,"current_range_meters":21200,"station_id":"ce4bgvp2rcd13ifvqcu0","pricing_plan_id":"free"},{"bike_id":"3c49a4a7-0c96-41c5-b23f-113538095ba0","system_id":"levelo_inurba_marseille","lat":43.291994,"lon":5.357886,"is_reserved":false,"is_disabled":false,"rental_uris":{"android":"levelo://app?vid=3c49a4a7-0c96-41c5-b23f-113538095ba0","ios":"levelo://app?vid=3c49a4a7-0c96-41c5-b23f-113538095ba0"},"vehicle_type_id":"4","last_reported":1687792088,"current_range_meters":31200,"station_id":"ce4bhb12rcd13ifvqel0","pricing_plan_id":"free"},{"bike_id":"25fb094a-aed0-419e-b9e8-88098d03e87b","system_id":"levelo_inurba_marseille","lat":43.29529,"lon":5.385581,"is_reserved":false,"is_disabled":false,"rental_uris":{"android":"levelo://app?vid=25fb094a-aed0-419e-b9e8-88098d03e87b","ios":"levelo://app?vid=25fb094a-aed0-419e-b9e8-88098d03e87b"},"vehicle_type_id":"4","last_reported":1687792088,"current_range_meters":12000,"station_id":"ce4bgih2rcd13ifvqba0","pricing_plan_id":"free"},{"bike_id":"458bdf4f-3e9d-4201-858e-6798d7a49718","system_id":"levelo_inurba_marseille","lat":43.294153,"lon":5.386305,"is_reserved":false,"is_disabled":false,"rental_uris":{"android":"levelo://app?vid=458bdf4f-3e9d-4201-858e-6798d7a49718","ios":"levelo://app?vid=458bdf4f-3e9d-4201-858e-6798d7a49718"},"vehicle_type_id":"4","last_reported":1687792088,"current_range_meters":20400,"station_id":"ce4bh2h2rcd13ifvqdh0","pricing_plan_id":"free"},{"bike_id":"20b2702a-2cf1-439f-b7da-41f192fa1a0a","system_id":"levelo_inurba_marseille","lat":43.29411,"lon":5.38614,"is_reserved":false,"is_disabled":false,"rental_uris":{"android":"levelo://app?vid=20b2702a-2cf1-439f-b7da-41f192fa1a0a","ios":"levelo://app?vid=20b2702a-2cf1-439f-b7da-41f192fa1a0a"},"vehicle_type_id":"4","last_reported":1687792088,"current_range_meters":11200,"station_id":"","pricing_plan_id":"free"},{"bike_id":"531dd5df-9851-4ad7-bb47-707846168a0a","system_id":"levelo_inurba_marseille","lat":43.294162,"lon":5.386292,"is_reserved":false,"is_disabled":false,"rental_uris":{"android":"levelo://app?vid=531dd5df-9851-4ad7-bb47-707846168a0a","ios":"levelo://app?vid=531dd5df-9851-4ad7-bb47-707846168a0a"},"vehicle_type_id":"4","last_reported":1687792088,"current_range_meters":400,"station_id":"ce4bh2h2rcd13ifvqdh0","pricing_plan_id":"free"},{"bike_id":"e46bef43-b369-4908-b325-8a07434d6376","system_id":"levelo_inurba_marseille","lat":43.294162,"lon":5.386292,"is_reserved":false,"is_disabled":false,"rental_uris":{"android":"levelo://app?vid=e46bef43-b369-4908-b325-8a07434d6376","ios":"levelo://app?vid=e46bef43-b369-4908-b325-8a07434d6376"},"vehicle_type_id":"4","last_reported":1687792088,"current_range_meters":4800,"station_id":"ce4bh2h2rcd13ifvqdh0","pricing_plan_id":"free"},{"bike_id":"d47aed91-7c78-4332-84a6-a019f7f9d6d9","system_id":"levelo_inurba_marseille","lat":43.29258,"lon":5.38449,"is_reserved":false,"is_disabled":false,"rental_uris":{"android":"levelo://app?vid=d47aed91-7c78-4332-84a6-a019f7f9d6d9","ios":"levelo://app?vid=d47aed91-7c78-4332-84a6-a019f7f9d6d9"},"vehicle_type_id":"4","last_reported":1687792088,"current_range_meters":13600,"station_id":"ce4bh692rcd13ifvqea0","pricing_plan_id":"free"},{"bike_id":"1abced47-97ba-42e4-b0a6-ea969e0c1b08","system_id":"levelo_inurba_marseille","lat":43.29092,"lon":5.38136,"is_reserved":false,"is_disabled":false,"rental_uris":{"android":"levelo://app?vid=1abced47-97ba-42e4-b0a6-ea969e0c1b08","ios":"levelo://app?vid=1abced47-97ba-42e4-b0a6-ea969e0c1b08"},"vehicle_type_id":"4","last_reported":1687792088,"current_range_meters":30000,"station_id":"ce4bh512rcd13ifvqe2g","pricing_plan_id":"free"},{"bike_id":"3e706ca8-6725-4cb3-abe5-2e8d1aae1a11","system_id":"levelo_inurba_marseille","lat":43.290995,"lon":5.381361,"is_reserved":false,"is_disabled":false,"rental_uris":{"android":"levelo://app?vid=3e706ca8-6725-4cb3-abe5-2e8d1aae1a11","ios":"levelo://app?vid=3e706ca8-6725-4cb3-abe5-2e8d1aae1a11"},"vehicle_type_id":"4","last_reported":1687792088,"current_range_meters":2800,"station_id":"ce4bh512rcd13ifvqe2g","pricing_plan_id":"free"},{"bike_id":"eadcc7b0-d7c7-4fc2-8213-bb6890b0117a","system_id":"levelo_inurba_marseille","lat":43.29046,"lon":5.38126,"is_reserved":false,"is_disabled":false,"rental_uris":{"android":"levelo://app?vid=eadcc7b0-d7c7-4fc2-8213-bb6890b0117a","ios":"levelo://app?vid=eadcc7b0-d7c7-4fc2-8213-bb6890b0117a"},"vehicle_type_id":"4","last_reported":1687792088,"current_range_meters":10000,"station_id":"","pricing_plan_id":"free"},{"bike_id":"2f26b64d-7a45-4c35-ac61-360b97971276","system_id":"levelo_inurba_marseille","lat":43.28856,"lon":5.358371,"is_reserved":false,"is_disabled":false,"rental_uris":{"android":"levelo://app?vid=2f26b64d-7a45-4c35-ac61-360b97971276","ios":"levelo://app?vid=2f26b64d-7a45-4c35-ac61-360b97971276"},"vehicle_type_id":"4","last_reported":1687792088,"current_range_meters":26400,"station_id":"ce4bhb12rcd13ifvqem0","pricing_plan_id":"free"},{"bike_id":"0666d4e4-b761-488a-8aeb-abe2675ec35f","system_id":"levelo_inurba_marseille","lat":43.29018,"lon":5.38128,"is_reserved":false,"is_disabled":false,"rental_uris":{"android":"levelo://app?vid=0666d4e4-b761-488a-8aeb-abe2675ec35f","ios":"levelo://app?vid=0666d4e4-b761-488a-8aeb-abe2675ec35f"},"vehicle_type_id":"4","last_reported":1687792088,"current_range_meters":24400,"station_id":"ce4bh4p2rcd13ifvqe1g","pricing_plan_id":"free"},{"bike_id":"a16e73ac-1eb9-4f53-9cc7-f91a6d130c7c","system_id":"levelo_inurba_marseille","lat":43.29013,"lon":5.38121,"is_reserved":false,"is_disabled":false,"rental_uris":{"android":"levelo://app?vid=a16e73ac-1eb9-4f53-9cc7-f91a6d130c7c","ios":"levelo://app?vid=a16e73ac-1eb9-4f53-9cc7-f91a6d130c7c"},"vehicle_type_id":"4","last_reported":1687792088,"current_range_meters":4400,"station_id":"","pricing_plan_id":"free"},{"bike_id":"433a3c3e-124e-4fcc-98ff-202699392eae","system_id":"levelo_inurba_marseille","lat":43.28856,"lon":5.358371,"is_reserved":false,"is_disabled":false,"rental_uris":{"android":"levelo://app?vid=433a3c3e-124e-4fcc-98ff-202699392eae","ios":"levelo://app?vid=433a3c3e-124e-4fcc-98ff-202699392eae"},"vehicle_type_id":"4","last_reported":1687792088,"current_range_meters":18400,"station_id":"ce4bhb12rcd13ifvqem0","pricing_plan_id":"free"},{"bike_id":"ff1a1258-cb70-4f7f-b626-a33f5a34a9a8","system_id":"levelo_inurba_marseille","lat":43.28856,"lon":5.358371,"is_reserved":false,"is_disabled":false,"rental_uris":{"android":"levelo://app?vid=ff1a1258-cb70-4f7f-b626-a33f5a34a9a8","ios":"levelo://app?vid=ff1a1258-cb70-4f7f-b626-a33f5a34a9a8"},"vehicle_type_id":"4","last_reported":1687792088,"current_range_meters":20400,"station_id":"ce4bhb12rcd13ifvqem0","pricing_plan_id":"free"},{"bike_id":"eb553cad-9107-4f89-9914-6b5f78b14380","system_id":"levelo_inurba_marseille","lat":43.28856,"lon":5.358371,"is_reserved":false,"is_disabled":false,"rental_uris":{"android":"levelo://app?vid=eb553cad-9107-4f89-9914-6b5f78b14380","ios":"levelo://app?vid=eb553cad-9107-4f89-9914-6b5f78b14380"},"vehicle_type_id":"4","last_reported":1687792088,"current_range_meters":19200,"station_id":"ce4bhb12rcd13ifvqem0","pricing_plan_id":"free"},{"bike_id":"1013f2cf-905e-4232-be3c-6715e40b572d","system_id":"levelo_inurba_marseille","lat":43.28856,"lon":5.358371,"is_reserved":false,"is_disabled":false,"rental_uris":{"android":"levelo://app?vid=1013f2cf-905e-4232-be3c-6715e40b572d","ios":"levelo://app?vid=1013f2cf-905e-4232-be3c-6715e40b572d"},"vehicle_type_id":"4","last_reported":1687792088,"current_range_meters":24400,"station_id":"ce4bhb12rcd13ifvqem0","pricing_plan_id":"free"},{"bike_id":"13f891ad-279d-4f7a-b409-77b315963816","system_id":"levelo_inurba_marseille","lat":43.28856,"lon":5.358371,"is_reserved":false,"is_disabled":false,"rental_uris":{"android":"levelo://app?vid=13f891ad-279d-4f7a-b409-77b315963816","ios":"levelo://app?vid=13f891ad-279d-4f7a-b409-77b315963816"},"vehicle_type_id":"4","last_reported":1687792088,"current_range_meters":31200,"station_id":"ce4bhb12rcd13ifvqem0","pricing_plan_id":"free"},{"bike_id":"939e14ad-d2bc-4507-b554-6f5e5b35ec60","system_id":"levelo_inurba_marseille","lat":43.28856,"lon":5.358371,"is_reserved":false,"is_disabled":false,"rental_uris":{"android":"levelo://app?vid=939e14ad-d2bc-4507-b554-6f5e5b35ec60","ios":"levelo://app?vid=939e14ad-d2bc-4507-b554-6f5e5b35ec60"},"vehicle_type_id":"4","last_reported":1687792088,"current_range_meters":31200,"station_id":"ce4bhb12rcd13ifvqem0","pricing_plan_id":"free"},{"bike_id":"58fe5a96-2cb2-4670-9939-c1bffbdda3aa","system_id":"levelo_inurba_marseille","lat":43.309371,"lon":5.401449,"is_reserved":false,"is_disabled":false,"rental_uris":{"android":"levelo://app?vid=58fe5a96-2cb2-4670-9939-c1bffbdda3aa","ios":"levelo://app?vid=58fe5a96-2cb2-4670-9939-c1bffbdda3aa"},"vehicle_type_id":"4","last_reported":1687792088,"current_range_meters":1600,"station_id":"ce4bgvp2rcd13ifvqct0","pricing_plan_id":"free"},{"bike_id":"c180ae38-f769-441f-8a55-5a6e4930e6ad","system_id":"levelo_inurba_marseille","lat":43.3375,"lon":5.37439,"is_reserved":false,"is_disabled":false,"rental_uris":{"android":"levelo://app?vid=c180ae38-f769-441f-8a55-5a6e4930e6ad","ios":"levelo://app?vid=c180ae38-f769-441f-8a55-5a6e4930e6ad"},"vehicle_type_id":"4","last_reported":1687792088,"current_range_meters":16800,"station_id":"","pricing_plan_id":"free"},{"bike_id":"53ee1c70-d3c8-4e16-9fa7-df50936c0f01","system_id":"levelo_inurba_marseille","lat":43.309371,"lon":5.401449,"is_reserved":false,"is_disabled":false,"rental_uris":{"android":"levelo://app?vid=53ee1c70-d3c8-4e16-9fa7-df50936c0f01","ios":"levelo://app?vid=53ee1c70-d3c8-4e16-9fa7-df50936c0f01"},"vehicle_type_id":"4","last_reported":1687792088,"current_range_meters":24400,"station_id":"ce4bgvp2rcd13ifvqct0","pricing_plan_id":"free"},{"bike_id":"4deea7cc-c52b-4c84-bf3d-a8f9259ab55c","system_id":"levelo_inurba_marseille","lat":43.33755,"lon":5.37443,"is_reserved":false,"is_disabled":false,"rental_uris":{"android":"levelo://app?vid=4deea7cc-c52b-4c84-bf3d-a8f9259ab55c","ios":"levelo://app?vid=4deea7cc-c52b-4c84-bf3d-a8f9259ab55c"},"vehicle_type_id":"4","last_reported":1687792088,"current_range_meters":31200,"station_id":"","pricing_plan_id":"free"},{"bike_id":"3f8a925a-6a54-4259-a38f-9cf091aab246","system_id":"levelo_inurba_marseille","lat":43.29225,"lon":5.38758,"is_reserved":false,"is_disabled":false,"rental_uris":{"android":"levelo://app?vid=3f8a925a-6a54-4259-a38f-9cf091aab246","ios":"levelo://app?vid=3f8a925a-6a54-4259-a38f-9cf091aab246"},"vehicle_type_id":"4","last_reported":1687792088,"current_range_meters":11200,"station_id":"","pricing_plan_id":"free"},{"bike_id":"4364dc3d-bd2e-454e-88ef-ef0c0efd56db","system_id":"levelo_inurba_marseille","lat":43.309371,"lon":5.401449,"is_reserved":false,"is_disabled":false,"rental_uris":{"android":"levelo://app?vid=4364dc3d-bd2e-454e-88ef-ef0c0efd56db","ios":"levelo://app?vid=4364dc3d-bd2e-454e-88ef-ef0c0efd56db"},"vehicle_type_id":"4","last_reported":1687792088,"current_range_meters":27600,"station_id":"ce4bgvp2rcd13ifvqct0","pricing_plan_id":"free"},{"bike_id":"7d49e84f-7a53-47c3-aa3a-055e04e37a07","system_id":"levelo_inurba_marseille","lat":43.33771,"lon":5.37441,"is_reserved":false,"is_disabled":false,"rental_uris":{"android":"levelo://app?vid=7d49e84f-7a53-47c3-aa3a-055e04e37a07","ios":"levelo://app?vid=7d49e84f-7a53-47c3-aa3a-055e04e37a07"},"vehicle_type_id":"4","last_reported":1687792088,"current_range_meters":31200,"station_id":"","pricing_plan_id":"free"},{"bike_id":"f9f3e491-cac3-411a-96e6-d15899bfefe5","system_id":"levelo_inurba_marseille","lat":43.30642,"lon":5.401031,"is_reserved":false,"is_disabled":false,"rental_uris":{"android":"levelo://app?vid=f9f3e491-cac3-411a-96e6-d15899bfefe5","ios":"levelo://app?vid=f9f3e491-cac3-411a-96e6-d15899bfefe5"},"vehicle_type_id":"4","last_reported":1687792088,"current_range_meters":0,"station_id":"ce4bh112rcd13ifvqda0","pricing_plan_id":"free"},{"bike_id":"cf983f7a-a012-45e9-bc16-358474644462","system_id":"levelo_inurba_marseille","lat":43.286961,"lon":5.373785,"is_reserved":false,"is_disabled":false,"rental_uris":{"android":"levelo://app?vid=cf983f7a-a012-45e9-bc16-358474644462","ios":"levelo://app?vid=cf983f7a-a012-45e9-bc16-358474644462"},"vehicle_type_id":"4","last_reported":1687792088,"current_range_meters":19200,"station_id":"ce4bh3p2rcd13ifvqdq0","pricing_plan_id":"free"},{"bike_id":"fdb3587e-b8da-4a06-b54b-3f1d3a96e8c6","system_id":"levelo_inurba_marseille","lat":43.298681,"lon":5.397225,"is_reserved":false,"is_disabled":false,"rental_uris":{"android":"levelo://app?vid=fdb3587e-b8da-4a06-b54b-3f1d3a96e8c6","ios":"levelo://app?vid=fdb3587e-b8da-4a06-b54b-3f1d3a96e8c6"},"vehicle_type_id":"4","last_reported":1687792088,"current_range_meters":0,"station_id":"ce4bh0h2rcd13ifvqd50","pricing_plan_id":"free"},{"bike_id":"9b2628b4-b12d-4c2d-b223-dc2161de31e7","system_id":"levelo_inurba_marseille","lat":43.302759,"lon":5.400793,"is_reserved":false,"is_disabled":false,"rental_uris":{"android":"levelo://app?vid=9b2628b4-b12d-4c2d-b223-dc2161de31e7","ios":"levelo://app?vid=9b2628b4-b12d-4c2d-b223-dc2161de31e7"},"vehicle_type_id":"4","last_reported":1687792088,"current_range_meters":9600,"station_id":"ce4bgvh2rcd13ifvqcs0","pricing_plan_id":"free"},{"bike_id":"d50d3adc-a791-414a-a64b-111cc6d82709","system_id":"levelo_inurba_marseille","lat":43.290336,"lon":5.386425,"is_reserved":false,"is_disabled":false,"rental_uris":{"android":"levelo://app?vid=d50d3adc-a791-414a-a64b-111cc6d82709","ios":"levelo://app?vid=d50d3adc-a791-414a-a64b-111cc6d82709"},"vehicle_type_id":"4","last_reported":1687792088,"current_range_meters":10400,"station_id":"ce4bh4p2rcd13ifvqe0g","pricing_plan_id":"free"},{"bike_id":"0d60cf12-ed10-4912-ab85-fcba416a1dff","system_id":"levelo_inurba_marseille","lat":43.302759,"lon":5.400793,"is_reserved":false,"is_disabled":false,"rental_uris":{"android":"levelo://app?vid=0d60cf12-ed10-4912-ab85-fcba416a1dff","ios":"levelo://app?vid=0d60cf12-ed10-4912-ab85-fcba416a1dff"},"vehicle_type_id":"4","last_reported":1687792088,"current_range_meters":25600,"station_id":"ce4bgvh2rcd13ifvqcs0","pricing_plan_id":"free"},{"bike_id":"b27762c5-0e59-447c-99e6-d73393b75e31","system_id":"levelo_inurba_marseille","lat":43.28721,"lon":5.37937,"is_reserved":false,"is_disabled":false,"rental_uris":{"android":"levelo://app?vid=b27762c5-0e59-447c-99e6-d73393b75e31","ios":"levelo://app?vid=b27762c5-0e59-447c-99e6-d73393b75e31"},"vehicle_type_id":"4","last_reported":1687792088,"current_range_meters":24400,"station_id":"ce4bh9p2rcd13ifvqec0","pricing_plan_id":"free"},{"bike_id":"3f4b85fc-2f82-456a-97dc-17965c06e24d","system_id":"levelo_inurba_marseille","lat":43.316517,"lon":5.404375,"is_reserved":false,"is_disabled":false,"rental_uris":{"android":"levelo://app?vid=3f4b85fc-2f82-456a-97dc-17965c06e24d","ios":"levelo://app?vid=3f4b85fc-2f82-456a-97dc-17965c06e24d"},"vehicle_type_id":"4","last_reported":1687792088,"current_range_meters":800,"station_id":"ce4bh012rcd13ifvqd00","pricing_plan_id":"free"},{"bike_id":"6a200dee-143b-4bb6-ac90-56b4f84e5162","system_id":"levelo_inurba_marseille","lat":43.28945,"lon":5.38718,"is_reserved":false,"is_disabled":false,"rental_uris":{"android":"levelo://app?vid=6a200dee-143b-4bb6-ac90-56b4f84e5162","ios":"levelo://app?vid=6a200dee-143b-4bb6-ac90-56b4f84e5162"},"vehicle_type_id":"4","last_reported":1687792088,"current_range_meters":5200,"station_id":"","pricing_plan_id":"free"},{"bike_id":"9ee8a9ca-0574-4f62-8e73-dddc2ee3519b","system_id":"levelo_inurba_marseille","lat":43.291994,"lon":5.392907,"is_reserved":false,"is_disabled":false,"rental_uris":{"android":"levelo://app?vid=9ee8a9ca-0574-4f62-8e73-dddc2ee3519b","ios":"levelo://app?vid=9ee8a9ca-0574-4f62-8e73-dddc2ee3519b"},"vehicle_type_id":"4","last_reported":1687792088,"current_range_meters":17600,"station_id":"ce4bh192rcd13ifvqdd0","pricing_plan_id":"free"},{"bike_id":"d69fed3a-efe9-46fb-b1dc-1240b8978d3e","system_id":"levelo_inurba_marseille","lat":43.31651,"lon":5.40447,"is_reserved":false,"is_disabled":false,"rental_uris":{"android":"levelo://app?vid=d69fed3a-efe9-46fb-b1dc-1240b8978d3e","ios":"levelo://app?vid=d69fed3a-efe9-46fb-b1dc-1240b8978d3e"},"vehicle_type_id":"4","last_reported":1687792088,"current_range_meters":9200,"station_id":"ce4bh012rcd13ifvqd00","pricing_plan_id":"free"},{"bike_id":"8fdbee42-7e04-446d-88f6-80cb97312411","system_id":"levelo_inurba_marseille","lat":43.29211,"lon":5.39328,"is_reserved":false,"is_disabled":false,"rental_uris":{"android":"levelo://app?vid=8fdbee42-7e04-446d-88f6-80cb97312411","ios":"levelo://app?vid=8fdbee42-7e04-446d-88f6-80cb97312411"},"vehicle_type_id":"4","last_reported":1687792088,"current_range_meters":7200,"station_id":"","pricing_plan_id":"free"},{"bike_id":"84d5ae3a-c099-48ad-87eb-33363a5e608c","system_id":"levelo_inurba_marseille","lat":43.291994,"lon":5.392907,"is_reserved":false,"is_disabled":false,"rental_uris":{"android":"levelo://app?vid=84d5ae3a-c099-48ad-87eb-33363a5e608c","ios":"levelo://app?vid=84d5ae3a-c099-48ad-87eb-33363a5e608c"},"vehicle_type_id":"4","last_reported":1687792088,"current_range_meters":10400,"station_id":"ce4bh192rcd13ifvqdd0","pricing_plan_id":"free"},{"bike_id":"031e545f-4329-436c-84f2-e1f2820f0f5e","system_id":"levelo_inurba_marseille","lat":43.284534,"lon":5.358662,"is_reserved":false,"is_disabled":false,"rental_uris":{"android":"levelo://app?vid=031e545f-4329-436c-84f2-e1f2820f0f5e","ios":"levelo://app?vid=031e545f-4329-436c-84f2-e1f2820f0f5e"},"vehicle_type_id":"4","last_reported":1687792088,"current_range_meters":17600,"station_id":"ce4bhah2rcd13ifvqei0","pricing_plan_id":"free"},{"bike_id":"9aa691b1-bd2c-4241-8f56-85babf1ee9d4","system_id":"levelo_inurba_marseille","lat":43.284534,"lon":5.358662,"is_reserved":false,"is_disabled":false,"rental_uris":{"android":"levelo://app?vid=9aa691b1-bd2c-4241-8f56-85babf1ee9d4","ios":"levelo://app?vid=9aa691b1-bd2c-4241-8f56-85babf1ee9d4"},"vehicle_type_id":"4","last_reported":1687792088,"current_range_meters":20800,"station_id":"ce4bhah2rcd13ifvqei0","pricing_plan_id":"free"},{"bike_id":"432b952b-f1e2-40c1-8ccf-b6a4fbd9511c","system_id":"levelo_inurba_marseille","lat":43.285848,"lon":5.350787,"is_reserved":false,"is_disabled":false,"rental_uris":{"android":"levelo://app?vid=432b952b-f1e2-40c1-8ccf-b6a4fbd9511c","ios":"levelo://app?vid=432b952b-f1e2-40c1-8ccf-b6a4fbd9511c"},"vehicle_type_id":"4","last_reported":1687792088,"current_range_meters":20400,"station_id":"ce4bhch2rcd13ifvqeug","pricing_plan_id":"free"},{"bike_id":"f6913d3c-3242-46c3-badd-a0afa5185d83","system_id":"levelo_inurba_marseille","lat":43.285848,"lon":5.350787,"is_reserved":false,"is_disabled":false,"rental_uris":{"android":"levelo://app?vid=f6913d3c-3242-46c3-badd-a0afa5185d83","ios":"levelo://app?vid=f6913d3c-3242-46c3-badd-a0afa5185d83"},"vehicle_type_id":"4","last_reported":1687792088,"current_range_meters":7200,"station_id":"ce4bhch2rcd13ifvqeug","pricing_plan_id":"free"},{"bike_id":"85d4581f-ec19-416f-adac-fc9ae2c13fc1","system_id":"levelo_inurba_marseille","lat":43.28617,"lon":5.35109,"is_reserved":false,"is_disabled":false,"rental_uris":{"android":"levelo://app?vid=85d4581f-ec19-416f-adac-fc9ae2c13fc1","ios":"levelo://app?vid=85d4581f-ec19-416f-adac-fc9ae2c13fc1"},"vehicle_type_id":"4","last_reported":1687792088,"current_range_meters":20400,"station_id":"ce4bhch2rcd13ifvqeug","pricing_plan_id":"free"},{"bike_id":"fccbbbd8-12ef-4cbc-a586-4d3f98f9f4d9","system_id":"levelo_inurba_marseille","lat":43.28616,"lon":5.3511,"is_reserved":false,"is_disabled":false,"rental_uris":{"android":"levelo://app?vid=fccbbbd8-12ef-4cbc-a586-4d3f98f9f4d9","ios":"levelo://app?vid=fccbbbd8-12ef-4cbc-a586-4d3f98f9f4d9"},"vehicle_type_id":"4","last_reported":1687792088,"current_range_meters":3200,"station_id":"ce4bhch2rcd13ifvqeug","pricing_plan_id":"free"},{"bike_id":"212ae070-8c98-4529-b7ae-7306fd3a83b0","system_id":"levelo_inurba_marseille","lat":43.285848,"lon":5.350787,"is_reserved":false,"is_disabled":false,"rental_uris":{"android":"levelo://app?vid=212ae070-8c98-4529-b7ae-7306fd3a83b0","ios":"levelo://app?vid=212ae070-8c98-4529-b7ae-7306fd3a83b0"},"vehicle_type_id":"4","last_reported":1687792088,"current_range_meters":22800,"station_id":"ce4bhch2rcd13ifvqeug","pricing_plan_id":"free"},{"bike_id":"b4a384af-5969-4ab0-9b61-c886af63ff03","system_id":"levelo_inurba_marseille","lat":43.285848,"lon":5.350787,"is_reserved":false,"is_disabled":false,"rental_uris":{"android":"levelo://app?vid=b4a384af-5969-4ab0-9b61-c886af63ff03","ios":"levelo://app?vid=b4a384af-5969-4ab0-9b61-c886af63ff03"},"vehicle_type_id":"4","last_reported":1687792088,"current_range_meters":31200,"station_id":"ce4bhch2rcd13ifvqeug","pricing_plan_id":"free"},{"bike_id":"40aba745-a38c-4e3f-9126-64e6967a86da","system_id":"levelo_inurba_marseille","lat":43.285856,"lon":5.350771,"is_reserved":false,"is_disabled":false,"rental_uris":{"android":"levelo://app?vid=40aba745-a38c-4e3f-9126-64e6967a86da","ios":"levelo://app?vid=40aba745-a38c-4e3f-9126-64e6967a86da"},"vehicle_type_id":"4","last_reported":1687792088,"current_range_meters":31200,"station_id":"ce4bhch2rcd13ifvqeug","pricing_plan_id":"free"},{"bike_id":"56d331cf-4892-409f-b6c7-19c127b08210","system_id":"levelo_inurba_marseille","lat":43.285856,"lon":5.350771,"is_reserved":false,"is_disabled":false,"rental_uris":{"android":"levelo://app?vid=56d331cf-4892-409f-b6c7-19c127b08210","ios":"levelo://app?vid=56d331cf-4892-409f-b6c7-19c127b08210"},"vehicle_type_id":"4","last_reported":1687792088,"current_range_meters":4000,"station_id":"ce4bhch2rcd13ifvqeug","pricing_plan_id":"free"},{"bike_id":"7f2809c6-c8fd-4a71-b62e-8f23fa5bfab8","system_id":"levelo_inurba_marseille","lat":43.285848,"lon":5.350787,"is_reserved":false,"is_disabled":false,"rental_uris":{"android":"levelo://app?vid=7f2809c6-c8fd-4a71-b62e-8f23fa5bfab8","ios":"levelo://app?vid=7f2809c6-c8fd-4a71-b62e-8f23fa5bfab8"},"vehicle_type_id":"4","last_reported":1687792088,"current_range_meters":12400,"station_id":"ce4bhch2rcd13ifvqeug","pricing_plan_id":"free"},{"bike_id":"cfde89d8-2103-4c4d-9c9b-7210c1922112","system_id":"levelo_inurba_marseille","lat":43.285848,"lon":5.350787,"is_reserved":false,"is_disabled":false,"rental_uris":{"android":"levelo://app?vid=cfde89d8-2103-4c4d-9c9b-7210c1922112","ios":"levelo://app?vid=cfde89d8-2103-4c4d-9c9b-7210c1922112"},"vehicle_type_id":"4","last_reported":1687792088,"current_range_meters":31200,"station_id":"ce4bhch2rcd13ifvqeug","pricing_plan_id":"free"},{"bike_id":"6aaf1367-2efe-4813-8788-12b01d99028a","system_id":"levelo_inurba_marseille","lat":43.285856,"lon":5.350771,"is_reserved":false,"is_disabled":false,"rental_uris":{"android":"levelo://app?vid=6aaf1367-2efe-4813-8788-12b01d99028a","ios":"levelo://app?vid=6aaf1367-2efe-4813-8788-12b01d99028a"},"vehicle_type_id":"4","last_reported":1687792088,"current_range_meters":22800,"station_id":"ce4bhch2rcd13ifvqeug","pricing_plan_id":"free"},{"bike_id":"ac91929b-5196-4476-8399-5c40a44bad91","system_id":"levelo_inurba_marseille","lat":43.285856,"lon":5.350771,"is_reserved":false,"is_disabled":false,"rental_uris":{"android":"levelo://app?vid=ac91929b-5196-4476-8399-5c40a44bad91","ios":"levelo://app?vid=ac91929b-5196-4476-8399-5c40a44bad91"},"vehicle_type_id":"4","last_reported":1687792088,"current_range_meters":6800,"station_id":"ce4bhch2rcd13ifvqeug","pricing_plan_id":"free"},{"bike_id":"56a79f66-f4bf-4b75-8542-d6b9e02e31ff","system_id":"levelo_inurba_marseille","lat":43.285856,"lon":5.350771,"is_reserved":false,"is_disabled":false,"rental_uris":{"android":"levelo://app?vid=56a79f66-f4bf-4b75-8542-d6b9e02e31ff","ios":"levelo://app?vid=56a79f66-f4bf-4b75-8542-d6b9e02e31ff"},"vehicle_type_id":"4","last_reported":1687792088,"current_range_meters":31200,"station_id":"ce4bhch2rcd13ifvqeug","pricing_plan_id":"free"},{"bike_id":"ec0b4c59-f8d4-4ccc-9073-ba4f5671b267","system_id":"levelo_inurba_marseille","lat":43.28612,"lon":5.35108,"is_reserved":false,"is_disabled":false,"rental_uris":{"android":"levelo://app?vid=ec0b4c59-f8d4-4ccc-9073-ba4f5671b267","ios":"levelo://app?vid=ec0b4c59-f8d4-4ccc-9073-ba4f5671b267"},"vehicle_type_id":"4","last_reported":1687792088,"current_range_meters":24800,"station_id":"ce4bhch2rcd13ifvqeug","pricing_plan_id":"free"},{"bike_id":"7266980a-c7c0-42d8-a68f-bad3da5a47eb","system_id":"levelo_inurba_marseille","lat":43.285856,"lon":5.350771,"is_reserved":false,"is_disabled":false,"rental_uris":{"android":"levelo://app?vid=7266980a-c7c0-42d8-a68f-bad3da5a47eb","ios":"levelo://app?vid=7266980a-c7c0-42d8-a68f-bad3da5a47eb"},"vehicle_type_id":"4","last_reported":1687792088,"current_range_meters":23200,"station_id":"ce4bhch2rcd13ifvqeug","pricing_plan_id":"free"},{"bike_id":"f2afd2a9-21d4-42d8-b66f-45393b25e65c","system_id":"levelo_inurba_marseille","lat":43.285848,"lon":5.350787,"is_reserved":false,"is_disabled":false,"rental_uris":{"android":"levelo://app?vid=f2afd2a9-21d4-42d8-b66f-45393b25e65c","ios":"levelo://app?vid=f2afd2a9-21d4-42d8-b66f-45393b25e65c"},"vehicle_type_id":"4","last_reported":1687792088,"current_range_meters":23600,"station_id":"ce4bhch2rcd13ifvqeug","pricing_plan_id":"free"},{"bike_id":"1cbee654-6541-425c-ba7b-3cbe5ed71e32","system_id":"levelo_inurba_marseille","lat":43.286094,"lon":5.350917,"is_reserved":false,"is_disabled":false,"rental_uris":{"android":"levelo://app?vid=1cbee654-6541-425c-ba7b-3cbe5ed71e32","ios":"levelo://app?vid=1cbee654-6541-425c-ba7b-3cbe5ed71e32"},"vehicle_type_id":"4","last_reported":1687792088,"current_range_meters":11200,"station_id":"","pricing_plan_id":"free"},{"bike_id":"5c1e24bb-1b39-4fc4-9567-269b8cc96ed2","system_id":"levelo_inurba_marseille","lat":43.295713,"lon":5.399639,"is_reserved":false,"is_disabled":false,"rental_uris":{"android":"levelo://app?vid=5c1e24bb-1b39-4fc4-9567-269b8cc96ed2","ios":"levelo://app?vid=5c1e24bb-1b39-4fc4-9567-269b8cc96ed2"},"vehicle_type_id":"4","last_reported":1687792088,"current_range_meters":0,"station_id":"ce4bh312rcd13ifvqdj0","pricing_plan_id":"free"},{"bike_id":"82aada2a-0f95-4795-a2df-4df5d96e2629","system_id":"levelo_inurba_marseille","lat":43.284,"lon":5.37528,"is_reserved":false,"is_disabled":false,"rental_uris":{"android":"levelo://app?vid=82aada2a-0f95-4795-a2df-4df5d96e2629","ios":"levelo://app?vid=82aada2a-0f95-4795-a2df-4df5d96e2629"},"vehicle_type_id":"4","last_reported":1687792088,"current_range_meters":27600,"station_id":"","pricing_plan_id":"free"},{"bike_id":"2187b44a-99c2-400c-b250-059bd2ccd0e7","system_id":"levelo_inurba_marseille","lat":43.283998,"lon":5.375062,"is_reserved":false,"is_disabled":false,"rental_uris":{"android":"levelo://app?vid=2187b44a-99c2-400c-b250-059bd2ccd0e7","ios":"levelo://app?vid=2187b44a-99c2-400c-b250-059bd2ccd0e7"},"vehicle_type_id":"4","last_reported":1687792088,"current_range_meters":27600,"station_id":"ce4bh412rcd13ifvqds0","pricing_plan_id":"free"},{"bike_id":"8b65c78f-5661-4331-9f2c-0a3c73285901","system_id":"levelo_inurba_marseille","lat":43.286595,"lon":5.386795,"is_reserved":false,"is_disabled":false,"rental_uris":{"android":"levelo://app?vid=8b65c78f-5661-4331-9f2c-0a3c73285901","ios":"levelo://app?vid=8b65c78f-5661-4331-9f2c-0a3c73285901"},"vehicle_type_id":"4","last_reported":1687792088,"current_range_meters":21200,"station_id":"ce4bh492rcd13ifvqdug","pricing_plan_id":"free"},{"bike_id":"cabfabe2-feb7-428e-8e07-d5dd6f445b99","system_id":"levelo_inurba_marseille","lat":43.286595,"lon":5.386795,"is_reserved":false,"is_disabled":false,"rental_uris":{"android":"levelo://app?vid=cabfabe2-feb7-428e-8e07-d5dd6f445b99","ios":"levelo://app?vid=cabfabe2-feb7-428e-8e07-d5dd6f445b99"},"vehicle_type_id":"4","last_reported":1687792088,"current_range_meters":0,"station_id":"ce4bh492rcd13ifvqdug","pricing_plan_id":"free"},{"bike_id":"a5066c50-405b-4fa5-ae90-49dcca84510f","system_id":"levelo_inurba_marseille","lat":43.286595,"lon":5.386795,"is_reserved":false,"is_disabled":false,"rental_uris":{"android":"levelo://app?vid=a5066c50-405b-4fa5-ae90-49dcca84510f","ios":"levelo://app?vid=a5066c50-405b-4fa5-ae90-49dcca84510f"},"vehicle_type_id":"4","last_reported":1687792088,"current_range_meters":22800,"station_id":"ce4bh492rcd13ifvqdug","pricing_plan_id":"free"},{"bike_id":"87680fc2-1848-4cdb-801b-d91cac955d75","system_id":"levelo_inurba_marseille","lat":43.304188,"lon":5.412904,"is_reserved":false,"is_disabled":false,"rental_uris":{"android":"levelo://app?vid=87680fc2-1848-4cdb-801b-d91cac955d75","ios":"levelo://app?vid=87680fc2-1848-4cdb-801b-d91cac955d75"},"vehicle_type_id":"4","last_reported":1687792088,"current_range_meters":6800,"station_id":"ce4bhop2rcd13ifvqh8g","pricing_plan_id":"free"},{"bike_id":"e1c41ebe-c45a-42c8-8249-21aa680cb70e","system_id":"levelo_inurba_marseille","lat":43.323464,"lon":5.406297,"is_reserved":false,"is_disabled":false,"rental_uris":{"android":"levelo://app?vid=e1c41ebe-c45a-42c8-8249-21aa680cb70e","ios":"levelo://app?vid=e1c41ebe-c45a-42c8-8249-21aa680cb70e"},"vehicle_type_id":"4","last_reported":1687792088,"current_range_meters":12800,"station_id":"ce4bhq92rcd13ifvqhjg","pricing_plan_id":"free"},{"bike_id":"47cf2591-be30-4574-b81b-5471f953e13f","system_id":"levelo_inurba_marseille","lat":43.323464,"lon":5.406297,"is_reserved":false,"is_disabled":false,"rental_uris":{"android":"levelo://app?vid=47cf2591-be30-4574-b81b-5471f953e13f","ios":"levelo://app?vid=47cf2591-be30-4574-b81b-5471f953e13f"},"vehicle_type_id":"4","last_reported":1687792088,"current_range_meters":25600,"station_id":"ce4bhq92rcd13ifvqhjg","pricing_plan_id":"free"},{"bike_id":"d30718d0-ce13-4258-bc59-cee14b6ca10f","system_id":"levelo_inurba_marseille","lat":43.284787,"lon":5.384116,"is_reserved":false,"is_disabled":false,"rental_uris":{"android":"levelo://app?vid=d30718d0-ce13-4258-bc59-cee14b6ca10f","ios":"levelo://app?vid=d30718d0-ce13-4258-bc59-cee14b6ca10f"},"vehicle_type_id":"4","last_reported":1687792088,"current_range_meters":400,"station_id":"ce4bh512rcd13ifvqe3g","pricing_plan_id":"free"},{"bike_id":"1bd9bb2f-e3c0-4af4-b6b3-4b4be1cc100c","system_id":"levelo_inurba_marseille","lat":43.28468,"lon":5.38426,"is_reserved":false,"is_disabled":false,"rental_uris":{"android":"levelo://app?vid=1bd9bb2f-e3c0-4af4-b6b3-4b4be1cc100c","ios":"levelo://app?vid=1bd9bb2f-e3c0-4af4-b6b3-4b4be1cc100c"},"vehicle_type_id":"4","last_reported":1687792088,"current_range_meters":22400,"station_id":"ce4bh512rcd13ifvqe3g","pricing_plan_id":"free"},{"bike_id":"b4c950db-352f-4a1a-8e3c-c05101a6dad0","system_id":"levelo_inurba_marseille","lat":43.288497,"lon":5.393089,"is_reserved":false,"is_disabled":false,"rental_uris":{"android":"levelo://app?vid=b4c950db-352f-4a1a-8e3c-c05101a6dad0","ios":"levelo://app?vid=b4c950db-352f-4a1a-8e3c-c05101a6dad0"},"vehicle_type_id":"4","last_reported":1687792088,"current_range_meters":30800,"station_id":"ce4bh2p2rcd13ifvqdi0","pricing_plan_id":"free"},{"bike_id":"b14834f5-19e3-4944-840f-a0da21275289","system_id":"levelo_inurba_marseille","lat":43.30667,"lon":5.40856,"is_reserved":false,"is_disabled":false,"rental_uris":{"android":"levelo://app?vid=b14834f5-19e3-4944-840f-a0da21275289","ios":"levelo://app?vid=b14834f5-19e3-4944-840f-a0da21275289"},"vehicle_type_id":"4","last_reported":1687792088,"current_range_meters":6400,"station_id":"","pricing_plan_id":"free"},{"bike_id":"69e03a59-eaed-45e0-a5fb-304a277bceae","system_id":"levelo_inurba_marseille","lat":43.284219,"lon":5.3497,"is_reserved":false,"is_disabled":false,"rental_uris":{"android":"levelo://app?vid=69e03a59-eaed-45e0-a5fb-304a277bceae","ios":"levelo://app?vid=69e03a59-eaed-45e0-a5fb-304a277bceae"},"vehicle_type_id":"4","last_reported":1687792088,"current_range_meters":31200,"station_id":"ce4bhbh2rcd13ifvqepg","pricing_plan_id":"free"},{"bike_id":"66020921-b1b7-4d9d-b40f-dc563be6341b","system_id":"levelo_inurba_marseille","lat":43.284219,"lon":5.3497,"is_reserved":false,"is_disabled":false,"rental_uris":{"android":"levelo://app?vid=66020921-b1b7-4d9d-b40f-dc563be6341b","ios":"levelo://app?vid=66020921-b1b7-4d9d-b40f-dc563be6341b"},"vehicle_type_id":"4","last_reported":1687792088,"current_range_meters":29600,"station_id":"ce4bhbh2rcd13ifvqepg","pricing_plan_id":"free"},{"bike_id":"69d8dc3f-1e9f-4a3f-9cac-b821bcb0e023","system_id":"levelo_inurba_marseille","lat":43.284219,"lon":5.3497,"is_reserved":false,"is_disabled":false,"rental_uris":{"android":"levelo://app?vid=69d8dc3f-1e9f-4a3f-9cac-b821bcb0e023","ios":"levelo://app?vid=69d8dc3f-1e9f-4a3f-9cac-b821bcb0e023"},"vehicle_type_id":"4","last_reported":1687792088,"current_range_meters":30400,"station_id":"ce4bhbh2rcd13ifvqepg","pricing_plan_id":"free"},{"bike_id":"624047cf-25f9-45ab-b698-f80baae9e30c","system_id":"levelo_inurba_marseille","lat":43.284217,"lon":5.349697,"is_reserved":false,"is_disabled":false,"rental_uris":{"android":"levelo://app?vid=624047cf-25f9-45ab-b698-f80baae9e30c","ios":"levelo://app?vid=624047cf-25f9-45ab-b698-f80baae9e30c"},"vehicle_type_id":"4","last_reported":1687792088,"current_range_meters":31200,"station_id":"ce4bhbh2rcd13ifvqepg","pricing_plan_id":"free"},{"bike_id":"f9882f82-2b3f-4aa6-ba6f-2fb3f3c2405a","system_id":"levelo_inurba_marseille","lat":43.284219,"lon":5.3497,"is_reserved":false,"is_disabled":false,"rental_uris":{"android":"levelo://app?vid=f9882f82-2b3f-4aa6-ba6f-2fb3f3c2405a","ios":"levelo://app?vid=f9882f82-2b3f-4aa6-ba6f-2fb3f3c2405a"},"vehicle_type_id":"4","last_reported":1687792088,"current_range_meters":30000,"station_id":"ce4bhbh2rcd13ifvqepg","pricing_plan_id":"free"},{"bike_id":"589b4c4b-8a45-430d-a955-efece629a7ea","system_id":"levelo_inurba_marseille","lat":43.284219,"lon":5.3497,"is_reserved":false,"is_disabled":false,"rental_uris":{"android":"levelo://app?vid=589b4c4b-8a45-430d-a955-efece629a7ea","ios":"levelo://app?vid=589b4c4b-8a45-430d-a955-efece629a7ea"},"vehicle_type_id":"4","last_reported":1687792088,"current_range_meters":31200,"station_id":"ce4bhbh2rcd13ifvqepg","pricing_plan_id":"free"},{"bike_id":"0bcef534-0f8d-405a-8710-4924b0a56611","system_id":"levelo_inurba_marseille","lat":43.284217,"lon":5.349697,"is_reserved":false,"is_disabled":false,"rental_uris":{"android":"levelo://app?vid=0bcef534-0f8d-405a-8710-4924b0a56611","ios":"levelo://app?vid=0bcef534-0f8d-405a-8710-4924b0a56611"},"vehicle_type_id":"4","last_reported":1687792088,"current_range_meters":31200,"station_id":"ce4bhbh2rcd13ifvqepg","pricing_plan_id":"free"},{"bike_id":"04078fcd-62a8-4652-81d6-c1e8218dbff2","system_id":"levelo_inurba_marseille","lat":43.284219,"lon":5.3497,"is_reserved":false,"is_disabled":false,"rental_uris":{"android":"levelo://app?vid=04078fcd-62a8-4652-81d6-c1e8218dbff2","ios":"levelo://app?vid=04078fcd-62a8-4652-81d6-c1e8218dbff2"},"vehicle_type_id":"4","last_reported":1687792088,"current_range_meters":31200,"station_id":"ce4bhbh2rcd13ifvqepg","pricing_plan_id":"free"},{"bike_id":"c8cd8e7a-4128-467d-b1a8-bd931b6aaa71","system_id":"levelo_inurba_marseille","lat":43.284217,"lon":5.349697,"is_reserved":false,"is_disabled":false,"rental_uris":{"android":"levelo://app?vid=c8cd8e7a-4128-467d-b1a8-bd931b6aaa71","ios":"levelo://app?vid=c8cd8e7a-4128-467d-b1a8-bd931b6aaa71"},"vehicle_type_id":"4","last_reported":1687792088,"current_range_meters":27200,"station_id":"ce4bhbh2rcd13ifvqepg","pricing_plan_id":"free"},{"bike_id":"868a7975-7b76-4ee6-b9fd-40bc721a83a4","system_id":"levelo_inurba_marseille","lat":43.284219,"lon":5.3497,"is_reserved":false,"is_disabled":false,"rental_uris":{"android":"levelo://app?vid=868a7975-7b76-4ee6-b9fd-40bc721a83a4","ios":"levelo://app?vid=868a7975-7b76-4ee6-b9fd-40bc721a83a4"},"vehicle_type_id":"4","last_reported":1687792088,"current_range_meters":27600,"station_id":"ce4bhbh2rcd13ifvqepg","pricing_plan_id":"free"},{"bike_id":"2d4de619-580b-4234-bafd-70983b7ff789","system_id":"levelo_inurba_marseille","lat":43.284217,"lon":5.349697,"is_reserved":false,"is_disabled":false,"rental_uris":{"android":"levelo://app?vid=2d4de619-580b-4234-bafd-70983b7ff789","ios":"levelo://app?vid=2d4de619-580b-4234-bafd-70983b7ff789"},"vehicle_type_id":"4","last_reported":1687792088,"current_range_meters":31200,"station_id":"ce4bhbh2rcd13ifvqepg","pricing_plan_id":"free"},{"bike_id":"d2af83a8-fff0-4019-9e29-acccf7f3f849","system_id":"levelo_inurba_marseille","lat":43.284217,"lon":5.349697,"is_reserved":false,"is_disabled":false,"rental_uris":{"android":"levelo://app?vid=d2af83a8-fff0-4019-9e29-acccf7f3f849","ios":"levelo://app?vid=d2af83a8-fff0-4019-9e29-acccf7f3f849"},"vehicle_type_id":"4","last_reported":1687792088,"current_range_meters":31200,"station_id":"ce4bhbh2rcd13ifvqepg","pricing_plan_id":"free"},{"bike_id":"fe66b7d7-d9f0-446e-adad-adfe6b9cdd5d","system_id":"levelo_inurba_marseille","lat":43.284217,"lon":5.349697,"is_reserved":false,"is_disabled":false,"rental_uris":{"android":"levelo://app?vid=fe66b7d7-d9f0-446e-adad-adfe6b9cdd5d","ios":"levelo://app?vid=fe66b7d7-d9f0-446e-adad-adfe6b9cdd5d"},"vehicle_type_id":"4","last_reported":1687792088,"current_range_meters":19200,"station_id":"ce4bhbh2rcd13ifvqepg","pricing_plan_id":"free"},{"bike_id":"22596897-b6ed-462e-b21f-45529d9e3162","system_id":"levelo_inurba_marseille","lat":43.284217,"lon":5.349697,"is_reserved":false,"is_disabled":false,"rental_uris":{"android":"levelo://app?vid=22596897-b6ed-462e-b21f-45529d9e3162","ios":"levelo://app?vid=22596897-b6ed-462e-b21f-45529d9e3162"},"vehicle_type_id":"4","last_reported":1687792088,"current_range_meters":30000,"station_id":"ce4bhbh2rcd13ifvqepg","pricing_plan_id":"free"},{"bike_id":"daa5303f-5ad4-420e-8ff7-ad35868fc547","system_id":"levelo_inurba_marseille","lat":43.284217,"lon":5.349697,"is_reserved":false,"is_disabled":false,"rental_uris":{"android":"levelo://app?vid=daa5303f-5ad4-420e-8ff7-ad35868fc547","ios":"levelo://app?vid=daa5303f-5ad4-420e-8ff7-ad35868fc547"},"vehicle_type_id":"4","last_reported":1687792088,"current_range_meters":31600,"station_id":"ce4bhbh2rcd13ifvqepg","pricing_plan_id":"free"},{"bike_id":"8957d524-f5b4-4034-925e-96cacef29c5a","system_id":"levelo_inurba_marseille","lat":43.30627,"lon":5.4092,"is_reserved":false,"is_disabled":false,"rental_uris":{"android":"levelo://app?vid=8957d524-f5b4-4034-925e-96cacef29c5a","ios":"levelo://app?vid=8957d524-f5b4-4034-925e-96cacef29c5a"},"vehicle_type_id":"4","last_reported":1687792088,"current_range_meters":0,"station_id":"","pricing_plan_id":"free"},{"bike_id":"31d8f23c-30fd-4bd5-9e7a-a837f9d23cf3","system_id":"levelo_inurba_marseille","lat":43.32036,"lon":5.40986,"is_reserved":false,"is_disabled":false,"rental_uris":{"android":"levelo://app?vid=31d8f23c-30fd-4bd5-9e7a-a837f9d23cf3","ios":"levelo://app?vid=31d8f23c-30fd-4bd5-9e7a-a837f9d23cf3"},"vehicle_type_id":"4","last_reported":1687792088,"current_range_meters":3200,"station_id":"","pricing_plan_id":"free"},{"bike_id":"a1424db8-2188-4600-954d-67b58858f08c","system_id":"levelo_inurba_marseille","lat":43.282744,"lon":5.350533,"is_reserved":false,"is_disabled":false,"rental_uris":{"android":"levelo://app?vid=a1424db8-2188-4600-954d-67b58858f08c","ios":"levelo://app?vid=a1424db8-2188-4600-954d-67b58858f08c"},"vehicle_type_id":"4","last_reported":1687792088,"current_range_meters":18400,"station_id":"ce4bhbp2rcd13ifvqerg","pricing_plan_id":"free"},{"bike_id":"b5808814-4ee0-4163-852a-5cd61faafa74","system_id":"levelo_inurba_marseille","lat":43.28271,"lon":5.35085,"is_reserved":false,"is_disabled":false,"rental_uris":{"android":"levelo://app?vid=b5808814-4ee0-4163-852a-5cd61faafa74","ios":"levelo://app?vid=b5808814-4ee0-4163-852a-5cd61faafa74"},"vehicle_type_id":"4","last_reported":1687792088,"current_range_meters":21600,"station_id":"ce4bhbp2rcd13ifvqerg","pricing_plan_id":"free"},{"bike_id":"cda99336-10c5-40c8-98cc-c0898414f479","system_id":"levelo_inurba_marseille","lat":43.28267,"lon":5.35084,"is_reserved":false,"is_disabled":false,"rental_uris":{"android":"levelo://app?vid=cda99336-10c5-40c8-98cc-c0898414f479","ios":"levelo://app?vid=cda99336-10c5-40c8-98cc-c0898414f479"},"vehicle_type_id":"4","last_reported":1687792088,"current_range_meters":31200,"station_id":"ce4bhbp2rcd13ifvqerg","pricing_plan_id":"free"},{"bike_id":"dcdba25a-8422-4333-9647-f0064e013cbd","system_id":"levelo_inurba_marseille","lat":43.28267,"lon":5.35082,"is_reserved":false,"is_disabled":false,"rental_uris":{"android":"levelo://app?vid=dcdba25a-8422-4333-9647-f0064e013cbd","ios":"levelo://app?vid=dcdba25a-8422-4333-9647-f0064e013cbd"},"vehicle_type_id":"4","last_reported":1687792088,"current_range_meters":17600,"station_id":"ce4bhbp2rcd13ifvqerg","pricing_plan_id":"free"},{"bike_id":"e1c33f08-ba93-4fb4-b0b4-53944aa21749","system_id":"levelo_inurba_marseille","lat":43.282744,"lon":5.350533,"is_reserved":false,"is_disabled":false,"rental_uris":{"android":"levelo://app?vid=e1c33f08-ba93-4fb4-b0b4-53944aa21749","ios":"levelo://app?vid=e1c33f08-ba93-4fb4-b0b4-53944aa21749"},"vehicle_type_id":"4","last_reported":1687792088,"current_range_meters":31200,"station_id":"ce4bhbp2rcd13ifvqerg","pricing_plan_id":"free"},{"bike_id":"b4189f93-dca9-42d6-a5af-2139b081c391","system_id":"levelo_inurba_marseille","lat":43.282744,"lon":5.350533,"is_reserved":false,"is_disabled":false,"rental_uris":{"android":"levelo://app?vid=b4189f93-dca9-42d6-a5af-2139b081c391","ios":"levelo://app?vid=b4189f93-dca9-42d6-a5af-2139b081c391"},"vehicle_type_id":"4","last_reported":1687792088,"current_range_meters":8400,"station_id":"ce4bhbp2rcd13ifvqerg","pricing_plan_id":"free"},{"bike_id":"1562a543-b97b-46ec-9a71-6f76717c2ba4","system_id":"levelo_inurba_marseille","lat":43.2827,"lon":5.35066,"is_reserved":false,"is_disabled":false,"rental_uris":{"android":"levelo://app?vid=1562a543-b97b-46ec-9a71-6f76717c2ba4","ios":"levelo://app?vid=1562a543-b97b-46ec-9a71-6f76717c2ba4"},"vehicle_type_id":"4","last_reported":1687792088,"current_range_meters":15200,"station_id":"ce4bhbp2rcd13ifvqerg","pricing_plan_id":"free"},{"bike_id":"ba83f7d1-ecc4-45be-8031-50912710ba28","system_id":"levelo_inurba_marseille","lat":43.28271,"lon":5.35059,"is_reserved":false,"is_disabled":false,"rental_uris":{"android":"levelo://app?vid=ba83f7d1-ecc4-45be-8031-50912710ba28","ios":"levelo://app?vid=ba83f7d1-ecc4-45be-8031-50912710ba28"},"vehicle_type_id":"4","last_reported":1687792088,"current_range_meters":2000,"station_id":"ce4bhbp2rcd13ifvqerg","pricing_plan_id":"free"},{"bike_id":"794a8cb7-c2c7-4c87-bffe-13cdfb6bd6d7","system_id":"levelo_inurba_marseille","lat":43.28268,"lon":5.35063,"is_reserved":false,"is_disabled":false,"rental_uris":{"android":"levelo://app?vid=794a8cb7-c2c7-4c87-bffe-13cdfb6bd6d7","ios":"levelo://app?vid=794a8cb7-c2c7-4c87-bffe-13cdfb6bd6d7"},"vehicle_type_id":"4","last_reported":1687792088,"current_range_meters":22400,"station_id":"ce4bhbp2rcd13ifvqerg","pricing_plan_id":"free"},{"bike_id":"f0da5c07-90d7-4ec3-8790-0124fdf03b02","system_id":"levelo_inurba_marseille","lat":43.282744,"lon":5.350533,"is_reserved":false,"is_disabled":false,"rental_uris":{"android":"levelo://app?vid=f0da5c07-90d7-4ec3-8790-0124fdf03b02","ios":"levelo://app?vid=f0da5c07-90d7-4ec3-8790-0124fdf03b02"},"vehicle_type_id":"4","last_reported":1687792088,"current_range_meters":31200,"station_id":"ce4bhbp2rcd13ifvqerg","pricing_plan_id":"free"},{"bike_id":"bf165092-88de-4be6-b8fa-ffcd673ef145","system_id":"levelo_inurba_marseille","lat":43.282682,"lon":5.350526,"is_reserved":false,"is_disabled":false,"rental_uris":{"android":"levelo://app?vid=bf165092-88de-4be6-b8fa-ffcd673ef145","ios":"levelo://app?vid=bf165092-88de-4be6-b8fa-ffcd673ef145"},"vehicle_type_id":"4","last_reported":1687792088,"current_range_meters":31200,"station_id":"","pricing_plan_id":"free"},{"bike_id":"ca1ee08e-14be-4d12-af22-57e172fc9cf3","system_id":"levelo_inurba_marseille","lat":43.28264,"lon":5.350569,"is_reserved":false,"is_disabled":false,"rental_uris":{"android":"levelo://app?vid=ca1ee08e-14be-4d12-af22-57e172fc9cf3","ios":"levelo://app?vid=ca1ee08e-14be-4d12-af22-57e172fc9cf3"},"vehicle_type_id":"4","last_reported":1687792088,"current_range_meters":12400,"station_id":"ce4bhbp2rcd13ifvqerg","pricing_plan_id":"free"},{"bike_id":"7bcfea63-2e91-4f95-90fd-276ecefc3dd2","system_id":"levelo_inurba_marseille","lat":43.28042,"lon":5.36958,"is_reserved":false,"is_disabled":false,"rental_uris":{"android":"levelo://app?vid=7bcfea63-2e91-4f95-90fd-276ecefc3dd2","ios":"levelo://app?vid=7bcfea63-2e91-4f95-90fd-276ecefc3dd2"},"vehicle_type_id":"4","last_reported":1687792088,"current_range_meters":27200,"station_id":"","pricing_plan_id":"free"},{"bike_id":"122aa833-7b12-40a8-a916-2dc2483d4720","system_id":"levelo_inurba_marseille","lat":43.283502,"lon":5.386471,"is_reserved":false,"is_disabled":false,"rental_uris":{"android":"levelo://app?vid=122aa833-7b12-40a8-a916-2dc2483d4720","ios":"levelo://app?vid=122aa833-7b12-40a8-a916-2dc2483d4720"},"vehicle_type_id":"4","last_reported":1687792088,"current_range_meters":4800,"station_id":"ce4bh492rcd13ifvqdvg","pricing_plan_id":"free"},{"bike_id":"f8b42c49-ec30-464e-88f3-de83afdc85e2","system_id":"levelo_inurba_marseille","lat":43.280382,"lon":5.369291,"is_reserved":false,"is_disabled":false,"rental_uris":{"android":"levelo://app?vid=f8b42c49-ec30-464e-88f3-de83afdc85e2","ios":"levelo://app?vid=f8b42c49-ec30-464e-88f3-de83afdc85e2"},"vehicle_type_id":"4","last_reported":1687792088,"current_range_meters":25200,"station_id":"ce4bha12rcd13ifvqef0","pricing_plan_id":"free"},{"bike_id":"8fd2f3b3-16e5-4f64-b3bc-dca329a23000","system_id":"levelo_inurba_marseille","lat":43.282744,"lon":5.350533,"is_reserved":false,"is_disabled":false,"rental_uris":{"android":"levelo://app?vid=8fd2f3b3-16e5-4f64-b3bc-dca329a23000","ios":"levelo://app?vid=8fd2f3b3-16e5-4f64-b3bc-dca329a23000"},"vehicle_type_id":"4","last_reported":1687792088,"current_range_meters":24000,"station_id":"ce4bhbp2rcd13ifvqerg","pricing_plan_id":"free"},{"bike_id":"3ac29630-6bd6-463b-8d7b-552ecabc9f2f","system_id":"levelo_inurba_marseille","lat":43.28259,"lon":5.350557,"is_reserved":false,"is_disabled":false,"rental_uris":{"android":"levelo://app?vid=3ac29630-6bd6-463b-8d7b-552ecabc9f2f","ios":"levelo://app?vid=3ac29630-6bd6-463b-8d7b-552ecabc9f2f"},"vehicle_type_id":"4","last_reported":1687792088,"current_range_meters":12000,"station_id":"ce4bhbp2rcd13ifvqerg","pricing_plan_id":"free"},{"bike_id":"cfb34fa6-545f-491c-834e-6ef0089fe1fe","system_id":"levelo_inurba_marseille","lat":43.282744,"lon":5.350533,"is_reserved":false,"is_disabled":false,"rental_uris":{"android":"levelo://app?vid=cfb34fa6-545f-491c-834e-6ef0089fe1fe","ios":"levelo://app?vid=cfb34fa6-545f-491c-834e-6ef0089fe1fe"},"vehicle_type_id":"4","last_reported":1687792088,"current_range_meters":10000,"station_id":"ce4bhbp2rcd13ifvqerg","pricing_plan_id":"free"},{"bike_id":"56099592-2bbd-4175-892c-0b9644e46744","system_id":"levelo_inurba_marseille","lat":43.282744,"lon":5.350533,"is_reserved":false,"is_disabled":false,"rental_uris":{"android":"levelo://app?vid=56099592-2bbd-4175-892c-0b9644e46744","ios":"levelo://app?vid=56099592-2bbd-4175-892c-0b9644e46744"},"vehicle_type_id":"4","last_reported":1687792088,"current_range_meters":15200,"station_id":"ce4bhbp2rcd13ifvqerg","pricing_plan_id":"free"},{"bike_id":"340d1b2e-eca8-4555-8df5-ae6f99a8e24f","system_id":"levelo_inurba_marseille","lat":43.29571,"lon":5.40518,"is_reserved":false,"is_disabled":false,"rental_uris":{"android":"levelo://app?vid=340d1b2e-eca8-4555-8df5-ae6f99a8e24f","ios":"levelo://app?vid=340d1b2e-eca8-4555-8df5-ae6f99a8e24f"},"vehicle_type_id":"4","last_reported":1687792088,"current_range_meters":18400,"station_id":"","pricing_plan_id":"free"},{"bike_id":"b6e63db4-bcf7-40dc-bc51-937e8a76db79","system_id":"levelo_inurba_marseille","lat":43.284462,"lon":5.392121,"is_reserved":false,"is_disabled":false,"rental_uris":{"android":"levelo://app?vid=b6e63db4-bcf7-40dc-bc51-937e8a76db79","ios":"levelo://app?vid=b6e63db4-bcf7-40dc-bc51-937e8a76db79"},"vehicle_type_id":"4","last_reported":1687792088,"current_range_meters":30800,"station_id":"ce4bhoh2rcd13ifvqh5g","pricing_plan_id":"free"},{"bike_id":"45251535-53df-4e75-85d8-3404a29acb5f","system_id":"levelo_inurba_marseille","lat":43.28573,"lon":5.394992,"is_reserved":false,"is_disabled":false,"rental_uris":{"android":"levelo://app?vid=45251535-53df-4e75-85d8-3404a29acb5f","ios":"levelo://app?vid=45251535-53df-4e75-85d8-3404a29acb5f"},"vehicle_type_id":"4","last_reported":1687792088,"current_range_meters":30400,"station_id":"ce4bh292rcd13ifvqdg0","pricing_plan_id":"free"},{"bike_id":"2a45a1c7-80f6-419e-a019-ef87509a817a","system_id":"levelo_inurba_marseille","lat":43.326605,"lon":5.409903,"is_reserved":false,"is_disabled":false,"rental_uris":{"android":"levelo://app?vid=2a45a1c7-80f6-419e-a019-ef87509a817a","ios":"levelo://app?vid=2a45a1c7-80f6-419e-a019-ef87509a817a"},"vehicle_type_id":"4","last_reported":1687792088,"current_range_meters":30000,"station_id":"ce4bhpp2rcd13ifvqhgg","pricing_plan_id":"free"},{"bike_id":"0c9eee73-532e-4f1f-8b23-5a0693e22298","system_id":"levelo_inurba_marseille","lat":43.32658,"lon":5.40996,"is_reserved":false,"is_disabled":false,"rental_uris":{"android":"levelo://app?vid=0c9eee73-532e-4f1f-8b23-5a0693e22298","ios":"levelo://app?vid=0c9eee73-532e-4f1f-8b23-5a0693e22298"},"vehicle_type_id":"4","last_reported":1687792088,"current_range_meters":28000,"station_id":"ce4bhpp2rcd13ifvqhgg","pricing_plan_id":"free"},{"bike_id":"7f4e5f33-3d6b-4470-b773-9bb881f7fc86","system_id":"levelo_inurba_marseille","lat":43.326551,"lon":5.409982,"is_reserved":false,"is_disabled":false,"rental_uris":{"android":"levelo://app?vid=7f4e5f33-3d6b-4470-b773-9bb881f7fc86","ios":"levelo://app?vid=7f4e5f33-3d6b-4470-b773-9bb881f7fc86"},"vehicle_type_id":"4","last_reported":1687792088,"current_range_meters":0,"station_id":"ce4bhpp2rcd13ifvqhgg","pricing_plan_id":"free"},{"bike_id":"9f3db0a4-63b4-4dc1-8e5f-d42d6781149c","system_id":"levelo_inurba_marseille","lat":43.32643,"lon":5.41045,"is_reserved":false,"is_disabled":false,"rental_uris":{"android":"levelo://app?vid=9f3db0a4-63b4-4dc1-8e5f-d42d6781149c","ios":"levelo://app?vid=9f3db0a4-63b4-4dc1-8e5f-d42d6781149c"},"vehicle_type_id":"4","last_reported":1687792088,"current_range_meters":31200,"station_id":"","pricing_plan_id":"free"},{"bike_id":"50fd953c-9754-45f4-aec7-ae52bb9eb6fe","system_id":"levelo_inurba_marseille","lat":43.287154,"lon":5.399979,"is_reserved":false,"is_disabled":false,"rental_uris":{"android":"levelo://app?vid=50fd953c-9754-45f4-aec7-ae52bb9eb6fe","ios":"levelo://app?vid=50fd953c-9754-45f4-aec7-ae52bb9eb6fe"},"vehicle_type_id":"4","last_reported":1687792088,"current_range_meters":31200,"station_id":"ce4bho92rcd13ifvqh3g","pricing_plan_id":"free"},{"bike_id":"0124ded5-fc20-4012-9150-34bfc18ae2af","system_id":"levelo_inurba_marseille","lat":43.320045,"lon":5.415046,"is_reserved":false,"is_disabled":false,"rental_uris":{"android":"levelo://app?vid=0124ded5-fc20-4012-9150-34bfc18ae2af","ios":"levelo://app?vid=0124ded5-fc20-4012-9150-34bfc18ae2af"},"vehicle_type_id":"4","last_reported":1687792088,"current_range_meters":30000,"station_id":"ce4bhq92rcd13ifvqhkg","pricing_plan_id":"free"},{"bike_id":"6b031be3-7213-4476-9a56-74aaf286f633","system_id":"levelo_inurba_marseille","lat":43.320045,"lon":5.415048,"is_reserved":false,"is_disabled":false,"rental_uris":{"android":"levelo://app?vid=6b031be3-7213-4476-9a56-74aaf286f633","ios":"levelo://app?vid=6b031be3-7213-4476-9a56-74aaf286f633"},"vehicle_type_id":"4","last_reported":1687792088,"current_range_meters":7200,"station_id":"ce4bhq92rcd13ifvqhkg","pricing_plan_id":"free"},{"bike_id":"ba92127c-b9e2-4095-9018-e9229b7e608d","system_id":"levelo_inurba_marseille","lat":43.27974,"lon":5.38737,"is_reserved":false,"is_disabled":false,"rental_uris":{"android":"levelo://app?vid=ba92127c-b9e2-4095-9018-e9229b7e608d","ios":"levelo://app?vid=ba92127c-b9e2-4095-9018-e9229b7e608d"},"vehicle_type_id":"4","last_reported":1687792088,"current_range_meters":0,"station_id":"ce4bhg12rcd13ifvqf80","pricing_plan_id":"free"},{"bike_id":"e1455fe3-3809-4e29-ae19-799a6f280582","system_id":"levelo_inurba_marseille","lat":43.320045,"lon":5.415048,"is_reserved":false,"is_disabled":false,"rental_uris":{"android":"levelo://app?vid=e1455fe3-3809-4e29-ae19-799a6f280582","ios":"levelo://app?vid=e1455fe3-3809-4e29-ae19-799a6f280582"},"vehicle_type_id":"4","last_reported":1687792088,"current_range_meters":27600,"station_id":"ce4bhq92rcd13ifvqhkg","pricing_plan_id":"free"},{"bike_id":"6c7b6ec8-058a-4475-b2be-6a5a6deb5310","system_id":"levelo_inurba_marseille","lat":43.320045,"lon":5.415046,"is_reserved":false,"is_disabled":false,"rental_uris":{"android":"levelo://app?vid=6c7b6ec8-058a-4475-b2be-6a5a6deb5310","ios":"levelo://app?vid=6c7b6ec8-058a-4475-b2be-6a5a6deb5310"},"vehicle_type_id":"4","last_reported":1687792088,"current_range_meters":31200,"station_id":"ce4bhq92rcd13ifvqhkg","pricing_plan_id":"free"},{"bike_id":"a6d1a747-d23d-44ee-a766-d69814aec316","system_id":"levelo_inurba_marseille","lat":43.27966,"lon":5.38731,"is_reserved":false,"is_disabled":false,"rental_uris":{"android":"levelo://app?vid=a6d1a747-d23d-44ee-a766-d69814aec316","ios":"levelo://app?vid=a6d1a747-d23d-44ee-a766-d69814aec316"},"vehicle_type_id":"4","last_reported":1687792088,"current_range_meters":2000,"station_id":"ce4bhg12rcd13ifvqf80","pricing_plan_id":"free"},{"bike_id":"3cd5e2ef-4ac4-4e8b-ab8f-1ccda4578cf9","system_id":"levelo_inurba_marseille","lat":43.320045,"lon":5.415046,"is_reserved":false,"is_disabled":false,"rental_uris":{"android":"levelo://app?vid=3cd5e2ef-4ac4-4e8b-ab8f-1ccda4578cf9","ios":"levelo://app?vid=3cd5e2ef-4ac4-4e8b-ab8f-1ccda4578cf9"},"vehicle_type_id":"4","last_reported":1687792088,"current_range_meters":31200,"station_id":"ce4bhq92rcd13ifvqhkg","pricing_plan_id":"free"},{"bike_id":"e45ac2dd-e8ec-4d11-95f0-330ee847c2e5","system_id":"levelo_inurba_marseille","lat":43.292569,"lon":5.409107,"is_reserved":false,"is_disabled":false,"rental_uris":{"android":"levelo://app?vid=e45ac2dd-e8ec-4d11-95f0-330ee847c2e5","ios":"levelo://app?vid=e45ac2dd-e8ec-4d11-95f0-330ee847c2e5"},"vehicle_type_id":"4","last_reported":1687792088,"current_range_meters":31200,"station_id":"ce4bh192rcd13ifvqdc0","pricing_plan_id":"free"},{"bike_id":"c916bef7-696a-46c5-94fd-dca6fd079c87","system_id":"levelo_inurba_marseille","lat":43.325233,"lon":5.414318,"is_reserved":false,"is_disabled":false,"rental_uris":{"android":"levelo://app?vid=c916bef7-696a-46c5-94fd-dca6fd079c87","ios":"levelo://app?vid=c916bef7-696a-46c5-94fd-dca6fd079c87"},"vehicle_type_id":"4","last_reported":1687792088,"current_range_meters":19200,"station_id":"ce4bhq12rcd13ifvqhhg","pricing_plan_id":"free"},{"bike_id":"00f9b2bc-759d-4f8a-9afb-b0020a86e9a0","system_id":"levelo_inurba_marseille","lat":43.325233,"lon":5.414318,"is_reserved":false,"is_disabled":false,"rental_uris":{"android":"levelo://app?vid=00f9b2bc-759d-4f8a-9afb-b0020a86e9a0","ios":"levelo://app?vid=00f9b2bc-759d-4f8a-9afb-b0020a86e9a0"},"vehicle_type_id":"4","last_reported":1687792088,"current_range_meters":17200,"station_id":"ce4bhq12rcd13ifvqhhg","pricing_plan_id":"free"},{"bike_id":"4eb0a7fc-0972-4009-a468-45defebf137b","system_id":"levelo_inurba_marseille","lat":43.27618,"lon":5.361009,"is_reserved":false,"is_disabled":false,"rental_uris":{"android":"levelo://app?vid=4eb0a7fc-0972-4009-a468-45defebf137b","ios":"levelo://app?vid=4eb0a7fc-0972-4009-a468-45defebf137b"},"vehicle_type_id":"4","last_reported":1687792088,"current_range_meters":31200,"station_id":"ce4bgj92rcd13ifvqbe0","pricing_plan_id":"free"},{"bike_id":"2edd8893-f9f6-48d5-bbef-4919058ba30a","system_id":"levelo_inurba_marseille","lat":43.325233,"lon":5.414318,"is_reserved":false,"is_disabled":false,"rental_uris":{"android":"levelo://app?vid=2edd8893-f9f6-48d5-bbef-4919058ba30a","ios":"levelo://app?vid=2edd8893-f9f6-48d5-bbef-4919058ba30a"},"vehicle_type_id":"4","last_reported":1687792088,"current_range_meters":31200,"station_id":"ce4bhq12rcd13ifvqhhg","pricing_plan_id":"free"},{"bike_id":"be79d527-da8a-41aa-a05c-8cbadb79f5e2","system_id":"levelo_inurba_marseille","lat":43.325233,"lon":5.414318,"is_reserved":false,"is_disabled":false,"rental_uris":{"android":"levelo://app?vid=be79d527-da8a-41aa-a05c-8cbadb79f5e2","ios":"levelo://app?vid=be79d527-da8a-41aa-a05c-8cbadb79f5e2"},"vehicle_type_id":"4","last_reported":1687792088,"current_range_meters":10800,"station_id":"ce4bhq12rcd13ifvqhhg","pricing_plan_id":"free"},{"bike_id":"fa8a50f0-161e-4814-8534-664109dd3149","system_id":"levelo_inurba_marseille","lat":43.325233,"lon":5.414318,"is_reserved":false,"is_disabled":false,"rental_uris":{"android":"levelo://app?vid=fa8a50f0-161e-4814-8534-664109dd3149","ios":"levelo://app?vid=fa8a50f0-161e-4814-8534-664109dd3149"},"vehicle_type_id":"4","last_reported":1687792088,"current_range_meters":25200,"station_id":"ce4bhq12rcd13ifvqhhg","pricing_plan_id":"free"},{"bike_id":"e3aef2bd-8729-4bda-a8a2-d233f1ab0f4e","system_id":"levelo_inurba_marseille","lat":43.325233,"lon":5.414318,"is_reserved":false,"is_disabled":false,"rental_uris":{"android":"levelo://app?vid=e3aef2bd-8729-4bda-a8a2-d233f1ab0f4e","ios":"levelo://app?vid=e3aef2bd-8729-4bda-a8a2-d233f1ab0f4e"},"vehicle_type_id":"4","last_reported":1687792088,"current_range_meters":31200,"station_id":"ce4bhq12rcd13ifvqhhg","pricing_plan_id":"free"},{"bike_id":"80ca9f74-4b2f-4399-8f8a-a1b792741e96","system_id":"levelo_inurba_marseille","lat":43.325233,"lon":5.414318,"is_reserved":false,"is_disabled":false,"rental_uris":{"android":"levelo://app?vid=80ca9f74-4b2f-4399-8f8a-a1b792741e96","ios":"levelo://app?vid=80ca9f74-4b2f-4399-8f8a-a1b792741e96"},"vehicle_type_id":"4","last_reported":1687792088,"current_range_meters":31200,"station_id":"ce4bhq12rcd13ifvqhhg","pricing_plan_id":"free"},{"bike_id":"445614cc-504e-4dc6-a81a-3d24364b96c9","system_id":"levelo_inurba_marseille","lat":43.325233,"lon":5.414318,"is_reserved":false,"is_disabled":false,"rental_uris":{"android":"levelo://app?vid=445614cc-504e-4dc6-a81a-3d24364b96c9","ios":"levelo://app?vid=445614cc-504e-4dc6-a81a-3d24364b96c9"},"vehicle_type_id":"4","last_reported":1687792088,"current_range_meters":31200,"station_id":"ce4bhq12rcd13ifvqhhg","pricing_plan_id":"free"},{"bike_id":"51c13d08-1c39-401a-b4bc-d4a9d99dd5ca","system_id":"levelo_inurba_marseille","lat":43.325233,"lon":5.414318,"is_reserved":false,"is_disabled":false,"rental_uris":{"android":"levelo://app?vid=51c13d08-1c39-401a-b4bc-d4a9d99dd5ca","ios":"levelo://app?vid=51c13d08-1c39-401a-b4bc-d4a9d99dd5ca"},"vehicle_type_id":"4","last_reported":1687792088,"current_range_meters":31200,"station_id":"ce4bhq12rcd13ifvqhhg","pricing_plan_id":"free"},{"bike_id":"88669851-688f-490a-af62-2f5377ac6f8c","system_id":"levelo_inurba_marseille","lat":43.325233,"lon":5.414318,"is_reserved":false,"is_disabled":false,"rental_uris":{"android":"levelo://app?vid=88669851-688f-490a-af62-2f5377ac6f8c","ios":"levelo://app?vid=88669851-688f-490a-af62-2f5377ac6f8c"},"vehicle_type_id":"4","last_reported":1687792088,"current_range_meters":31200,"station_id":"ce4bhq12rcd13ifvqhhg","pricing_plan_id":"free"},