{"last_updated":1773334137,"ttl":60,"version":"2.2","data":{"bikes":[{"bike_id":"7482976e-a769-4cf7-b73d-c2503f746c8f","system_id":"levelo_inurba_marseille","lat":43.28349,"lon":5.38114,"is_reserved":false,"is_disabled":false,"rental_uris":{"android":"levelo://app?vid=7482976e-a769-4cf7-b73d-c2503f746c8f","ios":"levelo://app?vid=7482976e-a769-4cf7-b73d-c2503f746c8f"},"vehicle_type_id":"4","last_reported":1773334138,"current_range_meters":12400,"station_id":"ce4bh412rcd13ifvqdr0","pricing_plan_id":"cebpf4jnsgd1na2vs0mg"},{"bike_id":"08c561ea-1ac1-4e02-ad41-a98dd4359c05","system_id":"levelo_inurba_marseille","lat":43.30201,"lon":5.39463,"is_reserved":false,"is_disabled":false,"rental_uris":{"android":"levelo://app?vid=08c561ea-1ac1-4e02-ad41-a98dd4359c05","ios":"levelo://app?vid=08c561ea-1ac1-4e02-ad41-a98dd4359c05"},"vehicle_type_id":"4","last_reported":1773334138,"current_range_meters":6800,"station_id":"ce4bh0p2rcd13ifvqd70","pricing_plan_id":"cebpf4jnsgd1na2vs0mg"},{"bike_id":"7acf8425-c9c1-4d11-87e7-6d783bb8b708","system_id":"levelo_inurba_marseille","lat":43.26547,"lon":5.373,"is_reserved":false,"is_disabled":false,"rental_uris":{"android":"levelo://app?vid=7acf8425-c9c1-4d11-87e7-6d783bb8b708","ios":"levelo://app?vid=7acf8425-c9c1-4d11-87e7-6d783bb8b708"},"vehicle_type_id":"4","last_reported":1773334138,"current_range_meters":20800,"station_id":"ce4bhg12rcd13ifvqf70","pricing_plan_id":"cebpf4jnsgd1na2vs0mg"},{"bike_id":"a356a64b-ff6d-40c2-bd73-9ecd6e2e20c0","system_id":"levelo_inurba_marseille","lat":43.26198,"lon":5.37925,"is_reserved":false,"is_disabled":false,"rental_uris":{"android":"levelo://app?vid=a356a64b-ff6d-40c2-bd73-9ecd6e2e20c0","ios":"levelo://app?vid=a356a64b-ff6d-40c2-bd73-9ecd6e2e20c0"},"vehicle_type_id":"4","last_reported":1773334138,"current_range_meters":32000,"station_id":"ce4bhjp2rcd13ifvqg90","pricing_plan_id":"cebpf4jnsgd1na2vs0mg"},{"bike_id":"e23765f9-8671-4e23-8ef0-c59ff0dbe9bb","system_id":"levelo_inurba_marseille","lat":43.29286,"lon":5.401139,"is_reserved":false,"is_disabled":true,"rental_uris":{"android":"levelo://app?vid=e23765f9-8671-4e23-8ef0-c59ff0dbe9bb","ios":"levelo://app?vid=e23765f9-8671-4e23-8ef0-c59ff0dbe9bb"},"vehicle_type_id":"4","last_reported":1773334138,"current_range_meters":1200,"station_id":"ce4bh312rcd13ifvqdk0","pricing_plan_id":"cebpf4jnsgd1na2vs0mg"},{"bike_id":"501ac3ce-4e32-4f11-9ff0-40917641f71f","system_id":"levelo_inurba_marseille","lat":43.33021,"lon":5.3904,"is_reserved":false,"is_disabled":false,"rental_uris":{"android":"levelo://app?vid=501ac3ce-4e32-4f11-9ff0-40917641f71f","ios":"levelo://app?vid=501ac3ce-4e32-4f11-9ff0-40917641f71f"},"vehicle_type_id":"4","last_reported":1773334138,"current_range_meters":35200,"station_id":"ce4bhr92rcd13ifvqhrg","pricing_plan_id":"cebpf4jnsgd1na2vs0mg"},{"bike_id":"9faea34b-1c48-4a1b-8f51-2bafe5184a50","system_id":"levelo_inurba_marseille","lat":43.28474,"lon":5.48395,"is_reserved":false,"is_disabled":false,"rental_uris":{"android":"levelo://app?vid=9faea34b-1c48-4a1b-8f51-2bafe5184a50","ios":"levelo://app?vid=9faea34b-1c48-4a1b-8f51-2bafe5184a50"},"vehicle_type_id":"4","last_reported":1773334138,"current_range_meters":30400,"station_id":"","pricing_plan_id":"cebpf4jnsgd1na2vs0mg"},{"bike_id":"bd0135ea-2cde-4c88-9947-7d16e31861df","system_id":"levelo_inurba_marseille","lat":43.30716,"lon":5.36788,"is_reserved":false,"is_disabled":false,"rental_uris":{"android":"levelo://app?vid=bd0135ea-2cde-4c88-9947-7d16e31861df","ios":"levelo://app?vid=bd0135ea-2cde-4c88-9947-7d16e31861df"},"vehicle_type_id":"4","last_reported":1773334138,"current_range_meters":28000,"station_id":"","pricing_plan_id":"cebpf4jnsgd1na2vs0mg"},{"bike_id":"d427d34d-e739-4c0f-a843-74b85111544b","system_id":"levelo_inurba_marseille","lat":43.33161,"lon":5.37674,"is_reserved":false,"is_disabled":false,"rental_uris":{"android":"levelo://app?vid=d427d34d-e739-4c0f-a843-74b85111544b","ios":"levelo://app?vid=d427d34d-e739-4c0f-a843-74b85111544b"},"vehicle_type_id":"4","last_reported":1773334138,"current_range_meters":18800,"station_id":"st_d46cu089ee8s73dldbu0","pricing_plan_id":"cebpf4jnsgd1na2vs0mg"},{"bike_id":"1f110955-d0af-46f0-9692-0442d65ddaec","system_id":"levelo_inurba_marseille","lat":43.27377,"lon":5.36253,"is_reserved":false,"is_disabled":false,"rental_uris":{"android":"levelo://app?vid=1f110955-d0af-46f0-9692-0442d65ddaec","ios":"levelo://app?vid=1f110955-d0af-46f0-9692-0442d65ddaec"},"vehicle_type_id":"4","last_reported":1773334138,"current_range_meters":8000,"station_id":"ce4bhbh2rcd13ifvqeo0","pricing_plan_id":"cebpf4jnsgd1na2vs0mg"},{"bike_id":"c943c8f2-fd97-497f-b02c-47e60712859d","system_id":"levelo_inurba_marseille","lat":43.25842,"lon":5.39426,"is_reserved":false,"is_disabled":false,"rental_uris":{"android":"levelo://app?vid=c943c8f2-fd97-497f-b02c-47e60712859d","ios":"levelo://app?vid=c943c8f2-fd97-497f-b02c-47e60712859d"},"vehicle_type_id":"4","last_reported":1773334138,"current_range_meters":23200,"station_id":"ce4bhip2rcd13ifvqft0","pricing_plan_id":"cebpf4jnsgd1na2vs0mg"},{"bike_id":"311cd375-88a1-4176-9219-fa828099384a","system_id":"levelo_inurba_marseille","lat":43.30306,"lon":5.36896,"is_reserved":false,"is_disabled":false,"rental_uris":{"android":"levelo://app?vid=311cd375-88a1-4176-9219-fa828099384a","ios":"levelo://app?vid=311cd375-88a1-4176-9219-fa828099384a"},"vehicle_type_id":"4","last_reported":1773334138,"current_range_meters":8400,"station_id":"ce4bgqh2rcd13ifvqc5g","pricing_plan_id":"cebpf4jnsgd1na2vs0mg"},{"bike_id":"cf72e95f-e7b5-47c4-a026-c2a6b5601fec","system_id":"levelo_inurba_marseille","lat":43.29535,"lon":5.38553,"is_reserved":false,"is_disabled":false,"rental_uris":{"android":"levelo://app?vid=cf72e95f-e7b5-47c4-a026-c2a6b5601fec","ios":"levelo://app?vid=cf72e95f-e7b5-47c4-a026-c2a6b5601fec"},"vehicle_type_id":"4","last_reported":1773334138,"current_range_meters":18000,"station_id":"ce4bgih2rcd13ifvqba0","pricing_plan_id":"cebpf4jnsgd1na2vs0mg"},{"bike_id":"b5a70d44-6cd2-4596-a9b3-e82e9858ce0d","system_id":"levelo_inurba_marseille","lat":43.30521,"lon":5.36565,"is_reserved":false,"is_disabled":false,"rental_uris":{"android":"levelo://app?vid=b5a70d44-6cd2-4596-a9b3-e82e9858ce0d","ios":"levelo://app?vid=b5a70d44-6cd2-4596-a9b3-e82e9858ce0d"},"vehicle_type_id":"4","last_reported":1773334138,"current_range_meters":38400,"station_id":"ce4bgs12rcd13ifvqcag","pricing_plan_id":"cebpf4jnsgd1na2vs0mg"},{"bike_id":"fee06328-0848-48be-bb8b-947aae963eba","system_id":"levelo_inurba_marseille","lat":43.30541,"lon":5.36687,"is_reserved":false,"is_disabled":false,"rental_uris":{"android":"levelo://app?vid=fee06328-0848-48be-bb8b-947aae963eba","ios":"levelo://app?vid=fee06328-0848-48be-bb8b-947aae963eba"},"vehicle_type_id":"4","last_reported":1773334138,"current_range_meters":40000,"station_id":"ce4bgrp2rcd13ifvqc9g","pricing_plan_id":"cebpf4jnsgd1na2vs0mg"},{"bike_id":"b93a357c-54e0-4442-be00-cbc58767907f","system_id":"levelo_inurba_marseille","lat":43.3204,"lon":5.41567,"is_reserved":false,"is_disabled":false,"rental_uris":{"android":"levelo://app?vid=b93a357c-54e0-4442-be00-cbc58767907f","ios":"levelo://app?vid=b93a357c-54e0-4442-be00-cbc58767907f"},"vehicle_type_id":"4","last_reported":1773334138,"current_range_meters":36400,"station_id":"ce4bhq92rcd13ifvqhkg","pricing_plan_id":"cebpf4jnsgd1na2vs0mg"},{"bike_id":"c0e778de-76d2-4d92-a7f7-3c777a27001a","system_id":"levelo_inurba_marseille","lat":43.29606,"lon":5.38091,"is_reserved":false,"is_disabled":true,"rental_uris":{"android":"levelo://app?vid=c0e778de-76d2-4d92-a7f7-3c777a27001a","ios":"levelo://app?vid=c0e778de-76d2-4d92-a7f7-3c777a27001a"},"vehicle_type_id":"4","last_reported":1773334138,"current_range_meters":16400,"station_id":"ce4bgl12rcd13ifvqbo0","pricing_plan_id":"cebpf4jnsgd1na2vs0mg"},{"bike_id":"20bf681e-dd28-42a1-94f9-defeb2767863","system_id":"levelo_inurba_marseille","lat":43.25861,"lon":5.39908,"is_reserved":false,"is_disabled":false,"rental_uris":{"android":"levelo://app?vid=20bf681e-dd28-42a1-94f9-defeb2767863","ios":"levelo://app?vid=20bf681e-dd28-42a1-94f9-defeb2767863"},"vehicle_type_id":"4","last_reported":1773334138,"current_range_meters":25200,"station_id":"ce4bhl92rcd13ifvqghg","pricing_plan_id":"cebpf4jnsgd1na2vs0mg"},{"bike_id":"8f82668e-3825-4e2d-afca-16910ac971bd","system_id":"levelo_inurba_marseille","lat":43.27924,"lon":5.39574,"is_reserved":false,"is_disabled":false,"rental_uris":{"android":"levelo://app?vid=8f82668e-3825-4e2d-afca-16910ac971bd","ios":"levelo://app?vid=8f82668e-3825-4e2d-afca-16910ac971bd"},"vehicle_type_id":"4","last_reported":1773334138,"current_range_meters":30400,"station_id":"ce4bhf92rcd13ifvqf40","pricing_plan_id":"cebpf4jnsgd1na2vs0mg"},{"bike_id":"89068303-ad16-4da6-849a-2bfc1e83ae97","system_id":"levelo_inurba_marseille","lat":43.30527,"lon":5.36716,"is_reserved":false,"is_disabled":false,"rental_uris":{"android":"levelo://app?vid=89068303-ad16-4da6-849a-2bfc1e83ae97","ios":"levelo://app?vid=89068303-ad16-4da6-849a-2bfc1e83ae97"},"vehicle_type_id":"4","last_reported":1773334138,"current_range_meters":38800,"station_id":"ce4bgrp2rcd13ifvqc9g","pricing_plan_id":"cebpf4jnsgd1na2vs0mg"},{"bike_id":"463c9dfb-55cb-4643-98a9-63f734d95af1","system_id":"levelo_inurba_marseille","lat":43.28536,"lon":5.44105,"is_reserved":false,"is_disabled":false,"rental_uris":{"android":"levelo://app?vid=463c9dfb-55cb-4643-98a9-63f734d95af1","ios":"levelo://app?vid=463c9dfb-55cb-4643-98a9-63f734d95af1"},"vehicle_type_id":"4","last_reported":1773334138,"current_range_meters":35600,"station_id":"st_d3j3df2ikq2c7380ej80","pricing_plan_id":"cebpf4jnsgd1na2vs0mg"},{"bike_id":"1be54c69-6d2c-4415-ba9e-c9ead353d966","system_id":"levelo_inurba_marseille","lat":43.24158,"lon":5.36421,"is_reserved":false,"is_disabled":false,"rental_uris":{"android":"levelo://app?vid=1be54c69-6d2c-4415-ba9e-c9ead353d966","ios":"levelo://app?vid=1be54c69-6d2c-4415-ba9e-c9ead353d966"},"vehicle_type_id":"4","last_reported":1773334138,"current_range_meters":28800,"station_id":"cpo36qri1sfpv3e86is0","pricing_plan_id":"cebpf4jnsgd1na2vs0mg"},{"bike_id":"39b5f92c-6799-4b49-8a5f-14ab1abfd25a","system_id":"levelo_inurba_marseille","lat":43.31344,"lon":5.36734,"is_reserved":false,"is_disabled":false,"rental_uris":{"android":"levelo://app?vid=39b5f92c-6799-4b49-8a5f-14ab1abfd25a","ios":"levelo://app?vid=39b5f92c-6799-4b49-8a5f-14ab1abfd25a"},"vehicle_type_id":"4","last_reported":1773334138,"current_range_meters":34000,"station_id":"ce4bgr92rcd13ifvqc6g","pricing_plan_id":"cebpf4jnsgd1na2vs0mg"},{"bike_id":"d00edaac-0825-4c54-bb23-8c32034e0703","system_id":"levelo_inurba_marseille","lat":43.296267,"lon":5.405937,"is_reserved":false,"is_disabled":false,"rental_uris":{"android":"levelo://app?vid=d00edaac-0825-4c54-bb23-8c32034e0703","ios":"levelo://app?vid=d00edaac-0825-4c54-bb23-8c32034e0703"},"vehicle_type_id":"4","last_reported":1773334138,"current_range_meters":24000,"station_id":"ce4bh0h2rcd13ifvqd60","pricing_plan_id":"cebpf4jnsgd1na2vs0mg"},{"bike_id":"4d63ba94-123a-40ef-a00b-9f058c52b926","system_id":"levelo_inurba_marseille","lat":43.31258,"lon":5.3683,"is_reserved":false,"is_disabled":false,"rental_uris":{"android":"levelo://app?vid=4d63ba94-123a-40ef-a00b-9f058c52b926","ios":"levelo://app?vid=4d63ba94-123a-40ef-a00b-9f058c52b926"},"vehicle_type_id":"4","last_reported":1773334138,"current_range_meters":18800,"station_id":"ce4bgl92rcd13ifvqbq0","pricing_plan_id":"cebpf4jnsgd1na2vs0mg"},{"bike_id":"23ba3335-938f-476f-a82c-5f731a0f3a9b","system_id":"levelo_inurba_marseille","lat":43.31228,"lon":5.3683,"is_reserved":false,"is_disabled":false,"rental_uris":{"android":"levelo://app?vid=23ba3335-938f-476f-a82c-5f731a0f3a9b","ios":"levelo://app?vid=23ba3335-938f-476f-a82c-5f731a0f3a9b"},"vehicle_type_id":"4","last_reported":1773334138,"current_range_meters":39200,"station_id":"ce4bgl92rcd13ifvqbq0","pricing_plan_id":"cebpf4jnsgd1na2vs0mg"},{"bike_id":"f4e180a5-e775-4809-93cf-a742c592650b","system_id":"levelo_inurba_marseille","lat":43.28211,"lon":5.39124,"is_reserved":false,"is_disabled":false,"rental_uris":{"android":"levelo://app?vid=f4e180a5-e775-4809-93cf-a742c592650b","ios":"levelo://app?vid=f4e180a5-e775-4809-93cf-a742c592650b"},"vehicle_type_id":"4","last_reported":1773334138,"current_range_meters":25600,"station_id":"ce4bhn92rcd13ifvqgsg","pricing_plan_id":"cebpf4jnsgd1na2vs0mg"},{"bike_id":"e5992785-f891-4eb7-b8cf-ab9dacd9c960","system_id":"levelo_inurba_marseille","lat":43.2306,"lon":5.35496,"is_reserved":false,"is_disabled":false,"rental_uris":{"android":"levelo://app?vid=e5992785-f891-4eb7-b8cf-ab9dacd9c960","ios":"levelo://app?vid=e5992785-f891-4eb7-b8cf-ab9dacd9c960"},"vehicle_type_id":"4","last_reported":1773334138,"current_range_meters":38800,"station_id":"cpo3342slgdg3j2ifvpg","pricing_plan_id":"cebpf4jnsgd1na2vs0mg"},{"bike_id":"748502a6-ebda-492b-9758-aa3915e37546","system_id":"levelo_inurba_marseille","lat":43.30137,"lon":5.39856,"is_reserved":false,"is_disabled":false,"rental_uris":{"android":"levelo://app?vid=748502a6-ebda-492b-9758-aa3915e37546","ios":"levelo://app?vid=748502a6-ebda-492b-9758-aa3915e37546"},"vehicle_type_id":"4","last_reported":1773334138,"current_range_meters":32000,"station_id":"ce4bh0h2rcd13ifvqd40","pricing_plan_id":"cebpf4jnsgd1na2vs0mg"},{"bike_id":"28d947a0-a6ec-49b3-bb6f-cdd9e37c4966","system_id":"levelo_inurba_marseille","lat":43.26484,"lon":5.3955,"is_reserved":false,"is_disabled":false,"rental_uris":{"android":"levelo://app?vid=28d947a0-a6ec-49b3-bb6f-cdd9e37c4966","ios":"levelo://app?vid=28d947a0-a6ec-49b3-bb6f-cdd9e37c4966"},"vehicle_type_id":"4","last_reported":1773334138,"current_range_meters":36000,"station_id":"ce4bhi12rcd13ifvqfq0","pricing_plan_id":"cebpf4jnsgd1na2vs0mg"},{"bike_id":"23483a94-1f61-4371-a28f-fad2e1b7d986","system_id":"levelo_inurba_marseille","lat":43.26208,"lon":5.3793,"is_reserved":false,"is_disabled":false,"rental_uris":{"android":"levelo://app?vid=23483a94-1f61-4371-a28f-fad2e1b7d986","ios":"levelo://app?vid=23483a94-1f61-4371-a28f-fad2e1b7d986"},"vehicle_type_id":"4","last_reported":1773334138,"current_range_meters":39200,"station_id":"ce4bhjp2rcd13ifvqg90","pricing_plan_id":"cebpf4jnsgd1na2vs0mg"},{"bike_id":"882da581-3078-4f98-b191-a5affeed0dbb","system_id":"levelo_inurba_marseille","lat":43.25955,"lon":5.40899,"is_reserved":false,"is_disabled":false,"rental_uris":{"android":"levelo://app?vid=882da581-3078-4f98-b191-a5affeed0dbb","ios":"levelo://app?vid=882da581-3078-4f98-b191-a5affeed0dbb"},"vehicle_type_id":"4","last_reported":1773334138,"current_range_meters":39200,"station_id":"ce4bhm92rcd13ifvqglg","pricing_plan_id":"cebpf4jnsgd1na2vs0mg"},{"bike_id":"2d139dbe-4a51-46ac-bf7e-5e630dc6608b","system_id":"levelo_inurba_marseille","lat":43.309,"lon":5.38286,"is_reserved":false,"is_disabled":false,"rental_uris":{"android":"levelo://app?vid=2d139dbe-4a51-46ac-bf7e-5e630dc6608b","ios":"levelo://app?vid=2d139dbe-4a51-46ac-bf7e-5e630dc6608b"},"vehicle_type_id":"4","last_reported":1773334138,"current_range_meters":14400,"station_id":"","pricing_plan_id":"cebpf4jnsgd1na2vs0mg"},{"bike_id":"b3982b51-c330-4a92-8307-b379b4c8ce54","system_id":"levelo_inurba_marseille","lat":43.31376,"lon":5.38502,"is_reserved":false,"is_disabled":false,"rental_uris":{"android":"levelo://app?vid=b3982b51-c330-4a92-8307-b379b4c8ce54","ios":"levelo://app?vid=b3982b51-c330-4a92-8307-b379b4c8ce54"},"vehicle_type_id":"4","last_reported":1773334138,"current_range_meters":3600,"station_id":"ce4bgt92rcd13ifvqcf0","pricing_plan_id":"cebpf4jnsgd1na2vs0mg"},{"bike_id":"17ce7070-d813-4eaf-a544-6259968aa271","system_id":"levelo_inurba_marseille","lat":43.31131,"lon":5.36903,"is_reserved":false,"is_disabled":false,"rental_uris":{"android":"levelo://app?vid=17ce7070-d813-4eaf-a544-6259968aa271","ios":"levelo://app?vid=17ce7070-d813-4eaf-a544-6259968aa271"},"vehicle_type_id":"4","last_reported":1773334138,"current_range_meters":4800,"station_id":"","pricing_plan_id":"cebpf4jnsgd1na2vs0mg"},{"bike_id":"bdea4757-afc1-44db-84f1-7dc81ac4fac4","system_id":"levelo_inurba_marseille","lat":43.29198,"lon":5.357996,"is_reserved":false,"is_disabled":true,"rental_uris":{"android":"levelo://app?vid=bdea4757-afc1-44db-84f1-7dc81ac4fac4","ios":"levelo://app?vid=bdea4757-afc1-44db-84f1-7dc81ac4fac4"},"vehicle_type_id":"4","last_reported":1773334138,"current_range_meters":26000,"station_id":"ce4bhb12rcd13ifvqel0","pricing_plan_id":"cebpf4jnsgd1na2vs0mg"},{"bike_id":"a6c7e44e-315d-4157-b7d4-64bee4c3d535","system_id":"levelo_inurba_marseille","lat":43.29845,"lon":5.36267,"is_reserved":false,"is_disabled":false,"rental_uris":{"android":"levelo://app?vid=a6c7e44e-315d-4157-b7d4-64bee4c3d535","ios":"levelo://app?vid=a6c7e44e-315d-4157-b7d4-64bee4c3d535"},"vehicle_type_id":"4","last_reported":1773334138,"current_range_meters":34800,"station_id":"ce4bgpp2rcd13ifvqc3g","pricing_plan_id":"cebpf4jnsgd1na2vs0mg"},{"bike_id":"84edac93-97f0-4f16-980c-7e1b057bc44a","system_id":"levelo_inurba_marseille","lat":43.2681,"lon":5.40274,"is_reserved":false,"is_disabled":false,"rental_uris":{"android":"levelo://app?vid=84edac93-97f0-4f16-980c-7e1b057bc44a","ios":"levelo://app?vid=84edac93-97f0-4f16-980c-7e1b057bc44a"},"vehicle_type_id":"4","last_reported":1773334138,"current_range_meters":39200,"station_id":"ce501612rcd8frsf0b60","pricing_plan_id":"cebpf4jnsgd1na2vs0mg"},{"bike_id":"8bfb1ea6-b6d7-44da-b1ae-dd1ec1d40ed8","system_id":"levelo_inurba_marseille","lat":43.29264,"lon":5.38429,"is_reserved":false,"is_disabled":false,"rental_uris":{"android":"levelo://app?vid=8bfb1ea6-b6d7-44da-b1ae-dd1ec1d40ed8","ios":"levelo://app?vid=8bfb1ea6-b6d7-44da-b1ae-dd1ec1d40ed8"},"vehicle_type_id":"4","last_reported":1773334138,"current_range_meters":32000,"station_id":"ce4bh692rcd13ifvqea0","pricing_plan_id":"cebpf4jnsgd1na2vs0mg"},{"bike_id":"566d1d1a-0852-4e0d-907b-e1334e0d6bf9","system_id":"levelo_inurba_marseille","lat":43.2378,"lon":5.36613,"is_reserved":false,"is_disabled":false,"rental_uris":{"android":"levelo://app?vid=566d1d1a-0852-4e0d-907b-e1334e0d6bf9","ios":"levelo://app?vid=566d1d1a-0852-4e0d-907b-e1334e0d6bf9"},"vehicle_type_id":"4","last_reported":1773334138,"current_range_meters":38800,"station_id":"st_d3nk18o9ro0c73en2l3g","pricing_plan_id":"cebpf4jnsgd1na2vs0mg"},{"bike_id":"244f66e9-0261-42d6-853e-ac479a182d4f","system_id":"levelo_inurba_marseille","lat":43.28403,"lon":5.34983,"is_reserved":false,"is_disabled":false,"rental_uris":{"android":"levelo://app?vid=244f66e9-0261-42d6-853e-ac479a182d4f","ios":"levelo://app?vid=244f66e9-0261-42d6-853e-ac479a182d4f"},"vehicle_type_id":"4","last_reported":1773334138,"current_range_meters":22400,"station_id":"ce4bhbh2rcd13ifvqepg","pricing_plan_id":"cebpf4jnsgd1na2vs0mg"},{"bike_id":"f96117d6-7d22-4b57-9564-78f617580e63","system_id":"levelo_inurba_marseille","lat":43.2921,"lon":5.3581,"is_reserved":false,"is_disabled":false,"rental_uris":{"android":"levelo://app?vid=f96117d6-7d22-4b57-9564-78f617580e63","ios":"levelo://app?vid=f96117d6-7d22-4b57-9564-78f617580e63"},"vehicle_type_id":"4","last_reported":1773334138,"current_range_meters":12800,"station_id":"ce4bhb12rcd13ifvqel0","pricing_plan_id":"cebpf4jnsgd1na2vs0mg"},{"bike_id":"1c573354-cf53-44d3-9111-eb37080df88e","system_id":"levelo_inurba_marseille","lat":43.31569,"lon":5.37392,"is_reserved":false,"is_disabled":false,"rental_uris":{"android":"levelo://app?vid=1c573354-cf53-44d3-9111-eb37080df88e","ios":"levelo://app?vid=1c573354-cf53-44d3-9111-eb37080df88e"},"vehicle_type_id":"4","last_reported":1773334138,"current_range_meters":12000,"station_id":"","pricing_plan_id":"cebpf4jnsgd1na2vs0mg"},{"bike_id":"d46de948-bb4e-4a70-b911-cfc6e7243df5","system_id":"levelo_inurba_marseille","lat":43.25504,"lon":5.37662,"is_reserved":false,"is_disabled":false,"rental_uris":{"android":"levelo://app?vid=d46de948-bb4e-4a70-b911-cfc6e7243df5","ios":"levelo://app?vid=d46de948-bb4e-4a70-b911-cfc6e7243df5"},"vehicle_type_id":"4","last_reported":1773334138,"current_range_meters":38400,"station_id":"ce4bhh12rcd13ifvqff0","pricing_plan_id":"cebpf4jnsgd1na2vs0mg"},{"bike_id":"290affd8-9a09-4ca7-8cc6-b1a8e5ea56f6","system_id":"levelo_inurba_marseille","lat":43.28844,"lon":5.35863,"is_reserved":false,"is_disabled":false,"rental_uris":{"android":"levelo://app?vid=290affd8-9a09-4ca7-8cc6-b1a8e5ea56f6","ios":"levelo://app?vid=290affd8-9a09-4ca7-8cc6-b1a8e5ea56f6"},"vehicle_type_id":"4","last_reported":1773334138,"current_range_meters":17200,"station_id":"ce4bhb12rcd13ifvqem0","pricing_plan_id":"cebpf4jnsgd1na2vs0mg"},{"bike_id":"c7c6afa0-3e61-44b0-8c54-bdea54258644","system_id":"levelo_inurba_marseille","lat":43.29913,"lon":5.37457,"is_reserved":false,"is_disabled":false,"rental_uris":{"android":"levelo://app?vid=c7c6afa0-3e61-44b0-8c54-bdea54258644","ios":"levelo://app?vid=c7c6afa0-3e61-44b0-8c54-bdea54258644"},"vehicle_type_id":"4","last_reported":1773334138,"current_range_meters":28400,"station_id":"ce4bgjh2rcd13ifvqbg0","pricing_plan_id":"cebpf4jnsgd1na2vs0mg"},{"bike_id":"1b0e78fe-459c-43ce-bdc3-9aac56367e13","system_id":"levelo_inurba_marseille","lat":43.28673,"lon":5.36337,"is_reserved":false,"is_disabled":false,"rental_uris":{"android":"levelo://app?vid=1b0e78fe-459c-43ce-bdc3-9aac56367e13","ios":"levelo://app?vid=1b0e78fe-459c-43ce-bdc3-9aac56367e13"},"vehicle_type_id":"4","last_reported":1773334138,"current_range_meters":24800,"station_id":"ce4bhah2rcd13ifvqej0","pricing_plan_id":"cebpf4jnsgd1na2vs0mg"},{"bike_id":"98a69b82-3426-4662-b314-8ddb62a05de5","system_id":"levelo_inurba_marseille","lat":43.30064,"lon":5.4373,"is_reserved":false,"is_disabled":false,"rental_uris":{"android":"levelo://app?vid=98a69b82-3426-4662-b314-8ddb62a05de5","ios":"levelo://app?vid=98a69b82-3426-4662-b314-8ddb62a05de5"},"vehicle_type_id":"4","last_reported":1773334138,"current_range_meters":12800,"station_id":"","pricing_plan_id":"cebpf4jnsgd1na2vs0mg"},{"bike_id":"a0758522-0d2e-4a8c-8a3b-9a02faec8c48","system_id":"levelo_inurba_marseille","lat":43.29874,"lon":5.39687,"is_reserved":false,"is_disabled":false,"rental_uris":{"android":"levelo://app?vid=a0758522-0d2e-4a8c-8a3b-9a02faec8c48","ios":"levelo://app?vid=a0758522-0d2e-4a8c-8a3b-9a02faec8c48"},"vehicle_type_id":"4","last_reported":1773334138,"current_range_meters":10000,"station_id":"ce4bh0h2rcd13ifvqd50","pricing_plan_id":"cebpf4jnsgd1na2vs0mg"},{"bike_id":"bd312d91-531c-40dc-bbfb-43191c0caff1","system_id":"levelo_inurba_marseille","lat":43.29045,"lon":5.35898,"is_reserved":false,"is_disabled":false,"rental_uris":{"android":"levelo://app?vid=bd312d91-531c-40dc-bbfb-43191c0caff1","ios":"levelo://app?vid=bd312d91-531c-40dc-bbfb-43191c0caff1"},"vehicle_type_id":"4","last_reported":1773334138,"current_range_meters":39200,"station_id":"ce4bha92rcd13ifvqeg0","pricing_plan_id":"cebpf4jnsgd1na2vs0mg"},{"bike_id":"a5eb7e2e-f45f-42c7-8ba3-bf76c2472338","system_id":"levelo_inurba_marseille","lat":43.30207,"lon":5.39438,"is_reserved":false,"is_disabled":false,"rental_uris":{"android":"levelo://app?vid=a5eb7e2e-f45f-42c7-8ba3-bf76c2472338","ios":"levelo://app?vid=a5eb7e2e-f45f-42c7-8ba3-bf76c2472338"},"vehicle_type_id":"4","last_reported":1773334138,"current_range_meters":19200,"station_id":"ce4bh0p2rcd13ifvqd70","pricing_plan_id":"cebpf4jnsgd1na2vs0mg"},{"bike_id":"a6bf6a0e-804b-4f95-903f-d306eb4acdb5","system_id":"levelo_inurba_marseille","lat":43.3026,"lon":5.37102,"is_reserved":false,"is_disabled":false,"rental_uris":{"android":"levelo://app?vid=a6bf6a0e-804b-4f95-903f-d306eb4acdb5","ios":"levelo://app?vid=a6bf6a0e-804b-4f95-903f-d306eb4acdb5"},"vehicle_type_id":"4","last_reported":1773334138,"current_range_meters":34800,"station_id":"","pricing_plan_id":"cebpf4jnsgd1na2vs0mg"},{"bike_id":"3d12e3f4-6b13-4168-b577-adf07acbef79","system_id":"levelo_inurba_marseille","lat":43.29226,"lon":5.36067,"is_reserved":false,"is_disabled":false,"rental_uris":{"android":"levelo://app?vid=3d12e3f4-6b13-4168-b577-adf07acbef79","ios":"levelo://app?vid=3d12e3f4-6b13-4168-b577-adf07acbef79"},"vehicle_type_id":"4","last_reported":1773334138,"current_range_meters":38000,"station_id":"ce4bhbh2rcd13ifvqeqg","pricing_plan_id":"cebpf4jnsgd1na2vs0mg"},{"bike_id":"73aabb45-2493-4e1f-b526-19fadd99dd94","system_id":"levelo_inurba_marseille","lat":43.27972,"lon":5.38745,"is_reserved":false,"is_disabled":false,"rental_uris":{"android":"levelo://app?vid=73aabb45-2493-4e1f-b526-19fadd99dd94","ios":"levelo://app?vid=73aabb45-2493-4e1f-b526-19fadd99dd94"},"vehicle_type_id":"4","last_reported":1773334138,"current_range_meters":32800,"station_id":"ce4bhg12rcd13ifvqf80","pricing_plan_id":"cebpf4jnsgd1na2vs0mg"},{"bike_id":"c2f40725-1ed9-4d1d-87ac-56a67ffd2ae7","system_id":"levelo_inurba_marseille","lat":43.26081,"lon":5.39413,"is_reserved":false,"is_disabled":false,"rental_uris":{"android":"levelo://app?vid=c2f40725-1ed9-4d1d-87ac-56a67ffd2ae7","ios":"levelo://app?vid=c2f40725-1ed9-4d1d-87ac-56a67ffd2ae7"},"vehicle_type_id":"4","last_reported":1773334138,"current_range_meters":16800,"station_id":"ce4bhh92rcd13ifvqfj0","pricing_plan_id":"cebpf4jnsgd1na2vs0mg"},{"bike_id":"caff2fe0-6dec-4b83-be73-6a8e7875a7ba","system_id":"levelo_inurba_marseille","lat":43.27331,"lon":5.39097,"is_reserved":false,"is_disabled":false,"rental_uris":{"android":"levelo://app?vid=caff2fe0-6dec-4b83-be73-6a8e7875a7ba","ios":"levelo://app?vid=caff2fe0-6dec-4b83-be73-6a8e7875a7ba"},"vehicle_type_id":"4","last_reported":1773334138,"current_range_meters":12400,"station_id":"ce4bhgp2rcd13ifvqfe0","pricing_plan_id":"cebpf4jnsgd1na2vs0mg"},{"bike_id":"c04fe662-2efa-4ed4-aa10-7a159f520caa","system_id":"levelo_inurba_marseille","lat":43.28848,"lon":5.39327,"is_reserved":false,"is_disabled":false,"rental_uris":{"android":"levelo://app?vid=c04fe662-2efa-4ed4-aa10-7a159f520caa","ios":"levelo://app?vid=c04fe662-2efa-4ed4-aa10-7a159f520caa"},"vehicle_type_id":"4","last_reported":1773334138,"current_range_meters":32800,"station_id":"ce4bh2p2rcd13ifvqdi0","pricing_plan_id":"cebpf4jnsgd1na2vs0mg"},{"bike_id":"3d7b1bec-2a06-47da-a7d0-796cda99d14f","system_id":"levelo_inurba_marseille","lat":43.27068,"lon":5.383,"is_reserved":false,"is_disabled":false,"rental_uris":{"android":"levelo://app?vid=3d7b1bec-2a06-47da-a7d0-796cda99d14f","ios":"levelo://app?vid=3d7b1bec-2a06-47da-a7d0-796cda99d14f"},"vehicle_type_id":"4","last_reported":1773334138,"current_range_meters":16800,"station_id":"st_d3n2fo6cfp8s73cte1j0","pricing_plan_id":"cebpf4jnsgd1na2vs0mg"},{"bike_id":"ee608554-3f69-47c5-baec-49ac27c97be4","system_id":"levelo_inurba_marseille","lat":43.29541,"lon":5.38551,"is_reserved":false,"is_disabled":false,"rental_uris":{"android":"levelo://app?vid=ee608554-3f69-47c5-baec-49ac27c97be4","ios":"levelo://app?vid=ee608554-3f69-47c5-baec-49ac27c97be4"},"vehicle_type_id":"4","last_reported":1773334138,"current_range_meters":24400,"station_id":"ce4bgih2rcd13ifvqba0","pricing_plan_id":"cebpf4jnsgd1na2vs0mg"},{"bike_id":"58050a15-c5ad-4992-9d53-ca68c740d72b","system_id":"levelo_inurba_marseille","lat":43.30293,"lon":5.39186,"is_reserved":false,"is_disabled":true,"rental_uris":{"android":"levelo://app?vid=58050a15-c5ad-4992-9d53-ca68c740d72b","ios":"levelo://app?vid=58050a15-c5ad-4992-9d53-ca68c740d72b"},"vehicle_type_id":"4","last_reported":1773334138,"current_range_meters":22000,"station_id":"ce4bgkh2rcd13ifvqbk0","pricing_plan_id":"cebpf4jnsgd1na2vs0mg"},{"bike_id":"988db3b8-861f-418c-a7ec-7ae78131696e","system_id":"levelo_inurba_marseille","lat":43.24685,"lon":5.43354,"is_reserved":false,"is_disabled":false,"rental_uris":{"android":"levelo://app?vid=988db3b8-861f-418c-a7ec-7ae78131696e","ios":"levelo://app?vid=988db3b8-861f-418c-a7ec-7ae78131696e"},"vehicle_type_id":"4","last_reported":1773334138,"current_range_meters":25600,"station_id":"","pricing_plan_id":"cebpf4jnsgd1na2vs0mg"},{"bike_id":"dd854777-f378-4132-94e6-63027cc18b82","system_id":"levelo_inurba_marseille","lat":43.29727,"lon":5.41059,"is_reserved":false,"is_disabled":false,"rental_uris":{"android":"levelo://app?vid=dd854777-f378-4132-94e6-63027cc18b82","ios":"levelo://app?vid=dd854777-f378-4132-94e6-63027cc18b82"},"vehicle_type_id":"4","last_reported":1773334138,"current_range_meters":24000,"station_id":"","pricing_plan_id":"cebpf4jnsgd1na2vs0mg"},{"bike_id":"8834cff0-6eb6-47a0-89df-f92f2d188784","system_id":"levelo_inurba_marseille","lat":43.29631,"lon":5.3879,"is_reserved":false,"is_disabled":false,"rental_uris":{"android":"levelo://app?vid=8834cff0-6eb6-47a0-89df-f92f2d188784","ios":"levelo://app?vid=8834cff0-6eb6-47a0-89df-f92f2d188784"},"vehicle_type_id":"4","last_reported":1773334138,"current_range_meters":27600,"station_id":"","pricing_plan_id":"cebpf4jnsgd1na2vs0mg"},{"bike_id":"35a82536-c165-4433-a2e7-59ec0df78006","system_id":"levelo_inurba_marseille","lat":43.3237,"lon":5.38875,"is_reserved":false,"is_disabled":false,"rental_uris":{"android":"levelo://app?vid=35a82536-c165-4433-a2e7-59ec0df78006","ios":"levelo://app?vid=35a82536-c165-4433-a2e7-59ec0df78006"},"vehicle_type_id":"4","last_reported":1773334138,"current_range_meters":4000,"station_id":"ce4bhqp2rcd13ifvqhog","pricing_plan_id":"cebpf4jnsgd1na2vs0mg"},{"bike_id":"85b5b118-e47b-4adc-aa0c-e9bbc2d708e9","system_id":"levelo_inurba_marseille","lat":43.27374,"lon":5.42407,"is_reserved":false,"is_disabled":false,"rental_uris":{"android":"levelo://app?vid=85b5b118-e47b-4adc-aa0c-e9bbc2d708e9","ios":"levelo://app?vid=85b5b118-e47b-4adc-aa0c-e9bbc2d708e9"},"vehicle_type_id":"4","last_reported":1773334138,"current_range_meters":17600,"station_id":"","pricing_plan_id":"cebpf4jnsgd1na2vs0mg"},{"bike_id":"a91e0931-a2a2-4627-a6e4-e0e5fe1ad6b0","system_id":"levelo_inurba_marseille","lat":43.2927,"lon":5.36845,"is_reserved":false,"is_disabled":false,"rental_uris":{"android":"levelo://app?vid=a91e0931-a2a2-4627-a6e4-e0e5fe1ad6b0","ios":"levelo://app?vid=a91e0931-a2a2-4627-a6e4-e0e5fe1ad6b0"},"vehicle_type_id":"4","last_reported":1773334138,"current_range_meters":13600,"station_id":"ce4bhbp2rcd13ifvqesg","pricing_plan_id":"cebpf4jnsgd1na2vs0mg"},{"bike_id":"532f1fe9-6384-4056-88f3-ddfdd084688a","system_id":"levelo_inurba_marseille","lat":43.28979,"lon":5.42582,"is_reserved":false,"is_disabled":false,"rental_uris":{"android":"levelo://app?vid=532f1fe9-6384-4056-88f3-ddfdd084688a","ios":"levelo://app?vid=532f1fe9-6384-4056-88f3-ddfdd084688a"},"vehicle_type_id":"4","last_reported":1773334138,"current_range_meters":30400,"station_id":"","pricing_plan_id":"cebpf4jnsgd1na2vs0mg"},{"bike_id":"08506998-8ae7-4962-89f3-6ccd37448f52","system_id":"levelo_inurba_marseille","lat":43.29295,"lon":5.3685,"is_reserved":false,"is_disabled":false,"rental_uris":{"android":"levelo://app?vid=08506998-8ae7-4962-89f3-6ccd37448f52","ios":"levelo://app?vid=08506998-8ae7-4962-89f3-6ccd37448f52"},"vehicle_type_id":"4","last_reported":1773334138,"current_range_meters":9200,"station_id":"ce4bhbp2rcd13ifvqesg","pricing_plan_id":"cebpf4jnsgd1na2vs0mg"},{"bike_id":"fc4795bd-7fd3-4c14-9a9b-bcc5f999d4b0","system_id":"levelo_inurba_marseille","lat":43.23959,"lon":5.36647,"is_reserved":false,"is_disabled":false,"rental_uris":{"android":"levelo://app?vid=fc4795bd-7fd3-4c14-9a9b-bcc5f999d4b0","ios":"levelo://app?vid=fc4795bd-7fd3-4c14-9a9b-bcc5f999d4b0"},"vehicle_type_id":"4","last_reported":1773334138,"current_range_meters":33200,"station_id":"ce4bhi12rcd13ifvqfp0","pricing_plan_id":"cebpf4jnsgd1na2vs0mg"},{"bike_id":"0201f46c-39a8-4e3d-afad-23393cf05c98","system_id":"levelo_inurba_marseille","lat":43.25491,"lon":5.37666,"is_reserved":false,"is_disabled":false,"rental_uris":{"android":"levelo://app?vid=0201f46c-39a8-4e3d-afad-23393cf05c98","ios":"levelo://app?vid=0201f46c-39a8-4e3d-afad-23393cf05c98"},"vehicle_type_id":"4","last_reported":1773334138,"current_range_meters":38800,"station_id":"ce4bhh12rcd13ifvqff0","pricing_plan_id":"cebpf4jnsgd1na2vs0mg"},{"bike_id":"087bf67e-da99-4e0f-bc65-642b2288c7a5","system_id":"levelo_inurba_marseille","lat":43.25492,"lon":5.37646,"is_reserved":false,"is_disabled":false,"rental_uris":{"android":"levelo://app?vid=087bf67e-da99-4e0f-bc65-642b2288c7a5","ios":"levelo://app?vid=087bf67e-da99-4e0f-bc65-642b2288c7a5"},"vehicle_type_id":"4","last_reported":1773334138,"current_range_meters":40000,"station_id":"ce4bhh12rcd13ifvqff0","pricing_plan_id":"cebpf4jnsgd1na2vs0mg"},{"bike_id":"714b8057-ec12-4240-acd3-7f97fc6b2ebc","system_id":"levelo_inurba_marseille","lat":43.29799,"lon":5.37116,"is_reserved":false,"is_disabled":false,"rental_uris":{"android":"levelo://app?vid=714b8057-ec12-4240-acd3-7f97fc6b2ebc","ios":"levelo://app?vid=714b8057-ec12-4240-acd3-7f97fc6b2ebc"},"vehicle_type_id":"4","last_reported":1773334138,"current_range_meters":16000,"station_id":"ce4bgop2rcd13ifvqc1g","pricing_plan_id":"cebpf4jnsgd1na2vs0mg"},{"bike_id":"937425a6-6b1f-4d7a-a720-58bd8c05238c","system_id":"levelo_inurba_marseille","lat":43.29389,"lon":5.37921,"is_reserved":false,"is_disabled":false,"rental_uris":{"android":"levelo://app?vid=937425a6-6b1f-4d7a-a720-58bd8c05238c","ios":"levelo://app?vid=937425a6-6b1f-4d7a-a720-58bd8c05238c"},"vehicle_type_id":"4","last_reported":1773334138,"current_range_meters":35200,"station_id":"","pricing_plan_id":"cebpf4jnsgd1na2vs0mg"},{"bike_id":"64987c27-f305-4d9c-82ad-26bef65383d9","system_id":"levelo_inurba_marseille","lat":43.27986,"lon":5.41661,"is_reserved":false,"is_disabled":false,"rental_uris":{"android":"levelo://app?vid=64987c27-f305-4d9c-82ad-26bef65383d9","ios":"levelo://app?vid=64987c27-f305-4d9c-82ad-26bef65383d9"},"vehicle_type_id":"4","last_reported":1773334138,"current_range_meters":12800,"station_id":"ce4bho12rcd13ifvqh1g","pricing_plan_id":"cebpf4jnsgd1na2vs0mg"},{"bike_id":"9ef5200f-9014-497d-be16-41d4d67c6e84","system_id":"levelo_inurba_marseille","lat":43.30519,"lon":5.36697,"is_reserved":false,"is_disabled":false,"rental_uris":{"android":"levelo://app?vid=9ef5200f-9014-497d-be16-41d4d67c6e84","ios":"levelo://app?vid=9ef5200f-9014-497d-be16-41d4d67c6e84"},"vehicle_type_id":"4","last_reported":1773334138,"current_range_meters":29600,"station_id":"ce4bgrp2rcd13ifvqc9g","pricing_plan_id":"cebpf4jnsgd1na2vs0mg"},{"bike_id":"b94c3b6d-7912-4bb7-bd16-b874ff101a3d","system_id":"levelo_inurba_marseille","lat":43.24809,"lon":5.37444,"is_reserved":false,"is_disabled":false,"rental_uris":{"android":"levelo://app?vid=b94c3b6d-7912-4bb7-bd16-b874ff101a3d","ios":"levelo://app?vid=b94c3b6d-7912-4bb7-bd16-b874ff101a3d"},"vehicle_type_id":"4","last_reported":1773334138,"current_range_meters":25200,"station_id":"ce4bhgh2rcd13ifvqfb0","pricing_plan_id":"cebpf4jnsgd1na2vs0mg"},{"bike_id":"54afb379-a9b4-4af3-8a9e-239b9433228c","system_id":"levelo_inurba_marseille","lat":43.29903,"lon":5.43657,"is_reserved":false,"is_disabled":false,"rental_uris":{"android":"levelo://app?vid=54afb379-a9b4-4af3-8a9e-239b9433228c","ios":"levelo://app?vid=54afb379-a9b4-4af3-8a9e-239b9433228c"},"vehicle_type_id":"4","last_reported":1773334138,"current_range_meters":28400,"station_id":"ce4bhpp2rcd13ifvqhfg","pricing_plan_id":"cebpf4jnsgd1na2vs0mg"},{"bike_id":"1866c223-50ab-4283-b8a6-28a247e511e9","system_id":"levelo_inurba_marseille","lat":43.32778,"lon":5.36727,"is_reserved":false,"is_disabled":false,"rental_uris":{"android":"levelo://app?vid=1866c223-50ab-4283-b8a6-28a247e511e9","ios":"levelo://app?vid=1866c223-50ab-4283-b8a6-28a247e511e9"},"vehicle_type_id":"4","last_reported":1773334138,"current_range_meters":38800,"station_id":"","pricing_plan_id":"cebpf4jnsgd1na2vs0mg"},{"bike_id":"846247c3-7ba9-4141-9376-a46067afdc1d","system_id":"levelo_inurba_marseille","lat":43.21212,"lon":5.35071,"is_reserved":false,"is_disabled":false,"rental_uris":{"android":"levelo://app?vid=846247c3-7ba9-4141-9376-a46067afdc1d","ios":"levelo://app?vid=846247c3-7ba9-4141-9376-a46067afdc1d"},"vehicle_type_id":"4","last_reported":1773334138,"current_range_meters":28000,"station_id":"st_cvj6sg6p6f1abm77japg","pricing_plan_id":"cebpf4jnsgd1na2vs0mg"},{"bike_id":"74cb2b6f-9305-47f1-bb68-6c880d035389","system_id":"levelo_inurba_marseille","lat":43.29616,"lon":5.37157,"is_reserved":false,"is_disabled":false,"rental_uris":{"android":"levelo://app?vid=74cb2b6f-9305-47f1-bb68-6c880d035389","ios":"levelo://app?vid=74cb2b6f-9305-47f1-bb68-6c880d035389"},"vehicle_type_id":"4","last_reported":1773334138,"current_range_meters":39200,"station_id":"ce4bgnh2rcd13ifvqc0g","pricing_plan_id":"cebpf4jnsgd1na2vs0mg"},{"bike_id":"85027943-df55-416f-9da1-ea4ca84b0bd0","system_id":"levelo_inurba_marseille","lat":43.29165,"lon":5.37149,"is_reserved":false,"is_disabled":false,"rental_uris":{"android":"levelo://app?vid=85027943-df55-416f-9da1-ea4ca84b0bd0","ios":"levelo://app?vid=85027943-df55-416f-9da1-ea4ca84b0bd0"},"vehicle_type_id":"4","last_reported":1773334138,"current_range_meters":36400,"station_id":"ce4bha92rcd13ifvqeh0","pricing_plan_id":"cebpf4jnsgd1na2vs0mg"},{"bike_id":"80bc8e17-2069-4f88-98a6-d3a3ecfb71fe","system_id":"levelo_inurba_marseille","lat":43.2558,"lon":5.38236,"is_reserved":false,"is_disabled":false,"rental_uris":{"android":"levelo://app?vid=80bc8e17-2069-4f88-98a6-d3a3ecfb71fe","ios":"levelo://app?vid=80bc8e17-2069-4f88-98a6-d3a3ecfb71fe"},"vehicle_type_id":"4","last_reported":1773334138,"current_range_meters":30400,"station_id":"ce4bhih2rcd13ifvqfs0","pricing_plan_id":"cebpf4jnsgd1na2vs0mg"},{"bike_id":"d2bcd2b3-b9c0-44b8-b65e-328220c5307e","system_id":"levelo_inurba_marseille","lat":43.29116,"lon":5.43276,"is_reserved":false,"is_disabled":false,"rental_uris":{"android":"levelo://app?vid=d2bcd2b3-b9c0-44b8-b65e-328220c5307e","ios":"levelo://app?vid=d2bcd2b3-b9c0-44b8-b65e-328220c5307e"},"vehicle_type_id":"4","last_reported":1773334138,"current_range_meters":39200,"station_id":"","pricing_plan_id":"cebpf4jnsgd1na2vs0mg"},{"bike_id":"801e310e-d83e-452a-827b-f0f43a0c1cca","system_id":"levelo_inurba_marseille","lat":43.28156,"lon":5.42634,"is_reserved":false,"is_disabled":false,"rental_uris":{"android":"levelo://app?vid=801e310e-d83e-452a-827b-f0f43a0c1cca","ios":"levelo://app?vid=801e310e-d83e-452a-827b-f0f43a0c1cca"},"vehicle_type_id":"4","last_reported":1773334138,"current_range_meters":22000,"station_id":"ce4bhnh2rcd13ifvqgug","pricing_plan_id":"cebpf4jnsgd1na2vs0mg"},{"bike_id":"a50db47c-b4f2-4a58-ae7d-0a4f7384612e","system_id":"levelo_inurba_marseille","lat":43.29944,"lon":5.37521,"is_reserved":false,"is_disabled":false,"rental_uris":{"android":"levelo://app?vid=a50db47c-b4f2-4a58-ae7d-0a4f7384612e","ios":"levelo://app?vid=a50db47c-b4f2-4a58-ae7d-0a4f7384612e"},"vehicle_type_id":"4","last_reported":1773334138,"current_range_meters":32000,"station_id":"ce4bgjh2rcd13ifvqbg0","pricing_plan_id":"cebpf4jnsgd1na2vs0mg"},{"bike_id":"896440e6-cef8-4268-bb86-ac2c6e2de747","system_id":"levelo_inurba_marseille","lat":43.28466,"lon":5.48407,"is_reserved":false,"is_disabled":false,"rental_uris":{"android":"levelo://app?vid=896440e6-cef8-4268-bb86-ac2c6e2de747","ios":"levelo://app?vid=896440e6-cef8-4268-bb86-ac2c6e2de747"},"vehicle_type_id":"4","last_reported":1773334138,"current_range_meters":29600,"station_id":"","pricing_plan_id":"cebpf4jnsgd1na2vs0mg"},{"bike_id":"5d7e2e83-df31-4088-80ef-61fb99fb6f09","system_id":"levelo_inurba_marseille","lat":43.28458,"lon":5.35877,"is_reserved":false,"is_disabled":false,"rental_uris":{"android":"levelo://app?vid=5d7e2e83-df31-4088-80ef-61fb99fb6f09","ios":"levelo://app?vid=5d7e2e83-df31-4088-80ef-61fb99fb6f09"},"vehicle_type_id":"4","last_reported":1773334138,"current_range_meters":18800,"station_id":"ce4bhah2rcd13ifvqei0","pricing_plan_id":"cebpf4jnsgd1na2vs0mg"},{"bike_id":"2c1215f2-9624-4e50-bbbb-a53264cdd31e","system_id":"levelo_inurba_marseille","lat":43.2848,"lon":5.48391,"is_reserved":false,"is_disabled":false,"rental_uris":{"android":"levelo://app?vid=2c1215f2-9624-4e50-bbbb-a53264cdd31e","ios":"levelo://app?vid=2c1215f2-9624-4e50-bbbb-a53264cdd31e"},"vehicle_type_id":"4","last_reported":1773334138,"current_range_meters":17200,"station_id":"","pricing_plan_id":"cebpf4jnsgd1na2vs0mg"},{"bike_id":"820da0c9-d81c-46b5-807a-0a8a9502e088","system_id":"levelo_inurba_marseille","lat":43.30951,"lon":5.39038,"is_reserved":false,"is_disabled":false,"rental_uris":{"android":"levelo://app?vid=820da0c9-d81c-46b5-807a-0a8a9502e088","ios":"levelo://app?vid=820da0c9-d81c-46b5-807a-0a8a9502e088"},"vehicle_type_id":"4","last_reported":1773334138,"current_range_meters":14800,"station_id":"ce4bgup2rcd13ifvqco0","pricing_plan_id":"cebpf4jnsgd1na2vs0mg"},{"bike_id":"c1db54c2-038e-4f3d-a503-c0e3fc6c96ed","system_id":"levelo_inurba_marseille","lat":43.33547,"lon":5.37459,"is_reserved":false,"is_disabled":false,"rental_uris":{"android":"levelo://app?vid=c1db54c2-038e-4f3d-a503-c0e3fc6c96ed","ios":"levelo://app?vid=c1db54c2-038e-4f3d-a503-c0e3fc6c96ed"},"vehicle_type_id":"4","last_reported":1773334138,"current_range_meters":14800,"station_id":"st_d46tts09ee8s73dlu43g","pricing_plan_id":"cebpf4jnsgd1na2vs0mg"},{"bike_id":"a0ab89fd-d4e3-4039-8377-577b0acf001d","system_id":"levelo_inurba_marseille","lat":43.24367,"lon":5.44096,"is_reserved":false,"is_disabled":true,"rental_uris":{"android":"levelo://app?vid=a0ab89fd-d4e3-4039-8377-577b0acf001d","ios":"levelo://app?vid=a0ab89fd-d4e3-4039-8377-577b0acf001d"},"vehicle_type_id":"4","last_reported":1773334138,"current_range_meters":8400,"station_id":"","pricing_plan_id":"cebpf4jnsgd1na2vs0mg"},{"bike_id":"a5f0fcf2-4428-466f-8d7e-9ffbba7bbbc4","system_id":"levelo_inurba_marseille","lat":43.29868,"lon":5.39743,"is_reserved":false,"is_disabled":false,"rental_uris":{"android":"levelo://app?vid=a5f0fcf2-4428-466f-8d7e-9ffbba7bbbc4","ios":"levelo://app?vid=a5f0fcf2-4428-466f-8d7e-9ffbba7bbbc4"},"vehicle_type_id":"4","last_reported":1773334138,"current_range_meters":14800,"station_id":"ce4bh0h2rcd13ifvqd50","pricing_plan_id":"cebpf4jnsgd1na2vs0mg"},{"bike_id":"80bd979b-2af1-4064-8794-ea9838a6fdc5","system_id":"levelo_inurba_marseille","lat":43.29545,"lon":5.39071,"is_reserved":false,"is_disabled":false,"rental_uris":{"android":"levelo://app?vid=80bd979b-2af1-4064-8794-ea9838a6fdc5","ios":"levelo://app?vid=80bd979b-2af1-4064-8794-ea9838a6fdc5"},"vehicle_type_id":"4","last_reported":1773334138,"current_range_meters":3200,"station_id":"ce4bh3p2rcd13ifvqdp0","pricing_plan_id":"cebpf4jnsgd1na2vs0mg"},{"bike_id":"e96d5d69-54ba-4540-8642-15151d627faa","system_id":"levelo_inurba_marseille","lat":43.30542,"lon":5.3652,"is_reserved":false,"is_disabled":false,"rental_uris":{"android":"levelo://app?vid=e96d5d69-54ba-4540-8642-15151d627faa","ios":"levelo://app?vid=e96d5d69-54ba-4540-8642-15151d627faa"},"vehicle_type_id":"4","last_reported":1773334138,"current_range_meters":38000,"station_id":"ce4bgs12rcd13ifvqcag","pricing_plan_id":"cebpf4jnsgd1na2vs0mg"},{"bike_id":"48095d59-6ef5-49df-85b8-b58fde43fb8e","system_id":"levelo_inurba_marseille","lat":43.29054,"lon":5.3588,"is_reserved":false,"is_disabled":false,"rental_uris":{"android":"levelo://app?vid=48095d59-6ef5-49df-85b8-b58fde43fb8e","ios":"levelo://app?vid=48095d59-6ef5-49df-85b8-b58fde43fb8e"},"vehicle_type_id":"4","last_reported":1773334138,"current_range_meters":38800,"station_id":"ce4bha92rcd13ifvqeg0","pricing_plan_id":"cebpf4jnsgd1na2vs0mg"},{"bike_id":"074abf32-ac3f-4657-8880-be02438a7ff0","system_id":"levelo_inurba_marseille","lat":43.23193,"lon":5.39982,"is_reserved":false,"is_disabled":false,"rental_uris":{"android":"levelo://app?vid=074abf32-ac3f-4657-8880-be02438a7ff0","ios":"levelo://app?vid=074abf32-ac3f-4657-8880-be02438a7ff0"},"vehicle_type_id":"4","last_reported":1773334138,"current_range_meters":40000,"station_id":"ce4bhn12rcd13ifvqgqg","pricing_plan_id":"cebpf4jnsgd1na2vs0mg"},{"bike_id":"1d76b193-80b6-44cd-abfe-591258883bf0","system_id":"levelo_inurba_marseille","lat":43.2655,"lon":5.4034,"is_reserved":false,"is_disabled":false,"rental_uris":{"android":"levelo://app?vid=1d76b193-80b6-44cd-abfe-591258883bf0","ios":"levelo://app?vid=1d76b193-80b6-44cd-abfe-591258883bf0"},"vehicle_type_id":"4","last_reported":1773334138,"current_range_meters":35200,"station_id":"ce4bhmp2rcd13ifvqgng","pricing_plan_id":"cebpf4jnsgd1na2vs0mg"},{"bike_id":"e8b7d766-9ece-4870-a1b8-5b316a1b8e67","system_id":"levelo_inurba_marseille","lat":43.22563,"lon":5.41612,"is_reserved":false,"is_disabled":false,"rental_uris":{"android":"levelo://app?vid=e8b7d766-9ece-4870-a1b8-5b316a1b8e67","ios":"levelo://app?vid=e8b7d766-9ece-4870-a1b8-5b316a1b8e67"},"vehicle_type_id":"4","last_reported":1773334138,"current_range_meters":14400,"station_id":"st_d2o4gvlbi1j2169b742g","pricing_plan_id":"cebpf4jnsgd1na2vs0mg"},{"bike_id":"d6e33741-be01-4184-a659-f0a031ff17ef","system_id":"levelo_inurba_marseille","lat":43.28212,"lon":5.39028,"is_reserved":false,"is_disabled":true,"rental_uris":{"android":"levelo://app?vid=d6e33741-be01-4184-a659-f0a031ff17ef","ios":"levelo://app?vid=d6e33741-be01-4184-a659-f0a031ff17ef"},"vehicle_type_id":"4","last_reported":1773334138,"current_range_meters":38400,"station_id":"ce4bhn92rcd13ifvqgsg","pricing_plan_id":"cebpf4jnsgd1na2vs0mg"},{"bike_id":"e6d387b1-5b56-40d8-ac0f-550762b993ef","system_id":"levelo_inurba_marseille","lat":43.28425,"lon":5.34996,"is_reserved":false,"is_disabled":false,"rental_uris":{"android":"levelo://app?vid=e6d387b1-5b56-40d8-ac0f-550762b993ef","ios":"levelo://app?vid=e6d387b1-5b56-40d8-ac0f-550762b993ef"},"vehicle_type_id":"4","last_reported":1773334138,"current_range_meters":16400,"station_id":"ce4bhbh2rcd13ifvqepg","pricing_plan_id":"cebpf4jnsgd1na2vs0mg"},{"bike_id":"24e39cc1-8412-47be-81a7-dccf2b449598","system_id":"levelo_inurba_marseille","lat":43.26485,"lon":5.39548,"is_reserved":false,"is_disabled":false,"rental_uris":{"android":"levelo://app?vid=24e39cc1-8412-47be-81a7-dccf2b449598","ios":"levelo://app?vid=24e39cc1-8412-47be-81a7-dccf2b449598"},"vehicle_type_id":"4","last_reported":1773334138,"current_range_meters":8000,"station_id":"ce4bhi12rcd13ifvqfq0","pricing_plan_id":"cebpf4jnsgd1na2vs0mg"},{"bike_id":"aebc5f94-38dd-4a35-9828-a488d8c95747","system_id":"levelo_inurba_marseille","lat":43.31125,"lon":5.37788,"is_reserved":false,"is_disabled":false,"rental_uris":{"android":"levelo://app?vid=aebc5f94-38dd-4a35-9828-a488d8c95747","ios":"levelo://app?vid=aebc5f94-38dd-4a35-9828-a488d8c95747"},"vehicle_type_id":"4","last_reported":1773334138,"current_range_meters":7200,"station_id":"ce4bgt92rcd13ifvqcg0","pricing_plan_id":"cebpf4jnsgd1na2vs0mg"},{"bike_id":"e50c6797-fb66-441b-97d0-c7fbbc3eb9c6","system_id":"levelo_inurba_marseille","lat":43.31718,"lon":5.43713,"is_reserved":false,"is_disabled":false,"rental_uris":{"android":"levelo://app?vid=e50c6797-fb66-441b-97d0-c7fbbc3eb9c6","ios":"levelo://app?vid=e50c6797-fb66-441b-97d0-c7fbbc3eb9c6"},"vehicle_type_id":"4","last_reported":1773334138,"current_range_meters":25600,"station_id":"ce4bhp92rcd13ifvqhcg","pricing_plan_id":"cebpf4jnsgd1na2vs0mg"},{"bike_id":"d936ee88-e6c5-41eb-94c9-c0f089a32b91","system_id":"levelo_inurba_marseille","lat":43.31197,"lon":5.37719,"is_reserved":false,"is_disabled":false,"rental_uris":{"android":"levelo://app?vid=d936ee88-e6c5-41eb-94c9-c0f089a32b91","ios":"levelo://app?vid=d936ee88-e6c5-41eb-94c9-c0f089a32b91"},"vehicle_type_id":"4","last_reported":1773334138,"current_range_meters":28800,"station_id":"","pricing_plan_id":"cebpf4jnsgd1na2vs0mg"},{"bike_id":"6f0a3cc3-6813-4500-a3c6-047f7386dff2","system_id":"levelo_inurba_marseille","lat":43.27199,"lon":5.40989,"is_reserved":false,"is_disabled":false,"rental_uris":{"android":"levelo://app?vid=6f0a3cc3-6813-4500-a3c6-047f7386dff2","ios":"levelo://app?vid=6f0a3cc3-6813-4500-a3c6-047f7386dff2"},"vehicle_type_id":"4","last_reported":1773334138,"current_range_meters":37600,"station_id":"ce4bhl12rcd13ifvqgf0","pricing_plan_id":"cebpf4jnsgd1na2vs0mg"},{"bike_id":"7c5d90d1-8ba7-4d11-a859-9263fa5d367b","system_id":"levelo_inurba_marseille","lat":43.337444,"lon":5.374475,"is_reserved":false,"is_disabled":true,"rental_uris":{"android":"levelo://app?vid=7c5d90d1-8ba7-4d11-a859-9263fa5d367b","ios":"levelo://app?vid=7c5d90d1-8ba7-4d11-a859-9263fa5d367b"},"vehicle_type_id":"4","last_reported":1773334138,"current_range_meters":6400,"station_id":"","pricing_plan_id":"cebpf4jnsgd1na2vs0mg"},{"bike_id":"0a79b8b1-3406-4c95-ad4a-765f92b50cbd","system_id":"levelo_inurba_marseille","lat":43.30965,"lon":5.39057,"is_reserved":false,"is_disabled":true,"rental_uris":{"android":"levelo://app?vid=0a79b8b1-3406-4c95-ad4a-765f92b50cbd","ios":"levelo://app?vid=0a79b8b1-3406-4c95-ad4a-765f92b50cbd"},"vehicle_type_id":"4","last_reported":1773334138,"current_range_meters":1200,"station_id":"ce4bgup2rcd13ifvqco0","pricing_plan_id":"cebpf4jnsgd1na2vs0mg"},{"bike_id":"2747c85c-374e-45b4-84a4-d941c63b9167","system_id":"levelo_inurba_marseille","lat":43.31354,"lon":5.38498,"is_reserved":false,"is_disabled":false,"rental_uris":{"android":"levelo://app?vid=2747c85c-374e-45b4-84a4-d941c63b9167","ios":"levelo://app?vid=2747c85c-374e-45b4-84a4-d941c63b9167"},"vehicle_type_id":"4","last_reported":1773334138,"current_range_meters":36800,"station_id":"ce4bgt92rcd13ifvqcf0","pricing_plan_id":"cebpf4jnsgd1na2vs0mg"},{"bike_id":"f62cbee2-12e5-4cdd-bfbc-04088f9f32fa","system_id":"levelo_inurba_marseille","lat":43.28481,"lon":5.48387,"is_reserved":false,"is_disabled":false,"rental_uris":{"android":"levelo://app?vid=f62cbee2-12e5-4cdd-bfbc-04088f9f32fa","ios":"levelo://app?vid=f62cbee2-12e5-4cdd-bfbc-04088f9f32fa"},"vehicle_type_id":"4","last_reported":1773334138,"current_range_meters":15200,"station_id":"","pricing_plan_id":"cebpf4jnsgd1na2vs0mg"},{"bike_id":"417f56ab-a693-48a1-9a01-08fefab7c6bf","system_id":"levelo_inurba_marseille","lat":43.28889,"lon":5.37993,"is_reserved":false,"is_disabled":false,"rental_uris":{"android":"levelo://app?vid=417f56ab-a693-48a1-9a01-08fefab7c6bf","ios":"levelo://app?vid=417f56ab-a693-48a1-9a01-08fefab7c6bf"},"vehicle_type_id":"4","last_reported":1773334138,"current_range_meters":3200,"station_id":"","pricing_plan_id":"cebpf4jnsgd1na2vs0mg"},{"bike_id":"d2bea801-28aa-4b1a-a07b-00a4fc8e33d4","system_id":"levelo_inurba_marseille","lat":43.26062,"lon":5.39392,"is_reserved":false,"is_disabled":false,"rental_uris":{"android":"levelo://app?vid=d2bea801-28aa-4b1a-a07b-00a4fc8e33d4","ios":"levelo://app?vid=d2bea801-28aa-4b1a-a07b-00a4fc8e33d4"},"vehicle_type_id":"4","last_reported":1773334138,"current_range_meters":12400,"station_id":"ce4bhh92rcd13ifvqfj0","pricing_plan_id":"cebpf4jnsgd1na2vs0mg"},{"bike_id":"681fca49-d7d0-4d64-ba5f-a1615360789c","system_id":"levelo_inurba_marseille","lat":43.25837,"lon":5.39438,"is_reserved":false,"is_disabled":false,"rental_uris":{"android":"levelo://app?vid=681fca49-d7d0-4d64-ba5f-a1615360789c","ios":"levelo://app?vid=681fca49-d7d0-4d64-ba5f-a1615360789c"},"vehicle_type_id":"4","last_reported":1773334138,"current_range_meters":32400,"station_id":"ce4bhip2rcd13ifvqft0","pricing_plan_id":"cebpf4jnsgd1na2vs0mg"},{"bike_id":"e824a880-56b7-440e-8a54-db91d8597347","system_id":"levelo_inurba_marseille","lat":43.23196,"lon":5.35576,"is_reserved":false,"is_disabled":false,"rental_uris":{"android":"levelo://app?vid=e824a880-56b7-440e-8a54-db91d8597347","ios":"levelo://app?vid=e824a880-56b7-440e-8a54-db91d8597347"},"vehicle_type_id":"4","last_reported":1773334138,"current_range_meters":16000,"station_id":"ce4bhu92rcd13ifvqi70","pricing_plan_id":"cebpf4jnsgd1na2vs0mg"},{"bike_id":"ba3a231f-10a0-4302-b0e7-08f11861cd04","system_id":"levelo_inurba_marseille","lat":43.28481,"lon":5.48389,"is_reserved":false,"is_disabled":false,"rental_uris":{"android":"levelo://app?vid=ba3a231f-10a0-4302-b0e7-08f11861cd04","ios":"levelo://app?vid=ba3a231f-10a0-4302-b0e7-08f11861cd04"},"vehicle_type_id":"4","last_reported":1773334138,"current_range_meters":36400,"station_id":"","pricing_plan_id":"cebpf4jnsgd1na2vs0mg"},{"bike_id":"be671c5b-fb45-47d4-8232-4da9e39592ca","system_id":"levelo_inurba_marseille","lat":43.26198,"lon":5.37438,"is_reserved":false,"is_disabled":false,"rental_uris":{"android":"levelo://app?vid=be671c5b-fb45-47d4-8232-4da9e39592ca","ios":"levelo://app?vid=be671c5b-fb45-47d4-8232-4da9e39592ca"},"vehicle_type_id":"4","last_reported":1773334138,"current_range_meters":16400,"station_id":"ce4bhgp2rcd13ifvqfc0","pricing_plan_id":"cebpf4jnsgd1na2vs0mg"},{"bike_id":"352c9f7d-89b4-42e5-9e2e-76d972a274bd","system_id":"levelo_inurba_marseille","lat":43.28903,"lon":5.4294,"is_reserved":false,"is_disabled":false,"rental_uris":{"android":"levelo://app?vid=352c9f7d-89b4-42e5-9e2e-76d972a274bd","ios":"levelo://app?vid=352c9f7d-89b4-42e5-9e2e-76d972a274bd"},"vehicle_type_id":"4","last_reported":1773334138,"current_range_meters":6800,"station_id":"","pricing_plan_id":"cebpf4jnsgd1na2vs0mg"},{"bike_id":"277b26df-f47c-4d3e-9f74-f3b4202051d5","system_id":"levelo_inurba_marseille","lat":43.31169,"lon":5.38735,"is_reserved":false,"is_disabled":false,"rental_uris":{"android":"levelo://app?vid=277b26df-f47c-4d3e-9f74-f3b4202051d5","ios":"levelo://app?vid=277b26df-f47c-4d3e-9f74-f3b4202051d5"},"vehicle_type_id":"4","last_reported":1773334138,"current_range_meters":33200,"station_id":"ce4bgv12rcd13ifvqcp0","pricing_plan_id":"cebpf4jnsgd1na2vs0mg"},{"bike_id":"c59a5209-1b70-42df-8250-859beecf23e1","system_id":"levelo_inurba_marseille","lat":43.23206,"lon":5.3555,"is_reserved":false,"is_disabled":false,"rental_uris":{"android":"levelo://app?vid=c59a5209-1b70-42df-8250-859beecf23e1","ios":"levelo://app?vid=c59a5209-1b70-42df-8250-859beecf23e1"},"vehicle_type_id":"4","last_reported":1773334138,"current_range_meters":35200,"station_id":"ce4bhu92rcd13ifvqi70","pricing_plan_id":"cebpf4jnsgd1na2vs0mg"},{"bike_id":"fed428a6-a508-4132-94d7-783075e10fe3","system_id":"levelo_inurba_marseille","lat":43.32362,"lon":5.36749,"is_reserved":false,"is_disabled":false,"rental_uris":{"android":"levelo://app?vid=fed428a6-a508-4132-94d7-783075e10fe3","ios":"levelo://app?vid=fed428a6-a508-4132-94d7-783075e10fe3"},"vehicle_type_id":"4","last_reported":1773334138,"current_range_meters":37600,"station_id":"ce4bhsh2rcd13ifvqi2g","pricing_plan_id":"cebpf4jnsgd1na2vs0mg"},{"bike_id":"973f886a-6d60-4787-bb49-d60e5d22606a","system_id":"levelo_inurba_marseille","lat":43.24808,"lon":5.37455,"is_reserved":false,"is_disabled":false,"rental_uris":{"android":"levelo://app?vid=973f886a-6d60-4787-bb49-d60e5d22606a","ios":"levelo://app?vid=973f886a-6d60-4787-bb49-d60e5d22606a"},"vehicle_type_id":"4","last_reported":1773334138,"current_range_meters":32400,"station_id":"ce4bhgh2rcd13ifvqfb0","pricing_plan_id":"cebpf4jnsgd1na2vs0mg"},{"bike_id":"7fadae5d-17a2-426e-9475-df74969c9cbb","system_id":"levelo_inurba_marseille","lat":43.28226,"lon":5.39075,"is_reserved":false,"is_disabled":false,"rental_uris":{"android":"levelo://app?vid=7fadae5d-17a2-426e-9475-df74969c9cbb","ios":"levelo://app?vid=7fadae5d-17a2-426e-9475-df74969c9cbb"},"vehicle_type_id":"4","last_reported":1773334138,"current_range_meters":22800,"station_id":"ce4bhn92rcd13ifvqgsg","pricing_plan_id":"cebpf4jnsgd1na2vs0mg"},{"bike_id":"e55c52e9-43cb-4f3d-ab3b-c275a0e2d597","system_id":"levelo_inurba_marseille","lat":43.30546,"lon":5.36522,"is_reserved":false,"is_disabled":false,"rental_uris":{"android":"levelo://app?vid=e55c52e9-43cb-4f3d-ab3b-c275a0e2d597","ios":"levelo://app?vid=e55c52e9-43cb-4f3d-ab3b-c275a0e2d597"},"vehicle_type_id":"4","last_reported":1773334138,"current_range_meters":24000,"station_id":"ce4bgs12rcd13ifvqcag","pricing_plan_id":"cebpf4jnsgd1na2vs0mg"},{"bike_id":"035b30d5-a74b-4e35-8731-fb649d854586","system_id":"levelo_inurba_marseille","lat":43.29216,"lon":5.36067,"is_reserved":false,"is_disabled":false,"rental_uris":{"android":"levelo://app?vid=035b30d5-a74b-4e35-8731-fb649d854586","ios":"levelo://app?vid=035b30d5-a74b-4e35-8731-fb649d854586"},"vehicle_type_id":"4","last_reported":1773334138,"current_range_meters":25200,"station_id":"ce4bhbh2rcd13ifvqeqg","pricing_plan_id":"cebpf4jnsgd1na2vs0mg"},{"bike_id":"e8e891cf-164b-4375-8667-e5eaa1ef09df","system_id":"levelo_inurba_marseille","lat":43.3175,"lon":5.3901,"is_reserved":false,"is_disabled":false,"rental_uris":{"android":"levelo://app?vid=e8e891cf-164b-4375-8667-e5eaa1ef09df","ios":"levelo://app?vid=e8e891cf-164b-4375-8667-e5eaa1ef09df"},"vehicle_type_id":"4","last_reported":1773334138,"current_range_meters":34800,"station_id":"ce4bhqp2rcd13ifvqhng","pricing_plan_id":"cebpf4jnsgd1na2vs0mg"},{"bike_id":"4c8637a7-5e25-4996-ab2b-e2e351826a5b","system_id":"levelo_inurba_marseille","lat":43.29253,"lon":5.38435,"is_reserved":false,"is_disabled":false,"rental_uris":{"android":"levelo://app?vid=4c8637a7-5e25-4996-ab2b-e2e351826a5b","ios":"levelo://app?vid=4c8637a7-5e25-4996-ab2b-e2e351826a5b"},"vehicle_type_id":"4","last_reported":1773334138,"current_range_meters":39200,"station_id":"ce4bh692rcd13ifvqea0","pricing_plan_id":"cebpf4jnsgd1na2vs0mg"},{"bike_id":"a540b441-3928-4042-84dc-78cbd8de6fd0","system_id":"levelo_inurba_marseille","lat":43.24411,"lon":5.37075,"is_reserved":false,"is_disabled":false,"rental_uris":{"android":"levelo://app?vid=a540b441-3928-4042-84dc-78cbd8de6fd0","ios":"levelo://app?vid=a540b441-3928-4042-84dc-78cbd8de6fd0"},"vehicle_type_id":"4","last_reported":1773334138,"current_range_meters":30000,"station_id":"ce4bhhh2rcd13ifvqfk0","pricing_plan_id":"cebpf4jnsgd1na2vs0mg"},{"bike_id":"32bd028c-4df1-4648-ba2a-263dd3d46a56","system_id":"levelo_inurba_marseille","lat":43.27672,"lon":5.38907,"is_reserved":false,"is_disabled":false,"rental_uris":{"android":"levelo://app?vid=32bd028c-4df1-4648-ba2a-263dd3d46a56","ios":"levelo://app?vid=32bd028c-4df1-4648-ba2a-263dd3d46a56"},"vehicle_type_id":"4","last_reported":1773334138,"current_range_meters":40000,"station_id":"ce4bhi12rcd13ifvqfo0","pricing_plan_id":"cebpf4jnsgd1na2vs0mg"},{"bike_id":"4d9955e1-63cd-4eb1-84d6-f2acfdd55e89","system_id":"levelo_inurba_marseille","lat":43.28423,"lon":5.34995,"is_reserved":false,"is_disabled":false,"rental_uris":{"android":"levelo://app?vid=4d9955e1-63cd-4eb1-84d6-f2acfdd55e89","ios":"levelo://app?vid=4d9955e1-63cd-4eb1-84d6-f2acfdd55e89"},"vehicle_type_id":"4","last_reported":1773334138,"current_range_meters":14400,"station_id":"ce4bhbh2rcd13ifvqepg","pricing_plan_id":"cebpf4jnsgd1na2vs0mg"},{"bike_id":"eb7402b0-d2c7-4043-aa11-cd75870274a3","system_id":"levelo_inurba_marseille","lat":43.2681,"lon":5.40256,"is_reserved":false,"is_disabled":false,"rental_uris":{"android":"levelo://app?vid=eb7402b0-d2c7-4043-aa11-cd75870274a3","ios":"levelo://app?vid=eb7402b0-d2c7-4043-aa11-cd75870274a3"},"vehicle_type_id":"4","last_reported":1773334138,"current_range_meters":33600,"station_id":"ce501612rcd8frsf0b60","pricing_plan_id":"cebpf4jnsgd1na2vs0mg"},{"bike_id":"09c22fbe-38de-4244-bd88-c1926dd23ed8","system_id":"levelo_inurba_marseille","lat":43.25128,"lon":5.40325,"is_reserved":false,"is_disabled":false,"rental_uris":{"android":"levelo://app?vid=09c22fbe-38de-4244-bd88-c1926dd23ed8","ios":"levelo://app?vid=09c22fbe-38de-4244-bd88-c1926dd23ed8"},"vehicle_type_id":"4","last_reported":1773334138,"current_range_meters":40000,"station_id":"ce4bhlh2rcd13ifvqgig","pricing_plan_id":"cebpf4jnsgd1na2vs0mg"},{"bike_id":"cadb7f92-fd00-47b7-bb8a-b7f1f3d5d7d0","system_id":"levelo_inurba_marseille","lat":43.26027,"lon":5.37553,"is_reserved":false,"is_disabled":false,"rental_uris":{"android":"levelo://app?vid=cadb7f92-fd00-47b7-bb8a-b7f1f3d5d7d0","ios":"levelo://app?vid=cadb7f92-fd00-47b7-bb8a-b7f1f3d5d7d0"},"vehicle_type_id":"4","last_reported":1773334138,"current_range_meters":22800,"station_id":"ce4bhgh2rcd13ifvqfa0","pricing_plan_id":"cebpf4jnsgd1na2vs0mg"},{"bike_id":"17092a17-ecc2-4869-9543-a7b9eb4bf6ef","system_id":"levelo_inurba_marseille","lat":43.21193,"lon":5.35079,"is_reserved":false,"is_disabled":false,"rental_uris":{"android":"levelo://app?vid=17092a17-ecc2-4869-9543-a7b9eb4bf6ef","ios":"levelo://app?vid=17092a17-ecc2-4869-9543-a7b9eb4bf6ef"},"vehicle_type_id":"4","last_reported":1773334138,"current_range_meters":11600,"station_id":"st_cvj6sg6p6f1abm77japg","pricing_plan_id":"cebpf4jnsgd1na2vs0mg"},{"bike_id":"0a2f9b28-6219-4106-b011-3026133a767c","system_id":"levelo_inurba_marseille","lat":43.29579,"lon":5.38129,"is_reserved":false,"is_disabled":true,"rental_uris":{"android":"levelo://app?vid=0a2f9b28-6219-4106-b011-3026133a767c","ios":"levelo://app?vid=0a2f9b28-6219-4106-b011-3026133a767c"},"vehicle_type_id":"4","last_reported":1773334138,"current_range_meters":33600,"station_id":"ce4bgl12rcd13ifvqbo0","pricing_plan_id":"cebpf4jnsgd1na2vs0mg"},{"bike_id":"5486b3ed-ffad-4d40-b6b4-288bb1158746","system_id":"levelo_inurba_marseille","lat":43.31732,"lon":5.42406,"is_reserved":false,"is_disabled":false,"rental_uris":{"android":"levelo://app?vid=5486b3ed-ffad-4d40-b6b4-288bb1158746","ios":"levelo://app?vid=5486b3ed-ffad-4d40-b6b4-288bb1158746"},"vehicle_type_id":"4","last_reported":1773334138,"current_range_meters":25200,"station_id":"ce4bhp92rcd13ifvqhbg","pricing_plan_id":"cebpf4jnsgd1na2vs0mg"},{"bike_id":"cc18ab96-ca5d-4373-a7ba-87da37ebe5bc","system_id":"levelo_inurba_marseille","lat":43.29039,"lon":5.3591,"is_reserved":false,"is_disabled":false,"rental_uris":{"android":"levelo://app?vid=cc18ab96-ca5d-4373-a7ba-87da37ebe5bc","ios":"levelo://app?vid=cc18ab96-ca5d-4373-a7ba-87da37ebe5bc"},"vehicle_type_id":"4","last_reported":1773334138,"current_range_meters":20400,"station_id":"ce4bha92rcd13ifvqeg0","pricing_plan_id":"cebpf4jnsgd1na2vs0mg"},{"bike_id":"97bcfeac-2126-494f-9ed9-6b67f1b064a2","system_id":"levelo_inurba_marseille","lat":43.27478,"lon":5.39422,"is_reserved":false,"is_disabled":true,"rental_uris":{"android":"levelo://app?vid=97bcfeac-2126-494f-9ed9-6b67f1b064a2","ios":"levelo://app?vid=97bcfeac-2126-494f-9ed9-6b67f1b064a2"},"vehicle_type_id":"4","last_reported":1773334138,"current_range_meters":16400,"station_id":"ce4bhdp2rcd13ifvqf20","pricing_plan_id":"cebpf4jnsgd1na2vs0mg"},{"bike_id":"c73dc152-9938-46ce-972e-77003c30697b","system_id":"levelo_inurba_marseille","lat":43.25834,"lon":5.3943,"is_reserved":false,"is_disabled":false,"rental_uris":{"android":"levelo://app?vid=c73dc152-9938-46ce-972e-77003c30697b","ios":"levelo://app?vid=c73dc152-9938-46ce-972e-77003c30697b"},"vehicle_type_id":"4","last_reported":1773334138,"current_range_meters":36400,"station_id":"ce4bhip2rcd13ifvqft0","pricing_plan_id":"cebpf4jnsgd1na2vs0mg"},{"bike_id":"e17b8e76-0f76-40aa-a687-3f87eeadab84","system_id":"levelo_inurba_marseille","lat":43.26803,"lon":5.40265,"is_reserved":false,"is_disabled":false,"rental_uris":{"android":"levelo://app?vid=e17b8e76-0f76-40aa-a687-3f87eeadab84","ios":"levelo://app?vid=e17b8e76-0f76-40aa-a687-3f87eeadab84"},"vehicle_type_id":"4","last_reported":1773334138,"current_range_meters":31200,"station_id":"ce501612rcd8frsf0b60","pricing_plan_id":"cebpf4jnsgd1na2vs0mg"},{"bike_id":"e58a0337-ccee-4dc0-b528-1696aeec6127","system_id":"levelo_inurba_marseille","lat":43.27832,"lon":5.3921,"is_reserved":false,"is_disabled":false,"rental_uris":{"android":"levelo://app?vid=e58a0337-ccee-4dc0-b528-1696aeec6127","ios":"levelo://app?vid=e58a0337-ccee-4dc0-b528-1696aeec6127"},"vehicle_type_id":"4","last_reported":1773334138,"current_range_meters":38400,"station_id":"ce4bhjp2rcd13ifvqga0","pricing_plan_id":"cebpf4jnsgd1na2vs0mg"},{"bike_id":"a975d39d-4a14-4e0c-8235-9aa6495c9757","system_id":"levelo_inurba_marseille","lat":43.27433,"lon":5.42466,"is_reserved":false,"is_disabled":true,"rental_uris":{"android":"levelo://app?vid=a975d39d-4a14-4e0c-8235-9aa6495c9757","ios":"levelo://app?vid=a975d39d-4a14-4e0c-8235-9aa6495c9757"},"vehicle_type_id":"4","last_reported":1773334138,"current_range_meters":29600,"station_id":"","pricing_plan_id":"cebpf4jnsgd1na2vs0mg"},{"bike_id":"9e746c6a-2920-4cae-884e-a381be6b8346","system_id":"levelo_inurba_marseille","lat":43.29945,"lon":5.41312,"is_reserved":false,"is_disabled":false,"rental_uris":{"android":"levelo://app?vid=9e746c6a-2920-4cae-884e-a381be6b8346","ios":"levelo://app?vid=9e746c6a-2920-4cae-884e-a381be6b8346"},"vehicle_type_id":"4","last_reported":1773334138,"current_range_meters":25600,"station_id":"ce4bhp12rcd13ifvqh9g","pricing_plan_id":"cebpf4jnsgd1na2vs0mg"},{"bike_id":"aa81096f-0238-4da5-9bb1-19ffb49b251d","system_id":"levelo_inurba_marseille","lat":43.29242,"lon":5.38427,"is_reserved":false,"is_disabled":false,"rental_uris":{"android":"levelo://app?vid=aa81096f-0238-4da5-9bb1-19ffb49b251d","ios":"levelo://app?vid=aa81096f-0238-4da5-9bb1-19ffb49b251d"},"vehicle_type_id":"4","last_reported":1773334138,"current_range_meters":28800,"station_id":"ce4bh692rcd13ifvqea0","pricing_plan_id":"cebpf4jnsgd1na2vs0mg"},{"bike_id":"cebf160d-a5f3-44a2-b23f-7cf3bdb97c0a","system_id":"levelo_inurba_marseille","lat":43.31759,"lon":5.39012,"is_reserved":false,"is_disabled":false,"rental_uris":{"android":"levelo://app?vid=cebf160d-a5f3-44a2-b23f-7cf3bdb97c0a","ios":"levelo://app?vid=cebf160d-a5f3-44a2-b23f-7cf3bdb97c0a"},"vehicle_type_id":"4","last_reported":1773334138,"current_range_meters":39200,"station_id":"ce4bhqp2rcd13ifvqhng","pricing_plan_id":"cebpf4jnsgd1na2vs0mg"},{"bike_id":"33b6fd8b-9755-4864-a7ef-0f2024f75b72","system_id":"levelo_inurba_marseille","lat":43.32049,"lon":5.41538,"is_reserved":false,"is_disabled":false,"rental_uris":{"android":"levelo://app?vid=33b6fd8b-9755-4864-a7ef-0f2024f75b72","ios":"levelo://app?vid=33b6fd8b-9755-4864-a7ef-0f2024f75b72"},"vehicle_type_id":"4","last_reported":1773334138,"current_range_meters":39200,"station_id":"ce4bhq92rcd13ifvqhkg","pricing_plan_id":"cebpf4jnsgd1na2vs0mg"},{"bike_id":"8353becb-09ec-45b5-a24b-8f6218c436aa","system_id":"levelo_inurba_marseille","lat":43.24176,"lon":5.39704,"is_reserved":false,"is_disabled":true,"rental_uris":{"android":"levelo://app?vid=8353becb-09ec-45b5-a24b-8f6218c436aa","ios":"levelo://app?vid=8353becb-09ec-45b5-a24b-8f6218c436aa"},"vehicle_type_id":"4","last_reported":1773334138,"current_range_meters":6800,"station_id":"ce4bhn12rcd13ifvqgpg","pricing_plan_id":"cebpf4jnsgd1na2vs0mg"},{"bike_id":"92504343-b615-4520-b560-91879e24a514","system_id":"levelo_inurba_marseille","lat":43.29196,"lon":5.3932,"is_reserved":false,"is_disabled":false,"rental_uris":{"android":"levelo://app?vid=92504343-b615-4520-b560-91879e24a514","ios":"levelo://app?vid=92504343-b615-4520-b560-91879e24a514"},"vehicle_type_id":"4","last_reported":1773334138,"current_range_meters":10800,"station_id":"ce4bh192rcd13ifvqdd0","pricing_plan_id":"cebpf4jnsgd1na2vs0mg"},{"bike_id":"eaea9a02-90be-4a9f-b6d8-28175064e3dd","system_id":"levelo_inurba_marseille","lat":43.27424,"lon":5.39417,"is_reserved":false,"is_disabled":false,"rental_uris":{"android":"levelo://app?vid=eaea9a02-90be-4a9f-b6d8-28175064e3dd","ios":"levelo://app?vid=eaea9a02-90be-4a9f-b6d8-28175064e3dd"},"vehicle_type_id":"4","last_reported":1773334138,"current_range_meters":38800,"station_id":"ce4bhdp2rcd13ifvqf20","pricing_plan_id":"cebpf4jnsgd1na2vs0mg"},{"bike_id":"22851193-2dc4-42f2-8eb5-e7d0f3df0f19","system_id":"levelo_inurba_marseille","lat":43.25722,"lon":5.41103,"is_reserved":false,"is_disabled":false,"rental_uris":{"android":"levelo://app?vid=22851193-2dc4-42f2-8eb5-e7d0f3df0f19","ios":"levelo://app?vid=22851193-2dc4-42f2-8eb5-e7d0f3df0f19"},"vehicle_type_id":"4","last_reported":1773334138,"current_range_meters":32400,"station_id":"ce4bhkp2rcd13ifvqgd0","pricing_plan_id":"cebpf4jnsgd1na2vs0mg"},{"bike_id":"c6e41b0e-a7f4-4243-a48f-6e68bec7d728","system_id":"levelo_inurba_marseille","lat":43.28944,"lon":5.36406,"is_reserved":false,"is_disabled":true,"rental_uris":{"android":"levelo://app?vid=c6e41b0e-a7f4-4243-a48f-6e68bec7d728","ios":"levelo://app?vid=c6e41b0e-a7f4-4243-a48f-6e68bec7d728"},"vehicle_type_id":"4","last_reported":1773334138,"current_range_meters":35600,"station_id":"ce4bhc92rcd13ifvqetg","pricing_plan_id":"cebpf4jnsgd1na2vs0mg"},{"bike_id":"32ac5d0e-ae28-4478-ad22-93086f84b7a9","system_id":"levelo_inurba_marseille","lat":43.28422,"lon":5.34993,"is_reserved":false,"is_disabled":false,"rental_uris":{"android":"levelo://app?vid=32ac5d0e-ae28-4478-ad22-93086f84b7a9","ios":"levelo://app?vid=32ac5d0e-ae28-4478-ad22-93086f84b7a9"},"vehicle_type_id":"4","last_reported":1773334138,"current_range_meters":16800,"station_id":"ce4bhbh2rcd13ifvqepg","pricing_plan_id":"cebpf4jnsgd1na2vs0mg"},{"bike_id":"a63d22a1-9803-47da-97c5-9eb5069b8019","system_id":"levelo_inurba_marseille","lat":43.25759,"lon":5.39345,"is_reserved":false,"is_disabled":false,"rental_uris":{"android":"levelo://app?vid=a63d22a1-9803-47da-97c5-9eb5069b8019","ios":"levelo://app?vid=a63d22a1-9803-47da-97c5-9eb5069b8019"},"vehicle_type_id":"4","last_reported":1773334138,"current_range_meters":36800,"station_id":"","pricing_plan_id":"cebpf4jnsgd1na2vs0mg"},{"bike_id":"e52b499b-b5ac-46a6-8eee-3c48b1b432bc","system_id":"levelo_inurba_marseille","lat":43.2721,"lon":5.39175,"is_reserved":false,"is_disabled":false,"rental_uris":{"android":"levelo://app?vid=e52b499b-b5ac-46a6-8eee-3c48b1b432bc","ios":"levelo://app?vid=e52b499b-b5ac-46a6-8eee-3c48b1b432bc"},"vehicle_type_id":"4","last_reported":1773334138,"current_range_meters":36800,"station_id":"ce4bhhp2rcd13ifvqfm0","pricing_plan_id":"cebpf4jnsgd1na2vs0mg"},{"bike_id":"c078c584-a5b0-48bb-938b-ff9b4a11c886","system_id":"levelo_inurba_marseille","lat":43.2795,"lon":5.41047,"is_reserved":false,"is_disabled":false,"rental_uris":{"android":"levelo://app?vid=c078c584-a5b0-48bb-938b-ff9b4a11c886","ios":"levelo://app?vid=c078c584-a5b0-48bb-938b-ff9b4a11c886"},"vehicle_type_id":"4","last_reported":1773334138,"current_range_meters":38400,"station_id":"ce4bhnp2rcd13ifvqh0g","pricing_plan_id":"cebpf4jnsgd1na2vs0mg"},{"bike_id":"83cfba9f-efeb-47ab-979a-b88615e72865","system_id":"levelo_inurba_marseille","lat":43.27195,"lon":5.39159,"is_reserved":false,"is_disabled":false,"rental_uris":{"android":"levelo://app?vid=83cfba9f-efeb-47ab-979a-b88615e72865","ios":"levelo://app?vid=83cfba9f-efeb-47ab-979a-b88615e72865"},"vehicle_type_id":"4","last_reported":1773334138,"current_range_meters":39200,"station_id":"ce4bhhp2rcd13ifvqfm0","pricing_plan_id":"cebpf4jnsgd1na2vs0mg"},{"bike_id":"8b2e521b-1101-44fe-9d4a-0344f080c81c","system_id":"levelo_inurba_marseille","lat":43.28477,"lon":5.4841,"is_reserved":false,"is_disabled":false,"rental_uris":{"android":"levelo://app?vid=8b2e521b-1101-44fe-9d4a-0344f080c81c","ios":"levelo://app?vid=8b2e521b-1101-44fe-9d4a-0344f080c81c"},"vehicle_type_id":"4","last_reported":1773334138,"current_range_meters":32800,"station_id":"","pricing_plan_id":"cebpf4jnsgd1na2vs0mg"},{"bike_id":"1697678c-c8a4-4c47-ade7-901915c540a8","system_id":"levelo_inurba_marseille","lat":43.29601,"lon":5.38092,"is_reserved":false,"is_disabled":true,"rental_uris":{"android":"levelo://app?vid=1697678c-c8a4-4c47-ade7-901915c540a8","ios":"levelo://app?vid=1697678c-c8a4-4c47-ade7-901915c540a8"},"vehicle_type_id":"4","last_reported":1773334138,"current_range_meters":38800,"station_id":"ce4bgl12rcd13ifvqbo0","pricing_plan_id":"cebpf4jnsgd1na2vs0mg"},{"bike_id":"1651aaf9-b8ea-4546-9ef9-f69c1b888e88","system_id":"levelo_inurba_marseille","lat":43.28624,"lon":5.35103,"is_reserved":false,"is_disabled":false,"rental_uris":{"android":"levelo://app?vid=1651aaf9-b8ea-4546-9ef9-f69c1b888e88","ios":"levelo://app?vid=1651aaf9-b8ea-4546-9ef9-f69c1b888e88"},"vehicle_type_id":"4","last_reported":1773334138,"current_range_meters":10800,"station_id":"ce4bhch2rcd13ifvqeug","pricing_plan_id":"cebpf4jnsgd1na2vs0mg"},{"bike_id":"279b31e6-f012-4d9c-a7c8-086a36e72b5f","system_id":"levelo_inurba_marseille","lat":43.29542,"lon":5.38554,"is_reserved":false,"is_disabled":true,"rental_uris":{"android":"levelo://app?vid=279b31e6-f012-4d9c-a7c8-086a36e72b5f","ios":"levelo://app?vid=279b31e6-f012-4d9c-a7c8-086a36e72b5f"},"vehicle_type_id":"4","last_reported":1773334138,"current_range_meters":19200,"station_id":"ce4bgih2rcd13ifvqba0","pricing_plan_id":"cebpf4jnsgd1na2vs0mg"},{"bike_id":"6e510986-3b9d-4a3e-8c14-6b73a268cd26","system_id":"levelo_inurba_marseille","lat":43.26212,"lon":5.37455,"is_reserved":false,"is_disabled":false,"rental_uris":{"android":"levelo://app?vid=6e510986-3b9d-4a3e-8c14-6b73a268cd26","ios":"levelo://app?vid=6e510986-3b9d-4a3e-8c14-6b73a268cd26"},"vehicle_type_id":"4","last_reported":1773334138,"current_range_meters":22000,"station_id":"ce4bhgp2rcd13ifvqfc0","pricing_plan_id":"cebpf4jnsgd1na2vs0mg"},{"bike_id":"d02665ab-d65f-47fa-a858-71c81c1727d7","system_id":"levelo_inurba_marseille","lat":43.28415,"lon":5.34991,"is_reserved":false,"is_disabled":false,"rental_uris":{"android":"levelo://app?vid=d02665ab-d65f-47fa-a858-71c81c1727d7","ios":"levelo://app?vid=d02665ab-d65f-47fa-a858-71c81c1727d7"},"vehicle_type_id":"4","last_reported":1773334138,"current_range_meters":39200,"station_id":"ce4bhbh2rcd13ifvqepg","pricing_plan_id":"cebpf4jnsgd1na2vs0mg"},{"bike_id":"c2390bbc-ed39-45c5-9f2a-b8a83a668278","system_id":"levelo_inurba_marseille","lat":43.27627,"lon":5.36123,"is_reserved":false,"is_disabled":false,"rental_uris":{"android":"levelo://app?vid=c2390bbc-ed39-45c5-9f2a-b8a83a668278","ios":"levelo://app?vid=c2390bbc-ed39-45c5-9f2a-b8a83a668278"},"vehicle_type_id":"4","last_reported":1773334138,"current_range_meters":28000,"station_id":"ce4bgj92rcd13ifvqbe0","pricing_plan_id":"cebpf4jnsgd1na2vs0mg"},{"bike_id":"41ac3f1a-a6e0-40a3-a8a1-50cedd1d809f","system_id":"levelo_inurba_marseille","lat":43.28625,"lon":5.35104,"is_reserved":false,"is_disabled":false,"rental_uris":{"android":"levelo://app?vid=41ac3f1a-a6e0-40a3-a8a1-50cedd1d809f","ios":"levelo://app?vid=41ac3f1a-a6e0-40a3-a8a1-50cedd1d809f"},"vehicle_type_id":"4","last_reported":1773334138,"current_range_meters":33600,"station_id":"ce4bhch2rcd13ifvqeug","pricing_plan_id":"cebpf4jnsgd1na2vs0mg"},{"bike_id":"ffa5540b-6e0d-49de-bd92-c9b0b2708964","system_id":"levelo_inurba_marseille","lat":43.29611,"lon":5.37725,"is_reserved":false,"is_disabled":false,"rental_uris":{"android":"levelo://app?vid=ffa5540b-6e0d-49de-bd92-c9b0b2708964","ios":"levelo://app?vid=ffa5540b-6e0d-49de-bd92-c9b0b2708964"},"vehicle_type_id":"4","last_reported":1773334138,"current_range_meters":20400,"station_id":"ce4bgi92rcd13ifvqb90","pricing_plan_id":"cebpf4jnsgd1na2vs0mg"},{"bike_id":"ae788f02-8960-4e13-a74e-35f2396669bb","system_id":"levelo_inurba_marseille","lat":43.29157,"lon":5.37146,"is_reserved":false,"is_disabled":false,"rental_uris":{"android":"levelo://app?vid=ae788f02-8960-4e13-a74e-35f2396669bb","ios":"levelo://app?vid=ae788f02-8960-4e13-a74e-35f2396669bb"},"vehicle_type_id":"4","last_reported":1773334138,"current_range_meters":36800,"station_id":"ce4bha92rcd13ifvqeh0","pricing_plan_id":"cebpf4jnsgd1na2vs0mg"},{"bike_id":"26a6b2e2-002a-4072-a1a2-b594f4e8b66c","system_id":"levelo_inurba_marseille","lat":43.30895,"lon":5.37329,"is_reserved":false,"is_disabled":false,"rental_uris":{"android":"levelo://app?vid=26a6b2e2-002a-4072-a1a2-b594f4e8b66c","ios":"levelo://app?vid=26a6b2e2-002a-4072-a1a2-b594f4e8b66c"},"vehicle_type_id":"4","last_reported":1773334138,"current_range_meters":28400,"station_id":"","pricing_plan_id":"cebpf4jnsgd1na2vs0mg"},{"bike_id":"34da4a33-43be-4234-816f-fdd3330c4484","system_id":"levelo_inurba_marseille","lat":43.23965,"lon":5.36636,"is_reserved":false,"is_disabled":false,"rental_uris":{"android":"levelo://app?vid=34da4a33-43be-4234-816f-fdd3330c4484","ios":"levelo://app?vid=34da4a33-43be-4234-816f-fdd3330c4484"},"vehicle_type_id":"4","last_reported":1773334138,"current_range_meters":39200,"station_id":"ce4bhi12rcd13ifvqfp0","pricing_plan_id":"cebpf4jnsgd1na2vs0mg"},{"bike_id":"967753f2-948e-4661-b98b-0497b88334a5","system_id":"levelo_inurba_marseille","lat":43.29515,"lon":5.39389,"is_reserved":false,"is_disabled":false,"rental_uris":{"android":"levelo://app?vid=967753f2-948e-4661-b98b-0497b88334a5","ios":"levelo://app?vid=967753f2-948e-4661-b98b-0497b88334a5"},"vehicle_type_id":"4","last_reported":1773334138,"current_range_meters":36800,"station_id":"ce4bh292rcd13ifvqdf0","pricing_plan_id":"cebpf4jnsgd1na2vs0mg"},{"bike_id":"df608bc1-596d-4999-8ab7-7ccc722b52ef","system_id":"levelo_inurba_marseille","lat":43.2861,"lon":5.37058,"is_reserved":false,"is_disabled":false,"rental_uris":{"android":"levelo://app?vid=df608bc1-596d-4999-8ab7-7ccc722b52ef","ios":"levelo://app?vid=df608bc1-596d-4999-8ab7-7ccc722b52ef"},"vehicle_type_id":"4","last_reported":1773334138,"current_range_meters":22800,"station_id":"ce4bht12rcd13ifvqi60","pricing_plan_id":"cebpf4jnsgd1na2vs0mg"},{"bike_id":"b3ec3554-eb1f-4735-9561-8fa9053610e4","system_id":"levelo_inurba_marseille","lat":43.2439,"lon":5.37018,"is_reserved":false,"is_disabled":false,"rental_uris":{"android":"levelo://app?vid=b3ec3554-eb1f-4735-9561-8fa9053610e4","ios":"levelo://app?vid=b3ec3554-eb1f-4735-9561-8fa9053610e4"},"vehicle_type_id":"4","last_reported":1773334138,"current_range_meters":39200,"station_id":"ce4bhhh2rcd13ifvqfk0","pricing_plan_id":"cebpf4jnsgd1na2vs0mg"},{"bike_id":"019b6904-c7d7-4f12-80e0-6c355f613b51","system_id":"levelo_inurba_marseille","lat":43.24806,"lon":5.3746,"is_reserved":false,"is_disabled":false,"rental_uris":{"android":"levelo://app?vid=019b6904-c7d7-4f12-80e0-6c355f613b51","ios":"levelo://app?vid=019b6904-c7d7-4f12-80e0-6c355f613b51"},"vehicle_type_id":"4","last_reported":1773334138,"current_range_meters":35600,"station_id":"ce4bhgh2rcd13ifvqfb0","pricing_plan_id":"cebpf4jnsgd1na2vs0mg"},{"bike_id":"8e89991c-528f-4c01-9d8e-2cb6ba110cdb","system_id":"levelo_inurba_marseille","lat":43.2953,"lon":5.39412,"is_reserved":false,"is_disabled":false,"rental_uris":{"android":"levelo://app?vid=8e89991c-528f-4c01-9d8e-2cb6ba110cdb","ios":"levelo://app?vid=8e89991c-528f-4c01-9d8e-2cb6ba110cdb"},"vehicle_type_id":"4","last_reported":1773334138,"current_range_meters":32000,"station_id":"ce4bh292rcd13ifvqdf0","pricing_plan_id":"cebpf4jnsgd1na2vs0mg"},{"bike_id":"5ad33e63-8d01-4c6a-8af5-50f77eb77038","system_id":"levelo_inurba_marseille","lat":43.30536,"lon":5.36549,"is_reserved":false,"is_disabled":false,"rental_uris":{"android":"levelo://app?vid=5ad33e63-8d01-4c6a-8af5-50f77eb77038","ios":"levelo://app?vid=5ad33e63-8d01-4c6a-8af5-50f77eb77038"},"vehicle_type_id":"4","last_reported":1773334138,"current_range_meters":38400,"station_id":"ce4bgs12rcd13ifvqcag","pricing_plan_id":"cebpf4jnsgd1na2vs0mg"},{"bike_id":"5331bf44-13b3-42fb-aad1-9b7895a1f20e","system_id":"levelo_inurba_marseille","lat":43.298691,"lon":5.397317,"is_reserved":false,"is_disabled":false,"rental_uris":{"android":"levelo://app?vid=5331bf44-13b3-42fb-aad1-9b7895a1f20e","ios":"levelo://app?vid=5331bf44-13b3-42fb-aad1-9b7895a1f20e"},"vehicle_type_id":"4","last_reported":1773334138,"current_range_meters":39200,"station_id":"ce4bh0h2rcd13ifvqd50","pricing_plan_id":"cebpf4jnsgd1na2vs0mg"},{"bike_id":"003d4be6-c37b-4aa4-9c84-f0d8c631491b","system_id":"levelo_inurba_marseille","lat":43.29022,"lon":5.38645,"is_reserved":false,"is_disabled":true,"rental_uris":{"android":"levelo://app?vid=003d4be6-c37b-4aa4-9c84-f0d8c631491b","ios":"levelo://app?vid=003d4be6-c37b-4aa4-9c84-f0d8c631491b"},"vehicle_type_id":"4","last_reported":1773334138,"current_range_meters":25200,"station_id":"ce4bh4p2rcd13ifvqe0g","pricing_plan_id":"cebpf4jnsgd1na2vs0mg"},{"bike_id":"f4128185-3ea5-41cd-8c71-3a015365c72e","system_id":"levelo_inurba_marseille","lat":43.298706,"lon":5.397351,"is_reserved":false,"is_disabled":false,"rental_uris":{"android":"levelo://app?vid=f4128185-3ea5-41cd-8c71-3a015365c72e","ios":"levelo://app?vid=f4128185-3ea5-41cd-8c71-3a015365c72e"},"vehicle_type_id":"4","last_reported":1773334138,"current_range_meters":5600,"station_id":"","pricing_plan_id":"cebpf4jnsgd1na2vs0mg"},{"bike_id":"b73d812c-3a0f-4445-9427-0a55430a973b","system_id":"levelo_inurba_marseille","lat":43.30218,"lon":5.39487,"is_reserved":false,"is_disabled":false,"rental_uris":{"android":"levelo://app?vid=b73d812c-3a0f-4445-9427-0a55430a973b","ios":"levelo://app?vid=b73d812c-3a0f-4445-9427-0a55430a973b"},"vehicle_type_id":"4","last_reported":1773334138,"current_range_meters":37600,"station_id":"ce4bh0p2rcd13ifvqd70","pricing_plan_id":"cebpf4jnsgd1na2vs0mg"},{"bike_id":"7858d9ea-2a01-45f9-9908-d22ae5786e93","system_id":"levelo_inurba_marseille","lat":43.30094,"lon":5.39082,"is_reserved":false,"is_disabled":false,"rental_uris":{"android":"levelo://app?vid=7858d9ea-2a01-45f9-9908-d22ae5786e93","ios":"levelo://app?vid=7858d9ea-2a01-45f9-9908-d22ae5786e93"},"vehicle_type_id":"4","last_reported":1773334138,"current_range_meters":32400,"station_id":"ce4bh192rcd13ifvqdb0","pricing_plan_id":"cebpf4jnsgd1na2vs0mg"},{"bike_id":"05e28071-265b-4d5c-bcaf-12dc4f5c6740","system_id":"levelo_inurba_marseille","lat":43.27361,"lon":5.36255,"is_reserved":false,"is_disabled":false,"rental_uris":{"android":"levelo://app?vid=05e28071-265b-4d5c-bcaf-12dc4f5c6740","ios":"levelo://app?vid=05e28071-265b-4d5c-bcaf-12dc4f5c6740"},"vehicle_type_id":"4","last_reported":1773334138,"current_range_meters":39200,"station_id":"ce4bhbh2rcd13ifvqeo0","pricing_plan_id":"cebpf4jnsgd1na2vs0mg"},{"bike_id":"e0d3800f-b03e-442e-a8e1-8c4ff7bcaab6","system_id":"levelo_inurba_marseille","lat":43.29574,"lon":5.37707,"is_reserved":false,"is_disabled":false,"rental_uris":{"android":"levelo://app?vid=e0d3800f-b03e-442e-a8e1-8c4ff7bcaab6","ios":"levelo://app?vid=e0d3800f-b03e-442e-a8e1-8c4ff7bcaab6"},"vehicle_type_id":"4","last_reported":1773334138,"current_range_meters":38000,"station_id":"","pricing_plan_id":"cebpf4jnsgd1na2vs0mg"},{"bike_id":"5239dea7-8c59-4da7-8e4e-9ddcc581498a","system_id":"levelo_inurba_marseille","lat":43.26194,"lon":5.37461,"is_reserved":false,"is_disabled":false,"rental_uris":{"android":"levelo://app?vid=5239dea7-8c59-4da7-8e4e-9ddcc581498a","ios":"levelo://app?vid=5239dea7-8c59-4da7-8e4e-9ddcc581498a"},"vehicle_type_id":"4","last_reported":1773334138,"current_range_meters":39200,"station_id":"ce4bhgp2rcd13ifvqfc0","pricing_plan_id":"cebpf4jnsgd1na2vs0mg"},{"bike_id":"1860051d-ebfa-4ef0-851b-02847655affa","system_id":"levelo_inurba_marseille","lat":43.24392,"lon":5.37056,"is_reserved":false,"is_disabled":false,"rental_uris":{"android":"levelo://app?vid=1860051d-ebfa-4ef0-851b-02847655affa","ios":"levelo://app?vid=1860051d-ebfa-4ef0-851b-02847655affa"},"vehicle_type_id":"4","last_reported":1773334138,"current_range_meters":39200,"station_id":"ce4bhhh2rcd13ifvqfk0","pricing_plan_id":"cebpf4jnsgd1na2vs0mg"},{"bike_id":"67454919-4897-4496-ac02-5ba276c6faca","system_id":"levelo_inurba_marseille","lat":43.28147,"lon":5.37892,"is_reserved":false,"is_disabled":false,"rental_uris":{"android":"levelo://app?vid=67454919-4897-4496-ac02-5ba276c6faca","ios":"levelo://app?vid=67454919-4897-4496-ac02-5ba276c6faca"},"vehicle_type_id":"4","last_reported":1773334138,"current_range_meters":9600,"station_id":"","pricing_plan_id":"cebpf4jnsgd1na2vs0mg"},{"bike_id":"61d8cf09-cad2-4ecf-a4a5-b740782ddea5","system_id":"levelo_inurba_marseille","lat":43.31259,"lon":5.36882,"is_reserved":false,"is_disabled":false,"rental_uris":{"android":"levelo://app?vid=61d8cf09-cad2-4ecf-a4a5-b740782ddea5","ios":"levelo://app?vid=61d8cf09-cad2-4ecf-a4a5-b740782ddea5"},"vehicle_type_id":"4","last_reported":1773334138,"current_range_meters":11600,"station_id":"ce4bgl92rcd13ifvqbq0","pricing_plan_id":"cebpf4jnsgd1na2vs0mg"},{"bike_id":"eee030f9-7359-435a-8db7-cd8193b34512","system_id":"levelo_inurba_marseille","lat":43.26067,"lon":5.39389,"is_reserved":false,"is_disabled":false,"rental_uris":{"android":"levelo://app?vid=eee030f9-7359-435a-8db7-cd8193b34512","ios":"levelo://app?vid=eee030f9-7359-435a-8db7-cd8193b34512"},"vehicle_type_id":"4","last_reported":1773334138,"current_range_meters":27600,"station_id":"ce4bhh92rcd13ifvqfj0","pricing_plan_id":"cebpf4jnsgd1na2vs0mg"},{"bike_id":"54d4f9e4-068b-4c2d-b5c3-e6b11d286961","system_id":"levelo_inurba_marseille","lat":43.27619,"lon":5.36114,"is_reserved":false,"is_disabled":false,"rental_uris":{"android":"levelo://app?vid=54d4f9e4-068b-4c2d-b5c3-e6b11d286961","ios":"levelo://app?vid=54d4f9e4-068b-4c2d-b5c3-e6b11d286961"},"vehicle_type_id":"4","last_reported":1773334138,"current_range_meters":37600,"station_id":"ce4bgj92rcd13ifvqbe0","pricing_plan_id":"cebpf4jnsgd1na2vs0mg"},{"bike_id":"e1953514-6bba-4fb4-94e4-40c57b362e06","system_id":"levelo_inurba_marseille","lat":43.27989,"lon":5.40023,"is_reserved":false,"is_disabled":false,"rental_uris":{"android":"levelo://app?vid=e1953514-6bba-4fb4-94e4-40c57b362e06","ios":"levelo://app?vid=e1953514-6bba-4fb4-94e4-40c57b362e06"},"vehicle_type_id":"4","last_reported":1773334138,"current_range_meters":16000,"station_id":"ce4bho92rcd13ifvqh4g","pricing_plan_id":"cebpf4jnsgd1na2vs0mg"},{"bike_id":"bc9ad8cb-bef5-49b5-861b-1fb47615b736","system_id":"levelo_inurba_marseille","lat":43.29582,"lon":5.36737,"is_reserved":false,"is_disabled":false,"rental_uris":{"android":"levelo://app?vid=bc9ad8cb-bef5-49b5-861b-1fb47615b736","ios":"levelo://app?vid=bc9ad8cb-bef5-49b5-861b-1fb47615b736"},"vehicle_type_id":"4","last_reported":1773334138,"current_range_meters":27200,"station_id":"ce4bgph2rcd13ifvqc2g","pricing_plan_id":"cebpf4jnsgd1na2vs0mg"},{"bike_id":"238929cf-87db-4b8d-8cba-0300ed95835f","system_id":"levelo_inurba_marseille","lat":43.24392,"lon":5.37045,"is_reserved":false,"is_disabled":false,"rental_uris":{"android":"levelo://app?vid=238929cf-87db-4b8d-8cba-0300ed95835f","ios":"levelo://app?vid=238929cf-87db-4b8d-8cba-0300ed95835f"},"vehicle_type_id":"4","last_reported":1773334138,"current_range_meters":34800,"station_id":"ce4bhhh2rcd13ifvqfk0","pricing_plan_id":"cebpf4jnsgd1na2vs0mg"},{"bike_id":"a1955bf3-14c7-4872-b5c1-6accbfbc0f11","system_id":"levelo_inurba_marseille","lat":43.26949,"lon":5.4023,"is_reserved":false,"is_disabled":false,"rental_uris":{"android":"levelo://app?vid=a1955bf3-14c7-4872-b5c1-6accbfbc0f11","ios":"levelo://app?vid=a1955bf3-14c7-4872-b5c1-6accbfbc0f11"},"vehicle_type_id":"4","last_reported":1773334138,"current_range_meters":38000,"station_id":"cjm6bp8fraef2m0cb0m0","pricing_plan_id":"cebpf4jnsgd1na2vs0mg"},{"bike_id":"cc65e37b-52e3-443f-ad9e-df8eed7f28c5","system_id":"levelo_inurba_marseille","lat":43.2862,"lon":5.35098,"is_reserved":false,"is_disabled":false,"rental_uris":{"android":"levelo://app?vid=cc65e37b-52e3-443f-ad9e-df8eed7f28c5","ios":"levelo://app?vid=cc65e37b-52e3-443f-ad9e-df8eed7f28c5"},"vehicle_type_id":"4","last_reported":1773334138,"current_range_meters":28000,"station_id":"ce4bhch2rcd13ifvqeug","pricing_plan_id":"cebpf4jnsgd1na2vs0mg"},{"bike_id":"e7a13aa0-fae4-42c0-8e52-63ae1fa4bbe3","system_id":"levelo_inurba_marseille","lat":43.27379,"lon":5.36248,"is_reserved":false,"is_disabled":false,"rental_uris":{"android":"levelo://app?vid=e7a13aa0-fae4-42c0-8e52-63ae1fa4bbe3","ios":"levelo://app?vid=e7a13aa0-fae4-42c0-8e52-63ae1fa4bbe3"},"vehicle_type_id":"4","last_reported":1773334138,"current_range_meters":23200,"station_id":"ce4bhbh2rcd13ifvqeo0","pricing_plan_id":"cebpf4jnsgd1na2vs0mg"},{"bike_id":"cba60e58-48d2-4695-a218-c3d3f13631d8","system_id":"levelo_inurba_marseille","lat":43.29277,"lon":5.36847,"is_reserved":false,"is_disabled":false,"rental_uris":{"android":"levelo://app?vid=cba60e58-48d2-4695-a218-c3d3f13631d8","ios":"levelo://app?vid=cba60e58-48d2-4695-a218-c3d3f13631d8"},"vehicle_type_id":"4","last_reported":1773334138,"current_range_meters":11200,"station_id":"ce4bhbp2rcd13ifvqesg","pricing_plan_id":"cebpf4jnsgd1na2vs0mg"},{"bike_id":"24e1b6ee-0585-4f9a-9669-218691467b9b","system_id":"levelo_inurba_marseille","lat":43.26191,"lon":5.37451,"is_reserved":false,"is_disabled":false,"rental_uris":{"android":"levelo://app?vid=24e1b6ee-0585-4f9a-9669-218691467b9b","ios":"levelo://app?vid=24e1b6ee-0585-4f9a-9669-218691467b9b"},"vehicle_type_id":"4","last_reported":1773334138,"current_range_meters":34000,"station_id":"ce4bhgp2rcd13ifvqfc0","pricing_plan_id":"cebpf4jnsgd1na2vs0mg"},{"bike_id":"0864731d-e776-49ce-ac1e-bf70a52eb48d","system_id":"levelo_inurba_marseille","lat":43.29499,"lon":5.39395,"is_reserved":false,"is_disabled":true,"rental_uris":{"android":"levelo://app?vid=0864731d-e776-49ce-ac1e-bf70a52eb48d","ios":"levelo://app?vid=0864731d-e776-49ce-ac1e-bf70a52eb48d"},"vehicle_type_id":"4","last_reported":1773334138,"current_range_meters":18000,"station_id":"ce4bh292rcd13ifvqdf0","pricing_plan_id":"cebpf4jnsgd1na2vs0mg"},{"bike_id":"e77d702c-6e9d-4250-820b-3ce09f62e0dd","system_id":"levelo_inurba_marseille","lat":43.225326,"lon":5.348355,"is_reserved":false,"is_disabled":false,"rental_uris":{"android":"levelo://app?vid=e77d702c-6e9d-4250-820b-3ce09f62e0dd","ios":"levelo://app?vid=e77d702c-6e9d-4250-820b-3ce09f62e0dd"},"vehicle_type_id":"4","last_reported":1773334138,"current_range_meters":17200,"station_id":"","pricing_plan_id":"cebpf4jnsgd1na2vs0mg"},{"bike_id":"bd1451fd-aed8-4f75-9419-3dbe4a0a6c56","system_id":"levelo_inurba_marseille","lat":43.29856,"lon":5.36281,"is_reserved":false,"is_disabled":false,"rental_uris":{"android":"levelo://app?vid=bd1451fd-aed8-4f75-9419-3dbe4a0a6c56","ios":"levelo://app?vid=bd1451fd-aed8-4f75-9419-3dbe4a0a6c56"},"vehicle_type_id":"4","last_reported":1773334138,"current_range_meters":38400,"station_id":"ce4bgpp2rcd13ifvqc3g","pricing_plan_id":"cebpf4jnsgd1na2vs0mg"},{"bike_id":"682da1a2-9992-42a0-a763-7ba6525cc044","system_id":"levelo_inurba_marseille","lat":43.31547,"lon":5.38063,"is_reserved":false,"is_disabled":false,"rental_uris":{"android":"levelo://app?vid=682da1a2-9992-42a0-a763-7ba6525cc044","ios":"levelo://app?vid=682da1a2-9992-42a0-a763-7ba6525cc044"},"vehicle_type_id":"4","last_reported":1773334138,"current_range_meters":27600,"station_id":"ce4bhsp2rcd13ifvqi50","pricing_plan_id":"cebpf4jnsgd1na2vs0mg"},{"bike_id":"27538746-56d0-4be5-853e-86ae52dd0a53","system_id":"levelo_inurba_marseille","lat":43.24065,"lon":5.37753,"is_reserved":false,"is_disabled":true,"rental_uris":{"android":"levelo://app?vid=27538746-56d0-4be5-853e-86ae52dd0a53","ios":"levelo://app?vid=27538746-56d0-4be5-853e-86ae52dd0a53"},"vehicle_type_id":"4","last_reported":1773334138,"current_range_meters":36400,"station_id":"ce4bhnp2rcd13ifvqgvg","pricing_plan_id":"cebpf4jnsgd1na2vs0mg"},{"bike_id":"238a3d2c-4029-40ec-a953-4eb5b2fc41cc","system_id":"levelo_inurba_marseille","lat":43.29012,"lon":5.35608,"is_reserved":false,"is_disabled":false,"rental_uris":{"android":"levelo://app?vid=238a3d2c-4029-40ec-a953-4eb5b2fc41cc","ios":"levelo://app?vid=238a3d2c-4029-40ec-a953-4eb5b2fc41cc"},"vehicle_type_id":"4","last_reported":1773334138,"current_range_meters":18000,"station_id":"ce4bhb92rcd13ifvqen0","pricing_plan_id":"cebpf4jnsgd1na2vs0mg"},{"bike_id":"a707dda2-38e0-4399-93e5-3d670c363d77","system_id":"levelo_inurba_marseille","lat":43.30525,"lon":5.36541,"is_reserved":false,"is_disabled":false,"rental_uris":{"android":"levelo://app?vid=a707dda2-38e0-4399-93e5-3d670c363d77","ios":"levelo://app?vid=a707dda2-38e0-4399-93e5-3d670c363d77"},"vehicle_type_id":"4","last_reported":1773334138,"current_range_meters":18800,"station_id":"ce4bgs12rcd13ifvqcag","pricing_plan_id":"cebpf4jnsgd1na2vs0mg"},{"bike_id":"e9828655-3e9f-4bf1-900b-4524602dc318","system_id":"levelo_inurba_marseille","lat":43.2397,"lon":5.36645,"is_reserved":false,"is_disabled":false,"rental_uris":{"android":"levelo://app?vid=e9828655-3e9f-4bf1-900b-4524602dc318","ios":"levelo://app?vid=e9828655-3e9f-4bf1-900b-4524602dc318"},"vehicle_type_id":"4","last_reported":1773334138,"current_range_meters":4800,"station_id":"ce4bhi12rcd13ifvqfp0","pricing_plan_id":"cebpf4jnsgd1na2vs0mg"},{"bike_id":"c5a9002e-9ed9-4827-90b3-f3f6803216da","system_id":"levelo_inurba_marseille","lat":43.33027,"lon":5.39047,"is_reserved":false,"is_disabled":false,"rental_uris":{"android":"levelo://app?vid=c5a9002e-9ed9-4827-90b3-f3f6803216da","ios":"levelo://app?vid=c5a9002e-9ed9-4827-90b3-f3f6803216da"},"vehicle_type_id":"4","last_reported":1773334138,"current_range_meters":39200,"station_id":"ce4bhr92rcd13ifvqhrg","pricing_plan_id":"cebpf4jnsgd1na2vs0mg"},{"bike_id":"6573c181-239b-471a-b8b0-12e7aa35eaa0","system_id":"levelo_inurba_marseille","lat":43.31282,"lon":5.40162,"is_reserved":false,"is_disabled":false,"rental_uris":{"android":"levelo://app?vid=6573c181-239b-471a-b8b0-12e7aa35eaa0","ios":"levelo://app?vid=6573c181-239b-471a-b8b0-12e7aa35eaa0"},"vehicle_type_id":"4","last_reported":1773334138,"current_range_meters":30400,"station_id":"ce4bh092rcd13ifvqd30","pricing_plan_id":"cebpf4jnsgd1na2vs0mg"},{"bike_id":"c2d6c6a8-c849-4095-b7df-0b402894910f","system_id":"levelo_inurba_marseille","lat":43.23963,"lon":5.36632,"is_reserved":false,"is_disabled":false,"rental_uris":{"android":"levelo://app?vid=c2d6c6a8-c849-4095-b7df-0b402894910f","ios":"levelo://app?vid=c2d6c6a8-c849-4095-b7df-0b402894910f"},"vehicle_type_id":"4","last_reported":1773334138,"current_range_meters":39200,"station_id":"ce4bhi12rcd13ifvqfp0","pricing_plan_id":"cebpf4jnsgd1na2vs0mg"},{"bike_id":"f94158ca-d226-441b-8a81-c5dcdcaec34d","system_id":"levelo_inurba_marseille","lat":43.33131,"lon":5.3774,"is_reserved":false,"is_disabled":false,"rental_uris":{"android":"levelo://app?vid=f94158ca-d226-441b-8a81-c5dcdcaec34d","ios":"levelo://app?vid=f94158ca-d226-441b-8a81-c5dcdcaec34d"},"vehicle_type_id":"4","last_reported":1773334138,"current_range_meters":24800,"station_id":"","pricing_plan_id":"cebpf4jnsgd1na2vs0mg"},{"bike_id":"3faa3955-fc91-4d7b-bafd-bc8fda72019b","system_id":"levelo_inurba_marseille","lat":43.32079,"lon":5.41548,"is_reserved":false,"is_disabled":false,"rental_uris":{"android":"levelo://app?vid=3faa3955-fc91-4d7b-bafd-bc8fda72019b","ios":"levelo://app?vid=3faa3955-fc91-4d7b-bafd-bc8fda72019b"},"vehicle_type_id":"4","last_reported":1773334138,"current_range_meters":39200,"station_id":"ce4bhq92rcd13ifvqhkg","pricing_plan_id":"cebpf4jnsgd1na2vs0mg"},{"bike_id":"b37f67f1-89d6-4385-9bac-63826e0bd8fa","system_id":"levelo_inurba_marseille","lat":43.31759,"lon":5.39004,"is_reserved":false,"is_disabled":false,"rental_uris":{"android":"levelo://app?vid=b37f67f1-89d6-4385-9bac-63826e0bd8fa","ios":"levelo://app?vid=b37f67f1-89d6-4385-9bac-63826e0bd8fa"},"vehicle_type_id":"4","last_reported":1773334138,"current_range_meters":28400,"station_id":"ce4bhqp2rcd13ifvqhng","pricing_plan_id":"cebpf4jnsgd1na2vs0mg"},{"bike_id":"93ac3ef9-2dcd-456c-80a9-ca9972d8bda2","system_id":"levelo_inurba_marseille","lat":43.27619,"lon":5.36119,"is_reserved":false,"is_disabled":false,"rental_uris":{"android":"levelo://app?vid=93ac3ef9-2dcd-456c-80a9-ca9972d8bda2","ios":"levelo://app?vid=93ac3ef9-2dcd-456c-80a9-ca9972d8bda2"},"vehicle_type_id":"4","last_reported":1773334138,"current_range_meters":11200,"station_id":"ce4bgj92rcd13ifvqbe0","pricing_plan_id":"cebpf4jnsgd1na2vs0mg"},{"bike_id":"f0182b85-69a7-44d6-be45-cbe5b96f4ae0","system_id":"levelo_inurba_marseille","lat":43.29603,"lon":5.38078,"is_reserved":false,"is_disabled":false,"rental_uris":{"android":"levelo://app?vid=f0182b85-69a7-44d6-be45-cbe5b96f4ae0","ios":"levelo://app?vid=f0182b85-69a7-44d6-be45-cbe5b96f4ae0"},"vehicle_type_id":"4","last_reported":1773334138,"current_range_meters":30000,"station_id":"ce4bgl12rcd13ifvqbo0","pricing_plan_id":"cebpf4jnsgd1na2vs0mg"},{"bike_id":"ea7f02db-cc67-4a16-8e57-52a57ae060d1","system_id":"levelo_inurba_marseille","lat":43.29289,"lon":5.3717,"is_reserved":false,"is_disabled":false,"rental_uris":{"android":"levelo://app?vid=ea7f02db-cc67-4a16-8e57-52a57ae060d1","ios":"levelo://app?vid=ea7f02db-cc67-4a16-8e57-52a57ae060d1"},"vehicle_type_id":"4","last_reported":1773334138,"current_range_meters":36800,"station_id":"ce4bgh92rcd13ifvqb40","pricing_plan_id":"cebpf4jnsgd1na2vs0mg"},{"bike_id":"951e03d5-b1cb-4399-8726-90cf0881bc92","system_id":"levelo_inurba_marseille","lat":43.30926,"lon":5.36842,"is_reserved":false,"is_disabled":false,"rental_uris":{"android":"levelo://app?vid=951e03d5-b1cb-4399-8726-90cf0881bc92","ios":"levelo://app?vid=951e03d5-b1cb-4399-8726-90cf0881bc92"},"vehicle_type_id":"4","last_reported":1773334138,"current_range_meters":18800,"station_id":"ce4bgn92rcd13ifvqbvg","pricing_plan_id":"cebpf4jnsgd1na2vs0mg"},{"bike_id":"3bb81ae2-39fa-44c9-90f3-8f1e56842db6","system_id":"levelo_inurba_marseille","lat":43.25117,"lon":5.40317,"is_reserved":false,"is_disabled":false,"rental_uris":{"android":"levelo://app?vid=3bb81ae2-39fa-44c9-90f3-8f1e56842db6","ios":"levelo://app?vid=3bb81ae2-39fa-44c9-90f3-8f1e56842db6"},"vehicle_type_id":"4","last_reported":1773334138,"current_range_meters":16400,"station_id":"ce4bhlh2rcd13ifvqgig","pricing_plan_id":"cebpf4jnsgd1na2vs0mg"},{"bike_id":"09605102-a53b-4035-94c9-bd93b65f0826","system_id":"levelo_inurba_marseille","lat":43.28939,"lon":5.3665,"is_reserved":false,"is_disabled":false,"rental_uris":{"android":"levelo://app?vid=09605102-a53b-4035-94c9-bd93b65f0826","ios":"levelo://app?vid=09605102-a53b-4035-94c9-bd93b65f0826"},"vehicle_type_id":"4","last_reported":1773334138,"current_range_meters":36000,"station_id":"ce4bhap2rcd13ifvqek0","pricing_plan_id":"cebpf4jnsgd1na2vs0mg"},{"bike_id":"d52d41b8-7f34-4fe7-a75d-dcc935b6b5a6","system_id":"levelo_inurba_marseille","lat":43.26042,"lon":5.37567,"is_reserved":false,"is_disabled":false,"rental_uris":{"android":"levelo://app?vid=d52d41b8-7f34-4fe7-a75d-dcc935b6b5a6","ios":"levelo://app?vid=d52d41b8-7f34-4fe7-a75d-dcc935b6b5a6"},"vehicle_type_id":"4","last_reported":1773334138,"current_range_meters":39200,"station_id":"ce4bhgh2rcd13ifvqfa0","pricing_plan_id":"cebpf4jnsgd1na2vs0mg"},{"bike_id":"1fbf3dc2-5521-43bc-9fe5-d9f06dc341ed","system_id":"levelo_inurba_marseille","lat":43.24546,"lon":5.39523,"is_reserved":false,"is_disabled":false,"rental_uris":{"android":"levelo://app?vid=1fbf3dc2-5521-43bc-9fe5-d9f06dc341ed","ios":"levelo://app?vid=1fbf3dc2-5521-43bc-9fe5-d9f06dc341ed"},"vehicle_type_id":"4","last_reported":1773334138,"current_range_meters":9600,"station_id":"ce4bhlp2rcd13ifvqgjg","pricing_plan_id":"cebpf4jnsgd1na2vs0mg"},{"bike_id":"292a542e-2fff-4326-a5eb-60e196ac9ec0","system_id":"levelo_inurba_marseille","lat":43.30541,"lon":5.36517,"is_reserved":false,"is_disabled":false,"rental_uris":{"android":"levelo://app?vid=292a542e-2fff-4326-a5eb-60e196ac9ec0","ios":"levelo://app?vid=292a542e-2fff-4326-a5eb-60e196ac9ec0"},"vehicle_type_id":"4","last_reported":1773334138,"current_range_meters":29600,"station_id":"ce4bgs12rcd13ifvqcag","pricing_plan_id":"cebpf4jnsgd1na2vs0mg"},{"bike_id":"b08161ff-b749-410f-a0aa-abab83f9d90d","system_id":"levelo_inurba_marseille","lat":43.29712,"lon":5.37473,"is_reserved":false,"is_disabled":false,"rental_uris":{"android":"levelo://app?vid=b08161ff-b749-410f-a0aa-abab83f9d90d","ios":"levelo://app?vid=b08161ff-b749-410f-a0aa-abab83f9d90d"},"vehicle_type_id":"4","last_reported":1773334138,"current_range_meters":36400,"station_id":"","pricing_plan_id":"cebpf4jnsgd1na2vs0mg"},{"bike_id":"94112a7f-1b5d-4bb7-ad0e-05547babdda5","system_id":"levelo_inurba_marseille","lat":43.28216,"lon":5.3906,"is_reserved":false,"is_disabled":false,"rental_uris":{"android":"levelo://app?vid=94112a7f-1b5d-4bb7-ad0e-05547babdda5","ios":"levelo://app?vid=94112a7f-1b5d-4bb7-ad0e-05547babdda5"},"vehicle_type_id":"4","last_reported":1773334138,"current_range_meters":13600,"station_id":"ce4bhn92rcd13ifvqgsg","pricing_plan_id":"cebpf4jnsgd1na2vs0mg"},{"bike_id":"d72ef6e6-f54f-4594-97e9-5076355986c3","system_id":"levelo_inurba_marseille","lat":43.31442,"lon":5.36805,"is_reserved":false,"is_disabled":false,"rental_uris":{"android":"levelo://app?vid=d72ef6e6-f54f-4594-97e9-5076355986c3","ios":"levelo://app?vid=d72ef6e6-f54f-4594-97e9-5076355986c3"},"vehicle_type_id":"4","last_reported":1773334138,"current_range_meters":33600,"station_id":"","pricing_plan_id":"cebpf4jnsgd1na2vs0mg"},{"bike_id":"6c38fbf8-57a5-4661-99ff-529ea2451e1d","system_id":"levelo_inurba_marseille","lat":43.29544,"lon":5.38546,"is_reserved":false,"is_disabled":false,"rental_uris":{"android":"levelo://app?vid=6c38fbf8-57a5-4661-99ff-529ea2451e1d","ios":"levelo://app?vid=6c38fbf8-57a5-4661-99ff-529ea2451e1d"},"vehicle_type_id":"4","last_reported":1773334138,"current_range_meters":9200,"station_id":"ce4bgih2rcd13ifvqba0","pricing_plan_id":"cebpf4jnsgd1na2vs0mg"},