{"last_updated":1703685986,"ttl":30,"version":"2.2","data":{"bikes":[{"bike_id":"1ec746ac-97c1-4ee8-af22-7127d9546824","system_id":"levelo_inurba_marseille","lat":43.31341,"lon":5.367098,"is_reserved":false,"is_disabled":false,"rental_uris":{"android":"levelo://app?vid=1ec746ac-97c1-4ee8-af22-7127d9546824","ios":"levelo://app?vid=1ec746ac-97c1-4ee8-af22-7127d9546824"},"vehicle_type_id":"4","last_reported":1703685986,"current_range_meters":25600,"station_id":"ce4bgr92rcd13ifvqc6g","pricing_plan_id":"free"},{"bike_id":"fec82d17-80f9-41a0-b057-c05695af3d9d","system_id":"levelo_inurba_marseille","lat":43.31341,"lon":5.367098,"is_reserved":false,"is_disabled":false,"rental_uris":{"android":"levelo://app?vid=fec82d17-80f9-41a0-b057-c05695af3d9d","ios":"levelo://app?vid=fec82d17-80f9-41a0-b057-c05695af3d9d"},"vehicle_type_id":"4","last_reported":1703685986,"current_range_meters":30400,"station_id":"ce4bgr92rcd13ifvqc6g","pricing_plan_id":"free"},{"bike_id":"02e1d662-ff29-46f4-a4e6-fe710da7bd5a","system_id":"levelo_inurba_marseille","lat":43.31341,"lon":5.367098,"is_reserved":false,"is_disabled":false,"rental_uris":{"android":"levelo://app?vid=02e1d662-ff29-46f4-a4e6-fe710da7bd5a","ios":"levelo://app?vid=02e1d662-ff29-46f4-a4e6-fe710da7bd5a"},"vehicle_type_id":"4","last_reported":1703685986,"current_range_meters":30400,"station_id":"ce4bgr92rcd13ifvqc6g","pricing_plan_id":"free"},{"bike_id":"0799b6dd-fce4-4b8b-9095-59a940b32a3a","system_id":"levelo_inurba_marseille","lat":43.309076,"lon":5.368465,"is_reserved":false,"is_disabled":false,"rental_uris":{"android":"levelo://app?vid=0799b6dd-fce4-4b8b-9095-59a940b32a3a","ios":"levelo://app?vid=0799b6dd-fce4-4b8b-9095-59a940b32a3a"},"vehicle_type_id":"4","last_reported":1703685986,"current_range_meters":30800,"station_id":"ce4bgn92rcd13ifvqbvg","pricing_plan_id":"free"},{"bike_id":"60e6c787-fc2b-4a8a-8bbf-c307acfbf39e","system_id":"levelo_inurba_marseille","lat":43.309076,"lon":5.368465,"is_reserved":false,"is_disabled":false,"rental_uris":{"android":"levelo://app?vid=60e6c787-fc2b-4a8a-8bbf-c307acfbf39e","ios":"levelo://app?vid=60e6c787-fc2b-4a8a-8bbf-c307acfbf39e"},"vehicle_type_id":"4","last_reported":1703685986,"current_range_meters":30800,"station_id":"ce4bgn92rcd13ifvqbvg","pricing_plan_id":"free"},{"bike_id":"a0adbac7-5606-441f-a7a6-25965f3f73f6","system_id":"levelo_inurba_marseille","lat":43.314811,"lon":5.373103,"is_reserved":false,"is_disabled":false,"rental_uris":{"android":"levelo://app?vid=a0adbac7-5606-441f-a7a6-25965f3f73f6","ios":"levelo://app?vid=a0adbac7-5606-441f-a7a6-25965f3f73f6"},"vehicle_type_id":"4","last_reported":1703685986,"current_range_meters":30000,"station_id":"ce4bgt12rcd13ifvqcd0","pricing_plan_id":"free"},{"bike_id":"eb3f054c-9dca-4727-ae01-ce9bbc606365","system_id":"levelo_inurba_marseille","lat":43.314811,"lon":5.373104,"is_reserved":false,"is_disabled":false,"rental_uris":{"android":"levelo://app?vid=eb3f054c-9dca-4727-ae01-ce9bbc606365","ios":"levelo://app?vid=eb3f054c-9dca-4727-ae01-ce9bbc606365"},"vehicle_type_id":"4","last_reported":1703685986,"current_range_meters":28800,"station_id":"ce4bgt12rcd13ifvqcd0","pricing_plan_id":"free"},{"bike_id":"bd790008-e89c-4d93-a43e-70dfca5d0aea","system_id":"levelo_inurba_marseille","lat":43.309039,"lon":5.371797,"is_reserved":false,"is_disabled":false,"rental_uris":{"android":"levelo://app?vid=bd790008-e89c-4d93-a43e-70dfca5d0aea","ios":"levelo://app?vid=bd790008-e89c-4d93-a43e-70dfca5d0aea"},"vehicle_type_id":"4","last_reported":1703685986,"current_range_meters":28400,"station_id":"ce4bguh2rcd13ifvqckg","pricing_plan_id":"free"},{"bike_id":"437be774-9347-4f56-865e-861017296255","system_id":"levelo_inurba_marseille","lat":43.318964,"lon":5.36877,"is_reserved":false,"is_disabled":false,"rental_uris":{"android":"levelo://app?vid=437be774-9347-4f56-865e-861017296255","ios":"levelo://app?vid=437be774-9347-4f56-865e-861017296255"},"vehicle_type_id":"4","last_reported":1703685986,"current_range_meters":8000,"station_id":"","pricing_plan_id":"free"},{"bike_id":"86291a32-4dca-442f-8094-05de492b1f27","system_id":"levelo_inurba_marseille","lat":43.305712,"lon":5.365641,"is_reserved":false,"is_disabled":false,"rental_uris":{"android":"levelo://app?vid=86291a32-4dca-442f-8094-05de492b1f27","ios":"levelo://app?vid=86291a32-4dca-442f-8094-05de492b1f27"},"vehicle_type_id":"4","last_reported":1703685986,"current_range_meters":30400,"station_id":"ce4bgs12rcd13ifvqcag","pricing_plan_id":"free"},{"bike_id":"5d7049f3-2163-4dcf-bd79-6c1b3f34c0aa","system_id":"levelo_inurba_marseille","lat":43.305368,"lon":5.367343,"is_reserved":false,"is_disabled":false,"rental_uris":{"android":"levelo://app?vid=5d7049f3-2163-4dcf-bd79-6c1b3f34c0aa","ios":"levelo://app?vid=5d7049f3-2163-4dcf-bd79-6c1b3f34c0aa"},"vehicle_type_id":"4","last_reported":1703685986,"current_range_meters":9600,"station_id":"ce4bgrp2rcd13ifvqc9g","pricing_plan_id":"free"},{"bike_id":"23080e11-99f0-474f-83b0-409566e690a7","system_id":"levelo_inurba_marseille","lat":43.30547,"lon":5.36709,"is_reserved":false,"is_disabled":false,"rental_uris":{"android":"levelo://app?vid=23080e11-99f0-474f-83b0-409566e690a7","ios":"levelo://app?vid=23080e11-99f0-474f-83b0-409566e690a7"},"vehicle_type_id":"4","last_reported":1703685986,"current_range_meters":30800,"station_id":"ce4bgrp2rcd13ifvqc9g","pricing_plan_id":"free"},{"bike_id":"654faa5c-8166-4b19-a214-21386734fe34","system_id":"levelo_inurba_marseille","lat":43.30547,"lon":5.36709,"is_reserved":false,"is_disabled":false,"rental_uris":{"android":"levelo://app?vid=654faa5c-8166-4b19-a214-21386734fe34","ios":"levelo://app?vid=654faa5c-8166-4b19-a214-21386734fe34"},"vehicle_type_id":"4","last_reported":1703685986,"current_range_meters":21200,"station_id":"ce4bgrp2rcd13ifvqc9g","pricing_plan_id":"free"},{"bike_id":"95f35649-c5ff-426b-927f-6ea500caf11d","system_id":"levelo_inurba_marseille","lat":43.30537,"lon":5.367345,"is_reserved":false,"is_disabled":false,"rental_uris":{"android":"levelo://app?vid=95f35649-c5ff-426b-927f-6ea500caf11d","ios":"levelo://app?vid=95f35649-c5ff-426b-927f-6ea500caf11d"},"vehicle_type_id":"4","last_reported":1703685986,"current_range_meters":13600,"station_id":"ce4bgrp2rcd13ifvqc9g","pricing_plan_id":"free"},{"bike_id":"e65a2858-3bdd-448d-8218-902c01daa429","system_id":"levelo_inurba_marseille","lat":43.30537,"lon":5.367345,"is_reserved":false,"is_disabled":false,"rental_uris":{"android":"levelo://app?vid=e65a2858-3bdd-448d-8218-902c01daa429","ios":"levelo://app?vid=e65a2858-3bdd-448d-8218-902c01daa429"},"vehicle_type_id":"4","last_reported":1703685986,"current_range_meters":31200,"station_id":"ce4bgrp2rcd13ifvqc9g","pricing_plan_id":"free"},{"bike_id":"4d973bd6-70df-43c1-92b0-911cb77aa873","system_id":"levelo_inurba_marseille","lat":43.30537,"lon":5.367345,"is_reserved":false,"is_disabled":false,"rental_uris":{"android":"levelo://app?vid=4d973bd6-70df-43c1-92b0-911cb77aa873","ios":"levelo://app?vid=4d973bd6-70df-43c1-92b0-911cb77aa873"},"vehicle_type_id":"4","last_reported":1703685986,"current_range_meters":22400,"station_id":"ce4bgrp2rcd13ifvqc9g","pricing_plan_id":"free"},{"bike_id":"b3c87acb-d0ca-448f-bd14-eb84d28124d6","system_id":"levelo_inurba_marseille","lat":43.305368,"lon":5.367343,"is_reserved":false,"is_disabled":false,"rental_uris":{"android":"levelo://app?vid=b3c87acb-d0ca-448f-bd14-eb84d28124d6","ios":"levelo://app?vid=b3c87acb-d0ca-448f-bd14-eb84d28124d6"},"vehicle_type_id":"4","last_reported":1703685986,"current_range_meters":18000,"station_id":"ce4bgrp2rcd13ifvqc9g","pricing_plan_id":"free"},{"bike_id":"a2c859d8-46dd-403f-8539-d587cd951704","system_id":"levelo_inurba_marseille","lat":43.30544,"lon":5.3656,"is_reserved":false,"is_disabled":false,"rental_uris":{"android":"levelo://app?vid=a2c859d8-46dd-403f-8539-d587cd951704","ios":"levelo://app?vid=a2c859d8-46dd-403f-8539-d587cd951704"},"vehicle_type_id":"4","last_reported":1703685986,"current_range_meters":27200,"station_id":"ce4bgs12rcd13ifvqcag","pricing_plan_id":"free"},{"bike_id":"0f2e4b17-bc08-4785-9ac4-32d02dd3db3e","system_id":"levelo_inurba_marseille","lat":43.305368,"lon":5.367343,"is_reserved":false,"is_disabled":false,"rental_uris":{"android":"levelo://app?vid=0f2e4b17-bc08-4785-9ac4-32d02dd3db3e","ios":"levelo://app?vid=0f2e4b17-bc08-4785-9ac4-32d02dd3db3e"},"vehicle_type_id":"4","last_reported":1703685986,"current_range_meters":20000,"station_id":"ce4bgrp2rcd13ifvqc9g","pricing_plan_id":"free"},{"bike_id":"a6caf4e2-87ff-4b49-b9cf-8b755a13ff89","system_id":"levelo_inurba_marseille","lat":43.305368,"lon":5.367343,"is_reserved":false,"is_disabled":false,"rental_uris":{"android":"levelo://app?vid=a6caf4e2-87ff-4b49-b9cf-8b755a13ff89","ios":"levelo://app?vid=a6caf4e2-87ff-4b49-b9cf-8b755a13ff89"},"vehicle_type_id":"4","last_reported":1703685986,"current_range_meters":29200,"station_id":"ce4bgrp2rcd13ifvqc9g","pricing_plan_id":"free"},{"bike_id":"aef9ef24-6e07-4eeb-8c0f-622e1c77daec","system_id":"levelo_inurba_marseille","lat":43.305368,"lon":5.367343,"is_reserved":false,"is_disabled":false,"rental_uris":{"android":"levelo://app?vid=aef9ef24-6e07-4eeb-8c0f-622e1c77daec","ios":"levelo://app?vid=aef9ef24-6e07-4eeb-8c0f-622e1c77daec"},"vehicle_type_id":"4","last_reported":1703685986,"current_range_meters":28400,"station_id":"ce4bgrp2rcd13ifvqc9g","pricing_plan_id":"free"},{"bike_id":"b8a0a6c4-cae7-48f6-98c4-ed3156645f67","system_id":"levelo_inurba_marseille","lat":43.305368,"lon":5.367343,"is_reserved":false,"is_disabled":false,"rental_uris":{"android":"levelo://app?vid=b8a0a6c4-cae7-48f6-98c4-ed3156645f67","ios":"levelo://app?vid=b8a0a6c4-cae7-48f6-98c4-ed3156645f67"},"vehicle_type_id":"4","last_reported":1703685986,"current_range_meters":20800,"station_id":"ce4bgrp2rcd13ifvqc9g","pricing_plan_id":"free"},{"bike_id":"4d00a7ff-7a52-4696-8dcb-f0cbb4b34bd1","system_id":"levelo_inurba_marseille","lat":43.305368,"lon":5.367343,"is_reserved":false,"is_disabled":false,"rental_uris":{"android":"levelo://app?vid=4d00a7ff-7a52-4696-8dcb-f0cbb4b34bd1","ios":"levelo://app?vid=4d00a7ff-7a52-4696-8dcb-f0cbb4b34bd1"},"vehicle_type_id":"4","last_reported":1703685986,"current_range_meters":14400,"station_id":"ce4bgrp2rcd13ifvqc9g","pricing_plan_id":"free"},{"bike_id":"20766f78-5f40-493c-b504-1ff3477f0539","system_id":"levelo_inurba_marseille","lat":43.305368,"lon":5.367343,"is_reserved":false,"is_disabled":false,"rental_uris":{"android":"levelo://app?vid=20766f78-5f40-493c-b504-1ff3477f0539","ios":"levelo://app?vid=20766f78-5f40-493c-b504-1ff3477f0539"},"vehicle_type_id":"4","last_reported":1703685986,"current_range_meters":25200,"station_id":"ce4bgrp2rcd13ifvqc9g","pricing_plan_id":"free"},{"bike_id":"08e924f2-712e-4bf2-9429-cd47f7071929","system_id":"levelo_inurba_marseille","lat":43.305368,"lon":5.367343,"is_reserved":false,"is_disabled":false,"rental_uris":{"android":"levelo://app?vid=08e924f2-712e-4bf2-9429-cd47f7071929","ios":"levelo://app?vid=08e924f2-712e-4bf2-9429-cd47f7071929"},"vehicle_type_id":"4","last_reported":1703685986,"current_range_meters":28400,"station_id":"ce4bgrp2rcd13ifvqc9g","pricing_plan_id":"free"},{"bike_id":"e589d7d5-1da7-4d76-9f22-f1e9c6680567","system_id":"levelo_inurba_marseille","lat":43.305714,"lon":5.365633,"is_reserved":false,"is_disabled":false,"rental_uris":{"android":"levelo://app?vid=e589d7d5-1da7-4d76-9f22-f1e9c6680567","ios":"levelo://app?vid=e589d7d5-1da7-4d76-9f22-f1e9c6680567"},"vehicle_type_id":"4","last_reported":1703685986,"current_range_meters":19200,"station_id":"ce4bgs12rcd13ifvqcag","pricing_plan_id":"free"},{"bike_id":"9a250c46-26f9-4cd7-875f-087addca6455","system_id":"levelo_inurba_marseille","lat":43.305368,"lon":5.367343,"is_reserved":false,"is_disabled":false,"rental_uris":{"android":"levelo://app?vid=9a250c46-26f9-4cd7-875f-087addca6455","ios":"levelo://app?vid=9a250c46-26f9-4cd7-875f-087addca6455"},"vehicle_type_id":"4","last_reported":1703685986,"current_range_meters":13200,"station_id":"ce4bgrp2rcd13ifvqc9g","pricing_plan_id":"free"},{"bike_id":"fff16be8-883e-43cd-aef3-c03772c120a8","system_id":"levelo_inurba_marseille","lat":43.305706,"lon":5.365654,"is_reserved":false,"is_disabled":false,"rental_uris":{"android":"levelo://app?vid=fff16be8-883e-43cd-aef3-c03772c120a8","ios":"levelo://app?vid=fff16be8-883e-43cd-aef3-c03772c120a8"},"vehicle_type_id":"4","last_reported":1703685986,"current_range_meters":32000,"station_id":"ce4bgs12rcd13ifvqcag","pricing_plan_id":"free"},{"bike_id":"132f30dc-50ba-4eb7-a01e-21cf3379f689","system_id":"levelo_inurba_marseille","lat":43.305706,"lon":5.365654,"is_reserved":false,"is_disabled":false,"rental_uris":{"android":"levelo://app?vid=132f30dc-50ba-4eb7-a01e-21cf3379f689","ios":"levelo://app?vid=132f30dc-50ba-4eb7-a01e-21cf3379f689"},"vehicle_type_id":"4","last_reported":1703685986,"current_range_meters":23200,"station_id":"ce4bgs12rcd13ifvqcag","pricing_plan_id":"free"},{"bike_id":"15e0bc0c-3f20-4972-8a1c-a6b2a2cc89e5","system_id":"levelo_inurba_marseille","lat":43.305706,"lon":5.365654,"is_reserved":false,"is_disabled":false,"rental_uris":{"android":"levelo://app?vid=15e0bc0c-3f20-4972-8a1c-a6b2a2cc89e5","ios":"levelo://app?vid=15e0bc0c-3f20-4972-8a1c-a6b2a2cc89e5"},"vehicle_type_id":"4","last_reported":1703685986,"current_range_meters":25200,"station_id":"ce4bgs12rcd13ifvqcag","pricing_plan_id":"free"},{"bike_id":"52c464d7-fe66-4257-bdd4-da7f09d0632b","system_id":"levelo_inurba_marseille","lat":43.30601,"lon":5.37152,"is_reserved":false,"is_disabled":false,"rental_uris":{"android":"levelo://app?vid=52c464d7-fe66-4257-bdd4-da7f09d0632b","ios":"levelo://app?vid=52c464d7-fe66-4257-bdd4-da7f09d0632b"},"vehicle_type_id":"4","last_reported":1703685986,"current_range_meters":30400,"station_id":"","pricing_plan_id":"free"},{"bike_id":"e91243af-7bb7-4de7-a9e2-268acebb3db5","system_id":"levelo_inurba_marseille","lat":43.305706,"lon":5.365654,"is_reserved":false,"is_disabled":false,"rental_uris":{"android":"levelo://app?vid=e91243af-7bb7-4de7-a9e2-268acebb3db5","ios":"levelo://app?vid=e91243af-7bb7-4de7-a9e2-268acebb3db5"},"vehicle_type_id":"4","last_reported":1703685986,"current_range_meters":24800,"station_id":"ce4bgs12rcd13ifvqcag","pricing_plan_id":"free"},{"bike_id":"d1a05984-5484-40db-bf2e-1373b1705ee3","system_id":"levelo_inurba_marseille","lat":43.305706,"lon":5.365654,"is_reserved":false,"is_disabled":false,"rental_uris":{"android":"levelo://app?vid=d1a05984-5484-40db-bf2e-1373b1705ee3","ios":"levelo://app?vid=d1a05984-5484-40db-bf2e-1373b1705ee3"},"vehicle_type_id":"4","last_reported":1703685986,"current_range_meters":29200,"station_id":"ce4bgs12rcd13ifvqcag","pricing_plan_id":"free"},{"bike_id":"545df49f-4c64-4222-90da-0d520ea6148f","system_id":"levelo_inurba_marseille","lat":43.305989,"lon":5.37225,"is_reserved":false,"is_disabled":false,"rental_uris":{"android":"levelo://app?vid=545df49f-4c64-4222-90da-0d520ea6148f","ios":"levelo://app?vid=545df49f-4c64-4222-90da-0d520ea6148f"},"vehicle_type_id":"4","last_reported":1703685986,"current_range_meters":31200,"station_id":"ce4bgqh2rcd13ifvqc4g","pricing_plan_id":"free"},{"bike_id":"6a87f49c-2593-440a-961f-46410ce0abd4","system_id":"levelo_inurba_marseille","lat":43.317075,"lon":5.377367,"is_reserved":false,"is_disabled":false,"rental_uris":{"android":"levelo://app?vid=6a87f49c-2593-440a-961f-46410ce0abd4","ios":"levelo://app?vid=6a87f49c-2593-440a-961f-46410ce0abd4"},"vehicle_type_id":"4","last_reported":1703685986,"current_range_meters":28800,"station_id":"ce4bgth2rcd13ifvqch0","pricing_plan_id":"free"},{"bike_id":"12de8f02-c3f8-4577-afbd-9bb8e20d2e5b","system_id":"levelo_inurba_marseille","lat":43.317075,"lon":5.377367,"is_reserved":false,"is_disabled":false,"rental_uris":{"android":"levelo://app?vid=12de8f02-c3f8-4577-afbd-9bb8e20d2e5b","ios":"levelo://app?vid=12de8f02-c3f8-4577-afbd-9bb8e20d2e5b"},"vehicle_type_id":"4","last_reported":1703685986,"current_range_meters":31600,"station_id":"ce4bgth2rcd13ifvqch0","pricing_plan_id":"free"},{"bike_id":"4ea0f6e7-d27a-4a75-9d40-86a755ec474e","system_id":"levelo_inurba_marseille","lat":43.317075,"lon":5.377367,"is_reserved":false,"is_disabled":false,"rental_uris":{"android":"levelo://app?vid=4ea0f6e7-d27a-4a75-9d40-86a755ec474e","ios":"levelo://app?vid=4ea0f6e7-d27a-4a75-9d40-86a755ec474e"},"vehicle_type_id":"4","last_reported":1703685986,"current_range_meters":22400,"station_id":"ce4bgth2rcd13ifvqch0","pricing_plan_id":"free"},{"bike_id":"57c7c24c-52dc-4788-b3ce-c7c1879b6b3b","system_id":"levelo_inurba_marseille","lat":43.317075,"lon":5.377367,"is_reserved":false,"is_disabled":false,"rental_uris":{"android":"levelo://app?vid=57c7c24c-52dc-4788-b3ce-c7c1879b6b3b","ios":"levelo://app?vid=57c7c24c-52dc-4788-b3ce-c7c1879b6b3b"},"vehicle_type_id":"4","last_reported":1703685986,"current_range_meters":29200,"station_id":"ce4bgth2rcd13ifvqch0","pricing_plan_id":"free"},{"bike_id":"23feee84-737f-4413-bfcb-bad2f435a0c5","system_id":"levelo_inurba_marseille","lat":43.30304,"lon":5.368987,"is_reserved":false,"is_disabled":false,"rental_uris":{"android":"levelo://app?vid=23feee84-737f-4413-bfcb-bad2f435a0c5","ios":"levelo://app?vid=23feee84-737f-4413-bfcb-bad2f435a0c5"},"vehicle_type_id":"4","last_reported":1703685986,"current_range_meters":23200,"station_id":"ce4bgqh2rcd13ifvqc5g","pricing_plan_id":"free"},{"bike_id":"45aa06a4-6207-41c0-90de-ff3c39911319","system_id":"levelo_inurba_marseille","lat":43.31527,"lon":5.38026,"is_reserved":false,"is_disabled":false,"rental_uris":{"android":"levelo://app?vid=45aa06a4-6207-41c0-90de-ff3c39911319","ios":"levelo://app?vid=45aa06a4-6207-41c0-90de-ff3c39911319"},"vehicle_type_id":"4","last_reported":1703685986,"current_range_meters":24400,"station_id":"ce4bhsp2rcd13ifvqi50","pricing_plan_id":"free"},{"bike_id":"fcad7328-5118-4b77-a8a2-3278f7ed5317","system_id":"levelo_inurba_marseille","lat":43.308012,"lon":5.381511,"is_reserved":false,"is_disabled":false,"rental_uris":{"android":"levelo://app?vid=fcad7328-5118-4b77-a8a2-3278f7ed5317","ios":"levelo://app?vid=fcad7328-5118-4b77-a8a2-3278f7ed5317"},"vehicle_type_id":"4","last_reported":1703685986,"current_range_meters":29200,"station_id":"ce4bgt12rcd13ifvqce0","pricing_plan_id":"free"},{"bike_id":"adbd0521-5319-4c26-b88b-64e65385a019","system_id":"levelo_inurba_marseille","lat":43.304606,"lon":5.379026,"is_reserved":false,"is_disabled":false,"rental_uris":{"android":"levelo://app?vid=adbd0521-5319-4c26-b88b-64e65385a019","ios":"levelo://app?vid=adbd0521-5319-4c26-b88b-64e65385a019"},"vehicle_type_id":"4","last_reported":1703685986,"current_range_meters":15200,"station_id":"ce4bgup2rcd13ifvqcn0","pricing_plan_id":"free"},{"bike_id":"bea53d04-e229-4f19-a7f6-8945b3a45f4f","system_id":"levelo_inurba_marseille","lat":43.304606,"lon":5.379026,"is_reserved":false,"is_disabled":false,"rental_uris":{"android":"levelo://app?vid=bea53d04-e229-4f19-a7f6-8945b3a45f4f","ios":"levelo://app?vid=bea53d04-e229-4f19-a7f6-8945b3a45f4f"},"vehicle_type_id":"4","last_reported":1703685986,"current_range_meters":7600,"station_id":"ce4bgup2rcd13ifvqcn0","pricing_plan_id":"free"},{"bike_id":"a92a8f32-1532-4c71-8a2d-27536651c6b6","system_id":"levelo_inurba_marseille","lat":43.304606,"lon":5.379026,"is_reserved":false,"is_disabled":false,"rental_uris":{"android":"levelo://app?vid=a92a8f32-1532-4c71-8a2d-27536651c6b6","ios":"levelo://app?vid=a92a8f32-1532-4c71-8a2d-27536651c6b6"},"vehicle_type_id":"4","last_reported":1703685986,"current_range_meters":29600,"station_id":"ce4bgup2rcd13ifvqcn0","pricing_plan_id":"free"},{"bike_id":"4116ae37-4f5a-45e9-909c-2141949d5a4d","system_id":"levelo_inurba_marseille","lat":43.304606,"lon":5.379026,"is_reserved":false,"is_disabled":false,"rental_uris":{"android":"levelo://app?vid=4116ae37-4f5a-45e9-909c-2141949d5a4d","ios":"levelo://app?vid=4116ae37-4f5a-45e9-909c-2141949d5a4d"},"vehicle_type_id":"4","last_reported":1703685986,"current_range_meters":26000,"station_id":"ce4bgup2rcd13ifvqcn0","pricing_plan_id":"free"},{"bike_id":"310db758-48a1-4d78-827e-4598dfee7cff","system_id":"levelo_inurba_marseille","lat":43.304606,"lon":5.379026,"is_reserved":false,"is_disabled":false,"rental_uris":{"android":"levelo://app?vid=310db758-48a1-4d78-827e-4598dfee7cff","ios":"levelo://app?vid=310db758-48a1-4d78-827e-4598dfee7cff"},"vehicle_type_id":"4","last_reported":1703685986,"current_range_meters":24400,"station_id":"ce4bgup2rcd13ifvqcn0","pricing_plan_id":"free"},{"bike_id":"3fefeef5-9b17-4a83-a2e9-b676e3c9b179","system_id":"levelo_inurba_marseille","lat":43.304606,"lon":5.379026,"is_reserved":false,"is_disabled":false,"rental_uris":{"android":"levelo://app?vid=3fefeef5-9b17-4a83-a2e9-b676e3c9b179","ios":"levelo://app?vid=3fefeef5-9b17-4a83-a2e9-b676e3c9b179"},"vehicle_type_id":"4","last_reported":1703685986,"current_range_meters":17200,"station_id":"ce4bgup2rcd13ifvqcn0","pricing_plan_id":"free"},{"bike_id":"5c3120fc-3167-462a-8b40-58c57a05850b","system_id":"levelo_inurba_marseille","lat":43.304606,"lon":5.379026,"is_reserved":false,"is_disabled":false,"rental_uris":{"android":"levelo://app?vid=5c3120fc-3167-462a-8b40-58c57a05850b","ios":"levelo://app?vid=5c3120fc-3167-462a-8b40-58c57a05850b"},"vehicle_type_id":"4","last_reported":1703685986,"current_range_meters":24000,"station_id":"ce4bgup2rcd13ifvqcn0","pricing_plan_id":"free"},{"bike_id":"bd1dba45-31eb-4468-90ae-db0eb19fde7f","system_id":"levelo_inurba_marseille","lat":43.304606,"lon":5.379026,"is_reserved":false,"is_disabled":false,"rental_uris":{"android":"levelo://app?vid=bd1dba45-31eb-4468-90ae-db0eb19fde7f","ios":"levelo://app?vid=bd1dba45-31eb-4468-90ae-db0eb19fde7f"},"vehicle_type_id":"4","last_reported":1703685986,"current_range_meters":30000,"station_id":"ce4bgup2rcd13ifvqcn0","pricing_plan_id":"free"},{"bike_id":"993f8bbc-e889-4f3e-b207-5281d20a3ebb","system_id":"levelo_inurba_marseille","lat":43.304606,"lon":5.379026,"is_reserved":false,"is_disabled":false,"rental_uris":{"android":"levelo://app?vid=993f8bbc-e889-4f3e-b207-5281d20a3ebb","ios":"levelo://app?vid=993f8bbc-e889-4f3e-b207-5281d20a3ebb"},"vehicle_type_id":"4","last_reported":1703685986,"current_range_meters":21200,"station_id":"ce4bgup2rcd13ifvqcn0","pricing_plan_id":"free"},{"bike_id":"b493f075-f29f-49e0-85f6-3d1ae157766b","system_id":"levelo_inurba_marseille","lat":43.304606,"lon":5.379026,"is_reserved":false,"is_disabled":false,"rental_uris":{"android":"levelo://app?vid=b493f075-f29f-49e0-85f6-3d1ae157766b","ios":"levelo://app?vid=b493f075-f29f-49e0-85f6-3d1ae157766b"},"vehicle_type_id":"4","last_reported":1703685986,"current_range_meters":18800,"station_id":"ce4bgup2rcd13ifvqcn0","pricing_plan_id":"free"},{"bike_id":"d3df8c1f-09c9-448d-97d6-daf6e6951a61","system_id":"levelo_inurba_marseille","lat":43.302784,"lon":5.377158,"is_reserved":false,"is_disabled":false,"rental_uris":{"android":"levelo://app?vid=d3df8c1f-09c9-448d-97d6-daf6e6951a61","ios":"levelo://app?vid=d3df8c1f-09c9-448d-97d6-daf6e6951a61"},"vehicle_type_id":"4","last_reported":1703685986,"current_range_meters":24800,"station_id":"ce4bguh2rcd13ifvqcj0","pricing_plan_id":"free"},{"bike_id":"eec999d6-9128-405e-95a0-18d1c0f9a51b","system_id":"levelo_inurba_marseille","lat":43.302784,"lon":5.377158,"is_reserved":false,"is_disabled":false,"rental_uris":{"android":"levelo://app?vid=eec999d6-9128-405e-95a0-18d1c0f9a51b","ios":"levelo://app?vid=eec999d6-9128-405e-95a0-18d1c0f9a51b"},"vehicle_type_id":"4","last_reported":1703685986,"current_range_meters":28800,"station_id":"ce4bguh2rcd13ifvqcj0","pricing_plan_id":"free"},{"bike_id":"0fa9138b-1f55-4a0d-a908-98664f004dc1","system_id":"levelo_inurba_marseille","lat":43.302784,"lon":5.377158,"is_reserved":false,"is_disabled":false,"rental_uris":{"android":"levelo://app?vid=0fa9138b-1f55-4a0d-a908-98664f004dc1","ios":"levelo://app?vid=0fa9138b-1f55-4a0d-a908-98664f004dc1"},"vehicle_type_id":"4","last_reported":1703685986,"current_range_meters":22800,"station_id":"ce4bguh2rcd13ifvqcj0","pricing_plan_id":"free"},{"bike_id":"b4b21e72-2e3a-4531-8f6e-e3b8e1b435b1","system_id":"levelo_inurba_marseille","lat":43.301429,"lon":5.37413,"is_reserved":false,"is_disabled":false,"rental_uris":{"android":"levelo://app?vid=b4b21e72-2e3a-4531-8f6e-e3b8e1b435b1","ios":"levelo://app?vid=b4b21e72-2e3a-4531-8f6e-e3b8e1b435b1"},"vehicle_type_id":"4","last_reported":1703685986,"current_range_meters":29200,"station_id":"ce4bgs92rcd13ifvqcc0","pricing_plan_id":"free"},{"bike_id":"eb75f652-373e-4726-9e33-c05a085e4a2d","system_id":"levelo_inurba_marseille","lat":43.301453,"lon":5.37416,"is_reserved":false,"is_disabled":false,"rental_uris":{"android":"levelo://app?vid=eb75f652-373e-4726-9e33-c05a085e4a2d","ios":"levelo://app?vid=eb75f652-373e-4726-9e33-c05a085e4a2d"},"vehicle_type_id":"4","last_reported":1703685986,"current_range_meters":9600,"station_id":"","pricing_plan_id":"free"},{"bike_id":"41cd2e4f-0d53-40c6-8837-8fc8cbf9bab3","system_id":"levelo_inurba_marseille","lat":43.302784,"lon":5.377158,"is_reserved":false,"is_disabled":false,"rental_uris":{"android":"levelo://app?vid=41cd2e4f-0d53-40c6-8837-8fc8cbf9bab3","ios":"levelo://app?vid=41cd2e4f-0d53-40c6-8837-8fc8cbf9bab3"},"vehicle_type_id":"4","last_reported":1703685986,"current_range_meters":26800,"station_id":"ce4bguh2rcd13ifvqcj0","pricing_plan_id":"free"},{"bike_id":"c6dfaa4f-fce3-4c81-b763-21cd6c2682f9","system_id":"levelo_inurba_marseille","lat":43.30143,"lon":5.37413,"is_reserved":false,"is_disabled":false,"rental_uris":{"android":"levelo://app?vid=c6dfaa4f-fce3-4c81-b763-21cd6c2682f9","ios":"levelo://app?vid=c6dfaa4f-fce3-4c81-b763-21cd6c2682f9"},"vehicle_type_id":"4","last_reported":1703685986,"current_range_meters":27200,"station_id":"ce4bgs92rcd13ifvqcc0","pricing_plan_id":"free"},{"bike_id":"83b0f91b-97db-4bf5-9882-f1380f56a7ab","system_id":"levelo_inurba_marseille","lat":43.301429,"lon":5.37413,"is_reserved":false,"is_disabled":false,"rental_uris":{"android":"levelo://app?vid=83b0f91b-97db-4bf5-9882-f1380f56a7ab","ios":"levelo://app?vid=83b0f91b-97db-4bf5-9882-f1380f56a7ab"},"vehicle_type_id":"4","last_reported":1703685986,"current_range_meters":27200,"station_id":"ce4bgs92rcd13ifvqcc0","pricing_plan_id":"free"},{"bike_id":"4c421aa9-d000-4200-9e63-a44394f724f7","system_id":"levelo_inurba_marseille","lat":43.30136,"lon":5.37421,"is_reserved":false,"is_disabled":false,"rental_uris":{"android":"levelo://app?vid=4c421aa9-d000-4200-9e63-a44394f724f7","ios":"levelo://app?vid=4c421aa9-d000-4200-9e63-a44394f724f7"},"vehicle_type_id":"4","last_reported":1703685986,"current_range_meters":5600,"station_id":"ce4bgs92rcd13ifvqcc0","pricing_plan_id":"free"},{"bike_id":"d5219808-27fb-44a2-8cf4-51d1ae3ecab8","system_id":"levelo_inurba_marseille","lat":43.301429,"lon":5.37413,"is_reserved":false,"is_disabled":false,"rental_uris":{"android":"levelo://app?vid=d5219808-27fb-44a2-8cf4-51d1ae3ecab8","ios":"levelo://app?vid=d5219808-27fb-44a2-8cf4-51d1ae3ecab8"},"vehicle_type_id":"4","last_reported":1703685986,"current_range_meters":31200,"station_id":"ce4bgs92rcd13ifvqcc0","pricing_plan_id":"free"},{"bike_id":"453cf3fe-914f-47d7-bb0b-9e3076dc1b66","system_id":"levelo_inurba_marseille","lat":43.3129,"lon":5.38458,"is_reserved":false,"is_disabled":false,"rental_uris":{"android":"levelo://app?vid=453cf3fe-914f-47d7-bb0b-9e3076dc1b66","ios":"levelo://app?vid=453cf3fe-914f-47d7-bb0b-9e3076dc1b66"},"vehicle_type_id":"4","last_reported":1703685986,"current_range_meters":17200,"station_id":"","pricing_plan_id":"free"},{"bike_id":"ecb0ac07-2193-48f9-b6ef-9b809da4cfa5","system_id":"levelo_inurba_marseille","lat":43.313571,"lon":5.384829,"is_reserved":false,"is_disabled":false,"rental_uris":{"android":"levelo://app?vid=ecb0ac07-2193-48f9-b6ef-9b809da4cfa5","ios":"levelo://app?vid=ecb0ac07-2193-48f9-b6ef-9b809da4cfa5"},"vehicle_type_id":"4","last_reported":1703685986,"current_range_meters":24800,"station_id":"ce4bgt92rcd13ifvqcf0","pricing_plan_id":"free"},{"bike_id":"404ecbfb-0edf-4221-b534-a6bdaa7ea65b","system_id":"levelo_inurba_marseille","lat":43.299724,"lon":5.371829,"is_reserved":false,"is_disabled":false,"rental_uris":{"android":"levelo://app?vid=404ecbfb-0edf-4221-b534-a6bdaa7ea65b","ios":"levelo://app?vid=404ecbfb-0edf-4221-b534-a6bdaa7ea65b"},"vehicle_type_id":"4","last_reported":1703685986,"current_range_meters":30000,"station_id":"ce4bgr92rcd13ifvqc7g","pricing_plan_id":"free"},{"bike_id":"01d191a0-f1e7-4fde-8bb6-42d26c521c98","system_id":"levelo_inurba_marseille","lat":43.298433,"lon":5.362774,"is_reserved":false,"is_disabled":false,"rental_uris":{"android":"levelo://app?vid=01d191a0-f1e7-4fde-8bb6-42d26c521c98","ios":"levelo://app?vid=01d191a0-f1e7-4fde-8bb6-42d26c521c98"},"vehicle_type_id":"4","last_reported":1703685986,"current_range_meters":28000,"station_id":"ce4bgpp2rcd13ifvqc3g","pricing_plan_id":"free"},{"bike_id":"21aa1a62-d007-4e7b-b5b2-7730389cbf06","system_id":"levelo_inurba_marseille","lat":43.29845,"lon":5.36274,"is_reserved":false,"is_disabled":false,"rental_uris":{"android":"levelo://app?vid=21aa1a62-d007-4e7b-b5b2-7730389cbf06","ios":"levelo://app?vid=21aa1a62-d007-4e7b-b5b2-7730389cbf06"},"vehicle_type_id":"4","last_reported":1703685986,"current_range_meters":0,"station_id":"ce4bgpp2rcd13ifvqc3g","pricing_plan_id":"free"},{"bike_id":"905c8818-2348-477b-a4d9-911b473b3b24","system_id":"levelo_inurba_marseille","lat":43.298433,"lon":5.362774,"is_reserved":false,"is_disabled":false,"rental_uris":{"android":"levelo://app?vid=905c8818-2348-477b-a4d9-911b473b3b24","ios":"levelo://app?vid=905c8818-2348-477b-a4d9-911b473b3b24"},"vehicle_type_id":"4","last_reported":1703685986,"current_range_meters":22800,"station_id":"ce4bgpp2rcd13ifvqc3g","pricing_plan_id":"free"},{"bike_id":"cf9546a4-759f-4e3b-ae06-89ca2b2ea56b","system_id":"levelo_inurba_marseille","lat":43.298433,"lon":5.362774,"is_reserved":false,"is_disabled":false,"rental_uris":{"android":"levelo://app?vid=cf9546a4-759f-4e3b-ae06-89ca2b2ea56b","ios":"levelo://app?vid=cf9546a4-759f-4e3b-ae06-89ca2b2ea56b"},"vehicle_type_id":"4","last_reported":1703685986,"current_range_meters":25600,"station_id":"ce4bgpp2rcd13ifvqc3g","pricing_plan_id":"free"},{"bike_id":"5f65dff8-7425-401d-b7a3-0e3430481123","system_id":"levelo_inurba_marseille","lat":43.299243,"lon":5.37481,"is_reserved":false,"is_disabled":false,"rental_uris":{"android":"levelo://app?vid=5f65dff8-7425-401d-b7a3-0e3430481123","ios":"levelo://app?vid=5f65dff8-7425-401d-b7a3-0e3430481123"},"vehicle_type_id":"4","last_reported":1703685986,"current_range_meters":20400,"station_id":"ce4bgjh2rcd13ifvqbg0","pricing_plan_id":"free"},{"bike_id":"c122f1b5-dd66-476e-bdd2-d1646aeab5c8","system_id":"levelo_inurba_marseille","lat":43.299243,"lon":5.37481,"is_reserved":false,"is_disabled":false,"rental_uris":{"android":"levelo://app?vid=c122f1b5-dd66-476e-bdd2-d1646aeab5c8","ios":"levelo://app?vid=c122f1b5-dd66-476e-bdd2-d1646aeab5c8"},"vehicle_type_id":"4","last_reported":1703685986,"current_range_meters":24400,"station_id":"ce4bgjh2rcd13ifvqbg0","pricing_plan_id":"free"},{"bike_id":"5dce0918-eb12-4d96-b84d-8784499a4b7b","system_id":"levelo_inurba_marseille","lat":43.299243,"lon":5.374807,"is_reserved":false,"is_disabled":false,"rental_uris":{"android":"levelo://app?vid=5dce0918-eb12-4d96-b84d-8784499a4b7b","ios":"levelo://app?vid=5dce0918-eb12-4d96-b84d-8784499a4b7b"},"vehicle_type_id":"4","last_reported":1703685986,"current_range_meters":30000,"station_id":"ce4bgjh2rcd13ifvqbg0","pricing_plan_id":"free"},{"bike_id":"e1838f53-b8b5-4145-822c-010385f4b44a","system_id":"levelo_inurba_marseille","lat":43.297794,"lon":5.370888,"is_reserved":false,"is_disabled":false,"rental_uris":{"android":"levelo://app?vid=e1838f53-b8b5-4145-822c-010385f4b44a","ios":"levelo://app?vid=e1838f53-b8b5-4145-822c-010385f4b44a"},"vehicle_type_id":"4","last_reported":1703685986,"current_range_meters":400,"station_id":"ce4bgop2rcd13ifvqc1g","pricing_plan_id":"free"},{"bike_id":"2c23063b-9441-4a20-b17c-e8ea077d22ca","system_id":"levelo_inurba_marseille","lat":43.297794,"lon":5.370888,"is_reserved":false,"is_disabled":false,"rental_uris":{"android":"levelo://app?vid=2c23063b-9441-4a20-b17c-e8ea077d22ca","ios":"levelo://app?vid=2c23063b-9441-4a20-b17c-e8ea077d22ca"},"vehicle_type_id":"4","last_reported":1703685986,"current_range_meters":24400,"station_id":"ce4bgop2rcd13ifvqc1g","pricing_plan_id":"free"},{"bike_id":"9da1b446-c0b6-4e0f-a16a-c89f9a8a38ff","system_id":"levelo_inurba_marseille","lat":43.297794,"lon":5.370888,"is_reserved":false,"is_disabled":false,"rental_uris":{"android":"levelo://app?vid=9da1b446-c0b6-4e0f-a16a-c89f9a8a38ff","ios":"levelo://app?vid=9da1b446-c0b6-4e0f-a16a-c89f9a8a38ff"},"vehicle_type_id":"4","last_reported":1703685986,"current_range_meters":25600,"station_id":"ce4bgop2rcd13ifvqc1g","pricing_plan_id":"free"},{"bike_id":"3270f28d-7b09-46cb-ba43-f40752fc3385","system_id":"levelo_inurba_marseille","lat":43.322872,"lon":5.382756,"is_reserved":false,"is_disabled":false,"rental_uris":{"android":"levelo://app?vid=3270f28d-7b09-46cb-ba43-f40752fc3385","ios":"levelo://app?vid=3270f28d-7b09-46cb-ba43-f40752fc3385"},"vehicle_type_id":"4","last_reported":1703685986,"current_range_meters":30400,"station_id":"ce4bhr12rcd13ifvqhqg","pricing_plan_id":"free"},{"bike_id":"a677cd10-a09b-4b2e-bffd-45b05d2c9229","system_id":"levelo_inurba_marseille","lat":43.32824,"lon":5.36691,"is_reserved":false,"is_disabled":false,"rental_uris":{"android":"levelo://app?vid=a677cd10-a09b-4b2e-bffd-45b05d2c9229","ios":"levelo://app?vid=a677cd10-a09b-4b2e-bffd-45b05d2c9229"},"vehicle_type_id":"4","last_reported":1703685986,"current_range_meters":29600,"station_id":"ce4bhs92rcd13ifvqi0g","pricing_plan_id":"free"},{"bike_id":"77306845-75bd-4093-8444-1137af26bb3b","system_id":"levelo_inurba_marseille","lat":43.32825,"lon":5.36693,"is_reserved":false,"is_disabled":false,"rental_uris":{"android":"levelo://app?vid=77306845-75bd-4093-8444-1137af26bb3b","ios":"levelo://app?vid=77306845-75bd-4093-8444-1137af26bb3b"},"vehicle_type_id":"4","last_reported":1703685986,"current_range_meters":23600,"station_id":"ce4bhs92rcd13ifvqi0g","pricing_plan_id":"free"},{"bike_id":"6516e11b-ff9a-4979-b85a-a42584b5c933","system_id":"levelo_inurba_marseille","lat":43.32825,"lon":5.366873,"is_reserved":false,"is_disabled":false,"rental_uris":{"android":"levelo://app?vid=6516e11b-ff9a-4979-b85a-a42584b5c933","ios":"levelo://app?vid=6516e11b-ff9a-4979-b85a-a42584b5c933"},"vehicle_type_id":"4","last_reported":1703685986,"current_range_meters":28400,"station_id":"ce4bhs92rcd13ifvqi0g","pricing_plan_id":"free"},{"bike_id":"1ea82e61-37ea-4b15-a6ef-01d29683b9fd","system_id":"levelo_inurba_marseille","lat":43.32825,"lon":5.36683,"is_reserved":false,"is_disabled":false,"rental_uris":{"android":"levelo://app?vid=1ea82e61-37ea-4b15-a6ef-01d29683b9fd","ios":"levelo://app?vid=1ea82e61-37ea-4b15-a6ef-01d29683b9fd"},"vehicle_type_id":"4","last_reported":1703685986,"current_range_meters":26000,"station_id":"ce4bhs92rcd13ifvqi0g","pricing_plan_id":"free"},{"bike_id":"51714c4a-3132-4951-88ec-80e85fa125e8","system_id":"levelo_inurba_marseille","lat":43.328262,"lon":5.366863,"is_reserved":false,"is_disabled":false,"rental_uris":{"android":"levelo://app?vid=51714c4a-3132-4951-88ec-80e85fa125e8","ios":"levelo://app?vid=51714c4a-3132-4951-88ec-80e85fa125e8"},"vehicle_type_id":"4","last_reported":1703685986,"current_range_meters":24000,"station_id":"ce4bhs92rcd13ifvqi0g","pricing_plan_id":"free"},{"bike_id":"5c89eee7-6e83-42b4-bd81-efdcf68f6666","system_id":"levelo_inurba_marseille","lat":43.328278,"lon":5.366801,"is_reserved":false,"is_disabled":false,"rental_uris":{"android":"levelo://app?vid=5c89eee7-6e83-42b4-bd81-efdcf68f6666","ios":"levelo://app?vid=5c89eee7-6e83-42b4-bd81-efdcf68f6666"},"vehicle_type_id":"4","last_reported":1703685986,"current_range_meters":28000,"station_id":"ce4bhs92rcd13ifvqi0g","pricing_plan_id":"free"},{"bike_id":"ea7074d7-b7c9-4941-82c2-dff391bae9cb","system_id":"levelo_inurba_marseille","lat":43.328285,"lon":5.366787,"is_reserved":false,"is_disabled":false,"rental_uris":{"android":"levelo://app?vid=ea7074d7-b7c9-4941-82c2-dff391bae9cb","ios":"levelo://app?vid=ea7074d7-b7c9-4941-82c2-dff391bae9cb"},"vehicle_type_id":"4","last_reported":1703685986,"current_range_meters":20000,"station_id":"ce4bhs92rcd13ifvqi0g","pricing_plan_id":"free"},{"bike_id":"6f67326a-1664-406f-9978-902e013e2357","system_id":"levelo_inurba_marseille","lat":43.32829,"lon":5.36675,"is_reserved":false,"is_disabled":false,"rental_uris":{"android":"levelo://app?vid=6f67326a-1664-406f-9978-902e013e2357","ios":"levelo://app?vid=6f67326a-1664-406f-9978-902e013e2357"},"vehicle_type_id":"4","last_reported":1703685986,"current_range_meters":27600,"station_id":"ce4bhs92rcd13ifvqi0g","pricing_plan_id":"free"},{"bike_id":"904f83aa-e9ab-401d-84c1-9edfed82b884","system_id":"levelo_inurba_marseille","lat":43.328371,"lon":5.366909,"is_reserved":false,"is_disabled":false,"rental_uris":{"android":"levelo://app?vid=904f83aa-e9ab-401d-84c1-9edfed82b884","ios":"levelo://app?vid=904f83aa-e9ab-401d-84c1-9edfed82b884"},"vehicle_type_id":"4","last_reported":1703685986,"current_range_meters":14800,"station_id":"ce4bhs92rcd13ifvqi0g","pricing_plan_id":"free"},{"bike_id":"b33e79d7-85bd-413c-801b-bcd1df69d847","system_id":"levelo_inurba_marseille","lat":43.328306,"lon":5.366812,"is_reserved":false,"is_disabled":false,"rental_uris":{"android":"levelo://app?vid=b33e79d7-85bd-413c-801b-bcd1df69d847","ios":"levelo://app?vid=b33e79d7-85bd-413c-801b-bcd1df69d847"},"vehicle_type_id":"4","last_reported":1703685986,"current_range_meters":22000,"station_id":"ce4bhs92rcd13ifvqi0g","pricing_plan_id":"free"},{"bike_id":"de708f00-7118-4d7c-9021-d7dcbd798473","system_id":"levelo_inurba_marseille","lat":43.328371,"lon":5.366909,"is_reserved":false,"is_disabled":false,"rental_uris":{"android":"levelo://app?vid=de708f00-7118-4d7c-9021-d7dcbd798473","ios":"levelo://app?vid=de708f00-7118-4d7c-9021-d7dcbd798473"},"vehicle_type_id":"4","last_reported":1703685986,"current_range_meters":21600,"station_id":"ce4bhs92rcd13ifvqi0g","pricing_plan_id":"free"},{"bike_id":"a448ca86-2b35-41e1-89c4-32a99bab0563","system_id":"levelo_inurba_marseille","lat":43.328371,"lon":5.366912,"is_reserved":false,"is_disabled":false,"rental_uris":{"android":"levelo://app?vid=a448ca86-2b35-41e1-89c4-32a99bab0563","ios":"levelo://app?vid=a448ca86-2b35-41e1-89c4-32a99bab0563"},"vehicle_type_id":"4","last_reported":1703685986,"current_range_meters":28400,"station_id":"ce4bhs92rcd13ifvqi0g","pricing_plan_id":"free"},{"bike_id":"be72c8fa-57ca-4b39-a06f-106528121e53","system_id":"levelo_inurba_marseille","lat":43.32835,"lon":5.36681,"is_reserved":false,"is_disabled":false,"rental_uris":{"android":"levelo://app?vid=be72c8fa-57ca-4b39-a06f-106528121e53","ios":"levelo://app?vid=be72c8fa-57ca-4b39-a06f-106528121e53"},"vehicle_type_id":"4","last_reported":1703685986,"current_range_meters":4800,"station_id":"ce4bhs92rcd13ifvqi0g","pricing_plan_id":"free"},{"bike_id":"e0d76087-a873-49a9-bf8c-f779cae0869a","system_id":"levelo_inurba_marseille","lat":43.297163,"lon":5.365866,"is_reserved":false,"is_disabled":false,"rental_uris":{"android":"levelo://app?vid=e0d76087-a873-49a9-bf8c-f779cae0869a","ios":"levelo://app?vid=e0d76087-a873-49a9-bf8c-f779cae0869a"},"vehicle_type_id":"4","last_reported":1703685986,"current_range_meters":28000,"station_id":"ce4bgn12rcd13ifvqbt0","pricing_plan_id":"free"},{"bike_id":"96dba148-9f56-4801-a9ac-67f4a14462ef","system_id":"levelo_inurba_marseille","lat":43.297163,"lon":5.365866,"is_reserved":false,"is_disabled":false,"rental_uris":{"android":"levelo://app?vid=96dba148-9f56-4801-a9ac-67f4a14462ef","ios":"levelo://app?vid=96dba148-9f56-4801-a9ac-67f4a14462ef"},"vehicle_type_id":"4","last_reported":1703685986,"current_range_meters":20400,"station_id":"ce4bgn12rcd13ifvqbt0","pricing_plan_id":"free"},{"bike_id":"1eddcc48-2ce9-4146-880e-619bd4999c7a","system_id":"levelo_inurba_marseille","lat":43.297163,"lon":5.365866,"is_reserved":false,"is_disabled":false,"rental_uris":{"android":"levelo://app?vid=1eddcc48-2ce9-4146-880e-619bd4999c7a","ios":"levelo://app?vid=1eddcc48-2ce9-4146-880e-619bd4999c7a"},"vehicle_type_id":"4","last_reported":1703685986,"current_range_meters":31200,"station_id":"ce4bgn12rcd13ifvqbt0","pricing_plan_id":"free"},{"bike_id":"ad9ed4e3-8af7-4ca4-9276-84b09c7110e5","system_id":"levelo_inurba_marseille","lat":43.297163,"lon":5.365866,"is_reserved":false,"is_disabled":false,"rental_uris":{"android":"levelo://app?vid=ad9ed4e3-8af7-4ca4-9276-84b09c7110e5","ios":"levelo://app?vid=ad9ed4e3-8af7-4ca4-9276-84b09c7110e5"},"vehicle_type_id":"4","last_reported":1703685986,"current_range_meters":18400,"station_id":"ce4bgn12rcd13ifvqbt0","pricing_plan_id":"free"},{"bike_id":"921b424d-ad0d-4c7a-9d74-66e3a49bfa19","system_id":"levelo_inurba_marseille","lat":43.32934,"lon":5.36612,"is_reserved":false,"is_disabled":false,"rental_uris":{"android":"levelo://app?vid=921b424d-ad0d-4c7a-9d74-66e3a49bfa19","ios":"levelo://app?vid=921b424d-ad0d-4c7a-9d74-66e3a49bfa19"},"vehicle_type_id":"4","last_reported":1703685986,"current_range_meters":17200,"station_id":"","pricing_plan_id":"free"},{"bike_id":"c3bae61a-2e9e-4059-86c7-b35783b4c6e1","system_id":"levelo_inurba_marseille","lat":43.296131,"lon":5.370791,"is_reserved":false,"is_disabled":false,"rental_uris":{"android":"levelo://app?vid=c3bae61a-2e9e-4059-86c7-b35783b4c6e1","ios":"levelo://app?vid=c3bae61a-2e9e-4059-86c7-b35783b4c6e1"},"vehicle_type_id":"4","last_reported":1703685986,"current_range_meters":27200,"station_id":"ce4bgnh2rcd13ifvqc0g","pricing_plan_id":"free"},{"bike_id":"bb7efdbe-8649-4a12-a0e6-9e3efb90f6bf","system_id":"levelo_inurba_marseille","lat":43.29573,"lon":5.367355,"is_reserved":false,"is_disabled":false,"rental_uris":{"android":"levelo://app?vid=bb7efdbe-8649-4a12-a0e6-9e3efb90f6bf","ios":"levelo://app?vid=bb7efdbe-8649-4a12-a0e6-9e3efb90f6bf"},"vehicle_type_id":"4","last_reported":1703685986,"current_range_meters":31200,"station_id":"ce4bgph2rcd13ifvqc2g","pricing_plan_id":"free"},{"bike_id":"b0367cb5-2102-4f4b-a790-13f636b21a51","system_id":"levelo_inurba_marseille","lat":43.29573,"lon":5.367355,"is_reserved":false,"is_disabled":false,"rental_uris":{"android":"levelo://app?vid=b0367cb5-2102-4f4b-a790-13f636b21a51","ios":"levelo://app?vid=b0367cb5-2102-4f4b-a790-13f636b21a51"},"vehicle_type_id":"4","last_reported":1703685986,"current_range_meters":12000,"station_id":"ce4bgph2rcd13ifvqc2g","pricing_plan_id":"free"},{"bike_id":"e6aed875-11ba-42d1-b0e1-ef672c24acd0","system_id":"levelo_inurba_marseille","lat":43.29573,"lon":5.367355,"is_reserved":false,"is_disabled":false,"rental_uris":{"android":"levelo://app?vid=e6aed875-11ba-42d1-b0e1-ef672c24acd0","ios":"levelo://app?vid=e6aed875-11ba-42d1-b0e1-ef672c24acd0"},"vehicle_type_id":"4","last_reported":1703685986,"current_range_meters":23600,"station_id":"ce4bgph2rcd13ifvqc2g","pricing_plan_id":"free"},{"bike_id":"69f9a243-e945-4685-a30c-8ffc491fffa0","system_id":"levelo_inurba_marseille","lat":43.296921,"lon":5.376579,"is_reserved":false,"is_disabled":false,"rental_uris":{"android":"levelo://app?vid=69f9a243-e945-4685-a30c-8ffc491fffa0","ios":"levelo://app?vid=69f9a243-e945-4685-a30c-8ffc491fffa0"},"vehicle_type_id":"4","last_reported":1703685986,"current_range_meters":29200,"station_id":"ce4bgkh2rcd13ifvqbl0","pricing_plan_id":"free"},{"bike_id":"e0451808-6c8f-4f96-939b-f6b1214c7500","system_id":"levelo_inurba_marseille","lat":43.309589,"lon":5.390258,"is_reserved":false,"is_disabled":false,"rental_uris":{"android":"levelo://app?vid=e0451808-6c8f-4f96-939b-f6b1214c7500","ios":"levelo://app?vid=e0451808-6c8f-4f96-939b-f6b1214c7500"},"vehicle_type_id":"4","last_reported":1703685986,"current_range_meters":13200,"station_id":"ce4bgup2rcd13ifvqco0","pricing_plan_id":"free"},{"bike_id":"65aeb881-f3c5-4f25-bcb6-c2f2d44a6c7f","system_id":"levelo_inurba_marseille","lat":43.296935,"lon":5.376544,"is_reserved":false,"is_disabled":false,"rental_uris":{"android":"levelo://app?vid=65aeb881-f3c5-4f25-bcb6-c2f2d44a6c7f","ios":"levelo://app?vid=65aeb881-f3c5-4f25-bcb6-c2f2d44a6c7f"},"vehicle_type_id":"4","last_reported":1703685986,"current_range_meters":31200,"station_id":"ce4bgkh2rcd13ifvqbl0","pricing_plan_id":"free"},{"bike_id":"11e11d2f-87cd-466d-bc0d-1de85d67fbb6","system_id":"levelo_inurba_marseille","lat":43.309589,"lon":5.390258,"is_reserved":false,"is_disabled":false,"rental_uris":{"android":"levelo://app?vid=11e11d2f-87cd-466d-bc0d-1de85d67fbb6","ios":"levelo://app?vid=11e11d2f-87cd-466d-bc0d-1de85d67fbb6"},"vehicle_type_id":"4","last_reported":1703685986,"current_range_meters":22800,"station_id":"ce4bgup2rcd13ifvqco0","pricing_plan_id":"free"},{"bike_id":"7d180e8d-8b1b-43cd-9ee8-5c135723ab48","system_id":"levelo_inurba_marseille","lat":43.296921,"lon":5.376579,"is_reserved":false,"is_disabled":false,"rental_uris":{"android":"levelo://app?vid=7d180e8d-8b1b-43cd-9ee8-5c135723ab48","ios":"levelo://app?vid=7d180e8d-8b1b-43cd-9ee8-5c135723ab48"},"vehicle_type_id":"4","last_reported":1703685986,"current_range_meters":21600,"station_id":"ce4bgkh2rcd13ifvqbl0","pricing_plan_id":"free"},{"bike_id":"119b2831-e363-458c-85d1-7e7bc626785b","system_id":"levelo_inurba_marseille","lat":43.295748,"lon":5.37522,"is_reserved":false,"is_disabled":false,"rental_uris":{"android":"levelo://app?vid=119b2831-e363-458c-85d1-7e7bc626785b","ios":"levelo://app?vid=119b2831-e363-458c-85d1-7e7bc626785b"},"vehicle_type_id":"4","last_reported":1703685986,"current_range_meters":9200,"station_id":"ce4bgh92rcd13ifvqb50","pricing_plan_id":"free"},{"bike_id":"91996254-6e59-4395-ba24-d1d06fcebe28","system_id":"levelo_inurba_marseille","lat":43.296263,"lon":5.377094,"is_reserved":false,"is_disabled":false,"rental_uris":{"android":"levelo://app?vid=91996254-6e59-4395-ba24-d1d06fcebe28","ios":"levelo://app?vid=91996254-6e59-4395-ba24-d1d06fcebe28"},"vehicle_type_id":"4","last_reported":1703685986,"current_range_meters":26000,"station_id":"ce4bgi92rcd13ifvqb90","pricing_plan_id":"free"},{"bike_id":"0a7ffb4f-984b-49a5-ad0e-6e69f5827a68","system_id":"levelo_inurba_marseille","lat":43.296263,"lon":5.377094,"is_reserved":false,"is_disabled":false,"rental_uris":{"android":"levelo://app?vid=0a7ffb4f-984b-49a5-ad0e-6e69f5827a68","ios":"levelo://app?vid=0a7ffb4f-984b-49a5-ad0e-6e69f5827a68"},"vehicle_type_id":"4","last_reported":1703685986,"current_range_meters":29200,"station_id":"ce4bgi92rcd13ifvqb90","pricing_plan_id":"free"},{"bike_id":"e376d6fc-3bf6-4fa9-b511-013a3fd00de0","system_id":"levelo_inurba_marseille","lat":43.299717,"lon":5.384845,"is_reserved":false,"is_disabled":false,"rental_uris":{"android":"levelo://app?vid=e376d6fc-3bf6-4fa9-b511-013a3fd00de0","ios":"levelo://app?vid=e376d6fc-3bf6-4fa9-b511-013a3fd00de0"},"vehicle_type_id":"4","last_reported":1703685986,"current_range_meters":17200,"station_id":"ce4bgj92rcd13ifvqbd0","pricing_plan_id":"free"},{"bike_id":"f030c2af-e314-4068-8202-0501798b7b20","system_id":"levelo_inurba_marseille","lat":43.32367,"lon":5.388836,"is_reserved":false,"is_disabled":false,"rental_uris":{"android":"levelo://app?vid=f030c2af-e314-4068-8202-0501798b7b20","ios":"levelo://app?vid=f030c2af-e314-4068-8202-0501798b7b20"},"vehicle_type_id":"4","last_reported":1703685986,"current_range_meters":27600,"station_id":"ce4bhqp2rcd13ifvqhog","pricing_plan_id":"free"},{"bike_id":"94a70657-973e-4a4a-8e5f-48624fa95146","system_id":"levelo_inurba_marseille","lat":43.32362,"lon":5.38882,"is_reserved":false,"is_disabled":false,"rental_uris":{"android":"levelo://app?vid=94a70657-973e-4a4a-8e5f-48624fa95146","ios":"levelo://app?vid=94a70657-973e-4a4a-8e5f-48624fa95146"},"vehicle_type_id":"4","last_reported":1703685986,"current_range_meters":12400,"station_id":"ce4bhqp2rcd13ifvqhog","pricing_plan_id":"free"},{"bike_id":"cc713a69-26aa-4ad0-9e1d-f6777ac72f69","system_id":"levelo_inurba_marseille","lat":43.32367,"lon":5.388836,"is_reserved":false,"is_disabled":false,"rental_uris":{"android":"levelo://app?vid=cc713a69-26aa-4ad0-9e1d-f6777ac72f69","ios":"levelo://app?vid=cc713a69-26aa-4ad0-9e1d-f6777ac72f69"},"vehicle_type_id":"4","last_reported":1703685986,"current_range_meters":19600,"station_id":"ce4bhqp2rcd13ifvqhog","pricing_plan_id":"free"},{"bike_id":"67015e88-f08e-4288-be0d-bca751cbea64","system_id":"levelo_inurba_marseille","lat":43.29602,"lon":5.381084,"is_reserved":false,"is_disabled":false,"rental_uris":{"android":"levelo://app?vid=67015e88-f08e-4288-be0d-bca751cbea64","ios":"levelo://app?vid=67015e88-f08e-4288-be0d-bca751cbea64"},"vehicle_type_id":"4","last_reported":1703685986,"current_range_meters":30400,"station_id":"ce4bgl12rcd13ifvqbo0","pricing_plan_id":"free"},{"bike_id":"5ec4ddfe-9454-49cf-88b1-f2c5a226f8de","system_id":"levelo_inurba_marseille","lat":43.29601,"lon":5.381084,"is_reserved":false,"is_disabled":false,"rental_uris":{"android":"levelo://app?vid=5ec4ddfe-9454-49cf-88b1-f2c5a226f8de","ios":"levelo://app?vid=5ec4ddfe-9454-49cf-88b1-f2c5a226f8de"},"vehicle_type_id":"4","last_reported":1703685986,"current_range_meters":5600,"station_id":"ce4bgl12rcd13ifvqbo0","pricing_plan_id":"free"},{"bike_id":"7cf320e6-44c1-46e2-8fe3-0df1afa38f15","system_id":"levelo_inurba_marseille","lat":43.292749,"lon":5.368402,"is_reserved":false,"is_disabled":false,"rental_uris":{"android":"levelo://app?vid=7cf320e6-44c1-46e2-8fe3-0df1afa38f15","ios":"levelo://app?vid=7cf320e6-44c1-46e2-8fe3-0df1afa38f15"},"vehicle_type_id":"4","last_reported":1703685986,"current_range_meters":14000,"station_id":"ce4bhbp2rcd13ifvqesg","pricing_plan_id":"free"},{"bike_id":"483537a3-9853-4da4-ab3f-d9981447a9f0","system_id":"levelo_inurba_marseille","lat":43.292749,"lon":5.368402,"is_reserved":false,"is_disabled":false,"rental_uris":{"android":"levelo://app?vid=483537a3-9853-4da4-ab3f-d9981447a9f0","ios":"levelo://app?vid=483537a3-9853-4da4-ab3f-d9981447a9f0"},"vehicle_type_id":"4","last_reported":1703685986,"current_range_meters":30400,"station_id":"ce4bhbp2rcd13ifvqesg","pricing_plan_id":"free"},{"bike_id":"33ebe49f-a242-47aa-9e99-6c9ddfe8654f","system_id":"levelo_inurba_marseille","lat":43.292749,"lon":5.368402,"is_reserved":false,"is_disabled":false,"rental_uris":{"android":"levelo://app?vid=33ebe49f-a242-47aa-9e99-6c9ddfe8654f","ios":"levelo://app?vid=33ebe49f-a242-47aa-9e99-6c9ddfe8654f"},"vehicle_type_id":"4","last_reported":1703685986,"current_range_meters":6000,"station_id":"ce4bhbp2rcd13ifvqesg","pricing_plan_id":"free"},{"bike_id":"dcb5ca07-daac-439c-ae66-a69e825affc9","system_id":"levelo_inurba_marseille","lat":43.292749,"lon":5.368402,"is_reserved":false,"is_disabled":false,"rental_uris":{"android":"levelo://app?vid=dcb5ca07-daac-439c-ae66-a69e825affc9","ios":"levelo://app?vid=dcb5ca07-daac-439c-ae66-a69e825affc9"},"vehicle_type_id":"4","last_reported":1703685986,"current_range_meters":20000,"station_id":"ce4bhbp2rcd13ifvqesg","pricing_plan_id":"free"},{"bike_id":"08e0ecfb-e841-457d-a92d-6d354a939315","system_id":"levelo_inurba_marseille","lat":43.293249,"lon":5.371578,"is_reserved":false,"is_disabled":false,"rental_uris":{"android":"levelo://app?vid=08e0ecfb-e841-457d-a92d-6d354a939315","ios":"levelo://app?vid=08e0ecfb-e841-457d-a92d-6d354a939315"},"vehicle_type_id":"4","last_reported":1703685986,"current_range_meters":16800,"station_id":"ce4bgh92rcd13ifvqb40","pricing_plan_id":"free"},{"bike_id":"e303929f-9afa-41b7-8797-acc258326de5","system_id":"levelo_inurba_marseille","lat":43.292311,"lon":5.360731,"is_reserved":false,"is_disabled":false,"rental_uris":{"android":"levelo://app?vid=e303929f-9afa-41b7-8797-acc258326de5","ios":"levelo://app?vid=e303929f-9afa-41b7-8797-acc258326de5"},"vehicle_type_id":"4","last_reported":1703685986,"current_range_meters":11600,"station_id":"ce4bhbh2rcd13ifvqeqg","pricing_plan_id":"free"},{"bike_id":"fca6e0e5-e6a1-450e-8b6a-43da1ba28571","system_id":"levelo_inurba_marseille","lat":43.292311,"lon":5.360731,"is_reserved":false,"is_disabled":false,"rental_uris":{"android":"levelo://app?vid=fca6e0e5-e6a1-450e-8b6a-43da1ba28571","ios":"levelo://app?vid=fca6e0e5-e6a1-450e-8b6a-43da1ba28571"},"vehicle_type_id":"4","last_reported":1703685986,"current_range_meters":17200,"station_id":"ce4bhbh2rcd13ifvqeqg","pricing_plan_id":"free"},{"bike_id":"90dbe254-01df-4c14-9a67-f03496a69c39","system_id":"levelo_inurba_marseille","lat":43.292311,"lon":5.360731,"is_reserved":false,"is_disabled":false,"rental_uris":{"android":"levelo://app?vid=90dbe254-01df-4c14-9a67-f03496a69c39","ios":"levelo://app?vid=90dbe254-01df-4c14-9a67-f03496a69c39"},"vehicle_type_id":"4","last_reported":1703685986,"current_range_meters":6800,"station_id":"ce4bhbh2rcd13ifvqeqg","pricing_plan_id":"free"},{"bike_id":"73d9c30e-c317-43c6-80b1-67dccb9a3177","system_id":"levelo_inurba_marseille","lat":43.2936,"lon":5.37835,"is_reserved":false,"is_disabled":false,"rental_uris":{"android":"levelo://app?vid=73d9c30e-c317-43c6-80b1-67dccb9a3177","ios":"levelo://app?vid=73d9c30e-c317-43c6-80b1-67dccb9a3177"},"vehicle_type_id":"4","last_reported":1703685986,"current_range_meters":24400,"station_id":"ce4bgjh2rcd13ifvqbf0","pricing_plan_id":"free"},{"bike_id":"076c0946-642d-45d0-838f-03cd397b355b","system_id":"levelo_inurba_marseille","lat":43.29263,"lon":5.37623,"is_reserved":false,"is_disabled":false,"rental_uris":{"android":"levelo://app?vid=076c0946-642d-45d0-838f-03cd397b355b","ios":"levelo://app?vid=076c0946-642d-45d0-838f-03cd397b355b"},"vehicle_type_id":"4","last_reported":1703685986,"current_range_meters":18800,"station_id":"","pricing_plan_id":"free"},{"bike_id":"b986daa5-ac74-431c-bbf2-1a1d5423b015","system_id":"levelo_inurba_marseille","lat":43.29261,"lon":5.37636,"is_reserved":false,"is_disabled":false,"rental_uris":{"android":"levelo://app?vid=b986daa5-ac74-431c-bbf2-1a1d5423b015","ios":"levelo://app?vid=b986daa5-ac74-431c-bbf2-1a1d5423b015"},"vehicle_type_id":"4","last_reported":1703685986,"current_range_meters":30400,"station_id":"","pricing_plan_id":"free"},{"bike_id":"3914c74f-e602-4505-9fef-1d0ff4086433","system_id":"levelo_inurba_marseille","lat":43.291675,"lon":5.371583,"is_reserved":false,"is_disabled":false,"rental_uris":{"android":"levelo://app?vid=3914c74f-e602-4505-9fef-1d0ff4086433","ios":"levelo://app?vid=3914c74f-e602-4505-9fef-1d0ff4086433"},"vehicle_type_id":"4","last_reported":1703685986,"current_range_meters":28400,"station_id":"ce4bha92rcd13ifvqeh0","pricing_plan_id":"free"},{"bike_id":"b36cb058-91d0-4fa9-bd48-5ece9470dd3f","system_id":"levelo_inurba_marseille","lat":43.291671,"lon":5.371575,"is_reserved":false,"is_disabled":false,"rental_uris":{"android":"levelo://app?vid=b36cb058-91d0-4fa9-bd48-5ece9470dd3f","ios":"levelo://app?vid=b36cb058-91d0-4fa9-bd48-5ece9470dd3f"},"vehicle_type_id":"4","last_reported":1703685986,"current_range_meters":10800,"station_id":"ce4bha92rcd13ifvqeh0","pricing_plan_id":"free"},{"bike_id":"74061749-7b53-4998-93eb-2053e122366c","system_id":"levelo_inurba_marseille","lat":43.302008,"lon":5.394694,"is_reserved":false,"is_disabled":false,"rental_uris":{"android":"levelo://app?vid=74061749-7b53-4998-93eb-2053e122366c","ios":"levelo://app?vid=74061749-7b53-4998-93eb-2053e122366c"},"vehicle_type_id":"4","last_reported":1703685986,"current_range_meters":17200,"station_id":"ce4bh0p2rcd13ifvqd70","pricing_plan_id":"free"},{"bike_id":"8d09d558-9a5e-4fae-86d5-7cfa693023f7","system_id":"levelo_inurba_marseille","lat":43.302008,"lon":5.394694,"is_reserved":false,"is_disabled":false,"rental_uris":{"android":"levelo://app?vid=8d09d558-9a5e-4fae-86d5-7cfa693023f7","ios":"levelo://app?vid=8d09d558-9a5e-4fae-86d5-7cfa693023f7"},"vehicle_type_id":"4","last_reported":1703685986,"current_range_meters":26800,"station_id":"ce4bh0p2rcd13ifvqd70","pricing_plan_id":"free"},{"bike_id":"549880bd-8a3b-4727-9d5d-d564d0c2c282","system_id":"levelo_inurba_marseille","lat":43.289184,"lon":5.366408,"is_reserved":false,"is_disabled":false,"rental_uris":{"android":"levelo://app?vid=549880bd-8a3b-4727-9d5d-d564d0c2c282","ios":"levelo://app?vid=549880bd-8a3b-4727-9d5d-d564d0c2c282"},"vehicle_type_id":"4","last_reported":1703685986,"current_range_meters":24800,"station_id":"ce4bhap2rcd13ifvqek0","pricing_plan_id":"free"},{"bike_id":"a126a891-3d95-4c2c-9043-3b43619b05a8","system_id":"levelo_inurba_marseille","lat":43.290327,"lon":5.375711,"is_reserved":false,"is_disabled":false,"rental_uris":{"android":"levelo://app?vid=a126a891-3d95-4c2c-9043-3b43619b05a8","ios":"levelo://app?vid=a126a891-3d95-4c2c-9043-3b43619b05a8"},"vehicle_type_id":"4","last_reported":1703685986,"current_range_meters":27600,"station_id":"ce4bh692rcd13ifvqe90","pricing_plan_id":"free"},{"bike_id":"ef4d3f97-1118-4c92-99ae-81db773494be","system_id":"levelo_inurba_marseille","lat":43.289468,"lon":5.363719,"is_reserved":false,"is_disabled":false,"rental_uris":{"android":"levelo://app?vid=ef4d3f97-1118-4c92-99ae-81db773494be","ios":"levelo://app?vid=ef4d3f97-1118-4c92-99ae-81db773494be"},"vehicle_type_id":"4","last_reported":1703685986,"current_range_meters":22400,"station_id":"ce4bhc92rcd13ifvqetg","pricing_plan_id":"free"},{"bike_id":"dfa8c5ed-ca39-47c7-8dc5-684e2bda8e30","system_id":"levelo_inurba_marseille","lat":43.292644,"lon":5.384257,"is_reserved":false,"is_disabled":false,"rental_uris":{"android":"levelo://app?vid=dfa8c5ed-ca39-47c7-8dc5-684e2bda8e30","ios":"levelo://app?vid=dfa8c5ed-ca39-47c7-8dc5-684e2bda8e30"},"vehicle_type_id":"4","last_reported":1703685986,"current_range_meters":27200,"station_id":"ce4bh692rcd13ifvqea0","pricing_plan_id":"free"},{"bike_id":"ba9ff484-22c9-4de9-9832-2d07c68350a3","system_id":"levelo_inurba_marseille","lat":43.292628,"lon":5.384444,"is_reserved":false,"is_disabled":false,"rental_uris":{"android":"levelo://app?vid=ba9ff484-22c9-4de9-9832-2d07c68350a3","ios":"levelo://app?vid=ba9ff484-22c9-4de9-9832-2d07c68350a3"},"vehicle_type_id":"4","last_reported":1703685986,"current_range_meters":6800,"station_id":"ce4bh3p2rcd13ifvqdq0","pricing_plan_id":"free"},{"bike_id":"5ba9a0de-0edf-469d-b120-81a33e454255","system_id":"levelo_inurba_marseille","lat":43.290104,"lon":5.356111,"is_reserved":false,"is_disabled":false,"rental_uris":{"android":"levelo://app?vid=5ba9a0de-0edf-469d-b120-81a33e454255","ios":"levelo://app?vid=5ba9a0de-0edf-469d-b120-81a33e454255"},"vehicle_type_id":"4","last_reported":1703685986,"current_range_meters":18400,"station_id":"ce4bhb92rcd13ifvqen0","pricing_plan_id":"free"},{"bike_id":"495faf64-a935-4c6e-b77f-2b296d14493a","system_id":"levelo_inurba_marseille","lat":43.331017,"lon":5.389194,"is_reserved":false,"is_disabled":false,"rental_uris":{"android":"levelo://app?vid=495faf64-a935-4c6e-b77f-2b296d14493a","ios":"levelo://app?vid=495faf64-a935-4c6e-b77f-2b296d14493a"},"vehicle_type_id":"4","last_reported":1703685986,"current_range_meters":16400,"station_id":"","pricing_plan_id":"free"},{"bike_id":"dd24adbb-d36f-48e0-801e-66011626bd43","system_id":"levelo_inurba_marseille","lat":43.330442,"lon":5.389148,"is_reserved":false,"is_disabled":false,"rental_uris":{"android":"levelo://app?vid=dd24adbb-d36f-48e0-801e-66011626bd43","ios":"levelo://app?vid=dd24adbb-d36f-48e0-801e-66011626bd43"},"vehicle_type_id":"4","last_reported":1703685986,"current_range_meters":5200,"station_id":"ce4bhr92rcd13ifvqhrg","pricing_plan_id":"free"},{"bike_id":"da82727f-5090-4dcc-9a39-e49701b0afae","system_id":"levelo_inurba_marseille","lat":43.330442,"lon":5.389148,"is_reserved":false,"is_disabled":false,"rental_uris":{"android":"levelo://app?vid=da82727f-5090-4dcc-9a39-e49701b0afae","ios":"levelo://app?vid=da82727f-5090-4dcc-9a39-e49701b0afae"},"vehicle_type_id":"4","last_reported":1703685986,"current_range_meters":18800,"station_id":"ce4bhr92rcd13ifvqhrg","pricing_plan_id":"free"},{"bike_id":"21abfe10-251d-4a6c-a81d-d842ce4c206a","system_id":"levelo_inurba_marseille","lat":43.295169,"lon":5.390426,"is_reserved":false,"is_disabled":false,"rental_uris":{"android":"levelo://app?vid=21abfe10-251d-4a6c-a81d-d842ce4c206a","ios":"levelo://app?vid=21abfe10-251d-4a6c-a81d-d842ce4c206a"},"vehicle_type_id":"4","last_reported":1703685986,"current_range_meters":18800,"station_id":"ce4bh3p2rcd13ifvqdp0","pricing_plan_id":"free"},{"bike_id":"837e4840-f9f0-42f2-896f-fa90e31fab8a","system_id":"levelo_inurba_marseille","lat":43.330442,"lon":5.389148,"is_reserved":false,"is_disabled":false,"rental_uris":{"android":"levelo://app?vid=837e4840-f9f0-42f2-896f-fa90e31fab8a","ios":"levelo://app?vid=837e4840-f9f0-42f2-896f-fa90e31fab8a"},"vehicle_type_id":"4","last_reported":1703685986,"current_range_meters":26400,"station_id":"ce4bhr92rcd13ifvqhrg","pricing_plan_id":"free"},{"bike_id":"68561cb8-bd72-4dc6-9279-148aaca625a7","system_id":"levelo_inurba_marseille","lat":43.289741,"lon":5.378306,"is_reserved":false,"is_disabled":false,"rental_uris":{"android":"levelo://app?vid=68561cb8-bd72-4dc6-9279-148aaca625a7","ios":"levelo://app?vid=68561cb8-bd72-4dc6-9279-148aaca625a7"},"vehicle_type_id":"4","last_reported":1703685986,"current_range_meters":25200,"station_id":"ce4bh9p2rcd13ifvqed0","pricing_plan_id":"free"},{"bike_id":"2049ee9c-17d1-46a8-bbf5-13a3f9ce9d7c","system_id":"levelo_inurba_marseille","lat":43.29024,"lon":5.38136,"is_reserved":false,"is_disabled":false,"rental_uris":{"android":"levelo://app?vid=2049ee9c-17d1-46a8-bbf5-13a3f9ce9d7c","ios":"levelo://app?vid=2049ee9c-17d1-46a8-bbf5-13a3f9ce9d7c"},"vehicle_type_id":"4","last_reported":1703685986,"current_range_meters":14000,"station_id":"ce4bh4p2rcd13ifvqe1g","pricing_plan_id":"free"},{"bike_id":"b8ad220d-c11d-4378-a8cf-420aaf9df86f","system_id":"levelo_inurba_marseille","lat":43.33743,"lon":5.37467,"is_reserved":false,"is_disabled":false,"rental_uris":{"android":"levelo://app?vid=b8ad220d-c11d-4378-a8cf-420aaf9df86f","ios":"levelo://app?vid=b8ad220d-c11d-4378-a8cf-420aaf9df86f"},"vehicle_type_id":"4","last_reported":1703685986,"current_range_meters":26800,"station_id":"","pricing_plan_id":"free"},{"bike_id":"02b31deb-8d27-47bf-bbf0-4ae52b237d44","system_id":"levelo_inurba_marseille","lat":43.33756,"lon":5.37459,"is_reserved":false,"is_disabled":false,"rental_uris":{"android":"levelo://app?vid=02b31deb-8d27-47bf-bbf0-4ae52b237d44","ios":"levelo://app?vid=02b31deb-8d27-47bf-bbf0-4ae52b237d44"},"vehicle_type_id":"4","last_reported":1703685986,"current_range_meters":9200,"station_id":"","pricing_plan_id":"free"},{"bike_id":"7a543b19-90cd-4a87-b80d-37f423d89307","system_id":"levelo_inurba_marseille","lat":43.33052,"lon":5.39195,"is_reserved":false,"is_disabled":false,"rental_uris":{"android":"levelo://app?vid=7a543b19-90cd-4a87-b80d-37f423d89307","ios":"levelo://app?vid=7a543b19-90cd-4a87-b80d-37f423d89307"},"vehicle_type_id":"4","last_reported":1703685986,"current_range_meters":4000,"station_id":"","pricing_plan_id":"free"},{"bike_id":"a4722d16-57e8-4795-8d7e-904785c95a5d","system_id":"levelo_inurba_marseille","lat":43.337614,"lon":5.374629,"is_reserved":false,"is_disabled":false,"rental_uris":{"android":"levelo://app?vid=a4722d16-57e8-4795-8d7e-904785c95a5d","ios":"levelo://app?vid=a4722d16-57e8-4795-8d7e-904785c95a5d"},"vehicle_type_id":"4","last_reported":1703685986,"current_range_meters":31200,"station_id":"","pricing_plan_id":"free"},{"bike_id":"52b2d919-bb8d-45b8-a341-779e888dc537","system_id":"levelo_inurba_marseille","lat":43.30642,"lon":5.401031,"is_reserved":false,"is_disabled":false,"rental_uris":{"android":"levelo://app?vid=52b2d919-bb8d-45b8-a341-779e888dc537","ios":"levelo://app?vid=52b2d919-bb8d-45b8-a341-779e888dc537"},"vehicle_type_id":"4","last_reported":1703685986,"current_range_meters":5200,"station_id":"ce4bh112rcd13ifvqda0","pricing_plan_id":"free"},{"bike_id":"cdb73f73-ae2a-486a-8a17-0e136759cb8a","system_id":"levelo_inurba_marseille","lat":43.306412,"lon":5.401035,"is_reserved":false,"is_disabled":false,"rental_uris":{"android":"levelo://app?vid=cdb73f73-ae2a-486a-8a17-0e136759cb8a","ios":"levelo://app?vid=cdb73f73-ae2a-486a-8a17-0e136759cb8a"},"vehicle_type_id":"4","last_reported":1703685986,"current_range_meters":18800,"station_id":"ce4bh112rcd13ifvqda0","pricing_plan_id":"free"},{"bike_id":"5810a51d-900e-4f21-b011-504985336ccb","system_id":"levelo_inurba_marseille","lat":43.337664,"lon":5.374461,"is_reserved":false,"is_disabled":false,"rental_uris":{"android":"levelo://app?vid=5810a51d-900e-4f21-b011-504985336ccb","ios":"levelo://app?vid=5810a51d-900e-4f21-b011-504985336ccb"},"vehicle_type_id":"4","last_reported":1703685986,"current_range_meters":28800,"station_id":"ce4rr2p2rcd13i802rgg","pricing_plan_id":"free"},{"bike_id":"555154c9-8ad3-42e9-b0c7-95d46869d8a6","system_id":"levelo_inurba_marseille","lat":43.306412,"lon":5.401035,"is_reserved":false,"is_disabled":false,"rental_uris":{"android":"levelo://app?vid=555154c9-8ad3-42e9-b0c7-95d46869d8a6","ios":"levelo://app?vid=555154c9-8ad3-42e9-b0c7-95d46869d8a6"},"vehicle_type_id":"4","last_reported":1703685986,"current_range_meters":2800,"station_id":"ce4bh112rcd13ifvqda0","pricing_plan_id":"free"},{"bike_id":"f6cc2d82-47a1-4585-b390-2f43d6659a9d","system_id":"levelo_inurba_marseille","lat":43.306412,"lon":5.401035,"is_reserved":false,"is_disabled":false,"rental_uris":{"android":"levelo://app?vid=f6cc2d82-47a1-4585-b390-2f43d6659a9d","ios":"levelo://app?vid=f6cc2d82-47a1-4585-b390-2f43d6659a9d"},"vehicle_type_id":"4","last_reported":1703685986,"current_range_meters":16000,"station_id":"ce4bh112rcd13ifvqda0","pricing_plan_id":"free"},{"bike_id":"395b4c6b-2846-48f8-adf3-a7b6e4defa20","system_id":"levelo_inurba_marseille","lat":43.28727,"lon":5.36078,"is_reserved":false,"is_disabled":false,"rental_uris":{"android":"levelo://app?vid=395b4c6b-2846-48f8-adf3-a7b6e4defa20","ios":"levelo://app?vid=395b4c6b-2846-48f8-adf3-a7b6e4defa20"},"vehicle_type_id":"4","last_reported":1703685986,"current_range_meters":31200,"station_id":"cki0cbj6b192h4jlfktg","pricing_plan_id":"free"},{"bike_id":"264fe644-bd80-48a1-9b23-f35e3e9bfb3b","system_id":"levelo_inurba_marseille","lat":43.286961,"lon":5.373785,"is_reserved":false,"is_disabled":false,"rental_uris":{"android":"levelo://app?vid=264fe644-bd80-48a1-9b23-f35e3e9bfb3b","ios":"levelo://app?vid=264fe644-bd80-48a1-9b23-f35e3e9bfb3b"},"vehicle_type_id":"4","last_reported":1703685986,"current_range_meters":11200,"station_id":"ce4bh3p2rcd13ifvqdq0","pricing_plan_id":"free"},{"bike_id":"f1870fd1-0ab5-423a-aedb-8a212de4e090","system_id":"levelo_inurba_marseille","lat":43.29872,"lon":5.39739,"is_reserved":false,"is_disabled":false,"rental_uris":{"android":"levelo://app?vid=f1870fd1-0ab5-423a-aedb-8a212de4e090","ios":"levelo://app?vid=f1870fd1-0ab5-423a-aedb-8a212de4e090"},"vehicle_type_id":"4","last_reported":1703685986,"current_range_meters":23200,"station_id":"ce4bh0h2rcd13ifvqd50","pricing_plan_id":"free"},{"bike_id":"772c5a30-881a-474d-a0bf-df57860d62fd","system_id":"levelo_inurba_marseille","lat":43.286591,"lon":5.363346,"is_reserved":false,"is_disabled":false,"rental_uris":{"android":"levelo://app?vid=772c5a30-881a-474d-a0bf-df57860d62fd","ios":"levelo://app?vid=772c5a30-881a-474d-a0bf-df57860d62fd"},"vehicle_type_id":"4","last_reported":1703685986,"current_range_meters":25200,"station_id":"ce4bhah2rcd13ifvqej0","pricing_plan_id":"free"},{"bike_id":"90647711-73de-48ad-97a0-b15eb781ffd4","system_id":"levelo_inurba_marseille","lat":43.289307,"lon":5.38406,"is_reserved":false,"is_disabled":false,"rental_uris":{"android":"levelo://app?vid=90647711-73de-48ad-97a0-b15eb781ffd4","ios":"levelo://app?vid=90647711-73de-48ad-97a0-b15eb781ffd4"},"vehicle_type_id":"4","last_reported":1703685986,"current_range_meters":18000,"station_id":"ce4bh612rcd13ifvqe6g","pricing_plan_id":"free"},{"bike_id":"f2c01ac3-2517-4226-927b-d418a2e3e1ad","system_id":"levelo_inurba_marseille","lat":43.302759,"lon":5.400793,"is_reserved":false,"is_disabled":false,"rental_uris":{"android":"levelo://app?vid=f2c01ac3-2517-4226-927b-d418a2e3e1ad","ios":"levelo://app?vid=f2c01ac3-2517-4226-927b-d418a2e3e1ad"},"vehicle_type_id":"4","last_reported":1703685986,"current_range_meters":12800,"station_id":"ce4bgvh2rcd13ifvqcs0","pricing_plan_id":"free"},{"bike_id":"0a417a43-5140-4a33-9aaa-064c6134ebe4","system_id":"levelo_inurba_marseille","lat":43.286039,"lon":5.370679,"is_reserved":false,"is_disabled":false,"rental_uris":{"android":"levelo://app?vid=0a417a43-5140-4a33-9aaa-064c6134ebe4","ios":"levelo://app?vid=0a417a43-5140-4a33-9aaa-064c6134ebe4"},"vehicle_type_id":"4","last_reported":1703685986,"current_range_meters":30000,"station_id":"ce4bht12rcd13ifvqi60","pricing_plan_id":"free"},{"bike_id":"f101cfb7-e0c6-4fd9-a5d2-be6f96433b12","system_id":"levelo_inurba_marseille","lat":43.302759,"lon":5.400793,"is_reserved":false,"is_disabled":false,"rental_uris":{"android":"levelo://app?vid=f101cfb7-e0c6-4fd9-a5d2-be6f96433b12","ios":"levelo://app?vid=f101cfb7-e0c6-4fd9-a5d2-be6f96433b12"},"vehicle_type_id":"4","last_reported":1703685986,"current_range_meters":20400,"station_id":"ce4bgvh2rcd13ifvqcs0","pricing_plan_id":"free"},{"bike_id":"f83be81c-f1ee-4846-8b42-41d98aa8a175","system_id":"levelo_inurba_marseille","lat":43.286039,"lon":5.370681,"is_reserved":false,"is_disabled":false,"rental_uris":{"android":"levelo://app?vid=f83be81c-f1ee-4846-8b42-41d98aa8a175","ios":"levelo://app?vid=f83be81c-f1ee-4846-8b42-41d98aa8a175"},"vehicle_type_id":"4","last_reported":1703685986,"current_range_meters":8400,"station_id":"ce4bht12rcd13ifvqi60","pricing_plan_id":"free"},{"bike_id":"38d8412b-e1eb-44d4-a17e-b0db5dad2402","system_id":"levelo_inurba_marseille","lat":43.286039,"lon":5.370679,"is_reserved":false,"is_disabled":false,"rental_uris":{"android":"levelo://app?vid=38d8412b-e1eb-44d4-a17e-b0db5dad2402","ios":"levelo://app?vid=38d8412b-e1eb-44d4-a17e-b0db5dad2402"},"vehicle_type_id":"4","last_reported":1703685986,"current_range_meters":27200,"station_id":"ce4bht12rcd13ifvqi60","pricing_plan_id":"free"},{"bike_id":"2b215a12-ce08-48b3-98e3-5f8a5fbc807d","system_id":"levelo_inurba_marseille","lat":43.316821,"lon":5.404737,"is_reserved":false,"is_disabled":false,"rental_uris":{"android":"levelo://app?vid=2b215a12-ce08-48b3-98e3-5f8a5fbc807d","ios":"levelo://app?vid=2b215a12-ce08-48b3-98e3-5f8a5fbc807d"},"vehicle_type_id":"4","last_reported":1703685986,"current_range_meters":21600,"station_id":"ce4bh012rcd13ifvqd00","pricing_plan_id":"free"},{"bike_id":"dd181b37-eaa3-4c2c-8e6d-190aae0f9e2d","system_id":"levelo_inurba_marseille","lat":43.316821,"lon":5.404737,"is_reserved":false,"is_disabled":false,"rental_uris":{"android":"levelo://app?vid=dd181b37-eaa3-4c2c-8e6d-190aae0f9e2d","ios":"levelo://app?vid=dd181b37-eaa3-4c2c-8e6d-190aae0f9e2d"},"vehicle_type_id":"4","last_reported":1703685986,"current_range_meters":30400,"station_id":"ce4bh012rcd13ifvqd00","pricing_plan_id":"free"},{"bike_id":"e750f7e4-82d2-4937-95f6-45e85fb54b21","system_id":"levelo_inurba_marseille","lat":43.316821,"lon":5.404737,"is_reserved":false,"is_disabled":false,"rental_uris":{"android":"levelo://app?vid=e750f7e4-82d2-4937-95f6-45e85fb54b21","ios":"levelo://app?vid=e750f7e4-82d2-4937-95f6-45e85fb54b21"},"vehicle_type_id":"4","last_reported":1703685986,"current_range_meters":12800,"station_id":"ce4bh012rcd13ifvqd00","pricing_plan_id":"free"},{"bike_id":"e2adfa7c-882e-48a1-9ee4-b36e6186ebbf","system_id":"levelo_inurba_marseille","lat":43.330912,"lon":5.396935,"is_reserved":false,"is_disabled":false,"rental_uris":{"android":"levelo://app?vid=e2adfa7c-882e-48a1-9ee4-b36e6186ebbf","ios":"levelo://app?vid=e2adfa7c-882e-48a1-9ee4-b36e6186ebbf"},"vehicle_type_id":"4","last_reported":1703685986,"current_range_meters":0,"station_id":"","pricing_plan_id":"free"},{"bike_id":"e8461375-0f60-40d6-a4f2-f82cbfa959ea","system_id":"levelo_inurba_marseille","lat":43.284587,"lon":5.358922,"is_reserved":false,"is_disabled":false,"rental_uris":{"android":"levelo://app?vid=e8461375-0f60-40d6-a4f2-f82cbfa959ea","ios":"levelo://app?vid=e8461375-0f60-40d6-a4f2-f82cbfa959ea"},"vehicle_type_id":"4","last_reported":1703685986,"current_range_meters":14000,"station_id":"ce4bhah2rcd13ifvqei0","pricing_plan_id":"free"},{"bike_id":"7119845d-00aa-4d9f-be8c-fc97d41f1380","system_id":"levelo_inurba_marseille","lat":43.32896,"lon":5.39977,"is_reserved":false,"is_disabled":false,"rental_uris":{"android":"levelo://app?vid=7119845d-00aa-4d9f-be8c-fc97d41f1380","ios":"levelo://app?vid=7119845d-00aa-4d9f-be8c-fc97d41f1380"},"vehicle_type_id":"4","last_reported":1703685986,"current_range_meters":20800,"station_id":"","pricing_plan_id":"free"},{"bike_id":"dac5ea74-92f7-462e-b536-31f322bb01c0","system_id":"levelo_inurba_marseille","lat":43.32897,"lon":5.3998,"is_reserved":false,"is_disabled":false,"rental_uris":{"android":"levelo://app?vid=dac5ea74-92f7-462e-b536-31f322bb01c0","ios":"levelo://app?vid=dac5ea74-92f7-462e-b536-31f322bb01c0"},"vehicle_type_id":"4","last_reported":1703685986,"current_range_meters":24400,"station_id":"","pricing_plan_id":"free"},{"bike_id":"88b42c57-e4a8-41f8-baef-2ebe6e9a358a","system_id":"levelo_inurba_marseille","lat":43.283998,"lon":5.375062,"is_reserved":false,"is_disabled":false,"rental_uris":{"android":"levelo://app?vid=88b42c57-e4a8-41f8-baef-2ebe6e9a358a","ios":"levelo://app?vid=88b42c57-e4a8-41f8-baef-2ebe6e9a358a"},"vehicle_type_id":"4","last_reported":1703685986,"current_range_meters":16800,"station_id":"ce4bh412rcd13ifvqds0","pricing_plan_id":"free"},{"bike_id":"d7bea775-b801-4a8d-a719-34d127f24d01","system_id":"levelo_inurba_marseille","lat":43.283998,"lon":5.375062,"is_reserved":false,"is_disabled":false,"rental_uris":{"android":"levelo://app?vid=d7bea775-b801-4a8d-a719-34d127f24d01","ios":"levelo://app?vid=d7bea775-b801-4a8d-a719-34d127f24d01"},"vehicle_type_id":"4","last_reported":1703685986,"current_range_meters":4800,"station_id":"ce4bh412rcd13ifvqds0","pricing_plan_id":"free"},{"bike_id":"2342d79d-d847-4ff2-b376-afca40a1c0af","system_id":"levelo_inurba_marseille","lat":43.295713,"lon":5.399639,"is_reserved":false,"is_disabled":false,"rental_uris":{"android":"levelo://app?vid=2342d79d-d847-4ff2-b376-afca40a1c0af","ios":"levelo://app?vid=2342d79d-d847-4ff2-b376-afca40a1c0af"},"vehicle_type_id":"4","last_reported":1703685986,"current_range_meters":15200,"station_id":"ce4bh312rcd13ifvqdj0","pricing_plan_id":"free"},{"bike_id":"9a849a9b-a8b6-4faa-8894-7b8db5d34411","system_id":"levelo_inurba_marseille","lat":43.286595,"lon":5.386795,"is_reserved":false,"is_disabled":false,"rental_uris":{"android":"levelo://app?vid=9a849a9b-a8b6-4faa-8894-7b8db5d34411","ios":"levelo://app?vid=9a849a9b-a8b6-4faa-8894-7b8db5d34411"},"vehicle_type_id":"4","last_reported":1703685986,"current_range_meters":29600,"station_id":"ce4bh492rcd13ifvqdug","pricing_plan_id":"free"},{"bike_id":"2eb2c04a-d4bd-441e-a4bc-1ea6b58d0127","system_id":"levelo_inurba_marseille","lat":43.286595,"lon":5.386795,"is_reserved":false,"is_disabled":false,"rental_uris":{"android":"levelo://app?vid=2eb2c04a-d4bd-441e-a4bc-1ea6b58d0127","ios":"levelo://app?vid=2eb2c04a-d4bd-441e-a4bc-1ea6b58d0127"},"vehicle_type_id":"4","last_reported":1703685986,"current_range_meters":24400,"station_id":"ce4bh492rcd13ifvqdug","pricing_plan_id":"free"},{"bike_id":"370cccf7-c9ba-46c2-819b-c8e8cacc4c21","system_id":"levelo_inurba_marseille","lat":43.33208,"lon":5.39823,"is_reserved":false,"is_disabled":false,"rental_uris":{"android":"levelo://app?vid=370cccf7-c9ba-46c2-819b-c8e8cacc4c21","ios":"levelo://app?vid=370cccf7-c9ba-46c2-819b-c8e8cacc4c21"},"vehicle_type_id":"4","last_reported":1703685986,"current_range_meters":15600,"station_id":"","pricing_plan_id":"free"},{"bike_id":"2c19d3c9-4607-4f7c-a824-53ba2d2ee0b5","system_id":"levelo_inurba_marseille","lat":43.319179,"lon":5.407725,"is_reserved":false,"is_disabled":false,"rental_uris":{"android":"levelo://app?vid=2c19d3c9-4607-4f7c-a824-53ba2d2ee0b5","ios":"levelo://app?vid=2c19d3c9-4607-4f7c-a824-53ba2d2ee0b5"},"vehicle_type_id":"4","last_reported":1703685986,"current_range_meters":27600,"station_id":"ce4bhq12rcd13ifvqhig","pricing_plan_id":"free"},{"bike_id":"769019c4-eb9e-4a31-95b4-3ef192cc753f","system_id":"levelo_inurba_marseille","lat":43.28741,"lon":5.38986,"is_reserved":false,"is_disabled":false,"rental_uris":{"android":"levelo://app?vid=769019c4-eb9e-4a31-95b4-3ef192cc753f","ios":"levelo://app?vid=769019c4-eb9e-4a31-95b4-3ef192cc753f"},"vehicle_type_id":"4","last_reported":1703685986,"current_range_meters":2800,"station_id":"","pricing_plan_id":"free"},{"bike_id":"d60802d6-4f47-444a-b234-883690eec05b","system_id":"levelo_inurba_marseille","lat":43.33422,"lon":5.39645,"is_reserved":false,"is_disabled":false,"rental_uris":{"android":"levelo://app?vid=d60802d6-4f47-444a-b234-883690eec05b","ios":"levelo://app?vid=d60802d6-4f47-444a-b234-883690eec05b"},"vehicle_type_id":"4","last_reported":1703685986,"current_range_meters":31200,"station_id":"","pricing_plan_id":"free"},{"bike_id":"87ff1448-f8e3-4d38-99a6-ac62b7f85897","system_id":"levelo_inurba_marseille","lat":43.323464,"lon":5.406297,"is_reserved":false,"is_disabled":false,"rental_uris":{"android":"levelo://app?vid=87ff1448-f8e3-4d38-99a6-ac62b7f85897","ios":"levelo://app?vid=87ff1448-f8e3-4d38-99a6-ac62b7f85897"},"vehicle_type_id":"4","last_reported":1703685986,"current_range_meters":29200,"station_id":"ce4bhq92rcd13ifvqhjg","pricing_plan_id":"free"},{"bike_id":"49b1c88b-18f4-45e6-8539-960a1d0da850","system_id":"levelo_inurba_marseille","lat":43.33717,"lon":5.391857,"is_reserved":false,"is_disabled":false,"rental_uris":{"android":"levelo://app?vid=49b1c88b-18f4-45e6-8539-960a1d0da850","ios":"levelo://app?vid=49b1c88b-18f4-45e6-8539-960a1d0da850"},"vehicle_type_id":"4","last_reported":1703685986,"current_range_meters":24800,"station_id":"ce4bhr92rcd13ifvqhsg","pricing_plan_id":"free"},{"bike_id":"8865aa9a-2b57-4a92-a147-c83ce68928ba","system_id":"levelo_inurba_marseille","lat":43.284793,"lon":5.384119,"is_reserved":false,"is_disabled":false,"rental_uris":{"android":"levelo://app?vid=8865aa9a-2b57-4a92-a147-c83ce68928ba","ios":"levelo://app?vid=8865aa9a-2b57-4a92-a147-c83ce68928ba"},"vehicle_type_id":"4","last_reported":1703685986,"current_range_meters":27200,"station_id":"ce4bh512rcd13ifvqe3g","pricing_plan_id":"free"},{"bike_id":"6cf09cb1-4045-455d-9a38-09020bd776f0","system_id":"levelo_inurba_marseille","lat":43.284787,"lon":5.384116,"is_reserved":false,"is_disabled":false,"rental_uris":{"android":"levelo://app?vid=6cf09cb1-4045-455d-9a38-09020bd776f0","ios":"levelo://app?vid=6cf09cb1-4045-455d-9a38-09020bd776f0"},"vehicle_type_id":"4","last_reported":1703685986,"current_range_meters":14800,"station_id":"ce4bh512rcd13ifvqe3g","pricing_plan_id":"free"},{"bike_id":"d0741974-ee84-4a09-aa26-edbff8763ae7","system_id":"levelo_inurba_marseille","lat":43.284787,"lon":5.384116,"is_reserved":false,"is_disabled":false,"rental_uris":{"android":"levelo://app?vid=d0741974-ee84-4a09-aa26-edbff8763ae7","ios":"levelo://app?vid=d0741974-ee84-4a09-aa26-edbff8763ae7"},"vehicle_type_id":"4","last_reported":1703685986,"current_range_meters":29600,"station_id":"ce4bh512rcd13ifvqe3g","pricing_plan_id":"free"},{"bike_id":"10fab82a-3908-4bf5-b50c-e5eff1330c40","system_id":"levelo_inurba_marseille","lat":43.284787,"lon":5.384116,"is_reserved":false,"is_disabled":false,"rental_uris":{"android":"levelo://app?vid=10fab82a-3908-4bf5-b50c-e5eff1330c40","ios":"levelo://app?vid=10fab82a-3908-4bf5-b50c-e5eff1330c40"},"vehicle_type_id":"4","last_reported":1703685986,"current_range_meters":26800,"station_id":"ce4bh512rcd13ifvqe3g","pricing_plan_id":"free"},{"bike_id":"3e6342f6-ec1a-4d77-b578-0ad88a185772","system_id":"levelo_inurba_marseille","lat":43.284793,"lon":5.384119,"is_reserved":false,"is_disabled":false,"rental_uris":{"android":"levelo://app?vid=3e6342f6-ec1a-4d77-b578-0ad88a185772","ios":"levelo://app?vid=3e6342f6-ec1a-4d77-b578-0ad88a185772"},"vehicle_type_id":"4","last_reported":1703685986,"current_range_meters":25200,"station_id":"ce4bh512rcd13ifvqe3g","pricing_plan_id":"free"},{"bike_id":"3379cfdf-b461-43b8-8e6b-853343f99197","system_id":"levelo_inurba_marseille","lat":43.284793,"lon":5.384119,"is_reserved":false,"is_disabled":false,"rental_uris":{"android":"levelo://app?vid=3379cfdf-b461-43b8-8e6b-853343f99197","ios":"levelo://app?vid=3379cfdf-b461-43b8-8e6b-853343f99197"},"vehicle_type_id":"4","last_reported":1703685986,"current_range_meters":15200,"station_id":"ce4bh512rcd13ifvqe3g","pricing_plan_id":"free"},{"bike_id":"e485450b-2736-4f4c-b94b-0da5a69b88aa","system_id":"levelo_inurba_marseille","lat":43.33385,"lon":5.39822,"is_reserved":false,"is_disabled":false,"rental_uris":{"android":"levelo://app?vid=e485450b-2736-4f4c-b94b-0da5a69b88aa","ios":"levelo://app?vid=e485450b-2736-4f4c-b94b-0da5a69b88aa"},"vehicle_type_id":"4","last_reported":1703685986,"current_range_meters":18400,"station_id":"","pricing_plan_id":"free"},{"bike_id":"b656be9b-a244-4c51-8a52-54c1000fd10f","system_id":"levelo_inurba_marseille","lat":43.283498,"lon":5.380948,"is_reserved":false,"is_disabled":false,"rental_uris":{"android":"levelo://app?vid=b656be9b-a244-4c51-8a52-54c1000fd10f","ios":"levelo://app?vid=b656be9b-a244-4c51-8a52-54c1000fd10f"},"vehicle_type_id":"4","last_reported":1703685986,"current_range_meters":26800,"station_id":"ce4bh412rcd13ifvqdr0","pricing_plan_id":"free"},{"bike_id":"888cd35e-17e3-4cc1-9cca-80787953a91d","system_id":"levelo_inurba_marseille","lat":43.284214,"lon":5.349706,"is_reserved":false,"is_disabled":false,"rental_uris":{"android":"levelo://app?vid=888cd35e-17e3-4cc1-9cca-80787953a91d","ios":"levelo://app?vid=888cd35e-17e3-4cc1-9cca-80787953a91d"},"vehicle_type_id":"4","last_reported":1703685986,"current_range_meters":20800,"station_id":"ce4bhbh2rcd13ifvqepg","pricing_plan_id":"free"},{"bike_id":"7b7c5b1e-a98c-4487-a1c6-e2f2370bf86b","system_id":"levelo_inurba_marseille","lat":43.292724,"lon":5.401131,"is_reserved":false,"is_disabled":false,"rental_uris":{"android":"levelo://app?vid=7b7c5b1e-a98c-4487-a1c6-e2f2370bf86b","ios":"levelo://app?vid=7b7c5b1e-a98c-4487-a1c6-e2f2370bf86b"},"vehicle_type_id":"4","last_reported":1703685986,"current_range_meters":27200,"station_id":"ce4bh312rcd13ifvqdk0","pricing_plan_id":"free"},{"bike_id":"3569d72f-36dc-4b85-bddd-f55a509d7a0a","system_id":"levelo_inurba_marseille","lat":43.292724,"lon":5.401131,"is_reserved":false,"is_disabled":false,"rental_uris":{"android":"levelo://app?vid=3569d72f-36dc-4b85-bddd-f55a509d7a0a","ios":"levelo://app?vid=3569d72f-36dc-4b85-bddd-f55a509d7a0a"},"vehicle_type_id":"4","last_reported":1703685986,"current_range_meters":15200,"station_id":"ce4bh312rcd13ifvqdk0","pricing_plan_id":"free"},{"bike_id":"1038e9cf-c9bc-4448-882c-c5f16453c99a","system_id":"levelo_inurba_marseille","lat":43.282744,"lon":5.350533,"is_reserved":false,"is_disabled":false,"rental_uris":{"android":"levelo://app?vid=1038e9cf-c9bc-4448-882c-c5f16453c99a","ios":"levelo://app?vid=1038e9cf-c9bc-4448-882c-c5f16453c99a"},"vehicle_type_id":"4","last_reported":1703685986,"current_range_meters":30800,"station_id":"ce4bhbp2rcd13ifvqerg","pricing_plan_id":"free"},{"bike_id":"c5d1d02f-53fb-40e9-bf9d-19dec9b1c246","system_id":"levelo_inurba_marseille","lat":43.282754,"lon":5.350519,"is_reserved":false,"is_disabled":false,"rental_uris":{"android":"levelo://app?vid=c5d1d02f-53fb-40e9-bf9d-19dec9b1c246","ios":"levelo://app?vid=c5d1d02f-53fb-40e9-bf9d-19dec9b1c246"},"vehicle_type_id":"4","last_reported":1703685986,"current_range_meters":0,"station_id":"ce4bhbp2rcd13ifvqerg","pricing_plan_id":"free"},{"bike_id":"62b15d91-0cc5-4474-ac3b-90ce27f1c91f","system_id":"levelo_inurba_marseille","lat":43.282754,"lon":5.350519,"is_reserved":false,"is_disabled":false,"rental_uris":{"android":"levelo://app?vid=62b15d91-0cc5-4474-ac3b-90ce27f1c91f","ios":"levelo://app?vid=62b15d91-0cc5-4474-ac3b-90ce27f1c91f"},"vehicle_type_id":"4","last_reported":1703685986,"current_range_meters":16400,"station_id":"ce4bhbp2rcd13ifvqerg","pricing_plan_id":"free"},{"bike_id":"089932e9-5168-4849-94fa-3728ab66d646","system_id":"levelo_inurba_marseille","lat":43.283502,"lon":5.386471,"is_reserved":false,"is_disabled":false,"rental_uris":{"android":"levelo://app?vid=089932e9-5168-4849-94fa-3728ab66d646","ios":"levelo://app?vid=089932e9-5168-4849-94fa-3728ab66d646"},"vehicle_type_id":"4","last_reported":1703685986,"current_range_meters":14000,"station_id":"ce4bh492rcd13ifvqdvg","pricing_plan_id":"free"},{"bike_id":"7bd9a1b8-a674-42a7-ad4e-5b4ff6674cd8","system_id":"levelo_inurba_marseille","lat":43.283502,"lon":5.386471,"is_reserved":false,"is_disabled":false,"rental_uris":{"android":"levelo://app?vid=7bd9a1b8-a674-42a7-ad4e-5b4ff6674cd8","ios":"levelo://app?vid=7bd9a1b8-a674-42a7-ad4e-5b4ff6674cd8"},"vehicle_type_id":"4","last_reported":1703685986,"current_range_meters":28400,"station_id":"ce4bh492rcd13ifvqdvg","pricing_plan_id":"free"},{"bike_id":"24e2c243-d810-4cb0-bf16-4757ab160c8b","system_id":"levelo_inurba_marseille","lat":43.280323,"lon":5.369471,"is_reserved":false,"is_disabled":false,"rental_uris":{"android":"levelo://app?vid=24e2c243-d810-4cb0-bf16-4757ab160c8b","ios":"levelo://app?vid=24e2c243-d810-4cb0-bf16-4757ab160c8b"},"vehicle_type_id":"4","last_reported":1703685986,"current_range_meters":31200,"station_id":"ce4bha12rcd13ifvqef0","pricing_plan_id":"free"},{"bike_id":"e0c17d40-7f47-4199-9c6d-c439dc999645","system_id":"levelo_inurba_marseille","lat":43.280382,"lon":5.369291,"is_reserved":false,"is_disabled":false,"rental_uris":{"android":"levelo://app?vid=e0c17d40-7f47-4199-9c6d-c439dc999645","ios":"levelo://app?vid=e0c17d40-7f47-4199-9c6d-c439dc999645"},"vehicle_type_id":"4","last_reported":1703685986,"current_range_meters":29200,"station_id":"ce4bha12rcd13ifvqef0","pricing_plan_id":"free"},{"bike_id":"50f5f9f1-88bd-4e16-9dd2-87d1d8a558fa","system_id":"levelo_inurba_marseille","lat":43.326605,"lon":5.409903,"is_reserved":false,"is_disabled":false,"rental_uris":{"android":"levelo://app?vid=50f5f9f1-88bd-4e16-9dd2-87d1d8a558fa","ios":"levelo://app?vid=50f5f9f1-88bd-4e16-9dd2-87d1d8a558fa"},"vehicle_type_id":"4","last_reported":1703685986,"current_range_meters":12800,"station_id":"ce4bhpp2rcd13ifvqhgg","pricing_plan_id":"free"},{"bike_id":"c9d73eed-5888-4e39-be0e-da9a3b48d0b3","system_id":"levelo_inurba_marseille","lat":43.283633,"lon":5.392028,"is_reserved":false,"is_disabled":false,"rental_uris":{"android":"levelo://app?vid=c9d73eed-5888-4e39-be0e-da9a3b48d0b3","ios":"levelo://app?vid=c9d73eed-5888-4e39-be0e-da9a3b48d0b3"},"vehicle_type_id":"4","last_reported":1703685986,"current_range_meters":22800,"station_id":"","pricing_plan_id":"free"},{"bike_id":"a4a5ccde-62af-4c28-95c1-d68b50703509","system_id":"levelo_inurba_marseille","lat":43.32672,"lon":5.41037,"is_reserved":false,"is_disabled":false,"rental_uris":{"android":"levelo://app?vid=a4a5ccde-62af-4c28-95c1-d68b50703509","ios":"levelo://app?vid=a4a5ccde-62af-4c28-95c1-d68b50703509"},"vehicle_type_id":"4","last_reported":1703685986,"current_range_meters":26400,"station_id":"ce4bhpp2rcd13ifvqhgg","pricing_plan_id":"free"},{"bike_id":"1962028b-8ea6-436c-a865-99fc93bd5ef9","system_id":"levelo_inurba_marseille","lat":43.303837,"lon":5.418724,"is_reserved":false,"is_disabled":false,"rental_uris":{"android":"levelo://app?vid=1962028b-8ea6-436c-a865-99fc93bd5ef9","ios":"levelo://app?vid=1962028b-8ea6-436c-a865-99fc93bd5ef9"},"vehicle_type_id":"4","last_reported":1703685986,"current_range_meters":31200,"station_id":"ce4bhop2rcd13ifvqh7g","pricing_plan_id":"free"},{"bike_id":"baa4941f-f0c2-4347-89f7-bd9dafbab2f3","system_id":"levelo_inurba_marseille","lat":43.320045,"lon":5.415046,"is_reserved":false,"is_disabled":false,"rental_uris":{"android":"levelo://app?vid=baa4941f-f0c2-4347-89f7-bd9dafbab2f3","ios":"levelo://app?vid=baa4941f-f0c2-4347-89f7-bd9dafbab2f3"},"vehicle_type_id":"4","last_reported":1703685986,"current_range_meters":31200,"station_id":"ce4bhq92rcd13ifvqhkg","pricing_plan_id":"free"},{"bike_id":"ace8e306-5b06-4a67-a39f-7bc723fa8fc3","system_id":"levelo_inurba_marseille","lat":43.279742,"lon":5.38744,"is_reserved":false,"is_disabled":false,"rental_uris":{"android":"levelo://app?vid=ace8e306-5b06-4a67-a39f-7bc723fa8fc3","ios":"levelo://app?vid=ace8e306-5b06-4a67-a39f-7bc723fa8fc3"},"vehicle_type_id":"4","last_reported":1703685986,"current_range_meters":22400,"station_id":"ce4bhg12rcd13ifvqf80","pricing_plan_id":"free"},{"bike_id":"3081593e-f160-42c7-a5f1-30ca2ae173a0","system_id":"levelo_inurba_marseille","lat":43.27963,"lon":5.38705,"is_reserved":false,"is_disabled":false,"rental_uris":{"android":"levelo://app?vid=3081593e-f160-42c7-a5f1-30ca2ae173a0","ios":"levelo://app?vid=3081593e-f160-42c7-a5f1-30ca2ae173a0"},"vehicle_type_id":"4","last_reported":1703685986,"current_range_meters":25200,"station_id":"ce4bhg12rcd13ifvqf80","pricing_plan_id":"free"},{"bike_id":"3d8d9049-92d3-4e00-91bf-a12accccac85","system_id":"levelo_inurba_marseille","lat":43.279742,"lon":5.38744,"is_reserved":false,"is_disabled":false,"rental_uris":{"android":"levelo://app?vid=3d8d9049-92d3-4e00-91bf-a12accccac85","ios":"levelo://app?vid=3d8d9049-92d3-4e00-91bf-a12accccac85"},"vehicle_type_id":"4","last_reported":1703685986,"current_range_meters":25200,"station_id":"ce4bhg12rcd13ifvqf80","pricing_plan_id":"free"},{"bike_id":"3adf8c28-fb8b-4a9e-b322-0c2596978279","system_id":"levelo_inurba_marseille","lat":43.27968,"lon":5.38735,"is_reserved":false,"is_disabled":false,"rental_uris":{"android":"levelo://app?vid=3adf8c28-fb8b-4a9e-b322-0c2596978279","ios":"levelo://app?vid=3adf8c28-fb8b-4a9e-b322-0c2596978279"},"vehicle_type_id":"4","last_reported":1703685986,"current_range_meters":0,"station_id":"ce4bhg12rcd13ifvqf80","pricing_plan_id":"free"},{"bike_id":"60ab5df2-f613-494c-86a0-0644053cdf40","system_id":"levelo_inurba_marseille","lat":43.292569,"lon":5.409107,"is_reserved":false,"is_disabled":false,"rental_uris":{"android":"levelo://app?vid=60ab5df2-f613-494c-86a0-0644053cdf40","ios":"levelo://app?vid=60ab5df2-f613-494c-86a0-0644053cdf40"},"vehicle_type_id":"4","last_reported":1703685986,"current_range_meters":30000,"station_id":"ce4bh192rcd13ifvqdc0","pricing_plan_id":"free"},{"bike_id":"25942bb0-b36d-4798-85fb-8742c4290c24","system_id":"levelo_inurba_marseille","lat":43.280784,"lon":5.396622,"is_reserved":false,"is_disabled":false,"rental_uris":{"android":"levelo://app?vid=25942bb0-b36d-4798-85fb-8742c4290c24","ios":"levelo://app?vid=25942bb0-b36d-4798-85fb-8742c4290c24"},"vehicle_type_id":"4","last_reported":1703685986,"current_range_meters":26000,"station_id":"ce4bho12rcd13ifvqh2g","pricing_plan_id":"free"},{"bike_id":"e0218d20-9552-4779-a19f-f85e36cf46c5","system_id":"levelo_inurba_marseille","lat":43.280784,"lon":5.396622,"is_reserved":false,"is_disabled":false,"rental_uris":{"android":"levelo://app?vid=e0218d20-9552-4779-a19f-f85e36cf46c5","ios":"levelo://app?vid=e0218d20-9552-4779-a19f-f85e36cf46c5"},"vehicle_type_id":"4","last_reported":1703685986,"current_range_meters":16000,"station_id":"ce4bho12rcd13ifvqh2g","pricing_plan_id":"free"},{"bike_id":"04b05ee7-7ca4-4ee5-a7f9-08328d2bad4a","system_id":"levelo_inurba_marseille","lat":43.303837,"lon":5.418724,"is_reserved":false,"is_disabled":false,"rental_uris":{"android":"levelo://app?vid=04b05ee7-7ca4-4ee5-a7f9-08328d2bad4a","ios":"levelo://app?vid=04b05ee7-7ca4-4ee5-a7f9-08328d2bad4a"},"vehicle_type_id":"4","last_reported":1703685986,"current_range_meters":30000,"station_id":"ce4bhop2rcd13ifvqh7g","pricing_plan_id":"free"},{"bike_id":"f4ef48f5-0601-456e-8177-bd9ee85e538d","system_id":"levelo_inurba_marseille","lat":43.2738,"lon":5.36259,"is_reserved":false,"is_disabled":false,"rental_uris":{"android":"levelo://app?vid=f4ef48f5-0601-456e-8177-bd9ee85e538d","ios":"levelo://app?vid=f4ef48f5-0601-456e-8177-bd9ee85e538d"},"vehicle_type_id":"4","last_reported":1703685986,"current_range_meters":20800,"station_id":"ce4bhbh2rcd13ifvqeo0","pricing_plan_id":"free"},{"bike_id":"540d184b-98af-48e8-8a62-dcee3f1fd80e","system_id":"levelo_inurba_marseille","lat":43.278401,"lon":5.392152,"is_reserved":false,"is_disabled":false,"rental_uris":{"android":"levelo://app?vid=540d184b-98af-48e8-8a62-dcee3f1fd80e","ios":"levelo://app?vid=540d184b-98af-48e8-8a62-dcee3f1fd80e"},"vehicle_type_id":"4","last_reported":1703685986,"current_range_meters":12000,"station_id":"ce4bhjp2rcd13ifvqga0","pricing_plan_id":"free"},{"bike_id":"7ac7225b-caa3-4c06-8b1c-e5f01afc264f","system_id":"levelo_inurba_marseille","lat":43.273613,"lon":5.362705,"is_reserved":false,"is_disabled":false,"rental_uris":{"android":"levelo://app?vid=7ac7225b-caa3-4c06-8b1c-e5f01afc264f","ios":"levelo://app?vid=7ac7225b-caa3-4c06-8b1c-e5f01afc264f"},"vehicle_type_id":"4","last_reported":1703685986,"current_range_meters":29200,"station_id":"ce4bhbh2rcd13ifvqeo0","pricing_plan_id":"free"},{"bike_id":"c7abd197-060e-4387-a0ee-40a79ce95a21","system_id":"levelo_inurba_marseille","lat":43.27369,"lon":5.36248,"is_reserved":false,"is_disabled":false,"rental_uris":{"android":"levelo://app?vid=c7abd197-060e-4387-a0ee-40a79ce95a21","ios":"levelo://app?vid=c7abd197-060e-4387-a0ee-40a79ce95a21"},"vehicle_type_id":"4","last_reported":1703685986,"current_range_meters":0,"station_id":"ce4bhbh2rcd13ifvqeo0","pricing_plan_id":"free"},{"bike_id":"07420988-1b2a-413c-9baf-8abcc9ce393e","system_id":"levelo_inurba_marseille","lat":43.276769,"lon":5.388787,"is_reserved":false,"is_disabled":false,"rental_uris":{"android":"levelo://app?vid=07420988-1b2a-413c-9baf-8abcc9ce393e","ios":"levelo://app?vid=07420988-1b2a-413c-9baf-8abcc9ce393e"},"vehicle_type_id":"4","last_reported":1703685986,"current_range_meters":31200,"station_id":"ce4bhi12rcd13ifvqfo0","pricing_plan_id":"free"},{"bike_id":"0609db92-e176-4cce-a001-d1f1726a4874","system_id":"levelo_inurba_marseille","lat":43.275625,"lon":5.384392,"is_reserved":false,"is_disabled":false,"rental_uris":{"android":"levelo://app?vid=0609db92-e176-4cce-a001-d1f1726a4874","ios":"levelo://app?vid=0609db92-e176-4cce-a001-d1f1726a4874"},"vehicle_type_id":"4","last_reported":1703685986,"current_range_meters":28000,"station_id":"ce4bhh92rcd13ifvqfi0","pricing_plan_id":"free"},{"bike_id":"39e4a4de-7183-413c-90b9-af8b9fa11574","system_id":"levelo_inurba_marseille","lat":43.279975,"lon":5.40009,"is_reserved":false,"is_disabled":false,"rental_uris":{"android":"levelo://app?vid=39e4a4de-7183-413c-90b9-af8b9fa11574","ios":"levelo://app?vid=39e4a4de-7183-413c-90b9-af8b9fa11574"},"vehicle_type_id":"4","last_reported":1703685986,"current_range_meters":26000,"station_id":"ce4bho92rcd13ifvqh4g","pricing_plan_id":"free"},{"bike_id":"27bd0fb1-1faf-489f-b3a7-4ae03239416b","system_id":"levelo_inurba_marseille","lat":43.279975,"lon":5.40009,"is_reserved":false,"is_disabled":false,"rental_uris":{"android":"levelo://app?vid=27bd0fb1-1faf-489f-b3a7-4ae03239416b","ios":"levelo://app?vid=27bd0fb1-1faf-489f-b3a7-4ae03239416b"},"vehicle_type_id":"4","last_reported":1703685986,"current_range_meters":16800,"station_id":"ce4bho92rcd13ifvqh4g","pricing_plan_id":"free"},{"bike_id":"c807b277-1704-46fd-9976-fda8eb7df135","system_id":"levelo_inurba_marseille","lat":43.31086,"lon":5.42427,"is_reserved":false,"is_disabled":false,"rental_uris":{"android":"levelo://app?vid=c807b277-1704-46fd-9976-fda8eb7df135","ios":"levelo://app?vid=c807b277-1704-46fd-9976-fda8eb7df135"},"vehicle_type_id":"4","last_reported":1703685986,"current_range_meters":8400,"station_id":"ce4bhp92rcd13ifvqhag","pricing_plan_id":"free"},{"bike_id":"a5ef3ffe-074d-4034-8a49-1265e8309ea7","system_id":"levelo_inurba_marseille","lat":43.31082,"lon":5.4243,"is_reserved":false,"is_disabled":false,"rental_uris":{"android":"levelo://app?vid=a5ef3ffe-074d-4034-8a49-1265e8309ea7","ios":"levelo://app?vid=a5ef3ffe-074d-4034-8a49-1265e8309ea7"},"vehicle_type_id":"4","last_reported":1703685986,"current_range_meters":30400,"station_id":"ce4bhp92rcd13ifvqhag","pricing_plan_id":"free"},{"bike_id":"3883b015-0a68-4ac7-b528-4c81100d058c","system_id":"levelo_inurba_marseille","lat":43.31079,"lon":5.4243,"is_reserved":false,"is_disabled":false,"rental_uris":{"android":"levelo://app?vid=3883b015-0a68-4ac7-b528-4c81100d058c","ios":"levelo://app?vid=3883b015-0a68-4ac7-b528-4c81100d058c"},"vehicle_type_id":"4","last_reported":1703685986,"current_range_meters":10000,"station_id":"ce4bhp92rcd13ifvqhag","pricing_plan_id":"free"},{"bike_id":"8688502e-c777-4738-8968-43d18688f77f","system_id":"levelo_inurba_marseille","lat":43.31082,"lon":5.42431,"is_reserved":false,"is_disabled":false,"rental_uris":{"android":"levelo://app?vid=8688502e-c777-4738-8968-43d18688f77f","ios":"levelo://app?vid=8688502e-c777-4738-8968-43d18688f77f"},"vehicle_type_id":"4","last_reported":1703685986,"current_range_meters":28000,"station_id":"ce4bhp92rcd13ifvqhag","pricing_plan_id":"free"},{"bike_id":"c228ce51-0034-408b-93aa-dbde9bbacd8a","system_id":"levelo_inurba_marseille","lat":43.31079,"lon":5.42431,"is_reserved":false,"is_disabled":false,"rental_uris":{"android":"levelo://app?vid=c228ce51-0034-408b-93aa-dbde9bbacd8a","ios":"levelo://app?vid=c228ce51-0034-408b-93aa-dbde9bbacd8a"},"vehicle_type_id":"4","last_reported":1703685986,"current_range_meters":26400,"station_id":"ce4bhp92rcd13ifvqhag","pricing_plan_id":"free"},{"bike_id":"b2974ce4-58ca-4652-8486-f4891c019db7","system_id":"levelo_inurba_marseille","lat":43.310785,"lon":5.424305,"is_reserved":false,"is_disabled":false,"rental_uris":{"android":"levelo://app?vid=b2974ce4-58ca-4652-8486-f4891c019db7","ios":"levelo://app?vid=b2974ce4-58ca-4652-8486-f4891c019db7"},"vehicle_type_id":"4","last_reported":1703685986,"current_range_meters":25600,"station_id":"ce4bhp92rcd13ifvqhag","pricing_plan_id":"free"},{"bike_id":"68736a0c-c45e-44b7-9894-9250e5012bfe","system_id":"levelo_inurba_marseille","lat":43.31082,"lon":5.42433,"is_reserved":false,"is_disabled":false,"rental_uris":{"android":"levelo://app?vid=68736a0c-c45e-44b7-9894-9250e5012bfe","ios":"levelo://app?vid=68736a0c-c45e-44b7-9894-9250e5012bfe"},"vehicle_type_id":"4","last_reported":1703685986,"current_range_meters":23200,"station_id":"ce4bhp92rcd13ifvqhag","pricing_plan_id":"free"},{"bike_id":"f2022957-4879-4117-87aa-c8f7216574d3","system_id":"levelo_inurba_marseille","lat":43.273125,"lon":5.390731,"is_reserved":false,"is_disabled":false,"rental_uris":{"android":"levelo://app?vid=f2022957-4879-4117-87aa-c8f7216574d3","ios":"levelo://app?vid=f2022957-4879-4117-87aa-c8f7216574d3"},"vehicle_type_id":"4","last_reported":1703685986,"current_range_meters":23600,"station_id":"ce4bhgp2rcd13ifvqfe0","pricing_plan_id":"free"},{"bike_id":"0018b328-6fa4-485b-a4ce-79aaae35a82b","system_id":"levelo_inurba_marseille","lat":43.273125,"lon":5.390731,"is_reserved":false,"is_disabled":false,"rental_uris":{"android":"levelo://app?vid=0018b328-6fa4-485b-a4ce-79aaae35a82b","ios":"levelo://app?vid=0018b328-6fa4-485b-a4ce-79aaae35a82b"},"vehicle_type_id":"4","last_reported":1703685986,"current_range_meters":31600,"station_id":"ce4bhgp2rcd13ifvqfe0","pricing_plan_id":"free"},{"bike_id":"a3a4b492-9ee5-4899-b3ae-afd7b6b41584","system_id":"levelo_inurba_marseille","lat":43.273125,"lon":5.390731,"is_reserved":false,"is_disabled":false,"rental_uris":{"android":"levelo://app?vid=a3a4b492-9ee5-4899-b3ae-afd7b6b41584","ios":"levelo://app?vid=a3a4b492-9ee5-4899-b3ae-afd7b6b41584"},"vehicle_type_id":"4","last_reported":1703685986,"current_range_meters":26400,"station_id":"ce4bhgp2rcd13ifvqfe0","pricing_plan_id":"free"},{"bike_id":"17875dd5-ade9-4378-8145-b5ddb620e16b","system_id":"levelo_inurba_marseille","lat":43.273125,"lon":5.390731,"is_reserved":false,"is_disabled":false,"rental_uris":{"android":"levelo://app?vid=17875dd5-ade9-4378-8145-b5ddb620e16b","ios":"levelo://app?vid=17875dd5-ade9-4378-8145-b5ddb620e16b"},"vehicle_type_id":"4","last_reported":1703685986,"current_range_meters":18800,"station_id":"ce4bhgp2rcd13ifvqfe0","pricing_plan_id":"free"},{"bike_id":"c45558ca-9652-41ec-8da9-2fc8b14361f1","system_id":"levelo_inurba_marseille","lat":43.304096,"lon":5.425385,"is_reserved":false,"is_disabled":false,"rental_uris":{"android":"levelo://app?vid=c45558ca-9652-41ec-8da9-2fc8b14361f1","ios":"levelo://app?vid=c45558ca-9652-41ec-8da9-2fc8b14361f1"},