{"last_updated":1745147234,"ttl":60,"version":"2.2","data":{"bikes":[{"bike_id":"e2b2eaee-0f23-4f45-a614-d6e21bc0cb18","system_id":"levelo_inurba_marseille","lat":43.30929,"lon":5.40149,"is_reserved":false,"is_disabled":false,"rental_uris":{"android":"levelo://app?vid=e2b2eaee-0f23-4f45-a614-d6e21bc0cb18","ios":"levelo://app?vid=e2b2eaee-0f23-4f45-a614-d6e21bc0cb18"},"vehicle_type_id":"4","last_reported":1745147234,"current_range_meters":2800,"station_id":"ce4bgvp2rcd13ifvqct0","pricing_plan_id":"cebpf4jnsgd1na2vs0mg"},{"bike_id":"0fdc509f-693c-4ddf-b2ad-2c6adee2428a","system_id":"levelo_inurba_marseille","lat":43.29766,"lon":5.37088,"is_reserved":false,"is_disabled":false,"rental_uris":{"android":"levelo://app?vid=0fdc509f-693c-4ddf-b2ad-2c6adee2428a","ios":"levelo://app?vid=0fdc509f-693c-4ddf-b2ad-2c6adee2428a"},"vehicle_type_id":"4","last_reported":1745147234,"current_range_meters":2800,"station_id":"ce4bgop2rcd13ifvqc1g","pricing_plan_id":"cebpf4jnsgd1na2vs0mg"},{"bike_id":"25ecca6c-6c28-492e-adf2-fb31b4629ad6","system_id":"levelo_inurba_marseille","lat":43.26939,"lon":5.40256,"is_reserved":false,"is_disabled":true,"rental_uris":{"android":"levelo://app?vid=25ecca6c-6c28-492e-adf2-fb31b4629ad6","ios":"levelo://app?vid=25ecca6c-6c28-492e-adf2-fb31b4629ad6"},"vehicle_type_id":"4","last_reported":1745147234,"current_range_meters":2800,"station_id":"cjm6bp8fraef2m0cb0m0","pricing_plan_id":"cebpf4jnsgd1na2vs0mg"},{"bike_id":"276d94a9-b91a-47b5-b4e8-19ed1fdcca68","system_id":"levelo_inurba_marseille","lat":43.295459,"lon":5.422978,"is_reserved":false,"is_disabled":true,"rental_uris":{"android":"levelo://app?vid=276d94a9-b91a-47b5-b4e8-19ed1fdcca68","ios":"levelo://app?vid=276d94a9-b91a-47b5-b4e8-19ed1fdcca68"},"vehicle_type_id":"4","last_reported":1745147234,"current_range_meters":3200,"station_id":"ce4bhph2rcd13ifvqhdg","pricing_plan_id":"cebpf4jnsgd1na2vs0mg"},{"bike_id":"4a86d0f8-ff65-4446-9521-1002867a3da0","system_id":"levelo_inurba_marseille","lat":43.2454,"lon":5.39525,"is_reserved":false,"is_disabled":true,"rental_uris":{"android":"levelo://app?vid=4a86d0f8-ff65-4446-9521-1002867a3da0","ios":"levelo://app?vid=4a86d0f8-ff65-4446-9521-1002867a3da0"},"vehicle_type_id":"4","last_reported":1745147234,"current_range_meters":3200,"station_id":"ce4bhlp2rcd13ifvqgjg","pricing_plan_id":"cebpf4jnsgd1na2vs0mg"},{"bike_id":"a6a59253-9318-4945-93ec-91c6177478ea","system_id":"levelo_inurba_marseille","lat":43.2119,"lon":5.35074,"is_reserved":false,"is_disabled":false,"rental_uris":{"android":"levelo://app?vid=a6a59253-9318-4945-93ec-91c6177478ea","ios":"levelo://app?vid=a6a59253-9318-4945-93ec-91c6177478ea"},"vehicle_type_id":"4","last_reported":1745147234,"current_range_meters":3200,"station_id":"st_cvj6sg6p6f1abm77japg","pricing_plan_id":"cebpf4jnsgd1na2vs0mg"},{"bike_id":"c42c97dc-851b-476d-ba23-67d0582febc0","system_id":"levelo_inurba_marseille","lat":43.30314,"lon":5.4044,"is_reserved":false,"is_disabled":true,"rental_uris":{"android":"levelo://app?vid=c42c97dc-851b-476d-ba23-67d0582febc0","ios":"levelo://app?vid=c42c97dc-851b-476d-ba23-67d0582febc0"},"vehicle_type_id":"4","last_reported":1745147234,"current_range_meters":3600,"station_id":"ce4bh012rcd13ifvqd10","pricing_plan_id":"cebpf4jnsgd1na2vs0mg"},{"bike_id":"26a3b067-d9aa-4b6b-a889-2ff54e46cb13","system_id":"levelo_inurba_marseille","lat":43.26192,"lon":5.37447,"is_reserved":false,"is_disabled":false,"rental_uris":{"android":"levelo://app?vid=26a3b067-d9aa-4b6b-a889-2ff54e46cb13","ios":"levelo://app?vid=26a3b067-d9aa-4b6b-a889-2ff54e46cb13"},"vehicle_type_id":"4","last_reported":1745147234,"current_range_meters":4000,"station_id":"ce4bhgp2rcd13ifvqfc0","pricing_plan_id":"cebpf4jnsgd1na2vs0mg"},{"bike_id":"8d015a2b-4362-4be4-a9f6-efc44718a61d","system_id":"levelo_inurba_marseille","lat":43.27376,"lon":5.36253,"is_reserved":false,"is_disabled":false,"rental_uris":{"android":"levelo://app?vid=8d015a2b-4362-4be4-a9f6-efc44718a61d","ios":"levelo://app?vid=8d015a2b-4362-4be4-a9f6-efc44718a61d"},"vehicle_type_id":"4","last_reported":1745147234,"current_range_meters":4000,"station_id":"ce4bhbh2rcd13ifvqeo0","pricing_plan_id":"cebpf4jnsgd1na2vs0mg"},{"bike_id":"e3b2cad1-4bac-48ef-aa87-4d83a0fe64ef","system_id":"levelo_inurba_marseille","lat":43.295127,"lon":5.390479,"is_reserved":false,"is_disabled":false,"rental_uris":{"android":"levelo://app?vid=e3b2cad1-4bac-48ef-aa87-4d83a0fe64ef","ios":"levelo://app?vid=e3b2cad1-4bac-48ef-aa87-4d83a0fe64ef"},"vehicle_type_id":"4","last_reported":1745147234,"current_range_meters":4400,"station_id":"ce4bh3p2rcd13ifvqdp0","pricing_plan_id":"cebpf4jnsgd1na2vs0mg"},{"bike_id":"19ada103-4cbd-4062-a809-34f5987a7a6d","system_id":"levelo_inurba_marseille","lat":43.26793,"lon":5.38908,"is_reserved":false,"is_disabled":false,"rental_uris":{"android":"levelo://app?vid=19ada103-4cbd-4062-a809-34f5987a7a6d","ios":"levelo://app?vid=19ada103-4cbd-4062-a809-34f5987a7a6d"},"vehicle_type_id":"4","last_reported":1745147234,"current_range_meters":4000,"station_id":"","pricing_plan_id":"cebpf4jnsgd1na2vs0mg"},{"bike_id":"45bf5733-342f-4ac4-80a4-ad2640aded4c","system_id":"levelo_inurba_marseille","lat":43.21757,"lon":5.346,"is_reserved":false,"is_disabled":false,"rental_uris":{"android":"levelo://app?vid=45bf5733-342f-4ac4-80a4-ad2640aded4c","ios":"levelo://app?vid=45bf5733-342f-4ac4-80a4-ad2640aded4c"},"vehicle_type_id":"4","last_reported":1745147234,"current_range_meters":4000,"station_id":"st_cvj6r9ubvosntc0bgbag","pricing_plan_id":"cebpf4jnsgd1na2vs0mg"},{"bike_id":"4cdb0a0f-6366-43af-85c7-3c43d75a4386","system_id":"levelo_inurba_marseille","lat":43.31899,"lon":5.37556,"is_reserved":false,"is_disabled":false,"rental_uris":{"android":"levelo://app?vid=4cdb0a0f-6366-43af-85c7-3c43d75a4386","ios":"levelo://app?vid=4cdb0a0f-6366-43af-85c7-3c43d75a4386"},"vehicle_type_id":"4","last_reported":1745147234,"current_range_meters":4000,"station_id":"","pricing_plan_id":"cebpf4jnsgd1na2vs0mg"},{"bike_id":"85ca30e9-534c-4395-97cf-a3c111549620","system_id":"levelo_inurba_marseille","lat":43.24802,"lon":5.37451,"is_reserved":false,"is_disabled":false,"rental_uris":{"android":"levelo://app?vid=85ca30e9-534c-4395-97cf-a3c111549620","ios":"levelo://app?vid=85ca30e9-534c-4395-97cf-a3c111549620"},"vehicle_type_id":"4","last_reported":1745147234,"current_range_meters":4400,"station_id":"ce4bhgh2rcd13ifvqfb0","pricing_plan_id":"cebpf4jnsgd1na2vs0mg"},{"bike_id":"066f1a3f-2f55-42ac-aa57-b561bb82f13e","system_id":"levelo_inurba_marseille","lat":43.30862,"lon":5.37318,"is_reserved":false,"is_disabled":false,"rental_uris":{"android":"levelo://app?vid=066f1a3f-2f55-42ac-aa57-b561bb82f13e","ios":"levelo://app?vid=066f1a3f-2f55-42ac-aa57-b561bb82f13e"},"vehicle_type_id":"4","last_reported":1745147234,"current_range_meters":4400,"station_id":"","pricing_plan_id":"cebpf4jnsgd1na2vs0mg"},{"bike_id":"6accaa12-1d48-4656-b35c-9fb753810fff","system_id":"levelo_inurba_marseille","lat":43.232,"lon":5.35552,"is_reserved":false,"is_disabled":true,"rental_uris":{"android":"levelo://app?vid=6accaa12-1d48-4656-b35c-9fb753810fff","ios":"levelo://app?vid=6accaa12-1d48-4656-b35c-9fb753810fff"},"vehicle_type_id":"4","last_reported":1745147234,"current_range_meters":4400,"station_id":"ce4bhu92rcd13ifvqi70","pricing_plan_id":"cebpf4jnsgd1na2vs0mg"},{"bike_id":"ce8dd5fa-78ee-4bf6-998b-138770e7703e","system_id":"levelo_inurba_marseille","lat":43.29257,"lon":5.38441,"is_reserved":false,"is_disabled":false,"rental_uris":{"android":"levelo://app?vid=ce8dd5fa-78ee-4bf6-998b-138770e7703e","ios":"levelo://app?vid=ce8dd5fa-78ee-4bf6-998b-138770e7703e"},"vehicle_type_id":"4","last_reported":1745147234,"current_range_meters":4400,"station_id":"ce4bh692rcd13ifvqea0","pricing_plan_id":"cebpf4jnsgd1na2vs0mg"},{"bike_id":"a0ddb0a5-f7f0-4281-aa27-9e82747cc573","system_id":"levelo_inurba_marseille","lat":43.33754,"lon":5.37491,"is_reserved":false,"is_disabled":false,"rental_uris":{"android":"levelo://app?vid=a0ddb0a5-f7f0-4281-aa27-9e82747cc573","ios":"levelo://app?vid=a0ddb0a5-f7f0-4281-aa27-9e82747cc573"},"vehicle_type_id":"4","last_reported":1745147234,"current_range_meters":4400,"station_id":"","pricing_plan_id":"cebpf4jnsgd1na2vs0mg"},{"bike_id":"f9a2a6dd-1064-4e90-b596-8cefadf25952","system_id":"levelo_inurba_marseille","lat":43.243922,"lon":5.37044,"is_reserved":false,"is_disabled":false,"rental_uris":{"android":"levelo://app?vid=f9a2a6dd-1064-4e90-b596-8cefadf25952","ios":"levelo://app?vid=f9a2a6dd-1064-4e90-b596-8cefadf25952"},"vehicle_type_id":"4","last_reported":1745147234,"current_range_meters":4800,"station_id":"","pricing_plan_id":"cebpf4jnsgd1na2vs0mg"},{"bike_id":"060df0d1-eb8e-4806-b75b-936064b9d376","system_id":"levelo_inurba_marseille","lat":43.23155,"lon":5.43696,"is_reserved":false,"is_disabled":false,"rental_uris":{"android":"levelo://app?vid=060df0d1-eb8e-4806-b75b-936064b9d376","ios":"levelo://app?vid=060df0d1-eb8e-4806-b75b-936064b9d376"},"vehicle_type_id":"4","last_reported":1745147234,"current_range_meters":5600,"station_id":"ce4bhmp2rcd13ifvqgog","pricing_plan_id":"cebpf4jnsgd1na2vs0mg"},{"bike_id":"9fe8c14c-2d24-41b2-9662-956cdf9f075c","system_id":"levelo_inurba_marseille","lat":43.24469,"lon":5.36925,"is_reserved":false,"is_disabled":false,"rental_uris":{"android":"levelo://app?vid=9fe8c14c-2d24-41b2-9662-956cdf9f075c","ios":"levelo://app?vid=9fe8c14c-2d24-41b2-9662-956cdf9f075c"},"vehicle_type_id":"4","last_reported":1745147234,"current_range_meters":4800,"station_id":"","pricing_plan_id":"cebpf4jnsgd1na2vs0mg"},{"bike_id":"fccfb8f6-02f0-48ea-86b9-2d183babeb4b","system_id":"levelo_inurba_marseille","lat":43.28269,"lon":5.35065,"is_reserved":false,"is_disabled":false,"rental_uris":{"android":"levelo://app?vid=fccfb8f6-02f0-48ea-86b9-2d183babeb4b","ios":"levelo://app?vid=fccfb8f6-02f0-48ea-86b9-2d183babeb4b"},"vehicle_type_id":"4","last_reported":1745147234,"current_range_meters":5600,"station_id":"ce4bhbp2rcd13ifvqerg","pricing_plan_id":"cebpf4jnsgd1na2vs0mg"},{"bike_id":"35f0a6e1-f9a9-47ee-bab6-2641cdd8ae57","system_id":"levelo_inurba_marseille","lat":43.27316,"lon":5.39125,"is_reserved":false,"is_disabled":true,"rental_uris":{"android":"levelo://app?vid=35f0a6e1-f9a9-47ee-bab6-2641cdd8ae57","ios":"levelo://app?vid=35f0a6e1-f9a9-47ee-bab6-2641cdd8ae57"},"vehicle_type_id":"4","last_reported":1745147234,"current_range_meters":6000,"station_id":"ce4bhgp2rcd13ifvqfe0","pricing_plan_id":"cebpf4jnsgd1na2vs0mg"},{"bike_id":"82cf97f6-2d10-439b-a6f0-f962bacaaf34","system_id":"levelo_inurba_marseille","lat":43.32368,"lon":5.38866,"is_reserved":false,"is_disabled":false,"rental_uris":{"android":"levelo://app?vid=82cf97f6-2d10-439b-a6f0-f962bacaaf34","ios":"levelo://app?vid=82cf97f6-2d10-439b-a6f0-f962bacaaf34"},"vehicle_type_id":"4","last_reported":1745147234,"current_range_meters":6000,"station_id":"ce4bhqp2rcd13ifvqhog","pricing_plan_id":"cebpf4jnsgd1na2vs0mg"},{"bike_id":"728b8bc4-278e-4503-80a4-43cd2f67d86d","system_id":"levelo_inurba_marseille","lat":43.24181,"lon":5.39716,"is_reserved":false,"is_disabled":false,"rental_uris":{"android":"levelo://app?vid=728b8bc4-278e-4503-80a4-43cd2f67d86d","ios":"levelo://app?vid=728b8bc4-278e-4503-80a4-43cd2f67d86d"},"vehicle_type_id":"4","last_reported":1745147234,"current_range_meters":6000,"station_id":"ce4bhn12rcd13ifvqgpg","pricing_plan_id":"cebpf4jnsgd1na2vs0mg"},{"bike_id":"22583896-a653-48d4-8b37-6cfca0e7be93","system_id":"levelo_inurba_marseille","lat":43.21193,"lon":5.35069,"is_reserved":false,"is_disabled":false,"rental_uris":{"android":"levelo://app?vid=22583896-a653-48d4-8b37-6cfca0e7be93","ios":"levelo://app?vid=22583896-a653-48d4-8b37-6cfca0e7be93"},"vehicle_type_id":"4","last_reported":1745147234,"current_range_meters":6000,"station_id":"st_cvj6sg6p6f1abm77japg","pricing_plan_id":"cebpf4jnsgd1na2vs0mg"},{"bike_id":"23ce463e-fd11-4348-af9f-a3846d298a6f","system_id":"levelo_inurba_marseille","lat":43.21748,"lon":5.34601,"is_reserved":false,"is_disabled":false,"rental_uris":{"android":"levelo://app?vid=23ce463e-fd11-4348-af9f-a3846d298a6f","ios":"levelo://app?vid=23ce463e-fd11-4348-af9f-a3846d298a6f"},"vehicle_type_id":"4","last_reported":1745147234,"current_range_meters":6400,"station_id":"st_cvj6r9ubvosntc0bgbag","pricing_plan_id":"cebpf4jnsgd1na2vs0mg"},{"bike_id":"e36eee3f-e899-4919-a402-21704daa28c5","system_id":"levelo_inurba_marseille","lat":43.2119,"lon":5.35078,"is_reserved":false,"is_disabled":false,"rental_uris":{"android":"levelo://app?vid=e36eee3f-e899-4919-a402-21704daa28c5","ios":"levelo://app?vid=e36eee3f-e899-4919-a402-21704daa28c5"},"vehicle_type_id":"4","last_reported":1745147234,"current_range_meters":6400,"station_id":"st_cvj6sg6p6f1abm77japg","pricing_plan_id":"cebpf4jnsgd1na2vs0mg"},{"bike_id":"cad95158-9fef-4aa8-8f09-b0568129093a","system_id":"levelo_inurba_marseille","lat":43.255,"lon":5.37648,"is_reserved":false,"is_disabled":false,"rental_uris":{"android":"levelo://app?vid=cad95158-9fef-4aa8-8f09-b0568129093a","ios":"levelo://app?vid=cad95158-9fef-4aa8-8f09-b0568129093a"},"vehicle_type_id":"4","last_reported":1745147234,"current_range_meters":6400,"station_id":"ce4bhh12rcd13ifvqff0","pricing_plan_id":"cebpf4jnsgd1na2vs0mg"},{"bike_id":"b52a1751-28c1-4412-9819-bb1cff38059d","system_id":"levelo_inurba_marseille","lat":43.25551,"lon":5.40639,"is_reserved":false,"is_disabled":false,"rental_uris":{"android":"levelo://app?vid=b52a1751-28c1-4412-9819-bb1cff38059d","ios":"levelo://app?vid=b52a1751-28c1-4412-9819-bb1cff38059d"},"vehicle_type_id":"4","last_reported":1745147234,"current_range_meters":6800,"station_id":"","pricing_plan_id":"cebpf4jnsgd1na2vs0mg"},{"bike_id":"506029f3-934b-4b14-bf28-b9c4802540f9","system_id":"levelo_inurba_marseille","lat":43.231994,"lon":5.355642,"is_reserved":false,"is_disabled":false,"rental_uris":{"android":"levelo://app?vid=506029f3-934b-4b14-bf28-b9c4802540f9","ios":"levelo://app?vid=506029f3-934b-4b14-bf28-b9c4802540f9"},"vehicle_type_id":"4","last_reported":1745147234,"current_range_meters":6800,"station_id":"ce4bhu92rcd13ifvqi70","pricing_plan_id":"cebpf4jnsgd1na2vs0mg"},{"bike_id":"d82ffebd-c48a-44f0-a427-68d91b64ad74","system_id":"levelo_inurba_marseille","lat":43.24086,"lon":5.37774,"is_reserved":false,"is_disabled":false,"rental_uris":{"android":"levelo://app?vid=d82ffebd-c48a-44f0-a427-68d91b64ad74","ios":"levelo://app?vid=d82ffebd-c48a-44f0-a427-68d91b64ad74"},"vehicle_type_id":"4","last_reported":1745147234,"current_range_meters":6800,"station_id":"ce4bhnp2rcd13ifvqgvg","pricing_plan_id":"cebpf4jnsgd1na2vs0mg"},{"bike_id":"d670f322-c36b-42e2-af90-5389682beb17","system_id":"levelo_inurba_marseille","lat":43.21188,"lon":5.35072,"is_reserved":false,"is_disabled":false,"rental_uris":{"android":"levelo://app?vid=d670f322-c36b-42e2-af90-5389682beb17","ios":"levelo://app?vid=d670f322-c36b-42e2-af90-5389682beb17"},"vehicle_type_id":"4","last_reported":1745147234,"current_range_meters":6800,"station_id":"st_cvj6sg6p6f1abm77japg","pricing_plan_id":"cebpf4jnsgd1na2vs0mg"},{"bike_id":"613a352f-e21e-411f-bca1-4a1d61d7df7a","system_id":"levelo_inurba_marseille","lat":43.32365,"lon":5.38876,"is_reserved":false,"is_disabled":false,"rental_uris":{"android":"levelo://app?vid=613a352f-e21e-411f-bca1-4a1d61d7df7a","ios":"levelo://app?vid=613a352f-e21e-411f-bca1-4a1d61d7df7a"},"vehicle_type_id":"4","last_reported":1745147234,"current_range_meters":7200,"station_id":"ce4bhqp2rcd13ifvqhog","pricing_plan_id":"cebpf4jnsgd1na2vs0mg"},{"bike_id":"1eaca8f5-0017-418a-9bfc-52185bf67513","system_id":"levelo_inurba_marseille","lat":43.33718,"lon":5.39185,"is_reserved":false,"is_disabled":false,"rental_uris":{"android":"levelo://app?vid=1eaca8f5-0017-418a-9bfc-52185bf67513","ios":"levelo://app?vid=1eaca8f5-0017-418a-9bfc-52185bf67513"},"vehicle_type_id":"4","last_reported":1745147234,"current_range_meters":7200,"station_id":"ce4bhr92rcd13ifvqhsg","pricing_plan_id":"cebpf4jnsgd1na2vs0mg"},{"bike_id":"225e3526-8097-487c-8166-39f04b762f21","system_id":"levelo_inurba_marseille","lat":43.23956,"lon":5.36641,"is_reserved":false,"is_disabled":false,"rental_uris":{"android":"levelo://app?vid=225e3526-8097-487c-8166-39f04b762f21","ios":"levelo://app?vid=225e3526-8097-487c-8166-39f04b762f21"},"vehicle_type_id":"4","last_reported":1745147234,"current_range_meters":7200,"station_id":"ce4bhi12rcd13ifvqfp0","pricing_plan_id":"cebpf4jnsgd1na2vs0mg"},{"bike_id":"39123702-dec4-4474-a883-ae94add34ecf","system_id":"levelo_inurba_marseille","lat":43.24547,"lon":5.39527,"is_reserved":false,"is_disabled":false,"rental_uris":{"android":"levelo://app?vid=39123702-dec4-4474-a883-ae94add34ecf","ios":"levelo://app?vid=39123702-dec4-4474-a883-ae94add34ecf"},"vehicle_type_id":"4","last_reported":1745147234,"current_range_meters":7200,"station_id":"ce4bhlp2rcd13ifvqgjg","pricing_plan_id":"cebpf4jnsgd1na2vs0mg"},{"bike_id":"ccfda6ac-763e-44a3-8e33-8e3d3594406b","system_id":"levelo_inurba_marseille","lat":43.30188,"lon":5.385481,"is_reserved":false,"is_disabled":false,"rental_uris":{"android":"levelo://app?vid=ccfda6ac-763e-44a3-8e33-8e3d3594406b","ios":"levelo://app?vid=ccfda6ac-763e-44a3-8e33-8e3d3594406b"},"vehicle_type_id":"4","last_reported":1745147234,"current_range_meters":6800,"station_id":"ce4bgt92rcd13ifvqcf0","pricing_plan_id":"cebpf4jnsgd1na2vs0mg"},{"bike_id":"c7e43e83-5e61-44ac-83b9-193171085a8e","system_id":"levelo_inurba_marseille","lat":43.23151,"lon":5.43704,"is_reserved":false,"is_disabled":false,"rental_uris":{"android":"levelo://app?vid=c7e43e83-5e61-44ac-83b9-193171085a8e","ios":"levelo://app?vid=c7e43e83-5e61-44ac-83b9-193171085a8e"},"vehicle_type_id":"4","last_reported":1745147234,"current_range_meters":7200,"station_id":"ce4bhmp2rcd13ifvqgog","pricing_plan_id":"cebpf4jnsgd1na2vs0mg"},{"bike_id":"186380b9-3dab-457b-b648-71d123fa0368","system_id":"levelo_inurba_marseille","lat":43.25148,"lon":5.40312,"is_reserved":false,"is_disabled":true,"rental_uris":{"android":"levelo://app?vid=186380b9-3dab-457b-b648-71d123fa0368","ios":"levelo://app?vid=186380b9-3dab-457b-b648-71d123fa0368"},"vehicle_type_id":"4","last_reported":1745147234,"current_range_meters":7200,"station_id":"","pricing_plan_id":"cebpf4jnsgd1na2vs0mg"},{"bike_id":"d2ba4413-c35f-41b1-8baf-f83e6001a359","system_id":"levelo_inurba_marseille","lat":43.29024,"lon":5.3864,"is_reserved":false,"is_disabled":true,"rental_uris":{"android":"levelo://app?vid=d2ba4413-c35f-41b1-8baf-f83e6001a359","ios":"levelo://app?vid=d2ba4413-c35f-41b1-8baf-f83e6001a359"},"vehicle_type_id":"4","last_reported":1745147234,"current_range_meters":7200,"station_id":"ce4bh4p2rcd13ifvqe0g","pricing_plan_id":"cebpf4jnsgd1na2vs0mg"},{"bike_id":"4f7d7a48-9ed4-49ae-98c3-6d5ae3d0a41a","system_id":"levelo_inurba_marseille","lat":43.229149,"lon":5.353924,"is_reserved":false,"is_disabled":false,"rental_uris":{"android":"levelo://app?vid=4f7d7a48-9ed4-49ae-98c3-6d5ae3d0a41a","ios":"levelo://app?vid=4f7d7a48-9ed4-49ae-98c3-6d5ae3d0a41a"},"vehicle_type_id":"4","last_reported":1745147234,"current_range_meters":7200,"station_id":"cpo3532slgdg3j2ikp40","pricing_plan_id":"cebpf4jnsgd1na2vs0mg"},{"bike_id":"a969d1ed-77d3-4189-b5a7-0bf8cf90d349","system_id":"levelo_inurba_marseille","lat":43.231895,"lon":5.355565,"is_reserved":false,"is_disabled":false,"rental_uris":{"android":"levelo://app?vid=a969d1ed-77d3-4189-b5a7-0bf8cf90d349","ios":"levelo://app?vid=a969d1ed-77d3-4189-b5a7-0bf8cf90d349"},"vehicle_type_id":"4","last_reported":1745147234,"current_range_meters":7200,"station_id":"ce4bhu92rcd13ifvqi70","pricing_plan_id":"cebpf4jnsgd1na2vs0mg"},{"bike_id":"6c30e091-3528-44fd-8a69-703e2e6ecfc4","system_id":"levelo_inurba_marseille","lat":43.2396,"lon":5.36625,"is_reserved":false,"is_disabled":false,"rental_uris":{"android":"levelo://app?vid=6c30e091-3528-44fd-8a69-703e2e6ecfc4","ios":"levelo://app?vid=6c30e091-3528-44fd-8a69-703e2e6ecfc4"},"vehicle_type_id":"4","last_reported":1745147234,"current_range_meters":8000,"station_id":"ce4bhi12rcd13ifvqfp0","pricing_plan_id":"cebpf4jnsgd1na2vs0mg"},{"bike_id":"31eda270-0c06-4cc8-af38-a0614af7e724","system_id":"levelo_inurba_marseille","lat":43.21743,"lon":5.34601,"is_reserved":false,"is_disabled":false,"rental_uris":{"android":"levelo://app?vid=31eda270-0c06-4cc8-af38-a0614af7e724","ios":"levelo://app?vid=31eda270-0c06-4cc8-af38-a0614af7e724"},"vehicle_type_id":"4","last_reported":1745147234,"current_range_meters":8000,"station_id":"st_cvj6r9ubvosntc0bgbag","pricing_plan_id":"cebpf4jnsgd1na2vs0mg"},{"bike_id":"29de76c4-afbd-4722-aedb-650b333ae9d8","system_id":"levelo_inurba_marseille","lat":43.27946,"lon":5.41039,"is_reserved":false,"is_disabled":false,"rental_uris":{"android":"levelo://app?vid=29de76c4-afbd-4722-aedb-650b333ae9d8","ios":"levelo://app?vid=29de76c4-afbd-4722-aedb-650b333ae9d8"},"vehicle_type_id":"4","last_reported":1745147234,"current_range_meters":8000,"station_id":"ce4bhnp2rcd13ifvqh0g","pricing_plan_id":"cebpf4jnsgd1na2vs0mg"},{"bike_id":"6de72d97-5e83-4221-aca1-0289322a6720","system_id":"levelo_inurba_marseille","lat":43.21747,"lon":5.34602,"is_reserved":false,"is_disabled":false,"rental_uris":{"android":"levelo://app?vid=6de72d97-5e83-4221-aca1-0289322a6720","ios":"levelo://app?vid=6de72d97-5e83-4221-aca1-0289322a6720"},"vehicle_type_id":"4","last_reported":1745147234,"current_range_meters":8000,"station_id":"st_cvj6r9ubvosntc0bgbag","pricing_plan_id":"cebpf4jnsgd1na2vs0mg"},{"bike_id":"967fc5c2-2d8c-40dc-b0d8-39b0debd9469","system_id":"levelo_inurba_marseille","lat":43.23066,"lon":5.35488,"is_reserved":false,"is_disabled":false,"rental_uris":{"android":"levelo://app?vid=967fc5c2-2d8c-40dc-b0d8-39b0debd9469","ios":"levelo://app?vid=967fc5c2-2d8c-40dc-b0d8-39b0debd9469"},"vehicle_type_id":"4","last_reported":1745147234,"current_range_meters":8000,"station_id":"cpo3342slgdg3j2ifvpg","pricing_plan_id":"cebpf4jnsgd1na2vs0mg"},{"bike_id":"3ea386b7-c4da-4644-8d36-8fabfa2d7c9f","system_id":"levelo_inurba_marseille","lat":43.21204,"lon":5.35068,"is_reserved":false,"is_disabled":false,"rental_uris":{"android":"levelo://app?vid=3ea386b7-c4da-4644-8d36-8fabfa2d7c9f","ios":"levelo://app?vid=3ea386b7-c4da-4644-8d36-8fabfa2d7c9f"},"vehicle_type_id":"4","last_reported":1745147234,"current_range_meters":8000,"station_id":"st_cvj6sg6p6f1abm77japg","pricing_plan_id":"cebpf4jnsgd1na2vs0mg"},{"bike_id":"5f0b8fc2-0bd8-4294-a80d-0d4813ff94fe","system_id":"levelo_inurba_marseille","lat":43.312042,"lon":5.368804,"is_reserved":false,"is_disabled":false,"rental_uris":{"android":"levelo://app?vid=5f0b8fc2-0bd8-4294-a80d-0d4813ff94fe","ios":"levelo://app?vid=5f0b8fc2-0bd8-4294-a80d-0d4813ff94fe"},"vehicle_type_id":"4","last_reported":1745147234,"current_range_meters":8000,"station_id":"ce4bgl92rcd13ifvqbq0","pricing_plan_id":"cebpf4jnsgd1na2vs0mg"},{"bike_id":"f8266a8e-1bd9-4182-b247-939bdafbb72c","system_id":"levelo_inurba_marseille","lat":43.30462,"lon":5.37899,"is_reserved":false,"is_disabled":true,"rental_uris":{"android":"levelo://app?vid=f8266a8e-1bd9-4182-b247-939bdafbb72c","ios":"levelo://app?vid=f8266a8e-1bd9-4182-b247-939bdafbb72c"},"vehicle_type_id":"4","last_reported":1745147234,"current_range_meters":8000,"station_id":"ce4bgup2rcd13ifvqcn0","pricing_plan_id":"cebpf4jnsgd1na2vs0mg"},{"bike_id":"1965f819-3778-4654-96e5-aaaf9c36cc08","system_id":"levelo_inurba_marseille","lat":43.30371,"lon":5.42469,"is_reserved":false,"is_disabled":false,"rental_uris":{"android":"levelo://app?vid=1965f819-3778-4654-96e5-aaaf9c36cc08","ios":"levelo://app?vid=1965f819-3778-4654-96e5-aaaf9c36cc08"},"vehicle_type_id":"4","last_reported":1745147234,"current_range_meters":8000,"station_id":"ce4bhoh2rcd13ifvqh6g","pricing_plan_id":"cebpf4jnsgd1na2vs0mg"},{"bike_id":"8a45211d-408b-43cb-ae76-f907d90fcf58","system_id":"levelo_inurba_marseille","lat":43.33678,"lon":5.39137,"is_reserved":false,"is_disabled":false,"rental_uris":{"android":"levelo://app?vid=8a45211d-408b-43cb-ae76-f907d90fcf58","ios":"levelo://app?vid=8a45211d-408b-43cb-ae76-f907d90fcf58"},"vehicle_type_id":"4","last_reported":1745147234,"current_range_meters":8000,"station_id":"ce4bhr92rcd13ifvqhsg","pricing_plan_id":"cebpf4jnsgd1na2vs0mg"},{"bike_id":"6019b3a9-be6c-4063-92bb-dfdce576086f","system_id":"levelo_inurba_marseille","lat":43.23062,"lon":5.35496,"is_reserved":false,"is_disabled":false,"rental_uris":{"android":"levelo://app?vid=6019b3a9-be6c-4063-92bb-dfdce576086f","ios":"levelo://app?vid=6019b3a9-be6c-4063-92bb-dfdce576086f"},"vehicle_type_id":"4","last_reported":1745147234,"current_range_meters":8000,"station_id":"cpo3342slgdg3j2ifvpg","pricing_plan_id":"cebpf4jnsgd1na2vs0mg"},{"bike_id":"931800f0-f5ae-42dc-9401-5ef75e1edc12","system_id":"levelo_inurba_marseille","lat":43.27378,"lon":5.41405,"is_reserved":false,"is_disabled":false,"rental_uris":{"android":"levelo://app?vid=931800f0-f5ae-42dc-9401-5ef75e1edc12","ios":"levelo://app?vid=931800f0-f5ae-42dc-9401-5ef75e1edc12"},"vehicle_type_id":"4","last_reported":1745147234,"current_range_meters":8000,"station_id":"","pricing_plan_id":"cebpf4jnsgd1na2vs0mg"},{"bike_id":"954c0ac0-1f5a-4f75-9237-6b98acc0aa2a","system_id":"levelo_inurba_marseille","lat":43.22923,"lon":5.35378,"is_reserved":false,"is_disabled":false,"rental_uris":{"android":"levelo://app?vid=954c0ac0-1f5a-4f75-9237-6b98acc0aa2a","ios":"levelo://app?vid=954c0ac0-1f5a-4f75-9237-6b98acc0aa2a"},"vehicle_type_id":"4","last_reported":1745147234,"current_range_meters":8000,"station_id":"cpo3532slgdg3j2ikp40","pricing_plan_id":"cebpf4jnsgd1na2vs0mg"},{"bike_id":"e970a77c-97b4-4b75-8155-7044bacc8b02","system_id":"levelo_inurba_marseille","lat":43.25115,"lon":5.40335,"is_reserved":false,"is_disabled":false,"rental_uris":{"android":"levelo://app?vid=e970a77c-97b4-4b75-8155-7044bacc8b02","ios":"levelo://app?vid=e970a77c-97b4-4b75-8155-7044bacc8b02"},"vehicle_type_id":"4","last_reported":1745147234,"current_range_meters":8400,"station_id":"ce4bhlh2rcd13ifvqgig","pricing_plan_id":"cebpf4jnsgd1na2vs0mg"},{"bike_id":"72c83448-233b-4488-ac03-14a671589ec6","system_id":"levelo_inurba_marseille","lat":43.26027,"lon":5.3755,"is_reserved":false,"is_disabled":false,"rental_uris":{"android":"levelo://app?vid=72c83448-233b-4488-ac03-14a671589ec6","ios":"levelo://app?vid=72c83448-233b-4488-ac03-14a671589ec6"},"vehicle_type_id":"4","last_reported":1745147234,"current_range_meters":8400,"station_id":"ce4bhgh2rcd13ifvqfa0","pricing_plan_id":"cebpf4jnsgd1na2vs0mg"},{"bike_id":"f3fbd906-ecad-4933-a3f2-c2d755275e4a","system_id":"levelo_inurba_marseille","lat":43.21742,"lon":5.34595,"is_reserved":false,"is_disabled":false,"rental_uris":{"android":"levelo://app?vid=f3fbd906-ecad-4933-a3f2-c2d755275e4a","ios":"levelo://app?vid=f3fbd906-ecad-4933-a3f2-c2d755275e4a"},"vehicle_type_id":"4","last_reported":1745147234,"current_range_meters":8400,"station_id":"st_cvj6r9ubvosntc0bgbag","pricing_plan_id":"cebpf4jnsgd1na2vs0mg"},{"bike_id":"6b2a2f68-fd74-4a24-a495-23dd8d3467f4","system_id":"levelo_inurba_marseille","lat":43.21191,"lon":5.35071,"is_reserved":false,"is_disabled":false,"rental_uris":{"android":"levelo://app?vid=6b2a2f68-fd74-4a24-a495-23dd8d3467f4","ios":"levelo://app?vid=6b2a2f68-fd74-4a24-a495-23dd8d3467f4"},"vehicle_type_id":"4","last_reported":1745147234,"current_range_meters":8400,"station_id":"st_cvj6sg6p6f1abm77japg","pricing_plan_id":"cebpf4jnsgd1na2vs0mg"},{"bike_id":"9ce10852-73d3-427b-a9ae-8e0bb8007a1b","system_id":"levelo_inurba_marseille","lat":43.29792,"lon":5.38114,"is_reserved":false,"is_disabled":false,"rental_uris":{"android":"levelo://app?vid=9ce10852-73d3-427b-a9ae-8e0bb8007a1b","ios":"levelo://app?vid=9ce10852-73d3-427b-a9ae-8e0bb8007a1b"},"vehicle_type_id":"4","last_reported":1745147234,"current_range_meters":8800,"station_id":"ce4bgip2rcd13ifvqbb0","pricing_plan_id":"cebpf4jnsgd1na2vs0mg"},{"bike_id":"b2a595fc-5379-4d89-87b7-218a08b1c100","system_id":"levelo_inurba_marseille","lat":43.21185,"lon":5.35077,"is_reserved":false,"is_disabled":false,"rental_uris":{"android":"levelo://app?vid=b2a595fc-5379-4d89-87b7-218a08b1c100","ios":"levelo://app?vid=b2a595fc-5379-4d89-87b7-218a08b1c100"},"vehicle_type_id":"4","last_reported":1745147234,"current_range_meters":8400,"station_id":"st_cvj6sg6p6f1abm77japg","pricing_plan_id":"cebpf4jnsgd1na2vs0mg"},{"bike_id":"06d20799-fe4e-4e2c-aa01-a6a09b9e4c30","system_id":"levelo_inurba_marseille","lat":43.25117,"lon":5.40308,"is_reserved":false,"is_disabled":false,"rental_uris":{"android":"levelo://app?vid=06d20799-fe4e-4e2c-aa01-a6a09b9e4c30","ios":"levelo://app?vid=06d20799-fe4e-4e2c-aa01-a6a09b9e4c30"},"vehicle_type_id":"4","last_reported":1745147234,"current_range_meters":8400,"station_id":"ce4bhlh2rcd13ifvqgig","pricing_plan_id":"cebpf4jnsgd1na2vs0mg"},{"bike_id":"bceca376-b320-4023-9d3c-27333a171d6e","system_id":"levelo_inurba_marseille","lat":43.31701,"lon":5.37739,"is_reserved":false,"is_disabled":false,"rental_uris":{"android":"levelo://app?vid=bceca376-b320-4023-9d3c-27333a171d6e","ios":"levelo://app?vid=bceca376-b320-4023-9d3c-27333a171d6e"},"vehicle_type_id":"4","last_reported":1745147234,"current_range_meters":8400,"station_id":"ce4bgth2rcd13ifvqch0","pricing_plan_id":"cebpf4jnsgd1na2vs0mg"},{"bike_id":"ab9be9a2-b412-4e12-b774-0ac14e1c75f2","system_id":"levelo_inurba_marseille","lat":43.23201,"lon":5.35548,"is_reserved":false,"is_disabled":false,"rental_uris":{"android":"levelo://app?vid=ab9be9a2-b412-4e12-b774-0ac14e1c75f2","ios":"levelo://app?vid=ab9be9a2-b412-4e12-b774-0ac14e1c75f2"},"vehicle_type_id":"4","last_reported":1745147234,"current_range_meters":8800,"station_id":"ce4bhu92rcd13ifvqi70","pricing_plan_id":"cebpf4jnsgd1na2vs0mg"},{"bike_id":"fc498e00-4f93-4af5-9192-8601160ee2f2","system_id":"levelo_inurba_marseille","lat":43.21749,"lon":5.34602,"is_reserved":false,"is_disabled":false,"rental_uris":{"android":"levelo://app?vid=fc498e00-4f93-4af5-9192-8601160ee2f2","ios":"levelo://app?vid=fc498e00-4f93-4af5-9192-8601160ee2f2"},"vehicle_type_id":"4","last_reported":1745147234,"current_range_meters":8800,"station_id":"st_cvj6r9ubvosntc0bgbag","pricing_plan_id":"cebpf4jnsgd1na2vs0mg"},{"bike_id":"f0b6af0d-1cbf-47a3-af07-dab09fabbbf0","system_id":"levelo_inurba_marseille","lat":43.23194,"lon":5.35559,"is_reserved":false,"is_disabled":false,"rental_uris":{"android":"levelo://app?vid=f0b6af0d-1cbf-47a3-af07-dab09fabbbf0","ios":"levelo://app?vid=f0b6af0d-1cbf-47a3-af07-dab09fabbbf0"},"vehicle_type_id":"4","last_reported":1745147234,"current_range_meters":8800,"station_id":"ce4bhu92rcd13ifvqi70","pricing_plan_id":"cebpf4jnsgd1na2vs0mg"},{"bike_id":"58a86d93-d682-412a-acc9-83b24b69b362","system_id":"levelo_inurba_marseille","lat":43.30995,"lon":5.38237,"is_reserved":false,"is_disabled":false,"rental_uris":{"android":"levelo://app?vid=58a86d93-d682-412a-acc9-83b24b69b362","ios":"levelo://app?vid=58a86d93-d682-412a-acc9-83b24b69b362"},"vehicle_type_id":"4","last_reported":1745147234,"current_range_meters":8800,"station_id":"","pricing_plan_id":"cebpf4jnsgd1na2vs0mg"},{"bike_id":"138d6608-886e-4863-a664-7df6e5cc9a47","system_id":"levelo_inurba_marseille","lat":43.3265,"lon":5.42179,"is_reserved":false,"is_disabled":false,"rental_uris":{"android":"levelo://app?vid=138d6608-886e-4863-a664-7df6e5cc9a47","ios":"levelo://app?vid=138d6608-886e-4863-a664-7df6e5cc9a47"},"vehicle_type_id":"4","last_reported":1745147234,"current_range_meters":8800,"station_id":"","pricing_plan_id":"cebpf4jnsgd1na2vs0mg"},{"bike_id":"97e50bb0-9a70-481b-b370-e509345e710a","system_id":"levelo_inurba_marseille","lat":43.28034,"lon":5.36943,"is_reserved":false,"is_disabled":true,"rental_uris":{"android":"levelo://app?vid=97e50bb0-9a70-481b-b370-e509345e710a","ios":"levelo://app?vid=97e50bb0-9a70-481b-b370-e509345e710a"},"vehicle_type_id":"4","last_reported":1745147234,"current_range_meters":9200,"station_id":"ce4bha12rcd13ifvqef0","pricing_plan_id":"cebpf4jnsgd1na2vs0mg"},{"bike_id":"a22bb51d-efdb-45db-b265-a23e7975af7d","system_id":"levelo_inurba_marseille","lat":43.24668,"lon":5.3815,"is_reserved":false,"is_disabled":false,"rental_uris":{"android":"levelo://app?vid=a22bb51d-efdb-45db-b265-a23e7975af7d","ios":"levelo://app?vid=a22bb51d-efdb-45db-b265-a23e7975af7d"},"vehicle_type_id":"4","last_reported":1745147234,"current_range_meters":9200,"station_id":"ce4bhih2rcd13ifvqfr0","pricing_plan_id":"cebpf4jnsgd1na2vs0mg"},{"bike_id":"99c7c242-ac1a-45ba-b662-0fb4b63d011e","system_id":"levelo_inurba_marseille","lat":43.28421,"lon":5.34988,"is_reserved":false,"is_disabled":false,"rental_uris":{"android":"levelo://app?vid=99c7c242-ac1a-45ba-b662-0fb4b63d011e","ios":"levelo://app?vid=99c7c242-ac1a-45ba-b662-0fb4b63d011e"},"vehicle_type_id":"4","last_reported":1745147234,"current_range_meters":9200,"station_id":"ce4bhbh2rcd13ifvqepg","pricing_plan_id":"cebpf4jnsgd1na2vs0mg"},{"bike_id":"7f545bbc-a0a7-4368-8a07-6a6863048111","system_id":"levelo_inurba_marseille","lat":43.2294,"lon":5.35372,"is_reserved":false,"is_disabled":false,"rental_uris":{"android":"levelo://app?vid=7f545bbc-a0a7-4368-8a07-6a6863048111","ios":"levelo://app?vid=7f545bbc-a0a7-4368-8a07-6a6863048111"},"vehicle_type_id":"4","last_reported":1745147234,"current_range_meters":9200,"station_id":"cpo3532slgdg3j2ikp40","pricing_plan_id":"cebpf4jnsgd1na2vs0mg"},{"bike_id":"38b80731-064d-4891-8eb9-14d3f68a11f2","system_id":"levelo_inurba_marseille","lat":43.28155,"lon":5.42643,"is_reserved":false,"is_disabled":false,"rental_uris":{"android":"levelo://app?vid=38b80731-064d-4891-8eb9-14d3f68a11f2","ios":"levelo://app?vid=38b80731-064d-4891-8eb9-14d3f68a11f2"},"vehicle_type_id":"4","last_reported":1745147234,"current_range_meters":9200,"station_id":"ce4bhnh2rcd13ifvqgug","pricing_plan_id":"cebpf4jnsgd1na2vs0mg"},{"bike_id":"f36c50e9-99a2-48ac-ba24-bbee1a1c2a9b","system_id":"levelo_inurba_marseille","lat":43.23177,"lon":5.39987,"is_reserved":false,"is_disabled":false,"rental_uris":{"android":"levelo://app?vid=f36c50e9-99a2-48ac-ba24-bbee1a1c2a9b","ios":"levelo://app?vid=f36c50e9-99a2-48ac-ba24-bbee1a1c2a9b"},"vehicle_type_id":"4","last_reported":1745147234,"current_range_meters":9200,"station_id":"ce4bhn12rcd13ifvqgqg","pricing_plan_id":"cebpf4jnsgd1na2vs0mg"},{"bike_id":"6565ca44-2e63-4f42-a847-09fa2bdb37f3","system_id":"levelo_inurba_marseille","lat":43.32001,"lon":5.38155,"is_reserved":false,"is_disabled":true,"rental_uris":{"android":"levelo://app?vid=6565ca44-2e63-4f42-a847-09fa2bdb37f3","ios":"levelo://app?vid=6565ca44-2e63-4f42-a847-09fa2bdb37f3"},"vehicle_type_id":"4","last_reported":1745147234,"current_range_meters":9200,"station_id":"ce4bhr12rcd13ifvqhpg","pricing_plan_id":"cebpf4jnsgd1na2vs0mg"},{"bike_id":"44fed244-f31b-45be-84ce-748891659821","system_id":"levelo_inurba_marseille","lat":43.21183,"lon":5.35097,"is_reserved":false,"is_disabled":false,"rental_uris":{"android":"levelo://app?vid=44fed244-f31b-45be-84ce-748891659821","ios":"levelo://app?vid=44fed244-f31b-45be-84ce-748891659821"},"vehicle_type_id":"4","last_reported":1745147234,"current_range_meters":9200,"station_id":"st_cvj6sg6p6f1abm77japg","pricing_plan_id":"cebpf4jnsgd1na2vs0mg"},{"bike_id":"a22db09a-240e-40e4-acbb-1c68666bfc1f","system_id":"levelo_inurba_marseille","lat":43.25111,"lon":5.40329,"is_reserved":false,"is_disabled":false,"rental_uris":{"android":"levelo://app?vid=a22db09a-240e-40e4-acbb-1c68666bfc1f","ios":"levelo://app?vid=a22db09a-240e-40e4-acbb-1c68666bfc1f"},"vehicle_type_id":"4","last_reported":1745147234,"current_range_meters":9200,"station_id":"ce4bhlh2rcd13ifvqgig","pricing_plan_id":"cebpf4jnsgd1na2vs0mg"},{"bike_id":"13f3fb34-9413-413f-89a9-b1ef385d22f2","system_id":"levelo_inurba_marseille","lat":43.2397,"lon":5.36609,"is_reserved":false,"is_disabled":false,"rental_uris":{"android":"levelo://app?vid=13f3fb34-9413-413f-89a9-b1ef385d22f2","ios":"levelo://app?vid=13f3fb34-9413-413f-89a9-b1ef385d22f2"},"vehicle_type_id":"4","last_reported":1745147234,"current_range_meters":9200,"station_id":"ce4bhi12rcd13ifvqfp0","pricing_plan_id":"cebpf4jnsgd1na2vs0mg"},{"bike_id":"386c0466-92a0-4b14-84ad-ceae0ada9e40","system_id":"levelo_inurba_marseille","lat":43.30912,"lon":5.36846,"is_reserved":false,"is_disabled":true,"rental_uris":{"android":"levelo://app?vid=386c0466-92a0-4b14-84ad-ceae0ada9e40","ios":"levelo://app?vid=386c0466-92a0-4b14-84ad-ceae0ada9e40"},"vehicle_type_id":"4","last_reported":1745147234,"current_range_meters":9600,"station_id":"ce4bgn92rcd13ifvqbvg","pricing_plan_id":"cebpf4jnsgd1na2vs0mg"},{"bike_id":"9275b191-6c84-411d-a8e4-4a109f0ddff8","system_id":"levelo_inurba_marseille","lat":43.2848,"lon":5.38422,"is_reserved":false,"is_disabled":false,"rental_uris":{"android":"levelo://app?vid=9275b191-6c84-411d-a8e4-4a109f0ddff8","ios":"levelo://app?vid=9275b191-6c84-411d-a8e4-4a109f0ddff8"},"vehicle_type_id":"4","last_reported":1745147234,"current_range_meters":9600,"station_id":"ce4bh512rcd13ifvqe3g","pricing_plan_id":"cebpf4jnsgd1na2vs0mg"},{"bike_id":"24213b37-b766-4d9c-a174-f6bf34920497","system_id":"levelo_inurba_marseille","lat":43.28469,"lon":5.384178,"is_reserved":false,"is_disabled":false,"rental_uris":{"android":"levelo://app?vid=24213b37-b766-4d9c-a174-f6bf34920497","ios":"levelo://app?vid=24213b37-b766-4d9c-a174-f6bf34920497"},"vehicle_type_id":"4","last_reported":1745147234,"current_range_meters":9600,"station_id":"ce4bh512rcd13ifvqe3g","pricing_plan_id":"cebpf4jnsgd1na2vs0mg"},{"bike_id":"162d509a-66e8-45b1-9b92-6d4a7c462a56","system_id":"levelo_inurba_marseille","lat":43.26192,"lon":5.37448,"is_reserved":false,"is_disabled":false,"rental_uris":{"android":"levelo://app?vid=162d509a-66e8-45b1-9b92-6d4a7c462a56","ios":"levelo://app?vid=162d509a-66e8-45b1-9b92-6d4a7c462a56"},"vehicle_type_id":"4","last_reported":1745147234,"current_range_meters":9600,"station_id":"ce4bhgp2rcd13ifvqfc0","pricing_plan_id":"cebpf4jnsgd1na2vs0mg"},{"bike_id":"ee77508c-6f9d-400c-9442-6494c8451c48","system_id":"levelo_inurba_marseille","lat":43.25115,"lon":5.40318,"is_reserved":false,"is_disabled":false,"rental_uris":{"android":"levelo://app?vid=ee77508c-6f9d-400c-9442-6494c8451c48","ios":"levelo://app?vid=ee77508c-6f9d-400c-9442-6494c8451c48"},"vehicle_type_id":"4","last_reported":1745147234,"current_range_meters":9600,"station_id":"ce4bhlh2rcd13ifvqgig","pricing_plan_id":"cebpf4jnsgd1na2vs0mg"},{"bike_id":"b1152bdd-9488-4dae-9240-f91fe8655feb","system_id":"levelo_inurba_marseille","lat":43.25487,"lon":5.37644,"is_reserved":false,"is_disabled":false,"rental_uris":{"android":"levelo://app?vid=b1152bdd-9488-4dae-9240-f91fe8655feb","ios":"levelo://app?vid=b1152bdd-9488-4dae-9240-f91fe8655feb"},"vehicle_type_id":"4","last_reported":1745147234,"current_range_meters":9600,"station_id":"ce4bhh12rcd13ifvqff0","pricing_plan_id":"cebpf4jnsgd1na2vs0mg"},{"bike_id":"00879c1d-a962-4133-ba5d-8de0f524e6f5","system_id":"levelo_inurba_marseille","lat":43.27491,"lon":5.42472,"is_reserved":false,"is_disabled":false,"rental_uris":{"android":"levelo://app?vid=00879c1d-a962-4133-ba5d-8de0f524e6f5","ios":"levelo://app?vid=00879c1d-a962-4133-ba5d-8de0f524e6f5"},"vehicle_type_id":"4","last_reported":1745147234,"current_range_meters":9600,"station_id":"ce4bhn92rcd13ifvqgrg","pricing_plan_id":"cebpf4jnsgd1na2vs0mg"},{"bike_id":"63ba8a6e-e947-47bd-960d-8e95a600c26e","system_id":"levelo_inurba_marseille","lat":43.21194,"lon":5.35077,"is_reserved":false,"is_disabled":false,"rental_uris":{"android":"levelo://app?vid=63ba8a6e-e947-47bd-960d-8e95a600c26e","ios":"levelo://app?vid=63ba8a6e-e947-47bd-960d-8e95a600c26e"},"vehicle_type_id":"4","last_reported":1745147234,"current_range_meters":9600,"station_id":"st_cvj6sg6p6f1abm77japg","pricing_plan_id":"cebpf4jnsgd1na2vs0mg"},{"bike_id":"d0395819-ea40-46d3-acfe-3a01d6c396c0","system_id":"levelo_inurba_marseille","lat":43.23185,"lon":5.39991,"is_reserved":false,"is_disabled":true,"rental_uris":{"android":"levelo://app?vid=d0395819-ea40-46d3-acfe-3a01d6c396c0","ios":"levelo://app?vid=d0395819-ea40-46d3-acfe-3a01d6c396c0"},"vehicle_type_id":"4","last_reported":1745147234,"current_range_meters":9600,"station_id":"ce4bhn12rcd13ifvqgqg","pricing_plan_id":"cebpf4jnsgd1na2vs0mg"},{"bike_id":"bd3afca0-6bff-4714-94e2-33133b2ddb99","system_id":"levelo_inurba_marseille","lat":43.24671,"lon":5.38877,"is_reserved":false,"is_disabled":false,"rental_uris":{"android":"levelo://app?vid=bd3afca0-6bff-4714-94e2-33133b2ddb99","ios":"levelo://app?vid=bd3afca0-6bff-4714-94e2-33133b2ddb99"},"vehicle_type_id":"4","last_reported":1745147234,"current_range_meters":10000,"station_id":"ce4bhg12rcd13ifvqf60","pricing_plan_id":"cebpf4jnsgd1na2vs0mg"},{"bike_id":"97ae631a-543e-47dd-8cff-8b1c7f44c255","system_id":"levelo_inurba_marseille","lat":43.262,"lon":5.3793,"is_reserved":false,"is_disabled":false,"rental_uris":{"android":"levelo://app?vid=97ae631a-543e-47dd-8cff-8b1c7f44c255","ios":"levelo://app?vid=97ae631a-543e-47dd-8cff-8b1c7f44c255"},"vehicle_type_id":"4","last_reported":1745147234,"current_range_meters":10000,"station_id":"ce4bhjp2rcd13ifvqg90","pricing_plan_id":"cebpf4jnsgd1na2vs0mg"},{"bike_id":"4e6892ef-dbe3-43e4-bc69-b2da5d802c90","system_id":"levelo_inurba_marseille","lat":43.273828,"lon":5.362536,"is_reserved":false,"is_disabled":true,"rental_uris":{"android":"levelo://app?vid=4e6892ef-dbe3-43e4-bc69-b2da5d802c90","ios":"levelo://app?vid=4e6892ef-dbe3-43e4-bc69-b2da5d802c90"},"vehicle_type_id":"4","last_reported":1745147234,"current_range_meters":10000,"station_id":"ce4bhbh2rcd13ifvqeo0","pricing_plan_id":"cebpf4jnsgd1na2vs0mg"},{"bike_id":"c6eb518d-f8e2-4c5c-8098-b5d751548fcd","system_id":"levelo_inurba_marseille","lat":43.25932,"lon":5.40911,"is_reserved":false,"is_disabled":false,"rental_uris":{"android":"levelo://app?vid=c6eb518d-f8e2-4c5c-8098-b5d751548fcd","ios":"levelo://app?vid=c6eb518d-f8e2-4c5c-8098-b5d751548fcd"},"vehicle_type_id":"4","last_reported":1745147234,"current_range_meters":10000,"station_id":"ce4bhm92rcd13ifvqglg","pricing_plan_id":"cebpf4jnsgd1na2vs0mg"},{"bike_id":"527fac75-0783-4b2c-bd4e-07f2f2fee902","system_id":"levelo_inurba_marseille","lat":43.31123,"lon":5.37795,"is_reserved":false,"is_disabled":true,"rental_uris":{"android":"levelo://app?vid=527fac75-0783-4b2c-bd4e-07f2f2fee902","ios":"levelo://app?vid=527fac75-0783-4b2c-bd4e-07f2f2fee902"},"vehicle_type_id":"4","last_reported":1745147234,"current_range_meters":10000,"station_id":"ce4bgt92rcd13ifvqcg0","pricing_plan_id":"cebpf4jnsgd1na2vs0mg"},{"bike_id":"1b64a06c-8c3f-4044-b435-0c5447524fd5","system_id":"levelo_inurba_marseille","lat":43.28714,"lon":5.37403,"is_reserved":false,"is_disabled":true,"rental_uris":{"android":"levelo://app?vid=1b64a06c-8c3f-4044-b435-0c5447524fd5","ios":"levelo://app?vid=1b64a06c-8c3f-4044-b435-0c5447524fd5"},"vehicle_type_id":"4","last_reported":1745147234,"current_range_meters":10000,"station_id":"ce4bh3p2rcd13ifvqdq0","pricing_plan_id":"cebpf4jnsgd1na2vs0mg"},{"bike_id":"05b3d330-0c2d-464f-925c-8f172d906042","system_id":"levelo_inurba_marseille","lat":43.26215,"lon":5.37441,"is_reserved":false,"is_disabled":false,"rental_uris":{"android":"levelo://app?vid=05b3d330-0c2d-464f-925c-8f172d906042","ios":"levelo://app?vid=05b3d330-0c2d-464f-925c-8f172d906042"},"vehicle_type_id":"4","last_reported":1745147234,"current_range_meters":10000,"station_id":"ce4bhgp2rcd13ifvqfc0","pricing_plan_id":"cebpf4jnsgd1na2vs0mg"},{"bike_id":"dd2d78fc-82c0-4e3f-aabd-8f1e0ed834fd","system_id":"levelo_inurba_marseille","lat":43.21201,"lon":5.35061,"is_reserved":false,"is_disabled":false,"rental_uris":{"android":"levelo://app?vid=dd2d78fc-82c0-4e3f-aabd-8f1e0ed834fd","ios":"levelo://app?vid=dd2d78fc-82c0-4e3f-aabd-8f1e0ed834fd"},"vehicle_type_id":"4","last_reported":1745147234,"current_range_meters":10000,"station_id":"st_cvj6sg6p6f1abm77japg","pricing_plan_id":"cebpf4jnsgd1na2vs0mg"},{"bike_id":"70b6b29a-6d83-460b-bd27-e86a3209e93e","system_id":"levelo_inurba_marseille","lat":43.26548,"lon":5.37286,"is_reserved":false,"is_disabled":false,"rental_uris":{"android":"levelo://app?vid=70b6b29a-6d83-460b-bd27-e86a3209e93e","ios":"levelo://app?vid=70b6b29a-6d83-460b-bd27-e86a3209e93e"},"vehicle_type_id":"4","last_reported":1745147234,"current_range_meters":10000,"station_id":"ce4bhg12rcd13ifvqf70","pricing_plan_id":"cebpf4jnsgd1na2vs0mg"},{"bike_id":"cd91cec6-ee9c-4b56-8738-0a5d20ae36e8","system_id":"levelo_inurba_marseille","lat":43.24388,"lon":5.37061,"is_reserved":false,"is_disabled":false,"rental_uris":{"android":"levelo://app?vid=cd91cec6-ee9c-4b56-8738-0a5d20ae36e8","ios":"levelo://app?vid=cd91cec6-ee9c-4b56-8738-0a5d20ae36e8"},"vehicle_type_id":"4","last_reported":1745147234,"current_range_meters":10000,"station_id":"ce4bhhh2rcd13ifvqfk0","pricing_plan_id":"cebpf4jnsgd1na2vs0mg"},{"bike_id":"24faed42-179b-4a3b-9e0a-7cb750512a5b","system_id":"levelo_inurba_marseille","lat":43.21761,"lon":5.34598,"is_reserved":false,"is_disabled":false,"rental_uris":{"android":"levelo://app?vid=24faed42-179b-4a3b-9e0a-7cb750512a5b","ios":"levelo://app?vid=24faed42-179b-4a3b-9e0a-7cb750512a5b"},"vehicle_type_id":"4","last_reported":1745147234,"current_range_meters":10800,"station_id":"st_cvj6r9ubvosntc0bgbag","pricing_plan_id":"cebpf4jnsgd1na2vs0mg"},{"bike_id":"2f3ced8d-76b3-4e36-b08a-5d678eed1f17","system_id":"levelo_inurba_marseille","lat":43.26224,"lon":5.40455,"is_reserved":false,"is_disabled":false,"rental_uris":{"android":"levelo://app?vid=2f3ced8d-76b3-4e36-b08a-5d678eed1f17","ios":"levelo://app?vid=2f3ced8d-76b3-4e36-b08a-5d678eed1f17"},"vehicle_type_id":"4","last_reported":1745147234,"current_range_meters":10800,"station_id":"ce4bhmh2rcd13ifvqgmg","pricing_plan_id":"cebpf4jnsgd1na2vs0mg"},{"bike_id":"d8754dce-3ce6-4f68-ba47-f64cfc8b26ab","system_id":"levelo_inurba_marseille","lat":43.23193,"lon":5.3556,"is_reserved":false,"is_disabled":false,"rental_uris":{"android":"levelo://app?vid=d8754dce-3ce6-4f68-ba47-f64cfc8b26ab","ios":"levelo://app?vid=d8754dce-3ce6-4f68-ba47-f64cfc8b26ab"},"vehicle_type_id":"4","last_reported":1745147234,"current_range_meters":10800,"station_id":"ce4bhu92rcd13ifvqi70","pricing_plan_id":"cebpf4jnsgd1na2vs0mg"},{"bike_id":"f46d59ed-78df-47f2-82b1-9daf990beefb","system_id":"levelo_inurba_marseille","lat":43.21758,"lon":5.34596,"is_reserved":false,"is_disabled":false,"rental_uris":{"android":"levelo://app?vid=f46d59ed-78df-47f2-82b1-9daf990beefb","ios":"levelo://app?vid=f46d59ed-78df-47f2-82b1-9daf990beefb"},"vehicle_type_id":"4","last_reported":1745147234,"current_range_meters":10800,"station_id":"st_cvj6r9ubvosntc0bgbag","pricing_plan_id":"cebpf4jnsgd1na2vs0mg"},{"bike_id":"d227ea9c-7792-4463-9253-d38241da3c72","system_id":"levelo_inurba_marseille","lat":43.21765,"lon":5.34586,"is_reserved":false,"is_disabled":false,"rental_uris":{"android":"levelo://app?vid=d227ea9c-7792-4463-9253-d38241da3c72","ios":"levelo://app?vid=d227ea9c-7792-4463-9253-d38241da3c72"},"vehicle_type_id":"4","last_reported":1745147234,"current_range_meters":10800,"station_id":"st_cvj6r9ubvosntc0bgbag","pricing_plan_id":"cebpf4jnsgd1na2vs0mg"},{"bike_id":"1886fb80-2895-40f7-844d-7933f5d904dc","system_id":"levelo_inurba_marseille","lat":43.27871,"lon":5.39304,"is_reserved":false,"is_disabled":false,"rental_uris":{"android":"levelo://app?vid=1886fb80-2895-40f7-844d-7933f5d904dc","ios":"levelo://app?vid=1886fb80-2895-40f7-844d-7933f5d904dc"},"vehicle_type_id":"4","last_reported":1745147234,"current_range_meters":10800,"station_id":"","pricing_plan_id":"cebpf4jnsgd1na2vs0mg"},{"bike_id":"2f227ece-5787-4322-94c8-a84f102d3ba7","system_id":"levelo_inurba_marseille","lat":43.28421,"lon":5.34986,"is_reserved":false,"is_disabled":false,"rental_uris":{"android":"levelo://app?vid=2f227ece-5787-4322-94c8-a84f102d3ba7","ios":"levelo://app?vid=2f227ece-5787-4322-94c8-a84f102d3ba7"},"vehicle_type_id":"4","last_reported":1745147234,"current_range_meters":10800,"station_id":"ce4bhbh2rcd13ifvqepg","pricing_plan_id":"cebpf4jnsgd1na2vs0mg"},{"bike_id":"18eeec2e-5d8a-4729-ae3d-b89aa2a4dd01","system_id":"levelo_inurba_marseille","lat":43.23966,"lon":5.36629,"is_reserved":false,"is_disabled":false,"rental_uris":{"android":"levelo://app?vid=18eeec2e-5d8a-4729-ae3d-b89aa2a4dd01","ios":"levelo://app?vid=18eeec2e-5d8a-4729-ae3d-b89aa2a4dd01"},"vehicle_type_id":"4","last_reported":1745147234,"current_range_meters":10800,"station_id":"ce4bhi12rcd13ifvqfp0","pricing_plan_id":"cebpf4jnsgd1na2vs0mg"},{"bike_id":"995d8a72-1aa5-4c87-a4d7-1f735ca671c5","system_id":"levelo_inurba_marseille","lat":43.305503,"lon":5.36511,"is_reserved":false,"is_disabled":false,"rental_uris":{"android":"levelo://app?vid=995d8a72-1aa5-4c87-a4d7-1f735ca671c5","ios":"levelo://app?vid=995d8a72-1aa5-4c87-a4d7-1f735ca671c5"},"vehicle_type_id":"4","last_reported":1745147234,"current_range_meters":11200,"station_id":"ce4bgs12rcd13ifvqcag","pricing_plan_id":"cebpf4jnsgd1na2vs0mg"},{"bike_id":"3f805ee7-6607-4fd2-b05d-f06f8bbb5997","system_id":"levelo_inurba_marseille","lat":43.24659,"lon":5.38889,"is_reserved":false,"is_disabled":false,"rental_uris":{"android":"levelo://app?vid=3f805ee7-6607-4fd2-b05d-f06f8bbb5997","ios":"levelo://app?vid=3f805ee7-6607-4fd2-b05d-f06f8bbb5997"},"vehicle_type_id":"4","last_reported":1745147234,"current_range_meters":11200,"station_id":"ce4bhg12rcd13ifvqf60","pricing_plan_id":"cebpf4jnsgd1na2vs0mg"},{"bike_id":"d177bdcb-ba4d-4c2e-8899-f6b0f9af395c","system_id":"levelo_inurba_marseille","lat":43.25918,"lon":5.40881,"is_reserved":false,"is_disabled":false,"rental_uris":{"android":"levelo://app?vid=d177bdcb-ba4d-4c2e-8899-f6b0f9af395c","ios":"levelo://app?vid=d177bdcb-ba4d-4c2e-8899-f6b0f9af395c"},"vehicle_type_id":"4","last_reported":1745147234,"current_range_meters":11200,"station_id":"ce4bhm92rcd13ifvqglg","pricing_plan_id":"cebpf4jnsgd1na2vs0mg"},{"bike_id":"3c11bbce-2ba4-4d4f-8fcc-7912e1294623","system_id":"levelo_inurba_marseille","lat":43.30785,"lon":5.37648,"is_reserved":false,"is_disabled":false,"rental_uris":{"android":"levelo://app?vid=3c11bbce-2ba4-4d4f-8fcc-7912e1294623","ios":"levelo://app?vid=3c11bbce-2ba4-4d4f-8fcc-7912e1294623"},"vehicle_type_id":"4","last_reported":1745147234,"current_range_meters":11200,"station_id":"ce4bgv92rcd13ifvqcq0","pricing_plan_id":"cebpf4jnsgd1na2vs0mg"},{"bike_id":"94df762c-96d4-44eb-b837-209930b36b6f","system_id":"levelo_inurba_marseille","lat":43.21754,"lon":5.34604,"is_reserved":false,"is_disabled":false,"rental_uris":{"android":"levelo://app?vid=94df762c-96d4-44eb-b837-209930b36b6f","ios":"levelo://app?vid=94df762c-96d4-44eb-b837-209930b36b6f"},"vehicle_type_id":"4","last_reported":1745147234,"current_range_meters":11200,"station_id":"st_cvj6r9ubvosntc0bgbag","pricing_plan_id":"cebpf4jnsgd1na2vs0mg"},{"bike_id":"581f64c3-7c25-45b6-94a6-8da5fbdbe54f","system_id":"levelo_inurba_marseille","lat":43.290086,"lon":5.356103,"is_reserved":false,"is_disabled":false,"rental_uris":{"android":"levelo://app?vid=581f64c3-7c25-45b6-94a6-8da5fbdbe54f","ios":"levelo://app?vid=581f64c3-7c25-45b6-94a6-8da5fbdbe54f"},"vehicle_type_id":"4","last_reported":1745147234,"current_range_meters":11600,"station_id":"ce4bhgp2rcd13ifvqfc0","pricing_plan_id":"cebpf4jnsgd1na2vs0mg"},{"bike_id":"d2ef6fa0-6922-42cb-92e3-fb499ccb9fa6","system_id":"levelo_inurba_marseille","lat":43.3126,"lon":5.3689,"is_reserved":false,"is_disabled":false,"rental_uris":{"android":"levelo://app?vid=d2ef6fa0-6922-42cb-92e3-fb499ccb9fa6","ios":"levelo://app?vid=d2ef6fa0-6922-42cb-92e3-fb499ccb9fa6"},"vehicle_type_id":"4","last_reported":1745147234,"current_range_meters":11600,"station_id":"ce4bgl92rcd13ifvqbq0","pricing_plan_id":"cebpf4jnsgd1na2vs0mg"},{"bike_id":"14726bda-85cc-425d-a557-d79450b59b17","system_id":"levelo_inurba_marseille","lat":43.27373,"lon":5.36253,"is_reserved":false,"is_disabled":false,"rental_uris":{"android":"levelo://app?vid=14726bda-85cc-425d-a557-d79450b59b17","ios":"levelo://app?vid=14726bda-85cc-425d-a557-d79450b59b17"},"vehicle_type_id":"4","last_reported":1745147234,"current_range_meters":11600,"station_id":"ce4bhbh2rcd13ifvqeo0","pricing_plan_id":"cebpf4jnsgd1na2vs0mg"},{"bike_id":"4337a37f-cbbe-4470-9d6e-d0688b9b7ce9","system_id":"levelo_inurba_marseille","lat":43.32046,"lon":5.41553,"is_reserved":false,"is_disabled":false,"rental_uris":{"android":"levelo://app?vid=4337a37f-cbbe-4470-9d6e-d0688b9b7ce9","ios":"levelo://app?vid=4337a37f-cbbe-4470-9d6e-d0688b9b7ce9"},"vehicle_type_id":"4","last_reported":1745147234,"current_range_meters":11600,"station_id":"ce4bhq92rcd13ifvqhkg","pricing_plan_id":"cebpf4jnsgd1na2vs0mg"},{"bike_id":"89aa61dd-55e3-4e97-8b62-0b16fe392427","system_id":"levelo_inurba_marseille","lat":43.2396,"lon":5.36623,"is_reserved":false,"is_disabled":false,"rental_uris":{"android":"levelo://app?vid=89aa61dd-55e3-4e97-8b62-0b16fe392427","ios":"levelo://app?vid=89aa61dd-55e3-4e97-8b62-0b16fe392427"},"vehicle_type_id":"4","last_reported":1745147234,"current_range_meters":11600,"station_id":"ce4bhi12rcd13ifvqfp0","pricing_plan_id":"cebpf4jnsgd1na2vs0mg"},{"bike_id":"33399c5a-7b71-4ae2-a964-55b2f2e618d0","system_id":"levelo_inurba_marseille","lat":43.30228,"lon":5.36544,"is_reserved":false,"is_disabled":true,"rental_uris":{"android":"levelo://app?vid=33399c5a-7b71-4ae2-a964-55b2f2e618d0","ios":"levelo://app?vid=33399c5a-7b71-4ae2-a964-55b2f2e618d0"},"vehicle_type_id":"4","last_reported":1745147234,"current_range_meters":11600,"station_id":"","pricing_plan_id":"cebpf4jnsgd1na2vs0mg"},{"bike_id":"d64c3fc5-3b20-424d-a9df-83c170571095","system_id":"levelo_inurba_marseille","lat":43.23063,"lon":5.3549,"is_reserved":false,"is_disabled":false,"rental_uris":{"android":"levelo://app?vid=d64c3fc5-3b20-424d-a9df-83c170571095","ios":"levelo://app?vid=d64c3fc5-3b20-424d-a9df-83c170571095"},"vehicle_type_id":"4","last_reported":1745147234,"current_range_meters":11600,"station_id":"cpo3342slgdg3j2ifvpg","pricing_plan_id":"cebpf4jnsgd1na2vs0mg"},{"bike_id":"c299dc9e-5a14-4947-ae3f-28b3be5e4f74","system_id":"levelo_inurba_marseille","lat":43.217497,"lon":5.345981,"is_reserved":false,"is_disabled":false,"rental_uris":{"android":"levelo://app?vid=c299dc9e-5a14-4947-ae3f-28b3be5e4f74","ios":"levelo://app?vid=c299dc9e-5a14-4947-ae3f-28b3be5e4f74"},"vehicle_type_id":"4","last_reported":1745147234,"current_range_meters":11600,"station_id":"","pricing_plan_id":"cebpf4jnsgd1na2vs0mg"},{"bike_id":"f03c5549-d9f1-4580-9097-742ab553f69c","system_id":"levelo_inurba_marseille","lat":43.25495,"lon":5.37646,"is_reserved":false,"is_disabled":false,"rental_uris":{"android":"levelo://app?vid=f03c5549-d9f1-4580-9097-742ab553f69c","ios":"levelo://app?vid=f03c5549-d9f1-4580-9097-742ab553f69c"},"vehicle_type_id":"4","last_reported":1745147234,"current_range_meters":11600,"station_id":"ce4bhh12rcd13ifvqff0","pricing_plan_id":"cebpf4jnsgd1na2vs0mg"},{"bike_id":"85aeaf82-6079-4b24-b22b-dab584adc540","system_id":"levelo_inurba_marseille","lat":43.29531,"lon":5.39035,"is_reserved":false,"is_disabled":false,"rental_uris":{"android":"levelo://app?vid=85aeaf82-6079-4b24-b22b-dab584adc540","ios":"levelo://app?vid=85aeaf82-6079-4b24-b22b-dab584adc540"},"vehicle_type_id":"4","last_reported":1745147234,"current_range_meters":11600,"station_id":"ce4bh3p2rcd13ifvqdp0","pricing_plan_id":"cebpf4jnsgd1na2vs0mg"},{"bike_id":"9119f5e8-5717-4ae5-905f-121f81a193a4","system_id":"levelo_inurba_marseille","lat":43.2175,"lon":5.34604,"is_reserved":false,"is_disabled":false,"rental_uris":{"android":"levelo://app?vid=9119f5e8-5717-4ae5-905f-121f81a193a4","ios":"levelo://app?vid=9119f5e8-5717-4ae5-905f-121f81a193a4"},"vehicle_type_id":"4","last_reported":1745147234,"current_range_meters":11600,"station_id":"st_cvj6r9ubvosntc0bgbag","pricing_plan_id":"cebpf4jnsgd1na2vs0mg"},{"bike_id":"cc4e8daf-8846-4035-942b-a36b9137d061","system_id":"levelo_inurba_marseille","lat":43.25485,"lon":5.37667,"is_reserved":false,"is_disabled":true,"rental_uris":{"android":"levelo://app?vid=cc4e8daf-8846-4035-942b-a36b9137d061","ios":"levelo://app?vid=cc4e8daf-8846-4035-942b-a36b9137d061"},"vehicle_type_id":"4","last_reported":1745147234,"current_range_meters":12000,"station_id":"ce4bhh12rcd13ifvqff0","pricing_plan_id":"cebpf4jnsgd1na2vs0mg"},{"bike_id":"d5ef647d-00ca-43ce-8de2-a9826ded3f15","system_id":"levelo_inurba_marseille","lat":43.21193,"lon":5.35078,"is_reserved":false,"is_disabled":false,"rental_uris":{"android":"levelo://app?vid=d5ef647d-00ca-43ce-8de2-a9826ded3f15","ios":"levelo://app?vid=d5ef647d-00ca-43ce-8de2-a9826ded3f15"},"vehicle_type_id":"4","last_reported":1745147234,"current_range_meters":12000,"station_id":"st_cvj6sg6p6f1abm77japg","pricing_plan_id":"cebpf4jnsgd1na2vs0mg"},{"bike_id":"28aebb9e-5d57-44f6-97ba-0522d3d40c0e","system_id":"levelo_inurba_marseille","lat":43.30134,"lon":5.38778,"is_reserved":false,"is_disabled":false,"rental_uris":{"android":"levelo://app?vid=28aebb9e-5d57-44f6-97ba-0522d3d40c0e","ios":"levelo://app?vid=28aebb9e-5d57-44f6-97ba-0522d3d40c0e"},"vehicle_type_id":"4","last_reported":1745147234,"current_range_meters":11600,"station_id":"ce4bghh2rcd13ifvqb60","pricing_plan_id":"cebpf4jnsgd1na2vs0mg"},{"bike_id":"6d64595d-4888-4868-931a-0c7b19fb898b","system_id":"levelo_inurba_marseille","lat":43.316772,"lon":5.404629,"is_reserved":false,"is_disabled":false,"rental_uris":{"android":"levelo://app?vid=6d64595d-4888-4868-931a-0c7b19fb898b","ios":"levelo://app?vid=6d64595d-4888-4868-931a-0c7b19fb898b"},"vehicle_type_id":"4","last_reported":1745147234,"current_range_meters":12400,"station_id":"ce4bh012rcd13ifvqd00","pricing_plan_id":"cebpf4jnsgd1na2vs0mg"},{"bike_id":"e00639f2-7b1b-400f-8d60-288a93b86342","system_id":"levelo_inurba_marseille","lat":43.27888,"lon":5.395561,"is_reserved":false,"is_disabled":false,"rental_uris":{"android":"levelo://app?vid=e00639f2-7b1b-400f-8d60-288a93b86342","ios":"levelo://app?vid=e00639f2-7b1b-400f-8d60-288a93b86342"},"vehicle_type_id":"4","last_reported":1745147234,"current_range_meters":12400,"station_id":"ce4bhf92rcd13ifvqf40","pricing_plan_id":"cebpf4jnsgd1na2vs0mg"},{"bike_id":"19127d2f-b41a-4717-b6aa-87544acdafaa","system_id":"levelo_inurba_marseille","lat":43.21769,"lon":5.34599,"is_reserved":false,"is_disabled":false,"rental_uris":{"android":"levelo://app?vid=19127d2f-b41a-4717-b6aa-87544acdafaa","ios":"levelo://app?vid=19127d2f-b41a-4717-b6aa-87544acdafaa"},"vehicle_type_id":"4","last_reported":1745147234,"current_range_meters":12800,"station_id":"st_cvj6r9ubvosntc0bgbag","pricing_plan_id":"cebpf4jnsgd1na2vs0mg"},{"bike_id":"3c68d4af-f244-4d5b-a673-170645748e37","system_id":"levelo_inurba_marseille","lat":43.27689,"lon":5.39785,"is_reserved":false,"is_disabled":false,"rental_uris":{"android":"levelo://app?vid=3c68d4af-f244-4d5b-a673-170645748e37","ios":"levelo://app?vid=3c68d4af-f244-4d5b-a673-170645748e37"},"vehicle_type_id":"4","last_reported":1745147234,"current_range_meters":12800,"station_id":"","pricing_plan_id":"cebpf4jnsgd1na2vs0mg"},{"bike_id":"542be7d4-033d-4ad1-b8ee-5079c1e6cf1e","system_id":"levelo_inurba_marseille","lat":43.28351,"lon":5.38105,"is_reserved":false,"is_disabled":false,"rental_uris":{"android":"levelo://app?vid=542be7d4-033d-4ad1-b8ee-5079c1e6cf1e","ios":"levelo://app?vid=542be7d4-033d-4ad1-b8ee-5079c1e6cf1e"},"vehicle_type_id":"4","last_reported":1745147234,"current_range_meters":13600,"station_id":"ce4bh412rcd13ifvqdr0","pricing_plan_id":"cebpf4jnsgd1na2vs0mg"},{"bike_id":"2b843171-b4df-4c49-9232-768ff583915c","system_id":"levelo_inurba_marseille","lat":43.262155,"lon":5.374367,"is_reserved":false,"is_disabled":false,"rental_uris":{"android":"levelo://app?vid=2b843171-b4df-4c49-9232-768ff583915c","ios":"levelo://app?vid=2b843171-b4df-4c49-9232-768ff583915c"},"vehicle_type_id":"4","last_reported":1745147234,"current_range_meters":12800,"station_id":"ce4bhgp2rcd13ifvqfc0","pricing_plan_id":"cebpf4jnsgd1na2vs0mg"},{"bike_id":"f6b06603-46d7-458b-9dc9-fbc0bce785af","system_id":"levelo_inurba_marseille","lat":43.2515,"lon":5.40301,"is_reserved":false,"is_disabled":false,"rental_uris":{"android":"levelo://app?vid=f6b06603-46d7-458b-9dc9-fbc0bce785af","ios":"levelo://app?vid=f6b06603-46d7-458b-9dc9-fbc0bce785af"},"vehicle_type_id":"4","last_reported":1745147234,"current_range_meters":12800,"station_id":"","pricing_plan_id":"cebpf4jnsgd1na2vs0mg"},{"bike_id":"d644c15a-177c-4c25-9272-7da42b037431","system_id":"levelo_inurba_marseille","lat":43.28272,"lon":5.35065,"is_reserved":false,"is_disabled":false,"rental_uris":{"android":"levelo://app?vid=d644c15a-177c-4c25-9272-7da42b037431","ios":"levelo://app?vid=d644c15a-177c-4c25-9272-7da42b037431"},"vehicle_type_id":"4","last_reported":1745147234,"current_range_meters":12800,"station_id":"ce4bhbp2rcd13ifvqerg","pricing_plan_id":"cebpf4jnsgd1na2vs0mg"},{"bike_id":"88946c97-c1e2-4a4b-9026-e714a984302f","system_id":"levelo_inurba_marseille","lat":43.25488,"lon":5.37667,"is_reserved":false,"is_disabled":false,"rental_uris":{"android":"levelo://app?vid=88946c97-c1e2-4a4b-9026-e714a984302f","ios":"levelo://app?vid=88946c97-c1e2-4a4b-9026-e714a984302f"},"vehicle_type_id":"4","last_reported":1745147234,"current_range_meters":13600,"station_id":"ce4bhh12rcd13ifvqff0","pricing_plan_id":"cebpf4jnsgd1na2vs0mg"},{"bike_id":"76678597-c23c-47ef-be2d-dc8ee6c4aa59","system_id":"levelo_inurba_marseille","lat":43.27494,"lon":5.42449,"is_reserved":false,"is_disabled":false,"rental_uris":{"android":"levelo://app?vid=76678597-c23c-47ef-be2d-dc8ee6c4aa59","ios":"levelo://app?vid=76678597-c23c-47ef-be2d-dc8ee6c4aa59"},"vehicle_type_id":"4","last_reported":1745147234,"current_range_meters":13600,"station_id":"ce4bhn92rcd13ifvqgrg","pricing_plan_id":"cebpf4jnsgd1na2vs0mg"},{"bike_id":"055c5f5f-8166-4ebb-9591-6258021b8fd4","system_id":"levelo_inurba_marseille","lat":43.23145,"lon":5.43709,"is_reserved":false,"is_disabled":false,"rental_uris":{"android":"levelo://app?vid=055c5f5f-8166-4ebb-9591-6258021b8fd4","ios":"levelo://app?vid=055c5f5f-8166-4ebb-9591-6258021b8fd4"},"vehicle_type_id":"4","last_reported":1745147234,"current_range_meters":13600,"station_id":"ce4bhmp2rcd13ifvqgog","pricing_plan_id":"cebpf4jnsgd1na2vs0mg"},{"bike_id":"df17b4f8-0c12-4935-bba9-6dbb813d1b61","system_id":"levelo_inurba_marseille","lat":43.24389,"lon":5.37064,"is_reserved":false,"is_disabled":false,"rental_uris":{"android":"levelo://app?vid=df17b4f8-0c12-4935-bba9-6dbb813d1b61","ios":"levelo://app?vid=df17b4f8-0c12-4935-bba9-6dbb813d1b61"},"vehicle_type_id":"4","last_reported":1745147234,"current_range_meters":13600,"station_id":"ce4bhhh2rcd13ifvqfk0","pricing_plan_id":"cebpf4jnsgd1na2vs0mg"},{"bike_id":"5801a3ca-80c0-4f04-85da-122046aa79e1","system_id":"levelo_inurba_marseille","lat":43.29011,"lon":5.43839,"is_reserved":false,"is_disabled":false,"rental_uris":{"android":"levelo://app?vid=5801a3ca-80c0-4f04-85da-122046aa79e1","ios":"levelo://app?vid=5801a3ca-80c0-4f04-85da-122046aa79e1"},"vehicle_type_id":"4","last_reported":1745147234,"current_range_meters":14000,"station_id":"","pricing_plan_id":"cebpf4jnsgd1na2vs0mg"},{"bike_id":"aed6127c-fc4d-4469-9f0a-62f481c008fd","system_id":"levelo_inurba_marseille","lat":43.27944,"lon":5.41044,"is_reserved":false,"is_disabled":false,"rental_uris":{"android":"levelo://app?vid=aed6127c-fc4d-4469-9f0a-62f481c008fd","ios":"levelo://app?vid=aed6127c-fc4d-4469-9f0a-62f481c008fd"},"vehicle_type_id":"4","last_reported":1745147234,"current_range_meters":14000,"station_id":"ce4bhnp2rcd13ifvqh0g","pricing_plan_id":"cebpf4jnsgd1na2vs0mg"},{"bike_id":"8791819b-3cea-4f57-bb6a-cf9e074dfed7","system_id":"levelo_inurba_marseille","lat":43.23057,"lon":5.3549,"is_reserved":false,"is_disabled":false,"rental_uris":{"android":"levelo://app?vid=8791819b-3cea-4f57-bb6a-cf9e074dfed7","ios":"levelo://app?vid=8791819b-3cea-4f57-bb6a-cf9e074dfed7"},"vehicle_type_id":"4","last_reported":1745147234,"current_range_meters":14000,"station_id":"cpo3342slgdg3j2ifvpg","pricing_plan_id":"cebpf4jnsgd1na2vs0mg"},{"bike_id":"d5bf3e51-83b4-419b-b784-58ab0f4a9ad2","system_id":"levelo_inurba_marseille","lat":43.21206,"lon":5.35058,"is_reserved":false,"is_disabled":false,"rental_uris":{"android":"levelo://app?vid=d5bf3e51-83b4-419b-b784-58ab0f4a9ad2","ios":"levelo://app?vid=d5bf3e51-83b4-419b-b784-58ab0f4a9ad2"},"vehicle_type_id":"4","last_reported":1745147234,"current_range_meters":14000,"station_id":"st_cvj6sg6p6f1abm77japg","pricing_plan_id":"cebpf4jnsgd1na2vs0mg"},{"bike_id":"8de88ebe-197d-4d7e-b00e-817916f526d5","system_id":"levelo_inurba_marseille","lat":43.27997,"lon":5.41664,"is_reserved":false,"is_disabled":false,"rental_uris":{"android":"levelo://app?vid=8de88ebe-197d-4d7e-b00e-817916f526d5","ios":"levelo://app?vid=8de88ebe-197d-4d7e-b00e-817916f526d5"},"vehicle_type_id":"4","last_reported":1745147234,"current_range_meters":14000,"station_id":"ce4bho12rcd13ifvqh1g","pricing_plan_id":"cebpf4jnsgd1na2vs0mg"},{"bike_id":"6019390b-7088-4c04-b80b-2acf1cb29041","system_id":"levelo_inurba_marseille","lat":43.29409,"lon":5.41244,"is_reserved":false,"is_disabled":false,"rental_uris":{"android":"levelo://app?vid=6019390b-7088-4c04-b80b-2acf1cb29041","ios":"levelo://app?vid=6019390b-7088-4c04-b80b-2acf1cb29041"},"vehicle_type_id":"4","last_reported":1745147234,"current_range_meters":14400,"station_id":"","pricing_plan_id":"cebpf4jnsgd1na2vs0mg"},{"bike_id":"de9c76e9-5b34-44dc-89d9-de6e318e6be4","system_id":"levelo_inurba_marseille","lat":43.282195,"lon":5.385847,"is_reserved":false,"is_disabled":false,"rental_uris":{"android":"levelo://app?vid=de9c76e9-5b34-44dc-89d9-de6e318e6be4","ios":"levelo://app?vid=de9c76e9-5b34-44dc-89d9-de6e318e6be4"},"vehicle_type_id":"4","last_reported":1745147234,"current_range_meters":14400,"station_id":"ce4bhi12rcd13ifvqfp0","pricing_plan_id":"cebpf4jnsgd1na2vs0mg"},{"bike_id":"4fd87317-4923-494a-a05e-56c3cadf7c8e","system_id":"levelo_inurba_marseille","lat":43.22495,"lon":5.34786,"is_reserved":false,"is_disabled":false,"rental_uris":{"android":"levelo://app?vid=4fd87317-4923-494a-a05e-56c3cadf7c8e","ios":"levelo://app?vid=4fd87317-4923-494a-a05e-56c3cadf7c8e"},"vehicle_type_id":"4","last_reported":1745147234,"current_range_meters":14400,"station_id":"","pricing_plan_id":"cebpf4jnsgd1na2vs0mg"},{"bike_id":"cab64969-2640-47ee-abb9-f11afb1f3a59","system_id":"levelo_inurba_marseille","lat":43.28611,"lon":5.35095,"is_reserved":false,"is_disabled":true,"rental_uris":{"android":"levelo://app?vid=cab64969-2640-47ee-abb9-f11afb1f3a59","ios":"levelo://app?vid=cab64969-2640-47ee-abb9-f11afb1f3a59"},"vehicle_type_id":"4","last_reported":1745147234,"current_range_meters":14400,"station_id":"ce4bhch2rcd13ifvqeug","pricing_plan_id":"cebpf4jnsgd1na2vs0mg"},{"bike_id":"635327bc-d280-4676-9818-c1af3e76102c","system_id":"levelo_inurba_marseille","lat":43.21189,"lon":5.35073,"is_reserved":false,"is_disabled":false,"rental_uris":{"android":"levelo://app?vid=635327bc-d280-4676-9818-c1af3e76102c","ios":"levelo://app?vid=635327bc-d280-4676-9818-c1af3e76102c"},"vehicle_type_id":"4","last_reported":1745147234,"current_range_meters":14400,"station_id":"st_cvj6sg6p6f1abm77japg","pricing_plan_id":"cebpf4jnsgd1na2vs0mg"},{"bike_id":"ce034b4a-bb67-4c72-856c-a0c7ed4c8b8f","system_id":"levelo_inurba_marseille","lat":43.23447,"lon":5.3591,"is_reserved":false,"is_disabled":false,"rental_uris":{"android":"levelo://app?vid=ce034b4a-bb67-4c72-856c-a0c7ed4c8b8f","ios":"levelo://app?vid=ce034b4a-bb67-4c72-856c-a0c7ed4c8b8f"},"vehicle_type_id":"4","last_reported":1745147234,"current_range_meters":14400,"station_id":"","pricing_plan_id":"cebpf4jnsgd1na2vs0mg"},{"bike_id":"7f8cbd29-0335-44ac-9045-acfdd34ab10e","system_id":"levelo_inurba_marseille","lat":43.24164,"lon":5.36388,"is_reserved":false,"is_disabled":false,"rental_uris":{"android":"levelo://app?vid=7f8cbd29-0335-44ac-9045-acfdd34ab10e","ios":"levelo://app?vid=7f8cbd29-0335-44ac-9045-acfdd34ab10e"},"vehicle_type_id":"4","last_reported":1745147234,"current_range_meters":14400,"station_id":"cpo36qri1sfpv3e86is0","pricing_plan_id":"cebpf4jnsgd1na2vs0mg"},{"bike_id":"23f5b8e9-3cd8-41eb-8ec7-c63f61acd933","system_id":"levelo_inurba_marseille","lat":43.26193,"lon":5.3745,"is_reserved":false,"is_disabled":false,"rental_uris":{"android":"levelo://app?vid=23f5b8e9-3cd8-41eb-8ec7-c63f61acd933","ios":"levelo://app?vid=23f5b8e9-3cd8-41eb-8ec7-c63f61acd933"},"vehicle_type_id":"4","last_reported":1745147234,"current_range_meters":14800,"station_id":"ce4bhgp2rcd13ifvqfc0","pricing_plan_id":"cebpf4jnsgd1na2vs0mg"},{"bike_id":"59316439-8194-4b86-9192-b298d1869519","system_id":"levelo_inurba_marseille","lat":43.231765,"lon":5.39985,"is_reserved":false,"is_disabled":false,"rental_uris":{"android":"levelo://app?vid=59316439-8194-4b86-9192-b298d1869519","ios":"levelo://app?vid=59316439-8194-4b86-9192-b298d1869519"},"vehicle_type_id":"4","last_reported":1745147234,"current_range_meters":14800,"station_id":"ce4bhn12rcd13ifvqgqg","pricing_plan_id":"cebpf4jnsgd1na2vs0mg"},{"bike_id":"aa4956c6-6845-4783-8776-ee4b88f920ec","system_id":"levelo_inurba_marseille","lat":43.2861,"lon":5.3706,"is_reserved":false,"is_disabled":true,"rental_uris":{"android":"levelo://app?vid=aa4956c6-6845-4783-8776-ee4b88f920ec","ios":"levelo://app?vid=aa4956c6-6845-4783-8776-ee4b88f920ec"},"vehicle_type_id":"4","last_reported":1745147234,"current_range_meters":14800,"station_id":"","pricing_plan_id":"cebpf4jnsgd1na2vs0mg"},{"bike_id":"50720bbe-5512-41d7-86e0-3df313b565c6","system_id":"levelo_inurba_marseille","lat":43.32354,"lon":5.38905,"is_reserved":false,"is_disabled":true,"rental_uris":{"android":"levelo://app?vid=50720bbe-5512-41d7-86e0-3df313b565c6","ios":"levelo://app?vid=50720bbe-5512-41d7-86e0-3df313b565c6"},"vehicle_type_id":"4","last_reported":1745147234,"current_range_meters":14800,"station_id":"ce4bhqp2rcd13ifvqhog","pricing_plan_id":"cebpf4jnsgd1na2vs0mg"},{"bike_id":"bd6831ea-2ba1-4ce4-9580-3000827b1df8","system_id":"levelo_inurba_marseille","lat":43.282684,"lon":5.350592,"is_reserved":false,"is_disabled":false,"rental_uris":{"android":"levelo://app?vid=bd6831ea-2ba1-4ce4-9580-3000827b1df8","ios":"levelo://app?vid=bd6831ea-2ba1-4ce4-9580-3000827b1df8"},"vehicle_type_id":"4","last_reported":1745147234,"current_range_meters":14800,"station_id":"ce4bhbp2rcd13ifvqerg","pricing_plan_id":"cebpf4jnsgd1na2vs0mg"},{"bike_id":"f01fc261-033f-49c7-b09e-b9967362bd76","system_id":"levelo_inurba_marseille","lat":43.28873,"lon":5.35827,"is_reserved":false,"is_disabled":true,"rental_uris":{"android":"levelo://app?vid=f01fc261-033f-49c7-b09e-b9967362bd76","ios":"levelo://app?vid=f01fc261-033f-49c7-b09e-b9967362bd76"},"vehicle_type_id":"4","last_reported":1745147234,"current_range_meters":14800,"station_id":"ce4bhb12rcd13ifvqem0","pricing_plan_id":"cebpf4jnsgd1na2vs0mg"},{"bike_id":"5182965b-59be-4037-8c7a-27f5f28e5c8b","system_id":"levelo_inurba_marseille","lat":43.24387,"lon":5.37054,"is_reserved":false,"is_disabled":false,"rental_uris":{"android":"levelo://app?vid=5182965b-59be-4037-8c7a-27f5f28e5c8b","ios":"levelo://app?vid=5182965b-59be-4037-8c7a-27f5f28e5c8b"},"vehicle_type_id":"4","last_reported":1745147234,"current_range_meters":14800,"station_id":"ce4bhhh2rcd13ifvqfk0","pricing_plan_id":"cebpf4jnsgd1na2vs0mg"},{"bike_id":"a11b62b0-abca-4200-bb78-d5c654d3c864","system_id":"levelo_inurba_marseille","lat":43.26057,"lon":5.39396,"is_reserved":false,"is_disabled":false,"rental_uris":{"android":"levelo://app?vid=a11b62b0-abca-4200-bb78-d5c654d3c864","ios":"levelo://app?vid=a11b62b0-abca-4200-bb78-d5c654d3c864"},"vehicle_type_id":"4","last_reported":1745147234,"current_range_meters":14400,"station_id":"ce4bhh92rcd13ifvqfj0","pricing_plan_id":"cebpf4jnsgd1na2vs0mg"},{"bike_id":"d53e964c-f934-484c-a259-3e8f23cdd819","system_id":"levelo_inurba_marseille","lat":43.33726,"lon":5.39207,"is_reserved":false,"is_disabled":false,"rental_uris":{"android":"levelo://app?vid=d53e964c-f934-484c-a259-3e8f23cdd819","ios":"levelo://app?vid=d53e964c-f934-484c-a259-3e8f23cdd819"},"vehicle_type_id":"4","last_reported":1745147234,"current_range_meters":15200,"station_id":"ce4bhr92rcd13ifvqhsg","pricing_plan_id":"cebpf4jnsgd1na2vs0mg"},{"bike_id":"80b55b8f-4b91-4662-b23c-f0419d420337","system_id":"levelo_inurba_marseille","lat":43.23066,"lon":5.35492,"is_reserved":false,"is_disabled":false,"rental_uris":{"android":"levelo://app?vid=80b55b8f-4b91-4662-b23c-f0419d420337","ios":"levelo://app?vid=80b55b8f-4b91-4662-b23c-f0419d420337"},"vehicle_type_id":"4","last_reported":1745147234,"current_range_meters":15200,"station_id":"cpo3342slgdg3j2ifvpg","pricing_plan_id":"cebpf4jnsgd1na2vs0mg"},{"bike_id":"595a82b5-75e8-47e1-acda-d28e6bb2cccf","system_id":"levelo_inurba_marseille","lat":43.21748,"lon":5.34601,"is_reserved":false,"is_disabled":false,"rental_uris":{"android":"levelo://app?vid=595a82b5-75e8-47e1-acda-d28e6bb2cccf","ios":"levelo://app?vid=595a82b5-75e8-47e1-acda-d28e6bb2cccf"},"vehicle_type_id":"4","last_reported":1745147234,"current_range_meters":14800,"station_id":"st_cvj6r9ubvosntc0bgbag","pricing_plan_id":"cebpf4jnsgd1na2vs0mg"},{"bike_id":"d601568e-008a-498c-901c-b547e5495198","system_id":"levelo_inurba_marseille","lat":43.262592,"lon":5.397047,"is_reserved":false,"is_disabled":false,"rental_uris":{"android":"levelo://app?vid=d601568e-008a-498c-901c-b547e5495198","ios":"levelo://app?vid=d601568e-008a-498c-901c-b547e5495198"},"vehicle_type_id":"4","last_reported":1745147234,"current_range_meters":15200,"station_id":"","pricing_plan_id":"cebpf4jnsgd1na2vs0mg"},{"bike_id":"f7027e6a-48d2-4cae-b50c-97b01f670552","system_id":"levelo_inurba_marseille","lat":43.239581,"lon":5.366203,"is_reserved":false,"is_disabled":false,"rental_uris":{"android":"levelo://app?vid=f7027e6a-48d2-4cae-b50c-97b01f670552","ios":"levelo://app?vid=f7027e6a-48d2-4cae-b50c-97b01f670552"},"vehicle_type_id":"4","last_reported":1745147234,"current_range_meters":15200,"station_id":"ce4bhi12rcd13ifvqfp0","pricing_plan_id":"cebpf4jnsgd1na2vs0mg"},{"bike_id":"d089a9ee-0715-46cd-86c6-784d3c2b9de1","system_id":"levelo_inurba_marseille","lat":43.23197,"lon":5.39992,"is_reserved":false,"is_disabled":false,"rental_uris":{"android":"levelo://app?vid=d089a9ee-0715-46cd-86c6-784d3c2b9de1","ios":"levelo://app?vid=d089a9ee-0715-46cd-86c6-784d3c2b9de1"},"vehicle_type_id":"4","last_reported":1745147234,"current_range_meters":15200,"station_id":"ce4bhn12rcd13ifvqgqg","pricing_plan_id":"cebpf4jnsgd1na2vs0mg"},{"bike_id":"1a7de102-7500-484a-bd93-251d61a7564f","system_id":"levelo_inurba_marseille","lat":43.26209,"lon":5.37442,"is_reserved":false,"is_disabled":false,"rental_uris":{"android":"levelo://app?vid=1a7de102-7500-484a-bd93-251d61a7564f","ios":"levelo://app?vid=1a7de102-7500-484a-bd93-251d61a7564f"},"vehicle_type_id":"4","last_reported":1745147234,"current_range_meters":16000,"station_id":"ce4bhgp2rcd13ifvqfc0","pricing_plan_id":"cebpf4jnsgd1na2vs0mg"},{"bike_id":"54333f71-3852-4e7b-b374-b14e492e4962","system_id":"levelo_inurba_marseille","lat":43.30418,"lon":5.41272,"is_reserved":false,"is_disabled":true,"rental_uris":{"android":"levelo://app?vid=54333f71-3852-4e7b-b374-b14e492e4962","ios":"levelo://app?vid=54333f71-3852-4e7b-b374-b14e492e4962"},"vehicle_type_id":"4","last_reported":1745147234,"current_range_meters":16000,"station_id":"ce4bhop2rcd13ifvqh8g","pricing_plan_id":"cebpf4jnsgd1na2vs0mg"},{"bike_id":"6db2ec77-9208-4d7c-85f1-a44f570ede6a","system_id":"levelo_inurba_marseille","lat":43.24221,"lon":5.39753,"is_reserved":false,"is_disabled":false,"rental_uris":{"android":"levelo://app?vid=6db2ec77-9208-4d7c-85f1-a44f570ede6a","ios":"levelo://app?vid=6db2ec77-9208-4d7c-85f1-a44f570ede6a"},"vehicle_type_id":"4","last_reported":1745147234,"current_range_meters":16000,"station_id":"ce4bhn12rcd13ifvqgpg","pricing_plan_id":"cebpf4jnsgd1na2vs0mg"},{"bike_id":"73e2a5a3-b623-4afa-b464-eaef0f5d8117","system_id":"levelo_inurba_marseille","lat":43.24073,"lon":5.37763,"is_reserved":false,"is_disabled":false,"rental_uris":{"android":"levelo://app?vid=73e2a5a3-b623-4afa-b464-eaef0f5d8117","ios":"levelo://app?vid=73e2a5a3-b623-4afa-b464-eaef0f5d8117"},"vehicle_type_id":"4","last_reported":1745147234,"current_range_meters":14800,"station_id":"ce4bhnp2rcd13ifvqgvg","pricing_plan_id":"cebpf4jnsgd1na2vs0mg"},{"bike_id":"266098b8-f48d-4bea-90a7-190d61cc7475","system_id":"levelo_inurba_marseille","lat":43.2174,"lon":5.34605,"is_reserved":false,"is_disabled":false,"rental_uris":{"android":"levelo://app?vid=266098b8-f48d-4bea-90a7-190d61cc7475","ios":"levelo://app?vid=266098b8-f48d-4bea-90a7-190d61cc7475"},"vehicle_type_id":"4","last_reported":1745147234,"current_range_meters":16000,"station_id":"st_cvj6r9ubvosntc0bgbag","pricing_plan_id":"cebpf4jnsgd1na2vs0mg"},{"bike_id":"9c5b2c41-4a73-4d0b-a583-50ed2d2b11ef","system_id":"levelo_inurba_marseille","lat":43.25719,"lon":5.41124,"is_reserved":false,"is_disabled":false,"rental_uris":{"android":"levelo://app?vid=9c5b2c41-4a73-4d0b-a583-50ed2d2b11ef","ios":"levelo://app?vid=9c5b2c41-4a73-4d0b-a583-50ed2d2b11ef"},"vehicle_type_id":"4","last_reported":1745147234,"current_range_meters":16000,"station_id":"ce4bhkp2rcd13ifvqgd0","pricing_plan_id":"cebpf4jnsgd1na2vs0mg"},{"bike_id":"4e0feb4b-9af5-4c5c-a215-eabded87c4f9","system_id":"levelo_inurba_marseille","lat":43.23195,"lon":5.35554,"is_reserved":false,"is_disabled":false,"rental_uris":{"android":"levelo://app?vid=4e0feb4b-9af5-4c5c-a215-eabded87c4f9","ios":"levelo://app?vid=4e0feb4b-9af5-4c5c-a215-eabded87c4f9"},"vehicle_type_id":"4","last_reported":1745147234,"current_range_meters":16000,"station_id":"ce4bhu92rcd13ifvqi70","pricing_plan_id":"cebpf4jnsgd1na2vs0mg"},{"bike_id":"e653e066-2807-4514-8a61-d3a7d53ac289","system_id":"levelo_inurba_marseille","lat":43.225028,"lon":5.347872,"is_reserved":false,"is_disabled":false,"rental_uris":{"android":"levelo://app?vid=e653e066-2807-4514-8a61-d3a7d53ac289","ios":"levelo://app?vid=e653e066-2807-4514-8a61-d3a7d53ac289"},"vehicle_type_id":"4","last_reported":1745147234,"current_range_meters":16000,"station_id":"","pricing_plan_id":"cebpf4jnsgd1na2vs0mg"},{"bike_id":"cbb8c20f-0422-4610-a50f-a600497f00b5","system_id":"levelo_inurba_marseille","lat":43.29818,"lon":5.37727,"is_reserved":false,"is_disabled":false,"rental_uris":{"android":"levelo://app?vid=cbb8c20f-0422-4610-a50f-a600497f00b5","ios":"levelo://app?vid=cbb8c20f-0422-4610-a50f-a600497f00b5"},"vehicle_type_id":"4","last_reported":1745147234,"current_range_meters":16000,"station_id":"","pricing_plan_id":"cebpf4jnsgd1na2vs0mg"},{"bike_id":"cb04d036-524e-497d-b1e8-d53251979b05","system_id":"levelo_inurba_marseille","lat":43.29876,"lon":5.39746,"is_reserved":false,"is_disabled":true,"rental_uris":{"android":"levelo://app?vid=cb04d036-524e-497d-b1e8-d53251979b05","ios":"levelo://app?vid=cb04d036-524e-497d-b1e8-d53251979b05"},"vehicle_type_id":"4","last_reported":1745147234,"current_range_meters":16400,"station_id":"ce4bh0h2rcd13ifvqd50","pricing_plan_id":"cebpf4jnsgd1na2vs0mg"},{"bike_id":"d6aeb923-d30a-4a42-bf5a-2bc2aa47af51","system_id":"levelo_inurba_marseille","lat":43.21748,"lon":5.34602,"is_reserved":false,"is_disabled":false,"rental_uris":{"android":"levelo://app?vid=d6aeb923-d30a-4a42-bf5a-2bc2aa47af51","ios":"levelo://app?vid=d6aeb923-d30a-4a42-bf5a-2bc2aa47af51"},"vehicle_type_id":"4","last_reported":1745147234,"current_range_meters":16400,"station_id":"st_cvj6r9ubvosntc0bgbag","pricing_plan_id":"cebpf4jnsgd1na2vs0mg"},{"bike_id":"7d29063e-cc47-43de-9fe3-33b900004d65","system_id":"levelo_inurba_marseille","lat":43.21205,"lon":5.35073,"is_reserved":false,"is_disabled":false,"rental_uris":{"android":"levelo://app?vid=7d29063e-cc47-43de-9fe3-33b900004d65","ios":"levelo://app?vid=7d29063e-cc47-43de-9fe3-33b900004d65"},"vehicle_type_id":"4","last_reported":1745147234,"current_range_meters":16400,"station_id":"st_cvj6sg6p6f1abm77japg","pricing_plan_id":"cebpf4jnsgd1na2vs0mg"},{"bike_id":"d66f2fbf-84c1-4006-a003-d92ef3aa9479","system_id":"levelo_inurba_marseille","lat":43.23197,"lon":5.35548,"is_reserved":false,"is_disabled":false,"rental_uris":{"android":"levelo://app?vid=d66f2fbf-84c1-4006-a003-d92ef3aa9479","ios":"levelo://app?vid=d66f2fbf-84c1-4006-a003-d92ef3aa9479"},"vehicle_type_id":"4","last_reported":1745147234,"current_range_meters":16400,"station_id":"ce4bhu92rcd13ifvqi70","pricing_plan_id":"cebpf4jnsgd1na2vs0mg"},{"bike_id":"8605282b-b417-44ef-b921-2c93f06b4d14","system_id":"levelo_inurba_marseille","lat":43.2511,"lon":5.40313,"is_reserved":false,"is_disabled":false,"rental_uris":{"android":"levelo://app?vid=8605282b-b417-44ef-b921-2c93f06b4d14","ios":"levelo://app?vid=8605282b-b417-44ef-b921-2c93f06b4d14"},"vehicle_type_id":"4","last_reported":1745147234,"current_range_meters":16400,"station_id":"ce4bhlh2rcd13ifvqgig","pricing_plan_id":"cebpf4jnsgd1na2vs0mg"},{"bike_id":"5b3b8164-7271-480a-8977-e11557985f70","system_id":"levelo_inurba_marseille","lat":43.23181,"lon":5.39984,"is_reserved":false,"is_disabled":false,"rental_uris":{"android":"levelo://app?vid=5b3b8164-7271-480a-8977-e11557985f70","ios":"levelo://app?vid=5b3b8164-7271-480a-8977-e11557985f70"},"vehicle_type_id":"4","last_reported":1745147234,"current_range_meters":16000,"station_id":"ce4bhn12rcd13ifvqgqg","pricing_plan_id":"cebpf4jnsgd1na2vs0mg"},{"bike_id":"a49f0229-650b-4805-994e-a3978cba962e","system_id":"levelo_inurba_marseille","lat":43.28071,"lon":5.39659,"is_reserved":false,"is_disabled":false,"rental_uris":{"android":"levelo://app?vid=a49f0229-650b-4805-994e-a3978cba962e","ios":"levelo://app?vid=a49f0229-650b-4805-994e-a3978cba962e"},"vehicle_type_id":"4","last_reported":1745147234,"current_range_meters":16800,"station_id":"ce4bho12rcd13ifvqh2g","pricing_plan_id":"cebpf4jnsgd1na2vs0mg"},{"bike_id":"1b2623e0-90bf-4d27-a569-ebc27b9384c2","system_id":"levelo_inurba_marseille","lat":43.241669,"lon":5.363963,"is_reserved":false,"is_disabled":false,"rental_uris":{"android":"levelo://app?vid=1b2623e0-90bf-4d27-a569-ebc27b9384c2","ios":"levelo://app?vid=1b2623e0-90bf-4d27-a569-ebc27b9384c2"},"vehicle_type_id":"4","last_reported":1745147234,"current_range_meters":16800,"station_id":"cpo36qri1sfpv3e86is0","pricing_plan_id":"cebpf4jnsgd1na2vs0mg"},{"bike_id":"6cb32928-af13-438c-897b-314f762f58e9","system_id":"levelo_inurba_marseille","lat":43.2465,"lon":5.38892,"is_reserved":false,"is_disabled":false,"rental_uris":{"android":"levelo://app?vid=6cb32928-af13-438c-897b-314f762f58e9","ios":"levelo://app?vid=6cb32928-af13-438c-897b-314f762f58e9"},"vehicle_type_id":"4","last_reported":1745147234,"current_range_meters":17200,"station_id":"ce4bhg12rcd13ifvqf60","pricing_plan_id":"cebpf4jnsgd1na2vs0mg"},{"bike_id":"894a75af-d93a-48dc-b132-82e0e43348d2","system_id":"levelo_inurba_marseille","lat":43.2315,"lon":5.43716,"is_reserved":false,"is_disabled":false,"rental_uris":{"android":"levelo://app?vid=894a75af-d93a-48dc-b132-82e0e43348d2","ios":"levelo://app?vid=894a75af-d93a-48dc-b132-82e0e43348d2"},"vehicle_type_id":"4","last_reported":1745147234,"current_range_meters":17200,"station_id":"ce4bhmp2rcd13ifvqgog","pricing_plan_id":"cebpf4jnsgd1na2vs0mg"},{"bike_id":"57332b25-e487-4c64-b4bc-c9ac655171cf","system_id":"levelo_inurba_marseille","lat":43.27374,"lon":5.36254,"is_reserved":false,"is_disabled":false,"rental_uris":{"android":"levelo://app?vid=57332b25-e487-4c64-b4bc-c9ac655171cf","ios":"levelo://app?vid=57332b25-e487-4c64-b4bc-c9ac655171cf"},"vehicle_type_id":"4","last_reported":1745147234,"current_range_meters":16800,"station_id":"ce4bhbh2rcd13ifvqeo0","pricing_plan_id":"cebpf4jnsgd1na2vs0mg"},{"bike_id":"9cd66f20-0974-44a3-a00c-3af08e74ebf2","system_id":"levelo_inurba_marseille","lat":43.26029,"lon":5.41744,"is_reserved":false,"is_disabled":false,"rental_uris":{"android":"levelo://app?vid=9cd66f20-0974-44a3-a00c-3af08e74ebf2","ios":"levelo://app?vid=9cd66f20-0974-44a3-a00c-3af08e74ebf2"},"vehicle_type_id":"4","last_reported":1745147234,"current_range_meters":16800,"station_id":"","pricing_plan_id":"cebpf4jnsgd1na2vs0mg"},{"bike_id":"a124d0cb-4101-4bb2-8f24-a21d7f13164a","system_id":"levelo_inurba_marseille","lat":43.29909,"lon":5.38132,"is_reserved":false,"is_disabled":false,"rental_uris":{"android":"levelo://app?vid=a124d0cb-4101-4bb2-8f24-a21d7f13164a","ios":"levelo://app?vid=a124d0cb-4101-4bb2-8f24-a21d7f13164a"},"vehicle_type_id":"4","last_reported":1745147234,"current_range_meters":16800,"station_id":"ce4bgj12rcd13ifvqbc0","pricing_plan_id":"cebpf4jnsgd1na2vs0mg"},{"bike_id":"721f595d-f057-44ac-ac8d-4aec1bc01567","system_id":"levelo_inurba_marseille","lat":43.25105,"lon":5.40308,"is_reserved":false,"is_disabled":false,"rental_uris":{"android":"levelo://app?vid=721f595d-f057-44ac-ac8d-4aec1bc01567","ios":"levelo://app?vid=721f595d-f057-44ac-ac8d-4aec1bc01567"},"vehicle_type_id":"4","last_reported":1745147234,"current_range_meters":17200,"station_id":"ce4bhlh2rcd13ifvqgig","pricing_plan_id":"cebpf4jnsgd1na2vs0mg"},{"bike_id":"1a5f2cec-6354-428d-a667-d2081b30c7f2","system_id":"levelo_inurba_marseille","lat":43.27676,"lon":5.39797,"is_reserved":false,"is_disabled":false,"rental_uris":{"android":"levelo://app?vid=1a5f2cec-6354-428d-a667-d2081b30c7f2","ios":"levelo://app?vid=1a5f2cec-6354-428d-a667-d2081b30c7f2"},"vehicle_type_id":"4","last_reported":1745147234,"current_range_meters":17200,"station_id":"","pricing_plan_id":"cebpf4jnsgd1na2vs0mg"},{"bike_id":"7ec0fce2-6c90-4831-b2d2-fadbbebc0278","system_id":"levelo_inurba_marseille","lat":43.26223,"lon":5.37438,"is_reserved":false,"is_disabled":false,"rental_uris":{"android":"levelo://app?vid=7ec0fce2-6c90-4831-b2d2-fadbbebc0278","ios":"levelo://app?vid=7ec0fce2-6c90-4831-b2d2-fadbbebc0278"},"vehicle_type_id":"4","last_reported":1745147234,"current_range_meters":17200,"station_id":"ce4bhgp2rcd13ifvqfc0","pricing_plan_id":"cebpf4jnsgd1na2vs0mg"},{"bike_id":"cbcf2b63-1e60-4b5d-b61b-8baaf7f6ab2f","system_id":"levelo_inurba_marseille","lat":43.26217,"lon":5.37446,"is_reserved":false,"is_disabled":false,"rental_uris":{"android":"levelo://app?vid=cbcf2b63-1e60-4b5d-b61b-8baaf7f6ab2f","ios":"levelo://app?vid=cbcf2b63-1e60-4b5d-b61b-8baaf7f6ab2f"},"vehicle_type_id":"4","last_reported":1745147234,"current_range_meters":17600,"station_id":"ce4bhgp2rcd13ifvqfc0","pricing_plan_id":"cebpf4jnsgd1na2vs0mg"},{"bike_id":"1b7d0f82-ea15-4a97-aab0-7209b9195a1a","system_id":"levelo_inurba_marseille","lat":43.217355,"lon":5.346032,"is_reserved":false,"is_disabled":false,"rental_uris":{"android":"levelo://app?vid=1b7d0f82-ea15-4a97-aab0-7209b9195a1a","ios":"levelo://app?vid=1b7d0f82-ea15-4a97-aab0-7209b9195a1a"},"vehicle_type_id":"4","last_reported":1745147234,"current_range_meters":17600,"station_id":"st_cvj6r9ubvosntc0bgbag","pricing_plan_id":"cebpf4jnsgd1na2vs0mg"},{"bike_id":"2a2d4e04-1a56-4531-a89a-fb0481590528","system_id":"levelo_inurba_marseille","lat":43.32294,"lon":5.38281,"is_reserved":false,"is_disabled":false,"rental_uris":{"android":"levelo://app?vid=2a2d4e04-1a56-4531-a89a-fb0481590528","ios":"levelo://app?vid=2a2d4e04-1a56-4531-a89a-fb0481590528"},"vehicle_type_id":"4","last_reported":1745147234,"current_range_meters":17600,"station_id":"ce4bhr12rcd13ifvqhqg","pricing_plan_id":"cebpf4jnsgd1na2vs0mg"},{"bike_id":"2a5d3520-aebd-4618-b23d-d992781eb1d4","system_id":"levelo_inurba_marseille","lat":43.25581,"lon":5.38232,"is_reserved":false,"is_disabled":false,"rental_uris":{"android":"levelo://app?vid=2a5d3520-aebd-4618-b23d-d992781eb1d4","ios":"levelo://app?vid=2a5d3520-aebd-4618-b23d-d992781eb1d4"},"vehicle_type_id":"4","last_reported":1745147234,"current_range_meters":17600,"station_id":"ce4bhih2rcd13ifvqfs0","pricing_plan_id":"cebpf4jnsgd1na2vs0mg"},{"bike_id":"14aa5634-cccd-46db-a638-6f36ff4f4d85","system_id":"levelo_inurba_marseille","lat":43.22924,"lon":5.35394,"is_reserved":false,"is_disabled":false,"rental_uris":{"android":"levelo://app?vid=14aa5634-cccd-46db-a638-6f36ff4f4d85","ios":"levelo://app?vid=14aa5634-cccd-46db-a638-6f36ff4f4d85"},"vehicle_type_id":"4","last_reported":1745147234,"current_range_meters":17600,"station_id":"cpo3532slgdg3j2ikp40","pricing_plan_id":"cebpf4jnsgd1na2vs0mg"},{"bike_id":"1c6cbb07-7dd3-4e2e-b5db-d11b5b0fb27d","system_id":"levelo_inurba_marseille","lat":43.30624,"lon":5.37165,"is_reserved":false,"is_disabled":false,"rental_uris":{"android":"levelo://app?vid=1c6cbb07-7dd3-4e2e-b5db-d11b5b0fb27d","ios":"levelo://app?vid=1c6cbb07-7dd3-4e2e-b5db-d11b5b0fb27d"},"vehicle_type_id":"4","last_reported":1745147234,"current_range_meters":17600,"station_id":"ce4bgqh2rcd13ifvqc4g","pricing_plan_id":"cebpf4jnsgd1na2vs0mg"},{"bike_id":"75c2b308-a6e9-4373-80b8-794dc0a1aba4","system_id":"levelo_inurba_marseille","lat":43.212,"lon":5.35066,"is_reserved":false,"is_disabled":false,"rental_uris":{"android":"levelo://app?vid=75c2b308-a6e9-4373-80b8-794dc0a1aba4","ios":"levelo://app?vid=75c2b308-a6e9-4373-80b8-794dc0a1aba4"},"vehicle_type_id":"4","last_reported":1745147234,"current_range_meters":17600,"station_id":"st_cvj6sg6p6f1abm77japg","pricing_plan_id":"cebpf4jnsgd1na2vs0mg"},{"bike_id":"bbfd1c7d-9e4c-4288-9919-ff9fa7a14056","system_id":"levelo_inurba_marseille","lat":43.21744,"lon":5.3461,"is_reserved":false,"is_disabled":true,"rental_uris":{"android":"levelo://app?vid=bbfd1c7d-9e4c-4288-9919-ff9fa7a14056","ios":"levelo://app?vid=bbfd1c7d-9e4c-4288-9919-ff9fa7a14056"},"vehicle_type_id":"4","last_reported":1745147234,"current_range_meters":17600,"station_id":"st_cvj6r9ubvosntc0bgbag","pricing_plan_id":"cebpf4jnsgd1na2vs0mg"},{"bike_id":"161167b6-97c4-4f90-a5dc-be4f4f45e2e9","system_id":"levelo_inurba_marseille","lat":43.26194,"lon":5.37446,"is_reserved":false,"is_disabled":false,"rental_uris":{"android":"levelo://app?vid=161167b6-97c4-4f90-a5dc-be4f4f45e2e9","ios":"levelo://app?vid=161167b6-97c4-4f90-a5dc-be4f4f45e2e9"},"vehicle_type_id":"4","last_reported":1745147234,"current_range_meters":17600,"station_id":"ce4bhgp2rcd13ifvqfc0","pricing_plan_id":"cebpf4jnsgd1na2vs0mg"},{"bike_id":"5d4054f0-3166-430a-99b2-4ffa02da4fae","system_id":"levelo_inurba_marseille","lat":43.21747,"lon":5.34602,"is_reserved":false,"is_disabled":false,"rental_uris":{"android":"levelo://app?vid=5d4054f0-3166-430a-99b2-4ffa02da4fae","ios":"levelo://app?vid=5d4054f0-3166-430a-99b2-4ffa02da4fae"},"vehicle_type_id":"4","last_reported":1745147234,"current_range_meters":18000,"station_id":"st_cvj6r9ubvosntc0bgbag","pricing_plan_id":"cebpf4jnsgd1na2vs0mg"},{"bike_id":"3b571125-80a2-45f4-9d52-4d57fd357a96","system_id":"levelo_inurba_marseille","lat":43.31326,"lon":5.39688,"is_reserved":false,"is_disabled":false,"rental_uris":{"android":"levelo://app?vid=3b571125-80a2-45f4-9d52-4d57fd357a96","ios":"levelo://app?vid=3b571125-80a2-45f4-9d52-4d57fd357a96"},"vehicle_type_id":"4","last_reported":1745147234,"current_range_meters":18000,"station_id":"ce4bgvp2rcd13ifvqcu0","pricing_plan_id":"cebpf4jnsgd1na2vs0mg"},{"bike_id":"a8932d98-2dec-4a87-a7c7-0de50ee36ffc","system_id":"levelo_inurba_marseille","lat":43.28959,"lon":5.37852,"is_reserved":false,"is_disabled":false,"rental_uris":{"android":"levelo://app?vid=a8932d98-2dec-4a87-a7c7-0de50ee36ffc","ios":"levelo://app?vid=a8932d98-2dec-4a87-a7c7-0de50ee36ffc"},"vehicle_type_id":"4","last_reported":1745147234,"current_range_meters":18800,"station_id":"ce4bh9p2rcd13ifvqed0","pricing_plan_id":"cebpf4jnsgd1na2vs0mg"},{"bike_id":"db1ca819-ca73-4039-937c-4865c308014e","system_id":"levelo_inurba_marseille","lat":43.243917,"lon":5.370531,"is_reserved":false,"is_disabled":false,"rental_uris":{"android":"levelo://app?vid=db1ca819-ca73-4039-937c-4865c308014e","ios":"levelo://app?vid=db1ca819-ca73-4039-937c-4865c308014e"},"vehicle_type_id":"4","last_reported":1745147234,"current_range_meters":18000,"station_id":"ce4bhhh2rcd13ifvqfk0","pricing_plan_id":"cebpf4jnsgd1na2vs0mg"},{"bike_id":"f9179a33-6528-43ac-b9e7-37bf13c563dd","system_id":"levelo_inurba_marseille","lat":43.25147,"lon":5.40364,"is_reserved":false,"is_disabled":false,"rental_uris":{"android":"levelo://app?vid=f9179a33-6528-43ac-b9e7-37bf13c563dd","ios":"levelo://app?vid=f9179a33-6528-43ac-b9e7-37bf13c563dd"},"vehicle_type_id":"4","last_reported":1745147234,"current_range_meters":18000,"station_id":"ce4bhlh2rcd13ifvqgig","pricing_plan_id":"cebpf4jnsgd1na2vs0mg"},{"bike_id":"ec3d1de4-b0aa-4a87-996b-5d5e6eeef5ec","system_id":"levelo_inurba_marseille","lat":43.21207,"lon":5.35072,"is_reserved":false,"is_disabled":false,"rental_uris":{"android":"levelo://app?vid=ec3d1de4-b0aa-4a87-996b-5d5e6eeef5ec","ios":"levelo://app?vid=ec3d1de4-b0aa-4a87-996b-5d5e6eeef5ec"},"vehicle_type_id":"4","last_reported":1745147234,"current_range_meters":18000,"station_id":"st_cvj6sg6p6f1abm77japg","pricing_plan_id":"cebpf4jnsgd1na2vs0mg"},{"bike_id":"b63b7a5e-a38c-41b2-b8ca-03dcb2ce1a70","system_id":"levelo_inurba_marseille","lat":43.250841,"lon":5.395179,"is_reserved":false,"is_disabled":true,"rental_uris":{"android":"levelo://app?vid=b63b7a5e-a38c-41b2-b8ca-03dcb2ce1a70","ios":"levelo://app?vid=b63b7a5e-a38c-41b2-b8ca-03dcb2ce1a70"},"vehicle_type_id":"4","last_reported":1745147234,"current_range_meters":18000,"station_id":"ce4bhm12rcd13ifvqgkg","pricing_plan_id":"cebpf4jnsgd1na2vs0mg"},{"bike_id":"c4fc050b-7c58-4380-8033-ffe242748317","system_id":"levelo_inurba_marseille","lat":43.29578,"lon":5.3997,"is_reserved":false,"is_disabled":true,"rental_uris":{"android":"levelo://app?vid=c4fc050b-7c58-4380-8033-ffe242748317","ios":"levelo://app?vid=c4fc050b-7c58-4380-8033-ffe242748317"},"vehicle_type_id":"4","last_reported":1745147234,"current_range_meters":18800,"station_id":"ce4bh312rcd13ifvqdj0","pricing_plan_id":"cebpf4jnsgd1na2vs0mg"},{"bike_id":"9a08cd47-401e-4721-ac51-2c7c5eb208eb","system_id":"levelo_inurba_marseille","lat":43.24178,"lon":5.36388,"is_reserved":false,"is_disabled":false,"rental_uris":{"android":"levelo://app?vid=9a08cd47-401e-4721-ac51-2c7c5eb208eb","ios":"levelo://app?vid=9a08cd47-401e-4721-ac51-2c7c5eb208eb"},"vehicle_type_id":"4","last_reported":1745147234,"current_range_meters":18800,"station_id":"cpo36qri1sfpv3e86is0","pricing_plan_id":"cebpf4jnsgd1na2vs0mg"},{"bike_id":"94c0ded2-b3d9-4358-bf2d-a88bee9061bb","system_id":"levelo_inurba_marseille","lat":43.23179,"lon":5.3999,"is_reserved":false,"is_disabled":false,"rental_uris":{"android":"levelo://app?vid=94c0ded2-b3d9-4358-bf2d-a88bee9061bb","ios":"levelo://app?vid=94c0ded2-b3d9-4358-bf2d-a88bee9061bb"},"vehicle_type_id":"4","last_reported":1745147234,"current_range_meters":18000,"station_id":"ce4bhn12rcd13ifvqgqg","pricing_plan_id":"cebpf4jnsgd1na2vs0mg"},{"bike_id":"f0ac6640-9cc3-4814-b276-abece7e0f2fc","system_id":"levelo_inurba_marseille","lat":43.21188,"lon":5.35072,"is_reserved":false,"is_disabled":false,"rental_uris":{"android":"levelo://app?vid=f0ac6640-9cc3-4814-b276-abece7e0f2fc","ios":"levelo://app?vid=f0ac6640-9cc3-4814-b276-abece7e0f2fc"},"vehicle_type_id":"4","last_reported":1745147234,"current_range_meters":18800,"station_id":"st_cvj6sg6p6f1abm77japg","pricing_plan_id":"cebpf4jnsgd1na2vs0mg"},{"bike_id":"7c69a94c-3d74-4d94-bd4f-3fdcc848be7e","system_id":"levelo_inurba_marseille","lat":43.21742,"lon":5.34599,"is_reserved":false,"is_disabled":false,"rental_uris":{"android":"levelo://app?vid=7c69a94c-3d74-4d94-bd4f-3fdcc848be7e","ios":"levelo://app?vid=7c69a94c-3d74-4d94-bd4f-3fdcc848be7e"},"vehicle_type_id":"4","last_reported":1745147234,"current_range_meters":18800,"station_id":"st_cvj6r9ubvosntc0bgbag","pricing_plan_id":"cebpf4jnsgd1na2vs0mg"},{"bike_id":"2121b250-63d6-4f9d-8529-5831632e7df2","system_id":"levelo_inurba_marseille","lat":43.29525,"lon":5.3903,"is_reserved":false,"is_disabled":false,"rental_uris":{"android":"levelo://app?vid=2121b250-63d6-4f9d-8529-5831632e7df2","ios":"levelo://app?vid=2121b250-63d6-4f9d-8529-5831632e7df2"},"vehicle_type_id":"4","last_reported":1745147234,"current_range_meters":19200,"station_id":"ce4bh3p2rcd13ifvqdp0","pricing_plan_id":"cebpf4jnsgd1na2vs0mg"},{"bike_id":"c239cc14-c2fb-4f11-9a8c-3728c566783f","system_id":"levelo_inurba_marseille","lat":43.30547,"lon":5.36556,"is_reserved":false,"is_disabled":false,"rental_uris":{"android":"levelo://app?vid=c239cc14-c2fb-4f11-9a8c-3728c566783f","ios":"levelo://app?vid=c239cc14-c2fb-4f11-9a8c-3728c566783f"},"vehicle_type_id":"4","last_reported":1745147234,"current_range_meters":18800,"station_id":"ce4bgs12rcd13ifvqcag","pricing_plan_id":"cebpf4jnsgd1na2vs0mg"},{"bike_id":"16228f24-8f5e-4524-bc4a-37dc1aab86ca","system_id":"levelo_inurba_marseille","lat":43.21174,"lon":5.35111,"is_reserved":false,"is_disabled":false,"rental_uris":{"android":"levelo://app?vid=16228f24-8f5e-4524-bc4a-37dc1aab86ca","ios":"levelo://app?vid=16228f24-8f5e-4524-bc4a-37dc1aab86ca"},"vehicle_type_id":"4","last_reported":1745147234,"current_range_meters":18800,"station_id":"st_cvj6sg6p6f1abm77japg","pricing_plan_id":"cebpf4jnsgd1na2vs0mg"},{"bike_id":"1fbe783c-277e-46a4-83d7-267abea436f5","system_id":"levelo_inurba_marseille","lat":43.26196,"lon":5.37932,"is_reserved":false,"is_disabled":false,"rental_uris":{"android":"levelo://app?vid=1fbe783c-277e-46a4-83d7-267abea436f5","ios":"levelo://app?vid=1fbe783c-277e-46a4-83d7-267abea436f5"},"vehicle_type_id":"4","last_reported":1745147234,"current_range_meters":19200,"station_id":"ce4bhjp2rcd13ifvqg90","pricing_plan_id":"cebpf4jnsgd1na2vs0mg"},{"bike_id":"34b0949f-48ad-413f-8bca-a64962256ba5","system_id":"levelo_inurba_marseille","lat":43.245407,"lon":5.395184,"is_reserved":false,"is_disabled":false,"rental_uris":{"android":"levelo://app?vid=34b0949f-48ad-413f-8bca-a64962256ba5","ios":"levelo://app?vid=34b0949f-48ad-413f-8bca-a64962256ba5"},"vehicle_type_id":"4","last_reported":1745147234,"current_range_meters":18800,"station_id":"ce4bhlp2rcd13ifvqgjg","pricing_plan_id":"cebpf4jnsgd1na2vs0mg"},{"bike_id":"a7f91fb8-2846-493f-a68f-69867197cfa1","system_id":"levelo_inurba_marseille","lat":43.33668,"lon":5.39746,"is_reserved":false,"is_disabled":false,"rental_uris":{"android":"levelo://app?vid=a7f91fb8-2846-493f-a68f-69867197cfa1","ios":"levelo://app?vid=a7f91fb8-2846-493f-a68f-69867197cfa1"},"vehicle_type_id":"4","last_reported":1745147234,"current_range_meters":19200,"station_id":"","pricing_plan_id":"cebpf4jnsgd1na2vs0mg"},{"bike_id":"b8b65b83-38a3-4e5f-83f7-bcdcfcb454b1","system_id":"levelo_inurba_marseille","lat":43.2119,"lon":5.35078,"is_reserved":false,"is_disabled":false,"rental_uris":{"android":"levelo://app?vid=b8b65b83-38a3-4e5f-83f7-bcdcfcb454b1","ios":"levelo://app?vid=b8b65b83-38a3-4e5f-83f7-bcdcfcb454b1"},"vehicle_type_id":"4","last_reported":1745147234,"current_range_meters":19200,"station_id":"st_cvj6sg6p6f1abm77japg","pricing_plan_id":"cebpf4jnsgd1na2vs0mg"},{"bike_id":"bc5ee520-13ea-46bd-a275-6ad73e5c59d1","system_id":"levelo_inurba_marseille","lat":43.23195,"lon":5.39965,"is_reserved":false,"is_disabled":false,"rental_uris":{"android":"levelo://app?vid=bc5ee520-13ea-46bd-a275-6ad73e5c59d1","ios":"levelo://app?vid=bc5ee520-13ea-46bd-a275-6ad73e5c59d1"},"vehicle_type_id":"4","last_reported":1745147234,"current_range_meters":18800,"station_id":"ce4bhn12rcd13ifvqgqg","pricing_plan_id":"cebpf4jnsgd1na2vs0mg"},{"bike_id":"d6bbfe22-733b-4a95-9690-26c18897e91a","system_id":"levelo_inurba_marseille","lat":43.29572,"lon":5.37525,"is_reserved":false,"is_disabled":false,"rental_uris":{"android":"levelo://app?vid=d6bbfe22-733b-4a95-9690-26c18897e91a","ios":"levelo://app?vid=d6bbfe22-733b-4a95-9690-26c18897e91a"},"vehicle_type_id":"4","last_reported":1745147234,"current_range_meters":19200,"station_id":"ce4bgh92rcd13ifvqb50","pricing_plan_id":"cebpf4jnsgd1na2vs0mg"},{"bike_id":"7f85cb0c-933e-490b-a0c3-bfacab605268","system_id":"levelo_inurba_marseille","lat":43.2887,"lon":5.35991,"is_reserved":false,"is_disabled":true,"rental_uris":{"android":"levelo://app?vid=7f85cb0c-933e-490b-a0c3-bfacab605268","ios":"levelo://app?vid=7f85cb0c-933e-490b-a0c3-bfacab605268"},"vehicle_type_id":"4","last_reported":1745147234,"current_range_meters":19200,"station_id":"","pricing_plan_id":"cebpf4jnsgd1na2vs0mg"},{"bike_id":"7ef74df5-1425-4ffb-b430-d7763f9f9455","system_id":"levelo_inurba_marseille","lat":43.23071,"lon":5.35489,"is_reserved":false,"is_disabled":false,"rental_uris":{"android":"levelo://app?vid=7ef74df5-1425-4ffb-b430-d7763f9f9455","ios":"levelo://app?vid=7ef74df5-1425-4ffb-b430-d7763f9f9455"},