{"last_updated":1705950347,"ttl":30,"version":"2.2","data":{"bikes":[{"bike_id":"5440cb97-ac20-4763-ab82-413204c32815","system_id":"levelo_inurba_marseille","lat":43.309076,"lon":5.368465,"is_reserved":false,"is_disabled":false,"rental_uris":{"android":"levelo://app?vid=5440cb97-ac20-4763-ab82-413204c32815","ios":"levelo://app?vid=5440cb97-ac20-4763-ab82-413204c32815"},"vehicle_type_id":"4","last_reported":1705950347,"current_range_meters":11600,"station_id":"ce4bgn92rcd13ifvqbvg","pricing_plan_id":"free"},{"bike_id":"7574feb9-8a15-4be4-b8f0-745fa5ffed1e","system_id":"levelo_inurba_marseille","lat":43.314811,"lon":5.373103,"is_reserved":false,"is_disabled":false,"rental_uris":{"android":"levelo://app?vid=7574feb9-8a15-4be4-b8f0-745fa5ffed1e","ios":"levelo://app?vid=7574feb9-8a15-4be4-b8f0-745fa5ffed1e"},"vehicle_type_id":"4","last_reported":1705950347,"current_range_meters":14400,"station_id":"ce4bgt12rcd13ifvqcd0","pricing_plan_id":"free"},{"bike_id":"73925b6c-692b-4f4c-9128-827783b0e141","system_id":"levelo_inurba_marseille","lat":43.314811,"lon":5.373104,"is_reserved":false,"is_disabled":false,"rental_uris":{"android":"levelo://app?vid=73925b6c-692b-4f4c-9128-827783b0e141","ios":"levelo://app?vid=73925b6c-692b-4f4c-9128-827783b0e141"},"vehicle_type_id":"4","last_reported":1705950347,"current_range_meters":0,"station_id":"ce4bgt12rcd13ifvqcd0","pricing_plan_id":"free"},{"bike_id":"7e8acffc-0230-426e-9742-0dd9f02735cc","system_id":"levelo_inurba_marseille","lat":43.305368,"lon":5.367343,"is_reserved":false,"is_disabled":false,"rental_uris":{"android":"levelo://app?vid=7e8acffc-0230-426e-9742-0dd9f02735cc","ios":"levelo://app?vid=7e8acffc-0230-426e-9742-0dd9f02735cc"},"vehicle_type_id":"4","last_reported":1705950347,"current_range_meters":14800,"station_id":"ce4bgrp2rcd13ifvqc9g","pricing_plan_id":"free"},{"bike_id":"f638f25c-b458-4b4c-a1c8-5a064dc5f053","system_id":"levelo_inurba_marseille","lat":43.305989,"lon":5.37225,"is_reserved":false,"is_disabled":false,"rental_uris":{"android":"levelo://app?vid=f638f25c-b458-4b4c-a1c8-5a064dc5f053","ios":"levelo://app?vid=f638f25c-b458-4b4c-a1c8-5a064dc5f053"},"vehicle_type_id":"4","last_reported":1705950347,"current_range_meters":24400,"station_id":"ce4bgqh2rcd13ifvqc4g","pricing_plan_id":"free"},{"bike_id":"8eae0362-1623-4205-9fa1-52c37ddb128e","system_id":"levelo_inurba_marseille","lat":43.311171,"lon":5.377671,"is_reserved":false,"is_disabled":false,"rental_uris":{"android":"levelo://app?vid=8eae0362-1623-4205-9fa1-52c37ddb128e","ios":"levelo://app?vid=8eae0362-1623-4205-9fa1-52c37ddb128e"},"vehicle_type_id":"4","last_reported":1705950347,"current_range_meters":0,"station_id":"ce4bgt92rcd13ifvqcg0","pricing_plan_id":"free"},{"bike_id":"4088c6f3-d158-450d-a5d1-5141bf2507bb","system_id":"levelo_inurba_marseille","lat":43.307945,"lon":5.376487,"is_reserved":false,"is_disabled":false,"rental_uris":{"android":"levelo://app?vid=4088c6f3-d158-450d-a5d1-5141bf2507bb","ios":"levelo://app?vid=4088c6f3-d158-450d-a5d1-5141bf2507bb"},"vehicle_type_id":"4","last_reported":1705950347,"current_range_meters":0,"station_id":"ce4bgv92rcd13ifvqcq0","pricing_plan_id":"free"},{"bike_id":"994a89e7-c11e-4e97-80d6-802442335d79","system_id":"levelo_inurba_marseille","lat":43.307945,"lon":5.376487,"is_reserved":false,"is_disabled":false,"rental_uris":{"android":"levelo://app?vid=994a89e7-c11e-4e97-80d6-802442335d79","ios":"levelo://app?vid=994a89e7-c11e-4e97-80d6-802442335d79"},"vehicle_type_id":"4","last_reported":1705950347,"current_range_meters":10000,"station_id":"ce4bgv92rcd13ifvqcq0","pricing_plan_id":"free"},{"bike_id":"d7854f2c-e25b-4567-9ca1-100b79dde627","system_id":"levelo_inurba_marseille","lat":43.31714,"lon":5.37683,"is_reserved":false,"is_disabled":false,"rental_uris":{"android":"levelo://app?vid=d7854f2c-e25b-4567-9ca1-100b79dde627","ios":"levelo://app?vid=d7854f2c-e25b-4567-9ca1-100b79dde627"},"vehicle_type_id":"4","last_reported":1705950347,"current_range_meters":18000,"station_id":"ce4bgth2rcd13ifvqch0","pricing_plan_id":"free"},{"bike_id":"5f955857-1cfe-43b3-b4eb-cf45edda73ce","system_id":"levelo_inurba_marseille","lat":43.307945,"lon":5.376487,"is_reserved":false,"is_disabled":false,"rental_uris":{"android":"levelo://app?vid=5f955857-1cfe-43b3-b4eb-cf45edda73ce","ios":"levelo://app?vid=5f955857-1cfe-43b3-b4eb-cf45edda73ce"},"vehicle_type_id":"4","last_reported":1705950347,"current_range_meters":30400,"station_id":"ce4bgv92rcd13ifvqcq0","pricing_plan_id":"free"},{"bike_id":"e35aabae-8e01-470f-8a70-2d1a0d350e43","system_id":"levelo_inurba_marseille","lat":43.301939,"lon":5.366286,"is_reserved":false,"is_disabled":false,"rental_uris":{"android":"levelo://app?vid=e35aabae-8e01-470f-8a70-2d1a0d350e43","ios":"levelo://app?vid=e35aabae-8e01-470f-8a70-2d1a0d350e43"},"vehicle_type_id":"4","last_reported":1705950347,"current_range_meters":30400,"station_id":"ce4bgrh2rcd13ifvqc8g","pricing_plan_id":"free"},{"bike_id":"d91e87a4-8178-4a53-8cc3-f63a358d2331","system_id":"levelo_inurba_marseille","lat":43.308012,"lon":5.381511,"is_reserved":false,"is_disabled":false,"rental_uris":{"android":"levelo://app?vid=d91e87a4-8178-4a53-8cc3-f63a358d2331","ios":"levelo://app?vid=d91e87a4-8178-4a53-8cc3-f63a358d2331"},"vehicle_type_id":"4","last_reported":1705950347,"current_range_meters":6400,"station_id":"ce4bgt12rcd13ifvqce0","pricing_plan_id":"free"},{"bike_id":"508cfdda-8373-465d-8245-aebfb0d677e9","system_id":"levelo_inurba_marseille","lat":43.308012,"lon":5.381511,"is_reserved":false,"is_disabled":false,"rental_uris":{"android":"levelo://app?vid=508cfdda-8373-465d-8245-aebfb0d677e9","ios":"levelo://app?vid=508cfdda-8373-465d-8245-aebfb0d677e9"},"vehicle_type_id":"4","last_reported":1705950347,"current_range_meters":3600,"station_id":"ce4bgt12rcd13ifvqce0","pricing_plan_id":"free"},{"bike_id":"71b535c7-a6ac-471e-b9bc-21b31845907b","system_id":"levelo_inurba_marseille","lat":43.308012,"lon":5.381511,"is_reserved":false,"is_disabled":false,"rental_uris":{"android":"levelo://app?vid=71b535c7-a6ac-471e-b9bc-21b31845907b","ios":"levelo://app?vid=71b535c7-a6ac-471e-b9bc-21b31845907b"},"vehicle_type_id":"4","last_reported":1705950347,"current_range_meters":15600,"station_id":"ce4bgt12rcd13ifvqce0","pricing_plan_id":"free"},{"bike_id":"f93cc772-b58e-4458-8619-0473e98f7662","system_id":"levelo_inurba_marseille","lat":43.297946,"lon":5.404063,"is_reserved":false,"is_disabled":false,"rental_uris":{"android":"levelo://app?vid=f93cc772-b58e-4458-8619-0473e98f7662","ios":"levelo://app?vid=f93cc772-b58e-4458-8619-0473e98f7662"},"vehicle_type_id":"4","last_reported":1705950347,"current_range_meters":23600,"station_id":"ce4bh112rcd13ifvqd90","pricing_plan_id":"free"},{"bike_id":"cb572b30-21ab-4f46-9d10-af6200080291","system_id":"levelo_inurba_marseille","lat":43.304606,"lon":5.379026,"is_reserved":false,"is_disabled":false,"rental_uris":{"android":"levelo://app?vid=cb572b30-21ab-4f46-9d10-af6200080291","ios":"levelo://app?vid=cb572b30-21ab-4f46-9d10-af6200080291"},"vehicle_type_id":"4","last_reported":1705950347,"current_range_meters":4800,"station_id":"ce4bgup2rcd13ifvqcn0","pricing_plan_id":"free"},{"bike_id":"bd4b105f-1374-4d63-b844-78858e2edc02","system_id":"levelo_inurba_marseille","lat":43.324771,"lon":5.36557,"is_reserved":false,"is_disabled":false,"rental_uris":{"android":"levelo://app?vid=bd4b105f-1374-4d63-b844-78858e2edc02","ios":"levelo://app?vid=bd4b105f-1374-4d63-b844-78858e2edc02"},"vehicle_type_id":"4","last_reported":1705950347,"current_range_meters":20400,"station_id":"ce4bhs12rcd13ifvqhvg","pricing_plan_id":"free"},{"bike_id":"603f1217-9350-4f39-b257-bdc4d9f38a2b","system_id":"levelo_inurba_marseille","lat":43.324771,"lon":5.36557,"is_reserved":false,"is_disabled":false,"rental_uris":{"android":"levelo://app?vid=603f1217-9350-4f39-b257-bdc4d9f38a2b","ios":"levelo://app?vid=603f1217-9350-4f39-b257-bdc4d9f38a2b"},"vehicle_type_id":"4","last_reported":1705950347,"current_range_meters":23200,"station_id":"ce4bhs12rcd13ifvqhvg","pricing_plan_id":"free"},{"bike_id":"27bfb0a2-3330-486a-ab3d-e8eb31fd20d1","system_id":"levelo_inurba_marseille","lat":43.30162,"lon":5.37417,"is_reserved":false,"is_disabled":false,"rental_uris":{"android":"levelo://app?vid=27bfb0a2-3330-486a-ab3d-e8eb31fd20d1","ios":"levelo://app?vid=27bfb0a2-3330-486a-ab3d-e8eb31fd20d1"},"vehicle_type_id":"4","last_reported":1705950347,"current_range_meters":18000,"station_id":"ce4bgs92rcd13ifvqcc0","pricing_plan_id":"free"},{"bike_id":"8e6c2f09-97f8-4107-b6bc-045f348b5f5a","system_id":"levelo_inurba_marseille","lat":43.30143,"lon":5.37413,"is_reserved":false,"is_disabled":false,"rental_uris":{"android":"levelo://app?vid=8e6c2f09-97f8-4107-b6bc-045f348b5f5a","ios":"levelo://app?vid=8e6c2f09-97f8-4107-b6bc-045f348b5f5a"},"vehicle_type_id":"4","last_reported":1705950347,"current_range_meters":8800,"station_id":"ce4bgs92rcd13ifvqcc0","pricing_plan_id":"free"},{"bike_id":"58675aee-02e4-4a50-a48f-3fc4c3327eb8","system_id":"levelo_inurba_marseille","lat":43.302784,"lon":5.377158,"is_reserved":false,"is_disabled":false,"rental_uris":{"android":"levelo://app?vid=58675aee-02e4-4a50-a48f-3fc4c3327eb8","ios":"levelo://app?vid=58675aee-02e4-4a50-a48f-3fc4c3327eb8"},"vehicle_type_id":"4","last_reported":1705950347,"current_range_meters":2800,"station_id":"ce4bguh2rcd13ifvqcj0","pricing_plan_id":"free"},{"bike_id":"fd388e30-6c90-4fbf-abdf-dd15ef425659","system_id":"levelo_inurba_marseille","lat":43.31996,"lon":5.38147,"is_reserved":false,"is_disabled":false,"rental_uris":{"android":"levelo://app?vid=fd388e30-6c90-4fbf-abdf-dd15ef425659","ios":"levelo://app?vid=fd388e30-6c90-4fbf-abdf-dd15ef425659"},"vehicle_type_id":"4","last_reported":1705950347,"current_range_meters":24800,"station_id":"ce4bhr12rcd13ifvqhpg","pricing_plan_id":"free"},{"bike_id":"80151102-94f6-4718-b770-9c657f000af1","system_id":"levelo_inurba_marseille","lat":43.319935,"lon":5.381699,"is_reserved":false,"is_disabled":false,"rental_uris":{"android":"levelo://app?vid=80151102-94f6-4718-b770-9c657f000af1","ios":"levelo://app?vid=80151102-94f6-4718-b770-9c657f000af1"},"vehicle_type_id":"4","last_reported":1705950347,"current_range_meters":24000,"station_id":"ce4bhr12rcd13ifvqhpg","pricing_plan_id":"free"},{"bike_id":"89784ae0-3df5-4c6d-8bcd-f93d30003d3c","system_id":"levelo_inurba_marseille","lat":43.319935,"lon":5.381699,"is_reserved":false,"is_disabled":false,"rental_uris":{"android":"levelo://app?vid=89784ae0-3df5-4c6d-8bcd-f93d30003d3c","ios":"levelo://app?vid=89784ae0-3df5-4c6d-8bcd-f93d30003d3c"},"vehicle_type_id":"4","last_reported":1705950347,"current_range_meters":11200,"station_id":"ce4bhr12rcd13ifvqhpg","pricing_plan_id":"free"},{"bike_id":"e113d1c9-da08-4be0-8879-80169af1faf2","system_id":"levelo_inurba_marseille","lat":43.31999,"lon":5.38161,"is_reserved":false,"is_disabled":false,"rental_uris":{"android":"levelo://app?vid=e113d1c9-da08-4be0-8879-80169af1faf2","ios":"levelo://app?vid=e113d1c9-da08-4be0-8879-80169af1faf2"},"vehicle_type_id":"4","last_reported":1705950347,"current_range_meters":21200,"station_id":"ce4bhr12rcd13ifvqhpg","pricing_plan_id":"free"},{"bike_id":"5dea0a61-e9d0-47a8-943b-2d1f36a0d2ed","system_id":"levelo_inurba_marseille","lat":43.319935,"lon":5.381699,"is_reserved":false,"is_disabled":false,"rental_uris":{"android":"levelo://app?vid=5dea0a61-e9d0-47a8-943b-2d1f36a0d2ed","ios":"levelo://app?vid=5dea0a61-e9d0-47a8-943b-2d1f36a0d2ed"},"vehicle_type_id":"4","last_reported":1705950347,"current_range_meters":19600,"station_id":"ce4bhr12rcd13ifvqhpg","pricing_plan_id":"free"},{"bike_id":"3fb42323-42ae-4e8f-9257-228ce5e54392","system_id":"levelo_inurba_marseille","lat":43.319935,"lon":5.381699,"is_reserved":false,"is_disabled":false,"rental_uris":{"android":"levelo://app?vid=3fb42323-42ae-4e8f-9257-228ce5e54392","ios":"levelo://app?vid=3fb42323-42ae-4e8f-9257-228ce5e54392"},"vehicle_type_id":"4","last_reported":1705950347,"current_range_meters":11600,"station_id":"ce4bhr12rcd13ifvqhpg","pricing_plan_id":"free"},{"bike_id":"6b1614fb-3b40-4aa7-aa72-1564ab2cd937","system_id":"levelo_inurba_marseille","lat":43.319935,"lon":5.381699,"is_reserved":false,"is_disabled":false,"rental_uris":{"android":"levelo://app?vid=6b1614fb-3b40-4aa7-aa72-1564ab2cd937","ios":"levelo://app?vid=6b1614fb-3b40-4aa7-aa72-1564ab2cd937"},"vehicle_type_id":"4","last_reported":1705950347,"current_range_meters":0,"station_id":"ce4bhr12rcd13ifvqhpg","pricing_plan_id":"free"},{"bike_id":"06c6a0e8-9fc9-4cd4-a1d9-3a103d1e1fe1","system_id":"levelo_inurba_marseille","lat":43.319935,"lon":5.381699,"is_reserved":false,"is_disabled":false,"rental_uris":{"android":"levelo://app?vid=06c6a0e8-9fc9-4cd4-a1d9-3a103d1e1fe1","ios":"levelo://app?vid=06c6a0e8-9fc9-4cd4-a1d9-3a103d1e1fe1"},"vehicle_type_id":"4","last_reported":1705950347,"current_range_meters":14400,"station_id":"ce4bhr12rcd13ifvqhpg","pricing_plan_id":"free"},{"bike_id":"45f16985-5dbf-4c42-8a7b-c2a98cbaf9c6","system_id":"levelo_inurba_marseille","lat":43.319935,"lon":5.381699,"is_reserved":false,"is_disabled":false,"rental_uris":{"android":"levelo://app?vid=45f16985-5dbf-4c42-8a7b-c2a98cbaf9c6","ios":"levelo://app?vid=45f16985-5dbf-4c42-8a7b-c2a98cbaf9c6"},"vehicle_type_id":"4","last_reported":1705950347,"current_range_meters":8000,"station_id":"ce4bhr12rcd13ifvqhpg","pricing_plan_id":"free"},{"bike_id":"65aecd9b-406b-4315-8f1a-a796c28104cc","system_id":"levelo_inurba_marseille","lat":43.313571,"lon":5.384829,"is_reserved":false,"is_disabled":false,"rental_uris":{"android":"levelo://app?vid=65aecd9b-406b-4315-8f1a-a796c28104cc","ios":"levelo://app?vid=65aecd9b-406b-4315-8f1a-a796c28104cc"},"vehicle_type_id":"4","last_reported":1705950347,"current_range_meters":16800,"station_id":"ce4bgt92rcd13ifvqcf0","pricing_plan_id":"free"},{"bike_id":"bfd1f3db-1544-4e62-aefd-617c5bba9ac0","system_id":"levelo_inurba_marseille","lat":43.313571,"lon":5.384829,"is_reserved":false,"is_disabled":false,"rental_uris":{"android":"levelo://app?vid=bfd1f3db-1544-4e62-aefd-617c5bba9ac0","ios":"levelo://app?vid=bfd1f3db-1544-4e62-aefd-617c5bba9ac0"},"vehicle_type_id":"4","last_reported":1705950347,"current_range_meters":24400,"station_id":"ce4bgt92rcd13ifvqcf0","pricing_plan_id":"free"},{"bike_id":"5da48d6c-0992-49f9-9c74-ea1e1595d117","system_id":"levelo_inurba_marseille","lat":43.313571,"lon":5.384829,"is_reserved":false,"is_disabled":false,"rental_uris":{"android":"levelo://app?vid=5da48d6c-0992-49f9-9c74-ea1e1595d117","ios":"levelo://app?vid=5da48d6c-0992-49f9-9c74-ea1e1595d117"},"vehicle_type_id":"4","last_reported":1705950347,"current_range_meters":12800,"station_id":"ce4bgt92rcd13ifvqcf0","pricing_plan_id":"free"},{"bike_id":"24c5e7af-c20b-4b72-a167-28ab45b95e7c","system_id":"levelo_inurba_marseille","lat":43.313571,"lon":5.384829,"is_reserved":false,"is_disabled":false,"rental_uris":{"android":"levelo://app?vid=24c5e7af-c20b-4b72-a167-28ab45b95e7c","ios":"levelo://app?vid=24c5e7af-c20b-4b72-a167-28ab45b95e7c"},"vehicle_type_id":"4","last_reported":1705950347,"current_range_meters":4400,"station_id":"ce4bgt92rcd13ifvqcf0","pricing_plan_id":"free"},{"bike_id":"4af3aa1b-9c23-47c6-a8ec-0af4d0f22881","system_id":"levelo_inurba_marseille","lat":43.32602,"lon":5.367457,"is_reserved":false,"is_disabled":false,"rental_uris":{"android":"levelo://app?vid=4af3aa1b-9c23-47c6-a8ec-0af4d0f22881","ios":"levelo://app?vid=4af3aa1b-9c23-47c6-a8ec-0af4d0f22881"},"vehicle_type_id":"4","last_reported":1705950347,"current_range_meters":22000,"station_id":"","pricing_plan_id":"free"},{"bike_id":"33ed264c-8c02-4dba-87ef-0cd23c87e63c","system_id":"levelo_inurba_marseille","lat":43.313571,"lon":5.384829,"is_reserved":false,"is_disabled":false,"rental_uris":{"android":"levelo://app?vid=33ed264c-8c02-4dba-87ef-0cd23c87e63c","ios":"levelo://app?vid=33ed264c-8c02-4dba-87ef-0cd23c87e63c"},"vehicle_type_id":"4","last_reported":1705950347,"current_range_meters":13200,"station_id":"ce4bgt92rcd13ifvqcf0","pricing_plan_id":"free"},{"bike_id":"79d2d98a-29f2-4ffd-ae01-bfd8a1fa05d5","system_id":"levelo_inurba_marseille","lat":43.328371,"lon":5.366912,"is_reserved":false,"is_disabled":false,"rental_uris":{"android":"levelo://app?vid=79d2d98a-29f2-4ffd-ae01-bfd8a1fa05d5","ios":"levelo://app?vid=79d2d98a-29f2-4ffd-ae01-bfd8a1fa05d5"},"vehicle_type_id":"4","last_reported":1705950347,"current_range_meters":22800,"station_id":"ce4bhs92rcd13ifvqi0g","pricing_plan_id":"free"},{"bike_id":"a8dbe6a1-1f98-47bd-846b-3988efcbe79e","system_id":"levelo_inurba_marseille","lat":43.305364,"lon":5.384119,"is_reserved":false,"is_disabled":false,"rental_uris":{"android":"levelo://app?vid=a8dbe6a1-1f98-47bd-846b-3988efcbe79e","ios":"levelo://app?vid=a8dbe6a1-1f98-47bd-846b-3988efcbe79e"},"vehicle_type_id":"4","last_reported":1705950347,"current_range_meters":10000,"station_id":"ce4bgg92rcd13ifvqb30","pricing_plan_id":"free"},{"bike_id":"18c418d8-130d-4027-b68d-5f229343b60e","system_id":"levelo_inurba_marseille","lat":43.298433,"lon":5.362774,"is_reserved":false,"is_disabled":false,"rental_uris":{"android":"levelo://app?vid=18c418d8-130d-4027-b68d-5f229343b60e","ios":"levelo://app?vid=18c418d8-130d-4027-b68d-5f229343b60e"},"vehicle_type_id":"4","last_reported":1705950347,"current_range_meters":400,"station_id":"ce4bgpp2rcd13ifvqc3g","pricing_plan_id":"free"},{"bike_id":"7575885a-fd15-462b-9bea-b24bafbabae5","system_id":"levelo_inurba_marseille","lat":43.298433,"lon":5.362774,"is_reserved":false,"is_disabled":false,"rental_uris":{"android":"levelo://app?vid=7575885a-fd15-462b-9bea-b24bafbabae5","ios":"levelo://app?vid=7575885a-fd15-462b-9bea-b24bafbabae5"},"vehicle_type_id":"4","last_reported":1705950347,"current_range_meters":400,"station_id":"ce4bgpp2rcd13ifvqc3g","pricing_plan_id":"free"},{"bike_id":"0d303335-2c40-49f4-9271-50377f34d2b5","system_id":"levelo_inurba_marseille","lat":43.29845,"lon":5.36278,"is_reserved":false,"is_disabled":false,"rental_uris":{"android":"levelo://app?vid=0d303335-2c40-49f4-9271-50377f34d2b5","ios":"levelo://app?vid=0d303335-2c40-49f4-9271-50377f34d2b5"},"vehicle_type_id":"4","last_reported":1705950347,"current_range_meters":3200,"station_id":"ce4bgpp2rcd13ifvqc3g","pricing_plan_id":"free"},{"bike_id":"e7d42503-c68f-436a-aaf4-6d2c52e58600","system_id":"levelo_inurba_marseille","lat":43.29844,"lon":5.36271,"is_reserved":false,"is_disabled":false,"rental_uris":{"android":"levelo://app?vid=e7d42503-c68f-436a-aaf4-6d2c52e58600","ios":"levelo://app?vid=e7d42503-c68f-436a-aaf4-6d2c52e58600"},"vehicle_type_id":"4","last_reported":1705950347,"current_range_meters":20000,"station_id":"ce4bgpp2rcd13ifvqc3g","pricing_plan_id":"free"},{"bike_id":"c85be888-9f69-41a8-9142-c9dc1cca55ba","system_id":"levelo_inurba_marseille","lat":43.29844,"lon":5.3627,"is_reserved":false,"is_disabled":false,"rental_uris":{"android":"levelo://app?vid=c85be888-9f69-41a8-9142-c9dc1cca55ba","ios":"levelo://app?vid=c85be888-9f69-41a8-9142-c9dc1cca55ba"},"vehicle_type_id":"4","last_reported":1705950347,"current_range_meters":18400,"station_id":"ce4bgpp2rcd13ifvqc3g","pricing_plan_id":"free"},{"bike_id":"14204441-d245-48d5-a79e-fe6cfc3274dc","system_id":"levelo_inurba_marseille","lat":43.29844,"lon":5.36269,"is_reserved":false,"is_disabled":false,"rental_uris":{"android":"levelo://app?vid=14204441-d245-48d5-a79e-fe6cfc3274dc","ios":"levelo://app?vid=14204441-d245-48d5-a79e-fe6cfc3274dc"},"vehicle_type_id":"4","last_reported":1705950347,"current_range_meters":11600,"station_id":"ce4bgpp2rcd13ifvqc3g","pricing_plan_id":"free"},{"bike_id":"31152737-0cf9-4a08-8a30-b4a2477360a4","system_id":"levelo_inurba_marseille","lat":43.29844,"lon":5.36269,"is_reserved":false,"is_disabled":false,"rental_uris":{"android":"levelo://app?vid=31152737-0cf9-4a08-8a30-b4a2477360a4","ios":"levelo://app?vid=31152737-0cf9-4a08-8a30-b4a2477360a4"},"vehicle_type_id":"4","last_reported":1705950347,"current_range_meters":6800,"station_id":"ce4bgpp2rcd13ifvqc3g","pricing_plan_id":"free"},{"bike_id":"33ba9c66-dc53-4727-93cd-f30948103668","system_id":"levelo_inurba_marseille","lat":43.29843,"lon":5.36269,"is_reserved":false,"is_disabled":false,"rental_uris":{"android":"levelo://app?vid=33ba9c66-dc53-4727-93cd-f30948103668","ios":"levelo://app?vid=33ba9c66-dc53-4727-93cd-f30948103668"},"vehicle_type_id":"4","last_reported":1705950347,"current_range_meters":22400,"station_id":"ce4bgpp2rcd13ifvqc3g","pricing_plan_id":"free"},{"bike_id":"34f16531-fa0b-4811-9089-359834fde0e2","system_id":"levelo_inurba_marseille","lat":43.298433,"lon":5.362774,"is_reserved":false,"is_disabled":false,"rental_uris":{"android":"levelo://app?vid=34f16531-fa0b-4811-9089-359834fde0e2","ios":"levelo://app?vid=34f16531-fa0b-4811-9089-359834fde0e2"},"vehicle_type_id":"4","last_reported":1705950347,"current_range_meters":31200,"station_id":"ce4bgpp2rcd13ifvqc3g","pricing_plan_id":"free"},{"bike_id":"fed624e2-053d-4bc3-a09e-0be31f392545","system_id":"levelo_inurba_marseille","lat":43.29841,"lon":5.3627,"is_reserved":false,"is_disabled":false,"rental_uris":{"android":"levelo://app?vid=fed624e2-053d-4bc3-a09e-0be31f392545","ios":"levelo://app?vid=fed624e2-053d-4bc3-a09e-0be31f392545"},"vehicle_type_id":"4","last_reported":1705950347,"current_range_meters":31200,"station_id":"ce4bgpp2rcd13ifvqc3g","pricing_plan_id":"free"},{"bike_id":"b69e355e-f9e7-40c5-b01d-2f9ce70001e0","system_id":"levelo_inurba_marseille","lat":43.298433,"lon":5.362774,"is_reserved":false,"is_disabled":false,"rental_uris":{"android":"levelo://app?vid=b69e355e-f9e7-40c5-b01d-2f9ce70001e0","ios":"levelo://app?vid=b69e355e-f9e7-40c5-b01d-2f9ce70001e0"},"vehicle_type_id":"4","last_reported":1705950347,"current_range_meters":14000,"station_id":"ce4bgpp2rcd13ifvqc3g","pricing_plan_id":"free"},{"bike_id":"85765880-5372-4fe5-a1bf-cc90a947015b","system_id":"levelo_inurba_marseille","lat":43.2984,"lon":5.36267,"is_reserved":false,"is_disabled":false,"rental_uris":{"android":"levelo://app?vid=85765880-5372-4fe5-a1bf-cc90a947015b","ios":"levelo://app?vid=85765880-5372-4fe5-a1bf-cc90a947015b"},"vehicle_type_id":"4","last_reported":1705950347,"current_range_meters":11200,"station_id":"ce4bgpp2rcd13ifvqc3g","pricing_plan_id":"free"},{"bike_id":"70792a1d-c0e3-4359-96bd-482c0f0ea0ef","system_id":"levelo_inurba_marseille","lat":43.31186,"lon":5.38723,"is_reserved":false,"is_disabled":false,"rental_uris":{"android":"levelo://app?vid=70792a1d-c0e3-4359-96bd-482c0f0ea0ef","ios":"levelo://app?vid=70792a1d-c0e3-4359-96bd-482c0f0ea0ef"},"vehicle_type_id":"4","last_reported":1705950347,"current_range_meters":28400,"station_id":"ce4bgv12rcd13ifvqcp0","pricing_plan_id":"free"},{"bike_id":"241cef58-62a1-470c-bb29-0bbdf068fbcb","system_id":"levelo_inurba_marseille","lat":43.297794,"lon":5.370888,"is_reserved":false,"is_disabled":false,"rental_uris":{"android":"levelo://app?vid=241cef58-62a1-470c-bb29-0bbdf068fbcb","ios":"levelo://app?vid=241cef58-62a1-470c-bb29-0bbdf068fbcb"},"vehicle_type_id":"4","last_reported":1705950347,"current_range_meters":5600,"station_id":"ce4bgop2rcd13ifvqc1g","pricing_plan_id":"free"},{"bike_id":"53d14889-b8b0-49e0-ac90-e08a16d60a3f","system_id":"levelo_inurba_marseille","lat":43.322872,"lon":5.382756,"is_reserved":false,"is_disabled":false,"rental_uris":{"android":"levelo://app?vid=53d14889-b8b0-49e0-ac90-e08a16d60a3f","ios":"levelo://app?vid=53d14889-b8b0-49e0-ac90-e08a16d60a3f"},"vehicle_type_id":"4","last_reported":1705950347,"current_range_meters":28000,"station_id":"ce4bhr12rcd13ifvqhqg","pricing_plan_id":"free"},{"bike_id":"ce7380a6-9e0a-44a5-99cf-b6d0d9568202","system_id":"levelo_inurba_marseille","lat":43.322872,"lon":5.382756,"is_reserved":false,"is_disabled":false,"rental_uris":{"android":"levelo://app?vid=ce7380a6-9e0a-44a5-99cf-b6d0d9568202","ios":"levelo://app?vid=ce7380a6-9e0a-44a5-99cf-b6d0d9568202"},"vehicle_type_id":"4","last_reported":1705950347,"current_range_meters":31200,"station_id":"ce4bhr12rcd13ifvqhqg","pricing_plan_id":"free"},{"bike_id":"6587e751-0a88-45a7-b743-62d7688f1cc7","system_id":"levelo_inurba_marseille","lat":43.322872,"lon":5.382756,"is_reserved":false,"is_disabled":false,"rental_uris":{"android":"levelo://app?vid=6587e751-0a88-45a7-b743-62d7688f1cc7","ios":"levelo://app?vid=6587e751-0a88-45a7-b743-62d7688f1cc7"},"vehicle_type_id":"4","last_reported":1705950347,"current_range_meters":6000,"station_id":"ce4bhr12rcd13ifvqhqg","pricing_plan_id":"free"},{"bike_id":"95e0f6dd-23c8-4c9b-b51f-b801063ec866","system_id":"levelo_inurba_marseille","lat":43.322872,"lon":5.382756,"is_reserved":false,"is_disabled":false,"rental_uris":{"android":"levelo://app?vid=95e0f6dd-23c8-4c9b-b51f-b801063ec866","ios":"levelo://app?vid=95e0f6dd-23c8-4c9b-b51f-b801063ec866"},"vehicle_type_id":"4","last_reported":1705950347,"current_range_meters":31200,"station_id":"ce4bhr12rcd13ifvqhqg","pricing_plan_id":"free"},{"bike_id":"6e3660e2-8481-4369-b311-da163b64490d","system_id":"levelo_inurba_marseille","lat":43.322872,"lon":5.382756,"is_reserved":false,"is_disabled":false,"rental_uris":{"android":"levelo://app?vid=6e3660e2-8481-4369-b311-da163b64490d","ios":"levelo://app?vid=6e3660e2-8481-4369-b311-da163b64490d"},"vehicle_type_id":"4","last_reported":1705950347,"current_range_meters":19600,"station_id":"ce4bhr12rcd13ifvqhqg","pricing_plan_id":"free"},{"bike_id":"f99877a8-0a34-4778-a1bc-c3af444678b0","system_id":"levelo_inurba_marseille","lat":43.322872,"lon":5.382756,"is_reserved":false,"is_disabled":false,"rental_uris":{"android":"levelo://app?vid=f99877a8-0a34-4778-a1bc-c3af444678b0","ios":"levelo://app?vid=f99877a8-0a34-4778-a1bc-c3af444678b0"},"vehicle_type_id":"4","last_reported":1705950347,"current_range_meters":6000,"station_id":"ce4bhr12rcd13ifvqhqg","pricing_plan_id":"free"},{"bike_id":"447532c0-56ca-46ac-9000-fea47d81b433","system_id":"levelo_inurba_marseille","lat":43.328239,"lon":5.366768,"is_reserved":false,"is_disabled":false,"rental_uris":{"android":"levelo://app?vid=447532c0-56ca-46ac-9000-fea47d81b433","ios":"levelo://app?vid=447532c0-56ca-46ac-9000-fea47d81b433"},"vehicle_type_id":"4","last_reported":1705950347,"current_range_meters":30400,"station_id":"ce4bhs92rcd13ifvqi0g","pricing_plan_id":"free"},{"bike_id":"572c30ca-2698-4ebb-9720-28d9ee8291d9","system_id":"levelo_inurba_marseille","lat":43.32826,"lon":5.36674,"is_reserved":false,"is_disabled":false,"rental_uris":{"android":"levelo://app?vid=572c30ca-2698-4ebb-9720-28d9ee8291d9","ios":"levelo://app?vid=572c30ca-2698-4ebb-9720-28d9ee8291d9"},"vehicle_type_id":"4","last_reported":1705950347,"current_range_meters":21600,"station_id":"ce4bhs92rcd13ifvqi0g","pricing_plan_id":"free"},{"bike_id":"ea0178f3-2c6b-4af6-b062-91b0b8dde1df","system_id":"levelo_inurba_marseille","lat":43.32827,"lon":5.36678,"is_reserved":false,"is_disabled":false,"rental_uris":{"android":"levelo://app?vid=ea0178f3-2c6b-4af6-b062-91b0b8dde1df","ios":"levelo://app?vid=ea0178f3-2c6b-4af6-b062-91b0b8dde1df"},"vehicle_type_id":"4","last_reported":1705950347,"current_range_meters":14000,"station_id":"ce4bhs92rcd13ifvqi0g","pricing_plan_id":"free"},{"bike_id":"38d4b3c6-c1c4-4ada-b0ed-8e6826ac2770","system_id":"levelo_inurba_marseille","lat":43.328371,"lon":5.366909,"is_reserved":false,"is_disabled":false,"rental_uris":{"android":"levelo://app?vid=38d4b3c6-c1c4-4ada-b0ed-8e6826ac2770","ios":"levelo://app?vid=38d4b3c6-c1c4-4ada-b0ed-8e6826ac2770"},"vehicle_type_id":"4","last_reported":1705950347,"current_range_meters":21600,"station_id":"ce4bhs92rcd13ifvqi0g","pricing_plan_id":"free"},{"bike_id":"6da9db5a-42ba-4fa8-afc9-4fdbb45498c1","system_id":"levelo_inurba_marseille","lat":43.32828,"lon":5.36674,"is_reserved":false,"is_disabled":false,"rental_uris":{"android":"levelo://app?vid=6da9db5a-42ba-4fa8-afc9-4fdbb45498c1","ios":"levelo://app?vid=6da9db5a-42ba-4fa8-afc9-4fdbb45498c1"},"vehicle_type_id":"4","last_reported":1705950347,"current_range_meters":23200,"station_id":"ce4bhs92rcd13ifvqi0g","pricing_plan_id":"free"},{"bike_id":"5b7aaccd-f0dd-4bc4-a5b7-1581df3aca1d","system_id":"levelo_inurba_marseille","lat":43.328371,"lon":5.366909,"is_reserved":false,"is_disabled":false,"rental_uris":{"android":"levelo://app?vid=5b7aaccd-f0dd-4bc4-a5b7-1581df3aca1d","ios":"levelo://app?vid=5b7aaccd-f0dd-4bc4-a5b7-1581df3aca1d"},"vehicle_type_id":"4","last_reported":1705950347,"current_range_meters":19200,"station_id":"ce4bhs92rcd13ifvqi0g","pricing_plan_id":"free"},{"bike_id":"85cedcff-9e9a-415d-8415-195178ea3cb7","system_id":"levelo_inurba_marseille","lat":43.32829,"lon":5.36689,"is_reserved":false,"is_disabled":false,"rental_uris":{"android":"levelo://app?vid=85cedcff-9e9a-415d-8415-195178ea3cb7","ios":"levelo://app?vid=85cedcff-9e9a-415d-8415-195178ea3cb7"},"vehicle_type_id":"4","last_reported":1705950347,"current_range_meters":16000,"station_id":"ce4bhs92rcd13ifvqi0g","pricing_plan_id":"free"},{"bike_id":"b982bee1-d32f-45f2-a873-826a3328017e","system_id":"levelo_inurba_marseille","lat":43.32829,"lon":5.36669,"is_reserved":false,"is_disabled":false,"rental_uris":{"android":"levelo://app?vid=b982bee1-d32f-45f2-a873-826a3328017e","ios":"levelo://app?vid=b982bee1-d32f-45f2-a873-826a3328017e"},"vehicle_type_id":"4","last_reported":1705950347,"current_range_meters":22400,"station_id":"ce4bhs92rcd13ifvqi0g","pricing_plan_id":"free"},{"bike_id":"8e2e258c-9f25-408c-8291-bf6e5ba33180","system_id":"levelo_inurba_marseille","lat":43.328371,"lon":5.366909,"is_reserved":false,"is_disabled":false,"rental_uris":{"android":"levelo://app?vid=8e2e258c-9f25-408c-8291-bf6e5ba33180","ios":"levelo://app?vid=8e2e258c-9f25-408c-8291-bf6e5ba33180"},"vehicle_type_id":"4","last_reported":1705950347,"current_range_meters":31200,"station_id":"ce4bhs92rcd13ifvqi0g","pricing_plan_id":"free"},{"bike_id":"d8b5260c-205c-4300-9784-22ead2fde86f","system_id":"levelo_inurba_marseille","lat":43.328371,"lon":5.366909,"is_reserved":false,"is_disabled":false,"rental_uris":{"android":"levelo://app?vid=d8b5260c-205c-4300-9784-22ead2fde86f","ios":"levelo://app?vid=d8b5260c-205c-4300-9784-22ead2fde86f"},"vehicle_type_id":"4","last_reported":1705950347,"current_range_meters":22800,"station_id":"ce4bhs92rcd13ifvqi0g","pricing_plan_id":"free"},{"bike_id":"e92d083a-dfb9-464f-a2d7-ffc480709cb3","system_id":"levelo_inurba_marseille","lat":43.328371,"lon":5.366912,"is_reserved":false,"is_disabled":false,"rental_uris":{"android":"levelo://app?vid=e92d083a-dfb9-464f-a2d7-ffc480709cb3","ios":"levelo://app?vid=e92d083a-dfb9-464f-a2d7-ffc480709cb3"},"vehicle_type_id":"4","last_reported":1705950347,"current_range_meters":17600,"station_id":"ce4bhs92rcd13ifvqi0g","pricing_plan_id":"free"},{"bike_id":"f529af8b-6eb5-4dad-b929-2be8fdbdd47b","system_id":"levelo_inurba_marseille","lat":43.328371,"lon":5.366909,"is_reserved":false,"is_disabled":false,"rental_uris":{"android":"levelo://app?vid=f529af8b-6eb5-4dad-b929-2be8fdbdd47b","ios":"levelo://app?vid=f529af8b-6eb5-4dad-b929-2be8fdbdd47b"},"vehicle_type_id":"4","last_reported":1705950347,"current_range_meters":11600,"station_id":"ce4bhs92rcd13ifvqi0g","pricing_plan_id":"free"},{"bike_id":"c4689705-bde6-4219-964e-2ecc1db7262c","system_id":"levelo_inurba_marseille","lat":43.32831,"lon":5.36677,"is_reserved":false,"is_disabled":false,"rental_uris":{"android":"levelo://app?vid=c4689705-bde6-4219-964e-2ecc1db7262c","ios":"levelo://app?vid=c4689705-bde6-4219-964e-2ecc1db7262c"},"vehicle_type_id":"4","last_reported":1705950347,"current_range_meters":14400,"station_id":"ce4bhs92rcd13ifvqi0g","pricing_plan_id":"free"},{"bike_id":"d971af84-f55e-4f02-aa54-b2ecac82a0f2","system_id":"levelo_inurba_marseille","lat":43.328371,"lon":5.366909,"is_reserved":false,"is_disabled":false,"rental_uris":{"android":"levelo://app?vid=d971af84-f55e-4f02-aa54-b2ecac82a0f2","ios":"levelo://app?vid=d971af84-f55e-4f02-aa54-b2ecac82a0f2"},"vehicle_type_id":"4","last_reported":1705950347,"current_range_meters":10000,"station_id":"ce4bhs92rcd13ifvqi0g","pricing_plan_id":"free"},{"bike_id":"8a7caffe-61db-45d3-8854-28596f8245c8","system_id":"levelo_inurba_marseille","lat":43.328371,"lon":5.366912,"is_reserved":false,"is_disabled":false,"rental_uris":{"android":"levelo://app?vid=8a7caffe-61db-45d3-8854-28596f8245c8","ios":"levelo://app?vid=8a7caffe-61db-45d3-8854-28596f8245c8"},"vehicle_type_id":"4","last_reported":1705950347,"current_range_meters":800,"station_id":"ce4bhs92rcd13ifvqi0g","pricing_plan_id":"free"},{"bike_id":"a0edd8cb-2542-42e6-b896-1ede22883afb","system_id":"levelo_inurba_marseille","lat":43.297163,"lon":5.365866,"is_reserved":false,"is_disabled":false,"rental_uris":{"android":"levelo://app?vid=a0edd8cb-2542-42e6-b896-1ede22883afb","ios":"levelo://app?vid=a0edd8cb-2542-42e6-b896-1ede22883afb"},"vehicle_type_id":"4","last_reported":1705950347,"current_range_meters":15600,"station_id":"ce4bgn12rcd13ifvqbt0","pricing_plan_id":"free"},{"bike_id":"204738f6-469d-4db3-bd14-c2b38ef5e726","system_id":"levelo_inurba_marseille","lat":43.328371,"lon":5.366912,"is_reserved":false,"is_disabled":false,"rental_uris":{"android":"levelo://app?vid=204738f6-469d-4db3-bd14-c2b38ef5e726","ios":"levelo://app?vid=204738f6-469d-4db3-bd14-c2b38ef5e726"},"vehicle_type_id":"4","last_reported":1705950347,"current_range_meters":28000,"station_id":"ce4bhs92rcd13ifvqi0g","pricing_plan_id":"free"},{"bike_id":"38082c03-fac1-44d3-a79f-5142b4a113a9","system_id":"levelo_inurba_marseille","lat":43.328373,"lon":5.366902,"is_reserved":false,"is_disabled":false,"rental_uris":{"android":"levelo://app?vid=38082c03-fac1-44d3-a79f-5142b4a113a9","ios":"levelo://app?vid=38082c03-fac1-44d3-a79f-5142b4a113a9"},"vehicle_type_id":"4","last_reported":1705950347,"current_range_meters":17600,"station_id":"ce4bhs92rcd13ifvqi0g","pricing_plan_id":"free"},{"bike_id":"1fc1b3c8-8014-4f08-8c9e-d4e199361bae","system_id":"levelo_inurba_marseille","lat":43.297163,"lon":5.365866,"is_reserved":false,"is_disabled":false,"rental_uris":{"android":"levelo://app?vid=1fc1b3c8-8014-4f08-8c9e-d4e199361bae","ios":"levelo://app?vid=1fc1b3c8-8014-4f08-8c9e-d4e199361bae"},"vehicle_type_id":"4","last_reported":1705950347,"current_range_meters":1600,"station_id":"ce4bgn12rcd13ifvqbt0","pricing_plan_id":"free"},{"bike_id":"610454a2-15c5-40c4-a86d-4eb93027aa7b","system_id":"levelo_inurba_marseille","lat":43.305364,"lon":5.384119,"is_reserved":false,"is_disabled":false,"rental_uris":{"android":"levelo://app?vid=610454a2-15c5-40c4-a86d-4eb93027aa7b","ios":"levelo://app?vid=610454a2-15c5-40c4-a86d-4eb93027aa7b"},"vehicle_type_id":"4","last_reported":1705950347,"current_range_meters":1200,"station_id":"ce4bgg92rcd13ifvqb30","pricing_plan_id":"free"},{"bike_id":"9730ad92-147c-4d87-a512-8091a775e869","system_id":"levelo_inurba_marseille","lat":43.291675,"lon":5.371583,"is_reserved":false,"is_disabled":false,"rental_uris":{"android":"levelo://app?vid=9730ad92-147c-4d87-a512-8091a775e869","ios":"levelo://app?vid=9730ad92-147c-4d87-a512-8091a775e869"},"vehicle_type_id":"4","last_reported":1705950347,"current_range_meters":0,"station_id":"ce4bha92rcd13ifvqeh0","pricing_plan_id":"free"},{"bike_id":"48699150-f216-4aad-b270-145c3cb347db","system_id":"levelo_inurba_marseille","lat":43.296129,"lon":5.370777,"is_reserved":false,"is_disabled":false,"rental_uris":{"android":"levelo://app?vid=48699150-f216-4aad-b270-145c3cb347db","ios":"levelo://app?vid=48699150-f216-4aad-b270-145c3cb347db"},"vehicle_type_id":"4","last_reported":1705950347,"current_range_meters":26800,"station_id":"ce4bgnh2rcd13ifvqc0g","pricing_plan_id":"free"},{"bike_id":"576dc318-00e8-4d82-930c-9a21aaf0e081","system_id":"levelo_inurba_marseille","lat":43.296131,"lon":5.370773,"is_reserved":false,"is_disabled":false,"rental_uris":{"android":"levelo://app?vid=576dc318-00e8-4d82-930c-9a21aaf0e081","ios":"levelo://app?vid=576dc318-00e8-4d82-930c-9a21aaf0e081"},"vehicle_type_id":"4","last_reported":1705950347,"current_range_meters":28000,"station_id":"ce4bgnh2rcd13ifvqc0g","pricing_plan_id":"free"},{"bike_id":"47bd4e72-8c3f-431d-b416-ee508fe64af3","system_id":"levelo_inurba_marseille","lat":43.29628,"lon":5.37169,"is_reserved":false,"is_disabled":false,"rental_uris":{"android":"levelo://app?vid=47bd4e72-8c3f-431d-b416-ee508fe64af3","ios":"levelo://app?vid=47bd4e72-8c3f-431d-b416-ee508fe64af3"},"vehicle_type_id":"4","last_reported":1705950347,"current_range_meters":24000,"station_id":"ce4bgnh2rcd13ifvqc0g","pricing_plan_id":"free"},{"bike_id":"cb40340c-9d58-4d84-ba8f-aef5a7926797","system_id":"levelo_inurba_marseille","lat":43.296129,"lon":5.370777,"is_reserved":false,"is_disabled":false,"rental_uris":{"android":"levelo://app?vid=cb40340c-9d58-4d84-ba8f-aef5a7926797","ios":"levelo://app?vid=cb40340c-9d58-4d84-ba8f-aef5a7926797"},"vehicle_type_id":"4","last_reported":1705950347,"current_range_meters":28800,"station_id":"ce4bgnh2rcd13ifvqc0g","pricing_plan_id":"free"},{"bike_id":"cc0b2a86-daa7-4905-86d2-6fd6e7264850","system_id":"levelo_inurba_marseille","lat":43.29573,"lon":5.367355,"is_reserved":false,"is_disabled":false,"rental_uris":{"android":"levelo://app?vid=cc0b2a86-daa7-4905-86d2-6fd6e7264850","ios":"levelo://app?vid=cc0b2a86-daa7-4905-86d2-6fd6e7264850"},"vehicle_type_id":"4","last_reported":1705950347,"current_range_meters":10000,"station_id":"ce4bgph2rcd13ifvqc2g","pricing_plan_id":"free"},{"bike_id":"32a7ccd0-5637-4a4a-b991-f96306efe782","system_id":"levelo_inurba_marseille","lat":43.296129,"lon":5.370777,"is_reserved":false,"is_disabled":false,"rental_uris":{"android":"levelo://app?vid=32a7ccd0-5637-4a4a-b991-f96306efe782","ios":"levelo://app?vid=32a7ccd0-5637-4a4a-b991-f96306efe782"},"vehicle_type_id":"4","last_reported":1705950347,"current_range_meters":28000,"station_id":"ce4bgnh2rcd13ifvqc0g","pricing_plan_id":"free"},{"bike_id":"270d5895-26cd-4bf8-964b-4a78373d0069","system_id":"levelo_inurba_marseille","lat":43.296131,"lon":5.370791,"is_reserved":false,"is_disabled":false,"rental_uris":{"android":"levelo://app?vid=270d5895-26cd-4bf8-964b-4a78373d0069","ios":"levelo://app?vid=270d5895-26cd-4bf8-964b-4a78373d0069"},"vehicle_type_id":"4","last_reported":1705950347,"current_range_meters":30400,"station_id":"ce4bgnh2rcd13ifvqc0g","pricing_plan_id":"free"},{"bike_id":"4c664a18-e3f4-4da1-8b1b-6f13344de55e","system_id":"levelo_inurba_marseille","lat":43.296131,"lon":5.370791,"is_reserved":false,"is_disabled":false,"rental_uris":{"android":"levelo://app?vid=4c664a18-e3f4-4da1-8b1b-6f13344de55e","ios":"levelo://app?vid=4c664a18-e3f4-4da1-8b1b-6f13344de55e"},"vehicle_type_id":"4","last_reported":1705950347,"current_range_meters":25200,"station_id":"ce4bgnh2rcd13ifvqc0g","pricing_plan_id":"free"},{"bike_id":"61821e61-68c2-4bca-9518-900cb2b986bf","system_id":"levelo_inurba_marseille","lat":43.29573,"lon":5.367355,"is_reserved":false,"is_disabled":false,"rental_uris":{"android":"levelo://app?vid=61821e61-68c2-4bca-9518-900cb2b986bf","ios":"levelo://app?vid=61821e61-68c2-4bca-9518-900cb2b986bf"},"vehicle_type_id":"4","last_reported":1705950347,"current_range_meters":26800,"station_id":"ce4bgph2rcd13ifvqc2g","pricing_plan_id":"free"},{"bike_id":"76df0e11-812f-49b1-800a-ed4c903b7642","system_id":"levelo_inurba_marseille","lat":43.296131,"lon":5.370773,"is_reserved":false,"is_disabled":false,"rental_uris":{"android":"levelo://app?vid=76df0e11-812f-49b1-800a-ed4c903b7642","ios":"levelo://app?vid=76df0e11-812f-49b1-800a-ed4c903b7642"},"vehicle_type_id":"4","last_reported":1705950347,"current_range_meters":31200,"station_id":"ce4bgnh2rcd13ifvqc0g","pricing_plan_id":"free"},{"bike_id":"eea2fb98-b81d-4c69-ad4b-393591d49750","system_id":"levelo_inurba_marseille","lat":43.29573,"lon":5.367355,"is_reserved":false,"is_disabled":false,"rental_uris":{"android":"levelo://app?vid=eea2fb98-b81d-4c69-ad4b-393591d49750","ios":"levelo://app?vid=eea2fb98-b81d-4c69-ad4b-393591d49750"},"vehicle_type_id":"4","last_reported":1705950347,"current_range_meters":29600,"station_id":"ce4bgph2rcd13ifvqc2g","pricing_plan_id":"free"},{"bike_id":"6c29d6c7-864b-404d-a9de-ab34fb358996","system_id":"levelo_inurba_marseille","lat":43.295825,"lon":5.367753,"is_reserved":false,"is_disabled":false,"rental_uris":{"android":"levelo://app?vid=6c29d6c7-864b-404d-a9de-ab34fb358996","ios":"levelo://app?vid=6c29d6c7-864b-404d-a9de-ab34fb358996"},"vehicle_type_id":"4","last_reported":1705950347,"current_range_meters":20800,"station_id":"","pricing_plan_id":"free"},{"bike_id":"1ea84de1-db95-44a9-ba87-ca911708b74b","system_id":"levelo_inurba_marseille","lat":43.29573,"lon":5.367355,"is_reserved":false,"is_disabled":false,"rental_uris":{"android":"levelo://app?vid=1ea84de1-db95-44a9-ba87-ca911708b74b","ios":"levelo://app?vid=1ea84de1-db95-44a9-ba87-ca911708b74b"},"vehicle_type_id":"4","last_reported":1705950347,"current_range_meters":27600,"station_id":"ce4bgph2rcd13ifvqc2g","pricing_plan_id":"free"},{"bike_id":"c0cff8a6-f9f5-4b6f-88cd-fd1ef662b898","system_id":"levelo_inurba_marseille","lat":43.29573,"lon":5.367355,"is_reserved":false,"is_disabled":false,"rental_uris":{"android":"levelo://app?vid=c0cff8a6-f9f5-4b6f-88cd-fd1ef662b898","ios":"levelo://app?vid=c0cff8a6-f9f5-4b6f-88cd-fd1ef662b898"},"vehicle_type_id":"4","last_reported":1705950347,"current_range_meters":28000,"station_id":"ce4bgph2rcd13ifvqc2g","pricing_plan_id":"free"},{"bike_id":"a5ada8cf-d419-4b37-98f3-2bce71e1c61f","system_id":"levelo_inurba_marseille","lat":43.297098,"lon":5.376925,"is_reserved":false,"is_disabled":false,"rental_uris":{"android":"levelo://app?vid=a5ada8cf-d419-4b37-98f3-2bce71e1c61f","ios":"levelo://app?vid=a5ada8cf-d419-4b37-98f3-2bce71e1c61f"},"vehicle_type_id":"4","last_reported":1705950347,"current_range_meters":0,"station_id":"ce4bgkh2rcd13ifvqbl0","pricing_plan_id":"free"},{"bike_id":"60f8e810-5a47-4358-afa3-8a87516f0d00","system_id":"levelo_inurba_marseille","lat":43.317557,"lon":5.390173,"is_reserved":false,"is_disabled":false,"rental_uris":{"android":"levelo://app?vid=60f8e810-5a47-4358-afa3-8a87516f0d00","ios":"levelo://app?vid=60f8e810-5a47-4358-afa3-8a87516f0d00"},"vehicle_type_id":"4","last_reported":1705950347,"current_range_meters":16800,"station_id":"ce4bhqp2rcd13ifvqhng","pricing_plan_id":"free"},{"bike_id":"f3c8de66-7ad2-4aea-acd7-5cc0c0f4675c","system_id":"levelo_inurba_marseille","lat":43.317557,"lon":5.390173,"is_reserved":false,"is_disabled":false,"rental_uris":{"android":"levelo://app?vid=f3c8de66-7ad2-4aea-acd7-5cc0c0f4675c","ios":"levelo://app?vid=f3c8de66-7ad2-4aea-acd7-5cc0c0f4675c"},"vehicle_type_id":"4","last_reported":1705950347,"current_range_meters":27600,"station_id":"ce4bhqp2rcd13ifvqhng","pricing_plan_id":"free"},{"bike_id":"e67feb8c-37c8-4273-b68c-76a37047730c","system_id":"levelo_inurba_marseille","lat":43.317557,"lon":5.390173,"is_reserved":false,"is_disabled":false,"rental_uris":{"android":"levelo://app?vid=e67feb8c-37c8-4273-b68c-76a37047730c","ios":"levelo://app?vid=e67feb8c-37c8-4273-b68c-76a37047730c"},"vehicle_type_id":"4","last_reported":1705950347,"current_range_meters":13600,"station_id":"ce4bhqp2rcd13ifvqhng","pricing_plan_id":"free"},{"bike_id":"2b5da60d-3f1d-4c41-9c8a-584482c25210","system_id":"levelo_inurba_marseille","lat":43.317557,"lon":5.390173,"is_reserved":false,"is_disabled":false,"rental_uris":{"android":"levelo://app?vid=2b5da60d-3f1d-4c41-9c8a-584482c25210","ios":"levelo://app?vid=2b5da60d-3f1d-4c41-9c8a-584482c25210"},"vehicle_type_id":"4","last_reported":1705950347,"current_range_meters":24000,"station_id":"ce4bhqp2rcd13ifvqhng","pricing_plan_id":"free"},{"bike_id":"040d21b2-bbdd-4aa6-acba-10a60db6250b","system_id":"levelo_inurba_marseille","lat":43.317567,"lon":5.390234,"is_reserved":false,"is_disabled":false,"rental_uris":{"android":"levelo://app?vid=040d21b2-bbdd-4aa6-acba-10a60db6250b","ios":"levelo://app?vid=040d21b2-bbdd-4aa6-acba-10a60db6250b"},"vehicle_type_id":"4","last_reported":1705950347,"current_range_meters":7200,"station_id":"","pricing_plan_id":"free"},{"bike_id":"2db38b86-e92c-4eb3-bdb1-455527ef5f9c","system_id":"levelo_inurba_marseille","lat":43.298037,"lon":5.381066,"is_reserved":false,"is_disabled":false,"rental_uris":{"android":"levelo://app?vid=2db38b86-e92c-4eb3-bdb1-455527ef5f9c","ios":"levelo://app?vid=2db38b86-e92c-4eb3-bdb1-455527ef5f9c"},"vehicle_type_id":"4","last_reported":1705950347,"current_range_meters":0,"station_id":"ce4bgip2rcd13ifvqbb0","pricing_plan_id":"free"},{"bike_id":"9b985c14-dfdc-4f99-b667-f1d6c4cdea8d","system_id":"levelo_inurba_marseille","lat":43.29805,"lon":5.38094,"is_reserved":false,"is_disabled":false,"rental_uris":{"android":"levelo://app?vid=9b985c14-dfdc-4f99-b667-f1d6c4cdea8d","ios":"levelo://app?vid=9b985c14-dfdc-4f99-b667-f1d6c4cdea8d"},"vehicle_type_id":"4","last_reported":1705950347,"current_range_meters":0,"station_id":"ce4bgip2rcd13ifvqbb0","pricing_plan_id":"free"},{"bike_id":"36d275a9-43f2-4248-9549-610753533c8e","system_id":"levelo_inurba_marseille","lat":43.295748,"lon":5.37522,"is_reserved":false,"is_disabled":false,"rental_uris":{"android":"levelo://app?vid=36d275a9-43f2-4248-9549-610753533c8e","ios":"levelo://app?vid=36d275a9-43f2-4248-9549-610753533c8e"},"vehicle_type_id":"4","last_reported":1705950347,"current_range_meters":0,"station_id":"ce4bgh92rcd13ifvqb50","pricing_plan_id":"free"},{"bike_id":"bcd663da-8934-4bec-bc57-c85091e1dae5","system_id":"levelo_inurba_marseille","lat":43.29798,"lon":5.38101,"is_reserved":false,"is_disabled":false,"rental_uris":{"android":"levelo://app?vid=bcd663da-8934-4bec-bc57-c85091e1dae5","ios":"levelo://app?vid=bcd663da-8934-4bec-bc57-c85091e1dae5"},"vehicle_type_id":"4","last_reported":1705950347,"current_range_meters":0,"station_id":"ce4bgip2rcd13ifvqbb0","pricing_plan_id":"free"},{"bike_id":"e4e36fd3-8336-4af1-bd74-ce9f4f781617","system_id":"levelo_inurba_marseille","lat":43.29796,"lon":5.38134,"is_reserved":false,"is_disabled":false,"rental_uris":{"android":"levelo://app?vid=e4e36fd3-8336-4af1-bd74-ce9f4f781617","ios":"levelo://app?vid=e4e36fd3-8336-4af1-bd74-ce9f4f781617"},"vehicle_type_id":"4","last_reported":1705950347,"current_range_meters":0,"station_id":"ce4bgip2rcd13ifvqbb0","pricing_plan_id":"free"},{"bike_id":"50a84e58-3cda-401f-a445-90887246fa7c","system_id":"levelo_inurba_marseille","lat":43.2953,"lon":5.37513,"is_reserved":false,"is_disabled":false,"rental_uris":{"android":"levelo://app?vid=50a84e58-3cda-401f-a445-90887246fa7c","ios":"levelo://app?vid=50a84e58-3cda-401f-a445-90887246fa7c"},"vehicle_type_id":"4","last_reported":1705950347,"current_range_meters":0,"station_id":"ce4bgkp2rcd13ifvqbmg","pricing_plan_id":"free"},{"bike_id":"c66bc17a-b58d-4183-b968-f06b52a9c6c5","system_id":"levelo_inurba_marseille","lat":43.299717,"lon":5.384845,"is_reserved":false,"is_disabled":false,"rental_uris":{"android":"levelo://app?vid=c66bc17a-b58d-4183-b968-f06b52a9c6c5","ios":"levelo://app?vid=c66bc17a-b58d-4183-b968-f06b52a9c6c5"},"vehicle_type_id":"4","last_reported":1705950347,"current_range_meters":16000,"station_id":"ce4bgj92rcd13ifvqbd0","pricing_plan_id":"free"},{"bike_id":"d165c593-dd6a-45ed-8729-4b2e2207b0bf","system_id":"levelo_inurba_marseille","lat":43.32367,"lon":5.388836,"is_reserved":false,"is_disabled":false,"rental_uris":{"android":"levelo://app?vid=d165c593-dd6a-45ed-8729-4b2e2207b0bf","ios":"levelo://app?vid=d165c593-dd6a-45ed-8729-4b2e2207b0bf"},"vehicle_type_id":"4","last_reported":1705950347,"current_range_meters":22800,"station_id":"ce4bhqp2rcd13ifvqhog","pricing_plan_id":"free"},{"bike_id":"48b61ba6-1be8-4f51-a657-38965ca79743","system_id":"levelo_inurba_marseille","lat":43.32367,"lon":5.388836,"is_reserved":false,"is_disabled":false,"rental_uris":{"android":"levelo://app?vid=48b61ba6-1be8-4f51-a657-38965ca79743","ios":"levelo://app?vid=48b61ba6-1be8-4f51-a657-38965ca79743"},"vehicle_type_id":"4","last_reported":1705950347,"current_range_meters":13200,"station_id":"ce4bhqp2rcd13ifvqhog","pricing_plan_id":"free"},{"bike_id":"312bb58b-4ab0-4fc3-8653-7ed2c3f2b02d","system_id":"levelo_inurba_marseille","lat":43.32367,"lon":5.388836,"is_reserved":false,"is_disabled":false,"rental_uris":{"android":"levelo://app?vid=312bb58b-4ab0-4fc3-8653-7ed2c3f2b02d","ios":"levelo://app?vid=312bb58b-4ab0-4fc3-8653-7ed2c3f2b02d"},"vehicle_type_id":"4","last_reported":1705950347,"current_range_meters":7200,"station_id":"ce4bhqp2rcd13ifvqhog","pricing_plan_id":"free"},{"bike_id":"5a94c056-ab27-40da-81c8-6a87a7dbd5b2","system_id":"levelo_inurba_marseille","lat":43.32367,"lon":5.388836,"is_reserved":false,"is_disabled":false,"rental_uris":{"android":"levelo://app?vid=5a94c056-ab27-40da-81c8-6a87a7dbd5b2","ios":"levelo://app?vid=5a94c056-ab27-40da-81c8-6a87a7dbd5b2"},"vehicle_type_id":"4","last_reported":1705950347,"current_range_meters":25200,"station_id":"ce4bhqp2rcd13ifvqhog","pricing_plan_id":"free"},{"bike_id":"6d5ea52f-2d63-414f-b948-62b84897cbe7","system_id":"levelo_inurba_marseille","lat":43.32361,"lon":5.38887,"is_reserved":false,"is_disabled":false,"rental_uris":{"android":"levelo://app?vid=6d5ea52f-2d63-414f-b948-62b84897cbe7","ios":"levelo://app?vid=6d5ea52f-2d63-414f-b948-62b84897cbe7"},"vehicle_type_id":"4","last_reported":1705950347,"current_range_meters":8400,"station_id":"ce4bhqp2rcd13ifvqhog","pricing_plan_id":"free"},{"bike_id":"c7253817-d8ac-4c88-a4fb-3885b520e4cf","system_id":"levelo_inurba_marseille","lat":43.32367,"lon":5.388836,"is_reserved":false,"is_disabled":false,"rental_uris":{"android":"levelo://app?vid=c7253817-d8ac-4c88-a4fb-3885b520e4cf","ios":"levelo://app?vid=c7253817-d8ac-4c88-a4fb-3885b520e4cf"},"vehicle_type_id":"4","last_reported":1705950347,"current_range_meters":20400,"station_id":"ce4bhqp2rcd13ifvqhog","pricing_plan_id":"free"},{"bike_id":"02a1f268-92dc-41b2-b036-305e4dd3e4f4","system_id":"levelo_inurba_marseille","lat":43.32367,"lon":5.388836,"is_reserved":false,"is_disabled":false,"rental_uris":{"android":"levelo://app?vid=02a1f268-92dc-41b2-b036-305e4dd3e4f4","ios":"levelo://app?vid=02a1f268-92dc-41b2-b036-305e4dd3e4f4"},"vehicle_type_id":"4","last_reported":1705950347,"current_range_meters":1600,"station_id":"ce4bhqp2rcd13ifvqhog","pricing_plan_id":"free"},{"bike_id":"4a4d2dfc-55bc-4e74-ab1b-c83ba9a79873","system_id":"levelo_inurba_marseille","lat":43.32372,"lon":5.38886,"is_reserved":false,"is_disabled":false,"rental_uris":{"android":"levelo://app?vid=4a4d2dfc-55bc-4e74-ab1b-c83ba9a79873","ios":"levelo://app?vid=4a4d2dfc-55bc-4e74-ab1b-c83ba9a79873"},"vehicle_type_id":"4","last_reported":1705950347,"current_range_meters":30000,"station_id":"ce4bhqp2rcd13ifvqhog","pricing_plan_id":"free"},{"bike_id":"8022634d-f6f8-40a8-8dfd-e78af50784c1","system_id":"levelo_inurba_marseille","lat":43.29602,"lon":5.381084,"is_reserved":false,"is_disabled":false,"rental_uris":{"android":"levelo://app?vid=8022634d-f6f8-40a8-8dfd-e78af50784c1","ios":"levelo://app?vid=8022634d-f6f8-40a8-8dfd-e78af50784c1"},"vehicle_type_id":"4","last_reported":1705950347,"current_range_meters":15600,"station_id":"ce4bgl12rcd13ifvqbo0","pricing_plan_id":"free"},{"bike_id":"71189d73-104f-4b93-a939-cf8a1674f5ce","system_id":"levelo_inurba_marseille","lat":43.28856,"lon":5.358371,"is_reserved":false,"is_disabled":false,"rental_uris":{"android":"levelo://app?vid=71189d73-104f-4b93-a939-cf8a1674f5ce","ios":"levelo://app?vid=71189d73-104f-4b93-a939-cf8a1674f5ce"},"vehicle_type_id":"4","last_reported":1705950347,"current_range_meters":800,"station_id":"ce4bhb12rcd13ifvqem0","pricing_plan_id":"free"},{"bike_id":"6356ce74-dbb5-4859-ae01-8418ceb5919b","system_id":"levelo_inurba_marseille","lat":43.293259,"lon":5.371586,"is_reserved":false,"is_disabled":false,"rental_uris":{"android":"levelo://app?vid=6356ce74-dbb5-4859-ae01-8418ceb5919b","ios":"levelo://app?vid=6356ce74-dbb5-4859-ae01-8418ceb5919b"},"vehicle_type_id":"4","last_reported":1705950347,"current_range_meters":16000,"station_id":"ce4bgh92rcd13ifvqb40","pricing_plan_id":"free"},{"bike_id":"8f37fa90-04e7-463e-bc5c-fe915089bd0a","system_id":"levelo_inurba_marseille","lat":43.305994,"lon":5.393687,"is_reserved":false,"is_disabled":false,"rental_uris":{"android":"levelo://app?vid=8f37fa90-04e7-463e-bc5c-fe915089bd0a","ios":"levelo://app?vid=8f37fa90-04e7-463e-bc5c-fe915089bd0a"},"vehicle_type_id":"4","last_reported":1705950347,"current_range_meters":0,"station_id":"ce4bh0p2rcd13ifvqd80","pricing_plan_id":"free"},{"bike_id":"a7d583b1-b6b7-4d30-8eb9-1f308e7b4037","system_id":"levelo_inurba_marseille","lat":43.313291,"lon":5.396838,"is_reserved":false,"is_disabled":false,"rental_uris":{"android":"levelo://app?vid=a7d583b1-b6b7-4d30-8eb9-1f308e7b4037","ios":"levelo://app?vid=a7d583b1-b6b7-4d30-8eb9-1f308e7b4037"},"vehicle_type_id":"4","last_reported":1705950347,"current_range_meters":22800,"station_id":"ce4bgvp2rcd13ifvqcu0","pricing_plan_id":"free"},{"bike_id":"d2669633-87bc-4466-807a-78450a2c4e9e","system_id":"levelo_inurba_marseille","lat":43.303002,"lon":5.392142,"is_reserved":false,"is_disabled":false,"rental_uris":{"android":"levelo://app?vid=d2669633-87bc-4466-807a-78450a2c4e9e","ios":"levelo://app?vid=d2669633-87bc-4466-807a-78450a2c4e9e"},"vehicle_type_id":"4","last_reported":1705950347,"current_range_meters":13600,"station_id":"ce4bgkh2rcd13ifvqbk0","pricing_plan_id":"free"},{"bike_id":"87fc4491-a4c3-48c3-bb2d-e0a037af83c8","system_id":"levelo_inurba_marseille","lat":43.303002,"lon":5.392142,"is_reserved":false,"is_disabled":false,"rental_uris":{"android":"levelo://app?vid=87fc4491-a4c3-48c3-bb2d-e0a037af83c8","ios":"levelo://app?vid=87fc4491-a4c3-48c3-bb2d-e0a037af83c8"},"vehicle_type_id":"4","last_reported":1705950347,"current_range_meters":28000,"station_id":"ce4bgkh2rcd13ifvqbk0","pricing_plan_id":"free"},{"bike_id":"f3524ebe-a533-4b35-856c-b4d307d36a0d","system_id":"levelo_inurba_marseille","lat":43.2936,"lon":5.37835,"is_reserved":false,"is_disabled":false,"rental_uris":{"android":"levelo://app?vid=f3524ebe-a533-4b35-856c-b4d307d36a0d","ios":"levelo://app?vid=f3524ebe-a533-4b35-856c-b4d307d36a0d"},"vehicle_type_id":"4","last_reported":1705950347,"current_range_meters":5600,"station_id":"ce4bgjh2rcd13ifvqbf0","pricing_plan_id":"free"},{"bike_id":"b2901303-8536-4be5-80ee-ff03dd8ba59c","system_id":"levelo_inurba_marseille","lat":43.30085,"lon":5.390856,"is_reserved":false,"is_disabled":false,"rental_uris":{"android":"levelo://app?vid=b2901303-8536-4be5-80ee-ff03dd8ba59c","ios":"levelo://app?vid=b2901303-8536-4be5-80ee-ff03dd8ba59c"},"vehicle_type_id":"4","last_reported":1705950347,"current_range_meters":400,"station_id":"ce4bh192rcd13ifvqdb0","pricing_plan_id":"free"},{"bike_id":"82bac48e-95b5-4f9b-96cb-fb1d297a6139","system_id":"levelo_inurba_marseille","lat":43.292311,"lon":5.360731,"is_reserved":false,"is_disabled":false,"rental_uris":{"android":"levelo://app?vid=82bac48e-95b5-4f9b-96cb-fb1d297a6139","ios":"levelo://app?vid=82bac48e-95b5-4f9b-96cb-fb1d297a6139"},"vehicle_type_id":"4","last_reported":1705950347,"current_range_meters":12800,"station_id":"ce4bhbh2rcd13ifvqeqg","pricing_plan_id":"free"},{"bike_id":"f2699c21-b884-4164-9925-eb1c44651eb3","system_id":"levelo_inurba_marseille","lat":43.300852,"lon":5.390859,"is_reserved":false,"is_disabled":false,"rental_uris":{"android":"levelo://app?vid=f2699c21-b884-4164-9925-eb1c44651eb3","ios":"levelo://app?vid=f2699c21-b884-4164-9925-eb1c44651eb3"},"vehicle_type_id":"4","last_reported":1705950347,"current_range_meters":8800,"station_id":"ce4bh192rcd13ifvqdb0","pricing_plan_id":"free"},{"bike_id":"f9bdfaca-444e-4121-b01b-bcffbc5fa014","system_id":"levelo_inurba_marseille","lat":43.30085,"lon":5.390856,"is_reserved":false,"is_disabled":false,"rental_uris":{"android":"levelo://app?vid=f9bdfaca-444e-4121-b01b-bcffbc5fa014","ios":"levelo://app?vid=f9bdfaca-444e-4121-b01b-bcffbc5fa014"},"vehicle_type_id":"4","last_reported":1705950347,"current_range_meters":26000,"station_id":"ce4bh192rcd13ifvqdb0","pricing_plan_id":"free"},{"bike_id":"0f7a71d5-acee-4f96-97fc-1c03b22320e1","system_id":"levelo_inurba_marseille","lat":43.300852,"lon":5.390859,"is_reserved":false,"is_disabled":false,"rental_uris":{"android":"levelo://app?vid=0f7a71d5-acee-4f96-97fc-1c03b22320e1","ios":"levelo://app?vid=0f7a71d5-acee-4f96-97fc-1c03b22320e1"},"vehicle_type_id":"4","last_reported":1705950347,"current_range_meters":800,"station_id":"ce4bh192rcd13ifvqdb0","pricing_plan_id":"free"},{"bike_id":"6cf4d737-3b52-4be6-85ab-287dddf9231d","system_id":"levelo_inurba_marseille","lat":43.29174,"lon":5.36642,"is_reserved":false,"is_disabled":false,"rental_uris":{"android":"levelo://app?vid=6cf4d737-3b52-4be6-85ab-287dddf9231d","ios":"levelo://app?vid=6cf4d737-3b52-4be6-85ab-287dddf9231d"},"vehicle_type_id":"4","last_reported":1705950347,"current_range_meters":1600,"station_id":"","pricing_plan_id":"free"},{"bike_id":"56414637-a11a-43a7-bf9b-5054805f2760","system_id":"levelo_inurba_marseille","lat":43.29877,"lon":5.38897,"is_reserved":false,"is_disabled":false,"rental_uris":{"android":"levelo://app?vid=56414637-a11a-43a7-bf9b-5054805f2760","ios":"levelo://app?vid=56414637-a11a-43a7-bf9b-5054805f2760"},"vehicle_type_id":"4","last_reported":1705950347,"current_range_meters":4000,"station_id":"ce4bh392rcd13ifvqdl0","pricing_plan_id":"free"},{"bike_id":"9ba517ba-7f88-4b5b-9106-b9ef8d4a884a","system_id":"levelo_inurba_marseille","lat":43.298764,"lon":5.388973,"is_reserved":false,"is_disabled":false,"rental_uris":{"android":"levelo://app?vid=9ba517ba-7f88-4b5b-9106-b9ef8d4a884a","ios":"levelo://app?vid=9ba517ba-7f88-4b5b-9106-b9ef8d4a884a"},"vehicle_type_id":"4","last_reported":1705950347,"current_range_meters":16400,"station_id":"ce4bh392rcd13ifvqdl0","pricing_plan_id":"free"},{"bike_id":"1f059b55-6484-455f-b300-07a5a35594c2","system_id":"levelo_inurba_marseille","lat":43.29874,"lon":5.38904,"is_reserved":false,"is_disabled":false,"rental_uris":{"android":"levelo://app?vid=1f059b55-6484-455f-b300-07a5a35594c2","ios":"levelo://app?vid=1f059b55-6484-455f-b300-07a5a35594c2"},"vehicle_type_id":"4","last_reported":1705950347,"current_range_meters":19600,"station_id":"ce4bh392rcd13ifvqdl0","pricing_plan_id":"free"},{"bike_id":"ce385ff7-bf73-4ce4-8a7b-1941c5fefd0a","system_id":"levelo_inurba_marseille","lat":43.298764,"lon":5.388973,"is_reserved":false,"is_disabled":false,"rental_uris":{"android":"levelo://app?vid=ce385ff7-bf73-4ce4-8a7b-1941c5fefd0a","ios":"levelo://app?vid=ce385ff7-bf73-4ce4-8a7b-1941c5fefd0a"},"vehicle_type_id":"4","last_reported":1705950347,"current_range_meters":26000,"station_id":"ce4bh392rcd13ifvqdl0","pricing_plan_id":"free"},{"bike_id":"e10775dc-9140-4cf4-aafe-7180523a334a","system_id":"levelo_inurba_marseille","lat":43.312917,"lon":5.396788,"is_reserved":false,"is_disabled":false,"rental_uris":{"android":"levelo://app?vid=e10775dc-9140-4cf4-aafe-7180523a334a","ios":"levelo://app?vid=e10775dc-9140-4cf4-aafe-7180523a334a"},"vehicle_type_id":"4","last_reported":1705950347,"current_range_meters":23200,"station_id":"","pricing_plan_id":"free"},{"bike_id":"7d2a302a-8902-4474-8a16-e8f7827e3044","system_id":"levelo_inurba_marseille","lat":43.313291,"lon":5.396838,"is_reserved":false,"is_disabled":false,"rental_uris":{"android":"levelo://app?vid=7d2a302a-8902-4474-8a16-e8f7827e3044","ios":"levelo://app?vid=7d2a302a-8902-4474-8a16-e8f7827e3044"},"vehicle_type_id":"4","last_reported":1705950347,"current_range_meters":3600,"station_id":"ce4bgvp2rcd13ifvqcu0","pricing_plan_id":"free"},{"bike_id":"06e7cdd3-00e8-46d7-addc-bdcff8459390","system_id":"levelo_inurba_marseille","lat":43.313291,"lon":5.396838,"is_reserved":false,"is_disabled":false,"rental_uris":{"android":"levelo://app?vid=06e7cdd3-00e8-46d7-addc-bdcff8459390","ios":"levelo://app?vid=06e7cdd3-00e8-46d7-addc-bdcff8459390"},"vehicle_type_id":"4","last_reported":1705950347,"current_range_meters":7200,"station_id":"ce4bgvp2rcd13ifvqcu0","pricing_plan_id":"free"},{"bike_id":"1a9b07e9-1bc5-42be-9168-2d3224b2250d","system_id":"levelo_inurba_marseille","lat":43.309038,"lon":5.396546,"is_reserved":false,"is_disabled":false,"rental_uris":{"android":"levelo://app?vid=1a9b07e9-1bc5-42be-9168-2d3224b2250d","ios":"levelo://app?vid=1a9b07e9-1bc5-42be-9168-2d3224b2250d"},"vehicle_type_id":"4","last_reported":1705950347,"current_range_meters":28000,"station_id":"ce4bh012rcd13ifvqcv0","pricing_plan_id":"free"},{"bike_id":"4629583c-b1ea-4840-b672-862935324178","system_id":"levelo_inurba_marseille","lat":43.313291,"lon":5.396838,"is_reserved":false,"is_disabled":false,"rental_uris":{"android":"levelo://app?vid=4629583c-b1ea-4840-b672-862935324178","ios":"levelo://app?vid=4629583c-b1ea-4840-b672-862935324178"},"vehicle_type_id":"4","last_reported":1705950347,"current_range_meters":22400,"station_id":"ce4bgvp2rcd13ifvqcu0","pricing_plan_id":"free"},{"bike_id":"91dacd66-df61-4b3c-b639-38f081508a8a","system_id":"levelo_inurba_marseille","lat":43.309047,"lon":5.396551,"is_reserved":false,"is_disabled":false,"rental_uris":{"android":"levelo://app?vid=91dacd66-df61-4b3c-b639-38f081508a8a","ios":"levelo://app?vid=91dacd66-df61-4b3c-b639-38f081508a8a"},"vehicle_type_id":"4","last_reported":1705950347,"current_range_meters":2800,"station_id":"ce4bh012rcd13ifvqcv0","pricing_plan_id":"free"},{"bike_id":"0841cde0-b0f0-41af-ba6d-81d72623c02d","system_id":"levelo_inurba_marseille","lat":43.309038,"lon":5.396546,"is_reserved":false,"is_disabled":false,"rental_uris":{"android":"levelo://app?vid=0841cde0-b0f0-41af-ba6d-81d72623c02d","ios":"levelo://app?vid=0841cde0-b0f0-41af-ba6d-81d72623c02d"},"vehicle_type_id":"4","last_reported":1705950347,"current_range_meters":12000,"station_id":"ce4bh012rcd13ifvqcv0","pricing_plan_id":"free"},{"bike_id":"5a5b014c-7897-404a-a269-4a0a75907dd4","system_id":"levelo_inurba_marseille","lat":43.31331,"lon":5.39694,"is_reserved":false,"is_disabled":false,"rental_uris":{"android":"levelo://app?vid=5a5b014c-7897-404a-a269-4a0a75907dd4","ios":"levelo://app?vid=5a5b014c-7897-404a-a269-4a0a75907dd4"},"vehicle_type_id":"4","last_reported":1705950347,"current_range_meters":15200,"station_id":"ce4bgvp2rcd13ifvqcu0","pricing_plan_id":"free"},{"bike_id":"fcb3b231-c529-47e3-b2e2-1d1b695c2837","system_id":"levelo_inurba_marseille","lat":43.31328,"lon":5.39695,"is_reserved":false,"is_disabled":false,"rental_uris":{"android":"levelo://app?vid=fcb3b231-c529-47e3-b2e2-1d1b695c2837","ios":"levelo://app?vid=fcb3b231-c529-47e3-b2e2-1d1b695c2837"},"vehicle_type_id":"4","last_reported":1705950347,"current_range_meters":11200,"station_id":"ce4bgvp2rcd13ifvqcu0","pricing_plan_id":"free"},{"bike_id":"f20820ed-4a7c-433b-9fec-bbc4e814ef62","system_id":"levelo_inurba_marseille","lat":43.31329,"lon":5.39696,"is_reserved":false,"is_disabled":false,"rental_uris":{"android":"levelo://app?vid=f20820ed-4a7c-433b-9fec-bbc4e814ef62","ios":"levelo://app?vid=f20820ed-4a7c-433b-9fec-bbc4e814ef62"},"vehicle_type_id":"4","last_reported":1705950347,"current_range_meters":20000,"station_id":"ce4bgvp2rcd13ifvqcu0","pricing_plan_id":"free"},{"bike_id":"4e914a54-894e-4ad3-b7e0-25e629a15136","system_id":"levelo_inurba_marseille","lat":43.309038,"lon":5.396546,"is_reserved":false,"is_disabled":false,"rental_uris":{"android":"levelo://app?vid=4e914a54-894e-4ad3-b7e0-25e629a15136","ios":"levelo://app?vid=4e914a54-894e-4ad3-b7e0-25e629a15136"},"vehicle_type_id":"4","last_reported":1705950347,"current_range_meters":9600,"station_id":"ce4bh012rcd13ifvqcv0","pricing_plan_id":"free"},{"bike_id":"ef396dc3-8557-489c-87ed-049cf0eeda33","system_id":"levelo_inurba_marseille","lat":43.31322,"lon":5.39697,"is_reserved":false,"is_disabled":false,"rental_uris":{"android":"levelo://app?vid=ef396dc3-8557-489c-87ed-049cf0eeda33","ios":"levelo://app?vid=ef396dc3-8557-489c-87ed-049cf0eeda33"},"vehicle_type_id":"4","last_reported":1705950347,"current_range_meters":10000,"station_id":"ce4bgvp2rcd13ifvqcu0","pricing_plan_id":"free"},{"bike_id":"e804b5e8-dced-4abf-a3e4-772e410179e3","system_id":"levelo_inurba_marseille","lat":43.31327,"lon":5.39698,"is_reserved":false,"is_disabled":false,"rental_uris":{"android":"levelo://app?vid=e804b5e8-dced-4abf-a3e4-772e410179e3","ios":"levelo://app?vid=e804b5e8-dced-4abf-a3e4-772e410179e3"},"vehicle_type_id":"4","last_reported":1705950347,"current_range_meters":5200,"station_id":"ce4bgvp2rcd13ifvqcu0","pricing_plan_id":"free"},{"bike_id":"d5ebf2ac-e9ba-4c7e-b469-c3e51d9686d9","system_id":"levelo_inurba_marseille","lat":43.313291,"lon":5.396838,"is_reserved":false,"is_disabled":false,"rental_uris":{"android":"levelo://app?vid=d5ebf2ac-e9ba-4c7e-b469-c3e51d9686d9","ios":"levelo://app?vid=d5ebf2ac-e9ba-4c7e-b469-c3e51d9686d9"},"vehicle_type_id":"4","last_reported":1705950347,"current_range_meters":24400,"station_id":"ce4bgvp2rcd13ifvqcu0","pricing_plan_id":"free"},{"bike_id":"e1b94209-e81b-469c-8bc5-f791275305f1","system_id":"levelo_inurba_marseille","lat":43.309047,"lon":5.396551,"is_reserved":false,"is_disabled":false,"rental_uris":{"android":"levelo://app?vid=e1b94209-e81b-469c-8bc5-f791275305f1","ios":"levelo://app?vid=e1b94209-e81b-469c-8bc5-f791275305f1"},"vehicle_type_id":"4","last_reported":1705950347,"current_range_meters":8400,"station_id":"ce4bh012rcd13ifvqcv0","pricing_plan_id":"free"},{"bike_id":"9bcb8faf-0db6-486f-ab42-d772470be3c0","system_id":"levelo_inurba_marseille","lat":43.309038,"lon":5.396546,"is_reserved":false,"is_disabled":false,"rental_uris":{"android":"levelo://app?vid=9bcb8faf-0db6-486f-ab42-d772470be3c0","ios":"levelo://app?vid=9bcb8faf-0db6-486f-ab42-d772470be3c0"},"vehicle_type_id":"4","last_reported":1705950347,"current_range_meters":8800,"station_id":"ce4bh012rcd13ifvqcv0","pricing_plan_id":"free"},{"bike_id":"de572be9-9d53-4e5c-8027-061c27eb2e00","system_id":"levelo_inurba_marseille","lat":43.309038,"lon":5.396546,"is_reserved":false,"is_disabled":false,"rental_uris":{"android":"levelo://app?vid=de572be9-9d53-4e5c-8027-061c27eb2e00","ios":"levelo://app?vid=de572be9-9d53-4e5c-8027-061c27eb2e00"},"vehicle_type_id":"4","last_reported":1705950347,"current_range_meters":13200,"station_id":"ce4bh012rcd13ifvqcv0","pricing_plan_id":"free"},{"bike_id":"b8c036fa-bb6b-49bb-a6e4-25fa1ea3a5d5","system_id":"levelo_inurba_marseille","lat":43.290779,"lon":5.371482,"is_reserved":false,"is_disabled":false,"rental_uris":{"android":"levelo://app?vid=b8c036fa-bb6b-49bb-a6e4-25fa1ea3a5d5","ios":"levelo://app?vid=b8c036fa-bb6b-49bb-a6e4-25fa1ea3a5d5"},"vehicle_type_id":"4","last_reported":1705950347,"current_range_meters":22800,"station_id":"ce4bh5p2rcd13ifvqe4g","pricing_plan_id":"free"},{"bike_id":"3921e4ee-bfbe-438c-a459-d08b3b77295f","system_id":"levelo_inurba_marseille","lat":43.290779,"lon":5.371482,"is_reserved":false,"is_disabled":false,"rental_uris":{"android":"levelo://app?vid=3921e4ee-bfbe-438c-a459-d08b3b77295f","ios":"levelo://app?vid=3921e4ee-bfbe-438c-a459-d08b3b77295f"},"vehicle_type_id":"4","last_reported":1705950347,"current_range_meters":14800,"station_id":"ce4bh5p2rcd13ifvqe4g","pricing_plan_id":"free"},{"bike_id":"8b48f6e7-a0cb-45e8-b9cd-c80cd041a1fd","system_id":"levelo_inurba_marseille","lat":43.281044,"lon":5.378308,"is_reserved":false,"is_disabled":false,"rental_uris":{"android":"levelo://app?vid=8b48f6e7-a0cb-45e8-b9cd-c80cd041a1fd","ios":"levelo://app?vid=8b48f6e7-a0cb-45e8-b9cd-c80cd041a1fd"},"vehicle_type_id":"4","last_reported":1705950347,"current_range_meters":10400,"station_id":"ce4bha12rcd13ifvqee0","pricing_plan_id":"free"},{"bike_id":"550e1342-3150-4ca5-be30-7621317060cb","system_id":"levelo_inurba_marseille","lat":43.302008,"lon":5.394694,"is_reserved":false,"is_disabled":false,"rental_uris":{"android":"levelo://app?vid=550e1342-3150-4ca5-be30-7621317060cb","ios":"levelo://app?vid=550e1342-3150-4ca5-be30-7621317060cb"},"vehicle_type_id":"4","last_reported":1705950347,"current_range_meters":10800,"station_id":"ce4bh0p2rcd13ifvqd70","pricing_plan_id":"free"},{"bike_id":"98403e2d-f3d4-4167-85e7-a4ffb0adab1f","system_id":"levelo_inurba_marseille","lat":43.302008,"lon":5.394694,"is_reserved":false,"is_disabled":false,"rental_uris":{"android":"levelo://app?vid=98403e2d-f3d4-4167-85e7-a4ffb0adab1f","ios":"levelo://app?vid=98403e2d-f3d4-4167-85e7-a4ffb0adab1f"},"vehicle_type_id":"4","last_reported":1705950347,"current_range_meters":400,"station_id":"ce4bh0p2rcd13ifvqd70","pricing_plan_id":"free"},{"bike_id":"16150eaa-2089-48aa-87cc-722f8f43db1f","system_id":"levelo_inurba_marseille","lat":43.302008,"lon":5.394694,"is_reserved":false,"is_disabled":false,"rental_uris":{"android":"levelo://app?vid=16150eaa-2089-48aa-87cc-722f8f43db1f","ios":"levelo://app?vid=16150eaa-2089-48aa-87cc-722f8f43db1f"},"vehicle_type_id":"4","last_reported":1705950347,"current_range_meters":22800,"station_id":"ce4bh0p2rcd13ifvqd70","pricing_plan_id":"free"},{"bike_id":"9bcae7e7-e959-4a66-92a3-d9c152f069fd","system_id":"levelo_inurba_marseille","lat":43.302008,"lon":5.394694,"is_reserved":false,"is_disabled":false,"rental_uris":{"android":"levelo://app?vid=9bcae7e7-e959-4a66-92a3-d9c152f069fd","ios":"levelo://app?vid=9bcae7e7-e959-4a66-92a3-d9c152f069fd"},"vehicle_type_id":"4","last_reported":1705950347,"current_range_meters":9600,"station_id":"ce4bh0p2rcd13ifvqd70","pricing_plan_id":"free"},{"bike_id":"c87fb802-a149-4ba6-90c5-47284d413d23","system_id":"levelo_inurba_marseille","lat":43.290631,"lon":5.359244,"is_reserved":false,"is_disabled":false,"rental_uris":{"android":"levelo://app?vid=c87fb802-a149-4ba6-90c5-47284d413d23","ios":"levelo://app?vid=c87fb802-a149-4ba6-90c5-47284d413d23"},"vehicle_type_id":"4","last_reported":1705950347,"current_range_meters":31200,"station_id":"ce4bha92rcd13ifvqeg0","pricing_plan_id":"free"},{"bike_id":"1cd59b15-824e-457e-be20-6875a3b76b9c","system_id":"levelo_inurba_marseille","lat":43.295169,"lon":5.390426,"is_reserved":false,"is_disabled":false,"rental_uris":{"android":"levelo://app?vid=1cd59b15-824e-457e-be20-6875a3b76b9c","ios":"levelo://app?vid=1cd59b15-824e-457e-be20-6875a3b76b9c"},"vehicle_type_id":"4","last_reported":1705950347,"current_range_meters":10800,"station_id":"ce4bh3p2rcd13ifvqdp0","pricing_plan_id":"free"},{"bike_id":"d4941482-e499-4fdf-a6eb-b40418462d5a","system_id":"levelo_inurba_marseille","lat":43.290327,"lon":5.375711,"is_reserved":false,"is_disabled":false,"rental_uris":{"android":"levelo://app?vid=d4941482-e499-4fdf-a6eb-b40418462d5a","ios":"levelo://app?vid=d4941482-e499-4fdf-a6eb-b40418462d5a"},"vehicle_type_id":"4","last_reported":1705950347,"current_range_meters":18800,"station_id":"ce4bh692rcd13ifvqe90","pricing_plan_id":"free"},{"bike_id":"f9a21bed-37d0-4591-8d69-071b3446a38c","system_id":"levelo_inurba_marseille","lat":43.294162,"lon":5.386292,"is_reserved":false,"is_disabled":false,"rental_uris":{"android":"levelo://app?vid=f9a21bed-37d0-4591-8d69-071b3446a38c","ios":"levelo://app?vid=f9a21bed-37d0-4591-8d69-071b3446a38c"},"vehicle_type_id":"4","last_reported":1705950347,"current_range_meters":9200,"station_id":"ce4bh2h2rcd13ifvqdh0","pricing_plan_id":"free"},{"bike_id":"39b02ee7-ec36-482d-9a48-8e290e5927bd","system_id":"levelo_inurba_marseille","lat":43.290327,"lon":5.375711,"is_reserved":false,"is_disabled":false,"rental_uris":{"android":"levelo://app?vid=39b02ee7-ec36-482d-9a48-8e290e5927bd","ios":"levelo://app?vid=39b02ee7-ec36-482d-9a48-8e290e5927bd"},"vehicle_type_id":"4","last_reported":1705950347,"current_range_meters":10000,"station_id":"ce4bh692rcd13ifvqe90","pricing_plan_id":"free"},{"bike_id":"9ff37ea8-18e7-4a64-bcfb-94537391e4cb","system_id":"levelo_inurba_marseille","lat":43.289184,"lon":5.366408,"is_reserved":false,"is_disabled":false,"rental_uris":{"android":"levelo://app?vid=9ff37ea8-18e7-4a64-bcfb-94537391e4cb","ios":"levelo://app?vid=9ff37ea8-18e7-4a64-bcfb-94537391e4cb"},"vehicle_type_id":"4","last_reported":1705950347,"current_range_meters":24000,"station_id":"ce4bhap2rcd13ifvqek0","pricing_plan_id":"free"},{"bike_id":"49f10228-8a90-4326-bc2d-a5ea82b427f7","system_id":"levelo_inurba_marseille","lat":43.289468,"lon":5.363719,"is_reserved":false,"is_disabled":false,"rental_uris":{"android":"levelo://app?vid=49f10228-8a90-4326-bc2d-a5ea82b427f7","ios":"levelo://app?vid=49f10228-8a90-4326-bc2d-a5ea82b427f7"},"vehicle_type_id":"4","last_reported":1705950347,"current_range_meters":24000,"station_id":"ce4bhc92rcd13ifvqetg","pricing_plan_id":"free"},{"bike_id":"f3bf43ab-198c-4f0c-9631-65080c8cf968","system_id":"levelo_inurba_marseille","lat":43.289184,"lon":5.366408,"is_reserved":false,"is_disabled":false,"rental_uris":{"android":"levelo://app?vid=f3bf43ab-198c-4f0c-9631-65080c8cf968","ios":"levelo://app?vid=f3bf43ab-198c-4f0c-9631-65080c8cf968"},"vehicle_type_id":"4","last_reported":1705950347,"current_range_meters":12400,"station_id":"ce4bhap2rcd13ifvqek0","pricing_plan_id":"free"},{"bike_id":"11d3df5b-2ca5-4f11-8681-280201405092","system_id":"levelo_inurba_marseille","lat":43.289184,"lon":5.366408,"is_reserved":false,"is_disabled":false,"rental_uris":{"android":"levelo://app?vid=11d3df5b-2ca5-4f11-8681-280201405092","ios":"levelo://app?vid=11d3df5b-2ca5-4f11-8681-280201405092"},"vehicle_type_id":"4","last_reported":1705950347,"current_range_meters":8800,"station_id":"ce4bhap2rcd13ifvqek0","pricing_plan_id":"free"},{"bike_id":"edaf1dc5-bcd8-4168-8804-ea45048fae62","system_id":"levelo_inurba_marseille","lat":43.289468,"lon":5.363719,"is_reserved":false,"is_disabled":false,"rental_uris":{"android":"levelo://app?vid=edaf1dc5-bcd8-4168-8804-ea45048fae62","ios":"levelo://app?vid=edaf1dc5-bcd8-4168-8804-ea45048fae62"},"vehicle_type_id":"4","last_reported":1705950347,"current_range_meters":22000,"station_id":"ce4bhc92rcd13ifvqetg","pricing_plan_id":"free"},{"bike_id":"6458b7df-bfc3-44bf-987a-1c86ce441785","system_id":"levelo_inurba_marseille","lat":43.289184,"lon":5.366408,"is_reserved":false,"is_disabled":false,"rental_uris":{"android":"levelo://app?vid=6458b7df-bfc3-44bf-987a-1c86ce441785","ios":"levelo://app?vid=6458b7df-bfc3-44bf-987a-1c86ce441785"},"vehicle_type_id":"4","last_reported":1705950347,"current_range_meters":18000,"station_id":"ce4bhap2rcd13ifvqek0","pricing_plan_id":"free"},{"bike_id":"842df7c2-9ced-4986-9ff7-0654b38fe495","system_id":"levelo_inurba_marseille","lat":43.289184,"lon":5.366408,"is_reserved":false,"is_disabled":false,"rental_uris":{"android":"levelo://app?vid=842df7c2-9ced-4986-9ff7-0654b38fe495","ios":"levelo://app?vid=842df7c2-9ced-4986-9ff7-0654b38fe495"},"vehicle_type_id":"4","last_reported":1705950347,"current_range_meters":28400,"station_id":"ce4bhap2rcd13ifvqek0","pricing_plan_id":"free"},{"bike_id":"d1db34ac-d340-413c-83ae-82b805ac40d2","system_id":"levelo_inurba_marseille","lat":43.289184,"lon":5.366408,"is_reserved":false,"is_disabled":false,"rental_uris":{"android":"levelo://app?vid=d1db34ac-d340-413c-83ae-82b805ac40d2","ios":"levelo://app?vid=d1db34ac-d340-413c-83ae-82b805ac40d2"},"vehicle_type_id":"4","last_reported":1705950347,"current_range_meters":1200,"station_id":"ce4bhap2rcd13ifvqek0","pricing_plan_id":"free"},{"bike_id":"b8b8f240-a174-4dcb-8cff-1ad5d971818d","system_id":"levelo_inurba_marseille","lat":43.289468,"lon":5.363719,"is_reserved":false,"is_disabled":false,"rental_uris":{"android":"levelo://app?vid=b8b8f240-a174-4dcb-8cff-1ad5d971818d","ios":"levelo://app?vid=b8b8f240-a174-4dcb-8cff-1ad5d971818d"},"vehicle_type_id":"4","last_reported":1705950347,"current_range_meters":4400,"station_id":"ce4bhc92rcd13ifvqetg","pricing_plan_id":"free"},{"bike_id":"c3250cac-5d88-433e-ac25-75f427042bb9","system_id":"levelo_inurba_marseille","lat":43.289184,"lon":5.366408,"is_reserved":false,"is_disabled":false,"rental_uris":{"android":"levelo://app?vid=c3250cac-5d88-433e-ac25-75f427042bb9","ios":"levelo://app?vid=c3250cac-5d88-433e-ac25-75f427042bb9"},"vehicle_type_id":"4","last_reported":1705950347,"current_range_meters":7600,"station_id":"ce4bhap2rcd13ifvqek0","pricing_plan_id":"free"},{"bike_id":"d817ca35-0841-4ca7-b76a-440d48221a20","system_id":"levelo_inurba_marseille","lat":43.292644,"lon":5.384257,"is_reserved":false,"is_disabled":false,"rental_uris":{"android":"levelo://app?vid=d817ca35-0841-4ca7-b76a-440d48221a20","ios":"levelo://app?vid=d817ca35-0841-4ca7-b76a-440d48221a20"},"vehicle_type_id":"4","last_reported":1705950347,"current_range_meters":12000,"station_id":"ce4bh692rcd13ifvqea0","pricing_plan_id":"free"},{"bike_id":"af62717e-083e-4b0f-8e3c-9347242d727e","system_id":"levelo_inurba_marseille","lat":43.292644,"lon":5.384257,"is_reserved":false,"is_disabled":false,"rental_uris":{"android":"levelo://app?vid=af62717e-083e-4b0f-8e3c-9347242d727e","ios":"levelo://app?vid=af62717e-083e-4b0f-8e3c-9347242d727e"},"vehicle_type_id":"4","last_reported":1705950347,"current_range_meters":19200,"station_id":"ce4bh692rcd13ifvqea0","pricing_plan_id":"free"},{"bike_id":"8a8210f6-ed7a-4414-a073-21da0c897e6c","system_id":"levelo_inurba_marseille","lat":43.289184,"lon":5.366408,"is_reserved":false,"is_disabled":false,"rental_uris":{"android":"levelo://app?vid=8a8210f6-ed7a-4414-a073-21da0c897e6c","ios":"levelo://app?vid=8a8210f6-ed7a-4414-a073-21da0c897e6c"},"vehicle_type_id":"4","last_reported":1705950347,"current_range_meters":17200,"station_id":"ce4bhap2rcd13ifvqek0","pricing_plan_id":"free"},{"bike_id":"81bf66cd-71f4-4ed2-b77b-f33a378d0ba2","system_id":"levelo_inurba_marseille","lat":43.292644,"lon":5.384257,"is_reserved":false,"is_disabled":false,"rental_uris":{"android":"levelo://app?vid=81bf66cd-71f4-4ed2-b77b-f33a378d0ba2","ios":"levelo://app?vid=81bf66cd-71f4-4ed2-b77b-f33a378d0ba2"},"vehicle_type_id":"4","last_reported":1705950347,"current_range_meters":21200,"station_id":"ce4bh692rcd13ifvqea0","pricing_plan_id":"free"},{"bike_id":"1756603a-bed4-4850-8330-7cb3b9d60fd1","system_id":"levelo_inurba_marseille","lat":43.292644,"lon":5.384257,"is_reserved":false,"is_disabled":false,"rental_uris":{"android":"levelo://app?vid=1756603a-bed4-4850-8330-7cb3b9d60fd1","ios":"levelo://app?vid=1756603a-bed4-4850-8330-7cb3b9d60fd1"},"vehicle_type_id":"4","last_reported":1705950347,"current_range_meters":18400,"station_id":"ce4bh692rcd13ifvqea0","pricing_plan_id":"free"},{"bike_id":"afd7cefd-f779-49b4-b910-ee65b0355453","system_id":"levelo_inurba_marseille","lat":43.292644,"lon":5.384257,"is_reserved":false,"is_disabled":false,"rental_uris":{"android":"levelo://app?vid=afd7cefd-f779-49b4-b910-ee65b0355453","ios":"levelo://app?vid=afd7cefd-f779-49b4-b910-ee65b0355453"},"vehicle_type_id":"4","last_reported":1705950347,"current_range_meters":19200,"station_id":"ce4bh692rcd13ifvqea0","pricing_plan_id":"free"},{"bike_id":"c8348d43-f872-4a3b-b4fb-d85de8a3f88d","system_id":"levelo_inurba_marseille","lat":43.290103,"lon":5.356114,"is_reserved":false,"is_disabled":false,"rental_uris":{"android":"levelo://app?vid=c8348d43-f872-4a3b-b4fb-d85de8a3f88d","ios":"levelo://app?vid=c8348d43-f872-4a3b-b4fb-d85de8a3f88d"},"vehicle_type_id":"4","last_reported":1705950347,"current_range_meters":31200,"station_id":"ce4bhb92rcd13ifvqen0","pricing_plan_id":"free"},{"bike_id":"67550edb-2ed7-492f-a9e7-fc060a3745ce","system_id":"levelo_inurba_marseille","lat":43.290104,"lon":5.356111,"is_reserved":false,"is_disabled":false,"rental_uris":{"android":"levelo://app?vid=67550edb-2ed7-492f-a9e7-fc060a3745ce","ios":"levelo://app?vid=67550edb-2ed7-492f-a9e7-fc060a3745ce"},"vehicle_type_id":"4","last_reported":1705950347,"current_range_meters":23200,"station_id":"ce4bhb92rcd13ifvqen0","pricing_plan_id":"free"},{"bike_id":"9638c784-8ac1-4e44-95c5-202d2db9caff","system_id":"levelo_inurba_marseille","lat":43.29006,"lon":5.35613,"is_reserved":false,"is_disabled":false,"rental_uris":{"android":"levelo://app?vid=9638c784-8ac1-4e44-95c5-202d2db9caff","ios":"levelo://app?vid=9638c784-8ac1-4e44-95c5-202d2db9caff"},"vehicle_type_id":"4","last_reported":1705950347,"current_range_meters":14400,"station_id":"ce4bhb92rcd13ifvqen0","pricing_plan_id":"free"},{"bike_id":"90099772-14f5-4e71-bed8-1eb3d5e728ee","system_id":"levelo_inurba_marseille","lat":43.29799,"lon":5.3934,"is_reserved":false,"is_disabled":false,"rental_uris":{"android":"levelo://app?vid=90099772-14f5-4e71-bed8-1eb3d5e728ee","ios":"levelo://app?vid=90099772-14f5-4e71-bed8-1eb3d5e728ee"},"vehicle_type_id":"4","last_reported":1705950347,"current_range_meters":6400,"station_id":"chh1huq6cuj3fo74tm60","pricing_plan_id":"free"},{"bike_id":"f43f0c76-fe2d-47df-b2db-9a24d9fab50d","system_id":"levelo_inurba_marseille","lat":43.297862,"lon":5.393391,"is_reserved":false,"is_disabled":false,"rental_uris":{"android":"levelo://app?vid=f43f0c76-fe2d-47df-b2db-9a24d9fab50d","ios":"levelo://app?vid=f43f0c76-fe2d-47df-b2db-9a24d9fab50d"},"vehicle_type_id":"4","last_reported":1705950347,"current_range_meters":18800,"station_id":"chh1huq6cuj3fo74tm60","pricing_plan_id":"free"},{"bike_id":"89717aca-f8cc-45f3-a3fd-75771481007e","system_id":"levelo_inurba_marseille","lat":43.297815,"lon":5.393548,"is_reserved":false,"is_disabled":false,"rental_uris":{"android":"levelo://app?vid=89717aca-f8cc-45f3-a3fd-75771481007e","ios":"levelo://app?vid=89717aca-f8cc-45f3-a3fd-75771481007e"},"vehicle_type_id":"4","last_reported":1705950347,"current_range_meters":12000,"station_id":"chh1huq6cuj3fo74tm60","pricing_plan_id":"free"},{"bike_id":"ab001c16-e197-4d75-bc32-a8f3a5199351","system_id":"levelo_inurba_marseille","lat":43.33018,"lon":5.39039,"is_reserved":false,"is_disabled":false,"rental_uris":{"android":"levelo://app?vid=ab001c16-e197-4d75-bc32-a8f3a5199351","ios":"levelo://app?vid=ab001c16-e197-4d75-bc32-a8f3a5199351"},"vehicle_type_id":"4","last_reported":1705950347,"current_range_meters":28400,"station_id":"ce4bhr92rcd13ifvqhrg","pricing_plan_id":"free"},{"bike_id":"c8217cad-9878-4c41-8e21-9a034be5a361","system_id":"levelo_inurba_marseille","lat":43.330175,"lon":5.390435,"is_reserved":false,"is_disabled":false,"rental_uris":{"android":"levelo://app?vid=c8217cad-9878-4c41-8e21-9a034be5a361","ios":"levelo://app?vid=c8217cad-9878-4c41-8e21-9a034be5a361"},"vehicle_type_id":"4","last_reported":1705950347,"current_range_meters":3600,"station_id":"ce4bhr92rcd13ifvqhrg","pricing_plan_id":"free"},{"bike_id":"77f89468-23f4-42b0-aa40-da8db5c2b420","system_id":"levelo_inurba_marseille","lat":43.33027,"lon":5.39041,"is_reserved":false,"is_disabled":false,"rental_uris":{"android":"levelo://app?vid=77f89468-23f4-42b0-aa40-da8db5c2b420","ios":"levelo://app?vid=77f89468-23f4-42b0-aa40-da8db5c2b420"},"vehicle_type_id":"4","last_reported":1705950347,"current_range_meters":18400,"station_id":"ce4bhr92rcd13ifvqhrg","pricing_plan_id":"free"},{"bike_id":"925eaff5-3e49-4fa2-bc92-9f7181735632","system_id":"levelo_inurba_marseille","lat":43.330251,"lon":5.390447,"is_reserved":false,"is_disabled":false,"rental_uris":{"android":"levelo://app?vid=925eaff5-3e49-4fa2-bc92-9f7181735632","ios":"levelo://app?vid=925eaff5-3e49-4fa2-bc92-9f7181735632"},"vehicle_type_id":"4","last_reported":1705950347,"current_range_meters":13200,"station_id":"ce4bhr92rcd13ifvqhrg","pricing_plan_id":"free"},{"bike_id":"7f6fbd24-7425-4436-bb01-bf104c4230da","system_id":"levelo_inurba_marseille","lat":43.330253,"lon":5.390447,"is_reserved":false,"is_disabled":false,"rental_uris":{"android":"levelo://app?vid=7f6fbd24-7425-4436-bb01-bf104c4230da","ios":"levelo://app?vid=7f6fbd24-7425-4436-bb01-bf104c4230da"},"vehicle_type_id":"4","last_reported":1705950347,"current_range_meters":16000,"station_id":"ce4bhr92rcd13ifvqhrg","pricing_plan_id":"free"},{"bike_id":"7efdef8e-5d7d-47e7-bd9a-ccf65e3fcd53","system_id":"levelo_inurba_marseille","lat":43.28856,"lon":5.358371,"is_reserved":false,"is_disabled":false,"rental_uris":{"android":"levelo://app?vid=7efdef8e-5d7d-47e7-bd9a-ccf65e3fcd53","ios":"levelo://app?vid=7efdef8e-5d7d-47e7-bd9a-ccf65e3fcd53"},"vehicle_type_id":"4","last_reported":1705950347,"current_range_meters":18400,"station_id":"ce4bhb12rcd13ifvqem0","pricing_plan_id":"free"},{"bike_id":"fa281fce-0eec-4700-906b-c5963a30ca1f","system_id":"levelo_inurba_marseille","lat":43.28856,"lon":5.358371,"is_reserved":false,"is_disabled":false,"rental_uris":{"android":"levelo://app?vid=fa281fce-0eec-4700-906b-c5963a30ca1f","ios":"levelo://app?vid=fa281fce-0eec-4700-906b-c5963a30ca1f"},"vehicle_type_id":"4","last_reported":1705950347,"current_range_meters":6800,"station_id":"ce4bhb12rcd13ifvqem0","pricing_plan_id":"free"},{"bike_id":"e2c3abce-2285-4c2a-9443-49febcf1ebd0","system_id":"levelo_inurba_marseille","lat":43.28856,"lon":5.358371,"is_reserved":false,"is_disabled":false,"rental_uris":{"android":"levelo://app?vid=e2c3abce-2285-4c2a-9443-49febcf1ebd0","ios":"levelo://app?vid=e2c3abce-2285-4c2a-9443-49febcf1ebd0"},"vehicle_type_id":"4","last_reported":1705950347,"current_range_meters":0,"station_id":"ce4bhb12rcd13ifvqem0","pricing_plan_id":"free"},{"bike_id":"f23bdc28-a4b2-4cfd-80c9-42f28b2a042e","system_id":"levelo_inurba_marseille","lat":43.28856,"lon":5.358371,"is_reserved":false,"is_disabled":false,"rental_uris":{"android":"levelo://app?vid=f23bdc28-a4b2-4cfd-80c9-42f28b2a042e","ios":"levelo://app?vid=f23bdc28-a4b2-4cfd-80c9-42f28b2a042e"},"vehicle_type_id":"4","last_reported":1705950347,"current_range_meters":4400,"station_id":"ce4bhb12rcd13ifvqem0","pricing_plan_id":"free"},{"bike_id":"185d7004-c8e3-4036-a09c-9542b0b58642","system_id":"levelo_inurba_marseille","lat":43.28857,"lon":5.358462,"is_reserved":false,"is_disabled":false,"rental_uris":{"android":"levelo://app?vid=185d7004-c8e3-4036-a09c-9542b0b58642","ios":"levelo://app?vid=185d7004-c8e3-4036-a09c-9542b0b58642"},"vehicle_type_id":"4","last_reported":1705950347,"current_range_meters":23600,"station_id":"","pricing_plan_id":"free"},{"bike_id":"3f41214b-6a26-4dab-85cf-f70825260648","system_id":"levelo_inurba_marseille","lat":43.323464,"lon":5.406297,"is_reserved":false,"is_disabled":false,"rental_uris":{"android":"levelo://app?vid=3f41214b-6a26-4dab-85cf-f70825260648","ios":"levelo://app?vid=3f41214b-6a26-4dab-85cf-f70825260648"},"vehicle_type_id":"4","last_reported":1705950347,"current_range_meters":20000,"station_id":"ce4bhq92rcd13ifvqhjg","pricing_plan_id":"free"},{"bike_id":"06cd45f3-e887-44e9-b209-c4403778bb99","system_id":"levelo_inurba_marseille","lat":43.28856,"lon":5.358371,"is_reserved":false,"is_disabled":false,"rental_uris":{"android":"levelo://app?vid=06cd45f3-e887-44e9-b209-c4403778bb99","ios":"levelo://app?vid=06cd45f3-e887-44e9-b209-c4403778bb99"},"vehicle_type_id":"4","last_reported":1705950347,"current_range_meters":24800,"station_id":"ce4bhb12rcd13ifvqem0","pricing_plan_id":"free"},{"bike_id":"fe27389b-3c3a-4ad2-b34e-e3c131898f74","system_id":"levelo_inurba_marseille","lat":43.312609,"lon":5.401662,"is_reserved":false,"is_disabled":false,"rental_uris":{"android":"levelo://app?vid=fe27389b-3c3a-4ad2-b34e-e3c131898f74","ios":"levelo://app?vid=fe27389b-3c3a-4ad2-b34e-e3c131898f74"},"vehicle_type_id":"4","last_reported":1705950347,"current_range_meters":1600,"station_id":"ce4bh092rcd13ifvqd30","pricing_plan_id":"free"},{"bike_id":"6242f914-b33b-4b05-b781-04f0f5646e7a","system_id":"levelo_inurba_marseille","lat":43.312609,"lon":5.401662,"is_reserved":false,"is_disabled":false,"rental_uris":{"android":"levelo://app?vid=6242f914-b33b-4b05-b781-04f0f5646e7a","ios":"levelo://app?vid=6242f914-b33b-4b05-b781-04f0f5646e7a"},"vehicle_type_id":"4","last_reported":1705950347,"current_range_meters":13600,"station_id":"ce4bh092rcd13ifvqd30","pricing_plan_id":"free"},{"bike_id":"ad581a2b-0f90-49af-b2ef-0ca0167df15a","system_id":"levelo_inurba_marseille","lat":43.312609,"lon":5.401662,"is_reserved":false,"is_disabled":false,"rental_uris":{"android":"levelo://app?vid=ad581a2b-0f90-49af-b2ef-0ca0167df15a","ios":"levelo://app?vid=ad581a2b-0f90-49af-b2ef-0ca0167df15a"},"vehicle_type_id":"4","last_reported":1705950347,"current_range_meters":21200,"station_id":"ce4bh092rcd13ifvqd30","pricing_plan_id":"free"},{"bike_id":"92583824-3061-4362-a215-b6a04643adf9","system_id":"levelo_inurba_marseille","lat":43.312609,"lon":5.401662,"is_reserved":false,"is_disabled":false,"rental_uris":{"android":"levelo://app?vid=92583824-3061-4362-a215-b6a04643adf9","ios":"levelo://app?vid=92583824-3061-4362-a215-b6a04643adf9"},"vehicle_type_id":"4","last_reported":1705950347,"current_range_meters":21600,"station_id":"ce4bh092rcd13ifvqd30","pricing_plan_id":"free"},{"bike_id":"4770cd9e-f395-447d-973b-a32bbf0871ff","system_id":"levelo_inurba_marseille","lat":43.312609,"lon":5.401662,"is_reserved":false,"is_disabled":false,"rental_uris":{"android":"levelo://app?vid=4770cd9e-f395-447d-973b-a32bbf0871ff","ios":"levelo://app?vid=4770cd9e-f395-447d-973b-a32bbf0871ff"},"vehicle_type_id":"4","last_reported":1705950347,"current_range_meters":7200,"station_id":"ce4bh092rcd13ifvqd30","pricing_plan_id":"free"},{"bike_id":"206f158a-0545-4c60-8ca6-b3437d3d43ef","system_id":"levelo_inurba_marseille","lat":43.312609,"lon":5.401662,"is_reserved":false,"is_disabled":false,"rental_uris":{"android":"levelo://app?vid=206f158a-0545-4c60-8ca6-b3437d3d43ef","ios":"levelo://app?vid=206f158a-0545-4c60-8ca6-b3437d3d43ef"},"vehicle_type_id":"4","last_reported":1705950347,"current_range_meters":12400,"station_id":"ce4bh092rcd13ifvqd30","pricing_plan_id":"free"},{"bike_id":"a8fb37f4-7045-4e12-8e7c-c4c1968b41f6","system_id":"levelo_inurba_marseille","lat":43.309371,"lon":5.401449,"is_reserved":false,"is_disabled":false,"rental_uris":{"android":"levelo://app?vid=a8fb37f4-7045-4e12-8e7c-c4c1968b41f6","ios":"levelo://app?vid=a8fb37f4-7045-4e12-8e7c-c4c1968b41f6"},"vehicle_type_id":"4","last_reported":1705950347,"current_range_meters":15600,"station_id":"ce4bgvp2rcd13ifvqct0","pricing_plan_id":"free"},{"bike_id":"1337d088-b461-4af4-9bfe-5d65476f273c","system_id":"levelo_inurba_marseille","lat":43.337544,"lon":5.37455,"is_reserved":false,"is_disabled":false,"rental_uris":{"android":"levelo://app?vid=1337d088-b461-4af4-9bfe-5d65476f273c","ios":"levelo://app?vid=1337d088-b461-4af4-9bfe-5d65476f273c"},"vehicle_type_id":"4","last_reported":1705950347,"current_range_meters":18400,"station_id":"","pricing_plan_id":"free"},{"bike_id":"6629a316-e0f9-4aa7-9261-955701d2d230","system_id":"levelo_inurba_marseille","lat":43.30642,"lon":5.40093,"is_reserved":false,"is_disabled":false,"rental_uris":{"android":"levelo://app?vid=6629a316-e0f9-4aa7-9261-955701d2d230","ios":"levelo://app?vid=6629a316-e0f9-4aa7-9261-955701d2d230"},"vehicle_type_id":"4","last_reported":1705950347,"current_range_meters":8400,"station_id":"ce4bh112rcd13ifvqda0","pricing_plan_id":"free"},{"bike_id":"0e678445-09a4-40a8-a61e-0b16e377c70d","system_id":"levelo_inurba_marseille","lat":43.306412,"lon":5.401035,"is_reserved":false,"is_disabled":false,"rental_uris":{"android":"levelo://app?vid=0e678445-09a4-40a8-a61e-0b16e377c70d","ios":"levelo://app?vid=0e678445-09a4-40a8-a61e-0b16e377c70d"},"vehicle_type_id":"4","last_reported":1705950347,"current_range_meters":18800,"station_id":"ce4bh112rcd13ifvqda0","pricing_plan_id":"free"},{"bike_id":"93184076-f4e8-487d-97b3-7661310e8b22","system_id":"levelo_inurba_marseille","lat":43.301117,"lon":5.398795,"is_reserved":false,"is_disabled":false,"rental_uris":{"android":"levelo://app?vid=93184076-f4e8-487d-97b3-7661310e8b22","ios":"levelo://app?vid=93184076-f4e8-487d-97b3-7661310e8b22"},"vehicle_type_id":"4","last_reported":1705950347,"current_range_meters":1600,"station_id":"ce4bh0h2rcd13ifvqd40","pricing_plan_id":"free"},{"bike_id":"080f9374-6c45-4cd8-9ed9-458b4aacd957","system_id":"levelo_inurba_marseille","lat":43.301117,"lon":5.398795,"is_reserved":false,"is_disabled":false,"rental_uris":{"android":"levelo://app?vid=080f9374-6c45-4cd8-9ed9-458b4aacd957","ios":"levelo://app?vid=080f9374-6c45-4cd8-9ed9-458b4aacd957"},"vehicle_type_id":"4","last_reported":1705950347,"current_range_meters":14800,"station_id":"ce4bh0h2rcd13ifvqd40","pricing_plan_id":"free"},{"bike_id":"64acc24d-1610-4996-94f0-054ed62a353b","system_id":"levelo_inurba_marseille","lat":43.28727,"lon":5.36078,"is_reserved":false,"is_disabled":false,"rental_uris":{"android":"levelo://app?vid=64acc24d-1610-4996-94f0-054ed62a353b","ios":"levelo://app?vid=64acc24d-1610-4996-94f0-054ed62a353b"},"vehicle_type_id":"4","last_reported":1705950347,"current_range_meters":18400,"station_id":"cki0cbj6b192h4jlfktg","pricing_plan_id":"free"},{"bike_id":"88212189-e9a7-4468-9c25-4ed184e7bef3","system_id":"levelo_inurba_marseille","lat":43.302759,"lon":5.400793,"is_reserved":false,"is_disabled":false,"rental_uris":{"android":"levelo://app?vid=88212189-e9a7-4468-9c25-4ed184e7bef3","ios":"levelo://app?vid=88212189-e9a7-4468-9c25-4ed184e7bef3"},"vehicle_type_id":"4","last_reported":1705950347,"current_range_meters":7200,"station_id":"ce4bgvh2rcd13ifvqcs0","pricing_plan_id":"free"},{"bike_id":"f99f9657-634b-4e12-af52-5824d72682ec","system_id":"levelo_inurba_marseille","lat":43.286961,"lon":5.373785,"is_reserved":false,"is_disabled":false,"rental_uris":{"android":"levelo://app?vid=f99f9657-634b-4e12-af52-5824d72682ec","ios":"levelo://app?vid=f99f9657-634b-4e12-af52-5824d72682ec"},"vehicle_type_id":"4","last_reported":1705950347,"current_range_meters":11200,"station_id":"ce4bh3p2rcd13ifvqdq0","pricing_plan_id":"free"},{"bike_id":"413d3f63-58cc-40dc-b735-50cf40afd850","system_id":"levelo_inurba_marseille","lat":43.298681,"lon":5.397225,"is_reserved":false,"is_disabled":false,"rental_uris":{"android":"levelo://app?vid=413d3f63-58cc-40dc-b735-50cf40afd850","ios":"levelo://app?vid=413d3f63-58cc-40dc-b735-50cf40afd850"},"vehicle_type_id":"4","last_reported":1705950347,"current_range_meters":12400,"station_id":"ce4bh0h2rcd13ifvqd50","pricing_plan_id":"free"},{"bike_id":"3d6d5e81-8999-4bfe-85cc-9e562d38d262","system_id":"levelo_inurba_marseille","lat":43.286593,"lon":5.363346,"is_reserved":false,"is_disabled":false,"rental_uris":{"android":"levelo://app?vid=3d6d5e81-8999-4bfe-85cc-9e562d38d262","ios":"levelo://app?vid=3d6d5e81-8999-4bfe-85cc-9e562d38d262"},"vehicle_type_id":"4","last_reported":1705950347,"current_range_meters":400,"station_id":"ce4bhah2rcd13ifvqej0","pricing_plan_id":"free"},{"bike_id":"4cfbcde0-009d-4a23-95d1-50f5d2912792","system_id":"levelo_inurba_marseille","lat":43.286961,"lon":5.373785,"is_reserved":false,"is_disabled":false,"rental_uris":{"android":"levelo://app?vid=4cfbcde0-009d-4a23-95d1-50f5d2912792","ios":"levelo://app?vid=4cfbcde0-009d-4a23-95d1-50f5d2912792"},"vehicle_type_id":"4","last_reported":1705950347,"current_range_meters":0,"station_id":"ce4bh3p2rcd13ifvqdq0","pricing_plan_id":"free"},{"bike_id":"637e5b18-ea1d-4743-9d5e-e38a39119a12","system_id":"levelo_inurba_marseille","lat":43.286961,"lon":5.373785,"is_reserved":false,"is_disabled":false,"rental_uris":{"android":"levelo://app?vid=637e5b18-ea1d-4743-9d5e-e38a39119a12","ios":"levelo://app?vid=637e5b18-ea1d-4743-9d5e-e38a39119a12"},"vehicle_type_id":"4","last_reported":1705950347,"current_range_meters":8400,"station_id":"ce4bh3p2rcd13ifvqdq0","pricing_plan_id":"free"},{"bike_id":"bca78d0f-648f-4d87-adc3-b7a02161de19","system_id":"levelo_inurba_marseille","lat":43.298681,"lon":5.397225,"is_reserved":false,"is_disabled":false,"rental_uris":{"android":"levelo://app?vid=bca78d0f-648f-4d87-adc3-b7a02161de19","ios":"levelo://app?vid=bca78d0f-648f-4d87-adc3-b7a02161de19"},"vehicle_type_id":"4","last_reported":1705950347,"current_range_meters":22400,"station_id":"ce4bh0h2rcd13ifvqd50","pricing_plan_id":"free"},{"bike_id":"a8d358b9-99fb-4d9f-89cd-e7d516e11f78","system_id":"levelo_inurba_marseille","lat":43.29534,"lon":5.39397,"is_reserved":false,"is_disabled":false,"rental_uris":{"android":"levelo://app?vid=a8d358b9-99fb-4d9f-89cd-e7d516e11f78","ios":"levelo://app?vid=a8d358b9-99fb-4d9f-89cd-e7d516e11f78"},"vehicle_type_id":"4","last_reported":1705950347,"current_range_meters":9600,"station_id":"ce4bh292rcd13ifvqdf0","pricing_plan_id":"free"},{"bike_id":"c58dfecc-82f1-4c37-906e-22014d08464e","system_id":"levelo_inurba_marseille","lat":43.29536,"lon":5.39406,"is_reserved":false,"is_disabled":false,"rental_uris":{"android":"levelo://app?vid=c58dfecc-82f1-4c37-906e-22014d08464e","ios":"levelo://app?vid=c58dfecc-82f1-4c37-906e-22014d08464e"},"vehicle_type_id":"4","last_reported":1705950347,"current_range_meters":20400,"station_id":"ce4bh292rcd13ifvqdf0","pricing_plan_id":"free"},{"bike_id":"d195e0df-a76e-47bf-a2e5-5e8e05259bd1","system_id":"levelo_inurba_marseille","lat":43.295177,"lon":5.39396,"is_reserved":false,"is_disabled":false,"rental_uris":{"android":"levelo://app?vid=d195e0df-a76e-47bf-a2e5-5e8e05259bd1","ios":"levelo://app?vid=d195e0df-a76e-47bf-a2e5-5e8e05259bd1"},"vehicle_type_id":"4","last_reported":1705950347,"current_range_meters":22800,"station_id":"ce4bh292rcd13ifvqdf0","pricing_plan_id":"free"},{"bike_id":"6a5d6c0f-d2c8-42e0-8144-e7e9da7e9536","system_id":"levelo_inurba_marseille","lat":43.295196,"lon":5.39397,"is_reserved":false,"is_disabled":false,"rental_uris":{"android":"levelo://app?vid=6a5d6c0f-d2c8-42e0-8144-e7e9da7e9536","ios":"levelo://app?vid=6a5d6c0f-d2c8-42e0-8144-e7e9da7e9536"},"vehicle_type_id":"4","last_reported":1705950347,"current_range_meters":20800,"station_id":"ce4bh292rcd13ifvqdf0","pricing_plan_id":"free"},{"bike_id":"a0190617-180f-44da-8d21-905168d14364","system_id":"levelo_inurba_marseille","lat":43.290345,"lon":5.38646,"is_reserved":false,"is_disabled":false,"rental_uris":{"android":"levelo://app?vid=a0190617-180f-44da-8d21-905168d14364","ios":"levelo://app?vid=a0190617-180f-44da-8d21-905168d14364"},"vehicle_type_id":"4","last_reported":1705950347,"current_range_meters":22800,"station_id":"ce4bh4p2rcd13ifvqe0g","pricing_plan_id":"free"},{"bike_id":"6d6c2a9d-ab67-48ee-8a41-56bb8f39be3b","system_id":"levelo_inurba_marseille","lat":43.295148,"lon":5.39404,"is_reserved":false,"is_disabled":false,"rental_uris":{"android":"levelo://app?vid=6d6c2a9d-ab67-48ee-8a41-56bb8f39be3b","ios":"levelo://app?vid=6d6c2a9d-ab67-48ee-8a41-56bb8f39be3b"},"vehicle_type_id":"4","last_reported":1705950347,"current_range_meters":22800,"station_id":"ce4bh292rcd13ifvqdf0","pricing_plan_id":"free"},{"bike_id":"6d53ea31-f033-4f88-96fd-78dd7a3e9b26","system_id":"levelo_inurba_marseille","lat":43.29044,"lon":5.386477,"is_reserved":false,"is_disabled":false,"rental_uris":{"android":"levelo://app?vid=6d53ea31-f033-4f88-96fd-78dd7a3e9b26","ios":"levelo://app?vid=6d53ea31-f033-4f88-96fd-78dd7a3e9b26"},"vehicle_type_id":"4","last_reported":1705950347,"current_range_meters":18400,"station_id":"ce4bh4p2rcd13ifvqe0g","pricing_plan_id":"free"},{"bike_id":"b0886a44-0eba-4a3c-8e50-b37a84fa3289","system_id":"levelo_inurba_marseille","lat":43.2952,"lon":5.394142,"is_reserved":false,"is_disabled":false,"rental_uris":{"android":"levelo://app?vid=b0886a44-0eba-4a3c-8e50-b37a84fa3289","ios":"levelo://app?vid=b0886a44-0eba-4a3c-8e50-b37a84fa3289"},"vehicle_type_id":"4","last_reported":1705950347,"current_range_meters":8000,"station_id":"ce4bh292rcd13ifvqdf0","pricing_plan_id":"free"},{"bike_id":"ddcbc7be-5b04-441f-80a5-540c6c146457","system_id":"levelo_inurba_marseille","lat":43.295113,"lon":5.394062,"is_reserved":false,"is_disabled":false,"rental_uris":{"android":"levelo://app?vid=ddcbc7be-5b04-441f-80a5-540c6c146457","ios":"levelo://app?vid=ddcbc7be-5b04-441f-80a5-540c6c146457"},"vehicle_type_id":"4","last_reported":1705950347,"current_range_meters":0,"station_id":"ce4bh292rcd13ifvqdf0","pricing_plan_id":"free"},{"bike_id":"f873451a-6718-48a4-9a86-1b11eac804f9","system_id":"levelo_inurba_marseille","lat":43.29517,"lon":5.39415,"is_reserved":false,"is_disabled":false,"rental_uris":{"android":"levelo://app?vid=f873451a-6718-48a4-9a86-1b11eac804f9","ios":"levelo://app?vid=f873451a-6718-48a4-9a86-1b11eac804f9"},"vehicle_type_id":"4","last_reported":1705950347,"current_range_meters":1600,"station_id":"ce4bh292rcd13ifvqdf0","pricing_plan_id":"free"},{"bike_id":"5549dc5b-29c7-4bc6-9a4f-438c05c6d6c3","system_id":"levelo_inurba_marseille","lat":43.29034,"lon":5.38648,"is_reserved":false,"is_disabled":false,"rental_uris":{"android":"levelo://app?vid=5549dc5b-29c7-4bc6-9a4f-438c05c6d6c3","ios":"levelo://app?vid=5549dc5b-29c7-4bc6-9a4f-438c05c6d6c3"},"vehicle_type_id":"4","last_reported":1705950347,"current_range_meters":19200,"station_id":"ce4bh4p2rcd13ifvqe0g","pricing_plan_id":"free"},