{"last_updated":1719331791,"ttl":30,"version":"2.2","data":{"bikes":[{"bike_id":"bcc3e4e7-49ad-4827-ad72-a8aac5cd29e6","system_id":"levelo_inurba_marseille","lat":43.31509,"lon":5.37089,"is_reserved":false,"is_disabled":false,"rental_uris":{"android":"levelo://app?vid=bcc3e4e7-49ad-4827-ad72-a8aac5cd29e6","ios":"levelo://app?vid=bcc3e4e7-49ad-4827-ad72-a8aac5cd29e6"},"vehicle_type_id":"4","last_reported":1719331791,"current_range_meters":19200,"station_id":"","pricing_plan_id":"cebpf4jnsgd1na2vs0mg"},{"bike_id":"fb231755-9e91-4299-80cf-0ada38d7fae9","system_id":"levelo_inurba_marseille","lat":43.314811,"lon":5.373103,"is_reserved":false,"is_disabled":false,"rental_uris":{"android":"levelo://app?vid=fb231755-9e91-4299-80cf-0ada38d7fae9","ios":"levelo://app?vid=fb231755-9e91-4299-80cf-0ada38d7fae9"},"vehicle_type_id":"4","last_reported":1719331791,"current_range_meters":7600,"station_id":"ce4bgt12rcd13ifvqcd0","pricing_plan_id":"cebpf4jnsgd1na2vs0mg"},{"bike_id":"d6e6ab16-e5b7-4b72-9138-7762c75ee4c2","system_id":"levelo_inurba_marseille","lat":43.309039,"lon":5.371797,"is_reserved":false,"is_disabled":false,"rental_uris":{"android":"levelo://app?vid=d6e6ab16-e5b7-4b72-9138-7762c75ee4c2","ios":"levelo://app?vid=d6e6ab16-e5b7-4b72-9138-7762c75ee4c2"},"vehicle_type_id":"4","last_reported":1719331791,"current_range_meters":14000,"station_id":"ce4bguh2rcd13ifvqckg","pricing_plan_id":"cebpf4jnsgd1na2vs0mg"},{"bike_id":"aca580c6-f6c2-4554-8d8e-69f405d70544","system_id":"levelo_inurba_marseille","lat":43.309034,"lon":5.371783,"is_reserved":false,"is_disabled":false,"rental_uris":{"android":"levelo://app?vid=aca580c6-f6c2-4554-8d8e-69f405d70544","ios":"levelo://app?vid=aca580c6-f6c2-4554-8d8e-69f405d70544"},"vehicle_type_id":"4","last_reported":1719331791,"current_range_meters":16800,"station_id":"ce4bguh2rcd13ifvqckg","pricing_plan_id":"cebpf4jnsgd1na2vs0mg"},{"bike_id":"a98b7b32-4c56-479c-98cb-b4be2a9cee56","system_id":"levelo_inurba_marseille","lat":43.306075,"lon":5.36582,"is_reserved":false,"is_disabled":false,"rental_uris":{"android":"levelo://app?vid=a98b7b32-4c56-479c-98cb-b4be2a9cee56","ios":"levelo://app?vid=a98b7b32-4c56-479c-98cb-b4be2a9cee56"},"vehicle_type_id":"4","last_reported":1719331791,"current_range_meters":12400,"station_id":"","pricing_plan_id":"cebpf4jnsgd1na2vs0mg"},{"bike_id":"10c3a0c2-1589-4677-9e5a-31762f256e0f","system_id":"levelo_inurba_marseille","lat":43.310237,"lon":5.375653,"is_reserved":false,"is_disabled":false,"rental_uris":{"android":"levelo://app?vid=10c3a0c2-1589-4677-9e5a-31762f256e0f","ios":"levelo://app?vid=10c3a0c2-1589-4677-9e5a-31762f256e0f"},"vehicle_type_id":"4","last_reported":1719331791,"current_range_meters":4000,"station_id":"","pricing_plan_id":"cebpf4jnsgd1na2vs0mg"},{"bike_id":"d7645299-5ff4-42c3-adb3-1e4be9b82124","system_id":"levelo_inurba_marseille","lat":43.305714,"lon":5.365633,"is_reserved":false,"is_disabled":false,"rental_uris":{"android":"levelo://app?vid=d7645299-5ff4-42c3-adb3-1e4be9b82124","ios":"levelo://app?vid=d7645299-5ff4-42c3-adb3-1e4be9b82124"},"vehicle_type_id":"4","last_reported":1719331791,"current_range_meters":0,"station_id":"ce4bgs12rcd13ifvqcag","pricing_plan_id":"cebpf4jnsgd1na2vs0mg"},{"bike_id":"cd3bdf2e-c750-495f-ade4-9f3be658ab1d","system_id":"levelo_inurba_marseille","lat":43.305989,"lon":5.37225,"is_reserved":false,"is_disabled":false,"rental_uris":{"android":"levelo://app?vid=cd3bdf2e-c750-495f-ade4-9f3be658ab1d","ios":"levelo://app?vid=cd3bdf2e-c750-495f-ade4-9f3be658ab1d"},"vehicle_type_id":"4","last_reported":1719331791,"current_range_meters":19200,"station_id":"ce4bgqh2rcd13ifvqc4g","pricing_plan_id":"cebpf4jnsgd1na2vs0mg"},{"bike_id":"36c140fe-d18f-4ff5-be8f-386de33eddf0","system_id":"levelo_inurba_marseille","lat":43.311178,"lon":5.377647,"is_reserved":false,"is_disabled":false,"rental_uris":{"android":"levelo://app?vid=36c140fe-d18f-4ff5-be8f-386de33eddf0","ios":"levelo://app?vid=36c140fe-d18f-4ff5-be8f-386de33eddf0"},"vehicle_type_id":"4","last_reported":1719331791,"current_range_meters":28800,"station_id":"ce4bgt92rcd13ifvqcg0","pricing_plan_id":"cebpf4jnsgd1na2vs0mg"},{"bike_id":"3b8780cb-b429-4f03-b978-0ce159f9b271","system_id":"levelo_inurba_marseille","lat":43.311125,"lon":5.377624,"is_reserved":false,"is_disabled":false,"rental_uris":{"android":"levelo://app?vid=3b8780cb-b429-4f03-b978-0ce159f9b271","ios":"levelo://app?vid=3b8780cb-b429-4f03-b978-0ce159f9b271"},"vehicle_type_id":"4","last_reported":1719331791,"current_range_meters":6800,"station_id":"ce4bgt92rcd13ifvqcg0","pricing_plan_id":"cebpf4jnsgd1na2vs0mg"},{"bike_id":"2ee11de4-7bd2-4459-8cf4-4542ac8f1a54","system_id":"levelo_inurba_marseille","lat":43.317075,"lon":5.377367,"is_reserved":false,"is_disabled":false,"rental_uris":{"android":"levelo://app?vid=2ee11de4-7bd2-4459-8cf4-4542ac8f1a54","ios":"levelo://app?vid=2ee11de4-7bd2-4459-8cf4-4542ac8f1a54"},"vehicle_type_id":"4","last_reported":1719331791,"current_range_meters":25600,"station_id":"ce4bgth2rcd13ifvqch0","pricing_plan_id":"cebpf4jnsgd1na2vs0mg"},{"bike_id":"7d63b13a-8cf9-4214-9557-80c31cc4a830","system_id":"levelo_inurba_marseille","lat":43.307945,"lon":5.376487,"is_reserved":false,"is_disabled":false,"rental_uris":{"android":"levelo://app?vid=7d63b13a-8cf9-4214-9557-80c31cc4a830","ios":"levelo://app?vid=7d63b13a-8cf9-4214-9557-80c31cc4a830"},"vehicle_type_id":"4","last_reported":1719331791,"current_range_meters":0,"station_id":"ce4bgv92rcd13ifvqcq0","pricing_plan_id":"cebpf4jnsgd1na2vs0mg"},{"bike_id":"75178b65-cc70-4919-93f7-1fe39c5961f9","system_id":"levelo_inurba_marseille","lat":43.30779,"lon":5.37635,"is_reserved":false,"is_disabled":false,"rental_uris":{"android":"levelo://app?vid=75178b65-cc70-4919-93f7-1fe39c5961f9","ios":"levelo://app?vid=75178b65-cc70-4919-93f7-1fe39c5961f9"},"vehicle_type_id":"4","last_reported":1719331791,"current_range_meters":15200,"station_id":"ce4bgv92rcd13ifvqcq0","pricing_plan_id":"cebpf4jnsgd1na2vs0mg"},{"bike_id":"7b34bc74-6ec5-408e-92f0-7543f00b4bb2","system_id":"levelo_inurba_marseille","lat":43.307945,"lon":5.376487,"is_reserved":false,"is_disabled":false,"rental_uris":{"android":"levelo://app?vid=7b34bc74-6ec5-408e-92f0-7543f00b4bb2","ios":"levelo://app?vid=7b34bc74-6ec5-408e-92f0-7543f00b4bb2"},"vehicle_type_id":"4","last_reported":1719331791,"current_range_meters":15200,"station_id":"ce4bgv92rcd13ifvqcq0","pricing_plan_id":"cebpf4jnsgd1na2vs0mg"},{"bike_id":"e21651d9-c73a-465a-8571-c3084792337d","system_id":"levelo_inurba_marseille","lat":43.30782,"lon":5.37662,"is_reserved":false,"is_disabled":false,"rental_uris":{"android":"levelo://app?vid=e21651d9-c73a-465a-8571-c3084792337d","ios":"levelo://app?vid=e21651d9-c73a-465a-8571-c3084792337d"},"vehicle_type_id":"4","last_reported":1719331791,"current_range_meters":0,"station_id":"ce4bgv92rcd13ifvqcq0","pricing_plan_id":"cebpf4jnsgd1na2vs0mg"},{"bike_id":"02fb7f1f-8af1-4d07-9fb6-e6370bc82c8e","system_id":"levelo_inurba_marseille","lat":43.307945,"lon":5.376487,"is_reserved":false,"is_disabled":false,"rental_uris":{"android":"levelo://app?vid=02fb7f1f-8af1-4d07-9fb6-e6370bc82c8e","ios":"levelo://app?vid=02fb7f1f-8af1-4d07-9fb6-e6370bc82c8e"},"vehicle_type_id":"4","last_reported":1719331791,"current_range_meters":20000,"station_id":"ce4bgv92rcd13ifvqcq0","pricing_plan_id":"cebpf4jnsgd1na2vs0mg"},{"bike_id":"2bbb5117-c361-439e-9070-abed429f1edc","system_id":"levelo_inurba_marseille","lat":43.30528,"lon":5.37334,"is_reserved":false,"is_disabled":false,"rental_uris":{"android":"levelo://app?vid=2bbb5117-c361-439e-9070-abed429f1edc","ios":"levelo://app?vid=2bbb5117-c361-439e-9070-abed429f1edc"},"vehicle_type_id":"4","last_reported":1719331791,"current_range_meters":0,"station_id":"","pricing_plan_id":"cebpf4jnsgd1na2vs0mg"},{"bike_id":"8b5cdef6-e685-4698-a0ca-cfe7707cde1d","system_id":"levelo_inurba_marseille","lat":43.315289,"lon":5.380349,"is_reserved":false,"is_disabled":false,"rental_uris":{"android":"levelo://app?vid=8b5cdef6-e685-4698-a0ca-cfe7707cde1d","ios":"levelo://app?vid=8b5cdef6-e685-4698-a0ca-cfe7707cde1d"},"vehicle_type_id":"4","last_reported":1719331791,"current_range_meters":10800,"station_id":"ce4bhsp2rcd13ifvqi50","pricing_plan_id":"cebpf4jnsgd1na2vs0mg"},{"bike_id":"823a894c-26fe-4034-ab57-b73d763cf86f","system_id":"levelo_inurba_marseille","lat":43.30798,"lon":5.38147,"is_reserved":false,"is_disabled":false,"rental_uris":{"android":"levelo://app?vid=823a894c-26fe-4034-ab57-b73d763cf86f","ios":"levelo://app?vid=823a894c-26fe-4034-ab57-b73d763cf86f"},"vehicle_type_id":"4","last_reported":1719331791,"current_range_meters":10800,"station_id":"","pricing_plan_id":"cebpf4jnsgd1na2vs0mg"},{"bike_id":"bedd1588-b252-495a-9708-852a8c5257a1","system_id":"levelo_inurba_marseille","lat":43.324771,"lon":5.36557,"is_reserved":false,"is_disabled":false,"rental_uris":{"android":"levelo://app?vid=bedd1588-b252-495a-9708-852a8c5257a1","ios":"levelo://app?vid=bedd1588-b252-495a-9708-852a8c5257a1"},"vehicle_type_id":"4","last_reported":1719331791,"current_range_meters":27200,"station_id":"ce4bhs12rcd13ifvqhvg","pricing_plan_id":"cebpf4jnsgd1na2vs0mg"},{"bike_id":"deb71d77-e4fd-492f-ac51-36287ba1d41b","system_id":"levelo_inurba_marseille","lat":43.324771,"lon":5.36557,"is_reserved":false,"is_disabled":false,"rental_uris":{"android":"levelo://app?vid=deb71d77-e4fd-492f-ac51-36287ba1d41b","ios":"levelo://app?vid=deb71d77-e4fd-492f-ac51-36287ba1d41b"},"vehicle_type_id":"4","last_reported":1719331791,"current_range_meters":8000,"station_id":"ce4bhs12rcd13ifvqhvg","pricing_plan_id":"cebpf4jnsgd1na2vs0mg"},{"bike_id":"4215ff2e-bef8-46f6-a378-2d7b3fcf29c4","system_id":"levelo_inurba_marseille","lat":43.324771,"lon":5.36557,"is_reserved":false,"is_disabled":false,"rental_uris":{"android":"levelo://app?vid=4215ff2e-bef8-46f6-a378-2d7b3fcf29c4","ios":"levelo://app?vid=4215ff2e-bef8-46f6-a378-2d7b3fcf29c4"},"vehicle_type_id":"4","last_reported":1719331791,"current_range_meters":23200,"station_id":"ce4bhs12rcd13ifvqhvg","pricing_plan_id":"cebpf4jnsgd1na2vs0mg"},{"bike_id":"fb081020-4d7c-467e-a764-46f44daf8264","system_id":"levelo_inurba_marseille","lat":43.310804,"lon":5.38359,"is_reserved":false,"is_disabled":false,"rental_uris":{"android":"levelo://app?vid=fb081020-4d7c-467e-a764-46f44daf8264","ios":"levelo://app?vid=fb081020-4d7c-467e-a764-46f44daf8264"},"vehicle_type_id":"4","last_reported":1719331791,"current_range_meters":7200,"station_id":"ce4bgv92rcd13ifvqcr0","pricing_plan_id":"cebpf4jnsgd1na2vs0mg"},{"bike_id":"00f108ab-773c-4092-9790-ddead60a2f78","system_id":"levelo_inurba_marseille","lat":43.310804,"lon":5.38359,"is_reserved":false,"is_disabled":false,"rental_uris":{"android":"levelo://app?vid=00f108ab-773c-4092-9790-ddead60a2f78","ios":"levelo://app?vid=00f108ab-773c-4092-9790-ddead60a2f78"},"vehicle_type_id":"4","last_reported":1719331791,"current_range_meters":6800,"station_id":"ce4bgv92rcd13ifvqcr0","pricing_plan_id":"cebpf4jnsgd1na2vs0mg"},{"bike_id":"f0a94d6d-086c-4827-aa8a-697e8c821a9e","system_id":"levelo_inurba_marseille","lat":43.30143,"lon":5.37413,"is_reserved":false,"is_disabled":false,"rental_uris":{"android":"levelo://app?vid=f0a94d6d-086c-4827-aa8a-697e8c821a9e","ios":"levelo://app?vid=f0a94d6d-086c-4827-aa8a-697e8c821a9e"},"vehicle_type_id":"4","last_reported":1719331791,"current_range_meters":0,"station_id":"ce4bgs92rcd13ifvqcc0","pricing_plan_id":"cebpf4jnsgd1na2vs0mg"},{"bike_id":"bf430ce7-ff7c-45f1-bad9-aa8caaf71448","system_id":"levelo_inurba_marseille","lat":43.319935,"lon":5.381699,"is_reserved":false,"is_disabled":false,"rental_uris":{"android":"levelo://app?vid=bf430ce7-ff7c-45f1-bad9-aa8caaf71448","ios":"levelo://app?vid=bf430ce7-ff7c-45f1-bad9-aa8caaf71448"},"vehicle_type_id":"4","last_reported":1719331791,"current_range_meters":4400,"station_id":"ce4bhr12rcd13ifvqhpg","pricing_plan_id":"cebpf4jnsgd1na2vs0mg"},{"bike_id":"0dbebab7-cb0a-4172-9f5f-55b97b3654b5","system_id":"levelo_inurba_marseille","lat":43.319935,"lon":5.381699,"is_reserved":false,"is_disabled":false,"rental_uris":{"android":"levelo://app?vid=0dbebab7-cb0a-4172-9f5f-55b97b3654b5","ios":"levelo://app?vid=0dbebab7-cb0a-4172-9f5f-55b97b3654b5"},"vehicle_type_id":"4","last_reported":1719331791,"current_range_meters":0,"station_id":"ce4bhr12rcd13ifvqhpg","pricing_plan_id":"cebpf4jnsgd1na2vs0mg"},{"bike_id":"f1e3c460-33ce-403a-bb03-8a7f5ddb53e3","system_id":"levelo_inurba_marseille","lat":43.29986,"lon":5.36567,"is_reserved":false,"is_disabled":false,"rental_uris":{"android":"levelo://app?vid=f1e3c460-33ce-403a-bb03-8a7f5ddb53e3","ios":"levelo://app?vid=f1e3c460-33ce-403a-bb03-8a7f5ddb53e3"},"vehicle_type_id":"4","last_reported":1719331791,"current_range_meters":22400,"station_id":"","pricing_plan_id":"cebpf4jnsgd1na2vs0mg"},{"bike_id":"7fdabcf8-c7de-4b53-bfa8-2c01b1018977","system_id":"levelo_inurba_marseille","lat":43.319935,"lon":5.381699,"is_reserved":false,"is_disabled":false,"rental_uris":{"android":"levelo://app?vid=7fdabcf8-c7de-4b53-bfa8-2c01b1018977","ios":"levelo://app?vid=7fdabcf8-c7de-4b53-bfa8-2c01b1018977"},"vehicle_type_id":"4","last_reported":1719331791,"current_range_meters":19600,"station_id":"ce4bhr12rcd13ifvqhpg","pricing_plan_id":"cebpf4jnsgd1na2vs0mg"},{"bike_id":"0ac34d10-96e1-4ac0-9782-10b118adb7b7","system_id":"levelo_inurba_marseille","lat":43.29943,"lon":5.36717,"is_reserved":false,"is_disabled":false,"rental_uris":{"android":"levelo://app?vid=0ac34d10-96e1-4ac0-9782-10b118adb7b7","ios":"levelo://app?vid=0ac34d10-96e1-4ac0-9782-10b118adb7b7"},"vehicle_type_id":"4","last_reported":1719331791,"current_range_meters":22000,"station_id":"","pricing_plan_id":"cebpf4jnsgd1na2vs0mg"},{"bike_id":"fb47db32-e61d-4ff1-bc09-ddef5de10c7b","system_id":"levelo_inurba_marseille","lat":43.299724,"lon":5.371829,"is_reserved":false,"is_disabled":false,"rental_uris":{"android":"levelo://app?vid=fb47db32-e61d-4ff1-bc09-ddef5de10c7b","ios":"levelo://app?vid=fb47db32-e61d-4ff1-bc09-ddef5de10c7b"},"vehicle_type_id":"4","last_reported":1719331791,"current_range_meters":0,"station_id":"ce4bgr92rcd13ifvqc7g","pricing_plan_id":"cebpf4jnsgd1na2vs0mg"},{"bike_id":"e491403b-8027-4130-b9d4-3567949a8666","system_id":"levelo_inurba_marseille","lat":43.299243,"lon":5.37481,"is_reserved":false,"is_disabled":false,"rental_uris":{"android":"levelo://app?vid=e491403b-8027-4130-b9d4-3567949a8666","ios":"levelo://app?vid=e491403b-8027-4130-b9d4-3567949a8666"},"vehicle_type_id":"4","last_reported":1719331791,"current_range_meters":2800,"station_id":"ce4bgjh2rcd13ifvqbg0","pricing_plan_id":"cebpf4jnsgd1na2vs0mg"},{"bike_id":"956d659a-23c8-4539-998a-bc5fb7491104","system_id":"levelo_inurba_marseille","lat":43.31164,"lon":5.38716,"is_reserved":false,"is_disabled":false,"rental_uris":{"android":"levelo://app?vid=956d659a-23c8-4539-998a-bc5fb7491104","ios":"levelo://app?vid=956d659a-23c8-4539-998a-bc5fb7491104"},"vehicle_type_id":"4","last_reported":1719331791,"current_range_meters":1600,"station_id":"ce4bgv12rcd13ifvqcp0","pricing_plan_id":"cebpf4jnsgd1na2vs0mg"},{"bike_id":"ae56dd9a-135a-4b98-aba5-e68a1bb14263","system_id":"levelo_inurba_marseille","lat":43.31163,"lon":5.38716,"is_reserved":false,"is_disabled":false,"rental_uris":{"android":"levelo://app?vid=ae56dd9a-135a-4b98-aba5-e68a1bb14263","ios":"levelo://app?vid=ae56dd9a-135a-4b98-aba5-e68a1bb14263"},"vehicle_type_id":"4","last_reported":1719331791,"current_range_meters":9600,"station_id":"ce4bgv12rcd13ifvqcp0","pricing_plan_id":"cebpf4jnsgd1na2vs0mg"},{"bike_id":"c832b964-5d0b-46f5-8e11-735d97946ebc","system_id":"levelo_inurba_marseille","lat":43.311904,"lon":5.387279,"is_reserved":false,"is_disabled":false,"rental_uris":{"android":"levelo://app?vid=c832b964-5d0b-46f5-8e11-735d97946ebc","ios":"levelo://app?vid=c832b964-5d0b-46f5-8e11-735d97946ebc"},"vehicle_type_id":"4","last_reported":1719331791,"current_range_meters":2000,"station_id":"ce4bgv12rcd13ifvqcp0","pricing_plan_id":"cebpf4jnsgd1na2vs0mg"},{"bike_id":"97499e30-b3d1-4cf0-b3b2-c0bde85a4263","system_id":"levelo_inurba_marseille","lat":43.301627,"lon":5.38089,"is_reserved":false,"is_disabled":false,"rental_uris":{"android":"levelo://app?vid=97499e30-b3d1-4cf0-b3b2-c0bde85a4263","ios":"levelo://app?vid=97499e30-b3d1-4cf0-b3b2-c0bde85a4263"},"vehicle_type_id":"4","last_reported":1719331791,"current_range_meters":4000,"station_id":"","pricing_plan_id":"cebpf4jnsgd1na2vs0mg"},{"bike_id":"ef4e475d-5be1-4696-a4dc-64caaab9ca44","system_id":"levelo_inurba_marseille","lat":43.322872,"lon":5.382756,"is_reserved":false,"is_disabled":false,"rental_uris":{"android":"levelo://app?vid=ef4e475d-5be1-4696-a4dc-64caaab9ca44","ios":"levelo://app?vid=ef4e475d-5be1-4696-a4dc-64caaab9ca44"},"vehicle_type_id":"4","last_reported":1719331791,"current_range_meters":6800,"station_id":"ce4bhr12rcd13ifvqhqg","pricing_plan_id":"cebpf4jnsgd1na2vs0mg"},{"bike_id":"1f0e6a55-4401-4a44-9011-46515aba110c","system_id":"levelo_inurba_marseille","lat":43.322872,"lon":5.382756,"is_reserved":false,"is_disabled":false,"rental_uris":{"android":"levelo://app?vid=1f0e6a55-4401-4a44-9011-46515aba110c","ios":"levelo://app?vid=1f0e6a55-4401-4a44-9011-46515aba110c"},"vehicle_type_id":"4","last_reported":1719331791,"current_range_meters":20800,"station_id":"ce4bhr12rcd13ifvqhqg","pricing_plan_id":"cebpf4jnsgd1na2vs0mg"},{"bike_id":"8a3dee68-befb-495c-8c53-779d24084da1","system_id":"levelo_inurba_marseille","lat":43.297032,"lon":5.365505,"is_reserved":false,"is_disabled":false,"rental_uris":{"android":"levelo://app?vid=8a3dee68-befb-495c-8c53-779d24084da1","ios":"levelo://app?vid=8a3dee68-befb-495c-8c53-779d24084da1"},"vehicle_type_id":"4","last_reported":1719331791,"current_range_meters":27200,"station_id":"","pricing_plan_id":"cebpf4jnsgd1na2vs0mg"},{"bike_id":"d387ef7e-9cd0-4d3f-b757-835a8343e6c6","system_id":"levelo_inurba_marseille","lat":43.2968,"lon":5.37291,"is_reserved":false,"is_disabled":false,"rental_uris":{"android":"levelo://app?vid=d387ef7e-9cd0-4d3f-b757-835a8343e6c6","ios":"levelo://app?vid=d387ef7e-9cd0-4d3f-b757-835a8343e6c6"},"vehicle_type_id":"4","last_reported":1719331791,"current_range_meters":0,"station_id":"ce4bgk12rcd13ifvqbj0","pricing_plan_id":"cebpf4jnsgd1na2vs0mg"},{"bike_id":"7513de3e-ddfa-4189-883d-718c5fd493a7","system_id":"levelo_inurba_marseille","lat":43.276179,"lon":5.361009,"is_reserved":false,"is_disabled":false,"rental_uris":{"android":"levelo://app?vid=7513de3e-ddfa-4189-883d-718c5fd493a7","ios":"levelo://app?vid=7513de3e-ddfa-4189-883d-718c5fd493a7"},"vehicle_type_id":"4","last_reported":1719331791,"current_range_meters":31200,"station_id":"ce4bgj92rcd13ifvqbe0","pricing_plan_id":"cebpf4jnsgd1na2vs0mg"},{"bike_id":"99890916-efa8-4f0b-8c93-358df7853d07","system_id":"levelo_inurba_marseille","lat":43.296131,"lon":5.370773,"is_reserved":false,"is_disabled":false,"rental_uris":{"android":"levelo://app?vid=99890916-efa8-4f0b-8c93-358df7853d07","ios":"levelo://app?vid=99890916-efa8-4f0b-8c93-358df7853d07"},"vehicle_type_id":"4","last_reported":1719331791,"current_range_meters":26400,"station_id":"ce4bgnh2rcd13ifvqc0g","pricing_plan_id":"cebpf4jnsgd1na2vs0mg"},{"bike_id":"b64f7751-fa8e-4b54-8873-7312fdfe2493","system_id":"levelo_inurba_marseille","lat":43.29573,"lon":5.367355,"is_reserved":false,"is_disabled":false,"rental_uris":{"android":"levelo://app?vid=b64f7751-fa8e-4b54-8873-7312fdfe2493","ios":"levelo://app?vid=b64f7751-fa8e-4b54-8873-7312fdfe2493"},"vehicle_type_id":"4","last_reported":1719331791,"current_range_meters":10400,"station_id":"ce4bgph2rcd13ifvqc2g","pricing_plan_id":"cebpf4jnsgd1na2vs0mg"},{"bike_id":"f59fc420-40f8-4ae2-acc9-d737c232926e","system_id":"levelo_inurba_marseille","lat":43.29578,"lon":5.3674,"is_reserved":false,"is_disabled":false,"rental_uris":{"android":"levelo://app?vid=f59fc420-40f8-4ae2-acc9-d737c232926e","ios":"levelo://app?vid=f59fc420-40f8-4ae2-acc9-d737c232926e"},"vehicle_type_id":"4","last_reported":1719331791,"current_range_meters":2400,"station_id":"ce4bgph2rcd13ifvqc2g","pricing_plan_id":"cebpf4jnsgd1na2vs0mg"},{"bike_id":"b9576ff9-4df7-4c85-996f-6a23e5afecd6","system_id":"levelo_inurba_marseille","lat":43.29711,"lon":5.37695,"is_reserved":false,"is_disabled":false,"rental_uris":{"android":"levelo://app?vid=b9576ff9-4df7-4c85-996f-6a23e5afecd6","ios":"levelo://app?vid=b9576ff9-4df7-4c85-996f-6a23e5afecd6"},"vehicle_type_id":"4","last_reported":1719331791,"current_range_meters":0,"station_id":"ce4bgkh2rcd13ifvqbl0","pricing_plan_id":"cebpf4jnsgd1na2vs0mg"},{"bike_id":"0840715c-d4d1-4f02-a705-637a9b652551","system_id":"levelo_inurba_marseille","lat":43.298037,"lon":5.381066,"is_reserved":false,"is_disabled":false,"rental_uris":{"android":"levelo://app?vid=0840715c-d4d1-4f02-a705-637a9b652551","ios":"levelo://app?vid=0840715c-d4d1-4f02-a705-637a9b652551"},"vehicle_type_id":"4","last_reported":1719331791,"current_range_meters":13200,"station_id":"ce4bgip2rcd13ifvqbb0","pricing_plan_id":"cebpf4jnsgd1na2vs0mg"},{"bike_id":"69425e50-9081-4acd-923a-45df6520573e","system_id":"levelo_inurba_marseille","lat":43.304274,"lon":5.388873,"is_reserved":false,"is_disabled":false,"rental_uris":{"android":"levelo://app?vid=69425e50-9081-4acd-923a-45df6520573e","ios":"levelo://app?vid=69425e50-9081-4acd-923a-45df6520573e"},"vehicle_type_id":"4","last_reported":1719331791,"current_range_meters":400,"station_id":"ce4bgk12rcd13ifvqbi0","pricing_plan_id":"cebpf4jnsgd1na2vs0mg"},{"bike_id":"7850efb9-bcd8-4ffc-9ee1-6c7abfa899e4","system_id":"levelo_inurba_marseille","lat":43.298037,"lon":5.381066,"is_reserved":false,"is_disabled":false,"rental_uris":{"android":"levelo://app?vid=7850efb9-bcd8-4ffc-9ee1-6c7abfa899e4","ios":"levelo://app?vid=7850efb9-bcd8-4ffc-9ee1-6c7abfa899e4"},"vehicle_type_id":"4","last_reported":1719331791,"current_range_meters":6000,"station_id":"ce4bgip2rcd13ifvqbb0","pricing_plan_id":"cebpf4jnsgd1na2vs0mg"},{"bike_id":"f25c8a5a-12a2-406f-9403-7ec523ce854d","system_id":"levelo_inurba_marseille","lat":43.295748,"lon":5.37522,"is_reserved":false,"is_disabled":false,"rental_uris":{"android":"levelo://app?vid=f25c8a5a-12a2-406f-9403-7ec523ce854d","ios":"levelo://app?vid=f25c8a5a-12a2-406f-9403-7ec523ce854d"},"vehicle_type_id":"4","last_reported":1719331791,"current_range_meters":20800,"station_id":"ce4bgh92rcd13ifvqb50","pricing_plan_id":"cebpf4jnsgd1na2vs0mg"},{"bike_id":"731f04bb-8c5d-49bf-a97b-1a67057ba992","system_id":"levelo_inurba_marseille","lat":43.304274,"lon":5.388873,"is_reserved":false,"is_disabled":false,"rental_uris":{"android":"levelo://app?vid=731f04bb-8c5d-49bf-a97b-1a67057ba992","ios":"levelo://app?vid=731f04bb-8c5d-49bf-a97b-1a67057ba992"},"vehicle_type_id":"4","last_reported":1719331791,"current_range_meters":14400,"station_id":"ce4bgk12rcd13ifvqbi0","pricing_plan_id":"cebpf4jnsgd1na2vs0mg"},{"bike_id":"93679f03-2984-461a-be98-a432f9a8feb0","system_id":"levelo_inurba_marseille","lat":43.297883,"lon":5.381027,"is_reserved":false,"is_disabled":false,"rental_uris":{"android":"levelo://app?vid=93679f03-2984-461a-be98-a432f9a8feb0","ios":"levelo://app?vid=93679f03-2984-461a-be98-a432f9a8feb0"},"vehicle_type_id":"4","last_reported":1719331791,"current_range_meters":25200,"station_id":"ce4bgip2rcd13ifvqbb0","pricing_plan_id":"cebpf4jnsgd1na2vs0mg"},{"bike_id":"f0c43294-5b3c-4ad0-8c5b-93133f8f8af6","system_id":"levelo_inurba_marseille","lat":43.304278,"lon":5.388868,"is_reserved":false,"is_disabled":false,"rental_uris":{"android":"levelo://app?vid=f0c43294-5b3c-4ad0-8c5b-93133f8f8af6","ios":"levelo://app?vid=f0c43294-5b3c-4ad0-8c5b-93133f8f8af6"},"vehicle_type_id":"4","last_reported":1719331791,"current_range_meters":28000,"station_id":"ce4bgk12rcd13ifvqbi0","pricing_plan_id":"cebpf4jnsgd1na2vs0mg"},{"bike_id":"a4dff275-d267-42f3-9d27-68828ceea97e","system_id":"levelo_inurba_marseille","lat":43.295279,"lon":5.375048,"is_reserved":false,"is_disabled":false,"rental_uris":{"android":"levelo://app?vid=a4dff275-d267-42f3-9d27-68828ceea97e","ios":"levelo://app?vid=a4dff275-d267-42f3-9d27-68828ceea97e"},"vehicle_type_id":"4","last_reported":1719331791,"current_range_meters":0,"station_id":"ce4bgkp2rcd13ifvqbmg","pricing_plan_id":"cebpf4jnsgd1na2vs0mg"},{"bike_id":"3dcbb3cb-3a01-405e-a727-2bfba9dab769","system_id":"levelo_inurba_marseille","lat":43.299724,"lon":5.384848,"is_reserved":false,"is_disabled":false,"rental_uris":{"android":"levelo://app?vid=3dcbb3cb-3a01-405e-a727-2bfba9dab769","ios":"levelo://app?vid=3dcbb3cb-3a01-405e-a727-2bfba9dab769"},"vehicle_type_id":"4","last_reported":1719331791,"current_range_meters":25200,"station_id":"ce4bgj92rcd13ifvqbd0","pricing_plan_id":"cebpf4jnsgd1na2vs0mg"},{"bike_id":"8c38e241-60c7-4d4b-8b85-c38505124127","system_id":"levelo_inurba_marseille","lat":43.299707,"lon":5.384859,"is_reserved":false,"is_disabled":false,"rental_uris":{"android":"levelo://app?vid=8c38e241-60c7-4d4b-8b85-c38505124127","ios":"levelo://app?vid=8c38e241-60c7-4d4b-8b85-c38505124127"},"vehicle_type_id":"4","last_reported":1719331791,"current_range_meters":0,"station_id":"ce4bgj92rcd13ifvqbd0","pricing_plan_id":"cebpf4jnsgd1na2vs0mg"},{"bike_id":"2c8b7fca-95d8-48cd-82f0-aa264bd6f6b7","system_id":"levelo_inurba_marseille","lat":43.295279,"lon":5.375048,"is_reserved":false,"is_disabled":false,"rental_uris":{"android":"levelo://app?vid=2c8b7fca-95d8-48cd-82f0-aa264bd6f6b7","ios":"levelo://app?vid=2c8b7fca-95d8-48cd-82f0-aa264bd6f6b7"},"vehicle_type_id":"4","last_reported":1719331791,"current_range_meters":16000,"station_id":"ce4bgkp2rcd13ifvqbmg","pricing_plan_id":"cebpf4jnsgd1na2vs0mg"},{"bike_id":"6d61fce1-9851-452b-b7fd-9f31a9ff4af0","system_id":"levelo_inurba_marseille","lat":43.32367,"lon":5.388836,"is_reserved":false,"is_disabled":false,"rental_uris":{"android":"levelo://app?vid=6d61fce1-9851-452b-b7fd-9f31a9ff4af0","ios":"levelo://app?vid=6d61fce1-9851-452b-b7fd-9f31a9ff4af0"},"vehicle_type_id":"4","last_reported":1719331791,"current_range_meters":8800,"station_id":"ce4bhqp2rcd13ifvqhog","pricing_plan_id":"cebpf4jnsgd1na2vs0mg"},{"bike_id":"ac196284-48b1-49bf-aa29-00b2a77da4d4","system_id":"levelo_inurba_marseille","lat":43.30198,"lon":5.389472,"is_reserved":false,"is_disabled":false,"rental_uris":{"android":"levelo://app?vid=ac196284-48b1-49bf-aa29-00b2a77da4d4","ios":"levelo://app?vid=ac196284-48b1-49bf-aa29-00b2a77da4d4"},"vehicle_type_id":"4","last_reported":1719331791,"current_range_meters":13600,"station_id":"","pricing_plan_id":"cebpf4jnsgd1na2vs0mg"},{"bike_id":"98f0a510-1c6a-4d1f-870c-61d7b821912f","system_id":"levelo_inurba_marseille","lat":43.29602,"lon":5.381084,"is_reserved":false,"is_disabled":false,"rental_uris":{"android":"levelo://app?vid=98f0a510-1c6a-4d1f-870c-61d7b821912f","ios":"levelo://app?vid=98f0a510-1c6a-4d1f-870c-61d7b821912f"},"vehicle_type_id":"4","last_reported":1719331791,"current_range_meters":19200,"station_id":"ce4bgl12rcd13ifvqbo0","pricing_plan_id":"cebpf4jnsgd1na2vs0mg"},{"bike_id":"76c0878f-9d2f-448a-856d-7aa984b399bc","system_id":"levelo_inurba_marseille","lat":43.2931,"lon":5.37176,"is_reserved":false,"is_disabled":false,"rental_uris":{"android":"levelo://app?vid=76c0878f-9d2f-448a-856d-7aa984b399bc","ios":"levelo://app?vid=76c0878f-9d2f-448a-856d-7aa984b399bc"},"vehicle_type_id":"4","last_reported":1719331791,"current_range_meters":800,"station_id":"ce4bgh92rcd13ifvqb40","pricing_plan_id":"cebpf4jnsgd1na2vs0mg"},{"bike_id":"38ee518c-d3f1-4947-a586-4730100858a1","system_id":"levelo_inurba_marseille","lat":43.293085,"lon":5.37165,"is_reserved":false,"is_disabled":false,"rental_uris":{"android":"levelo://app?vid=38ee518c-d3f1-4947-a586-4730100858a1","ios":"levelo://app?vid=38ee518c-d3f1-4947-a586-4730100858a1"},"vehicle_type_id":"4","last_reported":1719331791,"current_range_meters":1600,"station_id":"ce4bgh92rcd13ifvqb40","pricing_plan_id":"cebpf4jnsgd1na2vs0mg"},{"bike_id":"19696aee-728f-4a46-a0ee-ad3893f3ce11","system_id":"levelo_inurba_marseille","lat":43.293249,"lon":5.371578,"is_reserved":false,"is_disabled":false,"rental_uris":{"android":"levelo://app?vid=19696aee-728f-4a46-a0ee-ad3893f3ce11","ios":"levelo://app?vid=19696aee-728f-4a46-a0ee-ad3893f3ce11"},"vehicle_type_id":"4","last_reported":1719331791,"current_range_meters":14800,"station_id":"ce4bgh92rcd13ifvqb40","pricing_plan_id":"cebpf4jnsgd1na2vs0mg"},{"bike_id":"5dc6ef2b-349c-4149-8e55-afe2f9163b30","system_id":"levelo_inurba_marseille","lat":43.293249,"lon":5.371578,"is_reserved":false,"is_disabled":false,"rental_uris":{"android":"levelo://app?vid=5dc6ef2b-349c-4149-8e55-afe2f9163b30","ios":"levelo://app?vid=5dc6ef2b-349c-4149-8e55-afe2f9163b30"},"vehicle_type_id":"4","last_reported":1719331791,"current_range_meters":20000,"station_id":"ce4bgh92rcd13ifvqb40","pricing_plan_id":"cebpf4jnsgd1na2vs0mg"},{"bike_id":"79ce3070-33b6-4736-aee0-6cebdd0fb9d8","system_id":"levelo_inurba_marseille","lat":43.292749,"lon":5.368402,"is_reserved":false,"is_disabled":false,"rental_uris":{"android":"levelo://app?vid=79ce3070-33b6-4736-aee0-6cebdd0fb9d8","ios":"levelo://app?vid=79ce3070-33b6-4736-aee0-6cebdd0fb9d8"},"vehicle_type_id":"4","last_reported":1719331791,"current_range_meters":26800,"station_id":"ce4bhbp2rcd13ifvqesg","pricing_plan_id":"cebpf4jnsgd1na2vs0mg"},{"bike_id":"ac450198-38bb-4139-91a8-3cd8e18bc4fc","system_id":"levelo_inurba_marseille","lat":43.293249,"lon":5.371578,"is_reserved":false,"is_disabled":false,"rental_uris":{"android":"levelo://app?vid=ac450198-38bb-4139-91a8-3cd8e18bc4fc","ios":"levelo://app?vid=ac450198-38bb-4139-91a8-3cd8e18bc4fc"},"vehicle_type_id":"4","last_reported":1719331791,"current_range_meters":4000,"station_id":"ce4bgh92rcd13ifvqb40","pricing_plan_id":"cebpf4jnsgd1na2vs0mg"},{"bike_id":"3b3975e7-9ffb-4d02-bf3b-834cb662ca9e","system_id":"levelo_inurba_marseille","lat":43.293259,"lon":5.371586,"is_reserved":false,"is_disabled":false,"rental_uris":{"android":"levelo://app?vid=3b3975e7-9ffb-4d02-bf3b-834cb662ca9e","ios":"levelo://app?vid=3b3975e7-9ffb-4d02-bf3b-834cb662ca9e"},"vehicle_type_id":"4","last_reported":1719331791,"current_range_meters":6400,"station_id":"ce4bgh92rcd13ifvqb40","pricing_plan_id":"cebpf4jnsgd1na2vs0mg"},{"bike_id":"347c2272-6fa0-4bb0-ab7c-17bb4922dfc7","system_id":"levelo_inurba_marseille","lat":43.29272,"lon":5.36843,"is_reserved":false,"is_disabled":false,"rental_uris":{"android":"levelo://app?vid=347c2272-6fa0-4bb0-ab7c-17bb4922dfc7","ios":"levelo://app?vid=347c2272-6fa0-4bb0-ab7c-17bb4922dfc7"},"vehicle_type_id":"4","last_reported":1719331791,"current_range_meters":24800,"station_id":"ce4bhbp2rcd13ifvqesg","pricing_plan_id":"cebpf4jnsgd1na2vs0mg"},{"bike_id":"3356e4db-97ed-4ee0-a84e-ea0cb9991cd6","system_id":"levelo_inurba_marseille","lat":43.292749,"lon":5.368402,"is_reserved":false,"is_disabled":false,"rental_uris":{"android":"levelo://app?vid=3356e4db-97ed-4ee0-a84e-ea0cb9991cd6","ios":"levelo://app?vid=3356e4db-97ed-4ee0-a84e-ea0cb9991cd6"},"vehicle_type_id":"4","last_reported":1719331791,"current_range_meters":0,"station_id":"ce4bhbp2rcd13ifvqesg","pricing_plan_id":"cebpf4jnsgd1na2vs0mg"},{"bike_id":"0a841434-6333-48f1-94ed-3a6616a797f6","system_id":"levelo_inurba_marseille","lat":43.29271,"lon":5.36842,"is_reserved":false,"is_disabled":false,"rental_uris":{"android":"levelo://app?vid=0a841434-6333-48f1-94ed-3a6616a797f6","ios":"levelo://app?vid=0a841434-6333-48f1-94ed-3a6616a797f6"},"vehicle_type_id":"4","last_reported":1719331791,"current_range_meters":0,"station_id":"ce4bhbp2rcd13ifvqesg","pricing_plan_id":"cebpf4jnsgd1na2vs0mg"},{"bike_id":"43adee73-7b0a-4848-87bd-63ec9b8880da","system_id":"levelo_inurba_marseille","lat":43.292749,"lon":5.368402,"is_reserved":false,"is_disabled":false,"rental_uris":{"android":"levelo://app?vid=43adee73-7b0a-4848-87bd-63ec9b8880da","ios":"levelo://app?vid=43adee73-7b0a-4848-87bd-63ec9b8880da"},"vehicle_type_id":"4","last_reported":1719331791,"current_range_meters":24800,"station_id":"ce4bhbp2rcd13ifvqesg","pricing_plan_id":"cebpf4jnsgd1na2vs0mg"},{"bike_id":"44eb21c0-39b0-48eb-a874-9260c2d4bc5e","system_id":"levelo_inurba_marseille","lat":43.2927,"lon":5.36842,"is_reserved":false,"is_disabled":false,"rental_uris":{"android":"levelo://app?vid=44eb21c0-39b0-48eb-a874-9260c2d4bc5e","ios":"levelo://app?vid=44eb21c0-39b0-48eb-a874-9260c2d4bc5e"},"vehicle_type_id":"4","last_reported":1719331791,"current_range_meters":8000,"station_id":"ce4bhbp2rcd13ifvqesg","pricing_plan_id":"cebpf4jnsgd1na2vs0mg"},{"bike_id":"e2688362-5149-4c53-865d-b5b3757442e4","system_id":"levelo_inurba_marseille","lat":43.292749,"lon":5.368402,"is_reserved":false,"is_disabled":false,"rental_uris":{"android":"levelo://app?vid=e2688362-5149-4c53-865d-b5b3757442e4","ios":"levelo://app?vid=e2688362-5149-4c53-865d-b5b3757442e4"},"vehicle_type_id":"4","last_reported":1719331791,"current_range_meters":0,"station_id":"ce4bhbp2rcd13ifvqesg","pricing_plan_id":"cebpf4jnsgd1na2vs0mg"},{"bike_id":"5a29f7ac-229a-42d8-8c3c-377a41e15a9d","system_id":"levelo_inurba_marseille","lat":43.29304,"lon":5.37446,"is_reserved":false,"is_disabled":false,"rental_uris":{"android":"levelo://app?vid=5a29f7ac-229a-42d8-8c3c-377a41e15a9d","ios":"levelo://app?vid=5a29f7ac-229a-42d8-8c3c-377a41e15a9d"},"vehicle_type_id":"4","last_reported":1719331791,"current_range_meters":1600,"station_id":"ce4bgi12rcd13ifvqb70","pricing_plan_id":"cebpf4jnsgd1na2vs0mg"},{"bike_id":"f5560e60-a277-4b46-a413-e08a841b8c7e","system_id":"levelo_inurba_marseille","lat":43.29301,"lon":5.37442,"is_reserved":false,"is_disabled":false,"rental_uris":{"android":"levelo://app?vid=f5560e60-a277-4b46-a413-e08a841b8c7e","ios":"levelo://app?vid=f5560e60-a277-4b46-a413-e08a841b8c7e"},"vehicle_type_id":"4","last_reported":1719331791,"current_range_meters":1200,"station_id":"ce4bgi12rcd13ifvqb70","pricing_plan_id":"cebpf4jnsgd1na2vs0mg"},{"bike_id":"83fc17d1-d912-4bf3-b1a3-3a75d8a47332","system_id":"levelo_inurba_marseille","lat":43.293009,"lon":5.374584,"is_reserved":false,"is_disabled":false,"rental_uris":{"android":"levelo://app?vid=83fc17d1-d912-4bf3-b1a3-3a75d8a47332","ios":"levelo://app?vid=83fc17d1-d912-4bf3-b1a3-3a75d8a47332"},"vehicle_type_id":"4","last_reported":1719331791,"current_range_meters":30000,"station_id":"ce4bgi12rcd13ifvqb70","pricing_plan_id":"cebpf4jnsgd1na2vs0mg"},{"bike_id":"a82bf0aa-a820-416e-89bf-162cbc12e1b0","system_id":"levelo_inurba_marseille","lat":43.293009,"lon":5.374584,"is_reserved":false,"is_disabled":false,"rental_uris":{"android":"levelo://app?vid=a82bf0aa-a820-416e-89bf-162cbc12e1b0","ios":"levelo://app?vid=a82bf0aa-a820-416e-89bf-162cbc12e1b0"},"vehicle_type_id":"4","last_reported":1719331791,"current_range_meters":11600,"station_id":"ce4bgi12rcd13ifvqb70","pricing_plan_id":"cebpf4jnsgd1na2vs0mg"},{"bike_id":"39bab7ac-f798-4b28-8b98-78e02a6a16da","system_id":"levelo_inurba_marseille","lat":43.303101,"lon":5.392078,"is_reserved":false,"is_disabled":false,"rental_uris":{"android":"levelo://app?vid=39bab7ac-f798-4b28-8b98-78e02a6a16da","ios":"levelo://app?vid=39bab7ac-f798-4b28-8b98-78e02a6a16da"},"vehicle_type_id":"4","last_reported":1719331791,"current_range_meters":800,"station_id":"ce4bgkh2rcd13ifvqbk0","pricing_plan_id":"cebpf4jnsgd1na2vs0mg"},{"bike_id":"02e81403-db7c-4016-9140-5ce7d9092b1b","system_id":"levelo_inurba_marseille","lat":43.302992,"lon":5.392136,"is_reserved":false,"is_disabled":false,"rental_uris":{"android":"levelo://app?vid=02e81403-db7c-4016-9140-5ce7d9092b1b","ios":"levelo://app?vid=02e81403-db7c-4016-9140-5ce7d9092b1b"},"vehicle_type_id":"4","last_reported":1719331791,"current_range_meters":10400,"station_id":"ce4bgkh2rcd13ifvqbk0","pricing_plan_id":"cebpf4jnsgd1na2vs0mg"},{"bike_id":"0b14c295-a50b-4695-a25f-7d308ceeaa7c","system_id":"levelo_inurba_marseille","lat":43.322872,"lon":5.382756,"is_reserved":false,"is_disabled":false,"rental_uris":{"android":"levelo://app?vid=0b14c295-a50b-4695-a25f-7d308ceeaa7c","ios":"levelo://app?vid=0b14c295-a50b-4695-a25f-7d308ceeaa7c"},"vehicle_type_id":"4","last_reported":1719331791,"current_range_meters":5200,"station_id":"ce4bhr12rcd13ifvqhqg","pricing_plan_id":"cebpf4jnsgd1na2vs0mg"},{"bike_id":"56ef7f85-44b7-46dc-8aff-85bdd4a2a574","system_id":"levelo_inurba_marseille","lat":43.29231,"lon":5.3607,"is_reserved":false,"is_disabled":false,"rental_uris":{"android":"levelo://app?vid=56ef7f85-44b7-46dc-8aff-85bdd4a2a574","ios":"levelo://app?vid=56ef7f85-44b7-46dc-8aff-85bdd4a2a574"},"vehicle_type_id":"4","last_reported":1719331791,"current_range_meters":0,"station_id":"ce4bhbh2rcd13ifvqeqg","pricing_plan_id":"cebpf4jnsgd1na2vs0mg"},{"bike_id":"18626853-63cc-4a56-ac17-b2b74b79acd5","system_id":"levelo_inurba_marseille","lat":43.300852,"lon":5.390859,"is_reserved":false,"is_disabled":false,"rental_uris":{"android":"levelo://app?vid=18626853-63cc-4a56-ac17-b2b74b79acd5","ios":"levelo://app?vid=18626853-63cc-4a56-ac17-b2b74b79acd5"},"vehicle_type_id":"4","last_reported":1719331791,"current_range_meters":14800,"station_id":"ce4bh192rcd13ifvqdb0","pricing_plan_id":"cebpf4jnsgd1na2vs0mg"},{"bike_id":"37a1e3e0-f2b8-4a67-b701-f90193278384","system_id":"levelo_inurba_marseille","lat":43.30085,"lon":5.390856,"is_reserved":false,"is_disabled":false,"rental_uris":{"android":"levelo://app?vid=37a1e3e0-f2b8-4a67-b701-f90193278384","ios":"levelo://app?vid=37a1e3e0-f2b8-4a67-b701-f90193278384"},"vehicle_type_id":"4","last_reported":1719331791,"current_range_meters":9600,"station_id":"ce4bh192rcd13ifvqdb0","pricing_plan_id":"cebpf4jnsgd1na2vs0mg"},{"bike_id":"8ca9c1d8-c623-4356-ba37-703075e4f477","system_id":"levelo_inurba_marseille","lat":43.292605,"lon":5.376215,"is_reserved":false,"is_disabled":false,"rental_uris":{"android":"levelo://app?vid=8ca9c1d8-c623-4356-ba37-703075e4f477","ios":"levelo://app?vid=8ca9c1d8-c623-4356-ba37-703075e4f477"},"vehicle_type_id":"4","last_reported":1719331791,"current_range_meters":8400,"station_id":"","pricing_plan_id":"cebpf4jnsgd1na2vs0mg"},{"bike_id":"5416667e-bcaa-42c5-aeb2-bc9b92192ce0","system_id":"levelo_inurba_marseille","lat":43.29262,"lon":5.37633,"is_reserved":false,"is_disabled":false,"rental_uris":{"android":"levelo://app?vid=5416667e-bcaa-42c5-aeb2-bc9b92192ce0","ios":"levelo://app?vid=5416667e-bcaa-42c5-aeb2-bc9b92192ce0"},"vehicle_type_id":"4","last_reported":1719331791,"current_range_meters":21200,"station_id":"","pricing_plan_id":"cebpf4jnsgd1na2vs0mg"},{"bike_id":"d58c5196-88aa-44ff-a8cf-88812aea0c50","system_id":"levelo_inurba_marseille","lat":43.298764,"lon":5.388973,"is_reserved":false,"is_disabled":false,"rental_uris":{"android":"levelo://app?vid=d58c5196-88aa-44ff-a8cf-88812aea0c50","ios":"levelo://app?vid=d58c5196-88aa-44ff-a8cf-88812aea0c50"},"vehicle_type_id":"4","last_reported":1719331791,"current_range_meters":0,"station_id":"ce4bh392rcd13ifvqdl0","pricing_plan_id":"cebpf4jnsgd1na2vs0mg"},{"bike_id":"e6060fd6-dd5d-4046-8603-02802724dbec","system_id":"levelo_inurba_marseille","lat":43.298764,"lon":5.388973,"is_reserved":false,"is_disabled":false,"rental_uris":{"android":"levelo://app?vid=e6060fd6-dd5d-4046-8603-02802724dbec","ios":"levelo://app?vid=e6060fd6-dd5d-4046-8603-02802724dbec"},"vehicle_type_id":"4","last_reported":1719331791,"current_range_meters":0,"station_id":"ce4bh392rcd13ifvqdl0","pricing_plan_id":"cebpf4jnsgd1na2vs0mg"},{"bike_id":"dd2ca1d9-b454-4f4b-9707-ea3991eaca08","system_id":"levelo_inurba_marseille","lat":43.291994,"lon":5.357886,"is_reserved":false,"is_disabled":false,"rental_uris":{"android":"levelo://app?vid=dd2ca1d9-b454-4f4b-9707-ea3991eaca08","ios":"levelo://app?vid=dd2ca1d9-b454-4f4b-9707-ea3991eaca08"},"vehicle_type_id":"4","last_reported":1719331791,"current_range_meters":12800,"station_id":"ce4bhb12rcd13ifvqel0","pricing_plan_id":"cebpf4jnsgd1na2vs0mg"},{"bike_id":"a6605245-dca1-490f-97d5-4945a809f080","system_id":"levelo_inurba_marseille","lat":43.313291,"lon":5.396838,"is_reserved":false,"is_disabled":false,"rental_uris":{"android":"levelo://app?vid=a6605245-dca1-490f-97d5-4945a809f080","ios":"levelo://app?vid=a6605245-dca1-490f-97d5-4945a809f080"},"vehicle_type_id":"4","last_reported":1719331791,"current_range_meters":11600,"station_id":"ce4bgvp2rcd13ifvqcu0","pricing_plan_id":"cebpf4jnsgd1na2vs0mg"},{"bike_id":"ea764645-77d7-4ba3-8c54-fb5e0ec59657","system_id":"levelo_inurba_marseille","lat":43.292005,"lon":5.357875,"is_reserved":false,"is_disabled":false,"rental_uris":{"android":"levelo://app?vid=ea764645-77d7-4ba3-8c54-fb5e0ec59657","ios":"levelo://app?vid=ea764645-77d7-4ba3-8c54-fb5e0ec59657"},"vehicle_type_id":"4","last_reported":1719331791,"current_range_meters":400,"station_id":"ce4bhb12rcd13ifvqel0","pricing_plan_id":"cebpf4jnsgd1na2vs0mg"},{"bike_id":"07496905-2fed-4b84-860f-5d2d8d8aa934","system_id":"levelo_inurba_marseille","lat":43.313291,"lon":5.396838,"is_reserved":false,"is_disabled":false,"rental_uris":{"android":"levelo://app?vid=07496905-2fed-4b84-860f-5d2d8d8aa934","ios":"levelo://app?vid=07496905-2fed-4b84-860f-5d2d8d8aa934"},"vehicle_type_id":"4","last_reported":1719331791,"current_range_meters":6000,"station_id":"ce4bgvp2rcd13ifvqcu0","pricing_plan_id":"cebpf4jnsgd1na2vs0mg"},{"bike_id":"59f72377-ea03-4dd6-9c7a-6cc0c1c4781e","system_id":"levelo_inurba_marseille","lat":43.313291,"lon":5.396838,"is_reserved":false,"is_disabled":false,"rental_uris":{"android":"levelo://app?vid=59f72377-ea03-4dd6-9c7a-6cc0c1c4781e","ios":"levelo://app?vid=59f72377-ea03-4dd6-9c7a-6cc0c1c4781e"},"vehicle_type_id":"4","last_reported":1719331791,"current_range_meters":11600,"station_id":"ce4bgvp2rcd13ifvqcu0","pricing_plan_id":"cebpf4jnsgd1na2vs0mg"},{"bike_id":"4a6b6ba3-2e15-46d0-87d9-e7672c5679cf","system_id":"levelo_inurba_marseille","lat":43.313291,"lon":5.396838,"is_reserved":false,"is_disabled":false,"rental_uris":{"android":"levelo://app?vid=4a6b6ba3-2e15-46d0-87d9-e7672c5679cf","ios":"levelo://app?vid=4a6b6ba3-2e15-46d0-87d9-e7672c5679cf"},"vehicle_type_id":"4","last_reported":1719331791,"current_range_meters":16000,"station_id":"ce4bgvp2rcd13ifvqcu0","pricing_plan_id":"cebpf4jnsgd1na2vs0mg"},{"bike_id":"21a4bb51-13b7-4c06-ada6-5ee2abe0ca81","system_id":"levelo_inurba_marseille","lat":43.313291,"lon":5.396838,"is_reserved":false,"is_disabled":false,"rental_uris":{"android":"levelo://app?vid=21a4bb51-13b7-4c06-ada6-5ee2abe0ca81","ios":"levelo://app?vid=21a4bb51-13b7-4c06-ada6-5ee2abe0ca81"},"vehicle_type_id":"4","last_reported":1719331791,"current_range_meters":30000,"station_id":"ce4bgvp2rcd13ifvqcu0","pricing_plan_id":"cebpf4jnsgd1na2vs0mg"},{"bike_id":"264dd018-1d2b-46ee-815a-53fc834550ab","system_id":"levelo_inurba_marseille","lat":43.309047,"lon":5.396551,"is_reserved":false,"is_disabled":false,"rental_uris":{"android":"levelo://app?vid=264dd018-1d2b-46ee-815a-53fc834550ab","ios":"levelo://app?vid=264dd018-1d2b-46ee-815a-53fc834550ab"},"vehicle_type_id":"4","last_reported":1719331791,"current_range_meters":6800,"station_id":"ce4bh012rcd13ifvqcv0","pricing_plan_id":"cebpf4jnsgd1na2vs0mg"},{"bike_id":"42aa2555-ea5a-423e-9084-8be46685544f","system_id":"levelo_inurba_marseille","lat":43.29529,"lon":5.385581,"is_reserved":false,"is_disabled":false,"rental_uris":{"android":"levelo://app?vid=42aa2555-ea5a-423e-9084-8be46685544f","ios":"levelo://app?vid=42aa2555-ea5a-423e-9084-8be46685544f"},"vehicle_type_id":"4","last_reported":1719331791,"current_range_meters":24400,"station_id":"ce4bgih2rcd13ifvqba0","pricing_plan_id":"cebpf4jnsgd1na2vs0mg"},{"bike_id":"082fb141-af17-4f9a-a356-cc08ddc73933","system_id":"levelo_inurba_marseille","lat":43.31318,"lon":5.39715,"is_reserved":false,"is_disabled":false,"rental_uris":{"android":"levelo://app?vid=082fb141-af17-4f9a-a356-cc08ddc73933","ios":"levelo://app?vid=082fb141-af17-4f9a-a356-cc08ddc73933"},"vehicle_type_id":"4","last_reported":1719331791,"current_range_meters":8000,"station_id":"ce4bgvp2rcd13ifvqcu0","pricing_plan_id":"cebpf4jnsgd1na2vs0mg"},{"bike_id":"c0f2d5b3-00f8-4b9d-996d-101284100f30","system_id":"levelo_inurba_marseille","lat":43.29529,"lon":5.385581,"is_reserved":false,"is_disabled":false,"rental_uris":{"android":"levelo://app?vid=c0f2d5b3-00f8-4b9d-996d-101284100f30","ios":"levelo://app?vid=c0f2d5b3-00f8-4b9d-996d-101284100f30"},"vehicle_type_id":"4","last_reported":1719331791,"current_range_meters":23200,"station_id":"ce4bgih2rcd13ifvqba0","pricing_plan_id":"cebpf4jnsgd1na2vs0mg"},{"bike_id":"15b33863-490c-4dea-84fb-4dd09cdc0584","system_id":"levelo_inurba_marseille","lat":43.29529,"lon":5.385581,"is_reserved":false,"is_disabled":false,"rental_uris":{"android":"levelo://app?vid=15b33863-490c-4dea-84fb-4dd09cdc0584","ios":"levelo://app?vid=15b33863-490c-4dea-84fb-4dd09cdc0584"},"vehicle_type_id":"4","last_reported":1719331791,"current_range_meters":29600,"station_id":"ce4bgih2rcd13ifvqba0","pricing_plan_id":"cebpf4jnsgd1na2vs0mg"},{"bike_id":"0fd18c7a-59ee-4a6d-9565-77c9da7dd4aa","system_id":"levelo_inurba_marseille","lat":43.29529,"lon":5.385581,"is_reserved":false,"is_disabled":false,"rental_uris":{"android":"levelo://app?vid=0fd18c7a-59ee-4a6d-9565-77c9da7dd4aa","ios":"levelo://app?vid=0fd18c7a-59ee-4a6d-9565-77c9da7dd4aa"},"vehicle_type_id":"4","last_reported":1719331791,"current_range_meters":19200,"station_id":"ce4bgih2rcd13ifvqba0","pricing_plan_id":"cebpf4jnsgd1na2vs0mg"},{"bike_id":"4bff155d-a238-46b1-99e4-73bfbdc59120","system_id":"levelo_inurba_marseille","lat":43.29528,"lon":5.38541,"is_reserved":false,"is_disabled":false,"rental_uris":{"android":"levelo://app?vid=4bff155d-a238-46b1-99e4-73bfbdc59120","ios":"levelo://app?vid=4bff155d-a238-46b1-99e4-73bfbdc59120"},"vehicle_type_id":"4","last_reported":1719331791,"current_range_meters":20400,"station_id":"ce4bgih2rcd13ifvqba0","pricing_plan_id":"cebpf4jnsgd1na2vs0mg"},{"bike_id":"ae92e421-4892-4d4c-9c00-dc7390c48b82","system_id":"levelo_inurba_marseille","lat":43.29531,"lon":5.38547,"is_reserved":false,"is_disabled":false,"rental_uris":{"android":"levelo://app?vid=ae92e421-4892-4d4c-9c00-dc7390c48b82","ios":"levelo://app?vid=ae92e421-4892-4d4c-9c00-dc7390c48b82"},"vehicle_type_id":"4","last_reported":1719331791,"current_range_meters":20000,"station_id":"ce4bgih2rcd13ifvqba0","pricing_plan_id":"cebpf4jnsgd1na2vs0mg"},{"bike_id":"8cfec9cb-83f3-4eb0-936e-485adb4773b5","system_id":"levelo_inurba_marseille","lat":43.2953,"lon":5.38546,"is_reserved":false,"is_disabled":false,"rental_uris":{"android":"levelo://app?vid=8cfec9cb-83f3-4eb0-936e-485adb4773b5","ios":"levelo://app?vid=8cfec9cb-83f3-4eb0-936e-485adb4773b5"},"vehicle_type_id":"4","last_reported":1719331791,"current_range_meters":20000,"station_id":"ce4bgih2rcd13ifvqba0","pricing_plan_id":"cebpf4jnsgd1na2vs0mg"},{"bike_id":"2e7bc156-26b5-4851-aefc-7d7b29869d89","system_id":"levelo_inurba_marseille","lat":43.29531,"lon":5.38548,"is_reserved":false,"is_disabled":false,"rental_uris":{"android":"levelo://app?vid=2e7bc156-26b5-4851-aefc-7d7b29869d89","ios":"levelo://app?vid=2e7bc156-26b5-4851-aefc-7d7b29869d89"},"vehicle_type_id":"4","last_reported":1719331791,"current_range_meters":13600,"station_id":"ce4bgih2rcd13ifvqba0","pricing_plan_id":"cebpf4jnsgd1na2vs0mg"},{"bike_id":"aa207956-6daf-4457-8260-d109cc3b7769","system_id":"levelo_inurba_marseille","lat":43.29529,"lon":5.385581,"is_reserved":false,"is_disabled":false,"rental_uris":{"android":"levelo://app?vid=aa207956-6daf-4457-8260-d109cc3b7769","ios":"levelo://app?vid=aa207956-6daf-4457-8260-d109cc3b7769"},"vehicle_type_id":"4","last_reported":1719331791,"current_range_meters":8400,"station_id":"ce4bgih2rcd13ifvqba0","pricing_plan_id":"cebpf4jnsgd1na2vs0mg"},{"bike_id":"48b7acdc-dc51-4593-bcf1-d4fb41a1a031","system_id":"levelo_inurba_marseille","lat":43.29529,"lon":5.385581,"is_reserved":false,"is_disabled":false,"rental_uris":{"android":"levelo://app?vid=48b7acdc-dc51-4593-bcf1-d4fb41a1a031","ios":"levelo://app?vid=48b7acdc-dc51-4593-bcf1-d4fb41a1a031"},"vehicle_type_id":"4","last_reported":1719331791,"current_range_meters":24800,"station_id":"ce4bgih2rcd13ifvqba0","pricing_plan_id":"cebpf4jnsgd1na2vs0mg"},{"bike_id":"5fc92a27-3743-4a56-9e86-01c30cd2db18","system_id":"levelo_inurba_marseille","lat":43.29529,"lon":5.385581,"is_reserved":false,"is_disabled":false,"rental_uris":{"android":"levelo://app?vid=5fc92a27-3743-4a56-9e86-01c30cd2db18","ios":"levelo://app?vid=5fc92a27-3743-4a56-9e86-01c30cd2db18"},"vehicle_type_id":"4","last_reported":1719331791,"current_range_meters":8400,"station_id":"ce4bgih2rcd13ifvqba0","pricing_plan_id":"cebpf4jnsgd1na2vs0mg"},{"bike_id":"9285a4ec-1987-40c1-86c3-c9d733d9d421","system_id":"levelo_inurba_marseille","lat":43.29529,"lon":5.385581,"is_reserved":false,"is_disabled":false,"rental_uris":{"android":"levelo://app?vid=9285a4ec-1987-40c1-86c3-c9d733d9d421","ios":"levelo://app?vid=9285a4ec-1987-40c1-86c3-c9d733d9d421"},"vehicle_type_id":"4","last_reported":1719331791,"current_range_meters":18000,"station_id":"ce4bgih2rcd13ifvqba0","pricing_plan_id":"cebpf4jnsgd1na2vs0mg"},{"bike_id":"79e7022a-0473-48f4-b7ae-c2886dbabc18","system_id":"levelo_inurba_marseille","lat":43.29529,"lon":5.38552,"is_reserved":false,"is_disabled":false,"rental_uris":{"android":"levelo://app?vid=79e7022a-0473-48f4-b7ae-c2886dbabc18","ios":"levelo://app?vid=79e7022a-0473-48f4-b7ae-c2886dbabc18"},"vehicle_type_id":"4","last_reported":1719331791,"current_range_meters":8000,"station_id":"ce4bgih2rcd13ifvqba0","pricing_plan_id":"cebpf4jnsgd1na2vs0mg"},{"bike_id":"61b70bcd-31db-4f0f-abc5-7a57e64a6c50","system_id":"levelo_inurba_marseille","lat":43.29529,"lon":5.385581,"is_reserved":false,"is_disabled":false,"rental_uris":{"android":"levelo://app?vid=61b70bcd-31db-4f0f-abc5-7a57e64a6c50","ios":"levelo://app?vid=61b70bcd-31db-4f0f-abc5-7a57e64a6c50"},"vehicle_type_id":"4","last_reported":1719331791,"current_range_meters":31200,"station_id":"ce4bgih2rcd13ifvqba0","pricing_plan_id":"cebpf4jnsgd1na2vs0mg"},{"bike_id":"156ffa8b-6083-43f4-b76f-6879dc2708c3","system_id":"levelo_inurba_marseille","lat":43.302008,"lon":5.394694,"is_reserved":false,"is_disabled":false,"rental_uris":{"android":"levelo://app?vid=156ffa8b-6083-43f4-b76f-6879dc2708c3","ios":"levelo://app?vid=156ffa8b-6083-43f4-b76f-6879dc2708c3"},"vehicle_type_id":"4","last_reported":1719331791,"current_range_meters":21200,"station_id":"ce4bh0p2rcd13ifvqd70","pricing_plan_id":"cebpf4jnsgd1na2vs0mg"},{"bike_id":"1acefd21-31f8-4312-8773-75a1050c3568","system_id":"levelo_inurba_marseille","lat":43.290104,"lon":5.356111,"is_reserved":false,"is_disabled":false,"rental_uris":{"android":"levelo://app?vid=1acefd21-31f8-4312-8773-75a1050c3568","ios":"levelo://app?vid=1acefd21-31f8-4312-8773-75a1050c3568"},"vehicle_type_id":"4","last_reported":1719331791,"current_range_meters":12000,"station_id":"ce4bhb92rcd13ifvqen0","pricing_plan_id":"cebpf4jnsgd1na2vs0mg"},{"bike_id":"2e806592-2d39-4024-8adc-c32ae30706e2","system_id":"levelo_inurba_marseille","lat":43.2942,"lon":5.38615,"is_reserved":false,"is_disabled":false,"rental_uris":{"android":"levelo://app?vid=2e806592-2d39-4024-8adc-c32ae30706e2","ios":"levelo://app?vid=2e806592-2d39-4024-8adc-c32ae30706e2"},"vehicle_type_id":"4","last_reported":1719331791,"current_range_meters":14800,"station_id":"ce4bh2h2rcd13ifvqdh0","pricing_plan_id":"cebpf4jnsgd1na2vs0mg"},{"bike_id":"98d80202-839b-4350-a728-8bd4d44d3dc5","system_id":"levelo_inurba_marseille","lat":43.2942,"lon":5.38615,"is_reserved":false,"is_disabled":false,"rental_uris":{"android":"levelo://app?vid=98d80202-839b-4350-a728-8bd4d44d3dc5","ios":"levelo://app?vid=98d80202-839b-4350-a728-8bd4d44d3dc5"},"vehicle_type_id":"4","last_reported":1719331791,"current_range_meters":6400,"station_id":"ce4bh2h2rcd13ifvqdh0","pricing_plan_id":"cebpf4jnsgd1na2vs0mg"},{"bike_id":"a54b1f91-1609-45b9-b995-68769ecbf8e2","system_id":"levelo_inurba_marseille","lat":43.294153,"lon":5.386305,"is_reserved":false,"is_disabled":false,"rental_uris":{"android":"levelo://app?vid=a54b1f91-1609-45b9-b995-68769ecbf8e2","ios":"levelo://app?vid=a54b1f91-1609-45b9-b995-68769ecbf8e2"},"vehicle_type_id":"4","last_reported":1719331791,"current_range_meters":13200,"station_id":"ce4bh2h2rcd13ifvqdh0","pricing_plan_id":"cebpf4jnsgd1na2vs0mg"},{"bike_id":"fd33f0f2-00f3-4e75-8f43-902d662e33d4","system_id":"levelo_inurba_marseille","lat":43.2942,"lon":5.38617,"is_reserved":false,"is_disabled":false,"rental_uris":{"android":"levelo://app?vid=fd33f0f2-00f3-4e75-8f43-902d662e33d4","ios":"levelo://app?vid=fd33f0f2-00f3-4e75-8f43-902d662e33d4"},"vehicle_type_id":"4","last_reported":1719331791,"current_range_meters":4800,"station_id":"ce4bh2h2rcd13ifvqdh0","pricing_plan_id":"cebpf4jnsgd1na2vs0mg"},{"bike_id":"fda279be-2c86-436a-b872-7ee90d4045ad","system_id":"levelo_inurba_marseille","lat":43.289184,"lon":5.366408,"is_reserved":false,"is_disabled":false,"rental_uris":{"android":"levelo://app?vid=fda279be-2c86-436a-b872-7ee90d4045ad","ios":"levelo://app?vid=fda279be-2c86-436a-b872-7ee90d4045ad"},"vehicle_type_id":"4","last_reported":1719331791,"current_range_meters":8400,"station_id":"ce4bhap2rcd13ifvqek0","pricing_plan_id":"cebpf4jnsgd1na2vs0mg"},{"bike_id":"5a1d2e9f-ae52-4334-89b5-d27714a7cf9d","system_id":"levelo_inurba_marseille","lat":43.2942,"lon":5.38622,"is_reserved":false,"is_disabled":false,"rental_uris":{"android":"levelo://app?vid=5a1d2e9f-ae52-4334-89b5-d27714a7cf9d","ios":"levelo://app?vid=5a1d2e9f-ae52-4334-89b5-d27714a7cf9d"},"vehicle_type_id":"4","last_reported":1719331791,"current_range_meters":26800,"station_id":"ce4bh2h2rcd13ifvqdh0","pricing_plan_id":"cebpf4jnsgd1na2vs0mg"},{"bike_id":"ebf3eb59-bcd4-46cf-8aa9-01bb379c1ab5","system_id":"levelo_inurba_marseille","lat":43.29417,"lon":5.38624,"is_reserved":false,"is_disabled":false,"rental_uris":{"android":"levelo://app?vid=ebf3eb59-bcd4-46cf-8aa9-01bb379c1ab5","ios":"levelo://app?vid=ebf3eb59-bcd4-46cf-8aa9-01bb379c1ab5"},"vehicle_type_id":"4","last_reported":1719331791,"current_range_meters":28000,"station_id":"ce4bh2h2rcd13ifvqdh0","pricing_plan_id":"cebpf4jnsgd1na2vs0mg"},{"bike_id":"bf10040b-4ffc-44cf-8131-782ef3d92ef6","system_id":"levelo_inurba_marseille","lat":43.29415,"lon":5.38623,"is_reserved":false,"is_disabled":false,"rental_uris":{"android":"levelo://app?vid=bf10040b-4ffc-44cf-8131-782ef3d92ef6","ios":"levelo://app?vid=bf10040b-4ffc-44cf-8131-782ef3d92ef6"},"vehicle_type_id":"4","last_reported":1719331791,"current_range_meters":6400,"station_id":"ce4bh2h2rcd13ifvqdh0","pricing_plan_id":"cebpf4jnsgd1na2vs0mg"},{"bike_id":"104b8f49-f0e7-4f7c-b3d1-d57a98b17866","system_id":"levelo_inurba_marseille","lat":43.29414,"lon":5.38623,"is_reserved":false,"is_disabled":false,"rental_uris":{"android":"levelo://app?vid=104b8f49-f0e7-4f7c-b3d1-d57a98b17866","ios":"levelo://app?vid=104b8f49-f0e7-4f7c-b3d1-d57a98b17866"},"vehicle_type_id":"4","last_reported":1719331791,"current_range_meters":15200,"station_id":"ce4bh2h2rcd13ifvqdh0","pricing_plan_id":"cebpf4jnsgd1na2vs0mg"},{"bike_id":"62e19a1b-57ce-4500-b9b4-5e759ee170fb","system_id":"levelo_inurba_marseille","lat":43.29416,"lon":5.38627,"is_reserved":false,"is_disabled":false,"rental_uris":{"android":"levelo://app?vid=62e19a1b-57ce-4500-b9b4-5e759ee170fb","ios":"levelo://app?vid=62e19a1b-57ce-4500-b9b4-5e759ee170fb"},"vehicle_type_id":"4","last_reported":1719331791,"current_range_meters":23200,"station_id":"ce4bh2h2rcd13ifvqdh0","pricing_plan_id":"cebpf4jnsgd1na2vs0mg"},{"bike_id":"3195dc55-08a2-4ac3-8050-fac29e96c4cd","system_id":"levelo_inurba_marseille","lat":43.28941,"lon":5.36643,"is_reserved":false,"is_disabled":false,"rental_uris":{"android":"levelo://app?vid=3195dc55-08a2-4ac3-8050-fac29e96c4cd","ios":"levelo://app?vid=3195dc55-08a2-4ac3-8050-fac29e96c4cd"},"vehicle_type_id":"4","last_reported":1719331791,"current_range_meters":14000,"station_id":"ce4bhap2rcd13ifvqek0","pricing_plan_id":"cebpf4jnsgd1na2vs0mg"},{"bike_id":"4f5bf1d1-ade4-451d-8a70-8c10290f0007","system_id":"levelo_inurba_marseille","lat":43.28941,"lon":5.36641,"is_reserved":false,"is_disabled":false,"rental_uris":{"android":"levelo://app?vid=4f5bf1d1-ade4-451d-8a70-8c10290f0007","ios":"levelo://app?vid=4f5bf1d1-ade4-451d-8a70-8c10290f0007"},"vehicle_type_id":"4","last_reported":1719331791,"current_range_meters":6400,"station_id":"ce4bhap2rcd13ifvqek0","pricing_plan_id":"cebpf4jnsgd1na2vs0mg"},{"bike_id":"a844076e-188a-42aa-b6b1-3c6358805bed","system_id":"levelo_inurba_marseille","lat":43.289184,"lon":5.366408,"is_reserved":false,"is_disabled":false,"rental_uris":{"android":"levelo://app?vid=a844076e-188a-42aa-b6b1-3c6358805bed","ios":"levelo://app?vid=a844076e-188a-42aa-b6b1-3c6358805bed"},"vehicle_type_id":"4","last_reported":1719331791,"current_range_meters":0,"station_id":"ce4bhap2rcd13ifvqek0","pricing_plan_id":"cebpf4jnsgd1na2vs0mg"},{"bike_id":"ad58767f-506b-4e8e-a3e2-5ae3c9b01779","system_id":"levelo_inurba_marseille","lat":43.289405,"lon":5.366371,"is_reserved":false,"is_disabled":false,"rental_uris":{"android":"levelo://app?vid=ad58767f-506b-4e8e-a3e2-5ae3c9b01779","ios":"levelo://app?vid=ad58767f-506b-4e8e-a3e2-5ae3c9b01779"},"vehicle_type_id":"4","last_reported":1719331791,"current_range_meters":21200,"station_id":"ce4bhap2rcd13ifvqek0","pricing_plan_id":"cebpf4jnsgd1na2vs0mg"},{"bike_id":"a777065c-f0f2-4d7d-9747-d61af070de9a","system_id":"levelo_inurba_marseille","lat":43.29411,"lon":5.38629,"is_reserved":false,"is_disabled":false,"rental_uris":{"android":"levelo://app?vid=a777065c-f0f2-4d7d-9747-d61af070de9a","ios":"levelo://app?vid=a777065c-f0f2-4d7d-9747-d61af070de9a"},"vehicle_type_id":"4","last_reported":1719331791,"current_range_meters":2000,"station_id":"ce4bh2h2rcd13ifvqdh0","pricing_plan_id":"cebpf4jnsgd1na2vs0mg"},{"bike_id":"f76342ad-911c-49b4-af8a-80d51b117525","system_id":"levelo_inurba_marseille","lat":43.28938,"lon":5.36639,"is_reserved":false,"is_disabled":false,"rental_uris":{"android":"levelo://app?vid=f76342ad-911c-49b4-af8a-80d51b117525","ios":"levelo://app?vid=f76342ad-911c-49b4-af8a-80d51b117525"},"vehicle_type_id":"4","last_reported":1719331791,"current_range_meters":0,"station_id":"ce4bhap2rcd13ifvqek0","pricing_plan_id":"cebpf4jnsgd1na2vs0mg"},{"bike_id":"e4099d3e-2c17-48dc-981d-bc229be9eb5d","system_id":"levelo_inurba_marseille","lat":43.290319,"lon":5.375732,"is_reserved":false,"is_disabled":false,"rental_uris":{"android":"levelo://app?vid=e4099d3e-2c17-48dc-981d-bc229be9eb5d","ios":"levelo://app?vid=e4099d3e-2c17-48dc-981d-bc229be9eb5d"},"vehicle_type_id":"4","last_reported":1719331791,"current_range_meters":20800,"station_id":"ce4bh692rcd13ifvqe90","pricing_plan_id":"cebpf4jnsgd1na2vs0mg"},{"bike_id":"1c91bc38-754a-443b-96f1-bcebc21b3c61","system_id":"levelo_inurba_marseille","lat":43.292644,"lon":5.384257,"is_reserved":false,"is_disabled":false,"rental_uris":{"android":"levelo://app?vid=1c91bc38-754a-443b-96f1-bcebc21b3c61","ios":"levelo://app?vid=1c91bc38-754a-443b-96f1-bcebc21b3c61"},"vehicle_type_id":"4","last_reported":1719331791,"current_range_meters":7200,"station_id":"ce4bh692rcd13ifvqea0","pricing_plan_id":"cebpf4jnsgd1na2vs0mg"},{"bike_id":"2e4719a2-7b94-4fd3-a760-c38cfc60f0f0","system_id":"levelo_inurba_marseille","lat":43.292644,"lon":5.384257,"is_reserved":false,"is_disabled":false,"rental_uris":{"android":"levelo://app?vid=2e4719a2-7b94-4fd3-a760-c38cfc60f0f0","ios":"levelo://app?vid=2e4719a2-7b94-4fd3-a760-c38cfc60f0f0"},"vehicle_type_id":"4","last_reported":1719331791,"current_range_meters":19200,"station_id":"ce4bh692rcd13ifvqea0","pricing_plan_id":"cebpf4jnsgd1na2vs0mg"},{"bike_id":"2992446b-9336-45ff-a814-841199c41aa0","system_id":"levelo_inurba_marseille","lat":43.29266,"lon":5.38435,"is_reserved":false,"is_disabled":false,"rental_uris":{"android":"levelo://app?vid=2992446b-9336-45ff-a814-841199c41aa0","ios":"levelo://app?vid=2992446b-9336-45ff-a814-841199c41aa0"},"vehicle_type_id":"4","last_reported":1719331791,"current_range_meters":19600,"station_id":"ce4bh692rcd13ifvqea0","pricing_plan_id":"cebpf4jnsgd1na2vs0mg"},{"bike_id":"6992e3d2-e313-479f-9eb5-a8a6efc560dc","system_id":"levelo_inurba_marseille","lat":43.292644,"lon":5.384257,"is_reserved":false,"is_disabled":false,"rental_uris":{"android":"levelo://app?vid=6992e3d2-e313-479f-9eb5-a8a6efc560dc","ios":"levelo://app?vid=6992e3d2-e313-479f-9eb5-a8a6efc560dc"},"vehicle_type_id":"4","last_reported":1719331791,"current_range_meters":26400,"station_id":"ce4bh692rcd13ifvqea0","pricing_plan_id":"cebpf4jnsgd1na2vs0mg"},{"bike_id":"28881522-3dd0-491c-a595-bc6eb053a2eb","system_id":"levelo_inurba_marseille","lat":43.292263,"lon":5.383513,"is_reserved":false,"is_disabled":false,"rental_uris":{"android":"levelo://app?vid=28881522-3dd0-491c-a595-bc6eb053a2eb","ios":"levelo://app?vid=28881522-3dd0-491c-a595-bc6eb053a2eb"},"vehicle_type_id":"4","last_reported":1719331791,"current_range_meters":13200,"station_id":"ce4bh692rcd13ifvqea0","pricing_plan_id":"cebpf4jnsgd1na2vs0mg"},{"bike_id":"3289e7f6-42ae-429e-89d5-5d44a732a6ea","system_id":"levelo_inurba_marseille","lat":43.292644,"lon":5.384257,"is_reserved":false,"is_disabled":false,"rental_uris":{"android":"levelo://app?vid=3289e7f6-42ae-429e-89d5-5d44a732a6ea","ios":"levelo://app?vid=3289e7f6-42ae-429e-89d5-5d44a732a6ea"},"vehicle_type_id":"4","last_reported":1719331791,"current_range_meters":6400,"station_id":"ce4bh692rcd13ifvqea0","pricing_plan_id":"cebpf4jnsgd1na2vs0mg"},{"bike_id":"8725d79a-42d3-4902-835d-bfeeb4d2c1ed","system_id":"levelo_inurba_marseille","lat":43.29261,"lon":5.38432,"is_reserved":false,"is_disabled":false,"rental_uris":{"android":"levelo://app?vid=8725d79a-42d3-4902-835d-bfeeb4d2c1ed","ios":"levelo://app?vid=8725d79a-42d3-4902-835d-bfeeb4d2c1ed"},"vehicle_type_id":"4","last_reported":1719331791,"current_range_meters":18800,"station_id":"ce4bh692rcd13ifvqea0","pricing_plan_id":"cebpf4jnsgd1na2vs0mg"},{"bike_id":"c58b8d25-8569-4bcc-a1ec-3dc0cd2465eb","system_id":"levelo_inurba_marseille","lat":43.292644,"lon":5.384257,"is_reserved":false,"is_disabled":false,"rental_uris":{"android":"levelo://app?vid=c58b8d25-8569-4bcc-a1ec-3dc0cd2465eb","ios":"levelo://app?vid=c58b8d25-8569-4bcc-a1ec-3dc0cd2465eb"},"vehicle_type_id":"4","last_reported":1719331791,"current_range_meters":16800,"station_id":"ce4bh692rcd13ifvqea0","pricing_plan_id":"cebpf4jnsgd1na2vs0mg"},{"bike_id":"3a0a11be-9c52-463d-9bee-f7d29001c098","system_id":"levelo_inurba_marseille","lat":43.29261,"lon":5.38433,"is_reserved":false,"is_disabled":false,"rental_uris":{"android":"levelo://app?vid=3a0a11be-9c52-463d-9bee-f7d29001c098","ios":"levelo://app?vid=3a0a11be-9c52-463d-9bee-f7d29001c098"},"vehicle_type_id":"4","last_reported":1719331791,"current_range_meters":10400,"station_id":"ce4bh692rcd13ifvqea0","pricing_plan_id":"cebpf4jnsgd1na2vs0mg"},{"bike_id":"64c04ada-d519-4997-90cd-b914a34a6657","system_id":"levelo_inurba_marseille","lat":43.292644,"lon":5.384257,"is_reserved":false,"is_disabled":false,"rental_uris":{"android":"levelo://app?vid=64c04ada-d519-4997-90cd-b914a34a6657","ios":"levelo://app?vid=64c04ada-d519-4997-90cd-b914a34a6657"},"vehicle_type_id":"4","last_reported":1719331791,"current_range_meters":22800,"station_id":"ce4bh692rcd13ifvqea0","pricing_plan_id":"cebpf4jnsgd1na2vs0mg"},{"bike_id":"041e2814-747d-43bd-91cf-857fe6ce5121","system_id":"levelo_inurba_marseille","lat":43.292644,"lon":5.384257,"is_reserved":false,"is_disabled":false,"rental_uris":{"android":"levelo://app?vid=041e2814-747d-43bd-91cf-857fe6ce5121","ios":"levelo://app?vid=041e2814-747d-43bd-91cf-857fe6ce5121"},"vehicle_type_id":"4","last_reported":1719331791,"current_range_meters":8800,"station_id":"ce4bh692rcd13ifvqea0","pricing_plan_id":"cebpf4jnsgd1na2vs0mg"},{"bike_id":"a737b0ae-b7a5-44a5-ace5-648cc34eca31","system_id":"levelo_inurba_marseille","lat":43.292644,"lon":5.384257,"is_reserved":false,"is_disabled":false,"rental_uris":{"android":"levelo://app?vid=a737b0ae-b7a5-44a5-ace5-648cc34eca31","ios":"levelo://app?vid=a737b0ae-b7a5-44a5-ace5-648cc34eca31"},"vehicle_type_id":"4","last_reported":1719331791,"current_range_meters":13600,"station_id":"ce4bh692rcd13ifvqea0","pricing_plan_id":"cebpf4jnsgd1na2vs0mg"},{"bike_id":"acde7de1-79ad-43f4-b90f-fabd2d178007","system_id":"levelo_inurba_marseille","lat":43.29261,"lon":5.38439,"is_reserved":false,"is_disabled":false,"rental_uris":{"android":"levelo://app?vid=acde7de1-79ad-43f4-b90f-fabd2d178007","ios":"levelo://app?vid=acde7de1-79ad-43f4-b90f-fabd2d178007"},"vehicle_type_id":"4","last_reported":1719331791,"current_range_meters":14400,"station_id":"ce4bh692rcd13ifvqea0","pricing_plan_id":"cebpf4jnsgd1na2vs0mg"},{"bike_id":"9b7ad5ab-a85a-410f-bd59-d65722c26205","system_id":"levelo_inurba_marseille","lat":43.292644,"lon":5.384257,"is_reserved":false,"is_disabled":false,"rental_uris":{"android":"levelo://app?vid=9b7ad5ab-a85a-410f-bd59-d65722c26205","ios":"levelo://app?vid=9b7ad5ab-a85a-410f-bd59-d65722c26205"},"vehicle_type_id":"4","last_reported":1719331791,"current_range_meters":0,"station_id":"ce4bh692rcd13ifvqea0","pricing_plan_id":"cebpf4jnsgd1na2vs0mg"},{"bike_id":"b6aeac1d-ebe4-40d1-b6d1-cdbe261c20fe","system_id":"levelo_inurba_marseille","lat":43.29259,"lon":5.38437,"is_reserved":false,"is_disabled":false,"rental_uris":{"android":"levelo://app?vid=b6aeac1d-ebe4-40d1-b6d1-cdbe261c20fe","ios":"levelo://app?vid=b6aeac1d-ebe4-40d1-b6d1-cdbe261c20fe"},"vehicle_type_id":"4","last_reported":1719331791,"current_range_meters":2000,"station_id":"ce4bh692rcd13ifvqea0","pricing_plan_id":"cebpf4jnsgd1na2vs0mg"},{"bike_id":"fe524896-67db-45f9-a861-3c90de40e346","system_id":"levelo_inurba_marseille","lat":43.304296,"lon":5.397513,"is_reserved":false,"is_disabled":false,"rental_uris":{"android":"levelo://app?vid=fe524896-67db-45f9-a861-3c90de40e346","ios":"levelo://app?vid=fe524896-67db-45f9-a861-3c90de40e346"},"vehicle_type_id":"4","last_reported":1719331791,"current_range_meters":12400,"station_id":"ce4bh092rcd13ifvqd20","pricing_plan_id":"cebpf4jnsgd1na2vs0mg"},{"bike_id":"9e2339d6-f1b4-4f6d-8982-6e26c40292d0","system_id":"levelo_inurba_marseille","lat":43.29256,"lon":5.38435,"is_reserved":false,"is_disabled":false,"rental_uris":{"android":"levelo://app?vid=9e2339d6-f1b4-4f6d-8982-6e26c40292d0","ios":"levelo://app?vid=9e2339d6-f1b4-4f6d-8982-6e26c40292d0"},"vehicle_type_id":"4","last_reported":1719331791,"current_range_meters":11200,"station_id":"ce4bh692rcd13ifvqea0","pricing_plan_id":"cebpf4jnsgd1na2vs0mg"},{"bike_id":"ecbc1755-498c-4a3f-8fa8-60928a3b3e5f","system_id":"levelo_inurba_marseille","lat":43.29256,"lon":5.38435,"is_reserved":false,"is_disabled":false,"rental_uris":{"android":"levelo://app?vid=ecbc1755-498c-4a3f-8fa8-60928a3b3e5f","ios":"levelo://app?vid=ecbc1755-498c-4a3f-8fa8-60928a3b3e5f"},"vehicle_type_id":"4","last_reported":1719331791,"current_range_meters":4000,"station_id":"ce4bh692rcd13ifvqea0","pricing_plan_id":"cebpf4jnsgd1na2vs0mg"},{"bike_id":"847f7a8d-5d01-46fe-adca-35aff1281353","system_id":"levelo_inurba_marseille","lat":43.292644,"lon":5.384257,"is_reserved":false,"is_disabled":false,"rental_uris":{"android":"levelo://app?vid=847f7a8d-5d01-46fe-adca-35aff1281353","ios":"levelo://app?vid=847f7a8d-5d01-46fe-adca-35aff1281353"},"vehicle_type_id":"4","last_reported":1719331791,"current_range_meters":24000,"station_id":"ce4bh692rcd13ifvqea0","pricing_plan_id":"cebpf4jnsgd1na2vs0mg"},{"bike_id":"a49ab5ea-b3ec-4706-86ba-d021972c8175","system_id":"levelo_inurba_marseille","lat":43.292644,"lon":5.384257,"is_reserved":false,"is_disabled":false,"rental_uris":{"android":"levelo://app?vid=a49ab5ea-b3ec-4706-86ba-d021972c8175","ios":"levelo://app?vid=a49ab5ea-b3ec-4706-86ba-d021972c8175"},"vehicle_type_id":"4","last_reported":1719331791,"current_range_meters":19200,"station_id":"ce4bh692rcd13ifvqea0","pricing_plan_id":"cebpf4jnsgd1na2vs0mg"},{"bike_id":"98aa90ac-d9f0-4e7f-a7da-ce35b4bd2430","system_id":"levelo_inurba_marseille","lat":43.292644,"lon":5.384257,"is_reserved":false,"is_disabled":false,"rental_uris":{"android":"levelo://app?vid=98aa90ac-d9f0-4e7f-a7da-ce35b4bd2430","ios":"levelo://app?vid=98aa90ac-d9f0-4e7f-a7da-ce35b4bd2430"},"vehicle_type_id":"4","last_reported":1719331791,"current_range_meters":17600,"station_id":"ce4bh692rcd13ifvqea0","pricing_plan_id":"cebpf4jnsgd1na2vs0mg"},{"bike_id":"9c859f7d-0909-4fbd-a8a5-a1d554f4ad25","system_id":"levelo_inurba_marseille","lat":43.292644,"lon":5.384257,"is_reserved":false,"is_disabled":false,"rental_uris":{"android":"levelo://app?vid=9c859f7d-0909-4fbd-a8a5-a1d554f4ad25","ios":"levelo://app?vid=9c859f7d-0909-4fbd-a8a5-a1d554f4ad25"},"vehicle_type_id":"4","last_reported":1719331791,"current_range_meters":16400,"station_id":"ce4bh692rcd13ifvqea0","pricing_plan_id":"cebpf4jnsgd1na2vs0mg"},{"bike_id":"ba2b0e9b-fe23-4b84-a574-986f4e60cdde","system_id":"levelo_inurba_marseille","lat":43.298764,"lon":5.388973,"is_reserved":false,"is_disabled":false,"rental_uris":{"android":"levelo://app?vid=ba2b0e9b-fe23-4b84-a574-986f4e60cdde","ios":"levelo://app?vid=ba2b0e9b-fe23-4b84-a574-986f4e60cdde"},"vehicle_type_id":"4","last_reported":1719331791,"current_range_meters":19200,"station_id":"ce4bh392rcd13ifvqdl0","pricing_plan_id":"cebpf4jnsgd1na2vs0mg"},{"bike_id":"5a246bb1-64d6-4824-9464-ba7fd032fca4","system_id":"levelo_inurba_marseille","lat":43.29003,"lon":5.35616,"is_reserved":false,"is_disabled":false,"rental_uris":{"android":"levelo://app?vid=5a246bb1-64d6-4824-9464-ba7fd032fca4","ios":"levelo://app?vid=5a246bb1-64d6-4824-9464-ba7fd032fca4"},"vehicle_type_id":"4","last_reported":1719331791,"current_range_meters":26800,"station_id":"ce4bhb92rcd13ifvqen0","pricing_plan_id":"cebpf4jnsgd1na2vs0mg"},{"bike_id":"bbb79d06-095c-4443-953e-1454abe8c97f","system_id":"levelo_inurba_marseille","lat":43.29001,"lon":5.35617,"is_reserved":false,"is_disabled":false,"rental_uris":{"android":"levelo://app?vid=bbb79d06-095c-4443-953e-1454abe8c97f","ios":"levelo://app?vid=bbb79d06-095c-4443-953e-1454abe8c97f"},"vehicle_type_id":"4","last_reported":1719331791,"current_range_meters":28800,"station_id":"ce4bhb92rcd13ifvqen0","pricing_plan_id":"cebpf4jnsgd1na2vs0mg"},{"bike_id":"7313a881-56e4-4181-a915-ed5545dd075a","system_id":"levelo_inurba_marseille","lat":43.290104,"lon":5.356111,"is_reserved":false,"is_disabled":false,"rental_uris":{"android":"levelo://app?vid=7313a881-56e4-4181-a915-ed5545dd075a","ios":"levelo://app?vid=7313a881-56e4-4181-a915-ed5545dd075a"},"vehicle_type_id":"4","last_reported":1719331791,"current_range_meters":16400,"station_id":"ce4bhb92rcd13ifvqen0","pricing_plan_id":"cebpf4jnsgd1na2vs0mg"},{"bike_id":"650cf46d-6ed0-4e2f-be43-f8699a26acae","system_id":"levelo_inurba_marseille","lat":43.290103,"lon":5.356114,"is_reserved":false,"is_disabled":false,"rental_uris":{"android":"levelo://app?vid=650cf46d-6ed0-4e2f-be43-f8699a26acae","ios":"levelo://app?vid=650cf46d-6ed0-4e2f-be43-f8699a26acae"},"vehicle_type_id":"4","last_reported":1719331791,"current_range_meters":12400,"station_id":"ce4bhb92rcd13ifvqen0","pricing_plan_id":"cebpf4jnsgd1na2vs0mg"},{"bike_id":"c00fa9f8-bf54-448f-a1fe-65997f27664a","system_id":"levelo_inurba_marseille","lat":43.290995,"lon":5.381361,"is_reserved":false,"is_disabled":false,"rental_uris":{"android":"levelo://app?vid=c00fa9f8-bf54-448f-a1fe-65997f27664a","ios":"levelo://app?vid=c00fa9f8-bf54-448f-a1fe-65997f27664a"},"vehicle_type_id":"4","last_reported":1719331791,"current_range_meters":1600,"station_id":"ce4bh512rcd13ifvqe2g","pricing_plan_id":"cebpf4jnsgd1na2vs0mg"},{"bike_id":"04eb0310-4d7e-4ae6-bdf3-e732a62763a3","system_id":"levelo_inurba_marseille","lat":43.290995,"lon":5.381361,"is_reserved":false,"is_disabled":false,"rental_uris":{"android":"levelo://app?vid=04eb0310-4d7e-4ae6-bdf3-e732a62763a3","ios":"levelo://app?vid=04eb0310-4d7e-4ae6-bdf3-e732a62763a3"},"vehicle_type_id":"4","last_reported":1719331791,"current_range_meters":16800,"station_id":"ce4bh512rcd13ifvqe2g","pricing_plan_id":"cebpf4jnsgd1na2vs0mg"},{"bike_id":"e342e784-f9b8-485e-a4ff-b25c0075167f","system_id":"levelo_inurba_marseille","lat":43.290995,"lon":5.381361,"is_reserved":false,"is_disabled":false,"rental_uris":{"android":"levelo://app?vid=e342e784-f9b8-485e-a4ff-b25c0075167f","ios":"levelo://app?vid=e342e784-f9b8-485e-a4ff-b25c0075167f"},"vehicle_type_id":"4","last_reported":1719331791,"current_range_meters":31200,"station_id":"ce4bh512rcd13ifvqe2g","pricing_plan_id":"cebpf4jnsgd1na2vs0mg"},{"bike_id":"7ddf0267-edf1-49b0-a6c8-85dc3c967a34","system_id":"levelo_inurba_marseille","lat":43.290995,"lon":5.381361,"is_reserved":false,"is_disabled":false,"rental_uris":{"android":"levelo://app?vid=7ddf0267-edf1-49b0-a6c8-85dc3c967a34","ios":"levelo://app?vid=7ddf0267-edf1-49b0-a6c8-85dc3c967a34"},"vehicle_type_id":"4","last_reported":1719331791,"current_range_meters":16800,"station_id":"ce4bh512rcd13ifvqe2g","pricing_plan_id":"cebpf4jnsgd1na2vs0mg"},{"bike_id":"4a4fcd87-a6b0-49d3-9edd-3368551b0dfa","system_id":"levelo_inurba_marseille","lat":43.301117,"lon":5.398795,"is_reserved":false,"is_disabled":false,"rental_uris":{"android":"levelo://app?vid=4a4fcd87-a6b0-49d3-9edd-3368551b0dfa","ios":"levelo://app?vid=4a4fcd87-a6b0-49d3-9edd-3368551b0dfa"},"vehicle_type_id":"4","last_reported":1719331791,"current_range_meters":5600,"station_id":"ce4bh0h2rcd13ifvqd40","pricing_plan_id":"cebpf4jnsgd1na2vs0mg"},{"bike_id":"69c26fce-113a-4c01-b54e-ee61c8bb8ef9","system_id":"levelo_inurba_marseille","lat":43.295169,"lon":5.390426,"is_reserved":false,"is_disabled":false,"rental_uris":{"android":"levelo://app?vid=69c26fce-113a-4c01-b54e-ee61c8bb8ef9","ios":"levelo://app?vid=69c26fce-113a-4c01-b54e-ee61c8bb8ef9"},"vehicle_type_id":"4","last_reported":1719331791,"current_range_meters":800,"station_id":"ce4bh3p2rcd13ifvqdp0","pricing_plan_id":"cebpf4jnsgd1na2vs0mg"},{"bike_id":"30d5a03a-c4ca-4f03-908b-ed35487d2753","system_id":"levelo_inurba_marseille","lat":43.29787,"lon":5.39349,"is_reserved":false,"is_disabled":false,"rental_uris":{"android":"levelo://app?vid=30d5a03a-c4ca-4f03-908b-ed35487d2753","ios":"levelo://app?vid=30d5a03a-c4ca-4f03-908b-ed35487d2753"},"vehicle_type_id":"4","last_reported":1719331791,"current_range_meters":23200,"station_id":"chh1huq6cuj3fo74tm60","pricing_plan_id":"cebpf4jnsgd1na2vs0mg"},{"bike_id":"6b298698-2620-4678-883e-e25adfa75482","system_id":"levelo_inurba_marseille","lat":43.29786,"lon":5.39348,"is_reserved":false,"is_disabled":false,"rental_uris":{"android":"levelo://app?vid=6b298698-2620-4678-883e-e25adfa75482","ios":"levelo://app?vid=6b298698-2620-4678-883e-e25adfa75482"},"vehicle_type_id":"4","last_reported":1719331791,"current_range_meters":6800,"station_id":"chh1huq6cuj3fo74tm60","pricing_plan_id":"cebpf4jnsgd1na2vs0mg"},{"bike_id":"2db96d23-3666-4a4b-ac3d-66f70cf05010","system_id":"levelo_inurba_marseille","lat":43.297815,"lon":5.393548,"is_reserved":false,"is_disabled":false,"rental_uris":{"android":"levelo://app?vid=2db96d23-3666-4a4b-ac3d-66f70cf05010","ios":"levelo://app?vid=2db96d23-3666-4a4b-ac3d-66f70cf05010"},"vehicle_type_id":"4","last_reported":1719331791,"current_range_meters":15600,"station_id":"chh1huq6cuj3fo74tm60","pricing_plan_id":"cebpf4jnsgd1na2vs0mg"},{"bike_id":"0ac32dd7-db23-4722-bd2b-2a0ed7089739","system_id":"levelo_inurba_marseille","lat":43.330442,"lon":5.389148,"is_reserved":false,"is_disabled":false,"rental_uris":{"android":"levelo://app?vid=0ac32dd7-db23-4722-bd2b-2a0ed7089739","ios":"levelo://app?vid=0ac32dd7-db23-4722-bd2b-2a0ed7089739"},"vehicle_type_id":"4","last_reported":1719331791,"current_range_meters":4000,"station_id":"ce4bhr92rcd13ifvqhrg","pricing_plan_id":"cebpf4jnsgd1na2vs0mg"},{"bike_id":"001a5747-9b5a-4214-b27b-80d68d2c73e2","system_id":"levelo_inurba_marseille","lat":43.295169,"lon":5.390426,"is_reserved":false,"is_disabled":false,"rental_uris":{"android":"levelo://app?vid=001a5747-9b5a-4214-b27b-80d68d2c73e2","ios":"levelo://app?vid=001a5747-9b5a-4214-b27b-80d68d2c73e2"},"vehicle_type_id":"4","last_reported":1719331791,"current_range_meters":10800,"station_id":"ce4bh3p2rcd13ifvqdp0","pricing_plan_id":"cebpf4jnsgd1na2vs0mg"},{"bike_id":"1adb0475-1d0d-4c6b-a3e9-a13c47bb6b5c","system_id":"levelo_inurba_marseille","lat":43.297815,"lon":5.393548,"is_reserved":false,"is_disabled":false,"rental_uris":{"android":"levelo://app?vid=1adb0475-1d0d-4c6b-a3e9-a13c47bb6b5c","ios":"levelo://app?vid=1adb0475-1d0d-4c6b-a3e9-a13c47bb6b5c"},"vehicle_type_id":"4","last_reported":1719331791,"current_range_meters":13200,"station_id":"chh1huq6cuj3fo74tm60","pricing_plan_id":"cebpf4jnsgd1na2vs0mg"},{"bike_id":"05c5d3cb-535a-4a8f-8e9e-2e1713924686","system_id":"levelo_inurba_marseille","lat":43.295169,"lon":5.390426,"is_reserved":false,"is_disabled":false,"rental_uris":{"android":"levelo://app?vid=05c5d3cb-535a-4a8f-8e9e-2e1713924686","ios":"levelo://app?vid=05c5d3cb-535a-4a8f-8e9e-2e1713924686"},"vehicle_type_id":"4","last_reported":1719331791,"current_range_meters":8400,"station_id":"ce4bh3p2rcd13ifvqdp0","pricing_plan_id":"cebpf4jnsgd1na2vs0mg"},{"bike_id":"d504595b-24e9-4937-881d-c02c394ddf5d","system_id":"levelo_inurba_marseille","lat":43.295169,"lon":5.390426,"is_reserved":false,"is_disabled":false,"rental_uris":{"android":"levelo://app?vid=d504595b-24e9-4937-881d-c02c394ddf5d","ios":"levelo://app?vid=d504595b-24e9-4937-881d-c02c394ddf5d"},"vehicle_type_id":"4","last_reported":1719331791,"current_range_meters":12000,"station_id":"ce4bh3p2rcd13ifvqdp0","pricing_plan_id":"cebpf4jnsgd1na2vs0mg"},{"bike_id":"9f49623d-87c6-429a-b2d7-53947d1454aa","system_id":"levelo_inurba_marseille","lat":43.295169,"lon":5.390426,"is_reserved":false,"is_disabled":false,"rental_uris":{"android":"levelo://app?vid=9f49623d-87c6-429a-b2d7-53947d1454aa","ios":"levelo://app?vid=9f49623d-87c6-429a-b2d7-53947d1454aa"},"vehicle_type_id":"4","last_reported":1719331791,"current_range_meters":0,"station_id":"ce4bh3p2rcd13ifvqdp0","pricing_plan_id":"cebpf4jnsgd1na2vs0mg"},{"bike_id":"b62c8343-6a10-4cee-8641-626870c8fbf2","system_id":"levelo_inurba_marseille","lat":43.330442,"lon":5.389148,"is_reserved":false,"is_disabled":false,"rental_uris":{"android":"levelo://app?vid=b62c8343-6a10-4cee-8641-626870c8fbf2","ios":"levelo://app?vid=b62c8343-6a10-4cee-8641-626870c8fbf2"},"vehicle_type_id":"4","last_reported":1719331791,"current_range_meters":9600,"station_id":"ce4bhr92rcd13ifvqhrg","pricing_plan_id":"cebpf4jnsgd1na2vs0mg"},{"bike_id":"66f55468-8c85-4d08-ba2d-8dd6b197b52d","system_id":"levelo_inurba_marseille","lat":43.295169,"lon":5.390426,"is_reserved":false,"is_disabled":false,"rental_uris":{"android":"levelo://app?vid=66f55468-8c85-4d08-ba2d-8dd6b197b52d","ios":"levelo://app?vid=66f55468-8c85-4d08-ba2d-8dd6b197b52d"},"vehicle_type_id":"4","last_reported":1719331791,"current_range_meters":2800,"station_id":"ce4bh3p2rcd13ifvqdp0","pricing_plan_id":"cebpf4jnsgd1na2vs0mg"},{"bike_id":"84bdc226-8b31-43a1-aab0-c6f47eb02c7e","system_id":"levelo_inurba_marseille","lat":43.295169,"lon":5.390426,"is_reserved":false,"is_disabled":false,"rental_uris":{"android":"levelo://app?vid=84bdc226-8b31-43a1-aab0-c6f47eb02c7e","ios":"levelo://app?vid=84bdc226-8b31-43a1-aab0-c6f47eb02c7e"},"vehicle_type_id":"4","last_reported":1719331791,"current_range_meters":20800,"station_id":"ce4bh3p2rcd13ifvqdp0","pricing_plan_id":"cebpf4jnsgd1na2vs0mg"},{"bike_id":"01099864-d1b1-46ef-8834-9d38dac19df1","system_id":"levelo_inurba_marseille","lat":43.295169,"lon":5.390426,"is_reserved":false,"is_disabled":false,"rental_uris":{"android":"levelo://app?vid=01099864-d1b1-46ef-8834-9d38dac19df1","ios":"levelo://app?vid=01099864-d1b1-46ef-8834-9d38dac19df1"},"vehicle_type_id":"4","last_reported":1719331791,"current_range_meters":16000,"station_id":"ce4bh3p2rcd13ifvqdp0","pricing_plan_id":"cebpf4jnsgd1na2vs0mg"},{"bike_id":"d8dc0660-febd-4c58-9e7a-1eed81ae0256","system_id":"levelo_inurba_marseille","lat":43.2901,"lon":5.381269,"is_reserved":false,"is_disabled":false,"rental_uris":{"android":"levelo://app?vid=d8dc0660-febd-4c58-9e7a-1eed81ae0256","ios":"levelo://app?vid=d8dc0660-febd-4c58-9e7a-1eed81ae0256"},"vehicle_type_id":"4","last_reported":1719331791,"current_range_meters":27200,"station_id":"ce4bh4p2rcd13ifvqe1g","pricing_plan_id":"cebpf4jnsgd1na2vs0mg"},{"bike_id":"8aedf1b5-84c0-4f9d-897e-b40ca1219be6","system_id":"levelo_inurba_marseille","lat":43.28863,"lon":5.35848,"is_reserved":false,"is_disabled":false,"rental_uris":{"android":"levelo://app?vid=8aedf1b5-84c0-4f9d-897e-b40ca1219be6","ios":"levelo://app?vid=8aedf1b5-84c0-4f9d-897e-b40ca1219be6"},"vehicle_type_id":"4","last_reported":1719331791,"current_range_meters":18800,"station_id":"ce4bhb12rcd13ifvqem0","pricing_plan_id":"cebpf4jnsgd1na2vs0mg"},{"bike_id":"aaebc691-7d7f-433c-9b48-2f5fc63bf89b","system_id":"levelo_inurba_marseille","lat":43.28862,"lon":5.3585,"is_reserved":false,"is_disabled":false,"rental_uris":{"android":"levelo://app?vid=aaebc691-7d7f-433c-9b48-2f5fc63bf89b","ios":"levelo://app?vid=aaebc691-7d7f-433c-9b48-2f5fc63bf89b"},"vehicle_type_id":"4","last_reported":1719331791,"current_range_meters":15200,"station_id":"ce4bhb12rcd13ifvqem0","pricing_plan_id":"cebpf4jnsgd1na2vs0mg"},{"bike_id":"ff2b6787-921c-4a1f-b82e-bca2c4983244","system_id":"levelo_inurba_marseille","lat":43.28856,"lon":5.35847,"is_reserved":false,"is_disabled":false,"rental_uris":{"android":"levelo://app?vid=ff2b6787-921c-4a1f-b82e-bca2c4983244","ios":"levelo://app?vid=ff2b6787-921c-4a1f-b82e-bca2c4983244"},"vehicle_type_id":"4","last_reported":1719331791,"current_range_meters":17600,"station_id":"ce4bhb12rcd13ifvqem0","pricing_plan_id":"cebpf4jnsgd1na2vs0mg"},{"bike_id":"b2e29ca3-02e4-4661-a02f-ca205678e98a","system_id":"levelo_inurba_marseille","lat":43.28856,"lon":5.358371,"is_reserved":false,"is_disabled":false,"rental_uris":{"android":"levelo://app?vid=b2e29ca3-02e4-4661-a02f-ca205678e98a","ios":"levelo://app?vid=b2e29ca3-02e4-4661-a02f-ca205678e98a"},"vehicle_type_id":"4","last_reported":1719331791,"current_range_meters":8400,"station_id":"ce4bhb12rcd13ifvqem0","pricing_plan_id":"cebpf4jnsgd1na2vs0mg"},{"bike_id":"cd47dfc1-3f9b-4b1e-b918-ef9c33147850","system_id":"levelo_inurba_marseille","lat":43.28856,"lon":5.358371,"is_reserved":false,"is_disabled":false,"rental_uris":{"android":"levelo://app?vid=cd47dfc1-3f9b-4b1e-b918-ef9c33147850","ios":"levelo://app?vid=cd47dfc1-3f9b-4b1e-b918-ef9c33147850"},"vehicle_type_id":"4","last_reported":1719331791,"current_range_meters":14400,"station_id":"ce4bhb12rcd13ifvqem0","pricing_plan_id":"cebpf4jnsgd1na2vs0mg"},{"bike_id":"9c572793-cf4b-4150-aad3-88e0aba054fa","system_id":"levelo_inurba_marseille","lat":43.290094,"lon":5.381264,"is_reserved":false,"is_disabled":false,"rental_uris":{"android":"levelo://app?vid=9c572793-cf4b-4150-aad3-88e0aba054fa","ios":"levelo://app?vid=9c572793-cf4b-4150-aad3-88e0aba054fa"},"vehicle_type_id":"4","last_reported":1719331791,"current_range_meters":12000,"station_id":"ce4bh4p2rcd13ifvqe1g","pricing_plan_id":"cebpf4jnsgd1na2vs0mg"},{"bike_id":"1a1217c6-6ac8-43a7-b23a-a7043aeca040","system_id":"levelo_inurba_marseille","lat":43.28834,"lon":5.35846,"is_reserved":false,"is_disabled":false,"rental_uris":{"android":"levelo://app?vid=1a1217c6-6ac8-43a7-b23a-a7043aeca040","ios":"levelo://app?vid=1a1217c6-6ac8-43a7-b23a-a7043aeca040"},"vehicle_type_id":"4","last_reported":1719331791,"current_range_meters":8000,"station_id":"ce4bhb12rcd13ifvqem0","pricing_plan_id":"cebpf4jnsgd1na2vs0mg"},{"bike_id":"bb65fb70-df82-47d8-b27f-438620895501","system_id":"levelo_inurba_marseille","lat":43.337364,"lon":5.374601,"is_reserved":false,"is_disabled":false,"rental_uris":{"android":"levelo://app?vid=bb65fb70-df82-47d8-b27f-438620895501","ios":"levelo://app?vid=bb65fb70-df82-47d8-b27f-438620895501"},"vehicle_type_id":"0","last_reported":1719331791,"current_range_meters":17200,"station_id":"","pricing_plan_id":"cebpf4jnsgd1na2vs0mg"},{"bike_id":"d466e3ba-f003-4640-a0cf-63cb720575db","system_id":"levelo_inurba_marseille","lat":43.312609,"lon":5.401662,"is_reserved":false,"is_disabled":false,"rental_uris":{"android":"levelo://app?vid=d466e3ba-f003-4640-a0cf-63cb720575db","ios":"levelo://app?vid=d466e3ba-f003-4640-a0cf-63cb720575db"},"vehicle_type_id":"4","last_reported":1719331791,"current_range_meters":21200,"station_id":"ce4bh092rcd13ifvqd30","pricing_plan_id":"cebpf4jnsgd1na2vs0mg"},{"bike_id":"9b81675f-44cd-4cbe-9733-2d36a516d8f7","system_id":"levelo_inurba_marseille","lat":43.33736,"lon":5.37466,"is_reserved":false,"is_disabled":false,"rental_uris":{"android":"levelo://app?vid=9b81675f-44cd-4cbe-9733-2d36a516d8f7","ios":"levelo://app?vid=9b81675f-44cd-4cbe-9733-2d36a516d8f7"},"vehicle_type_id":"0","last_reported":1719331791,"current_range_meters":23600,"station_id":"","pricing_plan_id":"cebpf4jnsgd1na2vs0mg"},{"bike_id":"8043cc8a-f702-4e45-9523-d56dfd7ee432","system_id":"levelo_inurba_marseille","lat":43.337369,"lon":5.374674,"is_reserved":false,"is_disabled":false,"rental_uris":{"android":"levelo://app?vid=8043cc8a-f702-4e45-9523-d56dfd7ee432","ios":"levelo://app?vid=8043cc8a-f702-4e45-9523-d56dfd7ee432"},"vehicle_type_id":"0","last_reported":1719331791,"current_range_meters":22400,"station_id":"","pricing_plan_id":"cebpf4jnsgd1na2vs0mg"},{"bike_id":"c25a3696-e1cc-43ba-8656-23d4a118ee2e","system_id":"levelo_inurba_marseille","lat":43.337363,"lon":5.374726,"is_reserved":false,"is_disabled":false,"rental_uris":{"android":"levelo://app?vid=c25a3696-e1cc-43ba-8656-23d4a118ee2e","ios":"levelo://app?vid=c25a3696-e1cc-43ba-8656-23d4a118ee2e"},"vehicle_type_id":"4","last_reported":1719331791,"current_range_meters":23200,"station_id":"","pricing_plan_id":"cebpf4jnsgd1na2vs0mg"},{"bike_id":"c3ddbe4a-157d-4893-acf1-f1f626a65d21","system_id":"levelo_inurba_marseille","lat":43.337386,"lon":5.374597,"is_reserved":false,"is_disabled":false,"rental_uris":{"android":"levelo://app?vid=c3ddbe4a-157d-4893-acf1-f1f626a65d21","ios":"levelo://app?vid=c3ddbe4a-157d-4893-acf1-f1f626a65d21"},"vehicle_type_id":"0","last_reported":1719331791,"current_range_meters":19200,"station_id":"","pricing_plan_id":"cebpf4jnsgd1na2vs0mg"},{"bike_id":"70df0eff-7892-4d64-8b33-f9b25d3cdb77","system_id":"levelo_inurba_marseille","lat":43.337377,"lon":5.374679,"is_reserved":false,"is_disabled":false,"rental_uris":{"android":"levelo://app?vid=70df0eff-7892-4d64-8b33-f9b25d3cdb77","ios":"levelo://app?vid=70df0eff-7892-4d64-8b33-f9b25d3cdb77"},"vehicle_type_id":"4","last_reported":1719331791,"current_range_meters":23200,"station_id":"","pricing_plan_id":"cebpf4jnsgd1na2vs0mg"},{"bike_id":"11da98ef-d0c3-43c2-a7e4-890f2c23ccbc","system_id":"levelo_inurba_marseille","lat":43.337391,"lon":5.374615,"is_reserved":false,"is_disabled":false,"rental_uris":{"android":"levelo://app?vid=11da98ef-d0c3-43c2-a7e4-890f2c23ccbc","ios":"levelo://app?vid=11da98ef-d0c3-43c2-a7e4-890f2c23ccbc"},"vehicle_type_id":"4","last_reported":1719331791,"current_range_meters":16400,"station_id":"","pricing_plan_id":"cebpf4jnsgd1na2vs0mg"},{"bike_id":"99e9908f-93ea-4fb9-ae7a-2df34524b70a","system_id":"levelo_inurba_marseille","lat":43.309371,"lon":5.401449,"is_reserved":false,"is_disabled":false,"rental_uris":{"android":"levelo://app?vid=99e9908f-93ea-4fb9-ae7a-2df34524b70a","ios":"levelo://app?vid=99e9908f-93ea-4fb9-ae7a-2df34524b70a"},"vehicle_type_id":"4","last_reported":1719331791,"current_range_meters":1200,"station_id":"ce4bgvp2rcd13ifvqct0","pricing_plan_id":"cebpf4jnsgd1na2vs0mg"},{"bike_id":"aa527c2c-31a5-479b-bfbe-daae0d9bb514","system_id":"levelo_inurba_marseille","lat":43.337388,"lon":5.374658,"is_reserved":false,"is_disabled":false,"rental_uris":{"android":"levelo://app?vid=aa527c2c-31a5-479b-bfbe-daae0d9bb514","ios":"levelo://app?vid=aa527c2c-31a5-479b-bfbe-daae0d9bb514"},"vehicle_type_id":"0","last_reported":1719331791,"current_range_meters":12800,"station_id":"","pricing_plan_id":"cebpf4jnsgd1na2vs0mg"},{"bike_id":"bf709b1a-1e81-4c69-a36a-dfef45d67fee","system_id":"levelo_inurba_marseille","lat":43.337383,"lon":5.374712,"is_reserved":false,"is_disabled":false,"rental_uris":{"android":"levelo://app?vid=bf709b1a-1e81-4c69-a36a-dfef45d67fee","ios":"levelo://app?vid=bf709b1a-1e81-4c69-a36a-dfef45d67fee"},"vehicle_type_id":"4","last_reported":1719331791,"current_range_meters":22800,"station_id":"","pricing_plan_id":"cebpf4jnsgd1na2vs0mg"},{"bike_id":"bd9a6c26-2db3-4e30-92c7-c85ae97147aa","system_id":"levelo_inurba_marseille","lat":43.337403,"lon":5.374649,"is_reserved":false,"is_disabled":false,"rental_uris":{"android":"levelo://app?vid=bd9a6c26-2db3-4e30-92c7-c85ae97147aa","ios":"levelo://app?vid=bd9a6c26-2db3-4e30-92c7-c85ae97147aa"},"vehicle_type_id":"0","last_reported":1719331791,"current_range_meters":25600,"station_id":"","pricing_plan_id":"cebpf4jnsgd1na2vs0mg"},{"bike_id":"985eda3a-8205-4c72-8b0d-a44593dd15b5","system_id":"levelo_inurba_marseille","lat":43.3374,"lon":5.37469,"is_reserved":false,"is_disabled":false,"rental_uris":{"android":"levelo://app?vid=985eda3a-8205-4c72-8b0d-a44593dd15b5","ios":"levelo://app?vid=985eda3a-8205-4c72-8b0d-a44593dd15b5"},"vehicle_type_id":"0","last_reported":1719331791,"current_range_meters":16000,"station_id":"","pricing_plan_id":"cebpf4jnsgd1na2vs0mg"},{"bike_id":"33725bde-dd4f-45a5-b2be-5f83da1dfcd6","system_id":"levelo_inurba_marseille","lat":43.309371,"lon":5.401449,"is_reserved":false,"is_disabled":false,"rental_uris":{"android":"levelo://app?vid=33725bde-dd4f-45a5-b2be-5f83da1dfcd6","ios":"levelo://app?vid=33725bde-dd4f-45a5-b2be-5f83da1dfcd6"},"vehicle_type_id":"4","last_reported":1719331791,"current_range_meters":0,"station_id":"ce4bgvp2rcd13ifvqct0","pricing_plan_id":"cebpf4jnsgd1na2vs0mg"},{"bike_id":"cbff8e2e-87ad-4d9e-a09d-9b1fba1c0aeb","system_id":"levelo_inurba_marseille","lat":43.337405,"lon":5.374685,"is_reserved":false,"is_disabled":false,"rental_uris":{"android":"levelo://app?vid=cbff8e2e-87ad-4d9e-a09d-9b1fba1c0aeb","ios":"levelo://app?vid=cbff8e2e-87ad-4d9e-a09d-9b1fba1c0aeb"},"vehicle_type_id":"0","last_reported":1719331791,"current_range_meters":22800,"station_id":"","pricing_plan_id":"cebpf4jnsgd1na2vs0mg"},{"bike_id":"2a0fb516-a307-4861-b129-104556c40f00","system_id":"levelo_inurba_marseille","lat":43.337443,"lon":5.374658,"is_reserved":false,"is_disabled":false,"rental_uris":{"android":"levelo://app?vid=2a0fb516-a307-4861-b129-104556c40f00","ios":"levelo://app?vid=2a0fb516-a307-4861-b129-104556c40f00"},"vehicle_type_id":"0","last_reported":1719331791,"current_range_meters":14400,"station_id":"","pricing_plan_id":"cebpf4jnsgd1na2vs0mg"},{"bike_id":"d08e42d6-7026-4823-a67b-31b46318b975","system_id":"levelo_inurba_marseille","lat":43.312609,"lon":5.401662,"is_reserved":false,"is_disabled":false,"rental_uris":{"android":"levelo://app?vid=d08e42d6-7026-4823-a67b-31b46318b975","ios":"levelo://app?vid=d08e42d6-7026-4823-a67b-31b46318b975"},"vehicle_type_id":"4","last_reported":1719331791,"current_range_meters":8000,"station_id":"ce4bh092rcd13ifvqd30","pricing_plan_id":"cebpf4jnsgd1na2vs0mg"},{"bike_id":"f867320b-b3ee-4d44-8ef3-37d72db21942","system_id":"levelo_inurba_marseille","lat":43.33754,"lon":5.37456,"is_reserved":false,"is_disabled":false,"rental_uris":{"android":"levelo://app?vid=f867320b-b3ee-4d44-8ef3-37d72db21942","ios":"levelo://app?vid=f867320b-b3ee-4d44-8ef3-37d72db21942"},"vehicle_type_id":"4","last_reported":1719331791,"current_range_meters":26000,"station_id":"","pricing_plan_id":"cebpf4jnsgd1na2vs0mg"},{"bike_id":"d5347456-f2ee-4cbc-8e09-0a71158875a1","system_id":"levelo_inurba_marseille","lat":43.33767,"lon":5.37474,"is_reserved":false,"is_disabled":false,"rental_uris":{"android":"levelo://app?vid=d5347456-f2ee-4cbc-8e09-0a71158875a1","ios":"levelo://app?vid=d5347456-f2ee-4cbc-8e09-0a71158875a1"},"vehicle_type_id":"4","last_reported":1719331791,"current_range_meters":30800,"station_id":"","pricing_plan_id":"cebpf4jnsgd1na2vs0mg"},{"bike_id":"7cccced8-0693-4a25-89d6-1443a5e1c984","system_id":"levelo_inurba_marseille","lat":43.33768,"lon":5.37469,"is_reserved":false,"is_disabled":false,"rental_uris":{"android":"levelo://app?vid=7cccced8-0693-4a25-89d6-1443a5e1c984","ios":"levelo://app?vid=7cccced8-0693-4a25-89d6-1443a5e1c984"},"vehicle_type_id":"4","last_reported":1719331791,"current_range_meters":28800,"station_id":"","pricing_plan_id":"cebpf4jnsgd1na2vs0mg"},{"bike_id":"19c239d3-5a4b-4aff-8085-66266dba085d","system_id":"levelo_inurba_marseille","lat":43.33767,"lon":5.3748,"is_reserved":false,"is_disabled":false,"rental_uris":{"android":"levelo://app?vid=19c239d3-5a4b-4aff-8085-66266dba085d","ios":"levelo://app?vid=19c239d3-5a4b-4aff-8085-66266dba085d"},"vehicle_type_id":"4","last_reported":1719331791,"current_range_meters":31200,"station_id":"","pricing_plan_id":"cebpf4jnsgd1na2vs0mg"},{"bike_id":"94669dfc-b814-4406-8523-9b2ba82c7976","system_id":"levelo_inurba_marseille","lat":43.286961,"lon":5.373785,"is_reserved":false,"is_disabled":false,"rental_uris":{"android":"levelo://app?vid=94669dfc-b814-4406-8523-9b2ba82c7976","ios":"levelo://app?vid=94669dfc-b814-4406-8523-9b2ba82c7976"},"vehicle_type_id":"4","last_reported":1719331791,"current_range_meters":27200,"station_id":"ce4bh3p2rcd13ifvqdq0","pricing_plan_id":"cebpf4jnsgd1na2vs0mg"},{"bike_id":"4ee4ae3f-40bf-49e1-ba20-03a78a09dc69","system_id":"levelo_inurba_marseille","lat":43.295196,"lon":5.39397,"is_reserved":false,"is_disabled":false,"rental_uris":{"android":"levelo://app?vid=4ee4ae3f-40bf-49e1-ba20-03a78a09dc69","ios":"levelo://app?vid=4ee4ae3f-40bf-49e1-ba20-03a78a09dc69"},"vehicle_type_id":"4","last_reported":1719331791,"current_range_meters":20400,"station_id":"ce4bh292rcd13ifvqdf0","pricing_plan_id":"cebpf4jnsgd1na2vs0mg"},{"bike_id":"bf4bf7f8-afd6-4791-a5b3-e9efbc4a62be","system_id":"levelo_inurba_marseille","lat":43.286593,"lon":5.363346,"is_reserved":false,"is_disabled":false,"rental_uris":{"android":"levelo://app?vid=bf4bf7f8-afd6-4791-a5b3-e9efbc4a62be","ios":"levelo://app?vid=bf4bf7f8-afd6-4791-a5b3-e9efbc4a62be"},"vehicle_type_id":"4","last_reported":1719331791,"current_range_meters":19600,"station_id":"ce4bhah2rcd13ifvqej0","pricing_plan_id":"cebpf4jnsgd1na2vs0mg"},{"bike_id":"b7b5fc6a-2ba2-489b-a832-07b2dddc688b","system_id":"levelo_inurba_marseille","lat":43.28697,"lon":5.37395,"is_reserved":false,"is_disabled":false,"rental_uris":{"android":"levelo://app?vid=b7b5fc6a-2ba2-489b-a832-07b2dddc688b","ios":"levelo://app?vid=b7b5fc6a-2ba2-489b-a832-07b2dddc688b"},"vehicle_type_id":"4","last_reported":1719331791,"current_range_meters":0,"station_id":"ce4bh3p2rcd13ifvqdq0","pricing_plan_id":"cebpf4jnsgd1na2vs0mg"},{"bike_id":"0466c67b-eb2c-498b-8597-3ec8ce665446","system_id":"levelo_inurba_marseille","lat":43.286591,"lon":5.363346,"is_reserved":false,"is_disabled":false,"rental_uris":{"android":"levelo://app?vid=0466c67b-eb2c-498b-8597-3ec8ce665446","ios":"levelo://app?vid=0466c67b-eb2c-498b-8597-3ec8ce665446"},"vehicle_type_id":"4","last_reported":1719331791,"current_range_meters":2800,"station_id":"ce4bhah2rcd13ifvqej0","pricing_plan_id":"cebpf4jnsgd1na2vs0mg"},{"bike_id":"a2c88b16-fd27-44ea-887b-afdab95e0dc0","system_id":"levelo_inurba_marseille","lat":43.286591,"lon":5.363346,"is_reserved":false,"is_disabled":false,"rental_uris":{"android":"levelo://app?vid=a2c88b16-fd27-44ea-887b-afdab95e0dc0","ios":"levelo://app?vid=a2c88b16-fd27-44ea-887b-afdab95e0dc0"},"vehicle_type_id":"4","last_reported":1719331791,"current_range_meters":18400,"station_id":"ce4bhah2rcd13ifvqej0","pricing_plan_id":"cebpf4jnsgd1na2vs0mg"},{"bike_id":"42dc829d-6d15-421b-af53-2db93cf7f5c5","system_id":"levelo_inurba_marseille","lat":43.295196,"lon":5.39397,"is_reserved":false,"is_disabled":false,"rental_uris":{"android":"levelo://app?vid=42dc829d-6d15-421b-af53-2db93cf7f5c5","ios":"levelo://app?vid=42dc829d-6d15-421b-af53-2db93cf7f5c5"},"vehicle_type_id":"4","last_reported":1719331791,"current_range_meters":14800,"station_id":"ce4bh292rcd13ifvqdf0","pricing_plan_id":"cebpf4jnsgd1na2vs0mg"},{"bike_id":"5d1955bb-3af2-45ad-b2b7-2062b0873bb8","system_id":"levelo_inurba_marseille","lat":43.295194,"lon":5.39397,"is_reserved":false,"is_disabled":false,"rental_uris":{"android":"levelo://app?vid=5d1955bb-3af2-45ad-b2b7-2062b0873bb8","ios":"levelo://app?vid=5d1955bb-3af2-45ad-b2b7-2062b0873bb8"},"vehicle_type_id":"4","last_reported":1719331791,"current_range_meters":14000,"station_id":"ce4bh292rcd13ifvqdf0","pricing_plan_id":"cebpf4jnsgd1na2vs0mg"},{"bike_id":"11760318-27ce-409c-8029-634130b7af31","system_id":"levelo_inurba_marseille","lat":43.295196,"lon":5.39397,"is_reserved":false,"is_disabled":false,"rental_uris":{"android":"levelo://app?vid=11760318-27ce-409c-8029-634130b7af31","ios":"levelo://app?vid=11760318-27ce-409c-8029-634130b7af31"},"vehicle_type_id":"4","last_reported":1719331791,"current_range_meters":20000,"station_id":"ce4bh292rcd13ifvqdf0","pricing_plan_id":"cebpf4jnsgd1na2vs0mg"},{"bike_id":"927253ac-46af-4ed7-98b5-01e79aaea493","system_id":"levelo_inurba_marseille","lat":43.295196,"lon":5.39397,"is_reserved":false,"is_disabled":false,"rental_uris":{"android":"levelo://app?vid=927253ac-46af-4ed7-98b5-01e79aaea493","ios":"levelo://app?vid=927253ac-46af-4ed7-98b5-01e79aaea493"},"vehicle_type_id":"4","last_reported":1719331791,"current_range_meters":22800,"station_id":"ce4bh292rcd13ifvqdf0","pricing_plan_id":"cebpf4jnsgd1na2vs0mg"},{"bike_id":"f8eb1334-7141-4d21-9550-3c74b4a57db6","system_id":"levelo_inurba_marseille","lat":43.295194,"lon":5.39397,"is_reserved":false,"is_disabled":false,"rental_uris":{"android":"levelo://app?vid=f8eb1334-7141-4d21-9550-3c74b4a57db6","ios":"levelo://app?vid=f8eb1334-7141-4d21-9550-3c74b4a57db6"},"vehicle_type_id":"4","last_reported":1719331791,"current_range_meters":0,"station_id":"ce4bh292rcd13ifvqdf0","pricing_plan_id":"cebpf4jnsgd1na2vs0mg"},{"bike_id":"768aba50-c242-4819-800c-a0bc41c2ef52","system_id":"levelo_inurba_marseille","lat":43.290345,"lon":5.38646,"is_reserved":false,"is_disabled":false,"rental_uris":{"android":"levelo://app?vid=768aba50-c242-4819-800c-a0bc41c2ef52","ios":"levelo://app?vid=768aba50-c242-4819-800c-a0bc41c2ef52"},"vehicle_type_id":"4","last_reported":1719331791,"current_range_meters":23600,"station_id":"ce4bh4p2rcd13ifvqe0g","pricing_plan_id":"cebpf4jnsgd1na2vs0mg"},{"bike_id":"7d1bc127-964b-4eee-ae5f-8fb97de3a6df","system_id":"levelo_inurba_marseille","lat":43.290345,"lon":5.38646,"is_reserved":false,"is_disabled":false,"rental_uris":{"android":"levelo://app?vid=7d1bc127-964b-4eee-ae5f-8fb97de3a6df","ios":"levelo://app?vid=7d1bc127-964b-4eee-ae5f-8fb97de3a6df"},"vehicle_type_id":"4","last_reported":1719331791,"current_range_meters":8400,"station_id":"ce4bh4p2rcd13ifvqe0g","pricing_plan_id":"cebpf4jnsgd1na2vs0mg"},{"bike_id":"ec90f97c-c3b4-4cc4-a368-5950666de59e","system_id":"levelo_inurba_marseille","lat":43.290345,"lon":5.38646,"is_reserved":false,"is_disabled":false,"rental_uris":{"android":"levelo://app?vid=ec90f97c-c3b4-4cc4-a368-5950666de59e","ios":"levelo://app?vid=ec90f97c-c3b4-4cc4-a368-5950666de59e"},"vehicle_type_id":"4","last_reported":1719331791,"current_range_meters":6000,"station_id":"ce4bh4p2rcd13ifvqe0g","pricing_plan_id":"cebpf4jnsgd1na2vs0mg"},{"bike_id":"45798aef-633c-40bb-994a-d62cbd6f4170","system_id":"levelo_inurba_marseille","lat":43.290345,"lon":5.38646,"is_reserved":false,"is_disabled":false,"rental_uris":{"android":"levelo://app?vid=45798aef-633c-40bb-994a-d62cbd6f4170","ios":"levelo://app?vid=45798aef-633c-40bb-994a-d62cbd6f4170"},"vehicle_type_id":"4","last_reported":1719331791,"current_range_meters":6800,"station_id":"ce4bh4p2rcd13ifvqe0g","pricing_plan_id":"cebpf4jnsgd1na2vs0mg"},{"bike_id":"aaeff043-952c-4d7e-b841-373a55566715","system_id":"levelo_inurba_marseille","lat":43.290336,"lon":5.386425,"is_reserved":false,"is_disabled":false,"rental_uris":{"android":"levelo://app?vid=aaeff043-952c-4d7e-b841-373a55566715","ios":"levelo://app?vid=aaeff043-952c-4d7e-b841-373a55566715"},"vehicle_type_id":"4","last_reported":1719331791,"current_range_meters":5600,"station_id":"ce4bh4p2rcd13ifvqe0g","pricing_plan_id":"cebpf4jnsgd1na2vs0mg"},{"bike_id":"d5d05fa8-df5e-4555-b381-fbbf8dd431fe","system_id":"levelo_inurba_marseille","lat":43.29029,"lon":5.38648,"is_reserved":false,"is_disabled":false,"rental_uris":{"android":"levelo://app?vid=d5d05fa8-df5e-4555-b381-fbbf8dd431fe","ios":"levelo://app?vid=d5d05fa8-df5e-4555-b381-fbbf8dd431fe"},