{"last_updated":1739768971,"ttl":60,"version":"2.2","data":{"bikes":[{"bike_id":"0c4f4644-af4f-484a-bf12-d927dce6cd6d","system_id":"levelo_inurba_marseille","lat":43.31539,"lon":5.38026,"is_reserved":false,"is_disabled":false,"rental_uris":{"android":"levelo://app?vid=0c4f4644-af4f-484a-bf12-d927dce6cd6d","ios":"levelo://app?vid=0c4f4644-af4f-484a-bf12-d927dce6cd6d"},"vehicle_type_id":"4","last_reported":1739768971,"current_range_meters":38800,"station_id":"ce4bhsp2rcd13ifvqi50","pricing_plan_id":"cebpf4jnsgd1na2vs0mg"},{"bike_id":"f0e15311-7300-41c1-aa38-b0373ecc7e52","system_id":"levelo_inurba_marseille","lat":43.248053,"lon":5.374488,"is_reserved":false,"is_disabled":false,"rental_uris":{"android":"levelo://app?vid=f0e15311-7300-41c1-aa38-b0373ecc7e52","ios":"levelo://app?vid=f0e15311-7300-41c1-aa38-b0373ecc7e52"},"vehicle_type_id":"4","last_reported":1739768971,"current_range_meters":32400,"station_id":"ce4bhgh2rcd13ifvqfb0","pricing_plan_id":"cebpf4jnsgd1na2vs0mg"},{"bike_id":"040bf6da-b374-40b3-b70a-0f85f37b58a3","system_id":"levelo_inurba_marseille","lat":43.292615,"lon":5.401215,"is_reserved":false,"is_disabled":true,"rental_uris":{"android":"levelo://app?vid=040bf6da-b374-40b3-b70a-0f85f37b58a3","ios":"levelo://app?vid=040bf6da-b374-40b3-b70a-0f85f37b58a3"},"vehicle_type_id":"4","last_reported":1739768971,"current_range_meters":29600,"station_id":"ce4bh312rcd13ifvqdk0","pricing_plan_id":"cebpf4jnsgd1na2vs0mg"},{"bike_id":"f661b7e0-1628-4b53-9b0f-1de5abd25562","system_id":"levelo_inurba_marseille","lat":43.30783,"lon":5.37489,"is_reserved":false,"is_disabled":false,"rental_uris":{"android":"levelo://app?vid=f661b7e0-1628-4b53-9b0f-1de5abd25562","ios":"levelo://app?vid=f661b7e0-1628-4b53-9b0f-1de5abd25562"},"vehicle_type_id":"4","last_reported":1739768971,"current_range_meters":28000,"station_id":"","pricing_plan_id":"cebpf4jnsgd1na2vs0mg"},{"bike_id":"cfc771a7-2d39-4d13-bd0a-fcb02e92a328","system_id":"levelo_inurba_marseille","lat":43.297866,"lon":5.393509,"is_reserved":false,"is_disabled":false,"rental_uris":{"android":"levelo://app?vid=cfc771a7-2d39-4d13-bd0a-fcb02e92a328","ios":"levelo://app?vid=cfc771a7-2d39-4d13-bd0a-fcb02e92a328"},"vehicle_type_id":"4","last_reported":1739768971,"current_range_meters":33600,"station_id":"chh1huq6cuj3fo74tm60","pricing_plan_id":"cebpf4jnsgd1na2vs0mg"},{"bike_id":"e49d092d-ef62-45b3-9e48-cac0e5d2d85c","system_id":"levelo_inurba_marseille","lat":43.28932,"lon":5.36636,"is_reserved":false,"is_disabled":false,"rental_uris":{"android":"levelo://app?vid=e49d092d-ef62-45b3-9e48-cac0e5d2d85c","ios":"levelo://app?vid=e49d092d-ef62-45b3-9e48-cac0e5d2d85c"},"vehicle_type_id":"4","last_reported":1739768971,"current_range_meters":24400,"station_id":"ce4bhap2rcd13ifvqek0","pricing_plan_id":"cebpf4jnsgd1na2vs0mg"},{"bike_id":"2c241b29-3767-4c0d-95d1-3e00bc001aa4","system_id":"levelo_inurba_marseille","lat":43.30261,"lon":5.40046,"is_reserved":false,"is_disabled":false,"rental_uris":{"android":"levelo://app?vid=2c241b29-3767-4c0d-95d1-3e00bc001aa4","ios":"levelo://app?vid=2c241b29-3767-4c0d-95d1-3e00bc001aa4"},"vehicle_type_id":"4","last_reported":1739768971,"current_range_meters":35200,"station_id":"ce4bgvh2rcd13ifvqcs0","pricing_plan_id":"cebpf4jnsgd1na2vs0mg"},{"bike_id":"d7fba254-ba2e-4330-9138-3fb8051f9e93","system_id":"levelo_inurba_marseille","lat":43.29513,"lon":5.39037,"is_reserved":false,"is_disabled":false,"rental_uris":{"android":"levelo://app?vid=d7fba254-ba2e-4330-9138-3fb8051f9e93","ios":"levelo://app?vid=d7fba254-ba2e-4330-9138-3fb8051f9e93"},"vehicle_type_id":"4","last_reported":1739768971,"current_range_meters":17600,"station_id":"ce4bh3p2rcd13ifvqdp0","pricing_plan_id":"cebpf4jnsgd1na2vs0mg"},{"bike_id":"554f200e-a86b-4bc6-8c30-8983d9e77162","system_id":"levelo_inurba_marseille","lat":43.298,"lon":5.40413,"is_reserved":false,"is_disabled":false,"rental_uris":{"android":"levelo://app?vid=554f200e-a86b-4bc6-8c30-8983d9e77162","ios":"levelo://app?vid=554f200e-a86b-4bc6-8c30-8983d9e77162"},"vehicle_type_id":"4","last_reported":1739768971,"current_range_meters":38800,"station_id":"ce4bh112rcd13ifvqd90","pricing_plan_id":"cebpf4jnsgd1na2vs0mg"},{"bike_id":"e9853900-44d2-448a-b62e-02512ad9ea39","system_id":"levelo_inurba_marseille","lat":43.311665,"lon":5.387108,"is_reserved":false,"is_disabled":false,"rental_uris":{"android":"levelo://app?vid=e9853900-44d2-448a-b62e-02512ad9ea39","ios":"levelo://app?vid=e9853900-44d2-448a-b62e-02512ad9ea39"},"vehicle_type_id":"4","last_reported":1739768971,"current_range_meters":24800,"station_id":"ce4bgv12rcd13ifvqcp0","pricing_plan_id":"cebpf4jnsgd1na2vs0mg"},{"bike_id":"ff426081-3726-4b6c-aa9f-0d0db0cbc7e6","system_id":"levelo_inurba_marseille","lat":43.280324,"lon":5.369507,"is_reserved":false,"is_disabled":false,"rental_uris":{"android":"levelo://app?vid=ff426081-3726-4b6c-aa9f-0d0db0cbc7e6","ios":"levelo://app?vid=ff426081-3726-4b6c-aa9f-0d0db0cbc7e6"},"vehicle_type_id":"4","last_reported":1739768971,"current_range_meters":38800,"station_id":"ce4bha12rcd13ifvqef0","pricing_plan_id":"cebpf4jnsgd1na2vs0mg"},{"bike_id":"fb4aef54-1da1-43c4-911a-e1d1b0284115","system_id":"levelo_inurba_marseille","lat":43.28846,"lon":5.35854,"is_reserved":false,"is_disabled":false,"rental_uris":{"android":"levelo://app?vid=fb4aef54-1da1-43c4-911a-e1d1b0284115","ios":"levelo://app?vid=fb4aef54-1da1-43c4-911a-e1d1b0284115"},"vehicle_type_id":"4","last_reported":1739768971,"current_range_meters":12400,"station_id":"ce4bhb12rcd13ifvqem0","pricing_plan_id":"cebpf4jnsgd1na2vs0mg"},{"bike_id":"3597f271-3655-440e-95b7-5ec762c02c2d","system_id":"levelo_inurba_marseille","lat":43.29171,"lon":5.3579,"is_reserved":false,"is_disabled":false,"rental_uris":{"android":"levelo://app?vid=3597f271-3655-440e-95b7-5ec762c02c2d","ios":"levelo://app?vid=3597f271-3655-440e-95b7-5ec762c02c2d"},"vehicle_type_id":"4","last_reported":1739768971,"current_range_meters":38800,"station_id":"ce4bhb12rcd13ifvqel0","pricing_plan_id":"cebpf4jnsgd1na2vs0mg"},{"bike_id":"c1aec628-51e0-4d26-ae10-1ac8c0bfb915","system_id":"levelo_inurba_marseille","lat":43.29523,"lon":5.39399,"is_reserved":false,"is_disabled":false,"rental_uris":{"android":"levelo://app?vid=c1aec628-51e0-4d26-ae10-1ac8c0bfb915","ios":"levelo://app?vid=c1aec628-51e0-4d26-ae10-1ac8c0bfb915"},"vehicle_type_id":"4","last_reported":1739768971,"current_range_meters":29600,"station_id":"ce4bh292rcd13ifvqdf0","pricing_plan_id":"cebpf4jnsgd1na2vs0mg"},{"bike_id":"73efa97e-1649-43c4-bf3e-33bbbb9beb90","system_id":"levelo_inurba_marseille","lat":43.2843,"lon":5.39197,"is_reserved":false,"is_disabled":false,"rental_uris":{"android":"levelo://app?vid=73efa97e-1649-43c4-bf3e-33bbbb9beb90","ios":"levelo://app?vid=73efa97e-1649-43c4-bf3e-33bbbb9beb90"},"vehicle_type_id":"4","last_reported":1739768971,"current_range_meters":36400,"station_id":"ce4bhoh2rcd13ifvqh5g","pricing_plan_id":"cebpf4jnsgd1na2vs0mg"},{"bike_id":"6a51fc72-41fe-49b3-a934-ea237ab994ab","system_id":"levelo_inurba_marseille","lat":43.295263,"lon":5.394067,"is_reserved":false,"is_disabled":false,"rental_uris":{"android":"levelo://app?vid=6a51fc72-41fe-49b3-a934-ea237ab994ab","ios":"levelo://app?vid=6a51fc72-41fe-49b3-a934-ea237ab994ab"},"vehicle_type_id":"4","last_reported":1739768971,"current_range_meters":33600,"station_id":"ce4bh292rcd13ifvqdf0","pricing_plan_id":"cebpf4jnsgd1na2vs0mg"},{"bike_id":"1d711f4b-c520-4c36-8714-42ed52aeabf1","system_id":"levelo_inurba_marseille","lat":43.28937,"lon":5.36399,"is_reserved":false,"is_disabled":false,"rental_uris":{"android":"levelo://app?vid=1d711f4b-c520-4c36-8714-42ed52aeabf1","ios":"levelo://app?vid=1d711f4b-c520-4c36-8714-42ed52aeabf1"},"vehicle_type_id":"4","last_reported":1739768971,"current_range_meters":39200,"station_id":"ce4bhc92rcd13ifvqetg","pricing_plan_id":"cebpf4jnsgd1na2vs0mg"},{"bike_id":"26a17947-bae0-49a0-a0e6-dbcc7c3eae9e","system_id":"levelo_inurba_marseille","lat":43.24822,"lon":5.41863,"is_reserved":false,"is_disabled":false,"rental_uris":{"android":"levelo://app?vid=26a17947-bae0-49a0-a0e6-dbcc7c3eae9e","ios":"levelo://app?vid=26a17947-bae0-49a0-a0e6-dbcc7c3eae9e"},"vehicle_type_id":"4","last_reported":1739768971,"current_range_meters":27200,"station_id":"","pricing_plan_id":"cebpf4jnsgd1na2vs0mg"},{"bike_id":"0594397e-5b4a-4bc1-9dae-734c570709eb","system_id":"levelo_inurba_marseille","lat":43.278086,"lon":5.407036,"is_reserved":false,"is_disabled":false,"rental_uris":{"android":"levelo://app?vid=0594397e-5b4a-4bc1-9dae-734c570709eb","ios":"levelo://app?vid=0594397e-5b4a-4bc1-9dae-734c570709eb"},"vehicle_type_id":"4","last_reported":1739768971,"current_range_meters":38800,"station_id":"ce4bhnh2rcd13ifvqgtg","pricing_plan_id":"cebpf4jnsgd1na2vs0mg"},{"bike_id":"3d119f7e-598c-4ee5-af25-41604854cde7","system_id":"levelo_inurba_marseille","lat":43.29708,"lon":5.36617,"is_reserved":false,"is_disabled":false,"rental_uris":{"android":"levelo://app?vid=3d119f7e-598c-4ee5-af25-41604854cde7","ios":"levelo://app?vid=3d119f7e-598c-4ee5-af25-41604854cde7"},"vehicle_type_id":"4","last_reported":1739768971,"current_range_meters":38800,"station_id":"ce4bgn12rcd13ifvqbt0","pricing_plan_id":"cebpf4jnsgd1na2vs0mg"},{"bike_id":"913d0e98-b130-402b-a0ae-1d58fb07afd6","system_id":"levelo_inurba_marseille","lat":43.28694,"lon":5.39985,"is_reserved":false,"is_disabled":false,"rental_uris":{"android":"levelo://app?vid=913d0e98-b130-402b-a0ae-1d58fb07afd6","ios":"levelo://app?vid=913d0e98-b130-402b-a0ae-1d58fb07afd6"},"vehicle_type_id":"4","last_reported":1739768971,"current_range_meters":36800,"station_id":"ce4bho92rcd13ifvqh3g","pricing_plan_id":"cebpf4jnsgd1na2vs0mg"},{"bike_id":"9035e8da-cc4e-4be8-8c6e-9cb5fa10fedf","system_id":"levelo_inurba_marseille","lat":43.2768,"lon":5.38891,"is_reserved":false,"is_disabled":false,"rental_uris":{"android":"levelo://app?vid=9035e8da-cc4e-4be8-8c6e-9cb5fa10fedf","ios":"levelo://app?vid=9035e8da-cc4e-4be8-8c6e-9cb5fa10fedf"},"vehicle_type_id":"4","last_reported":1739768971,"current_range_meters":30800,"station_id":"ce4bhi12rcd13ifvqfo0","pricing_plan_id":"cebpf4jnsgd1na2vs0mg"},{"bike_id":"16b8e444-8d3b-43c8-8a68-cb4510a25ba5","system_id":"levelo_inurba_marseille","lat":43.26684,"lon":5.3827,"is_reserved":false,"is_disabled":false,"rental_uris":{"android":"levelo://app?vid=16b8e444-8d3b-43c8-8a68-cb4510a25ba5","ios":"levelo://app?vid=16b8e444-8d3b-43c8-8a68-cb4510a25ba5"},"vehicle_type_id":"4","last_reported":1739768971,"current_range_meters":9200,"station_id":"ce4bhg92rcd13ifvqf90","pricing_plan_id":"cebpf4jnsgd1na2vs0mg"},{"bike_id":"fab5bc09-3072-4253-9c2a-b7b62ab516b6","system_id":"levelo_inurba_marseille","lat":43.2979,"lon":5.39342,"is_reserved":false,"is_disabled":false,"rental_uris":{"android":"levelo://app?vid=fab5bc09-3072-4253-9c2a-b7b62ab516b6","ios":"levelo://app?vid=fab5bc09-3072-4253-9c2a-b7b62ab516b6"},"vehicle_type_id":"4","last_reported":1739768971,"current_range_meters":12800,"station_id":"chh1huq6cuj3fo74tm60","pricing_plan_id":"cebpf4jnsgd1na2vs0mg"},{"bike_id":"f7abcf74-16eb-4369-b6b8-ac0e795f9129","system_id":"levelo_inurba_marseille","lat":43.28168,"lon":5.42621,"is_reserved":false,"is_disabled":false,"rental_uris":{"android":"levelo://app?vid=f7abcf74-16eb-4369-b6b8-ac0e795f9129","ios":"levelo://app?vid=f7abcf74-16eb-4369-b6b8-ac0e795f9129"},"vehicle_type_id":"4","last_reported":1739768971,"current_range_meters":25600,"station_id":"ce4bhnh2rcd13ifvqgug","pricing_plan_id":"cebpf4jnsgd1na2vs0mg"},{"bike_id":"eae30826-b1bb-47d4-ae35-48b7c839764b","system_id":"levelo_inurba_marseille","lat":43.288522,"lon":5.358514,"is_reserved":false,"is_disabled":false,"rental_uris":{"android":"levelo://app?vid=eae30826-b1bb-47d4-ae35-48b7c839764b","ios":"levelo://app?vid=eae30826-b1bb-47d4-ae35-48b7c839764b"},"vehicle_type_id":"4","last_reported":1739768971,"current_range_meters":17200,"station_id":"ce4bhb12rcd13ifvqem0","pricing_plan_id":"cebpf4jnsgd1na2vs0mg"},{"bike_id":"9ffc487c-5243-41a7-83bb-0cda23036b98","system_id":"levelo_inurba_marseille","lat":43.27503,"lon":5.43412,"is_reserved":false,"is_disabled":true,"rental_uris":{"android":"levelo://app?vid=9ffc487c-5243-41a7-83bb-0cda23036b98","ios":"levelo://app?vid=9ffc487c-5243-41a7-83bb-0cda23036b98"},"vehicle_type_id":"4","last_reported":1739768971,"current_range_meters":0,"station_id":"","pricing_plan_id":"cebpf4jnsgd1na2vs0mg"},{"bike_id":"2821d2ff-3fc8-480e-81a3-1928b04e4a1d","system_id":"levelo_inurba_marseille","lat":43.31456,"lon":5.37368,"is_reserved":false,"is_disabled":false,"rental_uris":{"android":"levelo://app?vid=2821d2ff-3fc8-480e-81a3-1928b04e4a1d","ios":"levelo://app?vid=2821d2ff-3fc8-480e-81a3-1928b04e4a1d"},"vehicle_type_id":"4","last_reported":1739768971,"current_range_meters":8000,"station_id":"","pricing_plan_id":"cebpf4jnsgd1na2vs0mg"},{"bike_id":"8047b060-b144-4fed-a8cb-8616d953f2d5","system_id":"levelo_inurba_marseille","lat":43.23153,"lon":5.43719,"is_reserved":false,"is_disabled":false,"rental_uris":{"android":"levelo://app?vid=8047b060-b144-4fed-a8cb-8616d953f2d5","ios":"levelo://app?vid=8047b060-b144-4fed-a8cb-8616d953f2d5"},"vehicle_type_id":"4","last_reported":1739768971,"current_range_meters":25200,"station_id":"ce4bhmp2rcd13ifvqgog","pricing_plan_id":"cebpf4jnsgd1na2vs0mg"},{"bike_id":"543cab73-f1d3-4629-bf9b-0144dad3f0f9","system_id":"levelo_inurba_marseille","lat":43.2811,"lon":5.44223,"is_reserved":false,"is_disabled":false,"rental_uris":{"android":"levelo://app?vid=543cab73-f1d3-4629-bf9b-0144dad3f0f9","ios":"levelo://app?vid=543cab73-f1d3-4629-bf9b-0144dad3f0f9"},"vehicle_type_id":"4","last_reported":1739768971,"current_range_meters":5600,"station_id":"","pricing_plan_id":"cebpf4jnsgd1na2vs0mg"},{"bike_id":"d48b880c-5787-4eca-994b-610c9fc548ed","system_id":"levelo_inurba_marseille","lat":43.2415,"lon":5.36403,"is_reserved":false,"is_disabled":false,"rental_uris":{"android":"levelo://app?vid=d48b880c-5787-4eca-994b-610c9fc548ed","ios":"levelo://app?vid=d48b880c-5787-4eca-994b-610c9fc548ed"},"vehicle_type_id":"4","last_reported":1739768971,"current_range_meters":38400,"station_id":"cpo36qri1sfpv3e86is0","pricing_plan_id":"cebpf4jnsgd1na2vs0mg"},{"bike_id":"34c66d3d-b5aa-4bec-ab71-66b17e80e2a1","system_id":"levelo_inurba_marseille","lat":43.32279,"lon":5.38264,"is_reserved":false,"is_disabled":false,"rental_uris":{"android":"levelo://app?vid=34c66d3d-b5aa-4bec-ab71-66b17e80e2a1","ios":"levelo://app?vid=34c66d3d-b5aa-4bec-ab71-66b17e80e2a1"},"vehicle_type_id":"4","last_reported":1739768971,"current_range_meters":38800,"station_id":"ce4bhr12rcd13ifvqhqg","pricing_plan_id":"cebpf4jnsgd1na2vs0mg"},{"bike_id":"a4086f16-18bf-41c0-9517-08c5a8deab50","system_id":"levelo_inurba_marseille","lat":43.29982,"lon":5.37169,"is_reserved":false,"is_disabled":false,"rental_uris":{"android":"levelo://app?vid=a4086f16-18bf-41c0-9517-08c5a8deab50","ios":"levelo://app?vid=a4086f16-18bf-41c0-9517-08c5a8deab50"},"vehicle_type_id":"4","last_reported":1739768971,"current_range_meters":30800,"station_id":"ce4bgr92rcd13ifvqc7g","pricing_plan_id":"cebpf4jnsgd1na2vs0mg"},{"bike_id":"cbac07fd-0079-4791-b8c7-e5aa5d16d99b","system_id":"levelo_inurba_marseille","lat":43.27495,"lon":5.42458,"is_reserved":false,"is_disabled":false,"rental_uris":{"android":"levelo://app?vid=cbac07fd-0079-4791-b8c7-e5aa5d16d99b","ios":"levelo://app?vid=cbac07fd-0079-4791-b8c7-e5aa5d16d99b"},"vehicle_type_id":"4","last_reported":1739768971,"current_range_meters":38000,"station_id":"ce4bhn92rcd13ifvqgrg","pricing_plan_id":"cebpf4jnsgd1na2vs0mg"},{"bike_id":"940ffad1-8d03-466c-a361-1bdb8859eb0e","system_id":"levelo_inurba_marseille","lat":43.28615,"lon":5.35093,"is_reserved":false,"is_disabled":true,"rental_uris":{"android":"levelo://app?vid=940ffad1-8d03-466c-a361-1bdb8859eb0e","ios":"levelo://app?vid=940ffad1-8d03-466c-a361-1bdb8859eb0e"},"vehicle_type_id":"4","last_reported":1739768971,"current_range_meters":0,"station_id":"ce4bhch2rcd13ifvqeug","pricing_plan_id":"cebpf4jnsgd1na2vs0mg"},{"bike_id":"d54f6a5b-fb11-4541-a0e3-f68e1c817ab7","system_id":"levelo_inurba_marseille","lat":43.2667,"lon":5.38251,"is_reserved":false,"is_disabled":true,"rental_uris":{"android":"levelo://app?vid=d54f6a5b-fb11-4541-a0e3-f68e1c817ab7","ios":"levelo://app?vid=d54f6a5b-fb11-4541-a0e3-f68e1c817ab7"},"vehicle_type_id":"4","last_reported":1739768971,"current_range_meters":800,"station_id":"ce4bhg92rcd13ifvqf90","pricing_plan_id":"cebpf4jnsgd1na2vs0mg"},{"bike_id":"91e20a00-0a61-4c4d-ac1e-de492ad0d12a","system_id":"levelo_inurba_marseille","lat":43.2952,"lon":5.37513,"is_reserved":false,"is_disabled":true,"rental_uris":{"android":"levelo://app?vid=91e20a00-0a61-4c4d-ac1e-de492ad0d12a","ios":"levelo://app?vid=91e20a00-0a61-4c4d-ac1e-de492ad0d12a"},"vehicle_type_id":"4","last_reported":1739768971,"current_range_meters":18800,"station_id":"ce4bgkp2rcd13ifvqbmg","pricing_plan_id":"cebpf4jnsgd1na2vs0mg"},{"bike_id":"86a75285-7243-40ee-925b-d20bf72a6a49","system_id":"levelo_inurba_marseille","lat":43.298215,"lon":5.362462,"is_reserved":false,"is_disabled":false,"rental_uris":{"android":"levelo://app?vid=86a75285-7243-40ee-925b-d20bf72a6a49","ios":"levelo://app?vid=86a75285-7243-40ee-925b-d20bf72a6a49"},"vehicle_type_id":"4","last_reported":1739768971,"current_range_meters":38800,"station_id":"ce4bgpp2rcd13ifvqc3g","pricing_plan_id":"cebpf4jnsgd1na2vs0mg"},{"bike_id":"1f0657bb-7196-41de-84fc-c834bbf90b28","system_id":"levelo_inurba_marseille","lat":43.280783,"lon":5.396462,"is_reserved":false,"is_disabled":true,"rental_uris":{"android":"levelo://app?vid=1f0657bb-7196-41de-84fc-c834bbf90b28","ios":"levelo://app?vid=1f0657bb-7196-41de-84fc-c834bbf90b28"},"vehicle_type_id":"4","last_reported":1739768971,"current_range_meters":38400,"station_id":"ce4bho12rcd13ifvqh2g","pricing_plan_id":"cebpf4jnsgd1na2vs0mg"},{"bike_id":"6a8a9fc1-af4d-49a9-8679-5d56a555c641","system_id":"levelo_inurba_marseille","lat":43.27916,"lon":5.39588,"is_reserved":false,"is_disabled":false,"rental_uris":{"android":"levelo://app?vid=6a8a9fc1-af4d-49a9-8679-5d56a555c641","ios":"levelo://app?vid=6a8a9fc1-af4d-49a9-8679-5d56a555c641"},"vehicle_type_id":"4","last_reported":1739768971,"current_range_meters":10800,"station_id":"ce4bhf92rcd13ifvqf40","pricing_plan_id":"cebpf4jnsgd1na2vs0mg"},{"bike_id":"529d9c7b-f8b9-4ea8-a7a1-d297b0706fbc","system_id":"levelo_inurba_marseille","lat":43.29713,"lon":5.36615,"is_reserved":false,"is_disabled":false,"rental_uris":{"android":"levelo://app?vid=529d9c7b-f8b9-4ea8-a7a1-d297b0706fbc","ios":"levelo://app?vid=529d9c7b-f8b9-4ea8-a7a1-d297b0706fbc"},"vehicle_type_id":"4","last_reported":1739768971,"current_range_meters":38800,"station_id":"ce4bgn12rcd13ifvqbt0","pricing_plan_id":"cebpf4jnsgd1na2vs0mg"},{"bike_id":"3ad53059-9aa4-49f8-9e6c-7fff04507d27","system_id":"levelo_inurba_marseille","lat":43.28617,"lon":5.35102,"is_reserved":false,"is_disabled":false,"rental_uris":{"android":"levelo://app?vid=3ad53059-9aa4-49f8-9e6c-7fff04507d27","ios":"levelo://app?vid=3ad53059-9aa4-49f8-9e6c-7fff04507d27"},"vehicle_type_id":"4","last_reported":1739768971,"current_range_meters":20400,"station_id":"ce4bhch2rcd13ifvqeug","pricing_plan_id":"cebpf4jnsgd1na2vs0mg"},{"bike_id":"edda1ad3-82ad-41f9-8e9c-88195b92dd49","system_id":"levelo_inurba_marseille","lat":43.31762,"lon":5.38845,"is_reserved":false,"is_disabled":false,"rental_uris":{"android":"levelo://app?vid=edda1ad3-82ad-41f9-8e9c-88195b92dd49","ios":"levelo://app?vid=edda1ad3-82ad-41f9-8e9c-88195b92dd49"},"vehicle_type_id":"4","last_reported":1739768971,"current_range_meters":10000,"station_id":"","pricing_plan_id":"cebpf4jnsgd1na2vs0mg"},{"bike_id":"ac1f4837-f920-4f11-a0f5-b75095ff3c61","system_id":"levelo_inurba_marseille","lat":43.28704,"lon":5.39961,"is_reserved":false,"is_disabled":false,"rental_uris":{"android":"levelo://app?vid=ac1f4837-f920-4f11-a0f5-b75095ff3c61","ios":"levelo://app?vid=ac1f4837-f920-4f11-a0f5-b75095ff3c61"},"vehicle_type_id":"4","last_reported":1739768971,"current_range_meters":26800,"station_id":"ce4bho92rcd13ifvqh3g","pricing_plan_id":"cebpf4jnsgd1na2vs0mg"},{"bike_id":"6c2c1d95-3302-4ba8-942d-64ecaa7dbe03","system_id":"levelo_inurba_marseille","lat":43.25497,"lon":5.37661,"is_reserved":false,"is_disabled":true,"rental_uris":{"android":"levelo://app?vid=6c2c1d95-3302-4ba8-942d-64ecaa7dbe03","ios":"levelo://app?vid=6c2c1d95-3302-4ba8-942d-64ecaa7dbe03"},"vehicle_type_id":"4","last_reported":1739768971,"current_range_meters":16000,"station_id":"ce4bhh12rcd13ifvqff0","pricing_plan_id":"cebpf4jnsgd1na2vs0mg"},{"bike_id":"c7e844d0-c894-4f08-910f-c4eada2ff803","system_id":"levelo_inurba_marseille","lat":43.24069,"lon":5.37758,"is_reserved":false,"is_disabled":false,"rental_uris":{"android":"levelo://app?vid=c7e844d0-c894-4f08-910f-c4eada2ff803","ios":"levelo://app?vid=c7e844d0-c894-4f08-910f-c4eada2ff803"},"vehicle_type_id":"4","last_reported":1739768971,"current_range_meters":28400,"station_id":"ce4bhnp2rcd13ifvqgvg","pricing_plan_id":"cebpf4jnsgd1na2vs0mg"},{"bike_id":"a0419601-154a-4f77-a08d-de7610386799","system_id":"levelo_inurba_marseille","lat":43.309328,"lon":5.401497,"is_reserved":false,"is_disabled":false,"rental_uris":{"android":"levelo://app?vid=a0419601-154a-4f77-a08d-de7610386799","ios":"levelo://app?vid=a0419601-154a-4f77-a08d-de7610386799"},"vehicle_type_id":"4","last_reported":1739768971,"current_range_meters":20800,"station_id":"ce4bgvp2rcd13ifvqct0","pricing_plan_id":"cebpf4jnsgd1na2vs0mg"},{"bike_id":"9b4dac76-38fd-4906-8602-eb481d9bf993","system_id":"levelo_inurba_marseille","lat":43.30096,"lon":5.39076,"is_reserved":false,"is_disabled":false,"rental_uris":{"android":"levelo://app?vid=9b4dac76-38fd-4906-8602-eb481d9bf993","ios":"levelo://app?vid=9b4dac76-38fd-4906-8602-eb481d9bf993"},"vehicle_type_id":"4","last_reported":1739768971,"current_range_meters":27600,"station_id":"ce4bh192rcd13ifvqdb0","pricing_plan_id":"cebpf4jnsgd1na2vs0mg"},{"bike_id":"f92e748a-9f9b-4e54-8084-07e33515f3d5","system_id":"levelo_inurba_marseille","lat":43.27071,"lon":5.39347,"is_reserved":false,"is_disabled":true,"rental_uris":{"android":"levelo://app?vid=f92e748a-9f9b-4e54-8084-07e33515f3d5","ios":"levelo://app?vid=f92e748a-9f9b-4e54-8084-07e33515f3d5"},"vehicle_type_id":"4","last_reported":1739768971,"current_range_meters":0,"station_id":"","pricing_plan_id":"cebpf4jnsgd1na2vs0mg"},{"bike_id":"e2724f77-6977-420c-92f6-8c8e62268b2c","system_id":"levelo_inurba_marseille","lat":43.28345,"lon":5.38108,"is_reserved":false,"is_disabled":false,"rental_uris":{"android":"levelo://app?vid=e2724f77-6977-420c-92f6-8c8e62268b2c","ios":"levelo://app?vid=e2724f77-6977-420c-92f6-8c8e62268b2c"},"vehicle_type_id":"4","last_reported":1739768971,"current_range_meters":30000,"station_id":"ce4bh412rcd13ifvqdr0","pricing_plan_id":"cebpf4jnsgd1na2vs0mg"},{"bike_id":"bcecc5e4-cc7b-4177-9ff8-db3a19d83949","system_id":"levelo_inurba_marseille","lat":43.2482,"lon":5.374605,"is_reserved":false,"is_disabled":false,"rental_uris":{"android":"levelo://app?vid=bcecc5e4-cc7b-4177-9ff8-db3a19d83949","ios":"levelo://app?vid=bcecc5e4-cc7b-4177-9ff8-db3a19d83949"},"vehicle_type_id":"4","last_reported":1739768971,"current_range_meters":36800,"station_id":"ce4bhgh2rcd13ifvqfb0","pricing_plan_id":"cebpf4jnsgd1na2vs0mg"},{"bike_id":"61fe6277-49a0-44f4-84d1-394f738592e1","system_id":"levelo_inurba_marseille","lat":43.282759,"lon":5.350703,"is_reserved":false,"is_disabled":false,"rental_uris":{"android":"levelo://app?vid=61fe6277-49a0-44f4-84d1-394f738592e1","ios":"levelo://app?vid=61fe6277-49a0-44f4-84d1-394f738592e1"},"vehicle_type_id":"4","last_reported":1739768971,"current_range_meters":37600,"station_id":"ce4bhbp2rcd13ifvqerg","pricing_plan_id":"cebpf4jnsgd1na2vs0mg"},{"bike_id":"aad764cb-4ada-469d-9f37-90caa8490260","system_id":"levelo_inurba_marseille","lat":43.26937,"lon":5.38919,"is_reserved":false,"is_disabled":false,"rental_uris":{"android":"levelo://app?vid=aad764cb-4ada-469d-9f37-90caa8490260","ios":"levelo://app?vid=aad764cb-4ada-469d-9f37-90caa8490260"},"vehicle_type_id":"4","last_reported":1739768971,"current_range_meters":36800,"station_id":"ce4bhhh2rcd13ifvqfl0","pricing_plan_id":"cebpf4jnsgd1na2vs0mg"},{"bike_id":"f3b9e4b6-5b2b-4ba6-a0eb-a63da1a33c37","system_id":"levelo_inurba_marseille","lat":43.29877,"lon":5.39711,"is_reserved":false,"is_disabled":false,"rental_uris":{"android":"levelo://app?vid=f3b9e4b6-5b2b-4ba6-a0eb-a63da1a33c37","ios":"levelo://app?vid=f3b9e4b6-5b2b-4ba6-a0eb-a63da1a33c37"},"vehicle_type_id":"4","last_reported":1739768971,"current_range_meters":36400,"station_id":"ce4bh0h2rcd13ifvqd50","pricing_plan_id":"cebpf4jnsgd1na2vs0mg"},{"bike_id":"8ba3aa93-3780-4693-97c2-a2f07a8a20fd","system_id":"levelo_inurba_marseille","lat":43.23181,"lon":5.39974,"is_reserved":false,"is_disabled":false,"rental_uris":{"android":"levelo://app?vid=8ba3aa93-3780-4693-97c2-a2f07a8a20fd","ios":"levelo://app?vid=8ba3aa93-3780-4693-97c2-a2f07a8a20fd"},"vehicle_type_id":"4","last_reported":1739768971,"current_range_meters":9600,"station_id":"ce4bhn12rcd13ifvqgqg","pricing_plan_id":"cebpf4jnsgd1na2vs0mg"},{"bike_id":"58efad17-13ed-4bd4-bfa7-23dfc65448b8","system_id":"levelo_inurba_marseille","lat":43.2814,"lon":5.37862,"is_reserved":false,"is_disabled":false,"rental_uris":{"android":"levelo://app?vid=58efad17-13ed-4bd4-bfa7-23dfc65448b8","ios":"levelo://app?vid=58efad17-13ed-4bd4-bfa7-23dfc65448b8"},"vehicle_type_id":"4","last_reported":1739768971,"current_range_meters":36800,"station_id":"ce4bha12rcd13ifvqee0","pricing_plan_id":"cebpf4jnsgd1na2vs0mg"},{"bike_id":"9cf8e6d9-67b8-441b-8ab4-08ef8560d2b0","system_id":"levelo_inurba_marseille","lat":43.33514,"lon":5.35585,"is_reserved":false,"is_disabled":true,"rental_uris":{"android":"levelo://app?vid=9cf8e6d9-67b8-441b-8ab4-08ef8560d2b0","ios":"levelo://app?vid=9cf8e6d9-67b8-441b-8ab4-08ef8560d2b0"},"vehicle_type_id":"4","last_reported":1739768971,"current_range_meters":0,"station_id":"","pricing_plan_id":"cebpf4jnsgd1na2vs0mg"},{"bike_id":"b5a8dbe0-eef7-40a3-98df-be63109c0b81","system_id":"levelo_inurba_marseille","lat":43.29178,"lon":5.39322,"is_reserved":false,"is_disabled":false,"rental_uris":{"android":"levelo://app?vid=b5a8dbe0-eef7-40a3-98df-be63109c0b81","ios":"levelo://app?vid=b5a8dbe0-eef7-40a3-98df-be63109c0b81"},"vehicle_type_id":"4","last_reported":1739768971,"current_range_meters":27600,"station_id":"ce4bh192rcd13ifvqdd0","pricing_plan_id":"cebpf4jnsgd1na2vs0mg"},{"bike_id":"731ca817-f595-4f2d-b5ea-108d06703dbc","system_id":"levelo_inurba_marseille","lat":43.297819,"lon":5.3935,"is_reserved":false,"is_disabled":false,"rental_uris":{"android":"levelo://app?vid=731ca817-f595-4f2d-b5ea-108d06703dbc","ios":"levelo://app?vid=731ca817-f595-4f2d-b5ea-108d06703dbc"},"vehicle_type_id":"4","last_reported":1739768971,"current_range_meters":36800,"station_id":"chh1huq6cuj3fo74tm60","pricing_plan_id":"cebpf4jnsgd1na2vs0mg"},{"bike_id":"b8b61749-2414-4a66-9f3d-e89993ac7ede","system_id":"levelo_inurba_marseille","lat":43.28364,"lon":5.38639,"is_reserved":false,"is_disabled":false,"rental_uris":{"android":"levelo://app?vid=b8b61749-2414-4a66-9f3d-e89993ac7ede","ios":"levelo://app?vid=b8b61749-2414-4a66-9f3d-e89993ac7ede"},"vehicle_type_id":"4","last_reported":1739768971,"current_range_meters":38000,"station_id":"ce4bh492rcd13ifvqdvg","pricing_plan_id":"cebpf4jnsgd1na2vs0mg"},{"bike_id":"6c78b8dd-a446-427f-ad7f-5dabcc9c995c","system_id":"levelo_inurba_marseille","lat":43.29772,"lon":5.39333,"is_reserved":false,"is_disabled":false,"rental_uris":{"android":"levelo://app?vid=6c78b8dd-a446-427f-ad7f-5dabcc9c995c","ios":"levelo://app?vid=6c78b8dd-a446-427f-ad7f-5dabcc9c995c"},"vehicle_type_id":"4","last_reported":1739768971,"current_range_meters":38800,"station_id":"chh1huq6cuj3fo74tm60","pricing_plan_id":"cebpf4jnsgd1na2vs0mg"},{"bike_id":"dbd212c7-9372-41c0-b2c1-a6104d7e3419","system_id":"levelo_inurba_marseille","lat":43.2729,"lon":5.39094,"is_reserved":false,"is_disabled":false,"rental_uris":{"android":"levelo://app?vid=dbd212c7-9372-41c0-b2c1-a6104d7e3419","ios":"levelo://app?vid=dbd212c7-9372-41c0-b2c1-a6104d7e3419"},"vehicle_type_id":"4","last_reported":1739768971,"current_range_meters":38000,"station_id":"ce4bhgp2rcd13ifvqfe0","pricing_plan_id":"cebpf4jnsgd1na2vs0mg"},{"bike_id":"fc6c250c-ce8d-4a79-9f04-86e2daa69ddd","system_id":"levelo_inurba_marseille","lat":43.28475,"lon":5.35886,"is_reserved":false,"is_disabled":false,"rental_uris":{"android":"levelo://app?vid=fc6c250c-ce8d-4a79-9f04-86e2daa69ddd","ios":"levelo://app?vid=fc6c250c-ce8d-4a79-9f04-86e2daa69ddd"},"vehicle_type_id":"4","last_reported":1739768971,"current_range_meters":23200,"station_id":"ce4bhah2rcd13ifvqei0","pricing_plan_id":"cebpf4jnsgd1na2vs0mg"},{"bike_id":"4bb8f935-f0d7-49f5-9dd4-3c3dcbae4c88","system_id":"levelo_inurba_marseille","lat":43.31177,"lon":5.38707,"is_reserved":false,"is_disabled":false,"rental_uris":{"android":"levelo://app?vid=4bb8f935-f0d7-49f5-9dd4-3c3dcbae4c88","ios":"levelo://app?vid=4bb8f935-f0d7-49f5-9dd4-3c3dcbae4c88"},"vehicle_type_id":"4","last_reported":1739768971,"current_range_meters":24000,"station_id":"ce4bgv12rcd13ifvqcp0","pricing_plan_id":"cebpf4jnsgd1na2vs0mg"},{"bike_id":"7a375f26-9893-4316-8441-091d6bf99905","system_id":"levelo_inurba_marseille","lat":43.33613,"lon":5.4102,"is_reserved":false,"is_disabled":false,"rental_uris":{"android":"levelo://app?vid=7a375f26-9893-4316-8441-091d6bf99905","ios":"levelo://app?vid=7a375f26-9893-4316-8441-091d6bf99905"},"vehicle_type_id":"4","last_reported":1739768971,"current_range_meters":38000,"station_id":"ce4bhqh2rcd13ifvqhmg","pricing_plan_id":"cebpf4jnsgd1na2vs0mg"},{"bike_id":"699b4ead-7083-4b29-85c3-471cfd54f9e5","system_id":"levelo_inurba_marseille","lat":43.29823,"lon":5.40386,"is_reserved":false,"is_disabled":true,"rental_uris":{"android":"levelo://app?vid=699b4ead-7083-4b29-85c3-471cfd54f9e5","ios":"levelo://app?vid=699b4ead-7083-4b29-85c3-471cfd54f9e5"},"vehicle_type_id":"4","last_reported":1739768971,"current_range_meters":33200,"station_id":"ce4bh112rcd13ifvqd90","pricing_plan_id":"cebpf4jnsgd1na2vs0mg"},{"bike_id":"0287f0d7-f1be-4f59-9230-c953775628db","system_id":"levelo_inurba_marseille","lat":43.323371,"lon":5.406151,"is_reserved":false,"is_disabled":false,"rental_uris":{"android":"levelo://app?vid=0287f0d7-f1be-4f59-9230-c953775628db","ios":"levelo://app?vid=0287f0d7-f1be-4f59-9230-c953775628db"},"vehicle_type_id":"4","last_reported":1739768971,"current_range_meters":38800,"station_id":"ce4bhq92rcd13ifvqhjg","pricing_plan_id":"cebpf4jnsgd1na2vs0mg"},{"bike_id":"51ab7186-5043-4bed-baca-73708608a302","system_id":"levelo_inurba_marseille","lat":43.29584,"lon":5.37026,"is_reserved":false,"is_disabled":true,"rental_uris":{"android":"levelo://app?vid=51ab7186-5043-4bed-baca-73708608a302","ios":"levelo://app?vid=51ab7186-5043-4bed-baca-73708608a302"},"vehicle_type_id":"4","last_reported":1739768971,"current_range_meters":0,"station_id":"","pricing_plan_id":"cebpf4jnsgd1na2vs0mg"},{"bike_id":"9760b051-4e9e-4125-bdb3-bbff49eb6279","system_id":"levelo_inurba_marseille","lat":43.316444,"lon":5.404607,"is_reserved":false,"is_disabled":false,"rental_uris":{"android":"levelo://app?vid=9760b051-4e9e-4125-bdb3-bbff49eb6279","ios":"levelo://app?vid=9760b051-4e9e-4125-bdb3-bbff49eb6279"},"vehicle_type_id":"4","last_reported":1739768971,"current_range_meters":8800,"station_id":"ce4bh012rcd13ifvqd00","pricing_plan_id":"cebpf4jnsgd1na2vs0mg"},{"bike_id":"ef1d4c74-2713-453f-aa59-65551529c49d","system_id":"levelo_inurba_marseille","lat":43.23191,"lon":5.39983,"is_reserved":false,"is_disabled":false,"rental_uris":{"android":"levelo://app?vid=ef1d4c74-2713-453f-aa59-65551529c49d","ios":"levelo://app?vid=ef1d4c74-2713-453f-aa59-65551529c49d"},"vehicle_type_id":"4","last_reported":1739768971,"current_range_meters":16800,"station_id":"ce4bhn12rcd13ifvqgqg","pricing_plan_id":"cebpf4jnsgd1na2vs0mg"},{"bike_id":"c5559994-20bc-48c5-9397-a0a5bf13f2e6","system_id":"levelo_inurba_marseille","lat":43.25854,"lon":5.39921,"is_reserved":false,"is_disabled":true,"rental_uris":{"android":"levelo://app?vid=c5559994-20bc-48c5-9397-a0a5bf13f2e6","ios":"levelo://app?vid=c5559994-20bc-48c5-9397-a0a5bf13f2e6"},"vehicle_type_id":"4","last_reported":1739768971,"current_range_meters":6800,"station_id":"ce4bhl92rcd13ifvqghg","pricing_plan_id":"cebpf4jnsgd1na2vs0mg"},{"bike_id":"20aa5b23-fbe5-4790-ad90-ddc22f8f839f","system_id":"levelo_inurba_marseille","lat":43.241639,"lon":5.363952,"is_reserved":false,"is_disabled":false,"rental_uris":{"android":"levelo://app?vid=20aa5b23-fbe5-4790-ad90-ddc22f8f839f","ios":"levelo://app?vid=20aa5b23-fbe5-4790-ad90-ddc22f8f839f"},"vehicle_type_id":"4","last_reported":1739768971,"current_range_meters":25600,"station_id":"cpo36qri1sfpv3e86is0","pricing_plan_id":"cebpf4jnsgd1na2vs0mg"},{"bike_id":"d353c95e-51cd-47bc-8fab-ad1b8a1b9157","system_id":"levelo_inurba_marseille","lat":43.34145,"lon":5.40916,"is_reserved":false,"is_disabled":false,"rental_uris":{"android":"levelo://app?vid=d353c95e-51cd-47bc-8fab-ad1b8a1b9157","ios":"levelo://app?vid=d353c95e-51cd-47bc-8fab-ad1b8a1b9157"},"vehicle_type_id":"4","last_reported":1739768971,"current_range_meters":38000,"station_id":"ce4bhqh2rcd13ifvqhlg","pricing_plan_id":"cebpf4jnsgd1na2vs0mg"},{"bike_id":"3fb25178-0097-4c0d-aa7c-df7cf9b4f5f8","system_id":"levelo_inurba_marseille","lat":43.29188,"lon":5.3933,"is_reserved":false,"is_disabled":false,"rental_uris":{"android":"levelo://app?vid=3fb25178-0097-4c0d-aa7c-df7cf9b4f5f8","ios":"levelo://app?vid=3fb25178-0097-4c0d-aa7c-df7cf9b4f5f8"},"vehicle_type_id":"4","last_reported":1739768971,"current_range_meters":26800,"station_id":"ce4bh192rcd13ifvqdd0","pricing_plan_id":"cebpf4jnsgd1na2vs0mg"},{"bike_id":"58a66ca4-b8a7-4fb7-93b4-7735332ef21a","system_id":"levelo_inurba_marseille","lat":43.30265,"lon":5.40043,"is_reserved":false,"is_disabled":false,"rental_uris":{"android":"levelo://app?vid=58a66ca4-b8a7-4fb7-93b4-7735332ef21a","ios":"levelo://app?vid=58a66ca4-b8a7-4fb7-93b4-7735332ef21a"},"vehicle_type_id":"4","last_reported":1739768971,"current_range_meters":33200,"station_id":"ce4bgvh2rcd13ifvqcs0","pricing_plan_id":"cebpf4jnsgd1na2vs0mg"},{"bike_id":"c40e2cb9-b89c-4dbd-956b-535ef79f1d37","system_id":"levelo_inurba_marseille","lat":43.2481,"lon":5.37465,"is_reserved":false,"is_disabled":false,"rental_uris":{"android":"levelo://app?vid=c40e2cb9-b89c-4dbd-956b-535ef79f1d37","ios":"levelo://app?vid=c40e2cb9-b89c-4dbd-956b-535ef79f1d37"},"vehicle_type_id":"4","last_reported":1739768971,"current_range_meters":16000,"station_id":"ce4bhgh2rcd13ifvqfb0","pricing_plan_id":"cebpf4jnsgd1na2vs0mg"},{"bike_id":"621aa48b-6d99-46c4-b886-2c6eb903854e","system_id":"levelo_inurba_marseille","lat":43.292588,"lon":5.368454,"is_reserved":false,"is_disabled":true,"rental_uris":{"android":"levelo://app?vid=621aa48b-6d99-46c4-b886-2c6eb903854e","ios":"levelo://app?vid=621aa48b-6d99-46c4-b886-2c6eb903854e"},"vehicle_type_id":"4","last_reported":1739768971,"current_range_meters":26000,"station_id":"ce4bhbp2rcd13ifvqesg","pricing_plan_id":"cebpf4jnsgd1na2vs0mg"},{"bike_id":"6c892c07-6f7e-4303-b497-57dd12074326","system_id":"levelo_inurba_marseille","lat":43.2919,"lon":5.39308,"is_reserved":false,"is_disabled":false,"rental_uris":{"android":"levelo://app?vid=6c892c07-6f7e-4303-b497-57dd12074326","ios":"levelo://app?vid=6c892c07-6f7e-4303-b497-57dd12074326"},"vehicle_type_id":"4","last_reported":1739768971,"current_range_meters":10800,"station_id":"ce4bh192rcd13ifvqdd0","pricing_plan_id":"cebpf4jnsgd1na2vs0mg"},{"bike_id":"206f1ce2-224a-4d1d-b6e4-199f90d3a887","system_id":"levelo_inurba_marseille","lat":43.32676,"lon":5.41002,"is_reserved":false,"is_disabled":false,"rental_uris":{"android":"levelo://app?vid=206f1ce2-224a-4d1d-b6e4-199f90d3a887","ios":"levelo://app?vid=206f1ce2-224a-4d1d-b6e4-199f90d3a887"},"vehicle_type_id":"4","last_reported":1739768971,"current_range_meters":38800,"station_id":"ce4bhpp2rcd13ifvqhgg","pricing_plan_id":"cebpf4jnsgd1na2vs0mg"},{"bike_id":"1d30cebb-7665-485a-8bfe-4cd0ba67112e","system_id":"levelo_inurba_marseille","lat":43.248122,"lon":5.374523,"is_reserved":false,"is_disabled":false,"rental_uris":{"android":"levelo://app?vid=1d30cebb-7665-485a-8bfe-4cd0ba67112e","ios":"levelo://app?vid=1d30cebb-7665-485a-8bfe-4cd0ba67112e"},"vehicle_type_id":"4","last_reported":1739768971,"current_range_meters":27200,"station_id":"ce4bhgh2rcd13ifvqfb0","pricing_plan_id":"cebpf4jnsgd1na2vs0mg"},{"bike_id":"4afd05b5-41e1-4012-b907-304d88773920","system_id":"levelo_inurba_marseille","lat":43.23959,"lon":5.36646,"is_reserved":false,"is_disabled":false,"rental_uris":{"android":"levelo://app?vid=4afd05b5-41e1-4012-b907-304d88773920","ios":"levelo://app?vid=4afd05b5-41e1-4012-b907-304d88773920"},"vehicle_type_id":"4","last_reported":1739768971,"current_range_meters":33600,"station_id":"ce4bhi12rcd13ifvqfp0","pricing_plan_id":"cebpf4jnsgd1na2vs0mg"},{"bike_id":"0f3c933d-cfec-4505-8e23-6788bdf3fe82","system_id":"levelo_inurba_marseille","lat":43.28944,"lon":5.36405,"is_reserved":false,"is_disabled":false,"rental_uris":{"android":"levelo://app?vid=0f3c933d-cfec-4505-8e23-6788bdf3fe82","ios":"levelo://app?vid=0f3c933d-cfec-4505-8e23-6788bdf3fe82"},"vehicle_type_id":"4","last_reported":1739768971,"current_range_meters":38800,"station_id":"ce4bhc92rcd13ifvqetg","pricing_plan_id":"cebpf4jnsgd1na2vs0mg"},{"bike_id":"af02ac68-734a-4337-a76f-2d6f15936fdf","system_id":"levelo_inurba_marseille","lat":43.31742,"lon":5.38881,"is_reserved":false,"is_disabled":false,"rental_uris":{"android":"levelo://app?vid=af02ac68-734a-4337-a76f-2d6f15936fdf","ios":"levelo://app?vid=af02ac68-734a-4337-a76f-2d6f15936fdf"},"vehicle_type_id":"4","last_reported":1739768971,"current_range_meters":38400,"station_id":"","pricing_plan_id":"cebpf4jnsgd1na2vs0mg"},{"bike_id":"aa65e4ee-faaf-4eea-b682-b92b4380af90","system_id":"levelo_inurba_marseille","lat":43.27883,"lon":5.38005,"is_reserved":false,"is_disabled":false,"rental_uris":{"android":"levelo://app?vid=aa65e4ee-faaf-4eea-b682-b92b4380af90","ios":"levelo://app?vid=aa65e4ee-faaf-4eea-b682-b92b4380af90"},"vehicle_type_id":"4","last_reported":1739768971,"current_range_meters":37600,"station_id":"ce4bhf92rcd13ifvqf50","pricing_plan_id":"cebpf4jnsgd1na2vs0mg"},{"bike_id":"69e339b2-f39b-4890-a8bb-6be3dd56981e","system_id":"levelo_inurba_marseille","lat":43.29098,"lon":5.3813,"is_reserved":false,"is_disabled":false,"rental_uris":{"android":"levelo://app?vid=69e339b2-f39b-4890-a8bb-6be3dd56981e","ios":"levelo://app?vid=69e339b2-f39b-4890-a8bb-6be3dd56981e"},"vehicle_type_id":"4","last_reported":1739768971,"current_range_meters":37600,"station_id":"ce4bh512rcd13ifvqe2g","pricing_plan_id":"cebpf4jnsgd1na2vs0mg"},{"bike_id":"5594aa58-c2b1-485c-9ad1-51f835900558","system_id":"levelo_inurba_marseille","lat":43.31167,"lon":5.3863,"is_reserved":false,"is_disabled":false,"rental_uris":{"android":"levelo://app?vid=5594aa58-c2b1-485c-9ad1-51f835900558","ios":"levelo://app?vid=5594aa58-c2b1-485c-9ad1-51f835900558"},"vehicle_type_id":"4","last_reported":1739768971,"current_range_meters":38000,"station_id":"","pricing_plan_id":"cebpf4jnsgd1na2vs0mg"},{"bike_id":"5eb38cc3-ff5a-43e0-b28d-455252669b85","system_id":"levelo_inurba_marseille","lat":43.31124,"lon":5.37763,"is_reserved":false,"is_disabled":false,"rental_uris":{"android":"levelo://app?vid=5eb38cc3-ff5a-43e0-b28d-455252669b85","ios":"levelo://app?vid=5eb38cc3-ff5a-43e0-b28d-455252669b85"},"vehicle_type_id":"4","last_reported":1739768971,"current_range_meters":38400,"station_id":"ce4bgt92rcd13ifvqcg0","pricing_plan_id":"cebpf4jnsgd1na2vs0mg"},{"bike_id":"3ce3dae2-ed5f-43cb-bad9-b317ce2471d9","system_id":"levelo_inurba_marseille","lat":43.24813,"lon":5.37454,"is_reserved":false,"is_disabled":false,"rental_uris":{"android":"levelo://app?vid=3ce3dae2-ed5f-43cb-bad9-b317ce2471d9","ios":"levelo://app?vid=3ce3dae2-ed5f-43cb-bad9-b317ce2471d9"},"vehicle_type_id":"4","last_reported":1739768971,"current_range_meters":34800,"station_id":"ce4bhgh2rcd13ifvqfb0","pricing_plan_id":"cebpf4jnsgd1na2vs0mg"},{"bike_id":"21c73d34-f80d-427a-ac4c-13a1d03eadcf","system_id":"levelo_inurba_marseille","lat":43.31463,"lon":5.37316,"is_reserved":false,"is_disabled":false,"rental_uris":{"android":"levelo://app?vid=21c73d34-f80d-427a-ac4c-13a1d03eadcf","ios":"levelo://app?vid=21c73d34-f80d-427a-ac4c-13a1d03eadcf"},"vehicle_type_id":"4","last_reported":1739768971,"current_range_meters":38800,"station_id":"ce4bgt12rcd13ifvqcd0","pricing_plan_id":"cebpf4jnsgd1na2vs0mg"},{"bike_id":"397f7144-3e20-4f61-9149-2720265fc375","system_id":"levelo_inurba_marseille","lat":43.24064,"lon":5.37752,"is_reserved":false,"is_disabled":false,"rental_uris":{"android":"levelo://app?vid=397f7144-3e20-4f61-9149-2720265fc375","ios":"levelo://app?vid=397f7144-3e20-4f61-9149-2720265fc375"},"vehicle_type_id":"4","last_reported":1739768971,"current_range_meters":32000,"station_id":"ce4bhnp2rcd13ifvqgvg","pricing_plan_id":"cebpf4jnsgd1na2vs0mg"},{"bike_id":"b9d8dfe8-babc-4cd7-8d6a-52c4a8753e0a","system_id":"levelo_inurba_marseille","lat":43.29571,"lon":5.39962,"is_reserved":false,"is_disabled":true,"rental_uris":{"android":"levelo://app?vid=b9d8dfe8-babc-4cd7-8d6a-52c4a8753e0a","ios":"levelo://app?vid=b9d8dfe8-babc-4cd7-8d6a-52c4a8753e0a"},"vehicle_type_id":"4","last_reported":1739768971,"current_range_meters":0,"station_id":"ce4bh312rcd13ifvqdj0","pricing_plan_id":"cebpf4jnsgd1na2vs0mg"},{"bike_id":"03897604-1601-4804-816a-e5baee5a55f4","system_id":"levelo_inurba_marseille","lat":43.30611,"lon":5.37219,"is_reserved":false,"is_disabled":false,"rental_uris":{"android":"levelo://app?vid=03897604-1601-4804-816a-e5baee5a55f4","ios":"levelo://app?vid=03897604-1601-4804-816a-e5baee5a55f4"},"vehicle_type_id":"4","last_reported":1739768971,"current_range_meters":38800,"station_id":"ce4bgqh2rcd13ifvqc4g","pricing_plan_id":"cebpf4jnsgd1na2vs0mg"},{"bike_id":"457a030d-6858-4f7a-8278-228571f059fd","system_id":"levelo_inurba_marseille","lat":43.231491,"lon":5.437173,"is_reserved":false,"is_disabled":true,"rental_uris":{"android":"levelo://app?vid=457a030d-6858-4f7a-8278-228571f059fd","ios":"levelo://app?vid=457a030d-6858-4f7a-8278-228571f059fd"},"vehicle_type_id":"4","last_reported":1739768971,"current_range_meters":1200,"station_id":"ce4bhmp2rcd13ifvqgog","pricing_plan_id":"cebpf4jnsgd1na2vs0mg"},{"bike_id":"ecab2739-28b2-4e19-bf4b-bec57b9e8ed4","system_id":"levelo_inurba_marseille","lat":43.29517,"lon":5.39404,"is_reserved":false,"is_disabled":false,"rental_uris":{"android":"levelo://app?vid=ecab2739-28b2-4e19-bf4b-bec57b9e8ed4","ios":"levelo://app?vid=ecab2739-28b2-4e19-bf4b-bec57b9e8ed4"},"vehicle_type_id":"4","last_reported":1739768971,"current_range_meters":38000,"station_id":"ce4bh292rcd13ifvqdf0","pricing_plan_id":"cebpf4jnsgd1na2vs0mg"},{"bike_id":"b591be93-8298-4087-b388-9283516b2f36","system_id":"levelo_inurba_marseille","lat":43.30642,"lon":5.40065,"is_reserved":false,"is_disabled":false,"rental_uris":{"android":"levelo://app?vid=b591be93-8298-4087-b388-9283516b2f36","ios":"levelo://app?vid=b591be93-8298-4087-b388-9283516b2f36"},"vehicle_type_id":"4","last_reported":1739768971,"current_range_meters":39200,"station_id":"ce4bh112rcd13ifvqda0","pricing_plan_id":"cebpf4jnsgd1na2vs0mg"},{"bike_id":"411e9cc6-2d10-4b12-933e-efecb685ce3b","system_id":"levelo_inurba_marseille","lat":43.2884,"lon":5.35852,"is_reserved":false,"is_disabled":false,"rental_uris":{"android":"levelo://app?vid=411e9cc6-2d10-4b12-933e-efecb685ce3b","ios":"levelo://app?vid=411e9cc6-2d10-4b12-933e-efecb685ce3b"},"vehicle_type_id":"4","last_reported":1739768971,"current_range_meters":18800,"station_id":"ce4bhb12rcd13ifvqem0","pricing_plan_id":"cebpf4jnsgd1na2vs0mg"},{"bike_id":"ecd96c98-2a01-460b-b73d-88d909939f4b","system_id":"levelo_inurba_marseille","lat":43.28975,"lon":5.37823,"is_reserved":false,"is_disabled":false,"rental_uris":{"android":"levelo://app?vid=ecd96c98-2a01-460b-b73d-88d909939f4b","ios":"levelo://app?vid=ecd96c98-2a01-460b-b73d-88d909939f4b"},"vehicle_type_id":"4","last_reported":1739768971,"current_range_meters":38800,"station_id":"ce4bh9p2rcd13ifvqed0","pricing_plan_id":"cebpf4jnsgd1na2vs0mg"},{"bike_id":"d505ae6b-8401-49d2-a7e3-85c98bc77f1c","system_id":"levelo_inurba_marseille","lat":43.32356,"lon":5.40606,"is_reserved":false,"is_disabled":false,"rental_uris":{"android":"levelo://app?vid=d505ae6b-8401-49d2-a7e3-85c98bc77f1c","ios":"levelo://app?vid=d505ae6b-8401-49d2-a7e3-85c98bc77f1c"},"vehicle_type_id":"4","last_reported":1739768971,"current_range_meters":16000,"station_id":"ce4bhq92rcd13ifvqhjg","pricing_plan_id":"cebpf4jnsgd1na2vs0mg"},{"bike_id":"9ef51e36-6b91-4370-b608-25268899d671","system_id":"levelo_inurba_marseille","lat":43.27824,"lon":5.40702,"is_reserved":false,"is_disabled":false,"rental_uris":{"android":"levelo://app?vid=9ef51e36-6b91-4370-b608-25268899d671","ios":"levelo://app?vid=9ef51e36-6b91-4370-b608-25268899d671"},"vehicle_type_id":"4","last_reported":1739768971,"current_range_meters":19200,"station_id":"ce4bhnh2rcd13ifvqgtg","pricing_plan_id":"cebpf4jnsgd1na2vs0mg"},{"bike_id":"6408b994-ae56-4e32-95b9-cb0502299b0f","system_id":"levelo_inurba_marseille","lat":43.295497,"lon":5.422879,"is_reserved":false,"is_disabled":false,"rental_uris":{"android":"levelo://app?vid=6408b994-ae56-4e32-95b9-cb0502299b0f","ios":"levelo://app?vid=6408b994-ae56-4e32-95b9-cb0502299b0f"},"vehicle_type_id":"4","last_reported":1739768971,"current_range_meters":36000,"station_id":"ce4bhph2rcd13ifvqhdg","pricing_plan_id":"cebpf4jnsgd1na2vs0mg"},{"bike_id":"e87d3a2a-e0eb-491b-a724-860180a65cab","system_id":"levelo_inurba_marseille","lat":43.272559,"lon":5.400741,"is_reserved":false,"is_disabled":false,"rental_uris":{"android":"levelo://app?vid=e87d3a2a-e0eb-491b-a724-860180a65cab","ios":"levelo://app?vid=e87d3a2a-e0eb-491b-a724-860180a65cab"},"vehicle_type_id":"4","last_reported":1739768971,"current_range_meters":14800,"station_id":"","pricing_plan_id":"cebpf4jnsgd1na2vs0mg"},{"bike_id":"982c499f-f482-40de-b19f-0c738b7d10ae","system_id":"levelo_inurba_marseille","lat":43.24792,"lon":5.37453,"is_reserved":false,"is_disabled":false,"rental_uris":{"android":"levelo://app?vid=982c499f-f482-40de-b19f-0c738b7d10ae","ios":"levelo://app?vid=982c499f-f482-40de-b19f-0c738b7d10ae"},"vehicle_type_id":"4","last_reported":1739768971,"current_range_meters":38400,"station_id":"ce4bhgh2rcd13ifvqfb0","pricing_plan_id":"cebpf4jnsgd1na2vs0mg"},{"bike_id":"98f62326-8a26-4889-8233-3fa661e57e03","system_id":"levelo_inurba_marseille","lat":43.25106,"lon":5.40312,"is_reserved":false,"is_disabled":false,"rental_uris":{"android":"levelo://app?vid=98f62326-8a26-4889-8233-3fa661e57e03","ios":"levelo://app?vid=98f62326-8a26-4889-8233-3fa661e57e03"},"vehicle_type_id":"4","last_reported":1739768971,"current_range_meters":38800,"station_id":"ce4bhlh2rcd13ifvqgig","pricing_plan_id":"cebpf4jnsgd1na2vs0mg"},{"bike_id":"7f3d31c8-066f-4b9d-b987-28a73c221cd5","system_id":"levelo_inurba_marseille","lat":43.30647,"lon":5.4008,"is_reserved":false,"is_disabled":false,"rental_uris":{"android":"levelo://app?vid=7f3d31c8-066f-4b9d-b987-28a73c221cd5","ios":"levelo://app?vid=7f3d31c8-066f-4b9d-b987-28a73c221cd5"},"vehicle_type_id":"4","last_reported":1739768971,"current_range_meters":38800,"station_id":"ce4bh112rcd13ifvqda0","pricing_plan_id":"cebpf4jnsgd1na2vs0mg"},{"bike_id":"3b54e203-c5e6-46d4-b647-39c691c7ca1b","system_id":"levelo_inurba_marseille","lat":43.255736,"lon":5.382444,"is_reserved":false,"is_disabled":false,"rental_uris":{"android":"levelo://app?vid=3b54e203-c5e6-46d4-b647-39c691c7ca1b","ios":"levelo://app?vid=3b54e203-c5e6-46d4-b647-39c691c7ca1b"},"vehicle_type_id":"4","last_reported":1739768971,"current_range_meters":37600,"station_id":"ce4bhih2rcd13ifvqfs0","pricing_plan_id":"cebpf4jnsgd1na2vs0mg"},{"bike_id":"f364e7fd-b7af-4331-9c85-154b4666d931","system_id":"levelo_inurba_marseille","lat":43.28432,"lon":5.34994,"is_reserved":false,"is_disabled":true,"rental_uris":{"android":"levelo://app?vid=f364e7fd-b7af-4331-9c85-154b4666d931","ios":"levelo://app?vid=f364e7fd-b7af-4331-9c85-154b4666d931"},"vehicle_type_id":"4","last_reported":1739768971,"current_range_meters":0,"station_id":"ce4bhbh2rcd13ifvqepg","pricing_plan_id":"cebpf4jnsgd1na2vs0mg"},{"bike_id":"d4719970-a18a-4054-9b3d-c0444487d18d","system_id":"levelo_inurba_marseille","lat":43.24663,"lon":5.38173,"is_reserved":false,"is_disabled":false,"rental_uris":{"android":"levelo://app?vid=d4719970-a18a-4054-9b3d-c0444487d18d","ios":"levelo://app?vid=d4719970-a18a-4054-9b3d-c0444487d18d"},"vehicle_type_id":"4","last_reported":1739768971,"current_range_meters":38800,"station_id":"ce4bhih2rcd13ifvqfr0","pricing_plan_id":"cebpf4jnsgd1na2vs0mg"},{"bike_id":"d41bd212-63b7-457d-8ea1-e3e91cc8b27a","system_id":"levelo_inurba_marseille","lat":43.2884,"lon":5.35857,"is_reserved":false,"is_disabled":false,"rental_uris":{"android":"levelo://app?vid=d41bd212-63b7-457d-8ea1-e3e91cc8b27a","ios":"levelo://app?vid=d41bd212-63b7-457d-8ea1-e3e91cc8b27a"},"vehicle_type_id":"4","last_reported":1739768971,"current_range_meters":30000,"station_id":"ce4bhb12rcd13ifvqem0","pricing_plan_id":"cebpf4jnsgd1na2vs0mg"},{"bike_id":"7df33989-9cd1-4583-a90f-25c190f648b5","system_id":"levelo_inurba_marseille","lat":43.293806,"lon":5.386166,"is_reserved":false,"is_disabled":false,"rental_uris":{"android":"levelo://app?vid=7df33989-9cd1-4583-a90f-25c190f648b5","ios":"levelo://app?vid=7df33989-9cd1-4583-a90f-25c190f648b5"},"vehicle_type_id":"4","last_reported":1739768971,"current_range_meters":28000,"station_id":"ce4bh2h2rcd13ifvqdh0","pricing_plan_id":"cebpf4jnsgd1na2vs0mg"},{"bike_id":"7e15b6ad-756b-4a1f-b46b-586396e2f46f","system_id":"levelo_inurba_marseille","lat":43.28728,"lon":5.36084,"is_reserved":false,"is_disabled":false,"rental_uris":{"android":"levelo://app?vid=7e15b6ad-756b-4a1f-b46b-586396e2f46f","ios":"levelo://app?vid=7e15b6ad-756b-4a1f-b46b-586396e2f46f"},"vehicle_type_id":"4","last_reported":1739768971,"current_range_meters":19600,"station_id":"cki0cbj6b192h4jlfktg","pricing_plan_id":"cebpf4jnsgd1na2vs0mg"},{"bike_id":"8305f6a0-7254-407d-95be-23c9d9324fe7","system_id":"levelo_inurba_marseille","lat":43.29029,"lon":5.38626,"is_reserved":false,"is_disabled":false,"rental_uris":{"android":"levelo://app?vid=8305f6a0-7254-407d-95be-23c9d9324fe7","ios":"levelo://app?vid=8305f6a0-7254-407d-95be-23c9d9324fe7"},"vehicle_type_id":"4","last_reported":1739768971,"current_range_meters":38000,"station_id":"ce4bh4p2rcd13ifvqe0g","pricing_plan_id":"cebpf4jnsgd1na2vs0mg"},{"bike_id":"05f82d89-fa80-4f7f-95e3-de8829322c89","system_id":"levelo_inurba_marseille","lat":43.2548,"lon":5.3765,"is_reserved":false,"is_disabled":true,"rental_uris":{"android":"levelo://app?vid=05f82d89-fa80-4f7f-95e3-de8829322c89","ios":"levelo://app?vid=05f82d89-fa80-4f7f-95e3-de8829322c89"},"vehicle_type_id":"4","last_reported":1739768971,"current_range_meters":28800,"station_id":"ce4bhh12rcd13ifvqff0","pricing_plan_id":"cebpf4jnsgd1na2vs0mg"},{"bike_id":"50104807-7bb2-4490-81db-27ac7fadea28","system_id":"levelo_inurba_marseille","lat":43.31182,"lon":5.38709,"is_reserved":false,"is_disabled":false,"rental_uris":{"android":"levelo://app?vid=50104807-7bb2-4490-81db-27ac7fadea28","ios":"levelo://app?vid=50104807-7bb2-4490-81db-27ac7fadea28"},"vehicle_type_id":"4","last_reported":1739768971,"current_range_meters":16400,"station_id":"ce4bgv12rcd13ifvqcp0","pricing_plan_id":"cebpf4jnsgd1na2vs0mg"},{"bike_id":"38d6334f-19e1-4dc9-afb2-b5c941e259f5","system_id":"levelo_inurba_marseille","lat":43.29522,"lon":5.39031,"is_reserved":false,"is_disabled":false,"rental_uris":{"android":"levelo://app?vid=38d6334f-19e1-4dc9-afb2-b5c941e259f5","ios":"levelo://app?vid=38d6334f-19e1-4dc9-afb2-b5c941e259f5"},"vehicle_type_id":"4","last_reported":1739768971,"current_range_meters":28800,"station_id":"ce4bh3p2rcd13ifvqdp0","pricing_plan_id":"cebpf4jnsgd1na2vs0mg"},{"bike_id":"281b84f3-58f9-4822-a666-06aa2e562366","system_id":"levelo_inurba_marseille","lat":43.241606,"lon":5.363971,"is_reserved":false,"is_disabled":false,"rental_uris":{"android":"levelo://app?vid=281b84f3-58f9-4822-a666-06aa2e562366","ios":"levelo://app?vid=281b84f3-58f9-4822-a666-06aa2e562366"},"vehicle_type_id":"4","last_reported":1739768971,"current_range_meters":24400,"station_id":"cpo36qri1sfpv3e86is0","pricing_plan_id":"cebpf4jnsgd1na2vs0mg"},{"bike_id":"f58c78ee-fb4b-4848-9574-1fd30425a15a","system_id":"levelo_inurba_marseille","lat":43.32459,"lon":5.36563,"is_reserved":false,"is_disabled":false,"rental_uris":{"android":"levelo://app?vid=f58c78ee-fb4b-4848-9574-1fd30425a15a","ios":"levelo://app?vid=f58c78ee-fb4b-4848-9574-1fd30425a15a"},"vehicle_type_id":"4","last_reported":1739768971,"current_range_meters":28400,"station_id":"ce4bhs12rcd13ifvqhvg","pricing_plan_id":"cebpf4jnsgd1na2vs0mg"},{"bike_id":"ad464612-ddad-49fc-a807-b87bef42b41a","system_id":"levelo_inurba_marseille","lat":43.31248,"lon":5.36909,"is_reserved":false,"is_disabled":false,"rental_uris":{"android":"levelo://app?vid=ad464612-ddad-49fc-a807-b87bef42b41a","ios":"levelo://app?vid=ad464612-ddad-49fc-a807-b87bef42b41a"},"vehicle_type_id":"4","last_reported":1739768971,"current_range_meters":14400,"station_id":"ce4bgl92rcd13ifvqbq0","pricing_plan_id":"cebpf4jnsgd1na2vs0mg"},{"bike_id":"0d60bc89-f62c-4653-a287-e71867fc3464","system_id":"levelo_inurba_marseille","lat":43.287085,"lon":5.399849,"is_reserved":false,"is_disabled":false,"rental_uris":{"android":"levelo://app?vid=0d60bc89-f62c-4653-a287-e71867fc3464","ios":"levelo://app?vid=0d60bc89-f62c-4653-a287-e71867fc3464"},"vehicle_type_id":"4","last_reported":1739768971,"current_range_meters":27600,"station_id":"ce4bho92rcd13ifvqh3g","pricing_plan_id":"cebpf4jnsgd1na2vs0mg"},{"bike_id":"4c7b6b2e-5136-4634-8137-782d17393c3b","system_id":"levelo_inurba_marseille","lat":43.299742,"lon":5.371606,"is_reserved":false,"is_disabled":false,"rental_uris":{"android":"levelo://app?vid=4c7b6b2e-5136-4634-8137-782d17393c3b","ios":"levelo://app?vid=4c7b6b2e-5136-4634-8137-782d17393c3b"},"vehicle_type_id":"4","last_reported":1739768971,"current_range_meters":28000,"station_id":"ce4bgr92rcd13ifvqc7g","pricing_plan_id":"cebpf4jnsgd1na2vs0mg"},{"bike_id":"9c94e0d5-f5af-426c-a846-727d2d16657b","system_id":"levelo_inurba_marseille","lat":43.28033,"lon":5.36942,"is_reserved":false,"is_disabled":false,"rental_uris":{"android":"levelo://app?vid=9c94e0d5-f5af-426c-a846-727d2d16657b","ios":"levelo://app?vid=9c94e0d5-f5af-426c-a846-727d2d16657b"},"vehicle_type_id":"4","last_reported":1739768971,"current_range_meters":37600,"station_id":"ce4bha12rcd13ifvqef0","pricing_plan_id":"cebpf4jnsgd1na2vs0mg"},{"bike_id":"d09cb115-3ac6-494c-8d8a-fb5d876de7f4","system_id":"levelo_inurba_marseille","lat":43.30141,"lon":5.38057,"is_reserved":false,"is_disabled":false,"rental_uris":{"android":"levelo://app?vid=d09cb115-3ac6-494c-8d8a-fb5d876de7f4","ios":"levelo://app?vid=d09cb115-3ac6-494c-8d8a-fb5d876de7f4"},"vehicle_type_id":"4","last_reported":1739768971,"current_range_meters":31200,"station_id":"ce4bgjp2rcd13ifvqbh0","pricing_plan_id":"cebpf4jnsgd1na2vs0mg"},{"bike_id":"917b1dc0-adb2-4903-84ef-22990e0daa55","system_id":"levelo_inurba_marseille","lat":43.30421,"lon":5.41287,"is_reserved":false,"is_disabled":false,"rental_uris":{"android":"levelo://app?vid=917b1dc0-adb2-4903-84ef-22990e0daa55","ios":"levelo://app?vid=917b1dc0-adb2-4903-84ef-22990e0daa55"},"vehicle_type_id":"4","last_reported":1739768971,"current_range_meters":30400,"station_id":"ce4bhop2rcd13ifvqh8g","pricing_plan_id":"cebpf4jnsgd1na2vs0mg"},{"bike_id":"f44027ef-774c-4ac4-8d50-81d21aa2b847","system_id":"levelo_inurba_marseille","lat":43.28602,"lon":5.35107,"is_reserved":false,"is_disabled":false,"rental_uris":{"android":"levelo://app?vid=f44027ef-774c-4ac4-8d50-81d21aa2b847","ios":"levelo://app?vid=f44027ef-774c-4ac4-8d50-81d21aa2b847"},"vehicle_type_id":"4","last_reported":1739768971,"current_range_meters":38800,"station_id":"ce4bhch2rcd13ifvqeug","pricing_plan_id":"cebpf4jnsgd1na2vs0mg"},{"bike_id":"03eba1d0-92c1-4e6e-a4d0-7c546f2439c0","system_id":"levelo_inurba_marseille","lat":43.337444,"lon":5.374475,"is_reserved":false,"is_disabled":true,"rental_uris":{"android":"levelo://app?vid=03eba1d0-92c1-4e6e-a4d0-7c546f2439c0","ios":"levelo://app?vid=03eba1d0-92c1-4e6e-a4d0-7c546f2439c0"},"vehicle_type_id":"4","last_reported":1739768971,"current_range_meters":0,"station_id":"","pricing_plan_id":"cebpf4jnsgd1na2vs0mg"},{"bike_id":"7670b8ae-6f61-4d26-b077-17100b95f8ab","system_id":"levelo_inurba_marseille","lat":43.28434,"lon":5.3918,"is_reserved":false,"is_disabled":true,"rental_uris":{"android":"levelo://app?vid=7670b8ae-6f61-4d26-b077-17100b95f8ab","ios":"levelo://app?vid=7670b8ae-6f61-4d26-b077-17100b95f8ab"},"vehicle_type_id":"4","last_reported":1739768971,"current_range_meters":25600,"station_id":"ce4bhoh2rcd13ifvqh5g","pricing_plan_id":"cebpf4jnsgd1na2vs0mg"},{"bike_id":"496e0267-f4a3-4e46-98dc-aa633c403f12","system_id":"levelo_inurba_marseille","lat":43.25489,"lon":5.37672,"is_reserved":false,"is_disabled":true,"rental_uris":{"android":"levelo://app?vid=496e0267-f4a3-4e46-98dc-aa633c403f12","ios":"levelo://app?vid=496e0267-f4a3-4e46-98dc-aa633c403f12"},"vehicle_type_id":"4","last_reported":1739768971,"current_range_meters":29600,"station_id":"ce4bhh12rcd13ifvqff0","pricing_plan_id":"cebpf4jnsgd1na2vs0mg"},{"bike_id":"22d03988-cef2-4c32-901a-c2d50b43d3a9","system_id":"levelo_inurba_marseille","lat":43.29539,"lon":5.3854,"is_reserved":false,"is_disabled":true,"rental_uris":{"android":"levelo://app?vid=22d03988-cef2-4c32-901a-c2d50b43d3a9","ios":"levelo://app?vid=22d03988-cef2-4c32-901a-c2d50b43d3a9"},"vehicle_type_id":"4","last_reported":1739768971,"current_range_meters":38000,"station_id":"ce4bgih2rcd13ifvqba0","pricing_plan_id":"cebpf4jnsgd1na2vs0mg"},{"bike_id":"8c6e1647-a201-42d6-9e2c-07bf21681fa3","system_id":"levelo_inurba_marseille","lat":43.31894,"lon":5.40729,"is_reserved":false,"is_disabled":true,"rental_uris":{"android":"levelo://app?vid=8c6e1647-a201-42d6-9e2c-07bf21681fa3","ios":"levelo://app?vid=8c6e1647-a201-42d6-9e2c-07bf21681fa3"},"vehicle_type_id":"4","last_reported":1739768971,"current_range_meters":14400,"station_id":"ce4bhq12rcd13ifvqhig","pricing_plan_id":"cebpf4jnsgd1na2vs0mg"},{"bike_id":"d7bb91c7-1e6c-4011-85a2-08678dbfba66","system_id":"levelo_inurba_marseille","lat":43.24388,"lon":5.37065,"is_reserved":false,"is_disabled":false,"rental_uris":{"android":"levelo://app?vid=d7bb91c7-1e6c-4011-85a2-08678dbfba66","ios":"levelo://app?vid=d7bb91c7-1e6c-4011-85a2-08678dbfba66"},"vehicle_type_id":"4","last_reported":1739768971,"current_range_meters":36800,"station_id":"ce4bhhh2rcd13ifvqfk0","pricing_plan_id":"cebpf4jnsgd1na2vs0mg"},{"bike_id":"0708a0eb-1ca4-41db-8b4e-8a337bdbbfb6","system_id":"levelo_inurba_marseille","lat":43.272111,"lon":5.39186,"is_reserved":false,"is_disabled":false,"rental_uris":{"android":"levelo://app?vid=0708a0eb-1ca4-41db-8b4e-8a337bdbbfb6","ios":"levelo://app?vid=0708a0eb-1ca4-41db-8b4e-8a337bdbbfb6"},"vehicle_type_id":"4","last_reported":1739768971,"current_range_meters":30800,"station_id":"ce4bhhp2rcd13ifvqfm0","pricing_plan_id":"cebpf4jnsgd1na2vs0mg"},{"bike_id":"72020030-30b6-4ce6-a444-1f6f3a9b26ca","system_id":"levelo_inurba_marseille","lat":43.29558,"lon":5.42297,"is_reserved":false,"is_disabled":false,"rental_uris":{"android":"levelo://app?vid=72020030-30b6-4ce6-a444-1f6f3a9b26ca","ios":"levelo://app?vid=72020030-30b6-4ce6-a444-1f6f3a9b26ca"},"vehicle_type_id":"4","last_reported":1739768971,"current_range_meters":28000,"station_id":"ce4bhph2rcd13ifvqhdg","pricing_plan_id":"cebpf4jnsgd1na2vs0mg"},{"bike_id":"1f52f3b3-3e4c-4076-9fe5-f4b3bb4b252a","system_id":"levelo_inurba_marseille","lat":43.274738,"lon":5.435136,"is_reserved":false,"is_disabled":true,"rental_uris":{"android":"levelo://app?vid=1f52f3b3-3e4c-4076-9fe5-f4b3bb4b252a","ios":"levelo://app?vid=1f52f3b3-3e4c-4076-9fe5-f4b3bb4b252a"},"vehicle_type_id":"4","last_reported":1739768971,"current_range_meters":0,"station_id":"","pricing_plan_id":"cebpf4jnsgd1na2vs0mg"},{"bike_id":"2544cb1f-5d8b-418a-aaf0-7a450896b91a","system_id":"levelo_inurba_marseille","lat":43.31487,"lon":5.37293,"is_reserved":false,"is_disabled":false,"rental_uris":{"android":"levelo://app?vid=2544cb1f-5d8b-418a-aaf0-7a450896b91a","ios":"levelo://app?vid=2544cb1f-5d8b-418a-aaf0-7a450896b91a"},"vehicle_type_id":"4","last_reported":1739768971,"current_range_meters":32000,"station_id":"ce4bgt12rcd13ifvqcd0","pricing_plan_id":"cebpf4jnsgd1na2vs0mg"},{"bike_id":"204d0c95-d245-41ee-a560-4718b8e41e4d","system_id":"levelo_inurba_marseille","lat":43.25057,"lon":5.39513,"is_reserved":false,"is_disabled":false,"rental_uris":{"android":"levelo://app?vid=204d0c95-d245-41ee-a560-4718b8e41e4d","ios":"levelo://app?vid=204d0c95-d245-41ee-a560-4718b8e41e4d"},"vehicle_type_id":"4","last_reported":1739768971,"current_range_meters":38800,"station_id":"ce4bhm12rcd13ifvqgkg","pricing_plan_id":"cebpf4jnsgd1na2vs0mg"},{"bike_id":"8c2cb4e7-cc7a-458e-beca-ed80b12306ff","system_id":"levelo_inurba_marseille","lat":43.30138,"lon":5.39877,"is_reserved":false,"is_disabled":true,"rental_uris":{"android":"levelo://app?vid=8c2cb4e7-cc7a-458e-beca-ed80b12306ff","ios":"levelo://app?vid=8c2cb4e7-cc7a-458e-beca-ed80b12306ff"},"vehicle_type_id":"4","last_reported":1739768971,"current_range_meters":0,"station_id":"ce4bh0h2rcd13ifvqd40","pricing_plan_id":"cebpf4jnsgd1na2vs0mg"},{"bike_id":"bd1fbd17-5ecd-4c2a-9290-d1ffd1a70214","system_id":"levelo_inurba_marseille","lat":43.29557,"lon":5.42285,"is_reserved":false,"is_disabled":false,"rental_uris":{"android":"levelo://app?vid=bd1fbd17-5ecd-4c2a-9290-d1ffd1a70214","ios":"levelo://app?vid=bd1fbd17-5ecd-4c2a-9290-d1ffd1a70214"},"vehicle_type_id":"4","last_reported":1739768971,"current_range_meters":26000,"station_id":"ce4bhph2rcd13ifvqhdg","pricing_plan_id":"cebpf4jnsgd1na2vs0mg"},{"bike_id":"accf9c94-adf1-46a8-84c6-b4a25f5d38ea","system_id":"levelo_inurba_marseille","lat":43.301386,"lon":5.398637,"is_reserved":false,"is_disabled":false,"rental_uris":{"android":"levelo://app?vid=accf9c94-adf1-46a8-84c6-b4a25f5d38ea","ios":"levelo://app?vid=accf9c94-adf1-46a8-84c6-b4a25f5d38ea"},"vehicle_type_id":"4","last_reported":1739768971,"current_range_meters":22400,"station_id":"ce4bh0h2rcd13ifvqd40","pricing_plan_id":"cebpf4jnsgd1na2vs0mg"},{"bike_id":"dd548764-7d84-4656-8245-ec59f80c7eb7","system_id":"levelo_inurba_marseille","lat":43.30417,"lon":5.41277,"is_reserved":false,"is_disabled":false,"rental_uris":{"android":"levelo://app?vid=dd548764-7d84-4656-8245-ec59f80c7eb7","ios":"levelo://app?vid=dd548764-7d84-4656-8245-ec59f80c7eb7"},"vehicle_type_id":"4","last_reported":1739768971,"current_range_meters":38400,"station_id":"ce4bhop2rcd13ifvqh8g","pricing_plan_id":"cebpf4jnsgd1na2vs0mg"},{"bike_id":"d2e01317-2950-420e-b1aa-8f1e4398c1e8","system_id":"levelo_inurba_marseille","lat":43.23167,"lon":5.35578,"is_reserved":false,"is_disabled":false,"rental_uris":{"android":"levelo://app?vid=d2e01317-2950-420e-b1aa-8f1e4398c1e8","ios":"levelo://app?vid=d2e01317-2950-420e-b1aa-8f1e4398c1e8"},"vehicle_type_id":"4","last_reported":1739768971,"current_range_meters":38000,"station_id":"ce4bhu92rcd13ifvqi70","pricing_plan_id":"cebpf4jnsgd1na2vs0mg"},{"bike_id":"99b60497-417a-4e6c-9e27-ce3655ce5e57","system_id":"levelo_inurba_marseille","lat":43.30659,"lon":5.401,"is_reserved":false,"is_disabled":true,"rental_uris":{"android":"levelo://app?vid=99b60497-417a-4e6c-9e27-ce3655ce5e57","ios":"levelo://app?vid=99b60497-417a-4e6c-9e27-ce3655ce5e57"},"vehicle_type_id":"4","last_reported":1739768971,"current_range_meters":21600,"station_id":"ce4bh112rcd13ifvqda0","pricing_plan_id":"cebpf4jnsgd1na2vs0mg"},{"bike_id":"cb1c0d7d-2947-40bf-8666-7a69800fbd13","system_id":"levelo_inurba_marseille","lat":43.279384,"lon":5.410381,"is_reserved":false,"is_disabled":false,"rental_uris":{"android":"levelo://app?vid=cb1c0d7d-2947-40bf-8666-7a69800fbd13","ios":"levelo://app?vid=cb1c0d7d-2947-40bf-8666-7a69800fbd13"},"vehicle_type_id":"4","last_reported":1739768971,"current_range_meters":6400,"station_id":"ce4bhnp2rcd13ifvqh0g","pricing_plan_id":"cebpf4jnsgd1na2vs0mg"},{"bike_id":"fdbe1c87-3470-4d42-a2f8-e6c80454708a","system_id":"levelo_inurba_marseille","lat":43.239648,"lon":5.366399,"is_reserved":false,"is_disabled":false,"rental_uris":{"android":"levelo://app?vid=fdbe1c87-3470-4d42-a2f8-e6c80454708a","ios":"levelo://app?vid=fdbe1c87-3470-4d42-a2f8-e6c80454708a"},"vehicle_type_id":"4","last_reported":1739768971,"current_range_meters":6800,"station_id":"ce4bhi12rcd13ifvqfp0","pricing_plan_id":"cebpf4jnsgd1na2vs0mg"},{"bike_id":"68e091eb-0298-4cb5-b5eb-8dfc36218da6","system_id":"levelo_inurba_marseille","lat":43.23186,"lon":5.39986,"is_reserved":false,"is_disabled":false,"rental_uris":{"android":"levelo://app?vid=68e091eb-0298-4cb5-b5eb-8dfc36218da6","ios":"levelo://app?vid=68e091eb-0298-4cb5-b5eb-8dfc36218da6"},"vehicle_type_id":"4","last_reported":1739768971,"current_range_meters":39200,"station_id":"ce4bhn12rcd13ifvqgqg","pricing_plan_id":"cebpf4jnsgd1na2vs0mg"},{"bike_id":"d63b7867-53a4-4bca-be72-b856d1cbea50","system_id":"levelo_inurba_marseille","lat":43.23961,"lon":5.36621,"is_reserved":false,"is_disabled":false,"rental_uris":{"android":"levelo://app?vid=d63b7867-53a4-4bca-be72-b856d1cbea50","ios":"levelo://app?vid=d63b7867-53a4-4bca-be72-b856d1cbea50"},"vehicle_type_id":"4","last_reported":1739768971,"current_range_meters":17200,"station_id":"ce4bhi12rcd13ifvqfp0","pricing_plan_id":"cebpf4jnsgd1na2vs0mg"},{"bike_id":"8a6c5fd3-bd8f-4eaa-bf19-9b35233ab017","system_id":"levelo_inurba_marseille","lat":43.2971,"lon":5.36605,"is_reserved":false,"is_disabled":false,"rental_uris":{"android":"levelo://app?vid=8a6c5fd3-bd8f-4eaa-bf19-9b35233ab017","ios":"levelo://app?vid=8a6c5fd3-bd8f-4eaa-bf19-9b35233ab017"},"vehicle_type_id":"4","last_reported":1739768971,"current_range_meters":39200,"station_id":"ce4bgn12rcd13ifvqbt0","pricing_plan_id":"cebpf4jnsgd1na2vs0mg"},{"bike_id":"57a5c251-6123-470e-813e-a9340a0256fe","system_id":"levelo_inurba_marseille","lat":43.24158,"lon":5.3642,"is_reserved":false,"is_disabled":false,"rental_uris":{"android":"levelo://app?vid=57a5c251-6123-470e-813e-a9340a0256fe","ios":"levelo://app?vid=57a5c251-6123-470e-813e-a9340a0256fe"},"vehicle_type_id":"4","last_reported":1739768971,"current_range_meters":38400,"station_id":"cpo36qri1sfpv3e86is0","pricing_plan_id":"cebpf4jnsgd1na2vs0mg"},{"bike_id":"ef172359-3e68-4bf2-b045-8d26f74d9415","system_id":"levelo_inurba_marseille","lat":43.295174,"lon":5.3941,"is_reserved":false,"is_disabled":false,"rental_uris":{"android":"levelo://app?vid=ef172359-3e68-4bf2-b045-8d26f74d9415","ios":"levelo://app?vid=ef172359-3e68-4bf2-b045-8d26f74d9415"},"vehicle_type_id":"4","last_reported":1739768971,"current_range_meters":38800,"station_id":"ce4bh292rcd13ifvqdf0","pricing_plan_id":"cebpf4jnsgd1na2vs0mg"},{"bike_id":"77932811-e2b8-478c-8f12-865094071f88","system_id":"levelo_inurba_marseille","lat":43.25718,"lon":5.41099,"is_reserved":false,"is_disabled":false,"rental_uris":{"android":"levelo://app?vid=77932811-e2b8-478c-8f12-865094071f88","ios":"levelo://app?vid=77932811-e2b8-478c-8f12-865094071f88"},"vehicle_type_id":"4","last_reported":1739768971,"current_range_meters":38000,"station_id":"ce4bhkp2rcd13ifvqgd0","pricing_plan_id":"cebpf4jnsgd1na2vs0mg"},{"bike_id":"1d0df17f-5175-4ef2-9522-8c1e08ba65bd","system_id":"levelo_inurba_marseille","lat":43.27845,"lon":5.39211,"is_reserved":false,"is_disabled":false,"rental_uris":{"android":"levelo://app?vid=1d0df17f-5175-4ef2-9522-8c1e08ba65bd","ios":"levelo://app?vid=1d0df17f-5175-4ef2-9522-8c1e08ba65bd"},"vehicle_type_id":"4","last_reported":1739768971,"current_range_meters":28400,"station_id":"ce4bhjp2rcd13ifvqga0","pricing_plan_id":"cebpf4jnsgd1na2vs0mg"},{"bike_id":"02db7a28-fc2d-4a4a-92a0-cec040e64718","system_id":"levelo_inurba_marseille","lat":43.23957,"lon":5.36627,"is_reserved":false,"is_disabled":true,"rental_uris":{"android":"levelo://app?vid=02db7a28-fc2d-4a4a-92a0-cec040e64718","ios":"levelo://app?vid=02db7a28-fc2d-4a4a-92a0-cec040e64718"},"vehicle_type_id":"4","last_reported":1739768971,"current_range_meters":400,"station_id":"ce4bhi12rcd13ifvqfp0","pricing_plan_id":"cebpf4jnsgd1na2vs0mg"},{"bike_id":"2186a012-eb75-46a4-883e-debc895b568e","system_id":"levelo_inurba_marseille","lat":43.310725,"lon":5.383454,"is_reserved":false,"is_disabled":false,"rental_uris":{"android":"levelo://app?vid=2186a012-eb75-46a4-883e-debc895b568e","ios":"levelo://app?vid=2186a012-eb75-46a4-883e-debc895b568e"},"vehicle_type_id":"4","last_reported":1739768971,"current_range_meters":24400,"station_id":"ce4bgv92rcd13ifvqcr0","pricing_plan_id":"cebpf4jnsgd1na2vs0mg"},{"bike_id":"6f820518-8b07-484a-8c43-5d5451e338e7","system_id":"levelo_inurba_marseille","lat":43.231995,"lon":5.355585,"is_reserved":false,"is_disabled":false,"rental_uris":{"android":"levelo://app?vid=6f820518-8b07-484a-8c43-5d5451e338e7","ios":"levelo://app?vid=6f820518-8b07-484a-8c43-5d5451e338e7"},"vehicle_type_id":"4","last_reported":1739768971,"current_range_meters":27200,"station_id":"ce4bhu92rcd13ifvqi70","pricing_plan_id":"cebpf4jnsgd1na2vs0mg"},{"bike_id":"e9df70a0-1b8c-4c51-a61c-68ff2e71de13","system_id":"levelo_inurba_marseille","lat":43.230657,"lon":5.354942,"is_reserved":false,"is_disabled":true,"rental_uris":{"android":"levelo://app?vid=e9df70a0-1b8c-4c51-a61c-68ff2e71de13","ios":"levelo://app?vid=e9df70a0-1b8c-4c51-a61c-68ff2e71de13"},"vehicle_type_id":"4","last_reported":1739768971,"current_range_meters":0,"station_id":"cpo3342slgdg3j2ifvpg","pricing_plan_id":"cebpf4jnsgd1na2vs0mg"},{"bike_id":"d8c989e8-8c9e-4e8a-92ee-32c9ebd5297b","system_id":"levelo_inurba_marseille","lat":43.28935,"lon":5.36635,"is_reserved":false,"is_disabled":false,"rental_uris":{"android":"levelo://app?vid=d8c989e8-8c9e-4e8a-92ee-32c9ebd5297b","ios":"levelo://app?vid=d8c989e8-8c9e-4e8a-92ee-32c9ebd5297b"},"vehicle_type_id":"4","last_reported":1739768971,"current_range_meters":32800,"station_id":"ce4bhap2rcd13ifvqek0","pricing_plan_id":"cebpf4jnsgd1na2vs0mg"},{"bike_id":"a3b76a23-e719-4cac-9132-63d31b15a8de","system_id":"levelo_inurba_marseille","lat":43.241608,"lon":5.36398,"is_reserved":false,"is_disabled":false,"rental_uris":{"android":"levelo://app?vid=a3b76a23-e719-4cac-9132-63d31b15a8de","ios":"levelo://app?vid=a3b76a23-e719-4cac-9132-63d31b15a8de"},"vehicle_type_id":"4","last_reported":1739768971,"current_range_meters":22000,"station_id":"cpo36qri1sfpv3e86is0","pricing_plan_id":"cebpf4jnsgd1na2vs0mg"},{"bike_id":"11047dbe-c3b1-4253-8f49-9d6097067e0f","system_id":"levelo_inurba_marseille","lat":43.292542,"lon":5.409054,"is_reserved":false,"is_disabled":false,"rental_uris":{"android":"levelo://app?vid=11047dbe-c3b1-4253-8f49-9d6097067e0f","ios":"levelo://app?vid=11047dbe-c3b1-4253-8f49-9d6097067e0f"},"vehicle_type_id":"4","last_reported":1739768971,"current_range_meters":18000,"station_id":"ce4bh192rcd13ifvqdc0","pricing_plan_id":"cebpf4jnsgd1na2vs0mg"},{"bike_id":"ec90772d-f71e-4fca-a945-9124afb4acb2","system_id":"levelo_inurba_marseille","lat":43.2835,"lon":5.38105,"is_reserved":false,"is_disabled":false,"rental_uris":{"android":"levelo://app?vid=ec90772d-f71e-4fca-a945-9124afb4acb2","ios":"levelo://app?vid=ec90772d-f71e-4fca-a945-9124afb4acb2"},"vehicle_type_id":"4","last_reported":1739768971,"current_range_meters":38800,"station_id":"ce4bh412rcd13ifvqdr0","pricing_plan_id":"cebpf4jnsgd1na2vs0mg"},{"bike_id":"fe0f12a8-8d62-4d79-b629-bda6901e6297","system_id":"levelo_inurba_marseille","lat":43.269448,"lon":5.402676,"is_reserved":false,"is_disabled":true,"rental_uris":{"android":"levelo://app?vid=fe0f12a8-8d62-4d79-b629-bda6901e6297","ios":"levelo://app?vid=fe0f12a8-8d62-4d79-b629-bda6901e6297"},"vehicle_type_id":"4","last_reported":1739768971,"current_range_meters":25200,"station_id":"cjm6bp8fraef2m0cb0m0","pricing_plan_id":"cebpf4jnsgd1na2vs0mg"},{"bike_id":"843b3a42-78de-480f-bf3e-15d3576a2187","system_id":"levelo_inurba_marseille","lat":43.29226,"lon":5.36059,"is_reserved":false,"is_disabled":false,"rental_uris":{"android":"levelo://app?vid=843b3a42-78de-480f-bf3e-15d3576a2187","ios":"levelo://app?vid=843b3a42-78de-480f-bf3e-15d3576a2187"},"vehicle_type_id":"4","last_reported":1739768971,"current_range_meters":30800,"station_id":"ce4bhbh2rcd13ifvqeqg","pricing_plan_id":"cebpf4jnsgd1na2vs0mg"},{"bike_id":"8e45c299-8b07-46a8-9f44-fc071ce5f65b","system_id":"levelo_inurba_marseille","lat":43.3189,"lon":5.40711,"is_reserved":false,"is_disabled":false,"rental_uris":{"android":"levelo://app?vid=8e45c299-8b07-46a8-9f44-fc071ce5f65b","ios":"levelo://app?vid=8e45c299-8b07-46a8-9f44-fc071ce5f65b"},"vehicle_type_id":"4","last_reported":1739768971,"current_range_meters":16400,"station_id":"ce4bhq12rcd13ifvqhig","pricing_plan_id":"cebpf4jnsgd1na2vs0mg"},{"bike_id":"69bce1c7-a56a-4d18-9a99-7b6ad5507c16","system_id":"levelo_inurba_marseille","lat":43.311389,"lon":5.384356,"is_reserved":false,"is_disabled":false,"rental_uris":{"android":"levelo://app?vid=69bce1c7-a56a-4d18-9a99-7b6ad5507c16","ios":"levelo://app?vid=69bce1c7-a56a-4d18-9a99-7b6ad5507c16"},"vehicle_type_id":"4","last_reported":1739768971,"current_range_meters":38400,"station_id":"","pricing_plan_id":"cebpf4jnsgd1na2vs0mg"},{"bike_id":"cfbe67cf-6420-4945-9471-2d464aa6fcd4","system_id":"levelo_inurba_marseille","lat":43.27792,"lon":5.39212,"is_reserved":false,"is_disabled":true,"rental_uris":{"android":"levelo://app?vid=cfbe67cf-6420-4945-9471-2d464aa6fcd4","ios":"levelo://app?vid=cfbe67cf-6420-4945-9471-2d464aa6fcd4"},"vehicle_type_id":"4","last_reported":1739768971,"current_range_meters":0,"station_id":"ce4bhjp2rcd13ifvqga0","pricing_plan_id":"cebpf4jnsgd1na2vs0mg"},{"bike_id":"82f93201-9ddb-4e09-abcb-9f6f41679371","system_id":"levelo_inurba_marseille","lat":43.24163,"lon":5.36398,"is_reserved":false,"is_disabled":false,"rental_uris":{"android":"levelo://app?vid=82f93201-9ddb-4e09-abcb-9f6f41679371","ios":"levelo://app?vid=82f93201-9ddb-4e09-abcb-9f6f41679371"},"vehicle_type_id":"4","last_reported":1739768971,"current_range_meters":6800,"station_id":"cpo36qri1sfpv3e86is0","pricing_plan_id":"cebpf4jnsgd1na2vs0mg"},{"bike_id":"2d1a0294-4315-4a6d-9042-006493c526cd","system_id":"levelo_inurba_marseille","lat":43.29279,"lon":5.40937,"is_reserved":false,"is_disabled":false,"rental_uris":{"android":"levelo://app?vid=2d1a0294-4315-4a6d-9042-006493c526cd","ios":"levelo://app?vid=2d1a0294-4315-4a6d-9042-006493c526cd"},"vehicle_type_id":"4","last_reported":1739768971,"current_range_meters":37600,"station_id":"ce4bh192rcd13ifvqdc0","pricing_plan_id":"cebpf4jnsgd1na2vs0mg"},{"bike_id":"cd76f060-9ff7-4128-9b85-4b888bb3387d","system_id":"levelo_inurba_marseille","lat":43.23186,"lon":5.39976,"is_reserved":false,"is_disabled":false,"rental_uris":{"android":"levelo://app?vid=cd76f060-9ff7-4128-9b85-4b888bb3387d","ios":"levelo://app?vid=cd76f060-9ff7-4128-9b85-4b888bb3387d"},"vehicle_type_id":"4","last_reported":1739768971,"current_range_meters":20800,"station_id":"ce4bhn12rcd13ifvqgqg","pricing_plan_id":"cebpf4jnsgd1na2vs0mg"},{"bike_id":"0299e813-6577-4f6e-94f5-05649a7703f9","system_id":"levelo_inurba_marseille","lat":43.29183,"lon":5.3932,"is_reserved":false,"is_disabled":false,"rental_uris":{"android":"levelo://app?vid=0299e813-6577-4f6e-94f5-05649a7703f9","ios":"levelo://app?vid=0299e813-6577-4f6e-94f5-05649a7703f9"},"vehicle_type_id":"4","last_reported":1739768971,"current_range_meters":34000,"station_id":"ce4bh192rcd13ifvqdd0","pricing_plan_id":"cebpf4jnsgd1na2vs0mg"},{"bike_id":"20563dde-456e-42c5-b37e-0895ce5d5374","system_id":"levelo_inurba_marseille","lat":43.28453,"lon":5.35884,"is_reserved":false,"is_disabled":false,"rental_uris":{"android":"levelo://app?vid=20563dde-456e-42c5-b37e-0895ce5d5374","ios":"levelo://app?vid=20563dde-456e-42c5-b37e-0895ce5d5374"},"vehicle_type_id":"4","last_reported":1739768971,"current_range_meters":33600,"station_id":"ce4bhah2rcd13ifvqei0","pricing_plan_id":"cebpf4jnsgd1na2vs0mg"},{"bike_id":"389acdec-53c2-4283-a699-aebb69e5a2f5","system_id":"levelo_inurba_marseille","lat":43.2669,"lon":5.38264,"is_reserved":false,"is_disabled":false,"rental_uris":{"android":"levelo://app?vid=389acdec-53c2-4283-a699-aebb69e5a2f5","ios":"levelo://app?vid=389acdec-53c2-4283-a699-aebb69e5a2f5"},"vehicle_type_id":"4","last_reported":1739768971,"current_range_meters":37600,"station_id":"ce4bhg92rcd13ifvqf90","pricing_plan_id":"cebpf4jnsgd1na2vs0mg"},{"bike_id":"df6d8aa0-2733-42df-862b-3044c73a51b9","system_id":"levelo_inurba_marseille","lat":43.284362,"lon":5.391901,"is_reserved":false,"is_disabled":false,"rental_uris":{"android":"levelo://app?vid=df6d8aa0-2733-42df-862b-3044c73a51b9","ios":"levelo://app?vid=df6d8aa0-2733-42df-862b-3044c73a51b9"},"vehicle_type_id":"4","last_reported":1739768971,"current_range_meters":38800,"station_id":"ce4bhoh2rcd13ifvqh5g","pricing_plan_id":"cebpf4jnsgd1na2vs0mg"},{"bike_id":"955e431e-805a-4f6d-b28a-9e11a8712b33","system_id":"levelo_inurba_marseille","lat":43.28559,"lon":5.39501,"is_reserved":false,"is_disabled":false,"rental_uris":{"android":"levelo://app?vid=955e431e-805a-4f6d-b28a-9e11a8712b33","ios":"levelo://app?vid=955e431e-805a-4f6d-b28a-9e11a8712b33"},"vehicle_type_id":"4","last_reported":1739768971,"current_range_meters":21600,"station_id":"ce4bh292rcd13ifvqdg0","pricing_plan_id":"cebpf4jnsgd1na2vs0mg"},{"bike_id":"b68f690d-d7fb-4496-83be-f7f7476c9224","system_id":"levelo_inurba_marseille","lat":43.28567,"lon":5.39502,"is_reserved":false,"is_disabled":false,"rental_uris":{"android":"levelo://app?vid=b68f690d-d7fb-4496-83be-f7f7476c9224","ios":"levelo://app?vid=b68f690d-d7fb-4496-83be-f7f7476c9224"},"vehicle_type_id":"4","last_reported":1739768971,"current_range_meters":16400,"station_id":"ce4bh292rcd13ifvqdg0","pricing_plan_id":"cebpf4jnsgd1na2vs0mg"},{"bike_id":"5427cb6d-8b60-4b0e-8eb3-08cab2be1723","system_id":"levelo_inurba_marseille","lat":43.30808,"lon":5.38134,"is_reserved":false,"is_disabled":false,"rental_uris":{"android":"levelo://app?vid=5427cb6d-8b60-4b0e-8eb3-08cab2be1723","ios":"levelo://app?vid=5427cb6d-8b60-4b0e-8eb3-08cab2be1723"},"vehicle_type_id":"4","last_reported":1739768971,"current_range_meters":36800,"station_id":"ce4bgt12rcd13ifvqce0","pricing_plan_id":"cebpf4jnsgd1na2vs0mg"},{"bike_id":"e48bf254-3a08-47c6-85cf-5c2067e662cb","system_id":"levelo_inurba_marseille","lat":43.30329,"lon":5.40426,"is_reserved":false,"is_disabled":false,"rental_uris":{"android":"levelo://app?vid=e48bf254-3a08-47c6-85cf-5c2067e662cb","ios":"levelo://app?vid=e48bf254-3a08-47c6-85cf-5c2067e662cb"},"vehicle_type_id":"4","last_reported":1739768971,"current_range_meters":30800,"station_id":"ce4bh012rcd13ifvqd10","pricing_plan_id":"cebpf4jnsgd1na2vs0mg"},{"bike_id":"cf40b946-cb4d-487d-9cf5-f4645e127a3d","system_id":"levelo_inurba_marseille","lat":43.28721,"lon":5.3794,"is_reserved":false,"is_disabled":false,"rental_uris":{"android":"levelo://app?vid=cf40b946-cb4d-487d-9cf5-f4645e127a3d","ios":"levelo://app?vid=cf40b946-cb4d-487d-9cf5-f4645e127a3d"},"vehicle_type_id":"4","last_reported":1739768971,"current_range_meters":38800,"station_id":"ce4bh9p2rcd13ifvqec0","pricing_plan_id":"cebpf4jnsgd1na2vs0mg"},{"bike_id":"7caf98b0-e00c-4906-886b-b6921de4b115","system_id":"levelo_inurba_marseille","lat":43.303167,"lon":5.368898,"is_reserved":false,"is_disabled":false,"rental_uris":{"android":"levelo://app?vid=7caf98b0-e00c-4906-886b-b6921de4b115","ios":"levelo://app?vid=7caf98b0-e00c-4906-886b-b6921de4b115"},"vehicle_type_id":"4","last_reported":1739768971,"current_range_meters":36800,"station_id":"ce4bgqh2rcd13ifvqc5g","pricing_plan_id":"cebpf4jnsgd1na2vs0mg"},{"bike_id":"da8f52c7-71b4-4511-8701-42c9a2f47ad3","system_id":"levelo_inurba_marseille","lat":43.28616,"lon":5.3511,"is_reserved":false,"is_disabled":false,"rental_uris":{"android":"levelo://app?vid=da8f52c7-71b4-4511-8701-42c9a2f47ad3","ios":"levelo://app?vid=da8f52c7-71b4-4511-8701-42c9a2f47ad3"},"vehicle_type_id":"4","last_reported":1739768971,"current_range_meters":38400,"station_id":"ce4bhch2rcd13ifvqeug","pricing_plan_id":"cebpf4jnsgd1na2vs0mg"},{"bike_id":"fdbcbbd1-9712-4f4c-bf7a-52f3765f94e5","system_id":"levelo_inurba_marseille","lat":43.251114,"lon":5.403251,"is_reserved":false,"is_disabled":false,"rental_uris":{"android":"levelo://app?vid=fdbcbbd1-9712-4f4c-bf7a-52f3765f94e5","ios":"levelo://app?vid=fdbcbbd1-9712-4f4c-bf7a-52f3765f94e5"},"vehicle_type_id":"4","last_reported":1739768971,"current_range_meters":31200,"station_id":"ce4bhlh2rcd13ifvqgig","pricing_plan_id":"cebpf4jnsgd1na2vs0mg"},{"bike_id":"66c2d9f4-633b-4a20-973c-7bd23021bb96","system_id":"levelo_inurba_marseille","lat":43.27561,"lon":5.38431,"is_reserved":false,"is_disabled":false,"rental_uris":{"android":"levelo://app?vid=66c2d9f4-633b-4a20-973c-7bd23021bb96","ios":"levelo://app?vid=66c2d9f4-633b-4a20-973c-7bd23021bb96"},"vehicle_type_id":"4","last_reported":1739768971,"current_range_meters":38800,"station_id":"ce4bhh92rcd13ifvqfi0","pricing_plan_id":"cebpf4jnsgd1na2vs0mg"},{"bike_id":"d511c3fa-d5f4-4a0f-91ee-268d02b5310f","system_id":"levelo_inurba_marseille","lat":43.28623,"lon":5.35098,"is_reserved":false,"is_disabled":true,"rental_uris":{"android":"levelo://app?vid=d511c3fa-d5f4-4a0f-91ee-268d02b5310f","ios":"levelo://app?vid=d511c3fa-d5f4-4a0f-91ee-268d02b5310f"},"vehicle_type_id":"4","last_reported":1739768971,"current_range_meters":12400,"station_id":"ce4bhch2rcd13ifvqeug","pricing_plan_id":"cebpf4jnsgd1na2vs0mg"},{"bike_id":"1688ff34-1aa5-4509-9163-944a0042ff0b","system_id":"levelo_inurba_marseille","lat":43.29195,"lon":5.39332,"is_reserved":false,"is_disabled":false,"rental_uris":{"android":"levelo://app?vid=1688ff34-1aa5-4509-9163-944a0042ff0b","ios":"levelo://app?vid=1688ff34-1aa5-4509-9163-944a0042ff0b"},"vehicle_type_id":"4","last_reported":1739768971,"current_range_meters":33600,"station_id":"ce4bh192rcd13ifvqdd0","pricing_plan_id":"cebpf4jnsgd1na2vs0mg"},{"bike_id":"08514722-0297-48c3-9166-3d53c105721b","system_id":"levelo_inurba_marseille","lat":43.30144,"lon":5.38787,"is_reserved":false,"is_disabled":false,"rental_uris":{"android":"levelo://app?vid=08514722-0297-48c3-9166-3d53c105721b","ios":"levelo://app?vid=08514722-0297-48c3-9166-3d53c105721b"},"vehicle_type_id":"4","last_reported":1739768971,"current_range_meters":38400,"station_id":"ce4bhoh2rcd13ifvqh6g","pricing_plan_id":"cebpf4jnsgd1na2vs0mg"},{"bike_id":"6404351c-177e-4a86-9411-60d75b91ef78","system_id":"levelo_inurba_marseille","lat":43.24809,"lon":5.37454,"is_reserved":false,"is_disabled":false,"rental_uris":{"android":"levelo://app?vid=6404351c-177e-4a86-9411-60d75b91ef78","ios":"levelo://app?vid=6404351c-177e-4a86-9411-60d75b91ef78"},"vehicle_type_id":"4","last_reported":1739768971,"current_range_meters":27600,"station_id":"ce4bhgh2rcd13ifvqfb0","pricing_plan_id":"cebpf4jnsgd1na2vs0mg"},{"bike_id":"f00620ae-2110-4dbd-a2e7-cd7bf13fe429","system_id":"levelo_inurba_marseille","lat":43.23227,"lon":5.39958,"is_reserved":false,"is_disabled":true,"rental_uris":{"android":"levelo://app?vid=f00620ae-2110-4dbd-a2e7-cd7bf13fe429","ios":"levelo://app?vid=f00620ae-2110-4dbd-a2e7-cd7bf13fe429"},"vehicle_type_id":"4","last_reported":1739768971,"current_range_meters":33600,"station_id":"ce4bhn12rcd13ifvqgqg","pricing_plan_id":"cebpf4jnsgd1na2vs0mg"},{"bike_id":"05df7975-71a5-4cd7-9732-f6e0ff429d46","system_id":"levelo_inurba_marseille","lat":43.295643,"lon":5.422935,"is_reserved":false,"is_disabled":false,"rental_uris":{"android":"levelo://app?vid=05df7975-71a5-4cd7-9732-f6e0ff429d46","ios":"levelo://app?vid=05df7975-71a5-4cd7-9732-f6e0ff429d46"},"vehicle_type_id":"4","last_reported":1739768971,"current_range_meters":24800,"station_id":"ce4bhph2rcd13ifvqhdg","pricing_plan_id":"cebpf4jnsgd1na2vs0mg"},{"bike_id":"f60b4d33-99e9-409b-a615-d7d2f5b7eea4","system_id":"levelo_inurba_marseille","lat":43.28975,"lon":5.37817,"is_reserved":false,"is_disabled":false,"rental_uris":{"android":"levelo://app?vid=f60b4d33-99e9-409b-a615-d7d2f5b7eea4","ios":"levelo://app?vid=f60b4d33-99e9-409b-a615-d7d2f5b7eea4"},"vehicle_type_id":"4","last_reported":1739768971,"current_range_meters":37600,"station_id":"ce4bh9p2rcd13ifvqed0","pricing_plan_id":"cebpf4jnsgd1na2vs0mg"},{"bike_id":"150e067c-6ba5-4203-9ddd-8c9062a09bff","system_id":"levelo_inurba_marseille","lat":43.27067,"lon":5.42265,"is_reserved":false,"is_disabled":false,"rental_uris":{"android":"levelo://app?vid=150e067c-6ba5-4203-9ddd-8c9062a09bff","ios":"levelo://app?vid=150e067c-6ba5-4203-9ddd-8c9062a09bff"},"vehicle_type_id":"4","last_reported":1739768971,"current_range_meters":38400,"station_id":"ce4bhk92rcd13ifvqgb0","pricing_plan_id":"cebpf4jnsgd1na2vs0mg"},{"bike_id":"ddf1d674-41d6-443f-b0f1-1da7df267862","system_id":"levelo_inurba_marseille","lat":43.23052,"lon":5.3549,"is_reserved":false,"is_disabled":false,"rental_uris":{"android":"levelo://app?vid=ddf1d674-41d6-443f-b0f1-1da7df267862","ios":"levelo://app?vid=ddf1d674-41d6-443f-b0f1-1da7df267862"},"vehicle_type_id":"4","last_reported":1739768971,"current_range_meters":11600,"station_id":"cpo3342slgdg3j2ifvpg","pricing_plan_id":"cebpf4jnsgd1na2vs0mg"},{"bike_id":"94729826-cfa5-4ed9-8abd-5e8e49cce84e","system_id":"levelo_inurba_marseille","lat":43.29076,"lon":5.43237,"is_reserved":false,"is_disabled":true,"rental_uris":{"android":"levelo://app?vid=94729826-cfa5-4ed9-8abd-5e8e49cce84e","ios":"levelo://app?vid=94729826-cfa5-4ed9-8abd-5e8e49cce84e"},"vehicle_type_id":"4","last_reported":1739768971,"current_range_meters":0,"station_id":"","pricing_plan_id":"cebpf4jnsgd1na2vs0mg"},{"bike_id":"59897d86-c0b3-4acb-bf89-133a9364e1f4","system_id":"levelo_inurba_marseille","lat":43.230504,"lon":5.354904,"is_reserved":false,"is_disabled":true,"rental_uris":{"android":"levelo://app?vid=59897d86-c0b3-4acb-bf89-133a9364e1f4","ios":"levelo://app?vid=59897d86-c0b3-4acb-bf89-133a9364e1f4"},"vehicle_type_id":"4","last_reported":1739768971,"current_range_meters":35200,"station_id":"cpo3342slgdg3j2ifvpg","pricing_plan_id":"cebpf4jnsgd1na2vs0mg"},{"bike_id":"158e0538-3174-458c-9aa6-ab3c59bb1737","system_id":"levelo_inurba_marseille","lat":43.30107,"lon":5.39068,"is_reserved":false,"is_disabled":false,"rental_uris":{"android":"levelo://app?vid=158e0538-3174-458c-9aa6-ab3c59bb1737","ios":"levelo://app?vid=158e0538-3174-458c-9aa6-ab3c59bb1737"},"vehicle_type_id":"4","last_reported":1739768971,"current_range_meters":12000,"station_id":"ce4bh192rcd13ifvqdb0","pricing_plan_id":"cebpf4jnsgd1na2vs0mg"},{"bike_id":"7b1749c5-20c6-4659-a8a9-418459d28ba6","system_id":"levelo_inurba_marseille","lat":43.26677,"lon":5.38274,"is_reserved":false,"is_disabled":false,"rental_uris":{"android":"levelo://app?vid=7b1749c5-20c6-4659-a8a9-418459d28ba6","ios":"levelo://app?vid=7b1749c5-20c6-4659-a8a9-418459d28ba6"},"vehicle_type_id":"4","last_reported":1739768971,"current_range_meters":38000,"station_id":"ce4bhg92rcd13ifvqf90","pricing_plan_id":"cebpf4jnsgd1na2vs0mg"},{"bike_id":"24512566-f39f-495a-8810-7dee6d7b0e30","system_id":"levelo_inurba_marseille","lat":43.287046,"lon":5.373976,"is_reserved":false,"is_disabled":false,"rental_uris":{"android":"levelo://app?vid=24512566-f39f-495a-8810-7dee6d7b0e30","ios":"levelo://app?vid=24512566-f39f-495a-8810-7dee6d7b0e30"},"vehicle_type_id":"4","last_reported":1739768971,"current_range_meters":38800,"station_id":"ce4bh3p2rcd13ifvqdq0","pricing_plan_id":"cebpf4jnsgd1na2vs0mg"},{"bike_id":"e6806870-1029-41fc-b091-11e346b78753","system_id":"levelo_inurba_marseille","lat":43.302967,"lon":5.368963,"is_reserved":false,"is_disabled":false,"rental_uris":{"android":"levelo://app?vid=e6806870-1029-41fc-b091-11e346b78753","ios":"levelo://app?vid=e6806870-1029-41fc-b091-11e346b78753"},"vehicle_type_id":"4","last_reported":1739768971,"current_range_meters":37600,"station_id":"ce4bgqh2rcd13ifvqc5g","pricing_plan_id":"cebpf4jnsgd1na2vs0mg"},{"bike_id":"65f5a522-7bea-46ad-9911-19f641546dec","system_id":"levelo_inurba_marseille","lat":43.29801,"lon":5.40395,"is_reserved":false,"is_disabled":false,"rental_uris":{"android":"levelo://app?vid=65f5a522-7bea-46ad-9911-19f641546dec","ios":"levelo://app?vid=65f5a522-7bea-46ad-9911-19f641546dec"},"vehicle_type_id":"4","last_reported":1739768971,"current_range_meters":38800,"station_id":"ce4bh112rcd13ifvqd90","pricing_plan_id":"cebpf4jnsgd1na2vs0mg"},{"bike_id":"fddf9633-377f-489e-9c7d-38f1665ca695","system_id":"levelo_inurba_marseille","lat":43.29602,"lon":5.38078,"is_reserved":false,"is_disabled":true,"rental_uris":{"android":"levelo://app?vid=fddf9633-377f-489e-9c7d-38f1665ca695","ios":"levelo://app?vid=fddf9633-377f-489e-9c7d-38f1665ca695"},"vehicle_type_id":"4","last_reported":1739768971,"current_range_meters":16000,"station_id":"ce4bgl12rcd13ifvqbo0","pricing_plan_id":"cebpf4jnsgd1na2vs0mg"},{"bike_id":"40c4421e-be80-49b9-9035-ec8bd05923a2","system_id":"levelo_inurba_marseille","lat":43.28837,"lon":5.39358,"is_reserved":false,"is_disabled":true,"rental_uris":{"android":"levelo://app?vid=40c4421e-be80-49b9-9035-ec8bd05923a2","ios":"levelo://app?vid=40c4421e-be80-49b9-9035-ec8bd05923a2"},"vehicle_type_id":"4","last_reported":1739768971,"current_range_meters":15200,"station_id":"ce4bh2p2rcd13ifvqdi0","pricing_plan_id":"cebpf4jnsgd1na2vs0mg"},{"bike_id":"4bc50c17-9aeb-4487-a054-afb81c6c63dc","system_id":"levelo_inurba_marseille","lat":43.27614,"lon":5.36095,"is_reserved":false,"is_disabled":true,"rental_uris":{"android":"levelo://app?vid=4bc50c17-9aeb-4487-a054-afb81c6c63dc","ios":"levelo://app?vid=4bc50c17-9aeb-4487-a054-afb81c6c63dc"},"vehicle_type_id":"4","last_reported":1739768971,"current_range_meters":25600,"station_id":"ce4bgj92rcd13ifvqbe0","pricing_plan_id":"cebpf4jnsgd1na2vs0mg"},{"bike_id":"728fc909-8dc4-47d5-b8e4-2435fc4572a3","system_id":"levelo_inurba_marseille","lat":43.28689,"lon":5.38659,"is_reserved":false,"is_disabled":false,"rental_uris":{"android":"levelo://app?vid=728fc909-8dc4-47d5-b8e4-2435fc4572a3","ios":"levelo://app?vid=728fc909-8dc4-47d5-b8e4-2435fc4572a3"},"vehicle_type_id":"4","last_reported":1739768971,"current_range_meters":32000,"station_id":"ce4bh492rcd13ifvqdug","pricing_plan_id":"cebpf4jnsgd1na2vs0mg"},{"bike_id":"2c8b8a41-5401-4b3a-be72-574e3bbf0407","system_id":"levelo_inurba_marseille","lat":43.31166,"lon":5.36704,"is_reserved":false,"is_disabled":false,"rental_uris":{"android":"levelo://app?vid=2c8b8a41-5401-4b3a-be72-574e3bbf0407","ios":"levelo://app?vid=2c8b8a41-5401-4b3a-be72-574e3bbf0407"},"vehicle_type_id":"4","last_reported":1739768971,"current_range_meters":28000,"station_id":"","pricing_plan_id":"cebpf4jnsgd1na2vs0mg"},{"bike_id":"04571007-c5d8-4797-9a27-0ef7f8e3a3d8","system_id":"levelo_inurba_marseille","lat":43.30421,"lon":5.397574,"is_reserved":false,"is_disabled":false,"rental_uris":{"android":"levelo://app?vid=04571007-c5d8-4797-9a27-0ef7f8e3a3d8","ios":"levelo://app?vid=04571007-c5d8-4797-9a27-0ef7f8e3a3d8"},"vehicle_type_id":"4","last_reported":1739768971,"current_range_meters":37600,"station_id":"ce4bh092rcd13ifvqd20","pricing_plan_id":"cebpf4jnsgd1na2vs0mg"},{"bike_id":"6724e70a-a600-4154-a228-f2c755dbbc45","system_id":"levelo_inurba_marseille","lat":43.286626,"lon":5.363543,"is_reserved":false,"is_disabled":false,"rental_uris":{"android":"levelo://app?vid=6724e70a-a600-4154-a228-f2c755dbbc45","ios":"levelo://app?vid=6724e70a-a600-4154-a228-f2c755dbbc45"},"vehicle_type_id":"4","last_reported":1739768971,"current_range_meters":39200,"station_id":"ce4bhah2rcd13ifvqej0","pricing_plan_id":"cebpf4jnsgd1na2vs0mg"},{"bike_id":"5e1db2e9-1fb7-4bc1-82ce-b23a1711971b","system_id":"levelo_inurba_marseille","lat":43.255799,"lon":5.382388,"is_reserved":false,"is_disabled":false,"rental_uris":{"android":"levelo://app?vid=5e1db2e9-1fb7-4bc1-82ce-b23a1711971b","ios":"levelo://app?vid=5e1db2e9-1fb7-4bc1-82ce-b23a1711971b"},"vehicle_type_id":"4","last_reported":1739768971,"current_range_meters":38800,"station_id":"ce4bhih2rcd13ifvqfs0","pricing_plan_id":"cebpf4jnsgd1na2vs0mg"},{"bike_id":"3625836a-8a03-4572-80d5-fadff11603e7","system_id":"levelo_inurba_marseille","lat":43.28016,"lon":5.36938,"is_reserved":false,"is_disabled":false,"rental_uris":{"android":"levelo://app?vid=3625836a-8a03-4572-80d5-fadff11603e7","ios":"levelo://app?vid=3625836a-8a03-4572-80d5-fadff11603e7"},"vehicle_type_id":"4","last_reported":1739768971,"current_range_meters":38800,"station_id":"ce4bha12rcd13ifvqef0","pricing_plan_id":"cebpf4jnsgd1na2vs0mg"},{"bike_id":"631eb297-680a-4bc7-ba9c-507c37eed32f","system_id":"levelo_inurba_marseille","lat":43.30868,"lon":5.39657,"is_reserved":false,"is_disabled":false,"rental_uris":{"android":"levelo://app?vid=631eb297-680a-4bc7-ba9c-507c37eed32f","ios":"levelo://app?vid=631eb297-680a-4bc7-ba9c-507c37eed32f"},"vehicle_type_id":"4","last_reported":1739768971,"current_range_meters":16400,"station_id":"ce4bh012rcd13ifvqcv0","pricing_plan_id":"cebpf4jnsgd1na2vs0mg"},{"bike_id":"b7675672-ea91-4212-a3c2-1e75ea117425","system_id":"levelo_inurba_marseille","lat":43.28169,"lon":5.42646,"is_reserved":false,"is_disabled":true,"rental_uris":{"android":"levelo://app?vid=b7675672-ea91-4212-a3c2-1e75ea117425","ios":"levelo://app?vid=b7675672-ea91-4212-a3c2-1e75ea117425"},"vehicle_type_id":"4","last_reported":1739768971,"current_range_meters":0,"station_id":"ce4bhnh2rcd13ifvqgug","pricing_plan_id":"cebpf4jnsgd1na2vs0mg"},{"bike_id":"e5b1a2c4-a73a-43ab-a984-e8a17fcbc00f","system_id":"levelo_inurba_marseille","lat":43.284141,"lon":5.375208,"is_reserved":false,"is_disabled":false,"rental_uris":{"android":"levelo://app?vid=e5b1a2c4-a73a-43ab-a984-e8a17fcbc00f","ios":"levelo://app?vid=e5b1a2c4-a73a-43ab-a984-e8a17fcbc00f"},"vehicle_type_id":"4","last_reported":1739768971,"current_range_meters":37600,"station_id":"ce4bh412rcd13ifvqds0","pricing_plan_id":"cebpf4jnsgd1na2vs0mg"},{"bike_id":"91e27922-e676-45ea-94da-baf83d9c520d","system_id":"levelo_inurba_marseille","lat":43.28046,"lon":5.36941,"is_reserved":false,"is_disabled":true,"rental_uris":{"android":"levelo://app?vid=91e27922-e676-45ea-94da-baf83d9c520d","ios":"levelo://app?vid=91e27922-e676-45ea-94da-baf83d9c520d"},"vehicle_type_id":"4","last_reported":1739768971,"current_range_meters":30800,"station_id":"ce4bha12rcd13ifvqef0","pricing_plan_id":"cebpf4jnsgd1na2vs0mg"},{"bike_id":"ebc1452e-2fce-4549-a88a-cc8ddc6bf08b","system_id":"levelo_inurba_marseille","lat":43.30102,"lon":5.39063,"is_reserved":false,"is_disabled":false,"rental_uris":{"android":"levelo://app?vid=ebc1452e-2fce-4549-a88a-cc8ddc6bf08b","ios":"levelo://app?vid=ebc1452e-2fce-4549-a88a-cc8ddc6bf08b"},"vehicle_type_id":"4","last_reported":1739768971,"current_range_meters":28400,"station_id":"ce4bh192rcd13ifvqdb0","pricing_plan_id":"cebpf4jnsgd1na2vs0mg"},{"bike_id":"b8d59589-c626-4928-a7da-716f4f630662","system_id":"levelo_inurba_marseille","lat":43.299739,"lon":5.371869,"is_reserved":false,"is_disabled":false,"rental_uris":{"android":"levelo://app?vid=b8d59589-c626-4928-a7da-716f4f630662","ios":"levelo://app?vid=b8d59589-c626-4928-a7da-716f4f630662"},"vehicle_type_id":"4","last_reported":1739768971,"current_range_meters":38400,"station_id":"ce4bgr92rcd13ifvqc7g","pricing_plan_id":"cebpf4jnsgd1na2vs0mg"},{"bike_id":"e4f088f9-e3e8-4f82-824b-eaedfe8505d4","system_id":"levelo_inurba_marseille","lat":43.26875,"lon":5.40371,"is_reserved":false,"is_disabled":true,"rental_uris":{"android":"levelo://app?vid=e4f088f9-e3e8-4f82-824b-eaedfe8505d4","ios":"levelo://app?vid=e4f088f9-e3e8-4f82-824b-eaedfe8505d4"},"vehicle_type_id":"4","last_reported":1739768971,"current_range_meters":27600,"station_id":"","pricing_plan_id":"cebpf4jnsgd1na2vs0mg"},{"bike_id":"25c06d87-f05a-433f-ad42-460938cc694b","system_id":"levelo_inurba_marseille","lat":43.283388,"lon":5.381153,"is_reserved":false,"is_disabled":false,"rental_uris":{"android":"levelo://app?vid=25c06d87-f05a-433f-ad42-460938cc694b","ios":"levelo://app?vid=25c06d87-f05a-433f-ad42-460938cc694b"},"vehicle_type_id":"4","last_reported":1739768971,"current_range_meters":36800,"station_id":"ce4bh412rcd13ifvqdr0","pricing_plan_id":"cebpf4jnsgd1na2vs0mg"},{"bike_id":"9bcc3779-160f-4f11-a908-15bc41b1ac43","system_id":"levelo_inurba_marseille","lat":43.27988,"lon":5.40006,"is_reserved":false,"is_disabled":true,"rental_uris":{"android":"levelo://app?vid=9bcc3779-160f-4f11-a908-15bc41b1ac43","ios":"levelo://app?vid=9bcc3779-160f-4f11-a908-15bc41b1ac43"},"vehicle_type_id":"4","last_reported":1739768971,"current_range_meters":400,"station_id":"ce4bho92rcd13ifvqh4g","pricing_plan_id":"cebpf4jnsgd1na2vs0mg"},{"bike_id":"3c64c24f-16f7-46ec-b068-15fe4ebda356","system_id":"levelo_inurba_marseille","lat":43.29493,"lon":5.36395,"is_reserved":false,"is_disabled":true,"rental_uris":{"android":"levelo://app?vid=3c64c24f-16f7-46ec-b068-15fe4ebda356","ios":"levelo://app?vid=3c64c24f-16f7-46ec-b068-15fe4ebda356"},"vehicle_type_id":"4","last_reported":1739768971,"current_range_meters":14400,"station_id":"","pricing_plan_id":"cebpf4jnsgd1na2vs0mg"},{"bike_id":"d5fb239f-f346-4cba-936a-cdcac2986de4","system_id":"levelo_inurba_marseille","lat":43.28356,"lon":5.38625,"is_reserved":false,"is_disabled":false,"rental_uris":{"android":"levelo://app?vid=d5fb239f-f346-4cba-936a-cdcac2986de4","ios":"levelo://app?vid=d5fb239f-f346-4cba-936a-cdcac2986de4"},"vehicle_type_id":"4","last_reported":1739768971,"current_range_meters":38800,"station_id":"ce4bh492rcd13ifvqdvg","pricing_plan_id":"cebpf4jnsgd1na2vs0mg"},{"bike_id":"7fa2f52d-aa55-4da7-8f6c-d8bd07556923","system_id":"levelo_inurba_marseille","lat":43.26197,"lon":5.3794,"is_reserved":false,"is_disabled":false,"rental_uris":{"android":"levelo://app?vid=7fa2f52d-aa55-4da7-8f6c-d8bd07556923","ios":"levelo://app?vid=7fa2f52d-aa55-4da7-8f6c-d8bd07556923"},"vehicle_type_id":"4","last_reported":1739768971,"current_range_meters":37600,"station_id":"ce4bhjp2rcd13ifvqg90","pricing_plan_id":"cebpf4jnsgd1na2vs0mg"},{"bike_id":"32c16816-bf22-45bf-bae6-15a3b36aa2ac","system_id":"levelo_inurba_marseille","lat":43.25716,"lon":5.41108,"is_reserved":false,"is_disabled":false,"rental_uris":{"android":"levelo://app?vid=32c16816-bf22-45bf-bae6-15a3b36aa2ac","ios":"levelo://app?vid=32c16816-bf22-45bf-bae6-15a3b36aa2ac"},"vehicle_type_id":"4","last_reported":1739768971,"current_range_meters":38800,"station_id":"ce4bhkp2rcd13ifvqgd0","pricing_plan_id":"cebpf4jnsgd1na2vs0mg"},{"bike_id":"0a8131f0-8aa1-442f-a102-dd6461b5c6ed","system_id":"levelo_inurba_marseille","lat":43.24175,"lon":5.39718,"is_reserved":false,"is_disabled":false,"rental_uris":{"android":"levelo://app?vid=0a8131f0-8aa1-442f-a102-dd6461b5c6ed","ios":"levelo://app?vid=0a8131f0-8aa1-442f-a102-dd6461b5c6ed"},"vehicle_type_id":"4","last_reported":1739768971,"current_range_meters":37600,"station_id":"ce4bhn12rcd13ifvqgpg","pricing_plan_id":"cebpf4jnsgd1na2vs0mg"},{"bike_id":"73bce4e6-9a0e-44ff-baeb-9bf51c390137","system_id":"levelo_inurba_marseille","lat":43.27335,"lon":5.39134,"is_reserved":false,"is_disabled":true,"rental_uris":{"android":"levelo://app?vid=73bce4e6-9a0e-44ff-baeb-9bf51c390137","ios":"levelo://app?vid=73bce4e6-9a0e-44ff-baeb-9bf51c390137"},"vehicle_type_id":"4","last_reported":1739768971,"current_range_meters":6400,"station_id":"ce4bhgp2rcd13ifvqfe0","pricing_plan_id":"cebpf4jnsgd1na2vs0mg"},{"bike_id":"453b5d03-74b1-4b80-b3f1-f8af80ba4690","system_id":"levelo_inurba_marseille","lat":43.24167,"lon":5.36395,"is_reserved":false,"is_disabled":false,"rental_uris":{"android":"levelo://app?vid=453b5d03-74b1-4b80-b3f1-f8af80ba4690","ios":"levelo://app?vid=453b5d03-74b1-4b80-b3f1-f8af80ba4690"},"vehicle_type_id":"4","last_reported":1739768971,"current_range_meters":9600,"station_id":"cpo36qri1sfpv3e86is0","pricing_plan_id":"cebpf4jnsgd1na2vs0mg"},