{"last_updated":1742080126,"ttl":60,"version":"2.2","data":{"bikes":[{"bike_id":"2a10b5ba-9b20-4811-9068-8e957ce2badb","system_id":"levelo_inurba_marseille","lat":43.29366,"lon":5.37864,"is_reserved":false,"is_disabled":false,"rental_uris":{"android":"levelo://app?vid=2a10b5ba-9b20-4811-9068-8e957ce2badb","ios":"levelo://app?vid=2a10b5ba-9b20-4811-9068-8e957ce2badb"},"vehicle_type_id":"4","last_reported":1742080126,"current_range_meters":2800,"station_id":"ce4bgjh2rcd13ifvqbf0","pricing_plan_id":"cebpf4jnsgd1na2vs0mg"},{"bike_id":"b5068f6b-8c9a-4a7e-85e2-83b19be9c574","system_id":"levelo_inurba_marseille","lat":43.28706,"lon":5.37946,"is_reserved":false,"is_disabled":true,"rental_uris":{"android":"levelo://app?vid=b5068f6b-8c9a-4a7e-85e2-83b19be9c574","ios":"levelo://app?vid=b5068f6b-8c9a-4a7e-85e2-83b19be9c574"},"vehicle_type_id":"4","last_reported":1742080126,"current_range_meters":2800,"station_id":"ce4bh9p2rcd13ifvqec0","pricing_plan_id":"cebpf4jnsgd1na2vs0mg"},{"bike_id":"ab71d525-29d7-4d1b-8050-ba0fa5580a0c","system_id":"levelo_inurba_marseille","lat":43.301438,"lon":5.38772,"is_reserved":false,"is_disabled":false,"rental_uris":{"android":"levelo://app?vid=ab71d525-29d7-4d1b-8050-ba0fa5580a0c","ios":"levelo://app?vid=ab71d525-29d7-4d1b-8050-ba0fa5580a0c"},"vehicle_type_id":"4","last_reported":1742080126,"current_range_meters":2000,"station_id":"ce4bgkh2rcd13ifvqbl0","pricing_plan_id":"cebpf4jnsgd1na2vs0mg"},{"bike_id":"8bef77bb-ba13-4ef3-9ecd-60244d695be5","system_id":"levelo_inurba_marseille","lat":43.29532,"lon":5.38556,"is_reserved":false,"is_disabled":false,"rental_uris":{"android":"levelo://app?vid=8bef77bb-ba13-4ef3-9ecd-60244d695be5","ios":"levelo://app?vid=8bef77bb-ba13-4ef3-9ecd-60244d695be5"},"vehicle_type_id":"4","last_reported":1742080126,"current_range_meters":2800,"station_id":"","pricing_plan_id":"cebpf4jnsgd1na2vs0mg"},{"bike_id":"36ec5a15-215b-4367-a3ca-336aadd9a251","system_id":"levelo_inurba_marseille","lat":43.33746,"lon":5.3745,"is_reserved":false,"is_disabled":false,"rental_uris":{"android":"levelo://app?vid=36ec5a15-215b-4367-a3ca-336aadd9a251","ios":"levelo://app?vid=36ec5a15-215b-4367-a3ca-336aadd9a251"},"vehicle_type_id":"4","last_reported":1742080126,"current_range_meters":2800,"station_id":"","pricing_plan_id":"cebpf4jnsgd1na2vs0mg"},{"bike_id":"97c7812e-f131-49f5-8d31-b806643d4c45","system_id":"levelo_inurba_marseille","lat":43.29803,"lon":5.40413,"is_reserved":false,"is_disabled":false,"rental_uris":{"android":"levelo://app?vid=97c7812e-f131-49f5-8d31-b806643d4c45","ios":"levelo://app?vid=97c7812e-f131-49f5-8d31-b806643d4c45"},"vehicle_type_id":"4","last_reported":1742080126,"current_range_meters":3200,"station_id":"ce4bh112rcd13ifvqd90","pricing_plan_id":"cebpf4jnsgd1na2vs0mg"},{"bike_id":"786ef635-dbda-48d6-8917-ee1b406daff3","system_id":"levelo_inurba_marseille","lat":43.31024,"lon":5.39587,"is_reserved":false,"is_disabled":false,"rental_uris":{"android":"levelo://app?vid=786ef635-dbda-48d6-8917-ee1b406daff3","ios":"levelo://app?vid=786ef635-dbda-48d6-8917-ee1b406daff3"},"vehicle_type_id":"4","last_reported":1742080126,"current_range_meters":3200,"station_id":"","pricing_plan_id":"cebpf4jnsgd1na2vs0mg"},{"bike_id":"feb86e22-daaf-432e-875a-a47a1a2a5886","system_id":"levelo_inurba_marseille","lat":43.27907,"lon":5.38017,"is_reserved":false,"is_disabled":false,"rental_uris":{"android":"levelo://app?vid=feb86e22-daaf-432e-875a-a47a1a2a5886","ios":"levelo://app?vid=feb86e22-daaf-432e-875a-a47a1a2a5886"},"vehicle_type_id":"4","last_reported":1742080126,"current_range_meters":2800,"station_id":"ce4bhf92rcd13ifvqf50","pricing_plan_id":"cebpf4jnsgd1na2vs0mg"},{"bike_id":"434546ab-c96f-4d91-aa6c-14d41b22df36","system_id":"levelo_inurba_marseille","lat":43.2903,"lon":5.38649,"is_reserved":false,"is_disabled":false,"rental_uris":{"android":"levelo://app?vid=434546ab-c96f-4d91-aa6c-14d41b22df36","ios":"levelo://app?vid=434546ab-c96f-4d91-aa6c-14d41b22df36"},"vehicle_type_id":"4","last_reported":1742080126,"current_range_meters":3200,"station_id":"ce4bh4p2rcd13ifvqe0g","pricing_plan_id":"cebpf4jnsgd1na2vs0mg"},{"bike_id":"a37a39b8-d133-4d35-adf5-e04aa88881b7","system_id":"levelo_inurba_marseille","lat":43.28443,"lon":5.39197,"is_reserved":false,"is_disabled":false,"rental_uris":{"android":"levelo://app?vid=a37a39b8-d133-4d35-adf5-e04aa88881b7","ios":"levelo://app?vid=a37a39b8-d133-4d35-adf5-e04aa88881b7"},"vehicle_type_id":"4","last_reported":1742080126,"current_range_meters":3200,"station_id":"ce4bhoh2rcd13ifvqh5g","pricing_plan_id":"cebpf4jnsgd1na2vs0mg"},{"bike_id":"340488f0-9988-427b-a9bc-7386c392af7a","system_id":"levelo_inurba_marseille","lat":43.25725,"lon":5.41114,"is_reserved":false,"is_disabled":false,"rental_uris":{"android":"levelo://app?vid=340488f0-9988-427b-a9bc-7386c392af7a","ios":"levelo://app?vid=340488f0-9988-427b-a9bc-7386c392af7a"},"vehicle_type_id":"4","last_reported":1742080126,"current_range_meters":3600,"station_id":"ce4bhkp2rcd13ifvqgd0","pricing_plan_id":"cebpf4jnsgd1na2vs0mg"},{"bike_id":"2ee4109c-140b-4baf-bb82-052eb9ae24c9","system_id":"levelo_inurba_marseille","lat":43.24066,"lon":5.37765,"is_reserved":false,"is_disabled":true,"rental_uris":{"android":"levelo://app?vid=2ee4109c-140b-4baf-bb82-052eb9ae24c9","ios":"levelo://app?vid=2ee4109c-140b-4baf-bb82-052eb9ae24c9"},"vehicle_type_id":"4","last_reported":1742080126,"current_range_meters":3600,"station_id":"ce4bhnp2rcd13ifvqgvg","pricing_plan_id":"cebpf4jnsgd1na2vs0mg"},{"bike_id":"1b1b8b7a-1bb1-4f65-a070-4a4cf74718ab","system_id":"levelo_inurba_marseille","lat":43.22927,"lon":5.35383,"is_reserved":false,"is_disabled":false,"rental_uris":{"android":"levelo://app?vid=1b1b8b7a-1bb1-4f65-a070-4a4cf74718ab","ios":"levelo://app?vid=1b1b8b7a-1bb1-4f65-a070-4a4cf74718ab"},"vehicle_type_id":"4","last_reported":1742080126,"current_range_meters":3600,"station_id":"cpo3532slgdg3j2ikp40","pricing_plan_id":"cebpf4jnsgd1na2vs0mg"},{"bike_id":"e849d648-4ecb-477c-b2d2-c44665e052e6","system_id":"levelo_inurba_marseille","lat":43.23972,"lon":5.36626,"is_reserved":false,"is_disabled":false,"rental_uris":{"android":"levelo://app?vid=e849d648-4ecb-477c-b2d2-c44665e052e6","ios":"levelo://app?vid=e849d648-4ecb-477c-b2d2-c44665e052e6"},"vehicle_type_id":"4","last_reported":1742080126,"current_range_meters":3600,"station_id":"ce4bhi12rcd13ifvqfp0","pricing_plan_id":"cebpf4jnsgd1na2vs0mg"},{"bike_id":"fa5894d7-1c98-4f78-8661-afc7d0ea5566","system_id":"levelo_inurba_marseille","lat":43.269358,"lon":5.402296,"is_reserved":false,"is_disabled":false,"rental_uris":{"android":"levelo://app?vid=fa5894d7-1c98-4f78-8661-afc7d0ea5566","ios":"levelo://app?vid=fa5894d7-1c98-4f78-8661-afc7d0ea5566"},"vehicle_type_id":"4","last_reported":1742080126,"current_range_meters":4000,"station_id":"cjm6bp8fraef2m0cb0m0","pricing_plan_id":"cebpf4jnsgd1na2vs0mg"},{"bike_id":"dcd435ce-b0f6-4a81-9070-9cefd39577e9","system_id":"levelo_inurba_marseille","lat":43.29864,"lon":5.38934,"is_reserved":false,"is_disabled":true,"rental_uris":{"android":"levelo://app?vid=dcd435ce-b0f6-4a81-9070-9cefd39577e9","ios":"levelo://app?vid=dcd435ce-b0f6-4a81-9070-9cefd39577e9"},"vehicle_type_id":"4","last_reported":1742080126,"current_range_meters":4000,"station_id":"ce4bh392rcd13ifvqdl0","pricing_plan_id":"cebpf4jnsgd1na2vs0mg"},{"bike_id":"96c95cc5-3655-4976-bd9e-8b622b598117","system_id":"levelo_inurba_marseille","lat":43.27995,"lon":5.41654,"is_reserved":false,"is_disabled":true,"rental_uris":{"android":"levelo://app?vid=96c95cc5-3655-4976-bd9e-8b622b598117","ios":"levelo://app?vid=96c95cc5-3655-4976-bd9e-8b622b598117"},"vehicle_type_id":"4","last_reported":1742080126,"current_range_meters":4000,"station_id":"ce4bho12rcd13ifvqh1g","pricing_plan_id":"cebpf4jnsgd1na2vs0mg"},{"bike_id":"98836e19-8221-42d1-946f-956561327618","system_id":"levelo_inurba_marseille","lat":43.27379,"lon":5.36245,"is_reserved":false,"is_disabled":true,"rental_uris":{"android":"levelo://app?vid=98836e19-8221-42d1-946f-956561327618","ios":"levelo://app?vid=98836e19-8221-42d1-946f-956561327618"},"vehicle_type_id":"4","last_reported":1742080126,"current_range_meters":4000,"station_id":"ce4bhbh2rcd13ifvqeo0","pricing_plan_id":"cebpf4jnsgd1na2vs0mg"},{"bike_id":"ef8fdc7d-b022-42f8-ba8a-51b7d507d9d6","system_id":"levelo_inurba_marseille","lat":43.29032,"lon":5.38661,"is_reserved":false,"is_disabled":false,"rental_uris":{"android":"levelo://app?vid=ef8fdc7d-b022-42f8-ba8a-51b7d507d9d6","ios":"levelo://app?vid=ef8fdc7d-b022-42f8-ba8a-51b7d507d9d6"},"vehicle_type_id":"4","last_reported":1742080126,"current_range_meters":4000,"station_id":"ce4bh4p2rcd13ifvqe0g","pricing_plan_id":"cebpf4jnsgd1na2vs0mg"},{"bike_id":"3e62e780-e2bd-40fd-9780-79a2e9c047fd","system_id":"levelo_inurba_marseille","lat":43.27921,"lon":5.39578,"is_reserved":false,"is_disabled":false,"rental_uris":{"android":"levelo://app?vid=3e62e780-e2bd-40fd-9780-79a2e9c047fd","ios":"levelo://app?vid=3e62e780-e2bd-40fd-9780-79a2e9c047fd"},"vehicle_type_id":"4","last_reported":1742080126,"current_range_meters":4000,"station_id":"ce4bhf92rcd13ifvqf40","pricing_plan_id":"cebpf4jnsgd1na2vs0mg"},{"bike_id":"b76967ef-432a-4b0a-a1aa-bc28216361bc","system_id":"levelo_inurba_marseille","lat":43.23189,"lon":5.39984,"is_reserved":false,"is_disabled":false,"rental_uris":{"android":"levelo://app?vid=b76967ef-432a-4b0a-a1aa-bc28216361bc","ios":"levelo://app?vid=b76967ef-432a-4b0a-a1aa-bc28216361bc"},"vehicle_type_id":"4","last_reported":1742080126,"current_range_meters":4400,"station_id":"ce4bhn12rcd13ifvqgqg","pricing_plan_id":"cebpf4jnsgd1na2vs0mg"},{"bike_id":"cd837146-099d-4dd8-a608-210b975f2736","system_id":"levelo_inurba_marseille","lat":43.28106,"lon":5.37844,"is_reserved":false,"is_disabled":false,"rental_uris":{"android":"levelo://app?vid=cd837146-099d-4dd8-a608-210b975f2736","ios":"levelo://app?vid=cd837146-099d-4dd8-a608-210b975f2736"},"vehicle_type_id":"4","last_reported":1742080126,"current_range_meters":4400,"station_id":"ce4bha12rcd13ifvqee0","pricing_plan_id":"cebpf4jnsgd1na2vs0mg"},{"bike_id":"70878635-7d5e-4918-a10e-cc6ce93bc4e3","system_id":"levelo_inurba_marseille","lat":43.28862,"lon":5.39331,"is_reserved":false,"is_disabled":false,"rental_uris":{"android":"levelo://app?vid=70878635-7d5e-4918-a10e-cc6ce93bc4e3","ios":"levelo://app?vid=70878635-7d5e-4918-a10e-cc6ce93bc4e3"},"vehicle_type_id":"4","last_reported":1742080126,"current_range_meters":4400,"station_id":"ce4bh2p2rcd13ifvqdi0","pricing_plan_id":"cebpf4jnsgd1na2vs0mg"},{"bike_id":"dfb1890d-a53d-42f7-a687-0bca1634d203","system_id":"levelo_inurba_marseille","lat":43.26979,"lon":5.386979,"is_reserved":false,"is_disabled":false,"rental_uris":{"android":"levelo://app?vid=dfb1890d-a53d-42f7-a687-0bca1634d203","ios":"levelo://app?vid=dfb1890d-a53d-42f7-a687-0bca1634d203"},"vehicle_type_id":"4","last_reported":1742080126,"current_range_meters":4400,"station_id":"","pricing_plan_id":"cebpf4jnsgd1na2vs0mg"},{"bike_id":"ba5b6ff3-d93a-4375-a494-4fb0c2fa64ad","system_id":"levelo_inurba_marseille","lat":43.32868,"lon":5.36686,"is_reserved":false,"is_disabled":false,"rental_uris":{"android":"levelo://app?vid=ba5b6ff3-d93a-4375-a494-4fb0c2fa64ad","ios":"levelo://app?vid=ba5b6ff3-d93a-4375-a494-4fb0c2fa64ad"},"vehicle_type_id":"4","last_reported":1742080126,"current_range_meters":4400,"station_id":"","pricing_plan_id":"cebpf4jnsgd1na2vs0mg"},{"bike_id":"b8dc8f59-88b2-4cec-b5bd-26e833ba9750","system_id":"levelo_inurba_marseille","lat":43.32487,"lon":5.36571,"is_reserved":false,"is_disabled":true,"rental_uris":{"android":"levelo://app?vid=b8dc8f59-88b2-4cec-b5bd-26e833ba9750","ios":"levelo://app?vid=b8dc8f59-88b2-4cec-b5bd-26e833ba9750"},"vehicle_type_id":"4","last_reported":1742080126,"current_range_meters":4400,"station_id":"ce4bhs12rcd13ifvqhvg","pricing_plan_id":"cebpf4jnsgd1na2vs0mg"},{"bike_id":"1216e7b7-a828-4372-9dc2-9af963f9d4ea","system_id":"levelo_inurba_marseille","lat":43.29708,"lon":5.36604,"is_reserved":false,"is_disabled":false,"rental_uris":{"android":"levelo://app?vid=1216e7b7-a828-4372-9dc2-9af963f9d4ea","ios":"levelo://app?vid=1216e7b7-a828-4372-9dc2-9af963f9d4ea"},"vehicle_type_id":"4","last_reported":1742080126,"current_range_meters":4800,"station_id":"ce4bgn12rcd13ifvqbt0","pricing_plan_id":"cebpf4jnsgd1na2vs0mg"},{"bike_id":"9df36ed3-dbc3-4622-8993-b6dab3cbeed9","system_id":"levelo_inurba_marseille","lat":43.2839,"lon":5.37525,"is_reserved":false,"is_disabled":false,"rental_uris":{"android":"levelo://app?vid=9df36ed3-dbc3-4622-8993-b6dab3cbeed9","ios":"levelo://app?vid=9df36ed3-dbc3-4622-8993-b6dab3cbeed9"},"vehicle_type_id":"4","last_reported":1742080126,"current_range_meters":4800,"station_id":"ce4bh412rcd13ifvqds0","pricing_plan_id":"cebpf4jnsgd1na2vs0mg"},{"bike_id":"9d5ec8b3-c7d4-4bbd-8510-b628f6123ba9","system_id":"levelo_inurba_marseille","lat":43.28711,"lon":5.37391,"is_reserved":false,"is_disabled":false,"rental_uris":{"android":"levelo://app?vid=9d5ec8b3-c7d4-4bbd-8510-b628f6123ba9","ios":"levelo://app?vid=9d5ec8b3-c7d4-4bbd-8510-b628f6123ba9"},"vehicle_type_id":"4","last_reported":1742080126,"current_range_meters":4800,"station_id":"ce4bh3p2rcd13ifvqdq0","pricing_plan_id":"cebpf4jnsgd1na2vs0mg"},{"bike_id":"acc8a5fd-4aa1-4c73-b5f9-9aaba35d40c4","system_id":"levelo_inurba_marseille","lat":43.30259,"lon":5.40085,"is_reserved":false,"is_disabled":false,"rental_uris":{"android":"levelo://app?vid=acc8a5fd-4aa1-4c73-b5f9-9aaba35d40c4","ios":"levelo://app?vid=acc8a5fd-4aa1-4c73-b5f9-9aaba35d40c4"},"vehicle_type_id":"4","last_reported":1742080126,"current_range_meters":4800,"station_id":"ce4bgvh2rcd13ifvqcs0","pricing_plan_id":"cebpf4jnsgd1na2vs0mg"},{"bike_id":"9e47f4dd-e296-4fc3-ba49-3cb504725941","system_id":"levelo_inurba_marseille","lat":43.27986,"lon":5.40056,"is_reserved":false,"is_disabled":false,"rental_uris":{"android":"levelo://app?vid=9e47f4dd-e296-4fc3-ba49-3cb504725941","ios":"levelo://app?vid=9e47f4dd-e296-4fc3-ba49-3cb504725941"},"vehicle_type_id":"4","last_reported":1742080126,"current_range_meters":4800,"station_id":"ce4bho92rcd13ifvqh4g","pricing_plan_id":"cebpf4jnsgd1na2vs0mg"},{"bike_id":"4a8cbdad-39fe-449b-840f-977d651b5c1c","system_id":"levelo_inurba_marseille","lat":43.30886,"lon":5.37181,"is_reserved":false,"is_disabled":false,"rental_uris":{"android":"levelo://app?vid=4a8cbdad-39fe-449b-840f-977d651b5c1c","ios":"levelo://app?vid=4a8cbdad-39fe-449b-840f-977d651b5c1c"},"vehicle_type_id":"4","last_reported":1742080126,"current_range_meters":5600,"station_id":"ce4bguh2rcd13ifvqckg","pricing_plan_id":"cebpf4jnsgd1na2vs0mg"},{"bike_id":"8bf1efda-8e0c-441d-afd2-862c6bda06bd","system_id":"levelo_inurba_marseille","lat":43.2465,"lon":5.38893,"is_reserved":false,"is_disabled":false,"rental_uris":{"android":"levelo://app?vid=8bf1efda-8e0c-441d-afd2-862c6bda06bd","ios":"levelo://app?vid=8bf1efda-8e0c-441d-afd2-862c6bda06bd"},"vehicle_type_id":"4","last_reported":1742080126,"current_range_meters":5600,"station_id":"ce4bhg12rcd13ifvqf60","pricing_plan_id":"cebpf4jnsgd1na2vs0mg"},{"bike_id":"f5d879b5-4e8a-4e91-bc2b-907eff703e2f","system_id":"levelo_inurba_marseille","lat":43.24636,"lon":5.38174,"is_reserved":false,"is_disabled":false,"rental_uris":{"android":"levelo://app?vid=f5d879b5-4e8a-4e91-bc2b-907eff703e2f","ios":"levelo://app?vid=f5d879b5-4e8a-4e91-bc2b-907eff703e2f"},"vehicle_type_id":"4","last_reported":1742080126,"current_range_meters":6000,"station_id":"ce4bhih2rcd13ifvqfr0","pricing_plan_id":"cebpf4jnsgd1na2vs0mg"},{"bike_id":"ee04f0d7-be84-4b6b-b77c-e161e113ebb7","system_id":"levelo_inurba_marseille","lat":43.231814,"lon":5.399916,"is_reserved":false,"is_disabled":false,"rental_uris":{"android":"levelo://app?vid=ee04f0d7-be84-4b6b-b77c-e161e113ebb7","ios":"levelo://app?vid=ee04f0d7-be84-4b6b-b77c-e161e113ebb7"},"vehicle_type_id":"4","last_reported":1742080126,"current_range_meters":6000,"station_id":"ce4bhn12rcd13ifvqgqg","pricing_plan_id":"cebpf4jnsgd1na2vs0mg"},{"bike_id":"6b43488e-49e7-4159-b7e7-54e154d8769f","system_id":"levelo_inurba_marseille","lat":43.23055,"lon":5.35495,"is_reserved":false,"is_disabled":false,"rental_uris":{"android":"levelo://app?vid=6b43488e-49e7-4159-b7e7-54e154d8769f","ios":"levelo://app?vid=6b43488e-49e7-4159-b7e7-54e154d8769f"},"vehicle_type_id":"4","last_reported":1742080126,"current_range_meters":6000,"station_id":"cpo3342slgdg3j2ifvpg","pricing_plan_id":"cebpf4jnsgd1na2vs0mg"},{"bike_id":"d6dc0d2a-774e-4719-aadb-172d44102923","system_id":"levelo_inurba_marseille","lat":43.31191,"lon":5.3873,"is_reserved":false,"is_disabled":false,"rental_uris":{"android":"levelo://app?vid=d6dc0d2a-774e-4719-aadb-172d44102923","ios":"levelo://app?vid=d6dc0d2a-774e-4719-aadb-172d44102923"},"vehicle_type_id":"4","last_reported":1742080126,"current_range_meters":6400,"station_id":"ce4bgv12rcd13ifvqcp0","pricing_plan_id":"cebpf4jnsgd1na2vs0mg"},{"bike_id":"48f968e9-2670-450c-9a50-b12a7ac1907f","system_id":"levelo_inurba_marseille","lat":43.25734,"lon":5.41109,"is_reserved":false,"is_disabled":false,"rental_uris":{"android":"levelo://app?vid=48f968e9-2670-450c-9a50-b12a7ac1907f","ios":"levelo://app?vid=48f968e9-2670-450c-9a50-b12a7ac1907f"},"vehicle_type_id":"4","last_reported":1742080126,"current_range_meters":6400,"station_id":"ce4bhkp2rcd13ifvqgd0","pricing_plan_id":"cebpf4jnsgd1na2vs0mg"},{"bike_id":"7db9235c-9c67-42de-9517-6ba12cc78925","system_id":"levelo_inurba_marseille","lat":43.2654,"lon":5.39026,"is_reserved":false,"is_disabled":false,"rental_uris":{"android":"levelo://app?vid=7db9235c-9c67-42de-9517-6ba12cc78925","ios":"levelo://app?vid=7db9235c-9c67-42de-9517-6ba12cc78925"},"vehicle_type_id":"4","last_reported":1742080126,"current_range_meters":6400,"station_id":"ce4bhe12rcd13ifvqf30","pricing_plan_id":"cebpf4jnsgd1na2vs0mg"},{"bike_id":"cc59e0d3-2a8f-430f-8e90-b5bfdef5e571","system_id":"levelo_inurba_marseille","lat":43.27417,"lon":5.39421,"is_reserved":false,"is_disabled":false,"rental_uris":{"android":"levelo://app?vid=cc59e0d3-2a8f-430f-8e90-b5bfdef5e571","ios":"levelo://app?vid=cc59e0d3-2a8f-430f-8e90-b5bfdef5e571"},"vehicle_type_id":"4","last_reported":1742080126,"current_range_meters":6400,"station_id":"ce4bhdp2rcd13ifvqf20","pricing_plan_id":"cebpf4jnsgd1na2vs0mg"},{"bike_id":"16223f35-fe5a-44f7-8761-e68f95e4aa70","system_id":"levelo_inurba_marseille","lat":43.27821,"lon":5.40701,"is_reserved":false,"is_disabled":false,"rental_uris":{"android":"levelo://app?vid=16223f35-fe5a-44f7-8761-e68f95e4aa70","ios":"levelo://app?vid=16223f35-fe5a-44f7-8761-e68f95e4aa70"},"vehicle_type_id":"4","last_reported":1742080126,"current_range_meters":6400,"station_id":"ce4bhnh2rcd13ifvqgtg","pricing_plan_id":"cebpf4jnsgd1na2vs0mg"},{"bike_id":"355fb77e-22da-4ed4-bab8-f395a5c5d15a","system_id":"levelo_inurba_marseille","lat":43.24661,"lon":5.38136,"is_reserved":false,"is_disabled":false,"rental_uris":{"android":"levelo://app?vid=355fb77e-22da-4ed4-bab8-f395a5c5d15a","ios":"levelo://app?vid=355fb77e-22da-4ed4-bab8-f395a5c5d15a"},"vehicle_type_id":"4","last_reported":1742080126,"current_range_meters":6400,"station_id":"ce4bhih2rcd13ifvqfr0","pricing_plan_id":"cebpf4jnsgd1na2vs0mg"},{"bike_id":"a8e67676-89ba-43e0-82dc-5ef4b0a5e328","system_id":"levelo_inurba_marseille","lat":43.31618,"lon":5.38627,"is_reserved":false,"is_disabled":false,"rental_uris":{"android":"levelo://app?vid=a8e67676-89ba-43e0-82dc-5ef4b0a5e328","ios":"levelo://app?vid=a8e67676-89ba-43e0-82dc-5ef4b0a5e328"},"vehicle_type_id":"4","last_reported":1742080126,"current_range_meters":6400,"station_id":"","pricing_plan_id":"cebpf4jnsgd1na2vs0mg"},{"bike_id":"74de91f1-bc73-41bf-a9d4-a1b7e9712b01","system_id":"levelo_inurba_marseille","lat":43.29784,"lon":5.38106,"is_reserved":false,"is_disabled":false,"rental_uris":{"android":"levelo://app?vid=74de91f1-bc73-41bf-a9d4-a1b7e9712b01","ios":"levelo://app?vid=74de91f1-bc73-41bf-a9d4-a1b7e9712b01"},"vehicle_type_id":"4","last_reported":1742080126,"current_range_meters":6400,"station_id":"ce4bgip2rcd13ifvqbb0","pricing_plan_id":"cebpf4jnsgd1na2vs0mg"},{"bike_id":"bd7fb638-a561-41df-90ca-f32685780427","system_id":"levelo_inurba_marseille","lat":43.22924,"lon":5.35378,"is_reserved":false,"is_disabled":false,"rental_uris":{"android":"levelo://app?vid=bd7fb638-a561-41df-90ca-f32685780427","ios":"levelo://app?vid=bd7fb638-a561-41df-90ca-f32685780427"},"vehicle_type_id":"4","last_reported":1742080126,"current_range_meters":6400,"station_id":"cpo3532slgdg3j2ikp40","pricing_plan_id":"cebpf4jnsgd1na2vs0mg"},{"bike_id":"2ec0f046-4e68-4150-a618-5c892d6b2cb5","system_id":"levelo_inurba_marseille","lat":43.2623,"lon":5.40438,"is_reserved":false,"is_disabled":false,"rental_uris":{"android":"levelo://app?vid=2ec0f046-4e68-4150-a618-5c892d6b2cb5","ios":"levelo://app?vid=2ec0f046-4e68-4150-a618-5c892d6b2cb5"},"vehicle_type_id":"4","last_reported":1742080126,"current_range_meters":6400,"station_id":"ce4bhmh2rcd13ifvqgmg","pricing_plan_id":"cebpf4jnsgd1na2vs0mg"},{"bike_id":"32e54212-bcb0-4c34-9b2b-debf9a0c5310","system_id":"levelo_inurba_marseille","lat":43.29518,"lon":5.39057,"is_reserved":false,"is_disabled":false,"rental_uris":{"android":"levelo://app?vid=32e54212-bcb0-4c34-9b2b-debf9a0c5310","ios":"levelo://app?vid=32e54212-bcb0-4c34-9b2b-debf9a0c5310"},"vehicle_type_id":"4","last_reported":1742080126,"current_range_meters":6800,"station_id":"ce4bh3p2rcd13ifvqdp0","pricing_plan_id":"cebpf4jnsgd1na2vs0mg"},{"bike_id":"8a5bd971-61c1-4475-933b-dffdb284dd01","system_id":"levelo_inurba_marseille","lat":43.25007,"lon":5.3893,"is_reserved":false,"is_disabled":false,"rental_uris":{"android":"levelo://app?vid=8a5bd971-61c1-4475-933b-dffdb284dd01","ios":"levelo://app?vid=8a5bd971-61c1-4475-933b-dffdb284dd01"},"vehicle_type_id":"4","last_reported":1742080126,"current_range_meters":6800,"station_id":"ce4bhgp2rcd13ifvqfd0","pricing_plan_id":"cebpf4jnsgd1na2vs0mg"},{"bike_id":"cc8bcdff-ff17-4042-8d20-1db8182995c3","system_id":"levelo_inurba_marseille","lat":43.28442,"lon":5.359,"is_reserved":false,"is_disabled":false,"rental_uris":{"android":"levelo://app?vid=cc8bcdff-ff17-4042-8d20-1db8182995c3","ios":"levelo://app?vid=cc8bcdff-ff17-4042-8d20-1db8182995c3"},"vehicle_type_id":"4","last_reported":1742080126,"current_range_meters":6800,"station_id":"ce4bhah2rcd13ifvqei0","pricing_plan_id":"cebpf4jnsgd1na2vs0mg"},{"bike_id":"88c2ec9c-c2ee-474d-a6aa-dbb7a53fc0ca","system_id":"levelo_inurba_marseille","lat":43.24169,"lon":5.39737,"is_reserved":false,"is_disabled":true,"rental_uris":{"android":"levelo://app?vid=88c2ec9c-c2ee-474d-a6aa-dbb7a53fc0ca","ios":"levelo://app?vid=88c2ec9c-c2ee-474d-a6aa-dbb7a53fc0ca"},"vehicle_type_id":"4","last_reported":1742080126,"current_range_meters":6800,"station_id":"ce4bhn12rcd13ifvqgpg","pricing_plan_id":"cebpf4jnsgd1na2vs0mg"},{"bike_id":"5f302834-47d4-401d-a4b4-804921831d5f","system_id":"levelo_inurba_marseille","lat":43.27822,"lon":5.40698,"is_reserved":false,"is_disabled":false,"rental_uris":{"android":"levelo://app?vid=5f302834-47d4-401d-a4b4-804921831d5f","ios":"levelo://app?vid=5f302834-47d4-401d-a4b4-804921831d5f"},"vehicle_type_id":"4","last_reported":1742080126,"current_range_meters":6800,"station_id":"ce4bhnh2rcd13ifvqgtg","pricing_plan_id":"cebpf4jnsgd1na2vs0mg"},{"bike_id":"0effbbb8-a931-404a-a47c-69bda0c677cc","system_id":"levelo_inurba_marseille","lat":43.22936,"lon":5.35363,"is_reserved":false,"is_disabled":false,"rental_uris":{"android":"levelo://app?vid=0effbbb8-a931-404a-a47c-69bda0c677cc","ios":"levelo://app?vid=0effbbb8-a931-404a-a47c-69bda0c677cc"},"vehicle_type_id":"4","last_reported":1742080126,"current_range_meters":6800,"station_id":"cpo3532slgdg3j2ikp40","pricing_plan_id":"cebpf4jnsgd1na2vs0mg"},{"bike_id":"ef0420cd-62d9-46e6-bc23-a8b7c01978bb","system_id":"levelo_inurba_marseille","lat":43.29763,"lon":5.38132,"is_reserved":false,"is_disabled":true,"rental_uris":{"android":"levelo://app?vid=ef0420cd-62d9-46e6-bc23-a8b7c01978bb","ios":"levelo://app?vid=ef0420cd-62d9-46e6-bc23-a8b7c01978bb"},"vehicle_type_id":"4","last_reported":1742080126,"current_range_meters":6800,"station_id":"ce4bgip2rcd13ifvqbb0","pricing_plan_id":"cebpf4jnsgd1na2vs0mg"},{"bike_id":"38997e69-8de0-4cb4-afa5-15356cdcbafe","system_id":"levelo_inurba_marseille","lat":43.28462,"lon":5.35899,"is_reserved":false,"is_disabled":true,"rental_uris":{"android":"levelo://app?vid=38997e69-8de0-4cb4-afa5-15356cdcbafe","ios":"levelo://app?vid=38997e69-8de0-4cb4-afa5-15356cdcbafe"},"vehicle_type_id":"4","last_reported":1742080126,"current_range_meters":7200,"station_id":"ce4bhah2rcd13ifvqei0","pricing_plan_id":"cebpf4jnsgd1na2vs0mg"},{"bike_id":"f656dbe9-43b9-4011-8816-c31f4a2d1360","system_id":"levelo_inurba_marseille","lat":43.29621,"lon":5.37164,"is_reserved":false,"is_disabled":false,"rental_uris":{"android":"levelo://app?vid=f656dbe9-43b9-4011-8816-c31f4a2d1360","ios":"levelo://app?vid=f656dbe9-43b9-4011-8816-c31f4a2d1360"},"vehicle_type_id":"4","last_reported":1742080126,"current_range_meters":7200,"station_id":"ce4bgnh2rcd13ifvqc0g","pricing_plan_id":"cebpf4jnsgd1na2vs0mg"},{"bike_id":"1fc6db1a-67db-4819-bbb5-5131aba891d4","system_id":"levelo_inurba_marseille","lat":43.28454,"lon":5.35882,"is_reserved":false,"is_disabled":false,"rental_uris":{"android":"levelo://app?vid=1fc6db1a-67db-4819-bbb5-5131aba891d4","ios":"levelo://app?vid=1fc6db1a-67db-4819-bbb5-5131aba891d4"},"vehicle_type_id":"4","last_reported":1742080126,"current_range_meters":7200,"station_id":"ce4bhah2rcd13ifvqei0","pricing_plan_id":"cebpf4jnsgd1na2vs0mg"},{"bike_id":"745536dc-c7aa-4813-9f2d-a3c042de011d","system_id":"levelo_inurba_marseille","lat":43.29493,"lon":5.39405,"is_reserved":false,"is_disabled":false,"rental_uris":{"android":"levelo://app?vid=745536dc-c7aa-4813-9f2d-a3c042de011d","ios":"levelo://app?vid=745536dc-c7aa-4813-9f2d-a3c042de011d"},"vehicle_type_id":"4","last_reported":1742080126,"current_range_meters":7200,"station_id":"ce4bh292rcd13ifvqdf0","pricing_plan_id":"cebpf4jnsgd1na2vs0mg"},{"bike_id":"b1040b15-016c-4221-a64e-9af3f91c01c2","system_id":"levelo_inurba_marseille","lat":43.29246,"lon":5.40179,"is_reserved":false,"is_disabled":false,"rental_uris":{"android":"levelo://app?vid=b1040b15-016c-4221-a64e-9af3f91c01c2","ios":"levelo://app?vid=b1040b15-016c-4221-a64e-9af3f91c01c2"},"vehicle_type_id":"4","last_reported":1742080126,"current_range_meters":7200,"station_id":"","pricing_plan_id":"cebpf4jnsgd1na2vs0mg"},{"bike_id":"c250ca7e-9591-4954-ad7d-ac4cc9a91fd1","system_id":"levelo_inurba_marseille","lat":43.30141,"lon":5.39865,"is_reserved":false,"is_disabled":false,"rental_uris":{"android":"levelo://app?vid=c250ca7e-9591-4954-ad7d-ac4cc9a91fd1","ios":"levelo://app?vid=c250ca7e-9591-4954-ad7d-ac4cc9a91fd1"},"vehicle_type_id":"4","last_reported":1742080126,"current_range_meters":7200,"station_id":"ce4bh0h2rcd13ifvqd40","pricing_plan_id":"cebpf4jnsgd1na2vs0mg"},{"bike_id":"44b961f5-0abd-42a2-8a84-c383b60b2449","system_id":"levelo_inurba_marseille","lat":43.25113,"lon":5.40324,"is_reserved":false,"is_disabled":false,"rental_uris":{"android":"levelo://app?vid=44b961f5-0abd-42a2-8a84-c383b60b2449","ios":"levelo://app?vid=44b961f5-0abd-42a2-8a84-c383b60b2449"},"vehicle_type_id":"4","last_reported":1742080126,"current_range_meters":7200,"station_id":"ce4bhlh2rcd13ifvqgig","pricing_plan_id":"cebpf4jnsgd1na2vs0mg"},{"bike_id":"a75b9f2f-f1c1-4b6d-ac8f-577368a4e69b","system_id":"levelo_inurba_marseille","lat":43.26908,"lon":5.40242,"is_reserved":false,"is_disabled":false,"rental_uris":{"android":"levelo://app?vid=a75b9f2f-f1c1-4b6d-ac8f-577368a4e69b","ios":"levelo://app?vid=a75b9f2f-f1c1-4b6d-ac8f-577368a4e69b"},"vehicle_type_id":"4","last_reported":1742080126,"current_range_meters":8000,"station_id":"cjm6bp8fraef2m0cb0m0","pricing_plan_id":"cebpf4jnsgd1na2vs0mg"},{"bike_id":"ae101444-9461-4e76-a90e-2e5eacdcafbc","system_id":"levelo_inurba_marseille","lat":43.27998,"lon":5.38738,"is_reserved":false,"is_disabled":true,"rental_uris":{"android":"levelo://app?vid=ae101444-9461-4e76-a90e-2e5eacdcafbc","ios":"levelo://app?vid=ae101444-9461-4e76-a90e-2e5eacdcafbc"},"vehicle_type_id":"4","last_reported":1742080126,"current_range_meters":8000,"station_id":"ce4bhg12rcd13ifvqf80","pricing_plan_id":"cebpf4jnsgd1na2vs0mg"},{"bike_id":"11877a08-1209-410f-8a57-ef814c57a390","system_id":"levelo_inurba_marseille","lat":43.24167,"lon":5.36406,"is_reserved":false,"is_disabled":false,"rental_uris":{"android":"levelo://app?vid=11877a08-1209-410f-8a57-ef814c57a390","ios":"levelo://app?vid=11877a08-1209-410f-8a57-ef814c57a390"},"vehicle_type_id":"4","last_reported":1742080126,"current_range_meters":8000,"station_id":"cpo36qri1sfpv3e86is0","pricing_plan_id":"cebpf4jnsgd1na2vs0mg"},{"bike_id":"385ae15c-2c3c-4490-a507-5eb20fb883a5","system_id":"levelo_inurba_marseille","lat":43.25903,"lon":5.40931,"is_reserved":false,"is_disabled":false,"rental_uris":{"android":"levelo://app?vid=385ae15c-2c3c-4490-a507-5eb20fb883a5","ios":"levelo://app?vid=385ae15c-2c3c-4490-a507-5eb20fb883a5"},"vehicle_type_id":"4","last_reported":1742080126,"current_range_meters":8000,"station_id":"ce4bhm92rcd13ifvqglg","pricing_plan_id":"cebpf4jnsgd1na2vs0mg"},{"bike_id":"832d4ee6-23fb-4c75-9bc5-6a2d919c8c55","system_id":"levelo_inurba_marseille","lat":43.2594,"lon":5.40902,"is_reserved":false,"is_disabled":false,"rental_uris":{"android":"levelo://app?vid=832d4ee6-23fb-4c75-9bc5-6a2d919c8c55","ios":"levelo://app?vid=832d4ee6-23fb-4c75-9bc5-6a2d919c8c55"},"vehicle_type_id":"4","last_reported":1742080126,"current_range_meters":8000,"station_id":"ce4bhm92rcd13ifvqglg","pricing_plan_id":"cebpf4jnsgd1na2vs0mg"},{"bike_id":"f549bbd3-fd56-4c41-82be-0aa899064f97","system_id":"levelo_inurba_marseille","lat":43.3111,"lon":5.37764,"is_reserved":false,"is_disabled":false,"rental_uris":{"android":"levelo://app?vid=f549bbd3-fd56-4c41-82be-0aa899064f97","ios":"levelo://app?vid=f549bbd3-fd56-4c41-82be-0aa899064f97"},"vehicle_type_id":"4","last_reported":1742080126,"current_range_meters":8000,"station_id":"ce4bgt92rcd13ifvqcg0","pricing_plan_id":"cebpf4jnsgd1na2vs0mg"},{"bike_id":"1ac0ebad-6828-4242-99b2-14a9f8209f79","system_id":"levelo_inurba_marseille","lat":43.23202,"lon":5.35552,"is_reserved":false,"is_disabled":false,"rental_uris":{"android":"levelo://app?vid=1ac0ebad-6828-4242-99b2-14a9f8209f79","ios":"levelo://app?vid=1ac0ebad-6828-4242-99b2-14a9f8209f79"},"vehicle_type_id":"4","last_reported":1742080126,"current_range_meters":8400,"station_id":"ce4bhu92rcd13ifvqi70","pricing_plan_id":"cebpf4jnsgd1na2vs0mg"},{"bike_id":"2cdf3b18-0a82-4018-b15a-9fa6067e63d4","system_id":"levelo_inurba_marseille","lat":43.28932,"lon":5.36649,"is_reserved":false,"is_disabled":false,"rental_uris":{"android":"levelo://app?vid=2cdf3b18-0a82-4018-b15a-9fa6067e63d4","ios":"levelo://app?vid=2cdf3b18-0a82-4018-b15a-9fa6067e63d4"},"vehicle_type_id":"4","last_reported":1742080126,"current_range_meters":8400,"station_id":"ce4bhap2rcd13ifvqek0","pricing_plan_id":"cebpf4jnsgd1na2vs0mg"},{"bike_id":"a51e83ee-53b4-4965-b5bb-694ae883e860","system_id":"levelo_inurba_marseille","lat":43.26226,"lon":5.37448,"is_reserved":false,"is_disabled":true,"rental_uris":{"android":"levelo://app?vid=a51e83ee-53b4-4965-b5bb-694ae883e860","ios":"levelo://app?vid=a51e83ee-53b4-4965-b5bb-694ae883e860"},"vehicle_type_id":"4","last_reported":1742080126,"current_range_meters":8400,"station_id":"","pricing_plan_id":"cebpf4jnsgd1na2vs0mg"},{"bike_id":"aa795381-5174-4265-abe3-ddbff84516c8","system_id":"levelo_inurba_marseille","lat":43.30144,"lon":5.37397,"is_reserved":false,"is_disabled":true,"rental_uris":{"android":"levelo://app?vid=aa795381-5174-4265-abe3-ddbff84516c8","ios":"levelo://app?vid=aa795381-5174-4265-abe3-ddbff84516c8"},"vehicle_type_id":"4","last_reported":1742080126,"current_range_meters":8400,"station_id":"ce4bgs92rcd13ifvqcc0","pricing_plan_id":"cebpf4jnsgd1na2vs0mg"},{"bike_id":"fce291b7-ea10-4d8e-ada9-0a02184bf6fd","system_id":"levelo_inurba_marseille","lat":43.25089,"lon":5.39528,"is_reserved":false,"is_disabled":false,"rental_uris":{"android":"levelo://app?vid=fce291b7-ea10-4d8e-ada9-0a02184bf6fd","ios":"levelo://app?vid=fce291b7-ea10-4d8e-ada9-0a02184bf6fd"},"vehicle_type_id":"4","last_reported":1742080126,"current_range_meters":8400,"station_id":"ce4bhm12rcd13ifvqgkg","pricing_plan_id":"cebpf4jnsgd1na2vs0mg"},{"bike_id":"12e766b3-219e-4309-b07b-a974bbc8ac2c","system_id":"levelo_inurba_marseille","lat":43.31073,"lon":5.38354,"is_reserved":false,"is_disabled":false,"rental_uris":{"android":"levelo://app?vid=12e766b3-219e-4309-b07b-a974bbc8ac2c","ios":"levelo://app?vid=12e766b3-219e-4309-b07b-a974bbc8ac2c"},"vehicle_type_id":"4","last_reported":1742080126,"current_range_meters":8400,"station_id":"ce4bgv92rcd13ifvqcr0","pricing_plan_id":"cebpf4jnsgd1na2vs0mg"},{"bike_id":"44d79f58-cca2-4705-bda9-631a6081b387","system_id":"levelo_inurba_marseille","lat":43.2926,"lon":5.38441,"is_reserved":false,"is_disabled":false,"rental_uris":{"android":"levelo://app?vid=44d79f58-cca2-4705-bda9-631a6081b387","ios":"levelo://app?vid=44d79f58-cca2-4705-bda9-631a6081b387"},"vehicle_type_id":"4","last_reported":1742080126,"current_range_meters":8400,"station_id":"","pricing_plan_id":"cebpf4jnsgd1na2vs0mg"},{"bike_id":"99388530-3199-4a9b-85e9-15b56e29535b","system_id":"levelo_inurba_marseille","lat":43.31305,"lon":5.37296,"is_reserved":false,"is_disabled":false,"rental_uris":{"android":"levelo://app?vid=99388530-3199-4a9b-85e9-15b56e29535b","ios":"levelo://app?vid=99388530-3199-4a9b-85e9-15b56e29535b"},"vehicle_type_id":"4","last_reported":1742080126,"current_range_meters":8400,"station_id":"","pricing_plan_id":"cebpf4jnsgd1na2vs0mg"},{"bike_id":"2ada218c-4e3e-433b-a33e-91e0fed6090b","system_id":"levelo_inurba_marseille","lat":43.29462,"lon":5.39774,"is_reserved":false,"is_disabled":true,"rental_uris":{"android":"levelo://app?vid=2ada218c-4e3e-433b-a33e-91e0fed6090b","ios":"levelo://app?vid=2ada218c-4e3e-433b-a33e-91e0fed6090b"},"vehicle_type_id":"4","last_reported":1742080126,"current_range_meters":8400,"station_id":"ce4bh3h2rcd13ifvqdo0","pricing_plan_id":"cebpf4jnsgd1na2vs0mg"},{"bike_id":"1999cecf-f38c-4961-9580-ef6a50d3e0be","system_id":"levelo_inurba_marseille","lat":43.24162,"lon":5.36396,"is_reserved":false,"is_disabled":false,"rental_uris":{"android":"levelo://app?vid=1999cecf-f38c-4961-9580-ef6a50d3e0be","ios":"levelo://app?vid=1999cecf-f38c-4961-9580-ef6a50d3e0be"},"vehicle_type_id":"4","last_reported":1742080126,"current_range_meters":8400,"station_id":"cpo36qri1sfpv3e86is0","pricing_plan_id":"cebpf4jnsgd1na2vs0mg"},{"bike_id":"e0834956-e6d7-4bc3-862d-e76e3f887cbb","system_id":"levelo_inurba_marseille","lat":43.23084,"lon":5.35549,"is_reserved":false,"is_disabled":false,"rental_uris":{"android":"levelo://app?vid=e0834956-e6d7-4bc3-862d-e76e3f887cbb","ios":"levelo://app?vid=e0834956-e6d7-4bc3-862d-e76e3f887cbb"},"vehicle_type_id":"4","last_reported":1742080126,"current_range_meters":8400,"station_id":"cpo3342slgdg3j2ifvpg","pricing_plan_id":"cebpf4jnsgd1na2vs0mg"},{"bike_id":"92bd2e8f-197b-47ad-8530-ee4394b2ecce","system_id":"levelo_inurba_marseille","lat":43.24168,"lon":5.36404,"is_reserved":false,"is_disabled":false,"rental_uris":{"android":"levelo://app?vid=92bd2e8f-197b-47ad-8530-ee4394b2ecce","ios":"levelo://app?vid=92bd2e8f-197b-47ad-8530-ee4394b2ecce"},"vehicle_type_id":"4","last_reported":1742080126,"current_range_meters":8400,"station_id":"cpo36qri1sfpv3e86is0","pricing_plan_id":"cebpf4jnsgd1na2vs0mg"},{"bike_id":"4a1bbf96-65e1-4a39-ace7-b5a98c8befe0","system_id":"levelo_inurba_marseille","lat":43.29973,"lon":5.38476,"is_reserved":false,"is_disabled":false,"rental_uris":{"android":"levelo://app?vid=4a1bbf96-65e1-4a39-ace7-b5a98c8befe0","ios":"levelo://app?vid=4a1bbf96-65e1-4a39-ace7-b5a98c8befe0"},"vehicle_type_id":"4","last_reported":1742080126,"current_range_meters":8400,"station_id":"ce4bgj92rcd13ifvqbd0","pricing_plan_id":"cebpf4jnsgd1na2vs0mg"},{"bike_id":"c463c36e-4abc-4da4-8d63-335a1ac7a277","system_id":"levelo_inurba_marseille","lat":43.30655,"lon":5.40076,"is_reserved":false,"is_disabled":false,"rental_uris":{"android":"levelo://app?vid=c463c36e-4abc-4da4-8d63-335a1ac7a277","ios":"levelo://app?vid=c463c36e-4abc-4da4-8d63-335a1ac7a277"},"vehicle_type_id":"4","last_reported":1742080126,"current_range_meters":8400,"station_id":"ce4bh112rcd13ifvqda0","pricing_plan_id":"cebpf4jnsgd1na2vs0mg"},{"bike_id":"817b2149-be97-4856-9b2e-b7074d1fc766","system_id":"levelo_inurba_marseille","lat":43.29517,"lon":5.39034,"is_reserved":false,"is_disabled":false,"rental_uris":{"android":"levelo://app?vid=817b2149-be97-4856-9b2e-b7074d1fc766","ios":"levelo://app?vid=817b2149-be97-4856-9b2e-b7074d1fc766"},"vehicle_type_id":"4","last_reported":1742080126,"current_range_meters":8400,"station_id":"ce4bh3p2rcd13ifvqdp0","pricing_plan_id":"cebpf4jnsgd1na2vs0mg"},{"bike_id":"6f143c5b-933e-4a51-97d8-72a3705988b8","system_id":"levelo_inurba_marseille","lat":43.32234,"lon":5.37956,"is_reserved":false,"is_disabled":false,"rental_uris":{"android":"levelo://app?vid=6f143c5b-933e-4a51-97d8-72a3705988b8","ios":"levelo://app?vid=6f143c5b-933e-4a51-97d8-72a3705988b8"},"vehicle_type_id":"4","last_reported":1742080126,"current_range_meters":8400,"station_id":"","pricing_plan_id":"cebpf4jnsgd1na2vs0mg"},{"bike_id":"a9b8c9a3-d992-4d93-8e9b-5c8ed23ff558","system_id":"levelo_inurba_marseille","lat":43.29671,"lon":5.37303,"is_reserved":false,"is_disabled":false,"rental_uris":{"android":"levelo://app?vid=a9b8c9a3-d992-4d93-8e9b-5c8ed23ff558","ios":"levelo://app?vid=a9b8c9a3-d992-4d93-8e9b-5c8ed23ff558"},"vehicle_type_id":"4","last_reported":1742080126,"current_range_meters":8400,"station_id":"ce4bgk12rcd13ifvqbj0","pricing_plan_id":"cebpf4jnsgd1na2vs0mg"},{"bike_id":"2d7448ad-d15a-4c5e-8dbc-5383e88d7973","system_id":"levelo_inurba_marseille","lat":43.28704,"lon":5.39994,"is_reserved":false,"is_disabled":false,"rental_uris":{"android":"levelo://app?vid=2d7448ad-d15a-4c5e-8dbc-5383e88d7973","ios":"levelo://app?vid=2d7448ad-d15a-4c5e-8dbc-5383e88d7973"},"vehicle_type_id":"4","last_reported":1742080126,"current_range_meters":8800,"station_id":"ce4bho92rcd13ifvqh3g","pricing_plan_id":"cebpf4jnsgd1na2vs0mg"},{"bike_id":"676e66c6-8e50-404c-b512-5f94c7d6a8fc","system_id":"levelo_inurba_marseille","lat":43.24158,"lon":5.36421,"is_reserved":false,"is_disabled":false,"rental_uris":{"android":"levelo://app?vid=676e66c6-8e50-404c-b512-5f94c7d6a8fc","ios":"levelo://app?vid=676e66c6-8e50-404c-b512-5f94c7d6a8fc"},"vehicle_type_id":"4","last_reported":1742080126,"current_range_meters":8800,"station_id":"cpo36qri1sfpv3e86is0","pricing_plan_id":"cebpf4jnsgd1na2vs0mg"},{"bike_id":"74e795d2-6a94-477e-8d7e-fc98ca1d8b70","system_id":"levelo_inurba_marseille","lat":43.29286,"lon":5.36834,"is_reserved":false,"is_disabled":false,"rental_uris":{"android":"levelo://app?vid=74e795d2-6a94-477e-8d7e-fc98ca1d8b70","ios":"levelo://app?vid=74e795d2-6a94-477e-8d7e-fc98ca1d8b70"},"vehicle_type_id":"4","last_reported":1742080126,"current_range_meters":8800,"station_id":"ce4bhbp2rcd13ifvqesg","pricing_plan_id":"cebpf4jnsgd1na2vs0mg"},{"bike_id":"b614f100-11d7-4ef9-8f84-7c5dea0b786b","system_id":"levelo_inurba_marseille","lat":43.26924,"lon":5.40343,"is_reserved":false,"is_disabled":false,"rental_uris":{"android":"levelo://app?vid=b614f100-11d7-4ef9-8f84-7c5dea0b786b","ios":"levelo://app?vid=b614f100-11d7-4ef9-8f84-7c5dea0b786b"},"vehicle_type_id":"4","last_reported":1742080126,"current_range_meters":8800,"station_id":"","pricing_plan_id":"cebpf4jnsgd1na2vs0mg"},{"bike_id":"3034db0c-7cfa-4361-a8e5-85d8b0635402","system_id":"levelo_inurba_marseille","lat":43.2396,"lon":5.36627,"is_reserved":false,"is_disabled":false,"rental_uris":{"android":"levelo://app?vid=3034db0c-7cfa-4361-a8e5-85d8b0635402","ios":"levelo://app?vid=3034db0c-7cfa-4361-a8e5-85d8b0635402"},"vehicle_type_id":"4","last_reported":1742080126,"current_range_meters":8800,"station_id":"ce4bhi12rcd13ifvqfp0","pricing_plan_id":"cebpf4jnsgd1na2vs0mg"},{"bike_id":"2a4bde41-3836-4902-847c-4480240ed828","system_id":"levelo_inurba_marseille","lat":43.2924,"lon":5.40913,"is_reserved":false,"is_disabled":false,"rental_uris":{"android":"levelo://app?vid=2a4bde41-3836-4902-847c-4480240ed828","ios":"levelo://app?vid=2a4bde41-3836-4902-847c-4480240ed828"},"vehicle_type_id":"4","last_reported":1742080126,"current_range_meters":8800,"station_id":"ce4bh192rcd13ifvqdc0","pricing_plan_id":"cebpf4jnsgd1na2vs0mg"},{"bike_id":"75beec41-4a88-4024-bcbf-fdcd1b863557","system_id":"levelo_inurba_marseille","lat":43.29588,"lon":5.38094,"is_reserved":false,"is_disabled":false,"rental_uris":{"android":"levelo://app?vid=75beec41-4a88-4024-bcbf-fdcd1b863557","ios":"levelo://app?vid=75beec41-4a88-4024-bcbf-fdcd1b863557"},"vehicle_type_id":"4","last_reported":1742080126,"current_range_meters":8800,"station_id":"ce4bgl12rcd13ifvqbo0","pricing_plan_id":"cebpf4jnsgd1na2vs0mg"},{"bike_id":"5b11d238-4115-4238-b343-5a01412da5fe","system_id":"levelo_inurba_marseille","lat":43.29372,"lon":5.37838,"is_reserved":false,"is_disabled":false,"rental_uris":{"android":"levelo://app?vid=5b11d238-4115-4238-b343-5a01412da5fe","ios":"levelo://app?vid=5b11d238-4115-4238-b343-5a01412da5fe"},"vehicle_type_id":"4","last_reported":1742080126,"current_range_meters":8800,"station_id":"ce4bgjh2rcd13ifvqbf0","pricing_plan_id":"cebpf4jnsgd1na2vs0mg"},{"bike_id":"233d7033-121f-44ce-86ca-1a0c1e2a0e82","system_id":"levelo_inurba_marseille","lat":43.29257,"lon":5.38449,"is_reserved":false,"is_disabled":false,"rental_uris":{"android":"levelo://app?vid=233d7033-121f-44ce-86ca-1a0c1e2a0e82","ios":"levelo://app?vid=233d7033-121f-44ce-86ca-1a0c1e2a0e82"},"vehicle_type_id":"4","last_reported":1742080126,"current_range_meters":8800,"station_id":"","pricing_plan_id":"cebpf4jnsgd1na2vs0mg"},{"bike_id":"97af83c3-ddee-4269-abac-dfe69820a791","system_id":"levelo_inurba_marseille","lat":43.30937,"lon":5.40142,"is_reserved":false,"is_disabled":false,"rental_uris":{"android":"levelo://app?vid=97af83c3-ddee-4269-abac-dfe69820a791","ios":"levelo://app?vid=97af83c3-ddee-4269-abac-dfe69820a791"},"vehicle_type_id":"4","last_reported":1742080126,"current_range_meters":8800,"station_id":"ce4bgvp2rcd13ifvqct0","pricing_plan_id":"cebpf4jnsgd1na2vs0mg"},{"bike_id":"665adb53-03a2-44d0-ae63-011adfae01a0","system_id":"levelo_inurba_marseille","lat":43.29195,"lon":5.35804,"is_reserved":false,"is_disabled":false,"rental_uris":{"android":"levelo://app?vid=665adb53-03a2-44d0-ae63-011adfae01a0","ios":"levelo://app?vid=665adb53-03a2-44d0-ae63-011adfae01a0"},"vehicle_type_id":"4","last_reported":1742080126,"current_range_meters":9200,"station_id":"ce4bhb12rcd13ifvqel0","pricing_plan_id":"cebpf4jnsgd1na2vs0mg"},{"bike_id":"a368ec29-4619-427b-b3cd-dd9e3edf5231","system_id":"levelo_inurba_marseille","lat":43.34151,"lon":5.40968,"is_reserved":false,"is_disabled":false,"rental_uris":{"android":"levelo://app?vid=a368ec29-4619-427b-b3cd-dd9e3edf5231","ios":"levelo://app?vid=a368ec29-4619-427b-b3cd-dd9e3edf5231"},"vehicle_type_id":"4","last_reported":1742080126,"current_range_meters":9200,"station_id":"ce4bhqh2rcd13ifvqhlg","pricing_plan_id":"cebpf4jnsgd1na2vs0mg"},{"bike_id":"0b7bfdb8-fd03-4687-9225-8085184f929c","system_id":"levelo_inurba_marseille","lat":43.32353,"lon":5.36699,"is_reserved":false,"is_disabled":false,"rental_uris":{"android":"levelo://app?vid=0b7bfdb8-fd03-4687-9225-8085184f929c","ios":"levelo://app?vid=0b7bfdb8-fd03-4687-9225-8085184f929c"},"vehicle_type_id":"4","last_reported":1742080126,"current_range_meters":9200,"station_id":"","pricing_plan_id":"cebpf4jnsgd1na2vs0mg"},{"bike_id":"63cfaea5-f172-409c-93d3-875ff9136d61","system_id":"levelo_inurba_marseille","lat":43.24664,"lon":5.38157,"is_reserved":false,"is_disabled":false,"rental_uris":{"android":"levelo://app?vid=63cfaea5-f172-409c-93d3-875ff9136d61","ios":"levelo://app?vid=63cfaea5-f172-409c-93d3-875ff9136d61"},"vehicle_type_id":"4","last_reported":1742080126,"current_range_meters":9200,"station_id":"ce4bhih2rcd13ifvqfr0","pricing_plan_id":"cebpf4jnsgd1na2vs0mg"},{"bike_id":"f086f384-feec-4968-a0b6-7828464e346f","system_id":"levelo_inurba_marseille","lat":43.28402,"lon":5.37511,"is_reserved":false,"is_disabled":false,"rental_uris":{"android":"levelo://app?vid=f086f384-feec-4968-a0b6-7828464e346f","ios":"levelo://app?vid=f086f384-feec-4968-a0b6-7828464e346f"},"vehicle_type_id":"4","last_reported":1742080126,"current_range_meters":9200,"station_id":"ce4bh412rcd13ifvqds0","pricing_plan_id":"cebpf4jnsgd1na2vs0mg"},{"bike_id":"12d698f7-f420-413d-9f6a-b251fbe646b0","system_id":"levelo_inurba_marseille","lat":43.31333,"lon":5.39714,"is_reserved":false,"is_disabled":false,"rental_uris":{"android":"levelo://app?vid=12d698f7-f420-413d-9f6a-b251fbe646b0","ios":"levelo://app?vid=12d698f7-f420-413d-9f6a-b251fbe646b0"},"vehicle_type_id":"4","last_reported":1742080126,"current_range_meters":9200,"station_id":"ce4bgvp2rcd13ifvqcu0","pricing_plan_id":"cebpf4jnsgd1na2vs0mg"},{"bike_id":"e52b41b5-52df-4c67-a85c-3cebb3bf7504","system_id":"levelo_inurba_marseille","lat":43.32351,"lon":5.36764,"is_reserved":false,"is_disabled":false,"rental_uris":{"android":"levelo://app?vid=e52b41b5-52df-4c67-a85c-3cebb3bf7504","ios":"levelo://app?vid=e52b41b5-52df-4c67-a85c-3cebb3bf7504"},"vehicle_type_id":"4","last_reported":1742080126,"current_range_meters":9200,"station_id":"ce4bhsh2rcd13ifvqi2g","pricing_plan_id":"cebpf4jnsgd1na2vs0mg"},{"bike_id":"3e4dd4ac-140d-45bb-8e42-984c44b94a4c","system_id":"levelo_inurba_marseille","lat":43.31067,"lon":5.38351,"is_reserved":false,"is_disabled":false,"rental_uris":{"android":"levelo://app?vid=3e4dd4ac-140d-45bb-8e42-984c44b94a4c","ios":"levelo://app?vid=3e4dd4ac-140d-45bb-8e42-984c44b94a4c"},"vehicle_type_id":"4","last_reported":1742080126,"current_range_meters":9200,"station_id":"ce4bgv92rcd13ifvqcr0","pricing_plan_id":"cebpf4jnsgd1na2vs0mg"},{"bike_id":"f51fff72-74d6-4950-919e-1d9146cd0a58","system_id":"levelo_inurba_marseille","lat":43.24999,"lon":5.38936,"is_reserved":false,"is_disabled":false,"rental_uris":{"android":"levelo://app?vid=f51fff72-74d6-4950-919e-1d9146cd0a58","ios":"levelo://app?vid=f51fff72-74d6-4950-919e-1d9146cd0a58"},"vehicle_type_id":"4","last_reported":1742080126,"current_range_meters":9200,"station_id":"ce4bhgp2rcd13ifvqfd0","pricing_plan_id":"cebpf4jnsgd1na2vs0mg"},{"bike_id":"9625f194-a853-4767-bda8-0eedb08b2cb3","system_id":"levelo_inurba_marseille","lat":43.28713,"lon":5.40016,"is_reserved":false,"is_disabled":true,"rental_uris":{"android":"levelo://app?vid=9625f194-a853-4767-bda8-0eedb08b2cb3","ios":"levelo://app?vid=9625f194-a853-4767-bda8-0eedb08b2cb3"},"vehicle_type_id":"4","last_reported":1742080126,"current_range_meters":9200,"station_id":"ce4bho92rcd13ifvqh3g","pricing_plan_id":"cebpf4jnsgd1na2vs0mg"},{"bike_id":"efb53dda-871b-483c-8dec-e716116f9234","system_id":"levelo_inurba_marseille","lat":43.31097,"lon":5.36771,"is_reserved":false,"is_disabled":false,"rental_uris":{"android":"levelo://app?vid=efb53dda-871b-483c-8dec-e716116f9234","ios":"levelo://app?vid=efb53dda-871b-483c-8dec-e716116f9234"},"vehicle_type_id":"4","last_reported":1742080126,"current_range_meters":9200,"station_id":"","pricing_plan_id":"cebpf4jnsgd1na2vs0mg"},{"bike_id":"c491e804-fc87-4c1d-bae5-12449e8e3260","system_id":"levelo_inurba_marseille","lat":43.29967,"lon":5.38494,"is_reserved":false,"is_disabled":false,"rental_uris":{"android":"levelo://app?vid=c491e804-fc87-4c1d-bae5-12449e8e3260","ios":"levelo://app?vid=c491e804-fc87-4c1d-bae5-12449e8e3260"},"vehicle_type_id":"4","last_reported":1742080126,"current_range_meters":9200,"station_id":"ce4bgj92rcd13ifvqbd0","pricing_plan_id":"cebpf4jnsgd1na2vs0mg"},{"bike_id":"c5f3baa5-071e-49c9-a279-6962d03083ac","system_id":"levelo_inurba_marseille","lat":43.30382,"lon":5.36793,"is_reserved":false,"is_disabled":false,"rental_uris":{"android":"levelo://app?vid=c5f3baa5-071e-49c9-a279-6962d03083ac","ios":"levelo://app?vid=c5f3baa5-071e-49c9-a279-6962d03083ac"},"vehicle_type_id":"4","last_reported":1742080126,"current_range_meters":9600,"station_id":"","pricing_plan_id":"cebpf4jnsgd1na2vs0mg"},{"bike_id":"393d5e0c-b0b1-4362-abc5-3dff5cc16a82","system_id":"levelo_inurba_marseille","lat":43.29164,"lon":5.39346,"is_reserved":false,"is_disabled":false,"rental_uris":{"android":"levelo://app?vid=393d5e0c-b0b1-4362-abc5-3dff5cc16a82","ios":"levelo://app?vid=393d5e0c-b0b1-4362-abc5-3dff5cc16a82"},"vehicle_type_id":"4","last_reported":1742080126,"current_range_meters":9600,"station_id":"","pricing_plan_id":"cebpf4jnsgd1na2vs0mg"},{"bike_id":"290fed96-c961-40dd-8907-eaa6ef861c1c","system_id":"levelo_inurba_marseille","lat":43.25091,"lon":5.39523,"is_reserved":false,"is_disabled":false,"rental_uris":{"android":"levelo://app?vid=290fed96-c961-40dd-8907-eaa6ef861c1c","ios":"levelo://app?vid=290fed96-c961-40dd-8907-eaa6ef861c1c"},"vehicle_type_id":"4","last_reported":1742080126,"current_range_meters":9600,"station_id":"ce4bhm12rcd13ifvqgkg","pricing_plan_id":"cebpf4jnsgd1na2vs0mg"},{"bike_id":"ba461ffb-c3df-45cf-81f9-54784df3c476","system_id":"levelo_inurba_marseille","lat":43.28857,"lon":5.39321,"is_reserved":false,"is_disabled":false,"rental_uris":{"android":"levelo://app?vid=ba461ffb-c3df-45cf-81f9-54784df3c476","ios":"levelo://app?vid=ba461ffb-c3df-45cf-81f9-54784df3c476"},"vehicle_type_id":"4","last_reported":1742080126,"current_range_meters":9600,"station_id":"ce4bh2p2rcd13ifvqdi0","pricing_plan_id":"cebpf4jnsgd1na2vs0mg"},{"bike_id":"aeb33a8c-3eb5-49ca-a679-9b37e4bd34e9","system_id":"levelo_inurba_marseille","lat":43.28618,"lon":5.35101,"is_reserved":false,"is_disabled":false,"rental_uris":{"android":"levelo://app?vid=aeb33a8c-3eb5-49ca-a679-9b37e4bd34e9","ios":"levelo://app?vid=aeb33a8c-3eb5-49ca-a679-9b37e4bd34e9"},"vehicle_type_id":"4","last_reported":1742080126,"current_range_meters":9600,"station_id":"ce4bhch2rcd13ifvqeug","pricing_plan_id":"cebpf4jnsgd1na2vs0mg"},{"bike_id":"cd599479-cb87-429c-83a1-742e20b1c9d7","system_id":"levelo_inurba_marseille","lat":43.23179,"lon":5.39971,"is_reserved":false,"is_disabled":false,"rental_uris":{"android":"levelo://app?vid=cd599479-cb87-429c-83a1-742e20b1c9d7","ios":"levelo://app?vid=cd599479-cb87-429c-83a1-742e20b1c9d7"},"vehicle_type_id":"4","last_reported":1742080126,"current_range_meters":9600,"station_id":"ce4bhn12rcd13ifvqgqg","pricing_plan_id":"cebpf4jnsgd1na2vs0mg"},{"bike_id":"31937b71-dd3f-4a77-8a40-b4760260fd24","system_id":"levelo_inurba_marseille","lat":43.29601,"lon":5.38098,"is_reserved":false,"is_disabled":false,"rental_uris":{"android":"levelo://app?vid=31937b71-dd3f-4a77-8a40-b4760260fd24","ios":"levelo://app?vid=31937b71-dd3f-4a77-8a40-b4760260fd24"},"vehicle_type_id":"4","last_reported":1742080126,"current_range_meters":9600,"station_id":"ce4bgl12rcd13ifvqbo0","pricing_plan_id":"cebpf4jnsgd1na2vs0mg"},{"bike_id":"1629f16e-686d-4f11-b056-1b7a8223167c","system_id":"levelo_inurba_marseille","lat":43.29789,"lon":5.39335,"is_reserved":false,"is_disabled":false,"rental_uris":{"android":"levelo://app?vid=1629f16e-686d-4f11-b056-1b7a8223167c","ios":"levelo://app?vid=1629f16e-686d-4f11-b056-1b7a8223167c"},"vehicle_type_id":"4","last_reported":1742080126,"current_range_meters":9600,"station_id":"chh1huq6cuj3fo74tm60","pricing_plan_id":"cebpf4jnsgd1na2vs0mg"},{"bike_id":"952cb680-82aa-4f7e-8cfa-a6a8e2384275","system_id":"levelo_inurba_marseille","lat":43.29264,"lon":5.40919,"is_reserved":false,"is_disabled":false,"rental_uris":{"android":"levelo://app?vid=952cb680-82aa-4f7e-8cfa-a6a8e2384275","ios":"levelo://app?vid=952cb680-82aa-4f7e-8cfa-a6a8e2384275"},"vehicle_type_id":"4","last_reported":1742080126,"current_range_meters":9600,"station_id":"ce4bh192rcd13ifvqdc0","pricing_plan_id":"cebpf4jnsgd1na2vs0mg"},{"bike_id":"8024e9a0-8be2-4810-ab06-a52f139047ea","system_id":"levelo_inurba_marseille","lat":43.2927,"lon":5.38413,"is_reserved":false,"is_disabled":false,"rental_uris":{"android":"levelo://app?vid=8024e9a0-8be2-4810-ab06-a52f139047ea","ios":"levelo://app?vid=8024e9a0-8be2-4810-ab06-a52f139047ea"},"vehicle_type_id":"4","last_reported":1742080126,"current_range_meters":9600,"station_id":"","pricing_plan_id":"cebpf4jnsgd1na2vs0mg"},{"bike_id":"71d6b220-48b3-44b0-9feb-d7bbfca6b232","system_id":"levelo_inurba_marseille","lat":43.25464,"lon":5.37604,"is_reserved":false,"is_disabled":true,"rental_uris":{"android":"levelo://app?vid=71d6b220-48b3-44b0-9feb-d7bbfca6b232","ios":"levelo://app?vid=71d6b220-48b3-44b0-9feb-d7bbfca6b232"},"vehicle_type_id":"4","last_reported":1742080126,"current_range_meters":9600,"station_id":"ce4bhh12rcd13ifvqff0","pricing_plan_id":"cebpf4jnsgd1na2vs0mg"},{"bike_id":"ac28eb0b-f9e3-454d-8eb6-b1f5cccb5d84","system_id":"levelo_inurba_marseille","lat":43.29952,"lon":5.38529,"is_reserved":false,"is_disabled":false,"rental_uris":{"android":"levelo://app?vid=ac28eb0b-f9e3-454d-8eb6-b1f5cccb5d84","ios":"levelo://app?vid=ac28eb0b-f9e3-454d-8eb6-b1f5cccb5d84"},"vehicle_type_id":"4","last_reported":1742080126,"current_range_meters":9600,"station_id":"ce4bgj92rcd13ifvqbd0","pricing_plan_id":"cebpf4jnsgd1na2vs0mg"},{"bike_id":"f436c9a8-2f45-4d6d-8fd9-f3f76ea8f0fe","system_id":"levelo_inurba_marseille","lat":43.29523,"lon":5.39036,"is_reserved":false,"is_disabled":false,"rental_uris":{"android":"levelo://app?vid=f436c9a8-2f45-4d6d-8fd9-f3f76ea8f0fe","ios":"levelo://app?vid=f436c9a8-2f45-4d6d-8fd9-f3f76ea8f0fe"},"vehicle_type_id":"4","last_reported":1742080126,"current_range_meters":9600,"station_id":"ce4bh3p2rcd13ifvqdp0","pricing_plan_id":"cebpf4jnsgd1na2vs0mg"},{"bike_id":"dbcd9e69-6e49-46c6-906c-7892951a60b8","system_id":"levelo_inurba_marseille","lat":43.29528,"lon":5.39021,"is_reserved":false,"is_disabled":false,"rental_uris":{"android":"levelo://app?vid=dbcd9e69-6e49-46c6-906c-7892951a60b8","ios":"levelo://app?vid=dbcd9e69-6e49-46c6-906c-7892951a60b8"},"vehicle_type_id":"4","last_reported":1742080126,"current_range_meters":9600,"station_id":"ce4bh3p2rcd13ifvqdp0","pricing_plan_id":"cebpf4jnsgd1na2vs0mg"},{"bike_id":"2bc050d9-2120-4b33-8309-3a17da1a8770","system_id":"levelo_inurba_marseille","lat":43.28921,"lon":5.38409,"is_reserved":false,"is_disabled":false,"rental_uris":{"android":"levelo://app?vid=2bc050d9-2120-4b33-8309-3a17da1a8770","ios":"levelo://app?vid=2bc050d9-2120-4b33-8309-3a17da1a8770"},"vehicle_type_id":"4","last_reported":1742080126,"current_range_meters":10000,"station_id":"ce4bh612rcd13ifvqe6g","pricing_plan_id":"cebpf4jnsgd1na2vs0mg"},{"bike_id":"1b10bad2-dc66-4a43-85a7-d37466a8bfa0","system_id":"levelo_inurba_marseille","lat":43.28927,"lon":5.3841,"is_reserved":false,"is_disabled":false,"rental_uris":{"android":"levelo://app?vid=1b10bad2-dc66-4a43-85a7-d37466a8bfa0","ios":"levelo://app?vid=1b10bad2-dc66-4a43-85a7-d37466a8bfa0"},"vehicle_type_id":"4","last_reported":1742080126,"current_range_meters":10000,"station_id":"ce4bh612rcd13ifvqe6g","pricing_plan_id":"cebpf4jnsgd1na2vs0mg"},{"bike_id":"33bebc78-59e6-4ca2-a2ef-6c7554b85cf4","system_id":"levelo_inurba_marseille","lat":43.2941,"lon":5.37871,"is_reserved":false,"is_disabled":false,"rental_uris":{"android":"levelo://app?vid=33bebc78-59e6-4ca2-a2ef-6c7554b85cf4","ios":"levelo://app?vid=33bebc78-59e6-4ca2-a2ef-6c7554b85cf4"},"vehicle_type_id":"4","last_reported":1742080126,"current_range_meters":10000,"station_id":"","pricing_plan_id":"cebpf4jnsgd1na2vs0mg"},{"bike_id":"5f7f03a2-add7-44f0-9ebb-8428c5f0e58a","system_id":"levelo_inurba_marseille","lat":43.25942,"lon":5.40908,"is_reserved":false,"is_disabled":false,"rental_uris":{"android":"levelo://app?vid=5f7f03a2-add7-44f0-9ebb-8428c5f0e58a","ios":"levelo://app?vid=5f7f03a2-add7-44f0-9ebb-8428c5f0e58a"},"vehicle_type_id":"4","last_reported":1742080126,"current_range_meters":10000,"station_id":"ce4bhm92rcd13ifvqglg","pricing_plan_id":"cebpf4jnsgd1na2vs0mg"},{"bike_id":"191a4f8c-7838-42ca-8acc-7ab27bf8fe49","system_id":"levelo_inurba_marseille","lat":43.297236,"lon":5.365974,"is_reserved":false,"is_disabled":false,"rental_uris":{"android":"levelo://app?vid=191a4f8c-7838-42ca-8acc-7ab27bf8fe49","ios":"levelo://app?vid=191a4f8c-7838-42ca-8acc-7ab27bf8fe49"},"vehicle_type_id":"4","last_reported":1742080126,"current_range_meters":10000,"station_id":"","pricing_plan_id":"cebpf4jnsgd1na2vs0mg"},{"bike_id":"3f51f1f5-7a39-4364-adc9-c4c0ef6e90b0","system_id":"levelo_inurba_marseille","lat":43.28616,"lon":5.35096,"is_reserved":false,"is_disabled":false,"rental_uris":{"android":"levelo://app?vid=3f51f1f5-7a39-4364-adc9-c4c0ef6e90b0","ios":"levelo://app?vid=3f51f1f5-7a39-4364-adc9-c4c0ef6e90b0"},"vehicle_type_id":"4","last_reported":1742080126,"current_range_meters":10000,"station_id":"ce4bhch2rcd13ifvqeug","pricing_plan_id":"cebpf4jnsgd1na2vs0mg"},{"bike_id":"2888920d-5337-4dad-b80c-b748fa94c0d3","system_id":"levelo_inurba_marseille","lat":43.24636,"lon":5.38897,"is_reserved":false,"is_disabled":false,"rental_uris":{"android":"levelo://app?vid=2888920d-5337-4dad-b80c-b748fa94c0d3","ios":"levelo://app?vid=2888920d-5337-4dad-b80c-b748fa94c0d3"},"vehicle_type_id":"4","last_reported":1742080126,"current_range_meters":10000,"station_id":"ce4bhg12rcd13ifvqf60","pricing_plan_id":"cebpf4jnsgd1na2vs0mg"},{"bike_id":"9ae0f1cd-7791-41eb-9a1e-7111871a9335","system_id":"levelo_inurba_marseille","lat":43.30132,"lon":5.39867,"is_reserved":false,"is_disabled":false,"rental_uris":{"android":"levelo://app?vid=9ae0f1cd-7791-41eb-9a1e-7111871a9335","ios":"levelo://app?vid=9ae0f1cd-7791-41eb-9a1e-7111871a9335"},"vehicle_type_id":"4","last_reported":1742080126,"current_range_meters":10000,"station_id":"ce4bh0h2rcd13ifvqd40","pricing_plan_id":"cebpf4jnsgd1na2vs0mg"},{"bike_id":"743c9fbf-42df-4986-bc8c-9b4a2bc386be","system_id":"levelo_inurba_marseille","lat":43.24074,"lon":5.37763,"is_reserved":false,"is_disabled":false,"rental_uris":{"android":"levelo://app?vid=743c9fbf-42df-4986-bc8c-9b4a2bc386be","ios":"levelo://app?vid=743c9fbf-42df-4986-bc8c-9b4a2bc386be"},"vehicle_type_id":"4","last_reported":1742080126,"current_range_meters":10000,"station_id":"ce4bhnp2rcd13ifvqgvg","pricing_plan_id":"cebpf4jnsgd1na2vs0mg"},{"bike_id":"95e108ab-99f1-4735-a8fe-485dffc1ee66","system_id":"levelo_inurba_marseille","lat":43.25877,"lon":5.39899,"is_reserved":false,"is_disabled":false,"rental_uris":{"android":"levelo://app?vid=95e108ab-99f1-4735-a8fe-485dffc1ee66","ios":"levelo://app?vid=95e108ab-99f1-4735-a8fe-485dffc1ee66"},"vehicle_type_id":"4","last_reported":1742080126,"current_range_meters":10000,"station_id":"ce4bhl92rcd13ifvqghg","pricing_plan_id":"cebpf4jnsgd1na2vs0mg"},{"bike_id":"1333c740-f33c-46ca-97eb-8a4943e3534d","system_id":"levelo_inurba_marseille","lat":43.29174,"lon":5.38459,"is_reserved":false,"is_disabled":false,"rental_uris":{"android":"levelo://app?vid=1333c740-f33c-46ca-97eb-8a4943e3534d","ios":"levelo://app?vid=1333c740-f33c-46ca-97eb-8a4943e3534d"},"vehicle_type_id":"4","last_reported":1742080126,"current_range_meters":10000,"station_id":"","pricing_plan_id":"cebpf4jnsgd1na2vs0mg"},{"bike_id":"f2b7b04e-8089-4d6c-9db8-5e21bca75c26","system_id":"levelo_inurba_marseille","lat":43.27818,"lon":5.39215,"is_reserved":false,"is_disabled":true,"rental_uris":{"android":"levelo://app?vid=f2b7b04e-8089-4d6c-9db8-5e21bca75c26","ios":"levelo://app?vid=f2b7b04e-8089-4d6c-9db8-5e21bca75c26"},"vehicle_type_id":"4","last_reported":1742080126,"current_range_meters":10000,"station_id":"ce4bhjp2rcd13ifvqga0","pricing_plan_id":"cebpf4jnsgd1na2vs0mg"},{"bike_id":"38b70f3d-91f1-46cb-a922-9215febc6ee2","system_id":"levelo_inurba_marseille","lat":43.29783,"lon":5.38087,"is_reserved":false,"is_disabled":false,"rental_uris":{"android":"levelo://app?vid=38b70f3d-91f1-46cb-a922-9215febc6ee2","ios":"levelo://app?vid=38b70f3d-91f1-46cb-a922-9215febc6ee2"},"vehicle_type_id":"4","last_reported":1742080126,"current_range_meters":10000,"station_id":"ce4bgip2rcd13ifvqbb0","pricing_plan_id":"cebpf4jnsgd1na2vs0mg"},{"bike_id":"b723aca3-8e78-42dc-aea3-2292da138d59","system_id":"levelo_inurba_marseille","lat":43.23056,"lon":5.35503,"is_reserved":false,"is_disabled":false,"rental_uris":{"android":"levelo://app?vid=b723aca3-8e78-42dc-aea3-2292da138d59","ios":"levelo://app?vid=b723aca3-8e78-42dc-aea3-2292da138d59"},"vehicle_type_id":"4","last_reported":1742080126,"current_range_meters":10000,"station_id":"cpo3342slgdg3j2ifvpg","pricing_plan_id":"cebpf4jnsgd1na2vs0mg"},{"bike_id":"f79e9ea2-2c35-4045-bdc7-0153103d9f61","system_id":"levelo_inurba_marseille","lat":43.29593,"lon":5.38126,"is_reserved":false,"is_disabled":false,"rental_uris":{"android":"levelo://app?vid=f79e9ea2-2c35-4045-bdc7-0153103d9f61","ios":"levelo://app?vid=f79e9ea2-2c35-4045-bdc7-0153103d9f61"},"vehicle_type_id":"4","last_reported":1742080126,"current_range_meters":10000,"station_id":"ce4bgl12rcd13ifvqbo0","pricing_plan_id":"cebpf4jnsgd1na2vs0mg"},{"bike_id":"93a51a03-a5f8-4519-8b9f-c700371cf425","system_id":"levelo_inurba_marseille","lat":43.309387,"lon":5.401361,"is_reserved":false,"is_disabled":false,"rental_uris":{"android":"levelo://app?vid=93a51a03-a5f8-4519-8b9f-c700371cf425","ios":"levelo://app?vid=93a51a03-a5f8-4519-8b9f-c700371cf425"},"vehicle_type_id":"4","last_reported":1742080126,"current_range_meters":10000,"station_id":"ce4bgvp2rcd13ifvqct0","pricing_plan_id":"cebpf4jnsgd1na2vs0mg"},{"bike_id":"fedd60d3-96c9-41c7-b5e1-2a4253c71d0d","system_id":"levelo_inurba_marseille","lat":43.29272,"lon":5.40136,"is_reserved":false,"is_disabled":false,"rental_uris":{"android":"levelo://app?vid=fedd60d3-96c9-41c7-b5e1-2a4253c71d0d","ios":"levelo://app?vid=fedd60d3-96c9-41c7-b5e1-2a4253c71d0d"},"vehicle_type_id":"4","last_reported":1742080126,"current_range_meters":10000,"station_id":"ce4bh312rcd13ifvqdk0","pricing_plan_id":"cebpf4jnsgd1na2vs0mg"},{"bike_id":"31710fca-ccfa-43a5-ac6f-5ec923018ebf","system_id":"levelo_inurba_marseille","lat":43.2741,"lon":5.42067,"is_reserved":false,"is_disabled":false,"rental_uris":{"android":"levelo://app?vid=31710fca-ccfa-43a5-ac6f-5ec923018ebf","ios":"levelo://app?vid=31710fca-ccfa-43a5-ac6f-5ec923018ebf"},"vehicle_type_id":"4","last_reported":1742080126,"current_range_meters":10000,"station_id":"","pricing_plan_id":"cebpf4jnsgd1na2vs0mg"},{"bike_id":"7485381a-b59a-4a9e-838c-17767e7d7a89","system_id":"levelo_inurba_marseille","lat":43.28407,"lon":5.3754,"is_reserved":false,"is_disabled":false,"rental_uris":{"android":"levelo://app?vid=7485381a-b59a-4a9e-838c-17767e7d7a89","ios":"levelo://app?vid=7485381a-b59a-4a9e-838c-17767e7d7a89"},"vehicle_type_id":"4","last_reported":1742080126,"current_range_meters":10800,"station_id":"ce4bh412rcd13ifvqds0","pricing_plan_id":"cebpf4jnsgd1na2vs0mg"},{"bike_id":"d42219f3-8e55-4fc6-a0b8-66df6e2e70b1","system_id":"levelo_inurba_marseille","lat":43.23964,"lon":5.36629,"is_reserved":false,"is_disabled":false,"rental_uris":{"android":"levelo://app?vid=d42219f3-8e55-4fc6-a0b8-66df6e2e70b1","ios":"levelo://app?vid=d42219f3-8e55-4fc6-a0b8-66df6e2e70b1"},"vehicle_type_id":"4","last_reported":1742080126,"current_range_meters":10800,"station_id":"ce4bhi12rcd13ifvqfp0","pricing_plan_id":"cebpf4jnsgd1na2vs0mg"},{"bike_id":"b79fb99a-9a33-46ce-be17-95ffa87072bc","system_id":"levelo_inurba_marseille","lat":43.2892,"lon":5.38395,"is_reserved":false,"is_disabled":false,"rental_uris":{"android":"levelo://app?vid=b79fb99a-9a33-46ce-be17-95ffa87072bc","ios":"levelo://app?vid=b79fb99a-9a33-46ce-be17-95ffa87072bc"},"vehicle_type_id":"4","last_reported":1742080126,"current_range_meters":10800,"station_id":"ce4bh612rcd13ifvqe6g","pricing_plan_id":"cebpf4jnsgd1na2vs0mg"},{"bike_id":"10044722-9baa-416e-a6f1-7ac67f5372b1","system_id":"levelo_inurba_marseille","lat":43.29603,"lon":5.37713,"is_reserved":false,"is_disabled":true,"rental_uris":{"android":"levelo://app?vid=10044722-9baa-416e-a6f1-7ac67f5372b1","ios":"levelo://app?vid=10044722-9baa-416e-a6f1-7ac67f5372b1"},"vehicle_type_id":"4","last_reported":1742080126,"current_range_meters":10800,"station_id":"ce4bgi92rcd13ifvqb90","pricing_plan_id":"cebpf4jnsgd1na2vs0mg"},{"bike_id":"6582e7c2-5aa5-4e6a-abc5-fa241e74aeb6","system_id":"levelo_inurba_marseille","lat":43.29901,"lon":5.43675,"is_reserved":false,"is_disabled":false,"rental_uris":{"android":"levelo://app?vid=6582e7c2-5aa5-4e6a-abc5-fa241e74aeb6","ios":"levelo://app?vid=6582e7c2-5aa5-4e6a-abc5-fa241e74aeb6"},"vehicle_type_id":"4","last_reported":1742080126,"current_range_meters":10800,"station_id":"ce4bhpp2rcd13ifvqhfg","pricing_plan_id":"cebpf4jnsgd1na2vs0mg"},{"bike_id":"ea3afc6b-4ef9-4dd5-bea0-ef1f9fd26a86","system_id":"levelo_inurba_marseille","lat":43.29195,"lon":5.39317,"is_reserved":false,"is_disabled":false,"rental_uris":{"android":"levelo://app?vid=ea3afc6b-4ef9-4dd5-bea0-ef1f9fd26a86","ios":"levelo://app?vid=ea3afc6b-4ef9-4dd5-bea0-ef1f9fd26a86"},"vehicle_type_id":"4","last_reported":1742080126,"current_range_meters":10800,"station_id":"ce4bh192rcd13ifvqdd0","pricing_plan_id":"cebpf4jnsgd1na2vs0mg"},{"bike_id":"b017039e-a41c-4a9c-8009-3c57bed44ca2","system_id":"levelo_inurba_marseille","lat":43.290341,"lon":5.386619,"is_reserved":false,"is_disabled":false,"rental_uris":{"android":"levelo://app?vid=b017039e-a41c-4a9c-8009-3c57bed44ca2","ios":"levelo://app?vid=b017039e-a41c-4a9c-8009-3c57bed44ca2"},"vehicle_type_id":"4","last_reported":1742080126,"current_range_meters":10800,"station_id":"ce4bh4p2rcd13ifvqe0g","pricing_plan_id":"cebpf4jnsgd1na2vs0mg"},{"bike_id":"741cb384-440e-429d-8d00-64db83124bfc","system_id":"levelo_inurba_marseille","lat":43.29024,"lon":5.38642,"is_reserved":false,"is_disabled":false,"rental_uris":{"android":"levelo://app?vid=741cb384-440e-429d-8d00-64db83124bfc","ios":"levelo://app?vid=741cb384-440e-429d-8d00-64db83124bfc"},"vehicle_type_id":"4","last_reported":1742080126,"current_range_meters":10800,"station_id":"ce4bh4p2rcd13ifvqe0g","pricing_plan_id":"cebpf4jnsgd1na2vs0mg"},{"bike_id":"9c153339-ffc3-4e73-9dd4-5e83c5bb119e","system_id":"levelo_inurba_marseille","lat":43.23175,"lon":5.39979,"is_reserved":false,"is_disabled":false,"rental_uris":{"android":"levelo://app?vid=9c153339-ffc3-4e73-9dd4-5e83c5bb119e","ios":"levelo://app?vid=9c153339-ffc3-4e73-9dd4-5e83c5bb119e"},"vehicle_type_id":"4","last_reported":1742080126,"current_range_meters":11200,"station_id":"ce4bhn12rcd13ifvqgqg","pricing_plan_id":"cebpf4jnsgd1na2vs0mg"},{"bike_id":"3b2ee3e5-6b8b-42c5-a8b6-9a7198d64732","system_id":"levelo_inurba_marseille","lat":43.2987,"lon":5.38917,"is_reserved":false,"is_disabled":false,"rental_uris":{"android":"levelo://app?vid=3b2ee3e5-6b8b-42c5-a8b6-9a7198d64732","ios":"levelo://app?vid=3b2ee3e5-6b8b-42c5-a8b6-9a7198d64732"},"vehicle_type_id":"4","last_reported":1742080126,"current_range_meters":10800,"station_id":"ce4bh392rcd13ifvqdl0","pricing_plan_id":"cebpf4jnsgd1na2vs0mg"},{"bike_id":"09b965c8-716d-4b97-89b1-350278dcea04","system_id":"levelo_inurba_marseille","lat":43.2872,"lon":5.37939,"is_reserved":false,"is_disabled":false,"rental_uris":{"android":"levelo://app?vid=09b965c8-716d-4b97-89b1-350278dcea04","ios":"levelo://app?vid=09b965c8-716d-4b97-89b1-350278dcea04"},"vehicle_type_id":"4","last_reported":1742080126,"current_range_meters":10800,"station_id":"ce4bh9p2rcd13ifvqec0","pricing_plan_id":"cebpf4jnsgd1na2vs0mg"},{"bike_id":"051f8d0f-3233-4330-b3cc-3f3cb6e82ba6","system_id":"levelo_inurba_marseille","lat":43.2862,"lon":5.35106,"is_reserved":false,"is_disabled":false,"rental_uris":{"android":"levelo://app?vid=051f8d0f-3233-4330-b3cc-3f3cb6e82ba6","ios":"levelo://app?vid=051f8d0f-3233-4330-b3cc-3f3cb6e82ba6"},"vehicle_type_id":"4","last_reported":1742080126,"current_range_meters":10800,"station_id":"ce4bhch2rcd13ifvqeug","pricing_plan_id":"cebpf4jnsgd1na2vs0mg"},{"bike_id":"0102a975-ca16-4d1e-8694-d919e87a2584","system_id":"levelo_inurba_marseille","lat":43.29547,"lon":5.42273,"is_reserved":false,"is_disabled":false,"rental_uris":{"android":"levelo://app?vid=0102a975-ca16-4d1e-8694-d919e87a2584","ios":"levelo://app?vid=0102a975-ca16-4d1e-8694-d919e87a2584"},"vehicle_type_id":"4","last_reported":1742080126,"current_range_meters":11200,"station_id":"ce4bhph2rcd13ifvqhdg","pricing_plan_id":"cebpf4jnsgd1na2vs0mg"},{"bike_id":"e2eeef0a-6097-43b2-ac9f-071e43b60347","system_id":"levelo_inurba_marseille","lat":43.28414,"lon":5.37533,"is_reserved":false,"is_disabled":false,"rental_uris":{"android":"levelo://app?vid=e2eeef0a-6097-43b2-ac9f-071e43b60347","ios":"levelo://app?vid=e2eeef0a-6097-43b2-ac9f-071e43b60347"},"vehicle_type_id":"4","last_reported":1742080126,"current_range_meters":11200,"station_id":"ce4bh412rcd13ifvqds0","pricing_plan_id":"cebpf4jnsgd1na2vs0mg"},{"bike_id":"90c707aa-0edc-4e94-a911-252e6bd4d4c2","system_id":"levelo_inurba_marseille","lat":43.2861,"lon":5.35105,"is_reserved":false,"is_disabled":false,"rental_uris":{"android":"levelo://app?vid=90c707aa-0edc-4e94-a911-252e6bd4d4c2","ios":"levelo://app?vid=90c707aa-0edc-4e94-a911-252e6bd4d4c2"},"vehicle_type_id":"4","last_reported":1742080126,"current_range_meters":11200,"station_id":"ce4bhch2rcd13ifvqeug","pricing_plan_id":"cebpf4jnsgd1na2vs0mg"},{"bike_id":"fc071de1-2cc0-488a-a43e-f8037a5a9a49","system_id":"levelo_inurba_marseille","lat":43.23072,"lon":5.35495,"is_reserved":false,"is_disabled":false,"rental_uris":{"android":"levelo://app?vid=fc071de1-2cc0-488a-a43e-f8037a5a9a49","ios":"levelo://app?vid=fc071de1-2cc0-488a-a43e-f8037a5a9a49"},"vehicle_type_id":"4","last_reported":1742080126,"current_range_meters":11200,"station_id":"cpo3342slgdg3j2ifvpg","pricing_plan_id":"cebpf4jnsgd1na2vs0mg"},{"bike_id":"59fabd73-c806-41b6-bcf9-f66a2e415d54","system_id":"levelo_inurba_marseille","lat":43.26233,"lon":5.4045,"is_reserved":false,"is_disabled":false,"rental_uris":{"android":"levelo://app?vid=59fabd73-c806-41b6-bcf9-f66a2e415d54","ios":"levelo://app?vid=59fabd73-c806-41b6-bcf9-f66a2e415d54"},"vehicle_type_id":"4","last_reported":1742080126,"current_range_meters":11200,"station_id":"ce4bhmh2rcd13ifvqgmg","pricing_plan_id":"cebpf4jnsgd1na2vs0mg"},{"bike_id":"93e65659-44ad-4eb0-9309-e7ca11c863ae","system_id":"levelo_inurba_marseille","lat":43.28456,"lon":5.35887,"is_reserved":false,"is_disabled":false,"rental_uris":{"android":"levelo://app?vid=93e65659-44ad-4eb0-9309-e7ca11c863ae","ios":"levelo://app?vid=93e65659-44ad-4eb0-9309-e7ca11c863ae"},"vehicle_type_id":"4","last_reported":1742080126,"current_range_meters":11200,"station_id":"ce4bhah2rcd13ifvqei0","pricing_plan_id":"cebpf4jnsgd1na2vs0mg"},{"bike_id":"6fdf4b3d-b01b-4c5b-9bc6-cf750cba25d0","system_id":"levelo_inurba_marseille","lat":43.28452,"lon":5.35897,"is_reserved":false,"is_disabled":false,"rental_uris":{"android":"levelo://app?vid=6fdf4b3d-b01b-4c5b-9bc6-cf750cba25d0","ios":"levelo://app?vid=6fdf4b3d-b01b-4c5b-9bc6-cf750cba25d0"},"vehicle_type_id":"4","last_reported":1742080126,"current_range_meters":11200,"station_id":"ce4bhah2rcd13ifvqei0","pricing_plan_id":"cebpf4jnsgd1na2vs0mg"},{"bike_id":"2127c283-3bf3-4081-9791-ba201cf5a542","system_id":"levelo_inurba_marseille","lat":43.30469,"lon":5.37372,"is_reserved":false,"is_disabled":false,"rental_uris":{"android":"levelo://app?vid=2127c283-3bf3-4081-9791-ba201cf5a542","ios":"levelo://app?vid=2127c283-3bf3-4081-9791-ba201cf5a542"},"vehicle_type_id":"4","last_reported":1742080126,"current_range_meters":11200,"station_id":"","pricing_plan_id":"cebpf4jnsgd1na2vs0mg"},{"bike_id":"3a766561-d5df-4bb1-accb-85c347f27a70","system_id":"levelo_inurba_marseille","lat":43.33728,"lon":5.39179,"is_reserved":false,"is_disabled":false,"rental_uris":{"android":"levelo://app?vid=3a766561-d5df-4bb1-accb-85c347f27a70","ios":"levelo://app?vid=3a766561-d5df-4bb1-accb-85c347f27a70"},"vehicle_type_id":"4","last_reported":1742080126,"current_range_meters":11200,"station_id":"ce4bhr92rcd13ifvqhsg","pricing_plan_id":"cebpf4jnsgd1na2vs0mg"},{"bike_id":"9f9789bb-923d-408e-ac1f-b314f95277c9","system_id":"levelo_inurba_marseille","lat":43.29732,"lon":5.37684,"is_reserved":false,"is_disabled":false,"rental_uris":{"android":"levelo://app?vid=9f9789bb-923d-408e-ac1f-b314f95277c9","ios":"levelo://app?vid=9f9789bb-923d-408e-ac1f-b314f95277c9"},"vehicle_type_id":"4","last_reported":1742080126,"current_range_meters":11200,"station_id":"ce4bgkh2rcd13ifvqbl0","pricing_plan_id":"cebpf4jnsgd1na2vs0mg"},{"bike_id":"7fc2703c-4fbb-417b-9ba3-7377e1a72bb5","system_id":"levelo_inurba_marseille","lat":43.29089,"lon":5.38165,"is_reserved":false,"is_disabled":false,"rental_uris":{"android":"levelo://app?vid=7fc2703c-4fbb-417b-9ba3-7377e1a72bb5","ios":"levelo://app?vid=7fc2703c-4fbb-417b-9ba3-7377e1a72bb5"},"vehicle_type_id":"4","last_reported":1742080126,"current_range_meters":11600,"station_id":"ce4bh512rcd13ifvqe2g","pricing_plan_id":"cebpf4jnsgd1na2vs0mg"},{"bike_id":"45e64157-60d6-4bb8-89de-24b046c27447","system_id":"levelo_inurba_marseille","lat":43.29598,"lon":5.38098,"is_reserved":false,"is_disabled":false,"rental_uris":{"android":"levelo://app?vid=45e64157-60d6-4bb8-89de-24b046c27447","ios":"levelo://app?vid=45e64157-60d6-4bb8-89de-24b046c27447"},"vehicle_type_id":"4","last_reported":1742080126,"current_range_meters":11600,"station_id":"ce4bgl12rcd13ifvqbo0","pricing_plan_id":"cebpf4jnsgd1na2vs0mg"},{"bike_id":"dd3cd798-787d-4c31-b0e6-37631fe69a4a","system_id":"levelo_inurba_marseille","lat":43.27846,"lon":5.40699,"is_reserved":false,"is_disabled":false,"rental_uris":{"android":"levelo://app?vid=dd3cd798-787d-4c31-b0e6-37631fe69a4a","ios":"levelo://app?vid=dd3cd798-787d-4c31-b0e6-37631fe69a4a"},"vehicle_type_id":"4","last_reported":1742080126,"current_range_meters":11600,"station_id":"ce4bhnh2rcd13ifvqgtg","pricing_plan_id":"cebpf4jnsgd1na2vs0mg"},{"bike_id":"71b342b8-694b-40d5-99e8-310baf77a970","system_id":"levelo_inurba_marseille","lat":43.23049,"lon":5.35515,"is_reserved":false,"is_disabled":false,"rental_uris":{"android":"levelo://app?vid=71b342b8-694b-40d5-99e8-310baf77a970","ios":"levelo://app?vid=71b342b8-694b-40d5-99e8-310baf77a970"},"vehicle_type_id":"4","last_reported":1742080126,"current_range_meters":11600,"station_id":"cpo3342slgdg3j2ifvpg","pricing_plan_id":"cebpf4jnsgd1na2vs0mg"},{"bike_id":"b7cb0b7b-a52e-4992-b1ef-18fcece38eab","system_id":"levelo_inurba_marseille","lat":43.29026,"lon":5.3866,"is_reserved":false,"is_disabled":false,"rental_uris":{"android":"levelo://app?vid=b7cb0b7b-a52e-4992-b1ef-18fcece38eab","ios":"levelo://app?vid=b7cb0b7b-a52e-4992-b1ef-18fcece38eab"},"vehicle_type_id":"4","last_reported":1742080126,"current_range_meters":11600,"station_id":"ce4bh4p2rcd13ifvqe0g","pricing_plan_id":"cebpf4jnsgd1na2vs0mg"},{"bike_id":"174c9c66-b172-484e-b7f9-5752aa18aabf","system_id":"levelo_inurba_marseille","lat":43.23067,"lon":5.35496,"is_reserved":false,"is_disabled":false,"rental_uris":{"android":"levelo://app?vid=174c9c66-b172-484e-b7f9-5752aa18aabf","ios":"levelo://app?vid=174c9c66-b172-484e-b7f9-5752aa18aabf"},"vehicle_type_id":"4","last_reported":1742080126,"current_range_meters":11600,"station_id":"cpo3342slgdg3j2ifvpg","pricing_plan_id":"cebpf4jnsgd1na2vs0mg"},{"bike_id":"c79bb127-8198-4096-96ea-1444569e00c1","system_id":"levelo_inurba_marseille","lat":43.23955,"lon":5.36623,"is_reserved":false,"is_disabled":true,"rental_uris":{"android":"levelo://app?vid=c79bb127-8198-4096-96ea-1444569e00c1","ios":"levelo://app?vid=c79bb127-8198-4096-96ea-1444569e00c1"},"vehicle_type_id":"4","last_reported":1742080126,"current_range_meters":11600,"station_id":"ce4bhi12rcd13ifvqfp0","pricing_plan_id":"cebpf4jnsgd1na2vs0mg"},{"bike_id":"0162ff87-7148-49d2-82e1-db37eca7d49d","system_id":"levelo_inurba_marseille","lat":43.28617,"lon":5.35107,"is_reserved":false,"is_disabled":false,"rental_uris":{"android":"levelo://app?vid=0162ff87-7148-49d2-82e1-db37eca7d49d","ios":"levelo://app?vid=0162ff87-7148-49d2-82e1-db37eca7d49d"},"vehicle_type_id":"4","last_reported":1742080126,"current_range_meters":11600,"station_id":"ce4bhch2rcd13ifvqeug","pricing_plan_id":"cebpf4jnsgd1na2vs0mg"},{"bike_id":"c9e8fc85-1c5e-44e3-85d8-6e373e11af96","system_id":"levelo_inurba_marseille","lat":43.29538,"lon":5.39027,"is_reserved":false,"is_disabled":false,"rental_uris":{"android":"levelo://app?vid=c9e8fc85-1c5e-44e3-85d8-6e373e11af96","ios":"levelo://app?vid=c9e8fc85-1c5e-44e3-85d8-6e373e11af96"},"vehicle_type_id":"4","last_reported":1742080126,"current_range_meters":11600,"station_id":"ce4bh3p2rcd13ifvqdp0","pricing_plan_id":"cebpf4jnsgd1na2vs0mg"},{"bike_id":"798e4424-938e-4a81-9e7c-4246567321c5","system_id":"levelo_inurba_marseille","lat":43.24735,"lon":5.41158,"is_reserved":false,"is_disabled":false,"rental_uris":{"android":"levelo://app?vid=798e4424-938e-4a81-9e7c-4246567321c5","ios":"levelo://app?vid=798e4424-938e-4a81-9e7c-4246567321c5"},"vehicle_type_id":"4","last_reported":1742080126,"current_range_meters":11600,"station_id":"","pricing_plan_id":"cebpf4jnsgd1na2vs0mg"},{"bike_id":"486239e7-dd67-42d3-9c83-43abe67b8550","system_id":"levelo_inurba_marseille","lat":43.31326,"lon":5.39711,"is_reserved":false,"is_disabled":false,"rental_uris":{"android":"levelo://app?vid=486239e7-dd67-42d3-9c83-43abe67b8550","ios":"levelo://app?vid=486239e7-dd67-42d3-9c83-43abe67b8550"},"vehicle_type_id":"4","last_reported":1742080126,"current_range_meters":11600,"station_id":"ce4bgvp2rcd13ifvqcu0","pricing_plan_id":"cebpf4jnsgd1na2vs0mg"},{"bike_id":"51f719f4-9351-49a2-b879-23308328ac20","system_id":"levelo_inurba_marseille","lat":43.34037,"lon":5.37485,"is_reserved":false,"is_disabled":false,"rental_uris":{"android":"levelo://app?vid=51f719f4-9351-49a2-b879-23308328ac20","ios":"levelo://app?vid=51f719f4-9351-49a2-b879-23308328ac20"},"vehicle_type_id":"4","last_reported":1742080126,"current_range_meters":11600,"station_id":"","pricing_plan_id":"cebpf4jnsgd1na2vs0mg"},{"bike_id":"dabc5740-01e5-4dfd-b5c3-33816c157c08","system_id":"levelo_inurba_marseille","lat":43.230993,"lon":5.354783,"is_reserved":false,"is_disabled":false,"rental_uris":{"android":"levelo://app?vid=dabc5740-01e5-4dfd-b5c3-33816c157c08","ios":"levelo://app?vid=dabc5740-01e5-4dfd-b5c3-33816c157c08"},"vehicle_type_id":"4","last_reported":1742080126,"current_range_meters":12000,"station_id":"","pricing_plan_id":"cebpf4jnsgd1na2vs0mg"},{"bike_id":"7f085ede-3dd3-4648-a4bc-68694d0dbf60","system_id":"levelo_inurba_marseille","lat":43.29965,"lon":5.3852,"is_reserved":false,"is_disabled":false,"rental_uris":{"android":"levelo://app?vid=7f085ede-3dd3-4648-a4bc-68694d0dbf60","ios":"levelo://app?vid=7f085ede-3dd3-4648-a4bc-68694d0dbf60"},"vehicle_type_id":"4","last_reported":1742080126,"current_range_meters":12000,"station_id":"ce4bgj92rcd13ifvqbd0","pricing_plan_id":"cebpf4jnsgd1na2vs0mg"},{"bike_id":"d29954b9-94a9-4d4b-8f2a-4f834cdcd24e","system_id":"levelo_inurba_marseille","lat":43.30585,"lon":5.401,"is_reserved":false,"is_disabled":false,"rental_uris":{"android":"levelo://app?vid=d29954b9-94a9-4d4b-8f2a-4f834cdcd24e","ios":"levelo://app?vid=d29954b9-94a9-4d4b-8f2a-4f834cdcd24e"},"vehicle_type_id":"4","last_reported":1742080126,"current_range_meters":12000,"station_id":"","pricing_plan_id":"cebpf4jnsgd1na2vs0mg"},{"bike_id":"8f834772-de54-433a-b9c5-04b6550e4230","system_id":"levelo_inurba_marseille","lat":43.29185,"lon":5.39324,"is_reserved":false,"is_disabled":false,"rental_uris":{"android":"levelo://app?vid=8f834772-de54-433a-b9c5-04b6550e4230","ios":"levelo://app?vid=8f834772-de54-433a-b9c5-04b6550e4230"},"vehicle_type_id":"4","last_reported":1742080126,"current_range_meters":12000,"station_id":"ce4bh192rcd13ifvqdd0","pricing_plan_id":"cebpf4jnsgd1na2vs0mg"},{"bike_id":"084e9cd0-ba7b-4410-911b-bd29122b16f6","system_id":"levelo_inurba_marseille","lat":43.24159,"lon":5.36407,"is_reserved":false,"is_disabled":false,"rental_uris":{"android":"levelo://app?vid=084e9cd0-ba7b-4410-911b-bd29122b16f6","ios":"levelo://app?vid=084e9cd0-ba7b-4410-911b-bd29122b16f6"},"vehicle_type_id":"4","last_reported":1742080126,"current_range_meters":12000,"station_id":"cpo36qri1sfpv3e86is0","pricing_plan_id":"cebpf4jnsgd1na2vs0mg"},{"bike_id":"e7547bda-668b-484a-85ba-3846d19af899","system_id":"levelo_inurba_marseille","lat":43.2606,"lon":5.39402,"is_reserved":false,"is_disabled":false,"rental_uris":{"android":"levelo://app?vid=e7547bda-668b-484a-85ba-3846d19af899","ios":"levelo://app?vid=e7547bda-668b-484a-85ba-3846d19af899"},"vehicle_type_id":"4","last_reported":1742080126,"current_range_meters":12000,"station_id":"ce4bhh92rcd13ifvqfj0","pricing_plan_id":"cebpf4jnsgd1na2vs0mg"},{"bike_id":"0b855e7a-94a0-4d59-b2cd-9118b12050a9","system_id":"levelo_inurba_marseille","lat":43.28446,"lon":5.3589,"is_reserved":false,"is_disabled":false,"rental_uris":{"android":"levelo://app?vid=0b855e7a-94a0-4d59-b2cd-9118b12050a9","ios":"levelo://app?vid=0b855e7a-94a0-4d59-b2cd-9118b12050a9"},"vehicle_type_id":"4","last_reported":1742080126,"current_range_meters":12400,"station_id":"ce4bhah2rcd13ifvqei0","pricing_plan_id":"cebpf4jnsgd1na2vs0mg"},{"bike_id":"16ea5a6e-dd85-4dbb-a46b-7d09383938ba","system_id":"levelo_inurba_marseille","lat":43.29256,"lon":5.38429,"is_reserved":false,"is_disabled":false,"rental_uris":{"android":"levelo://app?vid=16ea5a6e-dd85-4dbb-a46b-7d09383938ba","ios":"levelo://app?vid=16ea5a6e-dd85-4dbb-a46b-7d09383938ba"},"vehicle_type_id":"4","last_reported":1742080126,"current_range_meters":12400,"station_id":"","pricing_plan_id":"cebpf4jnsgd1na2vs0mg"},{"bike_id":"e45b0fd7-4e87-4303-b524-8302e30de230","system_id":"levelo_inurba_marseille","lat":43.24651,"lon":5.38165,"is_reserved":false,"is_disabled":false,"rental_uris":{"android":"levelo://app?vid=e45b0fd7-4e87-4303-b524-8302e30de230","ios":"levelo://app?vid=e45b0fd7-4e87-4303-b524-8302e30de230"},"vehicle_type_id":"4","last_reported":1742080126,"current_range_meters":12400,"station_id":"ce4bhih2rcd13ifvqfr0","pricing_plan_id":"cebpf4jnsgd1na2vs0mg"},{"bike_id":"fda98d16-ab08-4429-a59b-fe867b07dc13","system_id":"levelo_inurba_marseille","lat":43.29309,"lon":5.37169,"is_reserved":false,"is_disabled":false,"rental_uris":{"android":"levelo://app?vid=fda98d16-ab08-4429-a59b-fe867b07dc13","ios":"levelo://app?vid=fda98d16-ab08-4429-a59b-fe867b07dc13"},"vehicle_type_id":"4","last_reported":1742080126,"current_range_meters":12400,"station_id":"ce4bgh92rcd13ifvqb40","pricing_plan_id":"cebpf4jnsgd1na2vs0mg"},{"bike_id":"dd13278e-8d1f-42d4-8b7b-3a1d74196da5","system_id":"levelo_inurba_marseille","lat":43.28457,"lon":5.35877,"is_reserved":false,"is_disabled":false,"rental_uris":{"android":"levelo://app?vid=dd13278e-8d1f-42d4-8b7b-3a1d74196da5","ios":"levelo://app?vid=dd13278e-8d1f-42d4-8b7b-3a1d74196da5"},"vehicle_type_id":"4","last_reported":1742080126,"current_range_meters":12400,"station_id":"ce4bhah2rcd13ifvqei0","pricing_plan_id":"cebpf4jnsgd1na2vs0mg"},{"bike_id":"d833f426-b66d-48bf-ae51-72b9b0c84c90","system_id":"levelo_inurba_marseille","lat":43.32376,"lon":5.38877,"is_reserved":false,"is_disabled":false,"rental_uris":{"android":"levelo://app?vid=d833f426-b66d-48bf-ae51-72b9b0c84c90","ios":"levelo://app?vid=d833f426-b66d-48bf-ae51-72b9b0c84c90"},"vehicle_type_id":"4","last_reported":1742080126,"current_range_meters":12400,"station_id":"ce4bhqp2rcd13ifvqhog","pricing_plan_id":"cebpf4jnsgd1na2vs0mg"},{"bike_id":"ec4c8fc9-399f-4f5a-b345-e19e03d811c3","system_id":"levelo_inurba_marseille","lat":43.27189,"lon":5.41007,"is_reserved":false,"is_disabled":true,"rental_uris":{"android":"levelo://app?vid=ec4c8fc9-399f-4f5a-b345-e19e03d811c3","ios":"levelo://app?vid=ec4c8fc9-399f-4f5a-b345-e19e03d811c3"},"vehicle_type_id":"4","last_reported":1742080126,"current_range_meters":12400,"station_id":"ce4bhl12rcd13ifvqgf0","pricing_plan_id":"cebpf4jnsgd1na2vs0mg"},{"bike_id":"8c329b8b-e9f6-45f6-9749-328bf6c1e896","system_id":"levelo_inurba_marseille","lat":43.25,"lon":5.38927,"is_reserved":false,"is_disabled":false,"rental_uris":{"android":"levelo://app?vid=8c329b8b-e9f6-45f6-9749-328bf6c1e896","ios":"levelo://app?vid=8c329b8b-e9f6-45f6-9749-328bf6c1e896"},"vehicle_type_id":"4","last_reported":1742080126,"current_range_meters":12400,"station_id":"ce4bhgp2rcd13ifvqfd0","pricing_plan_id":"cebpf4jnsgd1na2vs0mg"},{"bike_id":"457ac819-f080-441f-910a-cb8e5598ba49","system_id":"levelo_inurba_marseille","lat":43.29024,"lon":5.38649,"is_reserved":false,"is_disabled":false,"rental_uris":{"android":"levelo://app?vid=457ac819-f080-441f-910a-cb8e5598ba49","ios":"levelo://app?vid=457ac819-f080-441f-910a-cb8e5598ba49"},"vehicle_type_id":"4","last_reported":1742080126,"current_range_meters":12400,"station_id":"ce4bh4p2rcd13ifvqe0g","pricing_plan_id":"cebpf4jnsgd1na2vs0mg"},{"bike_id":"587f6f3e-5f21-4912-9c96-df88d719d9aa","system_id":"levelo_inurba_marseille","lat":43.27833,"lon":5.39217,"is_reserved":false,"is_disabled":false,"rental_uris":{"android":"levelo://app?vid=587f6f3e-5f21-4912-9c96-df88d719d9aa","ios":"levelo://app?vid=587f6f3e-5f21-4912-9c96-df88d719d9aa"},"vehicle_type_id":"4","last_reported":1742080126,"current_range_meters":12400,"station_id":"ce4bhjp2rcd13ifvqga0","pricing_plan_id":"cebpf4jnsgd1na2vs0mg"},{"bike_id":"37c063db-6126-4678-a1a5-5c7a19908162","system_id":"levelo_inurba_marseille","lat":43.2892,"lon":5.38405,"is_reserved":false,"is_disabled":false,"rental_uris":{"android":"levelo://app?vid=37c063db-6126-4678-a1a5-5c7a19908162","ios":"levelo://app?vid=37c063db-6126-4678-a1a5-5c7a19908162"},"vehicle_type_id":"4","last_reported":1742080126,"current_range_meters":12400,"station_id":"ce4bh612rcd13ifvqe6g","pricing_plan_id":"cebpf4jnsgd1na2vs0mg"},{"bike_id":"d1c41a1a-7fdc-4abb-a201-b6e9afd9dc56","system_id":"levelo_inurba_marseille","lat":43.297075,"lon":5.367697,"is_reserved":false,"is_disabled":false,"rental_uris":{"android":"levelo://app?vid=d1c41a1a-7fdc-4abb-a201-b6e9afd9dc56","ios":"levelo://app?vid=d1c41a1a-7fdc-4abb-a201-b6e9afd9dc56"},"vehicle_type_id":"4","last_reported":1742080126,"current_range_meters":12400,"station_id":"ce4bgn12rcd13ifvqbt0","pricing_plan_id":"cebpf4jnsgd1na2vs0mg"},{"bike_id":"d95316d7-ae0b-470d-8c1a-3d7196e53821","system_id":"levelo_inurba_marseille","lat":43.26953,"lon":5.38632,"is_reserved":false,"is_disabled":false,"rental_uris":{"android":"levelo://app?vid=d95316d7-ae0b-470d-8c1a-3d7196e53821","ios":"levelo://app?vid=d95316d7-ae0b-470d-8c1a-3d7196e53821"},"vehicle_type_id":"4","last_reported":1742080126,"current_range_meters":12400,"station_id":"ce4bhh92rcd13ifvqfh0","pricing_plan_id":"cebpf4jnsgd1na2vs0mg"},{"bike_id":"62be3a88-45f5-4364-ae43-daa87ba164a9","system_id":"levelo_inurba_marseille","lat":43.29032,"lon":5.38638,"is_reserved":false,"is_disabled":false,"rental_uris":{"android":"levelo://app?vid=62be3a88-45f5-4364-ae43-daa87ba164a9","ios":"levelo://app?vid=62be3a88-45f5-4364-ae43-daa87ba164a9"},"vehicle_type_id":"4","last_reported":1742080126,"current_range_meters":12400,"station_id":"","pricing_plan_id":"cebpf4jnsgd1na2vs0mg"},{"bike_id":"f770d5f2-b6f3-4cc0-9412-0f9d2cee622c","system_id":"levelo_inurba_marseille","lat":43.28426,"lon":5.34992,"is_reserved":false,"is_disabled":false,"rental_uris":{"android":"levelo://app?vid=f770d5f2-b6f3-4cc0-9412-0f9d2cee622c","ios":"levelo://app?vid=f770d5f2-b6f3-4cc0-9412-0f9d2cee622c"},"vehicle_type_id":"4","last_reported":1742080126,"current_range_meters":12800,"station_id":"ce4bhbh2rcd13ifvqepg","pricing_plan_id":"cebpf4jnsgd1na2vs0mg"},{"bike_id":"138e620c-f578-4ef6-a1cc-4efaf81ff921","system_id":"levelo_inurba_marseille","lat":43.24678,"lon":5.38156,"is_reserved":false,"is_disabled":false,"rental_uris":{"android":"levelo://app?vid=138e620c-f578-4ef6-a1cc-4efaf81ff921","ios":"levelo://app?vid=138e620c-f578-4ef6-a1cc-4efaf81ff921"},"vehicle_type_id":"4","last_reported":1742080126,"current_range_meters":12800,"station_id":"ce4bhih2rcd13ifvqfr0","pricing_plan_id":"cebpf4jnsgd1na2vs0mg"},{"bike_id":"30a3f5aa-8adb-417a-a2c9-dedb0fb285b3","system_id":"levelo_inurba_marseille","lat":43.28968,"lon":5.37854,"is_reserved":false,"is_disabled":true,"rental_uris":{"android":"levelo://app?vid=30a3f5aa-8adb-417a-a2c9-dedb0fb285b3","ios":"levelo://app?vid=30a3f5aa-8adb-417a-a2c9-dedb0fb285b3"},"vehicle_type_id":"4","last_reported":1742080126,"current_range_meters":12800,"station_id":"ce4bh9p2rcd13ifvqed0","pricing_plan_id":"cebpf4jnsgd1na2vs0mg"},{"bike_id":"03821712-dbf7-4c67-8e02-35b9979649cc","system_id":"levelo_inurba_marseille","lat":43.29518,"lon":5.39032,"is_reserved":false,"is_disabled":true,"rental_uris":{"android":"levelo://app?vid=03821712-dbf7-4c67-8e02-35b9979649cc","ios":"levelo://app?vid=03821712-dbf7-4c67-8e02-35b9979649cc"},"vehicle_type_id":"4","last_reported":1742080126,"current_range_meters":12800,"station_id":"ce4bh3p2rcd13ifvqdp0","pricing_plan_id":"cebpf4jnsgd1na2vs0mg"},{"bike_id":"38de9398-607b-4e38-b181-28a0e85a0172","system_id":"levelo_inurba_marseille","lat":43.29006,"lon":5.38639,"is_reserved":false,"is_disabled":true,"rental_uris":{"android":"levelo://app?vid=38de9398-607b-4e38-b181-28a0e85a0172","ios":"levelo://app?vid=38de9398-607b-4e38-b181-28a0e85a0172"},"vehicle_type_id":"4","last_reported":1742080126,"current_range_meters":12800,"station_id":"ce4bh4p2rcd13ifvqe0g","pricing_plan_id":"cebpf4jnsgd1na2vs0mg"},{"bike_id":"66d6e7ef-3ad0-49a5-bdf1-094ad3c64950","system_id":"levelo_inurba_marseille","lat":43.24658,"lon":5.38164,"is_reserved":false,"is_disabled":false,"rental_uris":{"android":"levelo://app?vid=66d6e7ef-3ad0-49a5-bdf1-094ad3c64950","ios":"levelo://app?vid=66d6e7ef-3ad0-49a5-bdf1-094ad3c64950"},"vehicle_type_id":"4","last_reported":1742080126,"current_range_meters":12800,"station_id":"ce4bhih2rcd13ifvqfr0","pricing_plan_id":"cebpf4jnsgd1na2vs0mg"},{"bike_id":"3f3e844d-8056-4826-a519-e24eec72528f","system_id":"levelo_inurba_marseille","lat":43.30682,"lon":5.36596,"is_reserved":false,"is_disabled":false,"rental_uris":{"android":"levelo://app?vid=3f3e844d-8056-4826-a519-e24eec72528f","ios":"levelo://app?vid=3f3e844d-8056-4826-a519-e24eec72528f"},"vehicle_type_id":"4","last_reported":1742080126,"current_range_meters":12800,"station_id":"","pricing_plan_id":"cebpf4jnsgd1na2vs0mg"},{"bike_id":"d4feca0b-5d10-40f7-893e-33fc022cb1ca","system_id":"levelo_inurba_marseille","lat":43.291693,"lon":5.371587,"is_reserved":false,"is_disabled":false,"rental_uris":{"android":"levelo://app?vid=d4feca0b-5d10-40f7-893e-33fc022cb1ca","ios":"levelo://app?vid=d4feca0b-5d10-40f7-893e-33fc022cb1ca"},"vehicle_type_id":"4","last_reported":1742080126,"current_range_meters":12800,"station_id":"ce4bh9p2rcd13ifvqec0","pricing_plan_id":"cebpf4jnsgd1na2vs0mg"},{"bike_id":"0a2061a2-528d-4c4d-bada-620b4033ac76","system_id":"levelo_inurba_marseille","lat":43.26221,"lon":5.37445,"is_reserved":false,"is_disabled":false,"rental_uris":{"android":"levelo://app?vid=0a2061a2-528d-4c4d-bada-620b4033ac76","ios":"levelo://app?vid=0a2061a2-528d-4c4d-bada-620b4033ac76"},"vehicle_type_id":"4","last_reported":1742080126,"current_range_meters":12800,"station_id":"ce4bhgp2rcd13ifvqfc0","pricing_plan_id":"cebpf4jnsgd1na2vs0mg"},{"bike_id":"229c3673-a449-42bd-9936-2c33929a302d","system_id":"levelo_inurba_marseille","lat":43.24177,"lon":5.39723,"is_reserved":false,"is_disabled":false,"rental_uris":{"android":"levelo://app?vid=229c3673-a449-42bd-9936-2c33929a302d","ios":"levelo://app?vid=229c3673-a449-42bd-9936-2c33929a302d"},"vehicle_type_id":"4","last_reported":1742080126,"current_range_meters":13600,"station_id":"ce4bhn12rcd13ifvqgpg","pricing_plan_id":"cebpf4jnsgd1na2vs0mg"},{"bike_id":"f584f5c1-03e6-4ffd-a12d-11d936067489","system_id":"levelo_inurba_marseille","lat":43.3127,"lon":5.40173,"is_reserved":false,"is_disabled":false,"rental_uris":{"android":"levelo://app?vid=f584f5c1-03e6-4ffd-a12d-11d936067489","ios":"levelo://app?vid=f584f5c1-03e6-4ffd-a12d-11d936067489"},"vehicle_type_id":"4","last_reported":1742080126,"current_range_meters":13600,"station_id":"ce4bh092rcd13ifvqd30","pricing_plan_id":"cebpf4jnsgd1na2vs0mg"},{"bike_id":"1d7f8ff5-bcc8-4b92-a03a-ea3818b4617e","system_id":"levelo_inurba_marseille","lat":43.290295,"lon":5.386328,"is_reserved":false,"is_disabled":true,"rental_uris":{"android":"levelo://app?vid=1d7f8ff5-bcc8-4b92-a03a-ea3818b4617e","ios":"levelo://app?vid=1d7f8ff5-bcc8-4b92-a03a-ea3818b4617e"},"vehicle_type_id":"4","last_reported":1742080126,"current_range_meters":13600,"station_id":"ce4bh4p2rcd13ifvqe0g","pricing_plan_id":"cebpf4jnsgd1na2vs0mg"},{"bike_id":"9eec46cd-7a2e-468d-bc0f-3897bd5fc71c","system_id":"levelo_inurba_marseille","lat":43.27931,"lon":5.38734,"is_reserved":false,"is_disabled":false,"rental_uris":{"android":"levelo://app?vid=9eec46cd-7a2e-468d-bc0f-3897bd5fc71c","ios":"levelo://app?vid=9eec46cd-7a2e-468d-bc0f-3897bd5fc71c"},"vehicle_type_id":"4","last_reported":1742080126,"current_range_meters":13600,"station_id":"ce4bhg12rcd13ifvqf80","pricing_plan_id":"cebpf4jnsgd1na2vs0mg"},{"bike_id":"48a98a97-0510-489d-b5a1-4bc1973d96e9","system_id":"levelo_inurba_marseille","lat":43.24998,"lon":5.38924,"is_reserved":false,"is_disabled":false,"rental_uris":{"android":"levelo://app?vid=48a98a97-0510-489d-b5a1-4bc1973d96e9","ios":"levelo://app?vid=48a98a97-0510-489d-b5a1-4bc1973d96e9"},"vehicle_type_id":"4","last_reported":1742080126,"current_range_meters":13600,"station_id":"ce4bhgp2rcd13ifvqfd0","pricing_plan_id":"cebpf4jnsgd1na2vs0mg"},{"bike_id":"e047eb05-c84e-4eb9-a430-24d024850b6f","system_id":"levelo_inurba_marseille","lat":43.22933,"lon":5.35389,"is_reserved":false,"is_disabled":false,"rental_uris":{"android":"levelo://app?vid=e047eb05-c84e-4eb9-a430-24d024850b6f","ios":"levelo://app?vid=e047eb05-c84e-4eb9-a430-24d024850b6f"},"vehicle_type_id":"4","last_reported":1742080126,"current_range_meters":13600,"station_id":"cpo3532slgdg3j2ikp40","pricing_plan_id":"cebpf4jnsgd1na2vs0mg"},{"bike_id":"3c528f7f-712c-435c-b5d4-a5694a485d73","system_id":"levelo_inurba_marseille","lat":43.29907,"lon":5.43656,"is_reserved":false,"is_disabled":false,"rental_uris":{"android":"levelo://app?vid=3c528f7f-712c-435c-b5d4-a5694a485d73","ios":"levelo://app?vid=3c528f7f-712c-435c-b5d4-a5694a485d73"},"vehicle_type_id":"4","last_reported":1742080126,"current_range_meters":13600,"station_id":"ce4bhpp2rcd13ifvqhfg","pricing_plan_id":"cebpf4jnsgd1na2vs0mg"},{"bike_id":"523dd450-164e-4ffe-bf53-669c0ae3efe9","system_id":"levelo_inurba_marseille","lat":43.28573,"lon":5.39482,"is_reserved":false,"is_disabled":false,"rental_uris":{"android":"levelo://app?vid=523dd450-164e-4ffe-bf53-669c0ae3efe9","ios":"levelo://app?vid=523dd450-164e-4ffe-bf53-669c0ae3efe9"},"vehicle_type_id":"4","last_reported":1742080126,"current_range_meters":13600,"station_id":"ce4bh292rcd13ifvqdg0","pricing_plan_id":"cebpf4jnsgd1na2vs0mg"},{"bike_id":"243d0cb2-0c37-4dc5-8f48-53c857829217","system_id":"levelo_inurba_marseille","lat":43.30315,"lon":5.36896,"is_reserved":false,"is_disabled":false,"rental_uris":{"android":"levelo://app?vid=243d0cb2-0c37-4dc5-8f48-53c857829217","ios":"levelo://app?vid=243d0cb2-0c37-4dc5-8f48-53c857829217"},"vehicle_type_id":"4","last_reported":1742080126,"current_range_meters":13600,"station_id":"ce4bgqh2rcd13ifvqc5g","pricing_plan_id":"cebpf4jnsgd1na2vs0mg"},{"bike_id":"a2df54e8-18e4-4021-8fec-e9c5b477e7ad","system_id":"levelo_inurba_marseille","lat":43.24645,"lon":5.38899,"is_reserved":false,"is_disabled":false,"rental_uris":{"android":"levelo://app?vid=a2df54e8-18e4-4021-8fec-e9c5b477e7ad","ios":"levelo://app?vid=a2df54e8-18e4-4021-8fec-e9c5b477e7ad"},"vehicle_type_id":"4","last_reported":1742080126,"current_range_meters":13600,"station_id":"ce4bhg12rcd13ifvqf60","pricing_plan_id":"cebpf4jnsgd1na2vs0mg"},{"bike_id":"0625f305-6440-4da8-b963-79465f94d436","system_id":"levelo_inurba_marseille","lat":43.29966,"lon":5.38496,"is_reserved":false,"is_disabled":false,"rental_uris":{"android":"levelo://app?vid=0625f305-6440-4da8-b963-79465f94d436","ios":"levelo://app?vid=0625f305-6440-4da8-b963-79465f94d436"},"vehicle_type_id":"4","last_reported":1742080126,"current_range_meters":14000,"station_id":"ce4bgj92rcd13ifvqbd0","pricing_plan_id":"cebpf4jnsgd1na2vs0mg"},{"bike_id":"43e238d9-8ae0-45b5-b091-a70c3ad7de96","system_id":"levelo_inurba_marseille","lat":43.29043,"lon":5.38653,"is_reserved":false,"is_disabled":false,"rental_uris":{"android":"levelo://app?vid=43e238d9-8ae0-45b5-b091-a70c3ad7de96","ios":"levelo://app?vid=43e238d9-8ae0-45b5-b091-a70c3ad7de96"},"vehicle_type_id":"4","last_reported":1742080126,"current_range_meters":14000,"station_id":"ce4bh4p2rcd13ifvqe0g","pricing_plan_id":"cebpf4jnsgd1na2vs0mg"},{"bike_id":"47cef96f-82d0-49ed-9397-2ba96714eea7","system_id":"levelo_inurba_marseille","lat":43.29869,"lon":5.38917,"is_reserved":false,"is_disabled":false,"rental_uris":{"android":"levelo://app?vid=47cef96f-82d0-49ed-9397-2ba96714eea7","ios":"levelo://app?vid=47cef96f-82d0-49ed-9397-2ba96714eea7"},"vehicle_type_id":"4","last_reported":1742080126,"current_range_meters":14000,"station_id":"ce4bh392rcd13ifvqdl0","pricing_plan_id":"cebpf4jnsgd1na2vs0mg"},{"bike_id":"dbb5bc62-6419-47a5-9abd-15effc511780","system_id":"levelo_inurba_marseille","lat":43.240689,"lon":5.377456,"is_reserved":false,"is_disabled":false,"rental_uris":{"android":"levelo://app?vid=dbb5bc62-6419-47a5-9abd-15effc511780","ios":"levelo://app?vid=dbb5bc62-6419-47a5-9abd-15effc511780"},"vehicle_type_id":"4","last_reported":1742080126,"current_range_meters":14000,"station_id":"ce4bhnp2rcd13ifvqgvg","pricing_plan_id":"cebpf4jnsgd1na2vs0mg"},{"bike_id":"10a5dfbf-3aa3-4cf3-ac17-cd4d12fd6782","system_id":"levelo_inurba_marseille","lat":43.32368,"lon":5.3675,"is_reserved":false,"is_disabled":false,"rental_uris":{"android":"levelo://app?vid=10a5dfbf-3aa3-4cf3-ac17-cd4d12fd6782","ios":"levelo://app?vid=10a5dfbf-3aa3-4cf3-ac17-cd4d12fd6782"},"vehicle_type_id":"4","last_reported":1742080126,"current_range_meters":14000,"station_id":"ce4bhsh2rcd13ifvqi2g","pricing_plan_id":"cebpf4jnsgd1na2vs0mg"},{"bike_id":"7099c38a-2986-4dc9-9398-307b562f7d30","system_id":"levelo_inurba_marseille","lat":43.25942,"lon":5.4089,"is_reserved":false,"is_disabled":false,"rental_uris":{"android":"levelo://app?vid=7099c38a-2986-4dc9-9398-307b562f7d30","ios":"levelo://app?vid=7099c38a-2986-4dc9-9398-307b562f7d30"},"vehicle_type_id":"4","last_reported":1742080126,"current_range_meters":14000,"station_id":"ce4bhm92rcd13ifvqglg","pricing_plan_id":"cebpf4jnsgd1na2vs0mg"},{"bike_id":"787bc54d-cb91-4de1-ab3d-53965bbc2f14","system_id":"levelo_inurba_marseille","lat":43.29007,"lon":5.38638,"is_reserved":false,"is_disabled":false,"rental_uris":{"android":"levelo://app?vid=787bc54d-cb91-4de1-ab3d-53965bbc2f14","ios":"levelo://app?vid=787bc54d-cb91-4de1-ab3d-53965bbc2f14"},"vehicle_type_id":"4","last_reported":1742080126,"current_range_meters":14000,"station_id":"ce4bh4p2rcd13ifvqe0g","pricing_plan_id":"cebpf4jnsgd1na2vs0mg"},{"bike_id":"8ac3f18c-ff11-4331-b0cc-80724e82791c","system_id":"levelo_inurba_marseille","lat":43.29263,"lon":5.38435,"is_reserved":false,"is_disabled":false,"rental_uris":{"android":"levelo://app?vid=8ac3f18c-ff11-4331-b0cc-80724e82791c","ios":"levelo://app?vid=8ac3f18c-ff11-4331-b0cc-80724e82791c"},"vehicle_type_id":"4","last_reported":1742080126,"current_range_meters":14000,"station_id":"","pricing_plan_id":"cebpf4jnsgd1na2vs0mg"},{"bike_id":"c907451f-a973-4be4-b6a3-11b593cc1e84","system_id":"levelo_inurba_marseille","lat":43.29031,"lon":5.38647,"is_reserved":false,"is_disabled":false,"rental_uris":{"android":"levelo://app?vid=c907451f-a973-4be4-b6a3-11b593cc1e84","ios":"levelo://app?vid=c907451f-a973-4be4-b6a3-11b593cc1e84"},"vehicle_type_id":"4","last_reported":1742080126,"current_range_meters":14000,"station_id":"ce4bh4p2rcd13ifvqe0g","pricing_plan_id":"cebpf4jnsgd1na2vs0mg"},{"bike_id":"f9936e6c-020d-4b44-b706-308dc1bbce66","system_id":"levelo_inurba_marseille","lat":43.29517,"lon":5.39041,"is_reserved":false,"is_disabled":false,"rental_uris":{"android":"levelo://app?vid=f9936e6c-020d-4b44-b706-308dc1bbce66","ios":"levelo://app?vid=f9936e6c-020d-4b44-b706-308dc1bbce66"},"vehicle_type_id":"4","last_reported":1742080126,"current_range_meters":14000,"station_id":"ce4bh3p2rcd13ifvqdp0","pricing_plan_id":"cebpf4jnsgd1na2vs0mg"},