{"last_updated":1703232573,"ttl":30,"version":"2.2","data":{"bikes":[{"bike_id":"29d8f19a-80ab-4bee-ae26-6d36d79e6114","system_id":"levelo_inurba_marseille","lat":43.31341,"lon":5.367098,"is_reserved":false,"is_disabled":false,"rental_uris":{"android":"levelo://app?vid=29d8f19a-80ab-4bee-ae26-6d36d79e6114","ios":"levelo://app?vid=29d8f19a-80ab-4bee-ae26-6d36d79e6114"},"vehicle_type_id":"4","last_reported":1703232573,"current_range_meters":23200,"station_id":"ce4bgr92rcd13ifvqc6g","pricing_plan_id":"free"},{"bike_id":"61ea5a5d-9237-4652-afe7-eef3dd69c4f1","system_id":"levelo_inurba_marseille","lat":43.31341,"lon":5.367098,"is_reserved":false,"is_disabled":false,"rental_uris":{"android":"levelo://app?vid=61ea5a5d-9237-4652-afe7-eef3dd69c4f1","ios":"levelo://app?vid=61ea5a5d-9237-4652-afe7-eef3dd69c4f1"},"vehicle_type_id":"4","last_reported":1703232573,"current_range_meters":27200,"station_id":"ce4bgr92rcd13ifvqc6g","pricing_plan_id":"free"},{"bike_id":"e5e55641-75e1-4ac4-aada-bb8e333a7a2e","system_id":"levelo_inurba_marseille","lat":43.31343,"lon":5.36726,"is_reserved":false,"is_disabled":false,"rental_uris":{"android":"levelo://app?vid=e5e55641-75e1-4ac4-aada-bb8e333a7a2e","ios":"levelo://app?vid=e5e55641-75e1-4ac4-aada-bb8e333a7a2e"},"vehicle_type_id":"4","last_reported":1703232573,"current_range_meters":19200,"station_id":"","pricing_plan_id":"free"},{"bike_id":"a24471a6-dea3-45ed-8119-1dfea2abaea5","system_id":"levelo_inurba_marseille","lat":43.313391,"lon":5.36706,"is_reserved":false,"is_disabled":false,"rental_uris":{"android":"levelo://app?vid=a24471a6-dea3-45ed-8119-1dfea2abaea5","ios":"levelo://app?vid=a24471a6-dea3-45ed-8119-1dfea2abaea5"},"vehicle_type_id":"4","last_reported":1703232573,"current_range_meters":26800,"station_id":"ce4bgr92rcd13ifvqc6g","pricing_plan_id":"free"},{"bike_id":"387e0b76-e3b2-4523-ad04-138ee00889c0","system_id":"levelo_inurba_marseille","lat":43.313391,"lon":5.36706,"is_reserved":false,"is_disabled":false,"rental_uris":{"android":"levelo://app?vid=387e0b76-e3b2-4523-ad04-138ee00889c0","ios":"levelo://app?vid=387e0b76-e3b2-4523-ad04-138ee00889c0"},"vehicle_type_id":"4","last_reported":1703232573,"current_range_meters":26000,"station_id":"ce4bgr92rcd13ifvqc6g","pricing_plan_id":"free"},{"bike_id":"fa5948ab-141d-43da-8a7b-070662ff9bc3","system_id":"levelo_inurba_marseille","lat":43.312239,"lon":5.368562,"is_reserved":false,"is_disabled":false,"rental_uris":{"android":"levelo://app?vid=fa5948ab-141d-43da-8a7b-070662ff9bc3","ios":"levelo://app?vid=fa5948ab-141d-43da-8a7b-070662ff9bc3"},"vehicle_type_id":"4","last_reported":1703232573,"current_range_meters":30800,"station_id":"ce4bgl92rcd13ifvqbq0","pricing_plan_id":"free"},{"bike_id":"1068ba29-5fb8-4e1d-902c-05896e2fe819","system_id":"levelo_inurba_marseille","lat":43.309076,"lon":5.368465,"is_reserved":false,"is_disabled":false,"rental_uris":{"android":"levelo://app?vid=1068ba29-5fb8-4e1d-902c-05896e2fe819","ios":"levelo://app?vid=1068ba29-5fb8-4e1d-902c-05896e2fe819"},"vehicle_type_id":"4","last_reported":1703232573,"current_range_meters":19600,"station_id":"ce4bgn92rcd13ifvqbvg","pricing_plan_id":"free"},{"bike_id":"36bf2e2d-745f-4ee0-b732-aecb376261da","system_id":"levelo_inurba_marseille","lat":43.309076,"lon":5.368465,"is_reserved":false,"is_disabled":false,"rental_uris":{"android":"levelo://app?vid=36bf2e2d-745f-4ee0-b732-aecb376261da","ios":"levelo://app?vid=36bf2e2d-745f-4ee0-b732-aecb376261da"},"vehicle_type_id":"4","last_reported":1703232573,"current_range_meters":22400,"station_id":"ce4bgn92rcd13ifvqbvg","pricing_plan_id":"free"},{"bike_id":"3e6eecf2-e5a7-4ffd-8202-4e82ecae49d0","system_id":"levelo_inurba_marseille","lat":43.305712,"lon":5.365641,"is_reserved":false,"is_disabled":false,"rental_uris":{"android":"levelo://app?vid=3e6eecf2-e5a7-4ffd-8202-4e82ecae49d0","ios":"levelo://app?vid=3e6eecf2-e5a7-4ffd-8202-4e82ecae49d0"},"vehicle_type_id":"4","last_reported":1703232573,"current_range_meters":0,"station_id":"ce4bgs12rcd13ifvqcag","pricing_plan_id":"free"},{"bike_id":"ec910eeb-fc03-4a03-9fd1-55d811603d77","system_id":"levelo_inurba_marseille","lat":43.30544,"lon":5.36552,"is_reserved":false,"is_disabled":false,"rental_uris":{"android":"levelo://app?vid=ec910eeb-fc03-4a03-9fd1-55d811603d77","ios":"levelo://app?vid=ec910eeb-fc03-4a03-9fd1-55d811603d77"},"vehicle_type_id":"4","last_reported":1703232573,"current_range_meters":18000,"station_id":"ce4bgs12rcd13ifvqcag","pricing_plan_id":"free"},{"bike_id":"a557f9ba-44ab-462a-9969-6e3ef0543c3f","system_id":"levelo_inurba_marseille","lat":43.305368,"lon":5.367343,"is_reserved":false,"is_disabled":false,"rental_uris":{"android":"levelo://app?vid=a557f9ba-44ab-462a-9969-6e3ef0543c3f","ios":"levelo://app?vid=a557f9ba-44ab-462a-9969-6e3ef0543c3f"},"vehicle_type_id":"4","last_reported":1703232573,"current_range_meters":20800,"station_id":"ce4bgrp2rcd13ifvqc9g","pricing_plan_id":"free"},{"bike_id":"2d701002-d957-41e3-97d1-98417911775e","system_id":"levelo_inurba_marseille","lat":43.305368,"lon":5.367343,"is_reserved":false,"is_disabled":false,"rental_uris":{"android":"levelo://app?vid=2d701002-d957-41e3-97d1-98417911775e","ios":"levelo://app?vid=2d701002-d957-41e3-97d1-98417911775e"},"vehicle_type_id":"4","last_reported":1703232573,"current_range_meters":0,"station_id":"ce4bgrp2rcd13ifvqc9g","pricing_plan_id":"free"},{"bike_id":"401635c5-dff3-40a1-a84e-2a718388a25c","system_id":"levelo_inurba_marseille","lat":43.305706,"lon":5.365654,"is_reserved":false,"is_disabled":false,"rental_uris":{"android":"levelo://app?vid=401635c5-dff3-40a1-a84e-2a718388a25c","ios":"levelo://app?vid=401635c5-dff3-40a1-a84e-2a718388a25c"},"vehicle_type_id":"4","last_reported":1703232573,"current_range_meters":16000,"station_id":"ce4bgs12rcd13ifvqcag","pricing_plan_id":"free"},{"bike_id":"24795ba9-15e6-400a-bb03-38187a2b0bfc","system_id":"levelo_inurba_marseille","lat":43.305706,"lon":5.365654,"is_reserved":false,"is_disabled":false,"rental_uris":{"android":"levelo://app?vid=24795ba9-15e6-400a-bb03-38187a2b0bfc","ios":"levelo://app?vid=24795ba9-15e6-400a-bb03-38187a2b0bfc"},"vehicle_type_id":"4","last_reported":1703232573,"current_range_meters":28400,"station_id":"ce4bgs12rcd13ifvqcag","pricing_plan_id":"free"},{"bike_id":"633f5b6e-e3bc-4381-9017-873050ba77f2","system_id":"levelo_inurba_marseille","lat":43.305989,"lon":5.37225,"is_reserved":false,"is_disabled":false,"rental_uris":{"android":"levelo://app?vid=633f5b6e-e3bc-4381-9017-873050ba77f2","ios":"levelo://app?vid=633f5b6e-e3bc-4381-9017-873050ba77f2"},"vehicle_type_id":"4","last_reported":1703232573,"current_range_meters":26400,"station_id":"ce4bgqh2rcd13ifvqc4g","pricing_plan_id":"free"},{"bike_id":"fc21c9bf-e04b-47a9-bb19-5b370336aeb3","system_id":"levelo_inurba_marseille","lat":43.305989,"lon":5.37225,"is_reserved":false,"is_disabled":false,"rental_uris":{"android":"levelo://app?vid=fc21c9bf-e04b-47a9-bb19-5b370336aeb3","ios":"levelo://app?vid=fc21c9bf-e04b-47a9-bb19-5b370336aeb3"},"vehicle_type_id":"4","last_reported":1703232573,"current_range_meters":30800,"station_id":"ce4bgqh2rcd13ifvqc4g","pricing_plan_id":"free"},{"bike_id":"46e4ab09-962a-4b78-995c-3b01e7ad1e35","system_id":"levelo_inurba_marseille","lat":43.311125,"lon":5.377624,"is_reserved":false,"is_disabled":false,"rental_uris":{"android":"levelo://app?vid=46e4ab09-962a-4b78-995c-3b01e7ad1e35","ios":"levelo://app?vid=46e4ab09-962a-4b78-995c-3b01e7ad1e35"},"vehicle_type_id":"4","last_reported":1703232573,"current_range_meters":24800,"station_id":"ce4bgt92rcd13ifvqcg0","pricing_plan_id":"free"},{"bike_id":"d735b789-2c72-4755-af41-1a8298915b83","system_id":"levelo_inurba_marseille","lat":43.307945,"lon":5.376487,"is_reserved":false,"is_disabled":false,"rental_uris":{"android":"levelo://app?vid=d735b789-2c72-4755-af41-1a8298915b83","ios":"levelo://app?vid=d735b789-2c72-4755-af41-1a8298915b83"},"vehicle_type_id":"4","last_reported":1703232573,"current_range_meters":30400,"station_id":"ce4bgv92rcd13ifvqcq0","pricing_plan_id":"free"},{"bike_id":"62ac327a-9cb6-469c-a7b9-145ba51016e0","system_id":"levelo_inurba_marseille","lat":43.30304,"lon":5.368987,"is_reserved":false,"is_disabled":false,"rental_uris":{"android":"levelo://app?vid=62ac327a-9cb6-469c-a7b9-145ba51016e0","ios":"levelo://app?vid=62ac327a-9cb6-469c-a7b9-145ba51016e0"},"vehicle_type_id":"4","last_reported":1703232573,"current_range_meters":15200,"station_id":"ce4bgqh2rcd13ifvqc5g","pricing_plan_id":"free"},{"bike_id":"54c3d865-6fae-4e2a-a304-0daaa906acc0","system_id":"levelo_inurba_marseille","lat":43.293259,"lon":5.371586,"is_reserved":false,"is_disabled":false,"rental_uris":{"android":"levelo://app?vid=54c3d865-6fae-4e2a-a304-0daaa906acc0","ios":"levelo://app?vid=54c3d865-6fae-4e2a-a304-0daaa906acc0"},"vehicle_type_id":"4","last_reported":1703232573,"current_range_meters":7200,"station_id":"ce4bgh92rcd13ifvqb40","pricing_plan_id":"free"},{"bike_id":"93a187a2-e76f-43e3-a7c9-e9600da9e92f","system_id":"levelo_inurba_marseille","lat":43.304606,"lon":5.379026,"is_reserved":false,"is_disabled":false,"rental_uris":{"android":"levelo://app?vid=93a187a2-e76f-43e3-a7c9-e9600da9e92f","ios":"levelo://app?vid=93a187a2-e76f-43e3-a7c9-e9600da9e92f"},"vehicle_type_id":"4","last_reported":1703232573,"current_range_meters":400,"station_id":"ce4bgup2rcd13ifvqcn0","pricing_plan_id":"free"},{"bike_id":"b626d074-7348-48d8-857a-fe1ff040597e","system_id":"levelo_inurba_marseille","lat":43.304606,"lon":5.379026,"is_reserved":false,"is_disabled":false,"rental_uris":{"android":"levelo://app?vid=b626d074-7348-48d8-857a-fe1ff040597e","ios":"levelo://app?vid=b626d074-7348-48d8-857a-fe1ff040597e"},"vehicle_type_id":"4","last_reported":1703232573,"current_range_meters":8800,"station_id":"ce4bgup2rcd13ifvqcn0","pricing_plan_id":"free"},{"bike_id":"2ed3bfa6-3968-4626-8613-074c8405d666","system_id":"levelo_inurba_marseille","lat":43.304606,"lon":5.379026,"is_reserved":false,"is_disabled":false,"rental_uris":{"android":"levelo://app?vid=2ed3bfa6-3968-4626-8613-074c8405d666","ios":"levelo://app?vid=2ed3bfa6-3968-4626-8613-074c8405d666"},"vehicle_type_id":"4","last_reported":1703232573,"current_range_meters":29200,"station_id":"ce4bgup2rcd13ifvqcn0","pricing_plan_id":"free"},{"bike_id":"d2078c33-1891-47e2-8889-4b690024bffd","system_id":"levelo_inurba_marseille","lat":43.304606,"lon":5.379026,"is_reserved":false,"is_disabled":false,"rental_uris":{"android":"levelo://app?vid=d2078c33-1891-47e2-8889-4b690024bffd","ios":"levelo://app?vid=d2078c33-1891-47e2-8889-4b690024bffd"},"vehicle_type_id":"4","last_reported":1703232573,"current_range_meters":22400,"station_id":"ce4bgup2rcd13ifvqcn0","pricing_plan_id":"free"},{"bike_id":"7f7ef23d-bca0-4a0f-95c5-169753a11056","system_id":"levelo_inurba_marseille","lat":43.304606,"lon":5.379026,"is_reserved":false,"is_disabled":false,"rental_uris":{"android":"levelo://app?vid=7f7ef23d-bca0-4a0f-95c5-169753a11056","ios":"levelo://app?vid=7f7ef23d-bca0-4a0f-95c5-169753a11056"},"vehicle_type_id":"4","last_reported":1703232573,"current_range_meters":12800,"station_id":"ce4bgup2rcd13ifvqcn0","pricing_plan_id":"free"},{"bike_id":"d67cfa41-505b-4e06-842d-f34ae59198dd","system_id":"levelo_inurba_marseille","lat":43.304606,"lon":5.379026,"is_reserved":false,"is_disabled":false,"rental_uris":{"android":"levelo://app?vid=d67cfa41-505b-4e06-842d-f34ae59198dd","ios":"levelo://app?vid=d67cfa41-505b-4e06-842d-f34ae59198dd"},"vehicle_type_id":"4","last_reported":1703232573,"current_range_meters":9600,"station_id":"ce4bgup2rcd13ifvqcn0","pricing_plan_id":"free"},{"bike_id":"a53fb7c0-1f70-406a-aed1-bc501a2cf4bc","system_id":"levelo_inurba_marseille","lat":43.304606,"lon":5.379026,"is_reserved":false,"is_disabled":false,"rental_uris":{"android":"levelo://app?vid=a53fb7c0-1f70-406a-aed1-bc501a2cf4bc","ios":"levelo://app?vid=a53fb7c0-1f70-406a-aed1-bc501a2cf4bc"},"vehicle_type_id":"4","last_reported":1703232573,"current_range_meters":4400,"station_id":"ce4bgup2rcd13ifvqcn0","pricing_plan_id":"free"},{"bike_id":"63dca49e-e7c5-4060-abde-fcd040fc8a8a","system_id":"levelo_inurba_marseille","lat":43.304606,"lon":5.379026,"is_reserved":false,"is_disabled":false,"rental_uris":{"android":"levelo://app?vid=63dca49e-e7c5-4060-abde-fcd040fc8a8a","ios":"levelo://app?vid=63dca49e-e7c5-4060-abde-fcd040fc8a8a"},"vehicle_type_id":"4","last_reported":1703232573,"current_range_meters":30400,"station_id":"ce4bgup2rcd13ifvqcn0","pricing_plan_id":"free"},{"bike_id":"6c32bb2c-097c-4ce1-a092-c7f1674a1d70","system_id":"levelo_inurba_marseille","lat":43.304606,"lon":5.379026,"is_reserved":false,"is_disabled":false,"rental_uris":{"android":"levelo://app?vid=6c32bb2c-097c-4ce1-a092-c7f1674a1d70","ios":"levelo://app?vid=6c32bb2c-097c-4ce1-a092-c7f1674a1d70"},"vehicle_type_id":"4","last_reported":1703232573,"current_range_meters":19600,"station_id":"ce4bgup2rcd13ifvqcn0","pricing_plan_id":"free"},{"bike_id":"ea63f5ff-ed2a-4a1c-a64b-fef4232b63de","system_id":"levelo_inurba_marseille","lat":43.324771,"lon":5.36557,"is_reserved":false,"is_disabled":false,"rental_uris":{"android":"levelo://app?vid=ea63f5ff-ed2a-4a1c-a64b-fef4232b63de","ios":"levelo://app?vid=ea63f5ff-ed2a-4a1c-a64b-fef4232b63de"},"vehicle_type_id":"4","last_reported":1703232573,"current_range_meters":31200,"station_id":"ce4bhs12rcd13ifvqhvg","pricing_plan_id":"free"},{"bike_id":"5393f3a5-e6f3-407b-b0df-71b0efdebe10","system_id":"levelo_inurba_marseille","lat":43.302784,"lon":5.377158,"is_reserved":false,"is_disabled":false,"rental_uris":{"android":"levelo://app?vid=5393f3a5-e6f3-407b-b0df-71b0efdebe10","ios":"levelo://app?vid=5393f3a5-e6f3-407b-b0df-71b0efdebe10"},"vehicle_type_id":"4","last_reported":1703232573,"current_range_meters":18000,"station_id":"ce4bguh2rcd13ifvqcj0","pricing_plan_id":"free"},{"bike_id":"f7a73b3c-8ebe-495b-9eef-6e6905a55b1a","system_id":"levelo_inurba_marseille","lat":43.301429,"lon":5.37413,"is_reserved":false,"is_disabled":false,"rental_uris":{"android":"levelo://app?vid=f7a73b3c-8ebe-495b-9eef-6e6905a55b1a","ios":"levelo://app?vid=f7a73b3c-8ebe-495b-9eef-6e6905a55b1a"},"vehicle_type_id":"4","last_reported":1703232573,"current_range_meters":30400,"station_id":"ce4bgs92rcd13ifvqcc0","pricing_plan_id":"free"},{"bike_id":"51360f23-00df-4b8c-b369-faeb35be788d","system_id":"levelo_inurba_marseille","lat":43.31998,"lon":5.38152,"is_reserved":false,"is_disabled":false,"rental_uris":{"android":"levelo://app?vid=51360f23-00df-4b8c-b369-faeb35be788d","ios":"levelo://app?vid=51360f23-00df-4b8c-b369-faeb35be788d"},"vehicle_type_id":"4","last_reported":1703232573,"current_range_meters":27600,"station_id":"ce4bhr12rcd13ifvqhpg","pricing_plan_id":"free"},{"bike_id":"0effb7f6-23e5-4f02-a1eb-80bdf14a191a","system_id":"levelo_inurba_marseille","lat":43.31998,"lon":5.38153,"is_reserved":false,"is_disabled":false,"rental_uris":{"android":"levelo://app?vid=0effb7f6-23e5-4f02-a1eb-80bdf14a191a","ios":"levelo://app?vid=0effb7f6-23e5-4f02-a1eb-80bdf14a191a"},"vehicle_type_id":"4","last_reported":1703232573,"current_range_meters":29600,"station_id":"ce4bhr12rcd13ifvqhpg","pricing_plan_id":"free"},{"bike_id":"dc0f6af5-c02c-4610-baea-e5c6ca16f530","system_id":"levelo_inurba_marseille","lat":43.32,"lon":5.38154,"is_reserved":false,"is_disabled":false,"rental_uris":{"android":"levelo://app?vid=dc0f6af5-c02c-4610-baea-e5c6ca16f530","ios":"levelo://app?vid=dc0f6af5-c02c-4610-baea-e5c6ca16f530"},"vehicle_type_id":"4","last_reported":1703232573,"current_range_meters":29600,"station_id":"ce4bhr12rcd13ifvqhpg","pricing_plan_id":"free"},{"bike_id":"af0ab532-e26f-41d4-b9ce-17ae08ae4cee","system_id":"levelo_inurba_marseille","lat":43.320005,"lon":5.381601,"is_reserved":false,"is_disabled":false,"rental_uris":{"android":"levelo://app?vid=af0ab532-e26f-41d4-b9ce-17ae08ae4cee","ios":"levelo://app?vid=af0ab532-e26f-41d4-b9ce-17ae08ae4cee"},"vehicle_type_id":"4","last_reported":1703232573,"current_range_meters":7200,"station_id":"ce4bhr12rcd13ifvqhpg","pricing_plan_id":"free"},{"bike_id":"c5cae810-39cc-4218-86e0-83a8342df03b","system_id":"levelo_inurba_marseille","lat":43.325766,"lon":5.366299,"is_reserved":false,"is_disabled":false,"rental_uris":{"android":"levelo://app?vid=c5cae810-39cc-4218-86e0-83a8342df03b","ios":"levelo://app?vid=c5cae810-39cc-4218-86e0-83a8342df03b"},"vehicle_type_id":"4","last_reported":1703232573,"current_range_meters":10800,"station_id":"","pricing_plan_id":"free"},{"bike_id":"7a053a39-0a0a-49da-aea4-072ad3b64252","system_id":"levelo_inurba_marseille","lat":43.313571,"lon":5.384829,"is_reserved":false,"is_disabled":false,"rental_uris":{"android":"levelo://app?vid=7a053a39-0a0a-49da-aea4-072ad3b64252","ios":"levelo://app?vid=7a053a39-0a0a-49da-aea4-072ad3b64252"},"vehicle_type_id":"4","last_reported":1703232573,"current_range_meters":13200,"station_id":"ce4bgt92rcd13ifvqcf0","pricing_plan_id":"free"},{"bike_id":"b010fe41-76b7-4cc6-9d9c-de8fed54ed29","system_id":"levelo_inurba_marseille","lat":43.299724,"lon":5.371829,"is_reserved":false,"is_disabled":false,"rental_uris":{"android":"levelo://app?vid=b010fe41-76b7-4cc6-9d9c-de8fed54ed29","ios":"levelo://app?vid=b010fe41-76b7-4cc6-9d9c-de8fed54ed29"},"vehicle_type_id":"4","last_reported":1703232573,"current_range_meters":10400,"station_id":"ce4bgr92rcd13ifvqc7g","pricing_plan_id":"free"},{"bike_id":"4414ffc8-1564-4297-a5fb-50dceb8116e2","system_id":"levelo_inurba_marseille","lat":43.299724,"lon":5.371829,"is_reserved":false,"is_disabled":false,"rental_uris":{"android":"levelo://app?vid=4414ffc8-1564-4297-a5fb-50dceb8116e2","ios":"levelo://app?vid=4414ffc8-1564-4297-a5fb-50dceb8116e2"},"vehicle_type_id":"4","last_reported":1703232573,"current_range_meters":17600,"station_id":"ce4bgr92rcd13ifvqc7g","pricing_plan_id":"free"},{"bike_id":"160cd746-5f2e-4ae4-8992-4209d99b45f1","system_id":"levelo_inurba_marseille","lat":43.299243,"lon":5.374807,"is_reserved":false,"is_disabled":false,"rental_uris":{"android":"levelo://app?vid=160cd746-5f2e-4ae4-8992-4209d99b45f1","ios":"levelo://app?vid=160cd746-5f2e-4ae4-8992-4209d99b45f1"},"vehicle_type_id":"4","last_reported":1703232573,"current_range_meters":23200,"station_id":"ce4bgjh2rcd13ifvqbg0","pricing_plan_id":"free"},{"bike_id":"6baf5627-4f30-41c0-b24e-50b8cd6737f3","system_id":"levelo_inurba_marseille","lat":43.298433,"lon":5.362774,"is_reserved":false,"is_disabled":false,"rental_uris":{"android":"levelo://app?vid=6baf5627-4f30-41c0-b24e-50b8cd6737f3","ios":"levelo://app?vid=6baf5627-4f30-41c0-b24e-50b8cd6737f3"},"vehicle_type_id":"4","last_reported":1703232573,"current_range_meters":20000,"station_id":"ce4bgpp2rcd13ifvqc3g","pricing_plan_id":"free"},{"bike_id":"7a506112-0d06-4661-96c5-7498b4f17d3d","system_id":"levelo_inurba_marseille","lat":43.31178,"lon":5.3871,"is_reserved":false,"is_disabled":false,"rental_uris":{"android":"levelo://app?vid=7a506112-0d06-4661-96c5-7498b4f17d3d","ios":"levelo://app?vid=7a506112-0d06-4661-96c5-7498b4f17d3d"},"vehicle_type_id":"4","last_reported":1703232573,"current_range_meters":27600,"station_id":"ce4bgv12rcd13ifvqcp0","pricing_plan_id":"free"},{"bike_id":"0e32e546-d5a2-41b7-b98e-a9bb61dfa115","system_id":"levelo_inurba_marseille","lat":43.311722,"lon":5.387247,"is_reserved":false,"is_disabled":false,"rental_uris":{"android":"levelo://app?vid=0e32e546-d5a2-41b7-b98e-a9bb61dfa115","ios":"levelo://app?vid=0e32e546-d5a2-41b7-b98e-a9bb61dfa115"},"vehicle_type_id":"4","last_reported":1703232573,"current_range_meters":24400,"station_id":"ce4bgv12rcd13ifvqcp0","pricing_plan_id":"free"},{"bike_id":"67604964-d2b9-4d0a-b4ce-00b815014e9c","system_id":"levelo_inurba_marseille","lat":43.326937,"lon":5.373183,"is_reserved":false,"is_disabled":false,"rental_uris":{"android":"levelo://app?vid=67604964-d2b9-4d0a-b4ce-00b815014e9c","ios":"levelo://app?vid=67604964-d2b9-4d0a-b4ce-00b815014e9c"},"vehicle_type_id":"4","last_reported":1703232573,"current_range_meters":17200,"station_id":"","pricing_plan_id":"free"},{"bike_id":"251fb61a-5899-4439-9cb9-e7a898709b7a","system_id":"levelo_inurba_marseille","lat":43.297794,"lon":5.370888,"is_reserved":false,"is_disabled":false,"rental_uris":{"android":"levelo://app?vid=251fb61a-5899-4439-9cb9-e7a898709b7a","ios":"levelo://app?vid=251fb61a-5899-4439-9cb9-e7a898709b7a"},"vehicle_type_id":"4","last_reported":1703232573,"current_range_meters":31600,"station_id":"ce4bgop2rcd13ifvqc1g","pricing_plan_id":"free"},{"bike_id":"36d28493-1c8b-4172-8521-92f4f6df8d99","system_id":"levelo_inurba_marseille","lat":43.297794,"lon":5.370888,"is_reserved":false,"is_disabled":false,"rental_uris":{"android":"levelo://app?vid=36d28493-1c8b-4172-8521-92f4f6df8d99","ios":"levelo://app?vid=36d28493-1c8b-4172-8521-92f4f6df8d99"},"vehicle_type_id":"4","last_reported":1703232573,"current_range_meters":0,"station_id":"ce4bgop2rcd13ifvqc1g","pricing_plan_id":"free"},{"bike_id":"b58c4005-ed15-40ec-b249-38d0c39e7d3b","system_id":"levelo_inurba_marseille","lat":43.322872,"lon":5.382756,"is_reserved":false,"is_disabled":false,"rental_uris":{"android":"levelo://app?vid=b58c4005-ed15-40ec-b249-38d0c39e7d3b","ios":"levelo://app?vid=b58c4005-ed15-40ec-b249-38d0c39e7d3b"},"vehicle_type_id":"4","last_reported":1703232573,"current_range_meters":26800,"station_id":"ce4bhr12rcd13ifvqhqg","pricing_plan_id":"free"},{"bike_id":"2d0ccb8c-a8f7-4ee9-8463-316526ef0ad5","system_id":"levelo_inurba_marseille","lat":43.322872,"lon":5.382756,"is_reserved":false,"is_disabled":false,"rental_uris":{"android":"levelo://app?vid=2d0ccb8c-a8f7-4ee9-8463-316526ef0ad5","ios":"levelo://app?vid=2d0ccb8c-a8f7-4ee9-8463-316526ef0ad5"},"vehicle_type_id":"4","last_reported":1703232573,"current_range_meters":31600,"station_id":"ce4bhr12rcd13ifvqhqg","pricing_plan_id":"free"},{"bike_id":"0e18aacc-a0a4-43f4-b14e-a9e7be78440e","system_id":"levelo_inurba_marseille","lat":43.328371,"lon":5.366909,"is_reserved":false,"is_disabled":false,"rental_uris":{"android":"levelo://app?vid=0e18aacc-a0a4-43f4-b14e-a9e7be78440e","ios":"levelo://app?vid=0e18aacc-a0a4-43f4-b14e-a9e7be78440e"},"vehicle_type_id":"4","last_reported":1703232573,"current_range_meters":29600,"station_id":"ce4bhs92rcd13ifvqi0g","pricing_plan_id":"free"},{"bike_id":"e299beb3-acc1-46fa-9fec-22d2fe5e6b13","system_id":"levelo_inurba_marseille","lat":43.328371,"lon":5.366909,"is_reserved":false,"is_disabled":false,"rental_uris":{"android":"levelo://app?vid=e299beb3-acc1-46fa-9fec-22d2fe5e6b13","ios":"levelo://app?vid=e299beb3-acc1-46fa-9fec-22d2fe5e6b13"},"vehicle_type_id":"4","last_reported":1703232573,"current_range_meters":18800,"station_id":"ce4bhs92rcd13ifvqi0g","pricing_plan_id":"free"},{"bike_id":"0e3aac2e-4154-42fa-875f-5a44e14813de","system_id":"levelo_inurba_marseille","lat":43.328371,"lon":5.366909,"is_reserved":false,"is_disabled":false,"rental_uris":{"android":"levelo://app?vid=0e3aac2e-4154-42fa-875f-5a44e14813de","ios":"levelo://app?vid=0e3aac2e-4154-42fa-875f-5a44e14813de"},"vehicle_type_id":"4","last_reported":1703232573,"current_range_meters":2400,"station_id":"ce4bhs92rcd13ifvqi0g","pricing_plan_id":"free"},{"bike_id":"8bf0395d-c27d-407d-bf00-1fe14b7d1f01","system_id":"levelo_inurba_marseille","lat":43.328371,"lon":5.366909,"is_reserved":false,"is_disabled":false,"rental_uris":{"android":"levelo://app?vid=8bf0395d-c27d-407d-bf00-1fe14b7d1f01","ios":"levelo://app?vid=8bf0395d-c27d-407d-bf00-1fe14b7d1f01"},"vehicle_type_id":"4","last_reported":1703232573,"current_range_meters":6400,"station_id":"ce4bhs92rcd13ifvqi0g","pricing_plan_id":"free"},{"bike_id":"fd993600-015b-4a57-8e11-1499ff8a6b71","system_id":"levelo_inurba_marseille","lat":43.328371,"lon":5.366909,"is_reserved":false,"is_disabled":false,"rental_uris":{"android":"levelo://app?vid=fd993600-015b-4a57-8e11-1499ff8a6b71","ios":"levelo://app?vid=fd993600-015b-4a57-8e11-1499ff8a6b71"},"vehicle_type_id":"4","last_reported":1703232573,"current_range_meters":17600,"station_id":"ce4bhs92rcd13ifvqi0g","pricing_plan_id":"free"},{"bike_id":"525f6ec1-c089-48ad-8216-d8e073aa768d","system_id":"levelo_inurba_marseille","lat":43.328371,"lon":5.366909,"is_reserved":false,"is_disabled":false,"rental_uris":{"android":"levelo://app?vid=525f6ec1-c089-48ad-8216-d8e073aa768d","ios":"levelo://app?vid=525f6ec1-c089-48ad-8216-d8e073aa768d"},"vehicle_type_id":"4","last_reported":1703232573,"current_range_meters":8800,"station_id":"ce4bhs92rcd13ifvqi0g","pricing_plan_id":"free"},{"bike_id":"e59074bb-49fe-49a4-9b5c-50c0e3847ad9","system_id":"levelo_inurba_marseille","lat":43.29587,"lon":5.36732,"is_reserved":false,"is_disabled":false,"rental_uris":{"android":"levelo://app?vid=e59074bb-49fe-49a4-9b5c-50c0e3847ad9","ios":"levelo://app?vid=e59074bb-49fe-49a4-9b5c-50c0e3847ad9"},"vehicle_type_id":"4","last_reported":1703232573,"current_range_meters":31600,"station_id":"","pricing_plan_id":"free"},{"bike_id":"8fe03272-f0a0-4d89-b133-e9d793f8e9b1","system_id":"levelo_inurba_marseille","lat":43.29573,"lon":5.367355,"is_reserved":false,"is_disabled":false,"rental_uris":{"android":"levelo://app?vid=8fe03272-f0a0-4d89-b133-e9d793f8e9b1","ios":"levelo://app?vid=8fe03272-f0a0-4d89-b133-e9d793f8e9b1"},"vehicle_type_id":"4","last_reported":1703232573,"current_range_meters":26400,"station_id":"ce4bgph2rcd13ifvqc2g","pricing_plan_id":"free"},{"bike_id":"39eb8a71-eec9-46ff-abe5-bc7ae1310759","system_id":"levelo_inurba_marseille","lat":43.29573,"lon":5.367355,"is_reserved":false,"is_disabled":false,"rental_uris":{"android":"levelo://app?vid=39eb8a71-eec9-46ff-abe5-bc7ae1310759","ios":"levelo://app?vid=39eb8a71-eec9-46ff-abe5-bc7ae1310759"},"vehicle_type_id":"4","last_reported":1703232573,"current_range_meters":19200,"station_id":"ce4bgph2rcd13ifvqc2g","pricing_plan_id":"free"},{"bike_id":"54b3d193-512f-4301-961e-db4f771586a0","system_id":"levelo_inurba_marseille","lat":43.299028,"lon":5.381509,"is_reserved":false,"is_disabled":false,"rental_uris":{"android":"levelo://app?vid=54b3d193-512f-4301-961e-db4f771586a0","ios":"levelo://app?vid=54b3d193-512f-4301-961e-db4f771586a0"},"vehicle_type_id":"4","last_reported":1703232573,"current_range_meters":16800,"station_id":"ce4bgj12rcd13ifvqbc0","pricing_plan_id":"free"},{"bike_id":"8770e03e-8526-4ba1-b4ea-6cef146a428c","system_id":"levelo_inurba_marseille","lat":43.309589,"lon":5.390258,"is_reserved":false,"is_disabled":false,"rental_uris":{"android":"levelo://app?vid=8770e03e-8526-4ba1-b4ea-6cef146a428c","ios":"levelo://app?vid=8770e03e-8526-4ba1-b4ea-6cef146a428c"},"vehicle_type_id":"4","last_reported":1703232573,"current_range_meters":23600,"station_id":"ce4bgup2rcd13ifvqco0","pricing_plan_id":"free"},{"bike_id":"efab0786-2a3b-48d9-8d65-8e649542a966","system_id":"levelo_inurba_marseille","lat":43.309589,"lon":5.390258,"is_reserved":false,"is_disabled":false,"rental_uris":{"android":"levelo://app?vid=efab0786-2a3b-48d9-8d65-8e649542a966","ios":"levelo://app?vid=efab0786-2a3b-48d9-8d65-8e649542a966"},"vehicle_type_id":"4","last_reported":1703232573,"current_range_meters":13600,"station_id":"ce4bgup2rcd13ifvqco0","pricing_plan_id":"free"},{"bike_id":"16cafd93-cdac-483c-8960-ef5fa278b7ef","system_id":"levelo_inurba_marseille","lat":43.309589,"lon":5.390258,"is_reserved":false,"is_disabled":false,"rental_uris":{"android":"levelo://app?vid=16cafd93-cdac-483c-8960-ef5fa278b7ef","ios":"levelo://app?vid=16cafd93-cdac-483c-8960-ef5fa278b7ef"},"vehicle_type_id":"4","last_reported":1703232573,"current_range_meters":27200,"station_id":"ce4bgup2rcd13ifvqco0","pricing_plan_id":"free"},{"bike_id":"b4bc59da-b0ba-4058-95f7-1ecf6a433714","system_id":"levelo_inurba_marseille","lat":43.309589,"lon":5.390258,"is_reserved":false,"is_disabled":false,"rental_uris":{"android":"levelo://app?vid=b4bc59da-b0ba-4058-95f7-1ecf6a433714","ios":"levelo://app?vid=b4bc59da-b0ba-4058-95f7-1ecf6a433714"},"vehicle_type_id":"4","last_reported":1703232573,"current_range_meters":20800,"station_id":"ce4bgup2rcd13ifvqco0","pricing_plan_id":"free"},{"bike_id":"7eada8fb-8c59-41ea-ae15-1164bd9fc1af","system_id":"levelo_inurba_marseille","lat":43.317557,"lon":5.390173,"is_reserved":false,"is_disabled":false,"rental_uris":{"android":"levelo://app?vid=7eada8fb-8c59-41ea-ae15-1164bd9fc1af","ios":"levelo://app?vid=7eada8fb-8c59-41ea-ae15-1164bd9fc1af"},"vehicle_type_id":"4","last_reported":1703232573,"current_range_meters":21200,"station_id":"ce4bhqp2rcd13ifvqhng","pricing_plan_id":"free"},{"bike_id":"3a1f228d-06ce-4355-b331-b83130b7013a","system_id":"levelo_inurba_marseille","lat":43.317557,"lon":5.390173,"is_reserved":false,"is_disabled":false,"rental_uris":{"android":"levelo://app?vid=3a1f228d-06ce-4355-b331-b83130b7013a","ios":"levelo://app?vid=3a1f228d-06ce-4355-b331-b83130b7013a"},"vehicle_type_id":"4","last_reported":1703232573,"current_range_meters":10400,"station_id":"ce4bhqp2rcd13ifvqhng","pricing_plan_id":"free"},{"bike_id":"53d02047-2fc2-4d30-88b2-583fd58923ab","system_id":"levelo_inurba_marseille","lat":43.317557,"lon":5.390173,"is_reserved":false,"is_disabled":false,"rental_uris":{"android":"levelo://app?vid=53d02047-2fc2-4d30-88b2-583fd58923ab","ios":"levelo://app?vid=53d02047-2fc2-4d30-88b2-583fd58923ab"},"vehicle_type_id":"4","last_reported":1703232573,"current_range_meters":30800,"station_id":"ce4bhqp2rcd13ifvqhng","pricing_plan_id":"free"},{"bike_id":"43688290-366e-4e0b-a4ab-a09ab0375962","system_id":"levelo_inurba_marseille","lat":43.29578,"lon":5.37487,"is_reserved":false,"is_disabled":false,"rental_uris":{"android":"levelo://app?vid=43688290-366e-4e0b-a4ab-a09ab0375962","ios":"levelo://app?vid=43688290-366e-4e0b-a4ab-a09ab0375962"},"vehicle_type_id":"4","last_reported":1703232573,"current_range_meters":20400,"station_id":"ce4bgh92rcd13ifvqb50","pricing_plan_id":"free"},{"bike_id":"03f2c536-7d36-4087-ba0a-629c920d3f38","system_id":"levelo_inurba_marseille","lat":43.295748,"lon":5.37522,"is_reserved":false,"is_disabled":false,"rental_uris":{"android":"levelo://app?vid=03f2c536-7d36-4087-ba0a-629c920d3f38","ios":"levelo://app?vid=03f2c536-7d36-4087-ba0a-629c920d3f38"},"vehicle_type_id":"4","last_reported":1703232573,"current_range_meters":24400,"station_id":"ce4bgh92rcd13ifvqb50","pricing_plan_id":"free"},{"bike_id":"e2e7360a-5312-4d53-ba8b-1c908aa653e0","system_id":"levelo_inurba_marseille","lat":43.295748,"lon":5.37522,"is_reserved":false,"is_disabled":false,"rental_uris":{"android":"levelo://app?vid=e2e7360a-5312-4d53-ba8b-1c908aa653e0","ios":"levelo://app?vid=e2e7360a-5312-4d53-ba8b-1c908aa653e0"},"vehicle_type_id":"4","last_reported":1703232573,"current_range_meters":29200,"station_id":"ce4bgh92rcd13ifvqb50","pricing_plan_id":"free"},{"bike_id":"9441544a-625d-4913-adaf-b3d9dd0d28a9","system_id":"levelo_inurba_marseille","lat":43.304274,"lon":5.388873,"is_reserved":false,"is_disabled":false,"rental_uris":{"android":"levelo://app?vid=9441544a-625d-4913-adaf-b3d9dd0d28a9","ios":"levelo://app?vid=9441544a-625d-4913-adaf-b3d9dd0d28a9"},"vehicle_type_id":"4","last_reported":1703232573,"current_range_meters":30400,"station_id":"ce4bgk12rcd13ifvqbi0","pricing_plan_id":"free"},{"bike_id":"21fe6654-67ca-42c6-9e81-9c9d0c7f3f68","system_id":"levelo_inurba_marseille","lat":43.304278,"lon":5.388868,"is_reserved":false,"is_disabled":false,"rental_uris":{"android":"levelo://app?vid=21fe6654-67ca-42c6-9e81-9c9d0c7f3f68","ios":"levelo://app?vid=21fe6654-67ca-42c6-9e81-9c9d0c7f3f68"},"vehicle_type_id":"4","last_reported":1703232573,"current_range_meters":6800,"station_id":"ce4bgk12rcd13ifvqbi0","pricing_plan_id":"free"},{"bike_id":"1a9d6639-9f41-4b90-a58a-4a17af0abffe","system_id":"levelo_inurba_marseille","lat":43.296105,"lon":5.37714,"is_reserved":false,"is_disabled":false,"rental_uris":{"android":"levelo://app?vid=1a9d6639-9f41-4b90-a58a-4a17af0abffe","ios":"levelo://app?vid=1a9d6639-9f41-4b90-a58a-4a17af0abffe"},"vehicle_type_id":"4","last_reported":1703232573,"current_range_meters":6400,"station_id":"ce4bgi92rcd13ifvqb90","pricing_plan_id":"free"},{"bike_id":"a1d9c4be-ad39-4101-a891-21ec75bd8c4c","system_id":"levelo_inurba_marseille","lat":43.299707,"lon":5.384859,"is_reserved":false,"is_disabled":false,"rental_uris":{"android":"levelo://app?vid=a1d9c4be-ad39-4101-a891-21ec75bd8c4c","ios":"levelo://app?vid=a1d9c4be-ad39-4101-a891-21ec75bd8c4c"},"vehicle_type_id":"4","last_reported":1703232573,"current_range_meters":31200,"station_id":"ce4bgj92rcd13ifvqbd0","pricing_plan_id":"free"},{"bike_id":"1378810b-812d-44e5-847a-1b7aeb90e4c4","system_id":"levelo_inurba_marseille","lat":43.299,"lon":5.38357,"is_reserved":false,"is_disabled":false,"rental_uris":{"android":"levelo://app?vid=1378810b-812d-44e5-847a-1b7aeb90e4c4","ios":"levelo://app?vid=1378810b-812d-44e5-847a-1b7aeb90e4c4"},"vehicle_type_id":"4","last_reported":1703232573,"current_range_meters":7600,"station_id":"","pricing_plan_id":"free"},{"bike_id":"7919eadd-c520-4cda-9196-5dc5695e55f6","system_id":"levelo_inurba_marseille","lat":43.298418,"lon":5.382789,"is_reserved":false,"is_disabled":false,"rental_uris":{"android":"levelo://app?vid=7919eadd-c520-4cda-9196-5dc5695e55f6","ios":"levelo://app?vid=7919eadd-c520-4cda-9196-5dc5695e55f6"},"vehicle_type_id":"4","last_reported":1703232573,"current_range_meters":6800,"station_id":"","pricing_plan_id":"free"},{"bike_id":"a7d77ead-acdb-47d8-8e78-4cbe5399eead","system_id":"levelo_inurba_marseille","lat":43.295279,"lon":5.375048,"is_reserved":false,"is_disabled":false,"rental_uris":{"android":"levelo://app?vid=a7d77ead-acdb-47d8-8e78-4cbe5399eead","ios":"levelo://app?vid=a7d77ead-acdb-47d8-8e78-4cbe5399eead"},"vehicle_type_id":"4","last_reported":1703232573,"current_range_meters":11200,"station_id":"ce4bgkp2rcd13ifvqbmg","pricing_plan_id":"free"},{"bike_id":"4ec7f9ee-3059-4281-9f08-dc41f2a9f5d0","system_id":"levelo_inurba_marseille","lat":43.32367,"lon":5.388836,"is_reserved":false,"is_disabled":false,"rental_uris":{"android":"levelo://app?vid=4ec7f9ee-3059-4281-9f08-dc41f2a9f5d0","ios":"levelo://app?vid=4ec7f9ee-3059-4281-9f08-dc41f2a9f5d0"},"vehicle_type_id":"4","last_reported":1703232573,"current_range_meters":6800,"station_id":"ce4bhqp2rcd13ifvqhog","pricing_plan_id":"free"},{"bike_id":"c63e5769-18da-4431-86a0-1325e0ee1435","system_id":"levelo_inurba_marseille","lat":43.32367,"lon":5.388836,"is_reserved":false,"is_disabled":false,"rental_uris":{"android":"levelo://app?vid=c63e5769-18da-4431-86a0-1325e0ee1435","ios":"levelo://app?vid=c63e5769-18da-4431-86a0-1325e0ee1435"},"vehicle_type_id":"4","last_reported":1703232573,"current_range_meters":25600,"station_id":"ce4bhqp2rcd13ifvqhog","pricing_plan_id":"free"},{"bike_id":"6bc005d8-6c9e-4ae1-b98d-409c3cb65d81","system_id":"levelo_inurba_marseille","lat":43.32367,"lon":5.388836,"is_reserved":false,"is_disabled":false,"rental_uris":{"android":"levelo://app?vid=6bc005d8-6c9e-4ae1-b98d-409c3cb65d81","ios":"levelo://app?vid=6bc005d8-6c9e-4ae1-b98d-409c3cb65d81"},"vehicle_type_id":"4","last_reported":1703232573,"current_range_meters":12800,"station_id":"ce4bhqp2rcd13ifvqhog","pricing_plan_id":"free"},{"bike_id":"7825f2e2-5dc0-48bf-9610-bf0be308ff43","system_id":"levelo_inurba_marseille","lat":43.32367,"lon":5.388836,"is_reserved":false,"is_disabled":false,"rental_uris":{"android":"levelo://app?vid=7825f2e2-5dc0-48bf-9610-bf0be308ff43","ios":"levelo://app?vid=7825f2e2-5dc0-48bf-9610-bf0be308ff43"},"vehicle_type_id":"4","last_reported":1703232573,"current_range_meters":0,"station_id":"ce4bhqp2rcd13ifvqhog","pricing_plan_id":"free"},{"bike_id":"d29c19db-732d-44f3-9f64-cb8299fc3542","system_id":"levelo_inurba_marseille","lat":43.29601,"lon":5.381084,"is_reserved":false,"is_disabled":false,"rental_uris":{"android":"levelo://app?vid=d29c19db-732d-44f3-9f64-cb8299fc3542","ios":"levelo://app?vid=d29c19db-732d-44f3-9f64-cb8299fc3542"},"vehicle_type_id":"4","last_reported":1703232573,"current_range_meters":23600,"station_id":"ce4bgl12rcd13ifvqbo0","pricing_plan_id":"free"},{"bike_id":"a9f9e8ee-0320-401f-bc82-15151fd3e311","system_id":"levelo_inurba_marseille","lat":43.293259,"lon":5.371586,"is_reserved":false,"is_disabled":false,"rental_uris":{"android":"levelo://app?vid=a9f9e8ee-0320-401f-bc82-15151fd3e311","ios":"levelo://app?vid=a9f9e8ee-0320-401f-bc82-15151fd3e311"},"vehicle_type_id":"4","last_reported":1703232573,"current_range_meters":24400,"station_id":"ce4bgh92rcd13ifvqb40","pricing_plan_id":"free"},{"bike_id":"43325e32-9ed5-4c1e-ae00-71f7b44be0db","system_id":"levelo_inurba_marseille","lat":43.292749,"lon":5.368402,"is_reserved":false,"is_disabled":false,"rental_uris":{"android":"levelo://app?vid=43325e32-9ed5-4c1e-ae00-71f7b44be0db","ios":"levelo://app?vid=43325e32-9ed5-4c1e-ae00-71f7b44be0db"},"vehicle_type_id":"4","last_reported":1703232573,"current_range_meters":11200,"station_id":"ce4bhbp2rcd13ifvqesg","pricing_plan_id":"free"},{"bike_id":"ba12219f-1edb-4cd3-a1a6-6763f97bd1fb","system_id":"levelo_inurba_marseille","lat":43.292749,"lon":5.368402,"is_reserved":false,"is_disabled":false,"rental_uris":{"android":"levelo://app?vid=ba12219f-1edb-4cd3-a1a6-6763f97bd1fb","ios":"levelo://app?vid=ba12219f-1edb-4cd3-a1a6-6763f97bd1fb"},"vehicle_type_id":"4","last_reported":1703232573,"current_range_meters":22000,"station_id":"ce4bhbp2rcd13ifvqesg","pricing_plan_id":"free"},{"bike_id":"892f6653-bba9-4110-8cf1-a620789c4921","system_id":"levelo_inurba_marseille","lat":43.30588,"lon":5.3934,"is_reserved":false,"is_disabled":false,"rental_uris":{"android":"levelo://app?vid=892f6653-bba9-4110-8cf1-a620789c4921","ios":"levelo://app?vid=892f6653-bba9-4110-8cf1-a620789c4921"},"vehicle_type_id":"4","last_reported":1703232573,"current_range_meters":16800,"station_id":"ce4bh0p2rcd13ifvqd80","pricing_plan_id":"free"},{"bike_id":"5ee4b778-e1b5-47b0-9357-6e57117dfc98","system_id":"levelo_inurba_marseille","lat":43.293009,"lon":5.374584,"is_reserved":false,"is_disabled":false,"rental_uris":{"android":"levelo://app?vid=5ee4b778-e1b5-47b0-9357-6e57117dfc98","ios":"levelo://app?vid=5ee4b778-e1b5-47b0-9357-6e57117dfc98"},"vehicle_type_id":"4","last_reported":1703232573,"current_range_meters":0,"station_id":"ce4bgi12rcd13ifvqb70","pricing_plan_id":"free"},{"bike_id":"7e834012-b862-44d4-8394-3d1ee953b374","system_id":"levelo_inurba_marseille","lat":43.30597,"lon":5.39355,"is_reserved":false,"is_disabled":false,"rental_uris":{"android":"levelo://app?vid=7e834012-b862-44d4-8394-3d1ee953b374","ios":"levelo://app?vid=7e834012-b862-44d4-8394-3d1ee953b374"},"vehicle_type_id":"4","last_reported":1703232573,"current_range_meters":30000,"station_id":"ce4bh0p2rcd13ifvqd80","pricing_plan_id":"free"},{"bike_id":"84c1a834-5a65-498f-a093-35f3f9c9bd3b","system_id":"levelo_inurba_marseille","lat":43.293009,"lon":5.374584,"is_reserved":false,"is_disabled":false,"rental_uris":{"android":"levelo://app?vid=84c1a834-5a65-498f-a093-35f3f9c9bd3b","ios":"levelo://app?vid=84c1a834-5a65-498f-a093-35f3f9c9bd3b"},"vehicle_type_id":"4","last_reported":1703232573,"current_range_meters":20000,"station_id":"ce4bgi12rcd13ifvqb70","pricing_plan_id":"free"},{"bike_id":"1c8a11d6-fe82-4a6b-b49f-f94791007e26","system_id":"levelo_inurba_marseille","lat":43.305962,"lon":5.393556,"is_reserved":false,"is_disabled":false,"rental_uris":{"android":"levelo://app?vid=1c8a11d6-fe82-4a6b-b49f-f94791007e26","ios":"levelo://app?vid=1c8a11d6-fe82-4a6b-b49f-f94791007e26"},"vehicle_type_id":"4","last_reported":1703232573,"current_range_meters":30800,"station_id":"ce4bh0p2rcd13ifvqd80","pricing_plan_id":"free"},{"bike_id":"73bc4254-091e-4208-bb7a-e7e78d066eaf","system_id":"levelo_inurba_marseille","lat":43.30598,"lon":5.39358,"is_reserved":false,"is_disabled":false,"rental_uris":{"android":"levelo://app?vid=73bc4254-091e-4208-bb7a-e7e78d066eaf","ios":"levelo://app?vid=73bc4254-091e-4208-bb7a-e7e78d066eaf"},"vehicle_type_id":"4","last_reported":1703232573,"current_range_meters":27600,"station_id":"ce4bh0p2rcd13ifvqd80","pricing_plan_id":"free"},{"bike_id":"5e02b7a9-db25-41ad-8a12-a4c9bbaad687","system_id":"levelo_inurba_marseille","lat":43.305994,"lon":5.393687,"is_reserved":false,"is_disabled":false,"rental_uris":{"android":"levelo://app?vid=5e02b7a9-db25-41ad-8a12-a4c9bbaad687","ios":"levelo://app?vid=5e02b7a9-db25-41ad-8a12-a4c9bbaad687"},"vehicle_type_id":"4","last_reported":1703232573,"current_range_meters":30800,"station_id":"ce4bh0p2rcd13ifvqd80","pricing_plan_id":"free"},{"bike_id":"20cd0380-027c-4f8f-aab9-b74f52437e74","system_id":"levelo_inurba_marseille","lat":43.305994,"lon":5.393687,"is_reserved":false,"is_disabled":false,"rental_uris":{"android":"levelo://app?vid=20cd0380-027c-4f8f-aab9-b74f52437e74","ios":"levelo://app?vid=20cd0380-027c-4f8f-aab9-b74f52437e74"},"vehicle_type_id":"4","last_reported":1703232573,"current_range_meters":31200,"station_id":"ce4bh0p2rcd13ifvqd80","pricing_plan_id":"free"},{"bike_id":"2a796571-edb7-4c47-90f8-c062c8ae7742","system_id":"levelo_inurba_marseille","lat":43.2936,"lon":5.37835,"is_reserved":false,"is_disabled":false,"rental_uris":{"android":"levelo://app?vid=2a796571-edb7-4c47-90f8-c062c8ae7742","ios":"levelo://app?vid=2a796571-edb7-4c47-90f8-c062c8ae7742"},"vehicle_type_id":"4","last_reported":1703232573,"current_range_meters":15600,"station_id":"ce4bgjh2rcd13ifvqbf0","pricing_plan_id":"free"},{"bike_id":"5e7fe082-f46f-45cd-ac1e-6acdb67c9950","system_id":"levelo_inurba_marseille","lat":43.292311,"lon":5.360731,"is_reserved":false,"is_disabled":false,"rental_uris":{"android":"levelo://app?vid=5e7fe082-f46f-45cd-ac1e-6acdb67c9950","ios":"levelo://app?vid=5e7fe082-f46f-45cd-ac1e-6acdb67c9950"},"vehicle_type_id":"4","last_reported":1703232573,"current_range_meters":17200,"station_id":"ce4bhbh2rcd13ifvqeqg","pricing_plan_id":"free"},{"bike_id":"8eca33e5-8b19-4379-b984-dc3bae0f4d55","system_id":"levelo_inurba_marseille","lat":43.292311,"lon":5.360731,"is_reserved":false,"is_disabled":false,"rental_uris":{"android":"levelo://app?vid=8eca33e5-8b19-4379-b984-dc3bae0f4d55","ios":"levelo://app?vid=8eca33e5-8b19-4379-b984-dc3bae0f4d55"},"vehicle_type_id":"4","last_reported":1703232573,"current_range_meters":17200,"station_id":"ce4bhbh2rcd13ifvqeqg","pricing_plan_id":"free"},{"bike_id":"2e12539d-892c-409b-a0bb-3de49cbfb12a","system_id":"levelo_inurba_marseille","lat":43.300852,"lon":5.390859,"is_reserved":false,"is_disabled":false,"rental_uris":{"android":"levelo://app?vid=2e12539d-892c-409b-a0bb-3de49cbfb12a","ios":"levelo://app?vid=2e12539d-892c-409b-a0bb-3de49cbfb12a"},"vehicle_type_id":"4","last_reported":1703232573,"current_range_meters":17600,"station_id":"ce4bh192rcd13ifvqdb0","pricing_plan_id":"free"},{"bike_id":"65c3534d-7694-4760-9396-1f7dcbf0c85f","system_id":"levelo_inurba_marseille","lat":43.291675,"lon":5.371583,"is_reserved":false,"is_disabled":false,"rental_uris":{"android":"levelo://app?vid=65c3534d-7694-4760-9396-1f7dcbf0c85f","ios":"levelo://app?vid=65c3534d-7694-4760-9396-1f7dcbf0c85f"},"vehicle_type_id":"4","last_reported":1703232573,"current_range_meters":15200,"station_id":"ce4bha92rcd13ifvqeh0","pricing_plan_id":"free"},{"bike_id":"4f4d1221-7416-47b9-a821-1d957b1364e8","system_id":"levelo_inurba_marseille","lat":43.291675,"lon":5.371583,"is_reserved":false,"is_disabled":false,"rental_uris":{"android":"levelo://app?vid=4f4d1221-7416-47b9-a821-1d957b1364e8","ios":"levelo://app?vid=4f4d1221-7416-47b9-a821-1d957b1364e8"},"vehicle_type_id":"4","last_reported":1703232573,"current_range_meters":7600,"station_id":"ce4bha92rcd13ifvqeh0","pricing_plan_id":"free"},{"bike_id":"429d051d-e7af-4a1d-81db-ac4f095bf4cd","system_id":"levelo_inurba_marseille","lat":43.309038,"lon":5.396546,"is_reserved":false,"is_disabled":false,"rental_uris":{"android":"levelo://app?vid=429d051d-e7af-4a1d-81db-ac4f095bf4cd","ios":"levelo://app?vid=429d051d-e7af-4a1d-81db-ac4f095bf4cd"},"vehicle_type_id":"4","last_reported":1703232573,"current_range_meters":6800,"station_id":"ce4bh012rcd13ifvqcv0","pricing_plan_id":"free"},{"bike_id":"ef734acd-fb03-45fe-8912-64ba4f1096b9","system_id":"levelo_inurba_marseille","lat":43.29529,"lon":5.385581,"is_reserved":false,"is_disabled":false,"rental_uris":{"android":"levelo://app?vid=ef734acd-fb03-45fe-8912-64ba4f1096b9","ios":"levelo://app?vid=ef734acd-fb03-45fe-8912-64ba4f1096b9"},"vehicle_type_id":"4","last_reported":1703232573,"current_range_meters":6000,"station_id":"ce4bgih2rcd13ifvqba0","pricing_plan_id":"free"},{"bike_id":"70344f9e-d7ad-4db6-b74a-57864c5dbb37","system_id":"levelo_inurba_marseille","lat":43.290779,"lon":5.371482,"is_reserved":false,"is_disabled":false,"rental_uris":{"android":"levelo://app?vid=70344f9e-d7ad-4db6-b74a-57864c5dbb37","ios":"levelo://app?vid=70344f9e-d7ad-4db6-b74a-57864c5dbb37"},"vehicle_type_id":"4","last_reported":1703232573,"current_range_meters":13600,"station_id":"ce4bh5p2rcd13ifvqe4g","pricing_plan_id":"free"},{"bike_id":"71db60f9-7767-4728-b0e7-ed3c76a3b7e6","system_id":"levelo_inurba_marseille","lat":43.290779,"lon":5.371482,"is_reserved":false,"is_disabled":false,"rental_uris":{"android":"levelo://app?vid=71db60f9-7767-4728-b0e7-ed3c76a3b7e6","ios":"levelo://app?vid=71db60f9-7767-4728-b0e7-ed3c76a3b7e6"},"vehicle_type_id":"4","last_reported":1703232573,"current_range_meters":14800,"station_id":"ce4bh5p2rcd13ifvqe4g","pricing_plan_id":"free"},{"bike_id":"d48ed443-fc9d-4e22-8db6-0379386b1d78","system_id":"levelo_inurba_marseille","lat":43.302008,"lon":5.394694,"is_reserved":false,"is_disabled":false,"rental_uris":{"android":"levelo://app?vid=d48ed443-fc9d-4e22-8db6-0379386b1d78","ios":"levelo://app?vid=d48ed443-fc9d-4e22-8db6-0379386b1d78"},"vehicle_type_id":"4","last_reported":1703232573,"current_range_meters":31200,"station_id":"ce4bh0p2rcd13ifvqd70","pricing_plan_id":"free"},{"bike_id":"2319826e-96b3-4984-a84e-06409d682725","system_id":"levelo_inurba_marseille","lat":43.302008,"lon":5.394694,"is_reserved":false,"is_disabled":false,"rental_uris":{"android":"levelo://app?vid=2319826e-96b3-4984-a84e-06409d682725","ios":"levelo://app?vid=2319826e-96b3-4984-a84e-06409d682725"},"vehicle_type_id":"4","last_reported":1703232573,"current_range_meters":20800,"station_id":"ce4bh0p2rcd13ifvqd70","pricing_plan_id":"free"},{"bike_id":"c8912987-ae6b-47e3-8c84-e8d37d2b1eda","system_id":"levelo_inurba_marseille","lat":43.290631,"lon":5.359244,"is_reserved":false,"is_disabled":false,"rental_uris":{"android":"levelo://app?vid=c8912987-ae6b-47e3-8c84-e8d37d2b1eda","ios":"levelo://app?vid=c8912987-ae6b-47e3-8c84-e8d37d2b1eda"},"vehicle_type_id":"4","last_reported":1703232573,"current_range_meters":14400,"station_id":"ce4bha92rcd13ifvqeg0","pricing_plan_id":"free"},{"bike_id":"27729077-5374-4cce-b81a-84e7195b2c4e","system_id":"levelo_inurba_marseille","lat":43.294153,"lon":5.386305,"is_reserved":false,"is_disabled":false,"rental_uris":{"android":"levelo://app?vid=27729077-5374-4cce-b81a-84e7195b2c4e","ios":"levelo://app?vid=27729077-5374-4cce-b81a-84e7195b2c4e"},"vehicle_type_id":"4","last_reported":1703232573,"current_range_meters":26000,"station_id":"ce4bh2h2rcd13ifvqdh0","pricing_plan_id":"free"},{"bike_id":"870c2c8a-9997-4f66-8228-5d733916a959","system_id":"levelo_inurba_marseille","lat":43.289468,"lon":5.363719,"is_reserved":false,"is_disabled":false,"rental_uris":{"android":"levelo://app?vid=870c2c8a-9997-4f66-8228-5d733916a959","ios":"levelo://app?vid=870c2c8a-9997-4f66-8228-5d733916a959"},"vehicle_type_id":"4","last_reported":1703232573,"current_range_meters":6000,"station_id":"ce4bhc92rcd13ifvqetg","pricing_plan_id":"free"},{"bike_id":"ea242b35-656c-4a5a-a93f-5cbbaa02c552","system_id":"levelo_inurba_marseille","lat":43.289468,"lon":5.363719,"is_reserved":false,"is_disabled":false,"rental_uris":{"android":"levelo://app?vid=ea242b35-656c-4a5a-a93f-5cbbaa02c552","ios":"levelo://app?vid=ea242b35-656c-4a5a-a93f-5cbbaa02c552"},"vehicle_type_id":"4","last_reported":1703232573,"current_range_meters":21600,"station_id":"ce4bhc92rcd13ifvqetg","pricing_plan_id":"free"},{"bike_id":"087b6137-5e59-4754-8975-04e1475eab84","system_id":"levelo_inurba_marseille","lat":43.289184,"lon":5.366408,"is_reserved":false,"is_disabled":false,"rental_uris":{"android":"levelo://app?vid=087b6137-5e59-4754-8975-04e1475eab84","ios":"levelo://app?vid=087b6137-5e59-4754-8975-04e1475eab84"},"vehicle_type_id":"4","last_reported":1703232573,"current_range_meters":26000,"station_id":"ce4bhap2rcd13ifvqek0","pricing_plan_id":"free"},{"bike_id":"2555b330-c614-4626-8eac-269ed4ea0658","system_id":"levelo_inurba_marseille","lat":43.289468,"lon":5.363719,"is_reserved":false,"is_disabled":false,"rental_uris":{"android":"levelo://app?vid=2555b330-c614-4626-8eac-269ed4ea0658","ios":"levelo://app?vid=2555b330-c614-4626-8eac-269ed4ea0658"},"vehicle_type_id":"4","last_reported":1703232573,"current_range_meters":12000,"station_id":"ce4bhc92rcd13ifvqetg","pricing_plan_id":"free"},{"bike_id":"83b20d3f-6554-428f-9e24-002f9e4e2ab3","system_id":"levelo_inurba_marseille","lat":43.304296,"lon":5.397513,"is_reserved":false,"is_disabled":false,"rental_uris":{"android":"levelo://app?vid=83b20d3f-6554-428f-9e24-002f9e4e2ab3","ios":"levelo://app?vid=83b20d3f-6554-428f-9e24-002f9e4e2ab3"},"vehicle_type_id":"4","last_reported":1703232573,"current_range_meters":19200,"station_id":"ce4bh092rcd13ifvqd20","pricing_plan_id":"free"},{"bike_id":"a7498a80-75e6-4538-be61-98c5a1d1b69f","system_id":"levelo_inurba_marseille","lat":43.304296,"lon":5.397513,"is_reserved":false,"is_disabled":false,"rental_uris":{"android":"levelo://app?vid=a7498a80-75e6-4538-be61-98c5a1d1b69f","ios":"levelo://app?vid=a7498a80-75e6-4538-be61-98c5a1d1b69f"},"vehicle_type_id":"4","last_reported":1703232573,"current_range_meters":4000,"station_id":"ce4bh092rcd13ifvqd20","pricing_plan_id":"free"},{"bike_id":"c1200e08-6f60-4fd4-b9d9-35b90a467a28","system_id":"levelo_inurba_marseille","lat":43.33047,"lon":5.38911,"is_reserved":false,"is_disabled":false,"rental_uris":{"android":"levelo://app?vid=c1200e08-6f60-4fd4-b9d9-35b90a467a28","ios":"levelo://app?vid=c1200e08-6f60-4fd4-b9d9-35b90a467a28"},"vehicle_type_id":"4","last_reported":1703232573,"current_range_meters":6000,"station_id":"ce4bhr92rcd13ifvqhrg","pricing_plan_id":"free"},{"bike_id":"6e6fa0be-05fb-4890-b221-9a25685e7670","system_id":"levelo_inurba_marseille","lat":43.33042,"lon":5.38926,"is_reserved":false,"is_disabled":false,"rental_uris":{"android":"levelo://app?vid=6e6fa0be-05fb-4890-b221-9a25685e7670","ios":"levelo://app?vid=6e6fa0be-05fb-4890-b221-9a25685e7670"},"vehicle_type_id":"4","last_reported":1703232573,"current_range_meters":25200,"station_id":"ce4bhr92rcd13ifvqhrg","pricing_plan_id":"free"},{"bike_id":"537feaca-83f7-4e67-a927-0e69f5d24a69","system_id":"levelo_inurba_marseille","lat":43.290995,"lon":5.381361,"is_reserved":false,"is_disabled":false,"rental_uris":{"android":"levelo://app?vid=537feaca-83f7-4e67-a927-0e69f5d24a69","ios":"levelo://app?vid=537feaca-83f7-4e67-a927-0e69f5d24a69"},"vehicle_type_id":"4","last_reported":1703232573,"current_range_meters":13200,"station_id":"ce4bh512rcd13ifvqe2g","pricing_plan_id":"free"},{"bike_id":"b6bfd4e4-ecf8-4855-a2ea-fdd10bee5a5d","system_id":"levelo_inurba_marseille","lat":43.290995,"lon":5.381361,"is_reserved":false,"is_disabled":false,"rental_uris":{"android":"levelo://app?vid=b6bfd4e4-ecf8-4855-a2ea-fdd10bee5a5d","ios":"levelo://app?vid=b6bfd4e4-ecf8-4855-a2ea-fdd10bee5a5d"},"vehicle_type_id":"4","last_reported":1703232573,"current_range_meters":25200,"station_id":"ce4bh512rcd13ifvqe2g","pricing_plan_id":"free"},{"bike_id":"cff28fd8-df7f-4679-a35b-6c3db33d8d60","system_id":"levelo_inurba_marseille","lat":43.297873,"lon":5.393493,"is_reserved":false,"is_disabled":false,"rental_uris":{"android":"levelo://app?vid=cff28fd8-df7f-4679-a35b-6c3db33d8d60","ios":"levelo://app?vid=cff28fd8-df7f-4679-a35b-6c3db33d8d60"},"vehicle_type_id":"4","last_reported":1703232573,"current_range_meters":11600,"station_id":"chh1huq6cuj3fo74tm60","pricing_plan_id":"free"},{"bike_id":"bb30e42b-f6a9-4e78-bb1e-3078ad2f2afd","system_id":"levelo_inurba_marseille","lat":43.289741,"lon":5.378306,"is_reserved":false,"is_disabled":false,"rental_uris":{"android":"levelo://app?vid=bb30e42b-f6a9-4e78-bb1e-3078ad2f2afd","ios":"levelo://app?vid=bb30e42b-f6a9-4e78-bb1e-3078ad2f2afd"},"vehicle_type_id":"4","last_reported":1703232573,"current_range_meters":2000,"station_id":"ce4bh9p2rcd13ifvqed0","pricing_plan_id":"free"},{"bike_id":"28bf47ba-8247-4868-801f-57cb274e5e1b","system_id":"levelo_inurba_marseille","lat":43.295169,"lon":5.390426,"is_reserved":false,"is_disabled":false,"rental_uris":{"android":"levelo://app?vid=28bf47ba-8247-4868-801f-57cb274e5e1b","ios":"levelo://app?vid=28bf47ba-8247-4868-801f-57cb274e5e1b"},"vehicle_type_id":"4","last_reported":1703232573,"current_range_meters":24800,"station_id":"ce4bh3p2rcd13ifvqdp0","pricing_plan_id":"free"},{"bike_id":"284f9061-f39d-4a8d-b72d-d997729b14de","system_id":"levelo_inurba_marseille","lat":43.312609,"lon":5.401662,"is_reserved":false,"is_disabled":false,"rental_uris":{"android":"levelo://app?vid=284f9061-f39d-4a8d-b72d-d997729b14de","ios":"levelo://app?vid=284f9061-f39d-4a8d-b72d-d997729b14de"},"vehicle_type_id":"4","last_reported":1703232573,"current_range_meters":800,"station_id":"ce4bh092rcd13ifvqd30","pricing_plan_id":"free"},{"bike_id":"1a59bbe6-4ce8-4bd7-8490-51717c6c735e","system_id":"levelo_inurba_marseille","lat":43.312609,"lon":5.401662,"is_reserved":false,"is_disabled":false,"rental_uris":{"android":"levelo://app?vid=1a59bbe6-4ce8-4bd7-8490-51717c6c735e","ios":"levelo://app?vid=1a59bbe6-4ce8-4bd7-8490-51717c6c735e"},"vehicle_type_id":"4","last_reported":1703232573,"current_range_meters":3600,"station_id":"ce4bh092rcd13ifvqd30","pricing_plan_id":"free"},{"bike_id":"0758ba9b-eec1-4a13-8fa3-d200e4b83daf","system_id":"levelo_inurba_marseille","lat":43.312609,"lon":5.401662,"is_reserved":false,"is_disabled":false,"rental_uris":{"android":"levelo://app?vid=0758ba9b-eec1-4a13-8fa3-d200e4b83daf","ios":"levelo://app?vid=0758ba9b-eec1-4a13-8fa3-d200e4b83daf"},"vehicle_type_id":"4","last_reported":1703232573,"current_range_meters":14400,"station_id":"ce4bh092rcd13ifvqd30","pricing_plan_id":"free"},{"bike_id":"9cb3eeb1-d99b-43fa-a681-6c5c6971ebbc","system_id":"levelo_inurba_marseille","lat":43.286961,"lon":5.373785,"is_reserved":false,"is_disabled":false,"rental_uris":{"android":"levelo://app?vid=9cb3eeb1-d99b-43fa-a681-6c5c6971ebbc","ios":"levelo://app?vid=9cb3eeb1-d99b-43fa-a681-6c5c6971ebbc"},"vehicle_type_id":"4","last_reported":1703232573,"current_range_meters":27200,"station_id":"ce4bh3p2rcd13ifvqdq0","pricing_plan_id":"free"},{"bike_id":"5970338f-e0a1-420c-b78e-4b5f3894cac2","system_id":"levelo_inurba_marseille","lat":43.286961,"lon":5.373785,"is_reserved":false,"is_disabled":false,"rental_uris":{"android":"levelo://app?vid=5970338f-e0a1-420c-b78e-4b5f3894cac2","ios":"levelo://app?vid=5970338f-e0a1-420c-b78e-4b5f3894cac2"},"vehicle_type_id":"4","last_reported":1703232573,"current_range_meters":26800,"station_id":"ce4bh3p2rcd13ifvqdq0","pricing_plan_id":"free"},{"bike_id":"dd8f1528-a5e5-46f8-a2af-a7d9b0ec5e81","system_id":"levelo_inurba_marseille","lat":43.286593,"lon":5.363346,"is_reserved":false,"is_disabled":false,"rental_uris":{"android":"levelo://app?vid=dd8f1528-a5e5-46f8-a2af-a7d9b0ec5e81","ios":"levelo://app?vid=dd8f1528-a5e5-46f8-a2af-a7d9b0ec5e81"},"vehicle_type_id":"4","last_reported":1703232573,"current_range_meters":20000,"station_id":"ce4bhah2rcd13ifvqej0","pricing_plan_id":"free"},{"bike_id":"cd3d2394-7edf-44ea-b7c7-a14598ea5593","system_id":"levelo_inurba_marseille","lat":43.290345,"lon":5.38646,"is_reserved":false,"is_disabled":false,"rental_uris":{"android":"levelo://app?vid=cd3d2394-7edf-44ea-b7c7-a14598ea5593","ios":"levelo://app?vid=cd3d2394-7edf-44ea-b7c7-a14598ea5593"},"vehicle_type_id":"4","last_reported":1703232573,"current_range_meters":30800,"station_id":"ce4bh4p2rcd13ifvqe0g","pricing_plan_id":"free"},{"bike_id":"6e7ac335-9d58-41e2-a903-b1cdca25b55d","system_id":"levelo_inurba_marseille","lat":43.302759,"lon":5.400793,"is_reserved":false,"is_disabled":false,"rental_uris":{"android":"levelo://app?vid=6e7ac335-9d58-41e2-a903-b1cdca25b55d","ios":"levelo://app?vid=6e7ac335-9d58-41e2-a903-b1cdca25b55d"},"vehicle_type_id":"4","last_reported":1703232573,"current_range_meters":6400,"station_id":"ce4bgvh2rcd13ifvqcs0","pricing_plan_id":"free"},{"bike_id":"657b4d30-11c4-4174-ae70-5f17e3ee8719","system_id":"levelo_inurba_marseille","lat":43.286039,"lon":5.370679,"is_reserved":false,"is_disabled":false,"rental_uris":{"android":"levelo://app?vid=657b4d30-11c4-4174-ae70-5f17e3ee8719","ios":"levelo://app?vid=657b4d30-11c4-4174-ae70-5f17e3ee8719"},"vehicle_type_id":"4","last_reported":1703232573,"current_range_meters":31600,"station_id":"ce4bht12rcd13ifvqi60","pricing_plan_id":"free"},{"bike_id":"4d882ab1-2188-4a1b-93c0-ea8a8c1f82e2","system_id":"levelo_inurba_marseille","lat":43.286039,"lon":5.370679,"is_reserved":false,"is_disabled":false,"rental_uris":{"android":"levelo://app?vid=4d882ab1-2188-4a1b-93c0-ea8a8c1f82e2","ios":"levelo://app?vid=4d882ab1-2188-4a1b-93c0-ea8a8c1f82e2"},"vehicle_type_id":"4","last_reported":1703232573,"current_range_meters":30800,"station_id":"ce4bht12rcd13ifvqi60","pricing_plan_id":"free"},{"bike_id":"8adbf8c9-53f7-4485-a157-f85e20d21ffd","system_id":"levelo_inurba_marseille","lat":43.287184,"lon":5.37937,"is_reserved":false,"is_disabled":false,"rental_uris":{"android":"levelo://app?vid=8adbf8c9-53f7-4485-a157-f85e20d21ffd","ios":"levelo://app?vid=8adbf8c9-53f7-4485-a157-f85e20d21ffd"},"vehicle_type_id":"4","last_reported":1703232573,"current_range_meters":19600,"station_id":"ce4bh9p2rcd13ifvqec0","pricing_plan_id":"free"},{"bike_id":"bb5e09d8-b6ac-4343-885c-25b611f81e6d","system_id":"levelo_inurba_marseille","lat":43.316821,"lon":5.404737,"is_reserved":false,"is_disabled":false,"rental_uris":{"android":"levelo://app?vid=bb5e09d8-b6ac-4343-885c-25b611f81e6d","ios":"levelo://app?vid=bb5e09d8-b6ac-4343-885c-25b611f81e6d"},"vehicle_type_id":"4","last_reported":1703232573,"current_range_meters":800,"station_id":"ce4bh012rcd13ifvqd00","pricing_plan_id":"free"},{"bike_id":"e2adfa7c-882e-48a1-9ee4-b36e6186ebbf","system_id":"levelo_inurba_marseille","lat":43.330912,"lon":5.396935,"is_reserved":false,"is_disabled":false,"rental_uris":{"android":"levelo://app?vid=e2adfa7c-882e-48a1-9ee4-b36e6186ebbf","ios":"levelo://app?vid=e2adfa7c-882e-48a1-9ee4-b36e6186ebbf"},"vehicle_type_id":"4","last_reported":1703232573,"current_range_meters":19200,"station_id":"","pricing_plan_id":"free"},{"bike_id":"6681f091-8cae-40db-82be-2afedc79afec","system_id":"levelo_inurba_marseille","lat":43.297934,"lon":5.401006,"is_reserved":false,"is_disabled":false,"rental_uris":{"android":"levelo://app?vid=6681f091-8cae-40db-82be-2afedc79afec","ios":"levelo://app?vid=6681f091-8cae-40db-82be-2afedc79afec"},"vehicle_type_id":"4","last_reported":1703232573,"current_range_meters":7200,"station_id":"","pricing_plan_id":"free"},{"bike_id":"a54ab5ff-4775-4ddc-8af1-693daa8891c4","system_id":"levelo_inurba_marseille","lat":43.28407,"lon":5.3752,"is_reserved":false,"is_disabled":false,"rental_uris":{"android":"levelo://app?vid=a54ab5ff-4775-4ddc-8af1-693daa8891c4","ios":"levelo://app?vid=a54ab5ff-4775-4ddc-8af1-693daa8891c4"},"vehicle_type_id":"4","last_reported":1703232573,"current_range_meters":30800,"station_id":"ce4bh412rcd13ifvqds0","pricing_plan_id":"free"},{"bike_id":"dbe8699b-2d0d-4710-81c1-b5f0c2724efc","system_id":"levelo_inurba_marseille","lat":43.295713,"lon":5.399639,"is_reserved":false,"is_disabled":false,"rental_uris":{"android":"levelo://app?vid=dbe8699b-2d0d-4710-81c1-b5f0c2724efc","ios":"levelo://app?vid=dbe8699b-2d0d-4710-81c1-b5f0c2724efc"},"vehicle_type_id":"4","last_reported":1703232573,"current_range_meters":0,"station_id":"ce4bh312rcd13ifvqdj0","pricing_plan_id":"free"},{"bike_id":"889c10c4-8f5d-4e87-b7cf-9e2cd9a54f98","system_id":"levelo_inurba_marseille","lat":43.295713,"lon":5.399639,"is_reserved":false,"is_disabled":false,"rental_uris":{"android":"levelo://app?vid=889c10c4-8f5d-4e87-b7cf-9e2cd9a54f98","ios":"levelo://app?vid=889c10c4-8f5d-4e87-b7cf-9e2cd9a54f98"},"vehicle_type_id":"4","last_reported":1703232573,"current_range_meters":28000,"station_id":"ce4bh312rcd13ifvqdj0","pricing_plan_id":"free"},{"bike_id":"efa6b701-ee26-42af-b066-d679e074a567","system_id":"levelo_inurba_marseille","lat":43.283494,"lon":5.380945,"is_reserved":false,"is_disabled":false,"rental_uris":{"android":"levelo://app?vid=efa6b701-ee26-42af-b066-d679e074a567","ios":"levelo://app?vid=efa6b701-ee26-42af-b066-d679e074a567"},"vehicle_type_id":"4","last_reported":1703232573,"current_range_meters":20800,"station_id":"ce4bh412rcd13ifvqdr0","pricing_plan_id":"free"},{"bike_id":"481a384d-a2ec-4f7f-894b-55f53743f77e","system_id":"levelo_inurba_marseille","lat":43.286595,"lon":5.386795,"is_reserved":false,"is_disabled":false,"rental_uris":{"android":"levelo://app?vid=481a384d-a2ec-4f7f-894b-55f53743f77e","ios":"levelo://app?vid=481a384d-a2ec-4f7f-894b-55f53743f77e"},"vehicle_type_id":"4","last_reported":1703232573,"current_range_meters":26000,"station_id":"ce4bh492rcd13ifvqdug","pricing_plan_id":"free"},{"bike_id":"3a46dc4a-68b3-488d-a372-7282ac2f1180","system_id":"levelo_inurba_marseille","lat":43.286595,"lon":5.386795,"is_reserved":false,"is_disabled":false,"rental_uris":{"android":"levelo://app?vid=3a46dc4a-68b3-488d-a372-7282ac2f1180","ios":"levelo://app?vid=3a46dc4a-68b3-488d-a372-7282ac2f1180"},"vehicle_type_id":"4","last_reported":1703232573,"current_range_meters":28000,"station_id":"ce4bh492rcd13ifvqdug","pricing_plan_id":"free"},{"bike_id":"0f198e8d-f2d4-4d28-bdc3-217031595060","system_id":"levelo_inurba_marseille","lat":43.286595,"lon":5.386795,"is_reserved":false,"is_disabled":false,"rental_uris":{"android":"levelo://app?vid=0f198e8d-f2d4-4d28-bdc3-217031595060","ios":"levelo://app?vid=0f198e8d-f2d4-4d28-bdc3-217031595060"},"vehicle_type_id":"4","last_reported":1703232573,"current_range_meters":17600,"station_id":"ce4bh492rcd13ifvqdug","pricing_plan_id":"free"},{"bike_id":"0ea5faaf-63e2-4ebf-a84f-434bc0bc98c1","system_id":"levelo_inurba_marseille","lat":43.31891,"lon":5.40728,"is_reserved":false,"is_disabled":false,"rental_uris":{"android":"levelo://app?vid=0ea5faaf-63e2-4ebf-a84f-434bc0bc98c1","ios":"levelo://app?vid=0ea5faaf-63e2-4ebf-a84f-434bc0bc98c1"},"vehicle_type_id":"4","last_reported":1703232573,"current_range_meters":28000,"station_id":"ce4bhq12rcd13ifvqhig","pricing_plan_id":"free"},{"bike_id":"9d6893e2-7192-4a6d-82e0-69c0a3078e44","system_id":"levelo_inurba_marseille","lat":43.319179,"lon":5.407725,"is_reserved":false,"is_disabled":false,"rental_uris":{"android":"levelo://app?vid=9d6893e2-7192-4a6d-82e0-69c0a3078e44","ios":"levelo://app?vid=9d6893e2-7192-4a6d-82e0-69c0a3078e44"},"vehicle_type_id":"4","last_reported":1703232573,"current_range_meters":31200,"station_id":"ce4bhq12rcd13ifvqhig","pricing_plan_id":"free"},{"bike_id":"dfdadb00-295f-4147-bb7b-992e830130a9","system_id":"levelo_inurba_marseille","lat":43.323464,"lon":5.406297,"is_reserved":false,"is_disabled":false,"rental_uris":{"android":"levelo://app?vid=dfdadb00-295f-4147-bb7b-992e830130a9","ios":"levelo://app?vid=dfdadb00-295f-4147-bb7b-992e830130a9"},"vehicle_type_id":"4","last_reported":1703232573,"current_range_meters":31200,"station_id":"ce4bhq92rcd13ifvqhjg","pricing_plan_id":"free"},{"bike_id":"361799b8-0ade-4629-b104-c461534604f1","system_id":"levelo_inurba_marseille","lat":43.323464,"lon":5.406297,"is_reserved":false,"is_disabled":false,"rental_uris":{"android":"levelo://app?vid=361799b8-0ade-4629-b104-c461534604f1","ios":"levelo://app?vid=361799b8-0ade-4629-b104-c461534604f1"},"vehicle_type_id":"4","last_reported":1703232573,"current_range_meters":4000,"station_id":"ce4bhq92rcd13ifvqhjg","pricing_plan_id":"free"},{"bike_id":"687269d2-e082-4930-b7b6-db76459f0cad","system_id":"levelo_inurba_marseille","lat":43.323464,"lon":5.406297,"is_reserved":false,"is_disabled":false,"rental_uris":{"android":"levelo://app?vid=687269d2-e082-4930-b7b6-db76459f0cad","ios":"levelo://app?vid=687269d2-e082-4930-b7b6-db76459f0cad"},"vehicle_type_id":"4","last_reported":1703232573,"current_range_meters":7200,"station_id":"ce4bhq92rcd13ifvqhjg","pricing_plan_id":"free"},{"bike_id":"aa1bea3e-ff5f-4c49-a630-426ec3e7598d","system_id":"levelo_inurba_marseille","lat":43.323464,"lon":5.406297,"is_reserved":false,"is_disabled":false,"rental_uris":{"android":"levelo://app?vid=aa1bea3e-ff5f-4c49-a630-426ec3e7598d","ios":"levelo://app?vid=aa1bea3e-ff5f-4c49-a630-426ec3e7598d"},"vehicle_type_id":"4","last_reported":1703232573,"current_range_meters":31200,"station_id":"ce4bhq92rcd13ifvqhjg","pricing_plan_id":"free"},{"bike_id":"bc0f9e82-b959-46df-8d54-4729782e54f8","system_id":"levelo_inurba_marseille","lat":43.284787,"lon":5.384116,"is_reserved":false,"is_disabled":false,"rental_uris":{"android":"levelo://app?vid=bc0f9e82-b959-46df-8d54-4729782e54f8","ios":"levelo://app?vid=bc0f9e82-b959-46df-8d54-4729782e54f8"},"vehicle_type_id":"4","last_reported":1703232573,"current_range_meters":25200,"station_id":"ce4bh512rcd13ifvqe3g","pricing_plan_id":"free"},{"bike_id":"4cd7cca1-afb6-4ab4-9538-3769a27652b5","system_id":"levelo_inurba_marseille","lat":43.284787,"lon":5.384116,"is_reserved":false,"is_disabled":false,"rental_uris":{"android":"levelo://app?vid=4cd7cca1-afb6-4ab4-9538-3769a27652b5","ios":"levelo://app?vid=4cd7cca1-afb6-4ab4-9538-3769a27652b5"},"vehicle_type_id":"4","last_reported":1703232573,"current_range_meters":29200,"station_id":"ce4bh512rcd13ifvqe3g","pricing_plan_id":"free"},{"bike_id":"ce069811-be9a-4ed6-bac8-5cd515e5c853","system_id":"levelo_inurba_marseille","lat":43.283498,"lon":5.380948,"is_reserved":false,"is_disabled":false,"rental_uris":{"android":"levelo://app?vid=ce069811-be9a-4ed6-bac8-5cd515e5c853","ios":"levelo://app?vid=ce069811-be9a-4ed6-bac8-5cd515e5c853"},"vehicle_type_id":"4","last_reported":1703232573,"current_range_meters":23600,"station_id":"ce4bh412rcd13ifvqdr0","pricing_plan_id":"free"},{"bike_id":"83b5537a-091a-4d57-a29d-ef96f3b77063","system_id":"levelo_inurba_marseille","lat":43.289363,"lon":5.396322,"is_reserved":false,"is_disabled":false,"rental_uris":{"android":"levelo://app?vid=83b5537a-091a-4d57-a29d-ef96f3b77063","ios":"levelo://app?vid=83b5537a-091a-4d57-a29d-ef96f3b77063"},"vehicle_type_id":"4","last_reported":1703232573,"current_range_meters":30000,"station_id":"ce4bh3h2rcd13ifvqdn0","pricing_plan_id":"free"},{"bike_id":"a57861c5-aaaa-4aec-a6d0-4bd0a8b47ecf","system_id":"levelo_inurba_marseille","lat":43.289363,"lon":5.396322,"is_reserved":false,"is_disabled":false,"rental_uris":{"android":"levelo://app?vid=a57861c5-aaaa-4aec-a6d0-4bd0a8b47ecf","ios":"levelo://app?vid=a57861c5-aaaa-4aec-a6d0-4bd0a8b47ecf"},"vehicle_type_id":"4","last_reported":1703232573,"current_range_meters":28400,"station_id":"ce4bh3h2rcd13ifvqdn0","pricing_plan_id":"free"},{"bike_id":"fbe4f583-7279-4835-a62d-5239167ba49c","system_id":"levelo_inurba_marseille","lat":43.289363,"lon":5.396322,"is_reserved":false,"is_disabled":false,"rental_uris":{"android":"levelo://app?vid=fbe4f583-7279-4835-a62d-5239167ba49c","ios":"levelo://app?vid=fbe4f583-7279-4835-a62d-5239167ba49c"},"vehicle_type_id":"4","last_reported":1703232573,"current_range_meters":28400,"station_id":"ce4bh3h2rcd13ifvqdn0","pricing_plan_id":"free"},{"bike_id":"05484534-af3b-478e-af5c-bdcd0695cd46","system_id":"levelo_inurba_marseille","lat":43.283502,"lon":5.386471,"is_reserved":false,"is_disabled":false,"rental_uris":{"android":"levelo://app?vid=05484534-af3b-478e-af5c-bdcd0695cd46","ios":"levelo://app?vid=05484534-af3b-478e-af5c-bdcd0695cd46"},"vehicle_type_id":"4","last_reported":1703232573,"current_range_meters":16800,"station_id":"ce4bh492rcd13ifvqdvg","pricing_plan_id":"free"},{"bike_id":"fa59b084-d1c5-4ace-aa4b-2719bc273797","system_id":"levelo_inurba_marseille","lat":43.282744,"lon":5.350533,"is_reserved":false,"is_disabled":false,"rental_uris":{"android":"levelo://app?vid=fa59b084-d1c5-4ace-aa4b-2719bc273797","ios":"levelo://app?vid=fa59b084-d1c5-4ace-aa4b-2719bc273797"},"vehicle_type_id":"4","last_reported":1703232573,"current_range_meters":29200,"station_id":"ce4bhbp2rcd13ifvqerg","pricing_plan_id":"free"},{"bike_id":"47d76c21-1ff4-440a-881b-4b862b324611","system_id":"levelo_inurba_marseille","lat":43.282744,"lon":5.350533,"is_reserved":false,"is_disabled":false,"rental_uris":{"android":"levelo://app?vid=47d76c21-1ff4-440a-881b-4b862b324611","ios":"levelo://app?vid=47d76c21-1ff4-440a-881b-4b862b324611"},"vehicle_type_id":"4","last_reported":1703232573,"current_range_meters":6000,"station_id":"ce4bhbp2rcd13ifvqerg","pricing_plan_id":"free"},{"bike_id":"1035d818-fdf3-449a-9258-0bce173637c6","system_id":"levelo_inurba_marseille","lat":43.29145,"lon":5.40052,"is_reserved":false,"is_disabled":false,"rental_uris":{"android":"levelo://app?vid=1035d818-fdf3-449a-9258-0bce173637c6","ios":"levelo://app?vid=1035d818-fdf3-449a-9258-0bce173637c6"},"vehicle_type_id":"4","last_reported":1703232573,"current_range_meters":19200,"station_id":"","pricing_plan_id":"free"},{"bike_id":"31353ce1-7de5-4c63-ad09-7c6f7f93c1b6","system_id":"levelo_inurba_marseille","lat":43.290412,"lon":5.399633,"is_reserved":false,"is_disabled":false,"rental_uris":{"android":"levelo://app?vid=31353ce1-7de5-4c63-ad09-7c6f7f93c1b6","ios":"levelo://app?vid=31353ce1-7de5-4c63-ad09-7c6f7f93c1b6"},"vehicle_type_id":"4","last_reported":1703232573,"current_range_meters":11600,"station_id":"ce4bh392rcd13ifvqdm0","pricing_plan_id":"free"},{"bike_id":"052270ca-d550-4333-8329-c4fa8688e83f","system_id":"levelo_inurba_marseille","lat":43.29041,"lon":5.399634,"is_reserved":false,"is_disabled":false,"rental_uris":{"android":"levelo://app?vid=052270ca-d550-4333-8329-c4fa8688e83f","ios":"levelo://app?vid=052270ca-d550-4333-8329-c4fa8688e83f"},"vehicle_type_id":"4","last_reported":1703232573,"current_range_meters":29600,"station_id":"ce4bh392rcd13ifvqdm0","pricing_plan_id":"free"},{"bike_id":"81b5e6d1-8acb-4a8a-b329-0b30df024934","system_id":"levelo_inurba_marseille","lat":43.290412,"lon":5.399633,"is_reserved":false,"is_disabled":false,"rental_uris":{"android":"levelo://app?vid=81b5e6d1-8acb-4a8a-b329-0b30df024934","ios":"levelo://app?vid=81b5e6d1-8acb-4a8a-b329-0b30df024934"},"vehicle_type_id":"4","last_reported":1703232573,"current_range_meters":26000,"station_id":"ce4bh392rcd13ifvqdm0","pricing_plan_id":"free"},{"bike_id":"a30705de-d6ba-47c3-830b-c32bd6ed473a","system_id":"levelo_inurba_marseille","lat":43.281191,"lon":5.381994,"is_reserved":false,"is_disabled":false,"rental_uris":{"android":"levelo://app?vid=a30705de-d6ba-47c3-830b-c32bd6ed473a","ios":"levelo://app?vid=a30705de-d6ba-47c3-830b-c32bd6ed473a"},"vehicle_type_id":"4","last_reported":1703232573,"current_range_meters":17600,"station_id":"","pricing_plan_id":"free"},{"bike_id":"558f647f-050f-4976-8969-affb8a13e108","system_id":"levelo_inurba_marseille","lat":43.287154,"lon":5.399979,"is_reserved":false,"is_disabled":false,"rental_uris":{"android":"levelo://app?vid=558f647f-050f-4976-8969-affb8a13e108","ios":"levelo://app?vid=558f647f-050f-4976-8969-affb8a13e108"},"vehicle_type_id":"4","last_reported":1703232573,"current_range_meters":24400,"station_id":"ce4bho92rcd13ifvqh3g","pricing_plan_id":"free"},{"bike_id":"170ab2bf-d29f-4d5f-982a-a6ad40f685fd","system_id":"levelo_inurba_marseille","lat":43.286059,"lon":5.399955,"is_reserved":false,"is_disabled":false,"rental_uris":{"android":"levelo://app?vid=170ab2bf-d29f-4d5f-982a-a6ad40f685fd","ios":"levelo://app?vid=170ab2bf-d29f-4d5f-982a-a6ad40f685fd"},"vehicle_type_id":"4","last_reported":1703232573,"current_range_meters":13600,"station_id":"","pricing_plan_id":"free"},{"bike_id":"d421cad1-6533-4885-9cde-5b8f0aa16d67","system_id":"levelo_inurba_marseille","lat":43.299577,"lon":5.413277,"is_reserved":false,"is_disabled":false,"rental_uris":{"android":"levelo://app?vid=d421cad1-6533-4885-9cde-5b8f0aa16d67","ios":"levelo://app?vid=d421cad1-6533-4885-9cde-5b8f0aa16d67"},"vehicle_type_id":"4","last_reported":1703232573,"current_range_meters":6800,"station_id":"ce4bhp12rcd13ifvqh9g","pricing_plan_id":"free"},{"bike_id":"08a63285-ab6f-4183-ae42-a0d7510d84f4","system_id":"levelo_inurba_marseille","lat":43.320045,"lon":5.415048,"is_reserved":false,"is_disabled":false,"rental_uris":{"android":"levelo://app?vid=08a63285-ab6f-4183-ae42-a0d7510d84f4","ios":"levelo://app?vid=08a63285-ab6f-4183-ae42-a0d7510d84f4"},"vehicle_type_id":"4","last_reported":1703232573,"current_range_meters":24400,"station_id":"ce4bhq92rcd13ifvqhkg","pricing_plan_id":"free"},{"bike_id":"ee816eb2-8f7f-4a52-99ab-9d0eff3efb01","system_id":"levelo_inurba_marseille","lat":43.279742,"lon":5.38744,"is_reserved":false,"is_disabled":false,"rental_uris":{"android":"levelo://app?vid=ee816eb2-8f7f-4a52-99ab-9d0eff3efb01","ios":"levelo://app?vid=ee816eb2-8f7f-4a52-99ab-9d0eff3efb01"},"vehicle_type_id":"4","last_reported":1703232573,"current_range_meters":30400,"station_id":"ce4bhg12rcd13ifvqf80","pricing_plan_id":"free"},{"bike_id":"21f01083-e6a0-46eb-b58f-8e39e640143f","system_id":"levelo_inurba_marseille","lat":43.325233,"lon":5.414318,"is_reserved":false,"is_disabled":false,"rental_uris":{"android":"levelo://app?vid=21f01083-e6a0-46eb-b58f-8e39e640143f","ios":"levelo://app?vid=21f01083-e6a0-46eb-b58f-8e39e640143f"},"vehicle_type_id":"4","last_reported":1703232573,"current_range_meters":26800,"station_id":"ce4bhq12rcd13ifvqhhg","pricing_plan_id":"free"},{"bike_id":"9c5ad8b9-a33c-4feb-91bd-64ce3b0d8c02","system_id":"levelo_inurba_marseille","lat":43.325233,"lon":5.414318,"is_reserved":false,"is_disabled":false,"rental_uris":{"android":"levelo://app?vid=9c5ad8b9-a33c-4feb-91bd-64ce3b0d8c02","ios":"levelo://app?vid=9c5ad8b9-a33c-4feb-91bd-64ce3b0d8c02"},"vehicle_type_id":"4","last_reported":1703232573,"current_range_meters":8000,"station_id":"ce4bhq12rcd13ifvqhhg","pricing_plan_id":"free"},{"bike_id":"7cfd6e71-5272-400f-a668-9236c74e8277","system_id":"levelo_inurba_marseille","lat":43.325243,"lon":5.414326,"is_reserved":false,"is_disabled":false,"rental_uris":{"android":"levelo://app?vid=7cfd6e71-5272-400f-a668-9236c74e8277","ios":"levelo://app?vid=7cfd6e71-5272-400f-a668-9236c74e8277"},"vehicle_type_id":"4","last_reported":1703232573,"current_range_meters":20000,"station_id":"ce4bhq12rcd13ifvqhhg","pricing_plan_id":"free"},{"bike_id":"09a21094-8e68-4ed9-9f1b-f64de89ddab8","system_id":"levelo_inurba_marseille","lat":43.325243,"lon":5.414326,"is_reserved":false,"is_disabled":false,"rental_uris":{"android":"levelo://app?vid=09a21094-8e68-4ed9-9f1b-f64de89ddab8","ios":"levelo://app?vid=09a21094-8e68-4ed9-9f1b-f64de89ddab8"},"vehicle_type_id":"4","last_reported":1703232573,"current_range_meters":26800,"station_id":"ce4bhq12rcd13ifvqhhg","pricing_plan_id":"free"},{"bike_id":"ccf08482-4944-4717-985c-c41efcbf1de2","system_id":"levelo_inurba_marseille","lat":43.325233,"lon":5.414318,"is_reserved":false,"is_disabled":false,"rental_uris":{"android":"levelo://app?vid=ccf08482-4944-4717-985c-c41efcbf1de2","ios":"levelo://app?vid=ccf08482-4944-4717-985c-c41efcbf1de2"},"vehicle_type_id":"4","last_reported":1703232573,"current_range_meters":31200,"station_id":"ce4bhq12rcd13ifvqhhg","pricing_plan_id":"free"},{"bike_id":"3dc5bcfd-edeb-4f7d-83e8-0c833584163a","system_id":"levelo_inurba_marseille","lat":43.278401,"lon":5.392152,"is_reserved":false,"is_disabled":false,"rental_uris":{"android":"levelo://app?vid=3dc5bcfd-edeb-4f7d-83e8-0c833584163a","ios":"levelo://app?vid=3dc5bcfd-edeb-4f7d-83e8-0c833584163a"},"vehicle_type_id":"4","last_reported":1703232573,"current_range_meters":26000,"station_id":"ce4bhjp2rcd13ifvqga0","pricing_plan_id":"free"},{"bike_id":"fa6b1700-890f-4539-9d7b-e8b8a4e0b4f0","system_id":"levelo_inurba_marseille","lat":43.275625,"lon":5.384392,"is_reserved":false,"is_disabled":false,"rental_uris":{"android":"levelo://app?vid=fa6b1700-890f-4539-9d7b-e8b8a4e0b4f0","ios":"levelo://app?vid=fa6b1700-890f-4539-9d7b-e8b8a4e0b4f0"},"vehicle_type_id":"4","last_reported":1703232573,"current_range_meters":22800,"station_id":"ce4bhh92rcd13ifvqfi0","pricing_plan_id":"free"},{"bike_id":"59dad09c-b3a1-460c-a243-8280c5477558","system_id":"levelo_inurba_marseille","lat":43.275625,"lon":5.384392,"is_reserved":false,"is_disabled":false,"rental_uris":{"android":"levelo://app?vid=59dad09c-b3a1-460c-a243-8280c5477558","ios":"levelo://app?vid=59dad09c-b3a1-460c-a243-8280c5477558"},"vehicle_type_id":"4","last_reported":1703232573,"current_range_meters":22400,"station_id":"ce4bhh92rcd13ifvqfi0","pricing_plan_id":"free"},{"bike_id":"e10cc150-4041-48d5-aaa1-023406c60c29","system_id":"levelo_inurba_marseille","lat":43.273613,"lon":5.362705,"is_reserved":false,"is_disabled":false,"rental_uris":{"android":"levelo://app?vid=e10cc150-4041-48d5-aaa1-023406c60c29","ios":"levelo://app?vid=e10cc150-4041-48d5-aaa1-023406c60c29"},"vehicle_type_id":"4","last_reported":1703232573,"current_range_meters":12400,"station_id":"ce4bhbh2rcd13ifvqeo0","pricing_plan_id":"free"},{"bike_id":"f1edc802-0ccc-4821-9ca7-279093c88d45","system_id":"levelo_inurba_marseille","lat":43.336134,"lon":5.410341,"is_reserved":false,"is_disabled":false,"rental_uris":{"android":"levelo://app?vid=f1edc802-0ccc-4821-9ca7-279093c88d45","ios":"levelo://app?vid=f1edc802-0ccc-4821-9ca7-279093c88d45"},"vehicle_type_id":"4","last_reported":1703232573,"current_range_meters":31200,"station_id":"ce4bhqh2rcd13ifvqhmg","pricing_plan_id":"free"},{"bike_id":"c12de7e8-a347-40e6-8797-e98d6d1cb1b5","system_id":"levelo_inurba_marseille","lat":43.336148,"lon":5.410349,"is_reserved":false,"is_disabled":false,"rental_uris":{"android":"levelo://app?vid=c12de7e8-a347-40e6-8797-e98d6d1cb1b5","ios":"levelo://app?vid=c12de7e8-a347-40e6-8797-e98d6d1cb1b5"},"vehicle_type_id":"4","last_reported":1703232573,"current_range_meters":29600,"station_id":"ce4bhqh2rcd13ifvqhmg","pricing_plan_id":"free"},{"bike_id":"b556829b-2148-46d6-be70-48c5f87dd3a2","system_id":"levelo_inurba_marseille","lat":43.275625,"lon":5.384392,"is_reserved":false,"is_disabled":false,"rental_uris":{"android":"levelo://app?vid=b556829b-2148-46d6-be70-48c5f87dd3a2","ios":"levelo://app?vid=b556829b-2148-46d6-be70-48c5f87dd3a2"},"vehicle_type_id":"4","last_reported":1703232573,"current_range_meters":29200,"station_id":"ce4bhh92rcd13ifvqfi0","pricing_plan_id":"free"},{"bike_id":"3a1ebf0f-c579-45ad-ab89-953ea01137e2","system_id":"levelo_inurba_marseille","lat":43.336134,"lon":5.410341,"is_reserved":false,"is_disabled":false,"rental_uris":{"android":"levelo://app?vid=3a1ebf0f-c579-45ad-ab89-953ea01137e2","ios":"levelo://app?vid=3a1ebf0f-c579-45ad-ab89-953ea01137e2"},"vehicle_type_id":"4","last_reported":1703232573,"current_range_meters":30000,"station_id":"ce4bhqh2rcd13ifvqhmg","pricing_plan_id":"free"},{"bike_id":"be41144e-5aab-4f87-bf13-991f6d2e5095","system_id":"levelo_inurba_marseille","lat":43.336148,"lon":5.410349,"is_reserved":false,"is_disabled":false,"rental_uris":{"android":"levelo://app?vid=be41144e-5aab-4f87-bf13-991f6d2e5095","ios":"levelo://app?vid=be41144e-5aab-4f87-bf13-991f6d2e5095"},"vehicle_type_id":"4","last_reported":1703232573,"current_range_meters":18000,"station_id":"ce4bhqh2rcd13ifvqhmg","pricing_plan_id":"free"},{"bike_id":"2e898446-aad9-4717-8dfe-629937307daf","system_id":"levelo_inurba_marseille","lat":43.336134,"lon":5.410341,"is_reserved":false,"is_disabled":false,"rental_uris":{"android":"levelo://app?vid=2e898446-aad9-4717-8dfe-629937307daf","ios":"levelo://app?vid=2e898446-aad9-4717-8dfe-629937307daf"},"vehicle_type_id":"4","last_reported":1703232573,"current_range_meters":19600,"station_id":"ce4bhqh2rcd13ifvqhmg","pricing_plan_id":"free"},{"bike_id":"fdf457ec-e58c-4b21-8c47-f6b52e636992","system_id":"levelo_inurba_marseille","lat":43.336148,"lon":5.410349,"is_reserved":false,"is_disabled":false,"rental_uris":{"android":"levelo://app?vid=fdf457ec-e58c-4b21-8c47-f6b52e636992","ios":"levelo://app?vid=fdf457ec-e58c-4b21-8c47-f6b52e636992"},"vehicle_type_id":"4","last_reported":1703232573,"current_range_meters":22000,"station_id":"ce4bhqh2rcd13ifvqhmg","pricing_plan_id":"free"},{"bike_id":"67c95ba1-3b1b-4724-b685-672be7a82fce","system_id":"levelo_inurba_marseille","lat":43.31715,"lon":5.424025,"is_reserved":false,"is_disabled":false,"rental_uris":{"android":"levelo://app?vid=67c95ba1-3b1b-4724-b685-672be7a82fce","ios":"levelo://app?vid=67c95ba1-3b1b-4724-b685-672be7a82fce"},"vehicle_type_id":"4","last_reported":1703232573,"current_range_meters":2800,"station_id":"ce4bhp92rcd13ifvqhbg","pricing_plan_id":"free"},{"bike_id":"7559511b-ccd0-4d54-ac21-5983166553b2","system_id":"levelo_inurba_marseille","lat":43.310785,"lon":5.424305,"is_reserved":false,"is_disabled":false,"rental_uris":{"android":"levelo://app?vid=7559511b-ccd0-4d54-ac21-5983166553b2","ios":"levelo://app?vid=7559511b-ccd0-4d54-ac21-5983166553b2"},"vehicle_type_id":"4","last_reported":1703232573,"current_range_meters":10400,"station_id":"ce4bhp92rcd13ifvqhag","pricing_plan_id":"free"},{"bike_id":"77782120-aa28-4661-b6de-5847d624fbaf","system_id":"levelo_inurba_marseille","lat":43.273125,"lon":5.390731,"is_reserved":false,"is_disabled":false,"rental_uris":{"android":"levelo://app?vid=77782120-aa28-4661-b6de-5847d624fbaf","ios":"levelo://app?vid=77782120-aa28-4661-b6de-5847d624fbaf"},"vehicle_type_id":"4","last_reported":1703232573,"current_range_meters":27200,"station_id":"ce4bhgp2rcd13ifvqfe0","pricing_plan_id":"free"},{"bike_id":"dbf0a5b3-ad1a-4834-b6a9-6fcafd009587","system_id":"levelo_inurba_marseille","lat":43.274103,"lon":5.394016,"is_reserved":false,"is_disabled":false,"rental_uris":{"android":"levelo://app?vid=dbf0a5b3-ad1a-4834-b6a9-6fcafd009587","ios":"levelo://app?vid=dbf0a5b3-ad1a-4834-b6a9-6fcafd009587"},"vehicle_type_id":"4","last_reported":1703232573,"current_range_meters":28400,"station_id":"ce4bhdp2rcd13ifvqf20","pricing_plan_id":"free"},{"bike_id":"19c0271a-0179-4aff-a782-8217d3bdc754","system_id":"levelo_inurba_marseille","lat":43.274099,"lon":5.394019,"is_reserved":false,"is_disabled":false,"rental_uris":{"android":"levelo://app?vid=19c0271a-0179-4aff-a782-8217d3bdc754","ios":"levelo://app?vid=19c0271a-0179-4aff-a782-8217d3bdc754"},"vehicle_type_id":"4","last_reported":1703232573,"current_range_meters":14000,"station_id":"ce4bhdp2rcd13ifvqf20","pricing_plan_id":"free"},{"bike_id":"8254fd32-b9d4-49df-ab7e-cfea12d046d7","system_id":"levelo_inurba_marseille","lat":43.304096,"lon":5.425385,"is_reserved":false,"is_disabled":false,"rental_uris":{"android":"levelo://app?vid=8254fd32-b9d4-49df-ab7e-cfea12d046d7","ios":"levelo://app?vid=8254fd32-b9d4-49df-ab7e-cfea12d046d7"},"vehicle_type_id":"4","last_reported":1703232573,"current_range_meters":31200,"station_id":"ce4bhoh2rcd13ifvqh6g","pricing_plan_id":"free"},{"bike_id":"96777740-b7f1-4409-bcdb-20a8be6b2105","system_id":"levelo_inurba_marseille","lat":43.304096,"lon":5.425385,"is_reserved":false,"is_disabled":false,"rental_uris":{"android":"levelo://app?vid=96777740-b7f1-4409-bcdb-20a8be6b2105","ios":"levelo://app?vid=96777740-b7f1-4409-bcdb-20a8be6b2105"},"vehicle_type_id":"4","last_reported":1703232573,"current_range_meters":16000,"station_id":"ce4bhoh2rcd13ifvqh6g","pricing_plan_id":"free"},{"bike_id":"0b69a519-bdda-4b9b-8c0d-12a11a8d71b4","system_id":"levelo_inurba_marseille","lat":43.304096,"lon":5.425385,"is_reserved":false,"is_disabled":false,"rental_uris":{"android":"levelo://app?vid=0b69a519-bdda-4b9b-8c0d-12a11a8d71b4","ios":"levelo://app?vid=0b69a519-bdda-4b9b-8c0d-12a11a8d71b4"},"vehicle_type_id":"4","last_reported":1703232573,"current_range_meters":24400,"station_id":"ce4bhoh2rcd13ifvqh6g","pricing_plan_id":"free"},{"bike_id":"0e4cc326-10fa-4e7e-9ba9-ad4f832bb35e","system_id":"levelo_inurba_marseille","lat":43.304096,"lon":5.425385,"is_reserved":false,"is_disabled":false,"rental_uris":{"android":"levelo://app?vid=0e4cc326-10fa-4e7e-9ba9-ad4f832bb35e","ios":"levelo://app?vid=0e4cc326-10fa-4e7e-9ba9-ad4f832bb35e"},"vehicle_type_id":"4","last_reported":1703232573,"current_range_meters":26000,"station_id":"ce4bhoh2rcd13ifvqh6g","pricing_plan_id":"free"},{"bike_id":"a80c78b0-54bd-4c06-a456-7ff9cb5fb92c","system_id":"levelo_inurba_marseille","lat":43.295649,"lon":5.422778,"is_reserved":false,"is_disabled":false,"rental_uris":{"android":"levelo://app?vid=a80c78b0-54bd-4c06-a456-7ff9cb5fb92c","ios":"levelo://app?vid=a80c78b0-54bd-4c06-a456-7ff9cb5fb92c"},"vehicle_type_id":"4","last_reported":1703232573,"current_range_meters":8800,"station_id":"ce4bhph2rcd13ifvqhdg","pricing_plan_id":"free"},{"bike_id":"9449eb80-d18a-481d-bf00-b32c1d52c065","system_id":"levelo_inurba_marseille","lat":43.295523,"lon":5.422926,"is_reserved":false,"is_disabled":false,"rental_uris":{"android":"levelo://app?vid=9449eb80-d18a-481d-bf00-b32c1d52c065","ios":"levelo://app?vid=9449eb80-d18a-481d-bf00-b32c1d52c065"},"vehicle_type_id":"4","last_reported":1703232573,"current_range_meters":4400,"station_id":"ce4bhph2rcd13ifvqhdg","pricing_plan_id":"free"},{"bike_id":"96484c65-8dd7-4167-a438-a7d837c6b7a7","system_id":"levelo_inurba_marseille","lat":43.295523,"lon":5.422926,"is_reserved":false,"is_disabled":false,"rental_uris":{"android":"levelo://app?vid=96484c65-8dd7-4167-a438-a7d837c6b7a7","ios":"levelo://app?vid=96484c65-8dd7-4167-a438-a7d837c6b7a7"},"vehicle_type_id":"4","last_reported":1703232573,"current_range_meters":31200,"station_id":"ce4bhph2rcd13ifvqhdg","pricing_plan_id":"free"},{"bike_id":"218ca4ab-a316-43a6-87cd-acfc23cd8e62","system_id":"levelo_inurba_marseille","lat":43.295523,"lon":5.422926,"is_reserved":false,"is_disabled":false,"rental_uris":{"android":"levelo://app?vid=218ca4ab-a316-43a6-87cd-acfc23cd8e62","ios":"levelo://app?vid=218ca4ab-a316-43a6-87cd-acfc23cd8e62"},"vehicle_type_id":"4","last_reported":1703232573,"current_range_meters":19600,"station_id":"ce4bhph2rcd13ifvqhdg","pricing_plan_id":"free"},{"bike_id":"7d800ac1-1b26-47dd-97c6-49cd89d9ab11","system_id":"levelo_inurba_marseille","lat":43.295511,"lon":5.422926,"is_reserved":false,"is_disabled":false,"rental_uris":{"android":"levelo://app?vid=7d800ac1-1b26-47dd-97c6-49cd89d9ab11","ios":"levelo://app?vid=7d800ac1-1b26-47dd-97c6-49cd89d9ab11"},"vehicle_type_id":"4","last_reported":1703232573,"current_range_meters":12400,"station_id":"ce4bhph2rcd13ifvqhdg","pricing_plan_id":"free"},{"bike_id":"23d13786-8601-4dce-a424-5d4a35dea444","system_id":"levelo_inurba_marseille","lat":43.295511,"lon":5.422926,"is_reserved":false,"is_disabled":false,"rental_uris":{"android":"levelo://app?vid=23d13786-8601-4dce-a424-5d4a35dea444","ios":"levelo://app?vid=23d13786-8601-4dce-a424-5d4a35dea444"},"vehicle_type_id":"4","last_reported":1703232573,"current_range_meters":16000,"station_id":"ce4bhph2rcd13ifvqhdg","pricing_plan_id":"free"},{"bike_id":"0d2d0a3e-5f94-46b3-b24e-844bc351ccac","system_id":"levelo_inurba_marseille","lat":43.295523,"lon":5.422926,"is_reserved":false,"is_disabled":false,"rental_uris":{"android":"levelo://app?vid=0d2d0a3e-5f94-46b3-b24e-844bc351ccac","ios":"levelo://app?vid=0d2d0a3e-5f94-46b3-b24e-844bc351ccac"},"vehicle_type_id":"4","last_reported":1703232573,"current_range_meters":29200,"station_id":"ce4bhph2rcd13ifvqhdg","pricing_plan_id":"free"},{"bike_id":"b55db1a0-b820-479b-9929-7610c21584c5","system_id":"levelo_inurba_marseille","lat":43.295511,"lon":5.422926,"is_reserved":false,"is_disabled":false,"rental_uris":{"android":"levelo://app?vid=b55db1a0-b820-479b-9929-7610c21584c5","ios":"levelo://app?vid=b55db1a0-b820-479b-9929-7610c21584c5"},"vehicle_type_id":"4","last_reported":1703232573,"current_range_meters":25200,"station_id":"ce4bhph2rcd13ifvqhdg","pricing_plan_id":"free"},{"bike_id":"d3cea1e8-7f39-4fcc-ad32-91ac9a408d93","system_id":"levelo_inurba_marseille","lat":43.295511,"lon":5.422926,"is_reserved":false,"is_disabled":false,"rental_uris":{"android":"levelo://app?vid=d3cea1e8-7f39-4fcc-ad32-91ac9a408d93","ios":"levelo://app?vid=d3cea1e8-7f39-4fcc-ad32-91ac9a408d93"},"vehicle_type_id":"4","last_reported":1703232573,"current_range_meters":19600,"station_id":"ce4bhph2rcd13ifvqhdg","pricing_plan_id":"free"},{"bike_id":"8d41bf70-e644-4f45-b407-f5c1c86465bf","system_id":"levelo_inurba_marseille","lat":43.272118,"lon":5.391758,"is_reserved":false,"is_disabled":false,"rental_uris":{"android":"levelo://app?vid=8d41bf70-e644-4f45-b407-f5c1c86465bf","ios":"levelo://app?vid=8d41bf70-e644-4f45-b407-f5c1c86465bf"},"vehicle_type_id":"4","last_reported":1703232573,"current_range_meters":29600,"station_id":"ce4bhhp2rcd13ifvqfm0","pricing_plan_id":"free"},{"bike_id":"59d66a0a-b392-45cf-9cfd-32926820ebdd","system_id":"levelo_inurba_marseille","lat":43.27814,"lon":5.40706,"is_reserved":false,"is_disabled":false,"rental_uris":{"android":"levelo://app?vid=59d66a0a-b392-45cf-9cfd-32926820ebdd","ios":"levelo://app?vid=59d66a0a-b392-45cf-9cfd-32926820ebdd"},"vehicle_type_id":"4","last_reported":1703232573,"current_range_meters":25600,"station_id":"ce4bhnh2rcd13ifvqgtg","pricing_plan_id":"free"},{"bike_id":"2385a3dc-ecc5-4c8e-b554-c8e4b25ef268","system_id":"levelo_inurba_marseille","lat":43.278128,"lon":5.407195,"is_reserved":false,"is_disabled":false,"rental_uris":{"android":"levelo://app?vid=2385a3dc-ecc5-4c8e-b554-c8e4b25ef268","ios":"levelo://app?vid=2385a3dc-ecc5-4c8e-b554-c8e4b25ef268"},"vehicle_type_id":"4","last_reported":1703232573,"current_range_meters":22800,"station_id":"ce4bhnh2rcd13ifvqgtg","pricing_plan_id":"free"},{"bike_id":"ddba2c29-0f84-4994-9895-e6b76e79ab8f","system_id":"levelo_inurba_marseille","lat":43.26959,"lon":5.38629,"is_reserved":false,"is_disabled":false,"rental_uris":{"android":"levelo://app?vid=ddba2c29-0f84-4994-9895-e6b76e79ab8f","ios":"levelo://app?vid=ddba2c29-0f84-4994-9895-e6b76e79ab8f"},"vehicle_type_id":"4","last_reported":1703232573,"current_range_meters":24000,"station_id":"ce4bhh92rcd13ifvqfh0","pricing_plan_id":"free"},{"bike_id":"989e51fc-ae3c-4cf5-b9ac-99dbd66e4e28","system_id":"levelo_inurba_marseille","lat":43.26959,"lon":5.38636,"is_reserved":false,"is_disabled":false,"rental_uris":{"android":"levelo://app?vid=989e51fc-ae3c-4cf5-b9ac-99dbd66e4e28","ios":"levelo://app?vid=989e51fc-ae3c-4cf5-b9ac-99dbd66e4e28"},"vehicle_type_id":"4","last_reported":1703232573,"current_range_meters":16000,"station_id":"ce4bhh92rcd13ifvqfh0","pricing_plan_id":"free"},{"bike_id":"575bf358-0548-45c7-a6e6-e17040815255","system_id":"levelo_inurba_marseille","lat":43.26957,"lon":5.38628,"is_reserved":false,"is_disabled":false,"rental_uris":{"android":"levelo://app?vid=575bf358-0548-45c7-a6e6-e17040815255","ios":"levelo://app?vid=575bf358-0548-45c7-a6e6-e17040815255"},"vehicle_type_id":"4","last_reported":1703232573,"current_range_meters":28000,"station_id":"ce4bhh92rcd13ifvqfh0","pricing_plan_id":"free"},{"bike_id":"11339d04-34c9-4c59-8c64-47f4aa959c89","system_id":"levelo_inurba_marseille","lat":43.26957,"lon":5.38633,"is_reserved":false,"is_disabled":false,"rental_uris":{"android":"levelo://app?vid=11339d04-34c9-4c59-8c64-47f4aa959c89","ios":"levelo://app?vid=11339d04-34c9-4c59-8c64-47f4aa959c89"},"vehicle_type_id":"4","last_reported":1703232573,"current_range_meters":28000,"station_id":"ce4bhh92rcd13ifvqfh0","pricing_plan_id":"free"},{"bike_id":"a39aa9bc-9cb1-453b-ba34-c7f4c7e971f5","system_id":"levelo_inurba_marseille","lat":43.26955,"lon":5.38629,"is_reserved":false,"is_disabled":false,"rental_uris":{"android":"levelo://app?vid=a39aa9bc-9cb1-453b-ba34-c7f4c7e971f5","ios":"levelo://app?vid=a39aa9bc-9cb1-453b-ba34-c7f4c7e971f5"},"vehicle_type_id":"4","last_reported":1703232573,"current_range_meters":4400,"station_id":"ce4bhh92rcd13ifvqfh0","pricing_plan_id":"free"},{"bike_id":"e1b4de73-06a1-4ee1-804b-b565558b4183","system_id":"levelo_inurba_marseille","lat":43.269467,"lon":5.386439,"is_reserved":false,"is_disabled":false,"rental_uris":{"android":"levelo://app?vid=e1b4de73-06a1-4ee1-804b-b565558b4183","ios":"levelo://app?vid=e1b4de73-06a1-4ee1-804b-b565558b4183"},"vehicle_type_id":"4","last_reported":1703232573,"current_range_meters":16800,"station_id":"ce4bhh92rcd13ifvqfh0","pricing_plan_id":"free"},{"bike_id":"6b3fe9ee-f6e2-452d-9d89-057b2cb3f257","system_id":"levelo_inurba_marseille","lat":43.26955,"lon":5.38638,"is_reserved":false,"is_disabled":false,"rental_uris":{"android":"levelo://app?vid=6b3fe9ee-f6e2-452d-9d89-057b2cb3f257","ios":"levelo://app?vid=6b3fe9ee-f6e2-452d-9d89-057b2cb3f257"},"vehicle_type_id":"4","last_reported":1703232573,"current_range_meters":14000,"station_id":"ce4bhh92rcd13ifvqfh0","pricing_plan_id":"free"},{"bike_id":"b7a3dde3-61c0-4b41-a17a-8a6927bc420c","system_id":"levelo_inurba_marseille","lat":43.269467,"lon":5.386439,"is_reserved":false,"is_disabled":false,"rental_uris":{"android":"levelo://app?vid=b7a3dde3-61c0-4b41-a17a-8a6927bc420c","ios":"levelo://app?vid=b7a3dde3-61c0-4b41-a17a-8a6927bc420c"},"vehicle_type_id":"4","last_reported":1703232573,"current_range_meters":25600,"station_id":"ce4bhh92rcd13ifvqfh0","pricing_plan_id":"free"},{"bike_id":"61550aad-2bdf-4d69-a4fa-2735b97e3ff1","system_id":"levelo_inurba_marseille","lat":43.269467,"lon":5.386439,"is_reserved":false,"is_disabled":false,"rental_uris":{"android":"levelo://app?vid=61550aad-2bdf-4d69-a4fa-2735b97e3ff1","ios":"levelo://app?vid=61550aad-2bdf-4d69-a4fa-2735b97e3ff1"},"vehicle_type_id":"4","last_reported":1703232573,"current_range_meters":26400,"station_id":"ce4bhh92rcd13ifvqfh0","pricing_plan_id":"free"},{"bike_id":"017014cf-56d4-4de7-8952-68a5738436e6","system_id":"levelo_inurba_marseille","lat":43.26949,"lon":5.3864,"is_reserved":false,"is_disabled":false,"rental_uris":{"android":"levelo://app?vid=017014cf-56d4-4de7-8952-68a5738436e6","ios":"levelo://app?vid=017014cf-56d4-4de7-8952-68a5738436e6"},"vehicle_type_id":"4","last_reported":1703232573,"current_range_meters":27200,"station_id":"ce4bhh92rcd13ifvqfh0","pricing_plan_id":"free"},{"bike_id":"7fc51c9f-a329-4a91-9c7e-e28f7f158fba","system_id":"levelo_inurba_marseille","lat":43.26681,"lon":5.382694,"is_reserved":false,"is_disabled":false,"rental_uris":{"android":"levelo://app?vid=7fc51c9f-a329-4a91-9c7e-e28f7f158fba","ios":"levelo://app?vid=7fc51c9f-a329-4a91-9c7e-e28f7f158fba"},"vehicle_type_id":"4","last_reported":1703232573,"current_range_meters":29200,"station_id":"ce4bhg92rcd13ifvqf90","pricing_plan_id":"free"},{"bike_id":"bae3e7b7-6055-499e-863f-452c48318740","system_id":"levelo_inurba_marseille","lat":43.26681,"lon":5.382694,"is_reserved":false,"is_disabled":false,"rental_uris":{"android":"levelo://app?vid=bae3e7b7-6055-499e-863f-452c48318740","ios":"levelo://app?vid=bae3e7b7-6055-499e-863f-452c48318740"},"vehicle_type_id":"4","last_reported":1703232573,"current_range_meters":22400,"station_id":"ce4bhg92rcd13ifvqf90","pricing_plan_id":"free"},{"bike_id":"ce0c4d09-c919-48d9-92ee-b40420eed1b4","system_id":"levelo_inurba_marseille","lat":43.279925,"lon":5.416656,"is_reserved":false,"is_disabled":false,"rental_uris":{"android":"levelo://app?vid=ce0c4d09-c919-48d9-92ee-b40420eed1b4","ios":"levelo://app?vid=ce0c4d09-c919-48d9-92ee-b40420eed1b4"},"vehicle_type_id":"4","last_reported":1703232573,"current_range_meters":31200,"station_id":"ce4bho12rcd13ifvqh1g","pricing_plan_id":"free"},{"bike_id":"73c210fb-a655-4271-85b4-334effb9941b","system_id":"levelo_inurba_marseille","lat":43.279881,"lon":5.41665,"is_reserved":false,"is_disabled":false,"rental_uris":{"android":"levelo://app?vid=73c210fb-a655-4271-85b4-334effb9941b","ios":"levelo://app?vid=73c210fb-a655-4271-85b4-334effb9941b"},"vehicle_type_id":"4","last_reported":1703232573,"current_range_meters":30800,"station_id":"ce4bho12rcd13ifvqh1g","pricing_plan_id":"free"},{"bike_id":"56476f20-1eb3-45cd-ae52-f1964ab1ecc4","system_id":"levelo_inurba_marseille","lat":43.265714,"lon":5.372891,"is_reserved":false,"is_disabled":false,"rental_uris":{"android":"levelo://app?vid=56476f20-1eb3-45cd-ae52-f1964ab1ecc4","ios":"levelo://app?vid=56476f20-1eb3-45cd-ae52-f1964ab1ecc4"},"vehicle_type_id":"4","last_reported":1703232573,"current_range_meters":27600,"station_id":"ce4bhg12rcd13ifvqf70","pricing_plan_id":"free"},{"bike_id":"d7bad39e-09e1-4a8d-bff3-200941116b56","system_id":"levelo_inurba_marseille","lat":43.265714,"lon":5.372891,"is_reserved":false,"is_disabled":false,"rental_uris":{"android":"levelo://app?vid=d7bad39e-09e1-4a8d-bff3-200941116b56","ios":"levelo://app?vid=d7bad39e-09e1-4a8d-bff3-200941116b56"},"vehicle_type_id":"4","last_reported":1703232573,"current_range_meters":24000,"station_id":"ce4bhg12rcd13ifvqf70","pricing_plan_id":"free"},{"bike_id":"7a1239c7-d1ca-4115-b681-9f15678a0535","system_id":"levelo_inurba_marseille","lat":43.265569,"lon":5.390047,"is_reserved":false,"is_disabled":false,"rental_uris":{"android":"levelo://app?vid=7a1239c7-d1ca-4115-b681-9f15678a0535","ios":"levelo://app?vid=7a1239c7-d1ca-4115-b681-9f15678a0535"},"vehicle_type_id":"4","last_reported":1703232573,"current_range_meters":7200,"station_id":"ce4bhe12rcd13ifvqf30","pricing_plan_id":"free"},{"bike_id":"f9bd8812-361b-4cf8-a08f-c5df49e9a80a","system_id":"levelo_inurba_marseille","lat":43.3171,"lon":5.43701,"is_reserved":false,"is_disabled":false,"rental_uris":{"android":"levelo://app?vid=f9bd8812-361b-4cf8-a08f-c5df49e9a80a","ios":"levelo://app?vid=f9bd8812-361b-4cf8-a08f-c5df49e9a80a"},"vehicle_type_id":"4","last_reported":1703232573,"current_range_meters":16800,"station_id":"ce4bhp92rcd13ifvqhcg","pricing_plan_id":"free"},{"bike_id":"0b0c5e19-ce78-44c0-a9b5-3a785bc8569f","system_id":"levelo_inurba_marseille","lat":43.261782,"lon":5.374515,"is_reserved":false,"is_disabled":false,"rental_uris":{"android":"levelo://app?vid=0b0c5e19-ce78-44c0-a9b5-3a785bc8569f","ios":"levelo://app?vid=0b0c5e19-ce78-44c0-a9b5-3a785bc8569f"},"vehicle_type_id":"4","last_reported":1703232573,"current_range_meters":30000,"station_id":"ce4bhgp2rcd13ifvqfc0","pricing_plan_id":"free"},{"bike_id":"2e62984b-8771-47f8-8e36-d6a6f38059c0","system_id":"levelo_inurba_marseille","lat":43.317104,"lon":5.436818,"is_reserved":false,"is_disabled":false,"rental_uris":{"android":"levelo://app?vid=2e62984b-8771-47f8-8e36-d6a6f38059c0","ios":"levelo://app?vid=2e62984b-8771-47f8-8e36-d6a6f38059c0"},"vehicle_type_id":"4","last_reported":1703232573,"current_range_meters":28400,"station_id":"ce4bhp92rcd13ifvqhcg","pricing_plan_id":"free"},{"bike_id":"2d6427c7-a10a-4b24-b0a5-95d867c65295","system_id":"levelo_inurba_marseille","lat":43.317104,"lon":5.436818,"is_reserved":false,"is_disabled":false,"rental_uris":{"android":"levelo://app?vid=2d6427c7-a10a-4b24-b0a5-95d867c65295","ios":"levelo://app?vid=2d6427c7-a10a-4b24-b0a5-95d867c65295"},"vehicle_type_id":"4","last_reported":1703232573,"current_range_meters":22400,"station_id":"ce4bhp92rcd13ifvqhcg","pricing_plan_id":"free"},{"bike_id":"7ba3fcbe-b04e-4074-b892-cf8f3fc95d80","system_id":"levelo_inurba_marseille","lat":43.26202,"lon":5.379299,"is_reserved":false,"is_disabled":false,"rental_uris":{"android":"levelo://app?vid=7ba3fcbe-b04e-4074-b892-cf8f3fc95d80","ios":"levelo://app?vid=7ba3fcbe-b04e-4074-b892-cf8f3fc95d80"},"vehicle_type_id":"4","last_reported":1703232573,"current_range_meters":5600,"station_id":"ce4bhjp2rcd13ifvqg90","pricing_plan_id":"free"},{"bike_id":"b2902b78-67e3-446b-b19e-efaf3baa33fc","system_id":"levelo_inurba_marseille","lat":43.2651,"lon":5.39469,"is_reserved":false,"is_disabled":false,"rental_uris":{"android":"levelo://app?vid=b2902b78-67e3-446b-b19e-efaf3baa33fc","ios":"levelo://app?vid=b2902b78-67e3-446b-b19e-efaf3baa33fc"},"vehicle_type_id":"4","last_reported":1703232573,"current_range_meters":5600,"station_id":"ce4bhi12rcd13ifvqfq0","pricing_plan_id":"free"},{"bike_id":"9bc11cf7-d766-47fb-a2ac-1ffa731b216c","system_id":"levelo_inurba_marseille","lat":43.298768,"lon":5.43643,"is_reserved":false,"is_disabled":false,"rental_uris":{"android":"levelo://app?vid=9bc11cf7-d766-47fb-a2ac-1ffa731b216c","ios":"levelo://app?vid=9bc11cf7-d766-47fb-a2ac-1ffa731b216c"},"vehicle_type_id":"4","last_reported":1703232573,"current_range_meters":31200,"station_id":"ce4bhpp2rcd13ifvqhfg","pricing_plan_id":"free"},