{"last_updated":1685365756,"ttl":30,"version":"2.2","data":{"bikes":[{"bike_id":"402ccca3-6035-40e5-adb3-51301963a9d6","system_id":"levelo_inurba_marseille","lat":43.31371,"lon":5.36695,"is_reserved":false,"is_disabled":false,"rental_uris":{"android":"levelo://app?vid=402ccca3-6035-40e5-adb3-51301963a9d6","ios":"levelo://app?vid=402ccca3-6035-40e5-adb3-51301963a9d6"},"vehicle_type_id":"4","last_reported":1685365757,"current_range_meters":29600,"station_id":"","pricing_plan_id":"free"},{"bike_id":"8c2c6a1f-bfcd-48a0-be6c-00b274b3cc94","system_id":"levelo_inurba_marseille","lat":43.31371,"lon":5.36689,"is_reserved":false,"is_disabled":false,"rental_uris":{"android":"levelo://app?vid=8c2c6a1f-bfcd-48a0-be6c-00b274b3cc94","ios":"levelo://app?vid=8c2c6a1f-bfcd-48a0-be6c-00b274b3cc94"},"vehicle_type_id":"4","last_reported":1685365757,"current_range_meters":28800,"station_id":"","pricing_plan_id":"free"},{"bike_id":"01597115-3ff6-48f6-a95f-5aa90ffcff55","system_id":"levelo_inurba_marseille","lat":43.312239,"lon":5.368562,"is_reserved":false,"is_disabled":false,"rental_uris":{"android":"levelo://app?vid=01597115-3ff6-48f6-a95f-5aa90ffcff55","ios":"levelo://app?vid=01597115-3ff6-48f6-a95f-5aa90ffcff55"},"vehicle_type_id":"4","last_reported":1685365757,"current_range_meters":27200,"station_id":"ce4bgl92rcd13ifvqbq0","pricing_plan_id":"free"},{"bike_id":"6506bcc2-b846-45f6-a165-8fb31e4eea8e","system_id":"levelo_inurba_marseille","lat":43.312239,"lon":5.368562,"is_reserved":false,"is_disabled":false,"rental_uris":{"android":"levelo://app?vid=6506bcc2-b846-45f6-a165-8fb31e4eea8e","ios":"levelo://app?vid=6506bcc2-b846-45f6-a165-8fb31e4eea8e"},"vehicle_type_id":"4","last_reported":1685365757,"current_range_meters":8400,"station_id":"ce4bgl92rcd13ifvqbq0","pricing_plan_id":"free"},{"bike_id":"bde12189-5015-496c-ad9a-d34e59533c5b","system_id":"levelo_inurba_marseille","lat":43.312239,"lon":5.368562,"is_reserved":false,"is_disabled":false,"rental_uris":{"android":"levelo://app?vid=bde12189-5015-496c-ad9a-d34e59533c5b","ios":"levelo://app?vid=bde12189-5015-496c-ad9a-d34e59533c5b"},"vehicle_type_id":"4","last_reported":1685365757,"current_range_meters":30800,"station_id":"ce4bgl92rcd13ifvqbq0","pricing_plan_id":"free"},{"bike_id":"f5283d3b-cdd9-431d-b947-2400e1e55a44","system_id":"levelo_inurba_marseille","lat":43.312239,"lon":5.368562,"is_reserved":false,"is_disabled":false,"rental_uris":{"android":"levelo://app?vid=f5283d3b-cdd9-431d-b947-2400e1e55a44","ios":"levelo://app?vid=f5283d3b-cdd9-431d-b947-2400e1e55a44"},"vehicle_type_id":"4","last_reported":1685365757,"current_range_meters":31200,"station_id":"ce4bgl92rcd13ifvqbq0","pricing_plan_id":"free"},{"bike_id":"2ca57ba2-b93c-4a01-a2da-34c64b4df9cc","system_id":"levelo_inurba_marseille","lat":43.312239,"lon":5.368562,"is_reserved":false,"is_disabled":false,"rental_uris":{"android":"levelo://app?vid=2ca57ba2-b93c-4a01-a2da-34c64b4df9cc","ios":"levelo://app?vid=2ca57ba2-b93c-4a01-a2da-34c64b4df9cc"},"vehicle_type_id":"4","last_reported":1685365757,"current_range_meters":29600,"station_id":"ce4bgl92rcd13ifvqbq0","pricing_plan_id":"free"},{"bike_id":"9325ecf4-ff47-40c3-bdbb-ecbdb9361211","system_id":"levelo_inurba_marseille","lat":43.312239,"lon":5.368562,"is_reserved":false,"is_disabled":false,"rental_uris":{"android":"levelo://app?vid=9325ecf4-ff47-40c3-bdbb-ecbdb9361211","ios":"levelo://app?vid=9325ecf4-ff47-40c3-bdbb-ecbdb9361211"},"vehicle_type_id":"4","last_reported":1685365757,"current_range_meters":31200,"station_id":"ce4bgl92rcd13ifvqbq0","pricing_plan_id":"free"},{"bike_id":"6da8ba28-ab59-4dcc-b931-3ed5088f6463","system_id":"levelo_inurba_marseille","lat":43.312239,"lon":5.368562,"is_reserved":false,"is_disabled":false,"rental_uris":{"android":"levelo://app?vid=6da8ba28-ab59-4dcc-b931-3ed5088f6463","ios":"levelo://app?vid=6da8ba28-ab59-4dcc-b931-3ed5088f6463"},"vehicle_type_id":"4","last_reported":1685365757,"current_range_meters":27200,"station_id":"ce4bgl92rcd13ifvqbq0","pricing_plan_id":"free"},{"bike_id":"0077bbf9-38f1-4511-907e-3972b2141d66","system_id":"levelo_inurba_marseille","lat":43.312239,"lon":5.368562,"is_reserved":false,"is_disabled":false,"rental_uris":{"android":"levelo://app?vid=0077bbf9-38f1-4511-907e-3972b2141d66","ios":"levelo://app?vid=0077bbf9-38f1-4511-907e-3972b2141d66"},"vehicle_type_id":"4","last_reported":1685365757,"current_range_meters":30000,"station_id":"ce4bgl92rcd13ifvqbq0","pricing_plan_id":"free"},{"bike_id":"e9120509-e70a-4e8c-8483-97813eb4e02d","system_id":"levelo_inurba_marseille","lat":43.309076,"lon":5.368465,"is_reserved":false,"is_disabled":false,"rental_uris":{"android":"levelo://app?vid=e9120509-e70a-4e8c-8483-97813eb4e02d","ios":"levelo://app?vid=e9120509-e70a-4e8c-8483-97813eb4e02d"},"vehicle_type_id":"4","last_reported":1685365757,"current_range_meters":20400,"station_id":"ce4bgn92rcd13ifvqbvg","pricing_plan_id":"free"},{"bike_id":"41ffa87d-a512-4f94-a2e8-70f21f89ce53","system_id":"levelo_inurba_marseille","lat":43.3149,"lon":5.37299,"is_reserved":false,"is_disabled":false,"rental_uris":{"android":"levelo://app?vid=41ffa87d-a512-4f94-a2e8-70f21f89ce53","ios":"levelo://app?vid=41ffa87d-a512-4f94-a2e8-70f21f89ce53"},"vehicle_type_id":"4","last_reported":1685365757,"current_range_meters":31200,"station_id":"ce4bgt12rcd13ifvqcd0","pricing_plan_id":"free"},{"bike_id":"0e5c578d-c34e-4c44-b6c0-4cc429f78d29","system_id":"levelo_inurba_marseille","lat":43.314811,"lon":5.373103,"is_reserved":false,"is_disabled":false,"rental_uris":{"android":"levelo://app?vid=0e5c578d-c34e-4c44-b6c0-4cc429f78d29","ios":"levelo://app?vid=0e5c578d-c34e-4c44-b6c0-4cc429f78d29"},"vehicle_type_id":"4","last_reported":1685365757,"current_range_meters":22400,"station_id":"ce4bgt12rcd13ifvqcd0","pricing_plan_id":"free"},{"bike_id":"37a434f9-42e3-4af9-8bb2-d31cc17ca9dc","system_id":"levelo_inurba_marseille","lat":43.31493,"lon":5.37304,"is_reserved":false,"is_disabled":false,"rental_uris":{"android":"levelo://app?vid=37a434f9-42e3-4af9-8bb2-d31cc17ca9dc","ios":"levelo://app?vid=37a434f9-42e3-4af9-8bb2-d31cc17ca9dc"},"vehicle_type_id":"4","last_reported":1685365757,"current_range_meters":19600,"station_id":"ce4bgt12rcd13ifvqcd0","pricing_plan_id":"free"},{"bike_id":"cafa39a6-151e-4b43-8798-0e078854a369","system_id":"levelo_inurba_marseille","lat":43.314811,"lon":5.373104,"is_reserved":false,"is_disabled":false,"rental_uris":{"android":"levelo://app?vid=cafa39a6-151e-4b43-8798-0e078854a369","ios":"levelo://app?vid=cafa39a6-151e-4b43-8798-0e078854a369"},"vehicle_type_id":"4","last_reported":1685365757,"current_range_meters":31200,"station_id":"ce4bgt12rcd13ifvqcd0","pricing_plan_id":"free"},{"bike_id":"fb845587-1cce-4283-8985-9fe21f142ed3","system_id":"levelo_inurba_marseille","lat":43.31489,"lon":5.37308,"is_reserved":false,"is_disabled":false,"rental_uris":{"android":"levelo://app?vid=fb845587-1cce-4283-8985-9fe21f142ed3","ios":"levelo://app?vid=fb845587-1cce-4283-8985-9fe21f142ed3"},"vehicle_type_id":"4","last_reported":1685365757,"current_range_meters":28000,"station_id":"ce4bgt12rcd13ifvqcd0","pricing_plan_id":"free"},{"bike_id":"d226e977-3f0b-4b0c-a0e0-157c44aec210","system_id":"levelo_inurba_marseille","lat":43.31491,"lon":5.37307,"is_reserved":false,"is_disabled":false,"rental_uris":{"android":"levelo://app?vid=d226e977-3f0b-4b0c-a0e0-157c44aec210","ios":"levelo://app?vid=d226e977-3f0b-4b0c-a0e0-157c44aec210"},"vehicle_type_id":"4","last_reported":1685365757,"current_range_meters":28000,"station_id":"ce4bgt12rcd13ifvqcd0","pricing_plan_id":"free"},{"bike_id":"0058925c-5e18-4558-acea-a653e3956af1","system_id":"levelo_inurba_marseille","lat":43.308614,"lon":5.372098,"is_reserved":false,"is_disabled":false,"rental_uris":{"android":"levelo://app?vid=0058925c-5e18-4558-acea-a653e3956af1","ios":"levelo://app?vid=0058925c-5e18-4558-acea-a653e3956af1"},"vehicle_type_id":"4","last_reported":1685365757,"current_range_meters":21600,"station_id":"ce4bguh2rcd13ifvqckg","pricing_plan_id":"free"},{"bike_id":"c19ac066-8533-4d6d-a61e-39728efc46a0","system_id":"levelo_inurba_marseille","lat":43.30556,"lon":5.36719,"is_reserved":false,"is_disabled":false,"rental_uris":{"android":"levelo://app?vid=c19ac066-8533-4d6d-a61e-39728efc46a0","ios":"levelo://app?vid=c19ac066-8533-4d6d-a61e-39728efc46a0"},"vehicle_type_id":"4","last_reported":1685365757,"current_range_meters":0,"station_id":"ce4bgrp2rcd13ifvqc9g","pricing_plan_id":"free"},{"bike_id":"23b18efb-ea05-418b-a97f-c634d85706bb","system_id":"levelo_inurba_marseille","lat":43.30549,"lon":5.36535,"is_reserved":false,"is_disabled":false,"rental_uris":{"android":"levelo://app?vid=23b18efb-ea05-418b-a97f-c634d85706bb","ios":"levelo://app?vid=23b18efb-ea05-418b-a97f-c634d85706bb"},"vehicle_type_id":"4","last_reported":1685365757,"current_range_meters":30800,"station_id":"","pricing_plan_id":"free"},{"bike_id":"0978e155-2420-4cff-9a34-937beda69086","system_id":"levelo_inurba_marseille","lat":43.305368,"lon":5.367343,"is_reserved":false,"is_disabled":false,"rental_uris":{"android":"levelo://app?vid=0978e155-2420-4cff-9a34-937beda69086","ios":"levelo://app?vid=0978e155-2420-4cff-9a34-937beda69086"},"vehicle_type_id":"4","last_reported":1685365757,"current_range_meters":18800,"station_id":"ce4bgrp2rcd13ifvqc9g","pricing_plan_id":"free"},{"bike_id":"9fbe1998-1afe-4ba2-abf0-966907785842","system_id":"levelo_inurba_marseille","lat":43.305706,"lon":5.365654,"is_reserved":false,"is_disabled":false,"rental_uris":{"android":"levelo://app?vid=9fbe1998-1afe-4ba2-abf0-966907785842","ios":"levelo://app?vid=9fbe1998-1afe-4ba2-abf0-966907785842"},"vehicle_type_id":"4","last_reported":1685365757,"current_range_meters":4000,"station_id":"ce4bgs12rcd13ifvqcag","pricing_plan_id":"free"},{"bike_id":"58577d8e-28a9-4193-984e-10dbe2f3f5c9","system_id":"levelo_inurba_marseille","lat":43.305706,"lon":5.365654,"is_reserved":false,"is_disabled":false,"rental_uris":{"android":"levelo://app?vid=58577d8e-28a9-4193-984e-10dbe2f3f5c9","ios":"levelo://app?vid=58577d8e-28a9-4193-984e-10dbe2f3f5c9"},"vehicle_type_id":"4","last_reported":1685365757,"current_range_meters":18000,"station_id":"ce4bgs12rcd13ifvqcag","pricing_plan_id":"free"},{"bike_id":"1e23fd3e-394c-43a5-8f90-f0043b99d7ee","system_id":"levelo_inurba_marseille","lat":43.30531,"lon":5.36539,"is_reserved":false,"is_disabled":false,"rental_uris":{"android":"levelo://app?vid=1e23fd3e-394c-43a5-8f90-f0043b99d7ee","ios":"levelo://app?vid=1e23fd3e-394c-43a5-8f90-f0043b99d7ee"},"vehicle_type_id":"4","last_reported":1685365757,"current_range_meters":24800,"station_id":"","pricing_plan_id":"free"},{"bike_id":"a15574de-0b84-4e7e-8d3b-cd8b2d5f802a","system_id":"levelo_inurba_marseille","lat":43.305706,"lon":5.365654,"is_reserved":false,"is_disabled":false,"rental_uris":{"android":"levelo://app?vid=a15574de-0b84-4e7e-8d3b-cd8b2d5f802a","ios":"levelo://app?vid=a15574de-0b84-4e7e-8d3b-cd8b2d5f802a"},"vehicle_type_id":"4","last_reported":1685365757,"current_range_meters":16800,"station_id":"ce4bgs12rcd13ifvqcag","pricing_plan_id":"free"},{"bike_id":"9e6539e6-addd-4cb9-a871-ce0c5f834281","system_id":"levelo_inurba_marseille","lat":43.30609,"lon":5.37221,"is_reserved":false,"is_disabled":false,"rental_uris":{"android":"levelo://app?vid=9e6539e6-addd-4cb9-a871-ce0c5f834281","ios":"levelo://app?vid=9e6539e6-addd-4cb9-a871-ce0c5f834281"},"vehicle_type_id":"4","last_reported":1685365757,"current_range_meters":31200,"station_id":"ce4bgqh2rcd13ifvqc4g","pricing_plan_id":"free"},{"bike_id":"00ff1957-d89a-409f-a388-9a018ba2d252","system_id":"levelo_inurba_marseille","lat":43.30606,"lon":5.37224,"is_reserved":false,"is_disabled":false,"rental_uris":{"android":"levelo://app?vid=00ff1957-d89a-409f-a388-9a018ba2d252","ios":"levelo://app?vid=00ff1957-d89a-409f-a388-9a018ba2d252"},"vehicle_type_id":"4","last_reported":1685365757,"current_range_meters":23200,"station_id":"ce4bgqh2rcd13ifvqc4g","pricing_plan_id":"free"},{"bike_id":"cfe8b94b-e6f8-4730-bb47-d0b7129b7594","system_id":"levelo_inurba_marseille","lat":43.30925,"lon":5.37667,"is_reserved":false,"is_disabled":false,"rental_uris":{"android":"levelo://app?vid=cfe8b94b-e6f8-4730-bb47-d0b7129b7594","ios":"levelo://app?vid=cfe8b94b-e6f8-4730-bb47-d0b7129b7594"},"vehicle_type_id":"4","last_reported":1685365757,"current_range_meters":20800,"station_id":"","pricing_plan_id":"free"},{"bike_id":"ab61e461-6e58-460b-a6af-f36ba6890613","system_id":"levelo_inurba_marseille","lat":43.311125,"lon":5.377624,"is_reserved":false,"is_disabled":false,"rental_uris":{"android":"levelo://app?vid=ab61e461-6e58-460b-a6af-f36ba6890613","ios":"levelo://app?vid=ab61e461-6e58-460b-a6af-f36ba6890613"},"vehicle_type_id":"4","last_reported":1685365757,"current_range_meters":10800,"station_id":"ce4bgt92rcd13ifvqcg0","pricing_plan_id":"free"},{"bike_id":"ac46bd21-4552-4c0d-9719-e4d4af40510d","system_id":"levelo_inurba_marseille","lat":43.317075,"lon":5.377367,"is_reserved":false,"is_disabled":false,"rental_uris":{"android":"levelo://app?vid=ac46bd21-4552-4c0d-9719-e4d4af40510d","ios":"levelo://app?vid=ac46bd21-4552-4c0d-9719-e4d4af40510d"},"vehicle_type_id":"4","last_reported":1685365757,"current_range_meters":23200,"station_id":"ce4bgth2rcd13ifvqch0","pricing_plan_id":"free"},{"bike_id":"bfdd1e9b-6280-49f7-b9b8-d698e08c570c","system_id":"levelo_inurba_marseille","lat":43.317075,"lon":5.377367,"is_reserved":false,"is_disabled":false,"rental_uris":{"android":"levelo://app?vid=bfdd1e9b-6280-49f7-b9b8-d698e08c570c","ios":"levelo://app?vid=bfdd1e9b-6280-49f7-b9b8-d698e08c570c"},"vehicle_type_id":"4","last_reported":1685365757,"current_range_meters":22000,"station_id":"ce4bgth2rcd13ifvqch0","pricing_plan_id":"free"},{"bike_id":"9a7d1a88-7bc5-4bee-a909-7b1c07088442","system_id":"levelo_inurba_marseille","lat":43.315293,"lon":5.380349,"is_reserved":false,"is_disabled":false,"rental_uris":{"android":"levelo://app?vid=9a7d1a88-7bc5-4bee-a909-7b1c07088442","ios":"levelo://app?vid=9a7d1a88-7bc5-4bee-a909-7b1c07088442"},"vehicle_type_id":"4","last_reported":1685365757,"current_range_meters":24400,"station_id":"ce4bhsp2rcd13ifvqi50","pricing_plan_id":"free"},{"bike_id":"db297c34-d4b1-4342-a5ff-9683d5f35f5f","system_id":"levelo_inurba_marseille","lat":43.315293,"lon":5.380349,"is_reserved":false,"is_disabled":false,"rental_uris":{"android":"levelo://app?vid=db297c34-d4b1-4342-a5ff-9683d5f35f5f","ios":"levelo://app?vid=db297c34-d4b1-4342-a5ff-9683d5f35f5f"},"vehicle_type_id":"4","last_reported":1685365757,"current_range_meters":22800,"station_id":"ce4bhsp2rcd13ifvqi50","pricing_plan_id":"free"},{"bike_id":"d03dfde3-848d-4a12-b8c5-302f4c16e8c3","system_id":"levelo_inurba_marseille","lat":43.31556,"lon":5.38048,"is_reserved":false,"is_disabled":false,"rental_uris":{"android":"levelo://app?vid=d03dfde3-848d-4a12-b8c5-302f4c16e8c3","ios":"levelo://app?vid=d03dfde3-848d-4a12-b8c5-302f4c16e8c3"},"vehicle_type_id":"4","last_reported":1685365757,"current_range_meters":17600,"station_id":"","pricing_plan_id":"free"},{"bike_id":"26b45d2d-9c73-43d2-90e1-392caa6773d4","system_id":"levelo_inurba_marseille","lat":43.308012,"lon":5.381511,"is_reserved":false,"is_disabled":false,"rental_uris":{"android":"levelo://app?vid=26b45d2d-9c73-43d2-90e1-392caa6773d4","ios":"levelo://app?vid=26b45d2d-9c73-43d2-90e1-392caa6773d4"},"vehicle_type_id":"4","last_reported":1685365757,"current_range_meters":9200,"station_id":"ce4bgt12rcd13ifvqce0","pricing_plan_id":"free"},{"bike_id":"c6404228-576b-4f07-b2f3-a22c4a4b83a9","system_id":"levelo_inurba_marseille","lat":43.308012,"lon":5.381511,"is_reserved":false,"is_disabled":false,"rental_uris":{"android":"levelo://app?vid=c6404228-576b-4f07-b2f3-a22c4a4b83a9","ios":"levelo://app?vid=c6404228-576b-4f07-b2f3-a22c4a4b83a9"},"vehicle_type_id":"4","last_reported":1685365757,"current_range_meters":13600,"station_id":"ce4bgt12rcd13ifvqce0","pricing_plan_id":"free"},{"bike_id":"7959a546-fbcc-4425-b2ee-ce6e4b76f7e1","system_id":"levelo_inurba_marseille","lat":43.304606,"lon":5.379026,"is_reserved":false,"is_disabled":false,"rental_uris":{"android":"levelo://app?vid=7959a546-fbcc-4425-b2ee-ce6e4b76f7e1","ios":"levelo://app?vid=7959a546-fbcc-4425-b2ee-ce6e4b76f7e1"},"vehicle_type_id":"4","last_reported":1685365757,"current_range_meters":29200,"station_id":"ce4bgup2rcd13ifvqcn0","pricing_plan_id":"free"},{"bike_id":"852568bb-af62-4419-9117-f549719712aa","system_id":"levelo_inurba_marseille","lat":43.313571,"lon":5.384829,"is_reserved":false,"is_disabled":false,"rental_uris":{"android":"levelo://app?vid=852568bb-af62-4419-9117-f549719712aa","ios":"levelo://app?vid=852568bb-af62-4419-9117-f549719712aa"},"vehicle_type_id":"4","last_reported":1685365757,"current_range_meters":12000,"station_id":"ce4bgt92rcd13ifvqcf0","pricing_plan_id":"free"},{"bike_id":"becfc43f-d3e3-482e-9214-e16e1b31feec","system_id":"levelo_inurba_marseille","lat":43.299222,"lon":5.365554,"is_reserved":false,"is_disabled":false,"rental_uris":{"android":"levelo://app?vid=becfc43f-d3e3-482e-9214-e16e1b31feec","ios":"levelo://app?vid=becfc43f-d3e3-482e-9214-e16e1b31feec"},"vehicle_type_id":"4","last_reported":1685365757,"current_range_meters":18400,"station_id":"ce4bgm92rcd13ifvqbr0","pricing_plan_id":"free"},{"bike_id":"d7c03274-aa7d-4d2e-9577-b04b0804de15","system_id":"levelo_inurba_marseille","lat":43.299222,"lon":5.365554,"is_reserved":false,"is_disabled":false,"rental_uris":{"android":"levelo://app?vid=d7c03274-aa7d-4d2e-9577-b04b0804de15","ios":"levelo://app?vid=d7c03274-aa7d-4d2e-9577-b04b0804de15"},"vehicle_type_id":"4","last_reported":1685365757,"current_range_meters":23600,"station_id":"ce4bgm92rcd13ifvqbr0","pricing_plan_id":"free"},{"bike_id":"cfbeaa0d-d5e1-4854-831f-55481f86303c","system_id":"levelo_inurba_marseille","lat":43.29851,"lon":5.36285,"is_reserved":false,"is_disabled":false,"rental_uris":{"android":"levelo://app?vid=cfbeaa0d-d5e1-4854-831f-55481f86303c","ios":"levelo://app?vid=cfbeaa0d-d5e1-4854-831f-55481f86303c"},"vehicle_type_id":"4","last_reported":1685365757,"current_range_meters":28000,"station_id":"ce4bgpp2rcd13ifvqc3g","pricing_plan_id":"free"},{"bike_id":"e15d0be6-369b-4bf0-9084-2907e33ad23f","system_id":"levelo_inurba_marseille","lat":43.29851,"lon":5.36282,"is_reserved":false,"is_disabled":false,"rental_uris":{"android":"levelo://app?vid=e15d0be6-369b-4bf0-9084-2907e33ad23f","ios":"levelo://app?vid=e15d0be6-369b-4bf0-9084-2907e33ad23f"},"vehicle_type_id":"4","last_reported":1685365757,"current_range_meters":31200,"station_id":"ce4bgpp2rcd13ifvqc3g","pricing_plan_id":"free"},{"bike_id":"ae50b7ea-cadd-4acf-bc45-da066d107e03","system_id":"levelo_inurba_marseille","lat":43.299243,"lon":5.37481,"is_reserved":false,"is_disabled":false,"rental_uris":{"android":"levelo://app?vid=ae50b7ea-cadd-4acf-bc45-da066d107e03","ios":"levelo://app?vid=ae50b7ea-cadd-4acf-bc45-da066d107e03"},"vehicle_type_id":"4","last_reported":1685365757,"current_range_meters":3200,"station_id":"ce4bgjh2rcd13ifvqbg0","pricing_plan_id":"free"},{"bike_id":"81a2c496-206b-42db-91a2-88b5b3f3c6c4","system_id":"levelo_inurba_marseille","lat":43.298433,"lon":5.362774,"is_reserved":false,"is_disabled":false,"rental_uris":{"android":"levelo://app?vid=81a2c496-206b-42db-91a2-88b5b3f3c6c4","ios":"levelo://app?vid=81a2c496-206b-42db-91a2-88b5b3f3c6c4"},"vehicle_type_id":"4","last_reported":1685365757,"current_range_meters":30400,"station_id":"ce4bgpp2rcd13ifvqc3g","pricing_plan_id":"free"},{"bike_id":"29ad4b04-07aa-44fc-8077-e581ede00671","system_id":"levelo_inurba_marseille","lat":43.298433,"lon":5.362774,"is_reserved":false,"is_disabled":false,"rental_uris":{"android":"levelo://app?vid=29ad4b04-07aa-44fc-8077-e581ede00671","ios":"levelo://app?vid=29ad4b04-07aa-44fc-8077-e581ede00671"},"vehicle_type_id":"4","last_reported":1685365757,"current_range_meters":24800,"station_id":"ce4bgpp2rcd13ifvqc3g","pricing_plan_id":"free"},{"bike_id":"936957ae-1140-4f5c-9809-7e628422a747","system_id":"levelo_inurba_marseille","lat":43.29842,"lon":5.36276,"is_reserved":false,"is_disabled":false,"rental_uris":{"android":"levelo://app?vid=936957ae-1140-4f5c-9809-7e628422a747","ios":"levelo://app?vid=936957ae-1140-4f5c-9809-7e628422a747"},"vehicle_type_id":"4","last_reported":1685365757,"current_range_meters":21200,"station_id":"ce4bgpp2rcd13ifvqc3g","pricing_plan_id":"free"},{"bike_id":"14f2d4ab-ef49-4fce-a47b-7cdf9b51c3ed","system_id":"levelo_inurba_marseille","lat":43.29841,"lon":5.36282,"is_reserved":false,"is_disabled":false,"rental_uris":{"android":"levelo://app?vid=14f2d4ab-ef49-4fce-a47b-7cdf9b51c3ed","ios":"levelo://app?vid=14f2d4ab-ef49-4fce-a47b-7cdf9b51c3ed"},"vehicle_type_id":"4","last_reported":1685365757,"current_range_meters":31200,"station_id":"ce4bgpp2rcd13ifvqc3g","pricing_plan_id":"free"},{"bike_id":"d11da2d4-50ab-475d-a497-999f76f85bd5","system_id":"levelo_inurba_marseille","lat":43.32745,"lon":5.36701,"is_reserved":false,"is_disabled":false,"rental_uris":{"android":"levelo://app?vid=d11da2d4-50ab-475d-a497-999f76f85bd5","ios":"levelo://app?vid=d11da2d4-50ab-475d-a497-999f76f85bd5"},"vehicle_type_id":"4","last_reported":1685365757,"current_range_meters":22000,"station_id":"","pricing_plan_id":"free"},{"bike_id":"c22e45ef-1c0f-427a-b44b-39103566ef42","system_id":"levelo_inurba_marseille","lat":43.29877,"lon":5.37602,"is_reserved":false,"is_disabled":false,"rental_uris":{"android":"levelo://app?vid=c22e45ef-1c0f-427a-b44b-39103566ef42","ios":"levelo://app?vid=c22e45ef-1c0f-427a-b44b-39103566ef42"},"vehicle_type_id":"4","last_reported":1685365757,"current_range_meters":29200,"station_id":"","pricing_plan_id":"free"},{"bike_id":"85bd337c-95b8-41c4-acad-eea10ed96e55","system_id":"levelo_inurba_marseille","lat":43.328371,"lon":5.366912,"is_reserved":false,"is_disabled":false,"rental_uris":{"android":"levelo://app?vid=85bd337c-95b8-41c4-acad-eea10ed96e55","ios":"levelo://app?vid=85bd337c-95b8-41c4-acad-eea10ed96e55"},"vehicle_type_id":"4","last_reported":1685365757,"current_range_meters":10000,"station_id":"ce4bhs92rcd13ifvqi0g","pricing_plan_id":"free"},{"bike_id":"eaaaca8a-5144-400c-a545-6580a399e6dc","system_id":"levelo_inurba_marseille","lat":43.328371,"lon":5.366912,"is_reserved":false,"is_disabled":false,"rental_uris":{"android":"levelo://app?vid=eaaaca8a-5144-400c-a545-6580a399e6dc","ios":"levelo://app?vid=eaaaca8a-5144-400c-a545-6580a399e6dc"},"vehicle_type_id":"4","last_reported":1685365757,"current_range_meters":16400,"station_id":"ce4bhs92rcd13ifvqi0g","pricing_plan_id":"free"},{"bike_id":"5895156f-f83a-4b54-a0b5-57f02c18ef1a","system_id":"levelo_inurba_marseille","lat":43.328371,"lon":5.366912,"is_reserved":false,"is_disabled":false,"rental_uris":{"android":"levelo://app?vid=5895156f-f83a-4b54-a0b5-57f02c18ef1a","ios":"levelo://app?vid=5895156f-f83a-4b54-a0b5-57f02c18ef1a"},"vehicle_type_id":"4","last_reported":1685365757,"current_range_meters":22400,"station_id":"ce4bhs92rcd13ifvqi0g","pricing_plan_id":"free"},{"bike_id":"6afd2251-95ae-444b-b246-c09edb72787d","system_id":"levelo_inurba_marseille","lat":43.328371,"lon":5.366912,"is_reserved":false,"is_disabled":false,"rental_uris":{"android":"levelo://app?vid=6afd2251-95ae-444b-b246-c09edb72787d","ios":"levelo://app?vid=6afd2251-95ae-444b-b246-c09edb72787d"},"vehicle_type_id":"4","last_reported":1685365757,"current_range_meters":8400,"station_id":"ce4bhs92rcd13ifvqi0g","pricing_plan_id":"free"},{"bike_id":"c2741c10-7cff-43b9-a82e-ab82b471ad42","system_id":"levelo_inurba_marseille","lat":43.328371,"lon":5.366912,"is_reserved":false,"is_disabled":false,"rental_uris":{"android":"levelo://app?vid=c2741c10-7cff-43b9-a82e-ab82b471ad42","ios":"levelo://app?vid=c2741c10-7cff-43b9-a82e-ab82b471ad42"},"vehicle_type_id":"4","last_reported":1685365757,"current_range_meters":13600,"station_id":"ce4bhs92rcd13ifvqi0g","pricing_plan_id":"free"},{"bike_id":"39f0b63d-3425-4917-a4ec-6e10d4e34869","system_id":"levelo_inurba_marseille","lat":43.3283,"lon":5.36679,"is_reserved":false,"is_disabled":false,"rental_uris":{"android":"levelo://app?vid=39f0b63d-3425-4917-a4ec-6e10d4e34869","ios":"levelo://app?vid=39f0b63d-3425-4917-a4ec-6e10d4e34869"},"vehicle_type_id":"4","last_reported":1685365757,"current_range_meters":22400,"station_id":"ce4bhs92rcd13ifvqi0g","pricing_plan_id":"free"},{"bike_id":"450e3cce-c604-4299-8daa-749739d3bfa4","system_id":"levelo_inurba_marseille","lat":43.328332,"lon":5.366961,"is_reserved":false,"is_disabled":false,"rental_uris":{"android":"levelo://app?vid=450e3cce-c604-4299-8daa-749739d3bfa4","ios":"levelo://app?vid=450e3cce-c604-4299-8daa-749739d3bfa4"},"vehicle_type_id":"4","last_reported":1685365757,"current_range_meters":16000,"station_id":"","pricing_plan_id":"free"},{"bike_id":"60edb3b2-d8e9-4c71-b2fa-9e940834a4e9","system_id":"levelo_inurba_marseille","lat":43.32835,"lon":5.36684,"is_reserved":false,"is_disabled":false,"rental_uris":{"android":"levelo://app?vid=60edb3b2-d8e9-4c71-b2fa-9e940834a4e9","ios":"levelo://app?vid=60edb3b2-d8e9-4c71-b2fa-9e940834a4e9"},"vehicle_type_id":"4","last_reported":1685365757,"current_range_meters":24800,"station_id":"ce4bhs92rcd13ifvqi0g","pricing_plan_id":"free"},{"bike_id":"23dd0f06-4d09-4132-9b24-0658535314c9","system_id":"levelo_inurba_marseille","lat":43.29622,"lon":5.37153,"is_reserved":false,"is_disabled":false,"rental_uris":{"android":"levelo://app?vid=23dd0f06-4d09-4132-9b24-0658535314c9","ios":"levelo://app?vid=23dd0f06-4d09-4132-9b24-0658535314c9"},"vehicle_type_id":"4","last_reported":1685365757,"current_range_meters":22000,"station_id":"","pricing_plan_id":"free"},{"bike_id":"aa3dd3c4-5d3e-4d46-bb5b-76b0aafb2390","system_id":"levelo_inurba_marseille","lat":43.296131,"lon":5.370773,"is_reserved":false,"is_disabled":false,"rental_uris":{"android":"levelo://app?vid=aa3dd3c4-5d3e-4d46-bb5b-76b0aafb2390","ios":"levelo://app?vid=aa3dd3c4-5d3e-4d46-bb5b-76b0aafb2390"},"vehicle_type_id":"4","last_reported":1685365757,"current_range_meters":22400,"station_id":"ce4bgnh2rcd13ifvqc0g","pricing_plan_id":"free"},{"bike_id":"7bd551ff-b2df-4fa2-9698-21a9da8b375e","system_id":"levelo_inurba_marseille","lat":43.2962,"lon":5.37169,"is_reserved":false,"is_disabled":false,"rental_uris":{"android":"levelo://app?vid=7bd551ff-b2df-4fa2-9698-21a9da8b375e","ios":"levelo://app?vid=7bd551ff-b2df-4fa2-9698-21a9da8b375e"},"vehicle_type_id":"4","last_reported":1685365757,"current_range_meters":26000,"station_id":"","pricing_plan_id":"free"},{"bike_id":"c508f794-2ddf-4043-8680-e912250d4502","system_id":"levelo_inurba_marseille","lat":43.296921,"lon":5.376579,"is_reserved":false,"is_disabled":false,"rental_uris":{"android":"levelo://app?vid=c508f794-2ddf-4043-8680-e912250d4502","ios":"levelo://app?vid=c508f794-2ddf-4043-8680-e912250d4502"},"vehicle_type_id":"4","last_reported":1685365757,"current_range_meters":29600,"station_id":"ce4bgkh2rcd13ifvqbl0","pricing_plan_id":"free"},{"bike_id":"138ec146-4c71-4860-b120-447204718390","system_id":"levelo_inurba_marseille","lat":43.317557,"lon":5.390173,"is_reserved":false,"is_disabled":false,"rental_uris":{"android":"levelo://app?vid=138ec146-4c71-4860-b120-447204718390","ios":"levelo://app?vid=138ec146-4c71-4860-b120-447204718390"},"vehicle_type_id":"4","last_reported":1685365757,"current_range_meters":30400,"station_id":"ce4bhqp2rcd13ifvqhng","pricing_plan_id":"free"},{"bike_id":"0419b010-e120-441c-8d96-bd3985d66a2e","system_id":"levelo_inurba_marseille","lat":43.304278,"lon":5.388868,"is_reserved":false,"is_disabled":false,"rental_uris":{"android":"levelo://app?vid=0419b010-e120-441c-8d96-bd3985d66a2e","ios":"levelo://app?vid=0419b010-e120-441c-8d96-bd3985d66a2e"},"vehicle_type_id":"4","last_reported":1685365757,"current_range_meters":13600,"station_id":"ce4bgk12rcd13ifvqbi0","pricing_plan_id":"free"},{"bike_id":"90f6eaec-0431-4b84-a3f7-00d7f8ec92e6","system_id":"levelo_inurba_marseille","lat":43.299724,"lon":5.384848,"is_reserved":false,"is_disabled":false,"rental_uris":{"android":"levelo://app?vid=90f6eaec-0431-4b84-a3f7-00d7f8ec92e6","ios":"levelo://app?vid=90f6eaec-0431-4b84-a3f7-00d7f8ec92e6"},"vehicle_type_id":"4","last_reported":1685365757,"current_range_meters":16400,"station_id":"ce4bgj92rcd13ifvqbd0","pricing_plan_id":"free"},{"bike_id":"6aff1c2f-b8df-4090-a34d-0d75bd3374a1","system_id":"levelo_inurba_marseille","lat":43.29802,"lon":5.38227,"is_reserved":false,"is_disabled":false,"rental_uris":{"android":"levelo://app?vid=6aff1c2f-b8df-4090-a34d-0d75bd3374a1","ios":"levelo://app?vid=6aff1c2f-b8df-4090-a34d-0d75bd3374a1"},"vehicle_type_id":"4","last_reported":1685365757,"current_range_meters":23600,"station_id":"","pricing_plan_id":"free"},{"bike_id":"958255bf-0436-4033-b487-b86b02586b49","system_id":"levelo_inurba_marseille","lat":43.32367,"lon":5.38875,"is_reserved":false,"is_disabled":false,"rental_uris":{"android":"levelo://app?vid=958255bf-0436-4033-b487-b86b02586b49","ios":"levelo://app?vid=958255bf-0436-4033-b487-b86b02586b49"},"vehicle_type_id":"4","last_reported":1685365757,"current_range_meters":2000,"station_id":"ce4bhqp2rcd13ifvqhog","pricing_plan_id":"free"},{"bike_id":"0da7bd72-254a-4ce1-885b-abbdcbb46a15","system_id":"levelo_inurba_marseille","lat":43.291675,"lon":5.371583,"is_reserved":false,"is_disabled":false,"rental_uris":{"android":"levelo://app?vid=0da7bd72-254a-4ce1-885b-abbdcbb46a15","ios":"levelo://app?vid=0da7bd72-254a-4ce1-885b-abbdcbb46a15"},"vehicle_type_id":"4","last_reported":1685365757,"current_range_meters":0,"station_id":"ce4bha92rcd13ifvqeh0","pricing_plan_id":"free"},{"bike_id":"9fb30e72-47b9-4cd5-8463-eeabef8092b4","system_id":"levelo_inurba_marseille","lat":43.282744,"lon":5.350533,"is_reserved":false,"is_disabled":false,"rental_uris":{"android":"levelo://app?vid=9fb30e72-47b9-4cd5-8463-eeabef8092b4","ios":"levelo://app?vid=9fb30e72-47b9-4cd5-8463-eeabef8092b4"},"vehicle_type_id":"4","last_reported":1685365757,"current_range_meters":19200,"station_id":"ce4bhbp2rcd13ifvqerg","pricing_plan_id":"free"},{"bike_id":"92f5acc3-8216-4082-b7e9-84e3099622cc","system_id":"levelo_inurba_marseille","lat":43.29006,"lon":5.35607,"is_reserved":false,"is_disabled":false,"rental_uris":{"android":"levelo://app?vid=92f5acc3-8216-4082-b7e9-84e3099622cc","ios":"levelo://app?vid=92f5acc3-8216-4082-b7e9-84e3099622cc"},"vehicle_type_id":"4","last_reported":1685365757,"current_range_meters":22000,"station_id":"ce4bhb92rcd13ifvqen0","pricing_plan_id":"free"},{"bike_id":"76224664-765c-4441-9bd4-df2b50e5957d","system_id":"levelo_inurba_marseille","lat":43.290995,"lon":5.381361,"is_reserved":false,"is_disabled":false,"rental_uris":{"android":"levelo://app?vid=76224664-765c-4441-9bd4-df2b50e5957d","ios":"levelo://app?vid=76224664-765c-4441-9bd4-df2b50e5957d"},"vehicle_type_id":"4","last_reported":1685365757,"current_range_meters":30400,"station_id":"ce4bh512rcd13ifvqe2g","pricing_plan_id":"free"},{"bike_id":"4aac581d-db06-480d-bee0-ad40c12a1f94","system_id":"levelo_inurba_marseille","lat":43.28856,"lon":5.358371,"is_reserved":false,"is_disabled":false,"rental_uris":{"android":"levelo://app?vid=4aac581d-db06-480d-bee0-ad40c12a1f94","ios":"levelo://app?vid=4aac581d-db06-480d-bee0-ad40c12a1f94"},"vehicle_type_id":"4","last_reported":1685365757,"current_range_meters":20000,"station_id":"ce4bhb12rcd13ifvqem0","pricing_plan_id":"free"},{"bike_id":"141c14ea-594b-43ee-894e-8c44af1dcd73","system_id":"levelo_inurba_marseille","lat":43.33737,"lon":5.37443,"is_reserved":false,"is_disabled":false,"rental_uris":{"android":"levelo://app?vid=141c14ea-594b-43ee-894e-8c44af1dcd73","ios":"levelo://app?vid=141c14ea-594b-43ee-894e-8c44af1dcd73"},"vehicle_type_id":"4","last_reported":1685365757,"current_range_meters":30000,"station_id":"","pricing_plan_id":"free"},{"bike_id":"c67b547c-3fcb-4384-8614-e15f558fec55","system_id":"levelo_inurba_marseille","lat":43.33744,"lon":5.37451,"is_reserved":false,"is_disabled":false,"rental_uris":{"android":"levelo://app?vid=c67b547c-3fcb-4384-8614-e15f558fec55","ios":"levelo://app?vid=c67b547c-3fcb-4384-8614-e15f558fec55"},"vehicle_type_id":"4","last_reported":1685365757,"current_range_meters":23600,"station_id":"","pricing_plan_id":"free"},{"bike_id":"493860ce-e063-4684-ab33-c360eaf64153","system_id":"levelo_inurba_marseille","lat":43.33744,"lon":5.37451,"is_reserved":false,"is_disabled":false,"rental_uris":{"android":"levelo://app?vid=493860ce-e063-4684-ab33-c360eaf64153","ios":"levelo://app?vid=493860ce-e063-4684-ab33-c360eaf64153"},"vehicle_type_id":"4","last_reported":1685365757,"current_range_meters":14400,"station_id":"","pricing_plan_id":"free"},{"bike_id":"9d074a0e-eee8-405d-bf85-4af40c49864e","system_id":"levelo_inurba_marseille","lat":43.33746,"lon":5.37451,"is_reserved":false,"is_disabled":false,"rental_uris":{"android":"levelo://app?vid=9d074a0e-eee8-405d-bf85-4af40c49864e","ios":"levelo://app?vid=9d074a0e-eee8-405d-bf85-4af40c49864e"},"vehicle_type_id":"4","last_reported":1685365757,"current_range_meters":26400,"station_id":"","pricing_plan_id":"free"},{"bike_id":"556c6db1-2600-4c2b-9521-aae8453517c1","system_id":"levelo_inurba_marseille","lat":43.33753,"lon":5.37437,"is_reserved":false,"is_disabled":false,"rental_uris":{"android":"levelo://app?vid=556c6db1-2600-4c2b-9521-aae8453517c1","ios":"levelo://app?vid=556c6db1-2600-4c2b-9521-aae8453517c1"},"vehicle_type_id":"4","last_reported":1685365757,"current_range_meters":10000,"station_id":"","pricing_plan_id":"free"},{"bike_id":"5aaf445f-f097-4041-99e9-0b2edc8a39b1","system_id":"levelo_inurba_marseille","lat":43.33764,"lon":5.37448,"is_reserved":false,"is_disabled":false,"rental_uris":{"android":"levelo://app?vid=5aaf445f-f097-4041-99e9-0b2edc8a39b1","ios":"levelo://app?vid=5aaf445f-f097-4041-99e9-0b2edc8a39b1"},"vehicle_type_id":"4","last_reported":1685365757,"current_range_meters":29600,"station_id":"","pricing_plan_id":"free"},{"bike_id":"5892cb66-a5c8-4a19-8790-7653402f3166","system_id":"levelo_inurba_marseille","lat":43.290336,"lon":5.386425,"is_reserved":false,"is_disabled":false,"rental_uris":{"android":"levelo://app?vid=5892cb66-a5c8-4a19-8790-7653402f3166","ios":"levelo://app?vid=5892cb66-a5c8-4a19-8790-7653402f3166"},"vehicle_type_id":"4","last_reported":1685365757,"current_range_meters":2800,"station_id":"ce4bh4p2rcd13ifvqe0g","pricing_plan_id":"free"},{"bike_id":"38451d79-bc0b-4751-80df-943e398fc710","system_id":"levelo_inurba_marseille","lat":43.286039,"lon":5.370679,"is_reserved":false,"is_disabled":false,"rental_uris":{"android":"levelo://app?vid=38451d79-bc0b-4751-80df-943e398fc710","ios":"levelo://app?vid=38451d79-bc0b-4751-80df-943e398fc710"},"vehicle_type_id":"4","last_reported":1685365757,"current_range_meters":23200,"station_id":"ce4bht12rcd13ifvqi60","pricing_plan_id":"free"},{"bike_id":"8fd09611-a4e6-47af-8ca8-c31ca3536f03","system_id":"levelo_inurba_marseille","lat":43.286039,"lon":5.370679,"is_reserved":false,"is_disabled":false,"rental_uris":{"android":"levelo://app?vid=8fd09611-a4e6-47af-8ca8-c31ca3536f03","ios":"levelo://app?vid=8fd09611-a4e6-47af-8ca8-c31ca3536f03"},"vehicle_type_id":"4","last_reported":1685365757,"current_range_meters":16000,"station_id":"ce4bht12rcd13ifvqi60","pricing_plan_id":"free"},{"bike_id":"635422f4-e69e-4423-81ba-e4f61abf28f6","system_id":"levelo_inurba_marseille","lat":43.286039,"lon":5.370679,"is_reserved":false,"is_disabled":false,"rental_uris":{"android":"levelo://app?vid=635422f4-e69e-4423-81ba-e4f61abf28f6","ios":"levelo://app?vid=635422f4-e69e-4423-81ba-e4f61abf28f6"},"vehicle_type_id":"4","last_reported":1685365757,"current_range_meters":3200,"station_id":"ce4bht12rcd13ifvqi60","pricing_plan_id":"free"},{"bike_id":"f5290257-b0f7-4c8c-8c4d-d9c9ace7f2cc","system_id":"levelo_inurba_marseille","lat":43.287184,"lon":5.37937,"is_reserved":false,"is_disabled":false,"rental_uris":{"android":"levelo://app?vid=f5290257-b0f7-4c8c-8c4d-d9c9ace7f2cc","ios":"levelo://app?vid=f5290257-b0f7-4c8c-8c4d-d9c9ace7f2cc"},"vehicle_type_id":"4","last_reported":1685365757,"current_range_meters":16000,"station_id":"ce4bh9p2rcd13ifvqec0","pricing_plan_id":"free"},{"bike_id":"a8fb2371-03f0-42f3-9b46-23b14a95c300","system_id":"levelo_inurba_marseille","lat":43.291994,"lon":5.392907,"is_reserved":false,"is_disabled":false,"rental_uris":{"android":"levelo://app?vid=a8fb2371-03f0-42f3-9b46-23b14a95c300","ios":"levelo://app?vid=a8fb2371-03f0-42f3-9b46-23b14a95c300"},"vehicle_type_id":"4","last_reported":1685365757,"current_range_meters":4000,"station_id":"ce4bh192rcd13ifvqdd0","pricing_plan_id":"free"},{"bike_id":"873da1a2-7be5-42b3-801f-4eeb532ecaf9","system_id":"levelo_inurba_marseille","lat":43.284534,"lon":5.358662,"is_reserved":false,"is_disabled":false,"rental_uris":{"android":"levelo://app?vid=873da1a2-7be5-42b3-801f-4eeb532ecaf9","ios":"levelo://app?vid=873da1a2-7be5-42b3-801f-4eeb532ecaf9"},"vehicle_type_id":"4","last_reported":1685365757,"current_range_meters":7600,"station_id":"ce4bhah2rcd13ifvqei0","pricing_plan_id":"free"},{"bike_id":"43535ed1-a465-4cce-b0f2-834739ff2410","system_id":"levelo_inurba_marseille","lat":43.28621,"lon":5.35109,"is_reserved":false,"is_disabled":false,"rental_uris":{"android":"levelo://app?vid=43535ed1-a465-4cce-b0f2-834739ff2410","ios":"levelo://app?vid=43535ed1-a465-4cce-b0f2-834739ff2410"},"vehicle_type_id":"4","last_reported":1685365757,"current_range_meters":12000,"station_id":"","pricing_plan_id":"free"},{"bike_id":"6d16f32f-acc6-453c-bc98-47909ade0449","system_id":"levelo_inurba_marseille","lat":43.2862,"lon":5.35108,"is_reserved":false,"is_disabled":false,"rental_uris":{"android":"levelo://app?vid=6d16f32f-acc6-453c-bc98-47909ade0449","ios":"levelo://app?vid=6d16f32f-acc6-453c-bc98-47909ade0449"},"vehicle_type_id":"4","last_reported":1685365757,"current_range_meters":25200,"station_id":"","pricing_plan_id":"free"},{"bike_id":"d166c49f-2d6f-4844-9f70-fa02f7c16541","system_id":"levelo_inurba_marseille","lat":43.28617,"lon":5.3511,"is_reserved":false,"is_disabled":false,"rental_uris":{"android":"levelo://app?vid=d166c49f-2d6f-4844-9f70-fa02f7c16541","ios":"levelo://app?vid=d166c49f-2d6f-4844-9f70-fa02f7c16541"},"vehicle_type_id":"4","last_reported":1685365757,"current_range_meters":800,"station_id":"","pricing_plan_id":"free"},{"bike_id":"2d068207-9b28-474a-add4-d440ad6c78eb","system_id":"levelo_inurba_marseille","lat":43.28617,"lon":5.35108,"is_reserved":false,"is_disabled":false,"rental_uris":{"android":"levelo://app?vid=2d068207-9b28-474a-add4-d440ad6c78eb","ios":"levelo://app?vid=2d068207-9b28-474a-add4-d440ad6c78eb"},"vehicle_type_id":"4","last_reported":1685365757,"current_range_meters":14400,"station_id":"","pricing_plan_id":"free"},{"bike_id":"7d0ce5b7-7c22-4977-a515-21bdbacf9a39","system_id":"levelo_inurba_marseille","lat":43.2862,"lon":5.35096,"is_reserved":false,"is_disabled":false,"rental_uris":{"android":"levelo://app?vid=7d0ce5b7-7c22-4977-a515-21bdbacf9a39","ios":"levelo://app?vid=7d0ce5b7-7c22-4977-a515-21bdbacf9a39"},"vehicle_type_id":"4","last_reported":1685365757,"current_range_meters":9600,"station_id":"","pricing_plan_id":"free"},{"bike_id":"ba121738-0cb6-44a2-8d20-c3754a326cad","system_id":"levelo_inurba_marseille","lat":43.28617,"lon":5.35105,"is_reserved":false,"is_disabled":false,"rental_uris":{"android":"levelo://app?vid=ba121738-0cb6-44a2-8d20-c3754a326cad","ios":"levelo://app?vid=ba121738-0cb6-44a2-8d20-c3754a326cad"},"vehicle_type_id":"4","last_reported":1685365757,"current_range_meters":25600,"station_id":"","pricing_plan_id":"free"},{"bike_id":"244fadeb-34d4-4aca-8e18-cbee6ccef617","system_id":"levelo_inurba_marseille","lat":43.28615,"lon":5.35104,"is_reserved":false,"is_disabled":false,"rental_uris":{"android":"levelo://app?vid=244fadeb-34d4-4aca-8e18-cbee6ccef617","ios":"levelo://app?vid=244fadeb-34d4-4aca-8e18-cbee6ccef617"},"vehicle_type_id":"4","last_reported":1685365757,"current_range_meters":20400,"station_id":"","pricing_plan_id":"free"},{"bike_id":"40ae0314-1287-4262-b4f3-3b6a581f4b19","system_id":"levelo_inurba_marseille","lat":43.285856,"lon":5.350771,"is_reserved":false,"is_disabled":false,"rental_uris":{"android":"levelo://app?vid=40ae0314-1287-4262-b4f3-3b6a581f4b19","ios":"levelo://app?vid=40ae0314-1287-4262-b4f3-3b6a581f4b19"},"vehicle_type_id":"4","last_reported":1685365757,"current_range_meters":0,"station_id":"ce4bhch2rcd13ifvqeug","pricing_plan_id":"free"},{"bike_id":"3242e8e5-db8f-410e-b898-549cbf86dd65","system_id":"levelo_inurba_marseille","lat":43.28614,"lon":5.35104,"is_reserved":false,"is_disabled":false,"rental_uris":{"android":"levelo://app?vid=3242e8e5-db8f-410e-b898-549cbf86dd65","ios":"levelo://app?vid=3242e8e5-db8f-410e-b898-549cbf86dd65"},"vehicle_type_id":"4","last_reported":1685365757,"current_range_meters":20000,"station_id":"","pricing_plan_id":"free"},{"bike_id":"ed16cb5a-eb66-49b2-80e1-e78ba0892bb7","system_id":"levelo_inurba_marseille","lat":43.299028,"lon":5.381509,"is_reserved":false,"is_disabled":false,"rental_uris":{"android":"levelo://app?vid=ed16cb5a-eb66-49b2-80e1-e78ba0892bb7","ios":"levelo://app?vid=ed16cb5a-eb66-49b2-80e1-e78ba0892bb7"},"vehicle_type_id":"4","last_reported":1685365757,"current_range_meters":20000,"station_id":"ce4bgj12rcd13ifvqbc0","pricing_plan_id":"free"},{"bike_id":"775a1918-d910-4f44-9320-330e5fee69a4","system_id":"levelo_inurba_marseille","lat":43.286595,"lon":5.386795,"is_reserved":false,"is_disabled":false,"rental_uris":{"android":"levelo://app?vid=775a1918-d910-4f44-9320-330e5fee69a4","ios":"levelo://app?vid=775a1918-d910-4f44-9320-330e5fee69a4"},"vehicle_type_id":"4","last_reported":1685365757,"current_range_meters":23200,"station_id":"ce4bh492rcd13ifvqdug","pricing_plan_id":"free"},{"bike_id":"992c1a9e-ad06-4f0d-8d58-ee4f48d302f6","system_id":"levelo_inurba_marseille","lat":43.286595,"lon":5.386795,"is_reserved":false,"is_disabled":false,"rental_uris":{"android":"levelo://app?vid=992c1a9e-ad06-4f0d-8d58-ee4f48d302f6","ios":"levelo://app?vid=992c1a9e-ad06-4f0d-8d58-ee4f48d302f6"},"vehicle_type_id":"4","last_reported":1685365757,"current_range_meters":12000,"station_id":"ce4bh492rcd13ifvqdug","pricing_plan_id":"free"},{"bike_id":"26a2e18c-620e-4cac-a5e5-28c2f3db0de6","system_id":"levelo_inurba_marseille","lat":43.288497,"lon":5.393089,"is_reserved":false,"is_disabled":false,"rental_uris":{"android":"levelo://app?vid=26a2e18c-620e-4cac-a5e5-28c2f3db0de6","ios":"levelo://app?vid=26a2e18c-620e-4cac-a5e5-28c2f3db0de6"},"vehicle_type_id":"4","last_reported":1685365757,"current_range_meters":6400,"station_id":"ce4bh2p2rcd13ifvqdi0","pricing_plan_id":"free"},{"bike_id":"8814a642-7f18-4f8b-b81b-f4474527ccb2","system_id":"levelo_inurba_marseille","lat":43.284219,"lon":5.3497,"is_reserved":false,"is_disabled":false,"rental_uris":{"android":"levelo://app?vid=8814a642-7f18-4f8b-b81b-f4474527ccb2","ios":"levelo://app?vid=8814a642-7f18-4f8b-b81b-f4474527ccb2"},"vehicle_type_id":"4","last_reported":1685365757,"current_range_meters":28800,"station_id":"ce4bhbh2rcd13ifvqepg","pricing_plan_id":"free"},{"bike_id":"64732a70-fce7-4154-a8c9-9672eb72f483","system_id":"levelo_inurba_marseille","lat":43.284219,"lon":5.3497,"is_reserved":false,"is_disabled":false,"rental_uris":{"android":"levelo://app?vid=64732a70-fce7-4154-a8c9-9672eb72f483","ios":"levelo://app?vid=64732a70-fce7-4154-a8c9-9672eb72f483"},"vehicle_type_id":"4","last_reported":1685365757,"current_range_meters":31200,"station_id":"ce4bhbh2rcd13ifvqepg","pricing_plan_id":"free"},{"bike_id":"6aa63b05-16a0-4a87-a1fb-a3f95acee867","system_id":"levelo_inurba_marseille","lat":43.284219,"lon":5.3497,"is_reserved":false,"is_disabled":false,"rental_uris":{"android":"levelo://app?vid=6aa63b05-16a0-4a87-a1fb-a3f95acee867","ios":"levelo://app?vid=6aa63b05-16a0-4a87-a1fb-a3f95acee867"},"vehicle_type_id":"4","last_reported":1685365757,"current_range_meters":31200,"station_id":"ce4bhbh2rcd13ifvqepg","pricing_plan_id":"free"},{"bike_id":"2f521c2c-8c89-4edc-8e0b-a75fc32ca095","system_id":"levelo_inurba_marseille","lat":43.284219,"lon":5.3497,"is_reserved":false,"is_disabled":false,"rental_uris":{"android":"levelo://app?vid=2f521c2c-8c89-4edc-8e0b-a75fc32ca095","ios":"levelo://app?vid=2f521c2c-8c89-4edc-8e0b-a75fc32ca095"},"vehicle_type_id":"4","last_reported":1685365757,"current_range_meters":5200,"station_id":"ce4bhbh2rcd13ifvqepg","pricing_plan_id":"free"},{"bike_id":"e2626984-2b11-48b6-bff3-7e0da5fb0ac7","system_id":"levelo_inurba_marseille","lat":43.284219,"lon":5.3497,"is_reserved":false,"is_disabled":false,"rental_uris":{"android":"levelo://app?vid=e2626984-2b11-48b6-bff3-7e0da5fb0ac7","ios":"levelo://app?vid=e2626984-2b11-48b6-bff3-7e0da5fb0ac7"},"vehicle_type_id":"4","last_reported":1685365757,"current_range_meters":26400,"station_id":"ce4bhbh2rcd13ifvqepg","pricing_plan_id":"free"},{"bike_id":"ce429d90-d737-4307-a97c-9bef8896c4f3","system_id":"levelo_inurba_marseille","lat":43.284219,"lon":5.3497,"is_reserved":false,"is_disabled":false,"rental_uris":{"android":"levelo://app?vid=ce429d90-d737-4307-a97c-9bef8896c4f3","ios":"levelo://app?vid=ce429d90-d737-4307-a97c-9bef8896c4f3"},"vehicle_type_id":"4","last_reported":1685365757,"current_range_meters":31200,"station_id":"ce4bhbh2rcd13ifvqepg","pricing_plan_id":"free"},{"bike_id":"3c7ca04a-d89f-4b76-b2f2-f7ba9382ef25","system_id":"levelo_inurba_marseille","lat":43.28421,"lon":5.34986,"is_reserved":false,"is_disabled":false,"rental_uris":{"android":"levelo://app?vid=3c7ca04a-d89f-4b76-b2f2-f7ba9382ef25","ios":"levelo://app?vid=3c7ca04a-d89f-4b76-b2f2-f7ba9382ef25"},"vehicle_type_id":"4","last_reported":1685365757,"current_range_meters":24400,"station_id":"ce4bhbh2rcd13ifvqepg","pricing_plan_id":"free"},{"bike_id":"d69085d6-5092-444e-a2f0-3f1295fa8d50","system_id":"levelo_inurba_marseille","lat":43.284219,"lon":5.3497,"is_reserved":false,"is_disabled":false,"rental_uris":{"android":"levelo://app?vid=d69085d6-5092-444e-a2f0-3f1295fa8d50","ios":"levelo://app?vid=d69085d6-5092-444e-a2f0-3f1295fa8d50"},"vehicle_type_id":"4","last_reported":1685365757,"current_range_meters":800,"station_id":"ce4bhbh2rcd13ifvqepg","pricing_plan_id":"free"},{"bike_id":"7f26a831-ef87-4067-ae81-e01f335dc546","system_id":"levelo_inurba_marseille","lat":43.284219,"lon":5.3497,"is_reserved":false,"is_disabled":false,"rental_uris":{"android":"levelo://app?vid=7f26a831-ef87-4067-ae81-e01f335dc546","ios":"levelo://app?vid=7f26a831-ef87-4067-ae81-e01f335dc546"},"vehicle_type_id":"4","last_reported":1685365757,"current_range_meters":30800,"station_id":"ce4bhbh2rcd13ifvqepg","pricing_plan_id":"free"},{"bike_id":"5f581570-a5ac-49b3-a9ce-22540a19a64a","system_id":"levelo_inurba_marseille","lat":43.284219,"lon":5.3497,"is_reserved":false,"is_disabled":false,"rental_uris":{"android":"levelo://app?vid=5f581570-a5ac-49b3-a9ce-22540a19a64a","ios":"levelo://app?vid=5f581570-a5ac-49b3-a9ce-22540a19a64a"},"vehicle_type_id":"4","last_reported":1685365757,"current_range_meters":31600,"station_id":"ce4bhbh2rcd13ifvqepg","pricing_plan_id":"free"},{"bike_id":"fce8a2b4-1212-4155-9443-b461d8b77465","system_id":"levelo_inurba_marseille","lat":43.284219,"lon":5.3497,"is_reserved":false,"is_disabled":false,"rental_uris":{"android":"levelo://app?vid=fce8a2b4-1212-4155-9443-b461d8b77465","ios":"levelo://app?vid=fce8a2b4-1212-4155-9443-b461d8b77465"},"vehicle_type_id":"4","last_reported":1685365757,"current_range_meters":26400,"station_id":"ce4bhbh2rcd13ifvqepg","pricing_plan_id":"free"},{"bike_id":"5a6a82cd-7dc7-47d5-a5d3-6c465f2432e0","system_id":"levelo_inurba_marseille","lat":43.28422,"lon":5.34974,"is_reserved":false,"is_disabled":false,"rental_uris":{"android":"levelo://app?vid=5a6a82cd-7dc7-47d5-a5d3-6c465f2432e0","ios":"levelo://app?vid=5a6a82cd-7dc7-47d5-a5d3-6c465f2432e0"},"vehicle_type_id":"4","last_reported":1685365757,"current_range_meters":12800,"station_id":"ce4bhbh2rcd13ifvqepg","pricing_plan_id":"free"},{"bike_id":"a038deb6-ce19-4bc9-956e-69c76ba209ea","system_id":"levelo_inurba_marseille","lat":43.284219,"lon":5.3497,"is_reserved":false,"is_disabled":false,"rental_uris":{"android":"levelo://app?vid=a038deb6-ce19-4bc9-956e-69c76ba209ea","ios":"levelo://app?vid=a038deb6-ce19-4bc9-956e-69c76ba209ea"},"vehicle_type_id":"4","last_reported":1685365757,"current_range_meters":23200,"station_id":"ce4bhbh2rcd13ifvqepg","pricing_plan_id":"free"},{"bike_id":"11139f7d-d47d-4159-8503-853294d9da3f","system_id":"levelo_inurba_marseille","lat":43.28419,"lon":5.34977,"is_reserved":false,"is_disabled":false,"rental_uris":{"android":"levelo://app?vid=11139f7d-d47d-4159-8503-853294d9da3f","ios":"levelo://app?vid=11139f7d-d47d-4159-8503-853294d9da3f"},"vehicle_type_id":"4","last_reported":1685365757,"current_range_meters":2800,"station_id":"ce4bhbh2rcd13ifvqepg","pricing_plan_id":"free"},{"bike_id":"18795326-8baa-4d93-9853-4f400af5d994","system_id":"levelo_inurba_marseille","lat":43.28417,"lon":5.34982,"is_reserved":false,"is_disabled":false,"rental_uris":{"android":"levelo://app?vid=18795326-8baa-4d93-9853-4f400af5d994","ios":"levelo://app?vid=18795326-8baa-4d93-9853-4f400af5d994"},"vehicle_type_id":"4","last_reported":1685365757,"current_range_meters":8800,"station_id":"ce4bhbh2rcd13ifvqepg","pricing_plan_id":"free"},{"bike_id":"7e931bda-2f48-4e29-8aee-4a162f0e2ffc","system_id":"levelo_inurba_marseille","lat":43.28418,"lon":5.34978,"is_reserved":false,"is_disabled":false,"rental_uris":{"android":"levelo://app?vid=7e931bda-2f48-4e29-8aee-4a162f0e2ffc","ios":"levelo://app?vid=7e931bda-2f48-4e29-8aee-4a162f0e2ffc"},"vehicle_type_id":"4","last_reported":1685365757,"current_range_meters":22800,"station_id":"ce4bhbh2rcd13ifvqepg","pricing_plan_id":"free"},{"bike_id":"997aad4a-7a02-4932-9d5e-12ffcda6a693","system_id":"levelo_inurba_marseille","lat":43.28414,"lon":5.34989,"is_reserved":false,"is_disabled":false,"rental_uris":{"android":"levelo://app?vid=997aad4a-7a02-4932-9d5e-12ffcda6a693","ios":"levelo://app?vid=997aad4a-7a02-4932-9d5e-12ffcda6a693"},"vehicle_type_id":"4","last_reported":1685365757,"current_range_meters":31200,"station_id":"ce4bhbh2rcd13ifvqepg","pricing_plan_id":"free"},{"bike_id":"652ae861-51fd-4a5a-ad3f-27a3015fa4d9","system_id":"levelo_inurba_marseille","lat":43.28415,"lon":5.3498,"is_reserved":false,"is_disabled":false,"rental_uris":{"android":"levelo://app?vid=652ae861-51fd-4a5a-ad3f-27a3015fa4d9","ios":"levelo://app?vid=652ae861-51fd-4a5a-ad3f-27a3015fa4d9"},"vehicle_type_id":"4","last_reported":1685365757,"current_range_meters":0,"station_id":"ce4bhbh2rcd13ifvqepg","pricing_plan_id":"free"},{"bike_id":"c00bf755-034a-4160-914f-cd8a1035af91","system_id":"levelo_inurba_marseille","lat":43.284217,"lon":5.349697,"is_reserved":false,"is_disabled":false,"rental_uris":{"android":"levelo://app?vid=c00bf755-034a-4160-914f-cd8a1035af91","ios":"levelo://app?vid=c00bf755-034a-4160-914f-cd8a1035af91"},"vehicle_type_id":"4","last_reported":1685365757,"current_range_meters":31600,"station_id":"ce4bhbh2rcd13ifvqepg","pricing_plan_id":"free"},{"bike_id":"0907ac95-3bbd-4541-9041-65558c442bc4","system_id":"levelo_inurba_marseille","lat":43.292724,"lon":5.401131,"is_reserved":false,"is_disabled":false,"rental_uris":{"android":"levelo://app?vid=0907ac95-3bbd-4541-9041-65558c442bc4","ios":"levelo://app?vid=0907ac95-3bbd-4541-9041-65558c442bc4"},"vehicle_type_id":"4","last_reported":1685365757,"current_range_meters":12800,"station_id":"ce4bh312rcd13ifvqdk0","pricing_plan_id":"free"},{"bike_id":"5daf750d-e691-42bb-b50f-69ac066a0e95","system_id":"levelo_inurba_marseille","lat":43.283502,"lon":5.386471,"is_reserved":false,"is_disabled":false,"rental_uris":{"android":"levelo://app?vid=5daf750d-e691-42bb-b50f-69ac066a0e95","ios":"levelo://app?vid=5daf750d-e691-42bb-b50f-69ac066a0e95"},"vehicle_type_id":"4","last_reported":1685365757,"current_range_meters":25600,"station_id":"ce4bh492rcd13ifvqdvg","pricing_plan_id":"free"},{"bike_id":"b858907a-2522-4c0a-818c-3ef7a6a5b381","system_id":"levelo_inurba_marseille","lat":43.28273,"lon":5.35063,"is_reserved":false,"is_disabled":false,"rental_uris":{"android":"levelo://app?vid=b858907a-2522-4c0a-818c-3ef7a6a5b381","ios":"levelo://app?vid=b858907a-2522-4c0a-818c-3ef7a6a5b381"},"vehicle_type_id":"4","last_reported":1685365757,"current_range_meters":20400,"station_id":"ce4bhbp2rcd13ifvqerg","pricing_plan_id":"free"},{"bike_id":"0837b651-c24c-4268-804c-591413d04750","system_id":"levelo_inurba_marseille","lat":43.28273,"lon":5.35061,"is_reserved":false,"is_disabled":false,"rental_uris":{"android":"levelo://app?vid=0837b651-c24c-4268-804c-591413d04750","ios":"levelo://app?vid=0837b651-c24c-4268-804c-591413d04750"},"vehicle_type_id":"4","last_reported":1685365757,"current_range_meters":7600,"station_id":"ce4bhbp2rcd13ifvqerg","pricing_plan_id":"free"},{"bike_id":"3491d796-e454-4825-affc-cc9f1f780252","system_id":"levelo_inurba_marseille","lat":43.282744,"lon":5.350533,"is_reserved":false,"is_disabled":false,"rental_uris":{"android":"levelo://app?vid=3491d796-e454-4825-affc-cc9f1f780252","ios":"levelo://app?vid=3491d796-e454-4825-affc-cc9f1f780252"},"vehicle_type_id":"4","last_reported":1685365757,"current_range_meters":24000,"station_id":"ce4bhbp2rcd13ifvqerg","pricing_plan_id":"free"},{"bike_id":"9b300d98-8ed5-4cdd-9add-7f7d560da12f","system_id":"levelo_inurba_marseille","lat":43.28271,"lon":5.3506,"is_reserved":false,"is_disabled":false,"rental_uris":{"android":"levelo://app?vid=9b300d98-8ed5-4cdd-9add-7f7d560da12f","ios":"levelo://app?vid=9b300d98-8ed5-4cdd-9add-7f7d560da12f"},"vehicle_type_id":"4","last_reported":1685365757,"current_range_meters":24000,"station_id":"ce4bhbp2rcd13ifvqerg","pricing_plan_id":"free"},{"bike_id":"f8a827df-ec6d-4d2f-86af-1a28e82607d8","system_id":"levelo_inurba_marseille","lat":43.28268,"lon":5.35067,"is_reserved":false,"is_disabled":false,"rental_uris":{"android":"levelo://app?vid=f8a827df-ec6d-4d2f-86af-1a28e82607d8","ios":"levelo://app?vid=f8a827df-ec6d-4d2f-86af-1a28e82607d8"},"vehicle_type_id":"4","last_reported":1685365757,"current_range_meters":20800,"station_id":"ce4bhbp2rcd13ifvqerg","pricing_plan_id":"free"},{"bike_id":"080b0474-0f0f-4424-b238-65af765efbee","system_id":"levelo_inurba_marseille","lat":43.28267,"lon":5.35068,"is_reserved":false,"is_disabled":false,"rental_uris":{"android":"levelo://app?vid=080b0474-0f0f-4424-b238-65af765efbee","ios":"levelo://app?vid=080b0474-0f0f-4424-b238-65af765efbee"},"vehicle_type_id":"4","last_reported":1685365757,"current_range_meters":0,"station_id":"ce4bhbp2rcd13ifvqerg","pricing_plan_id":"free"},{"bike_id":"ddaa344f-f14d-44bd-8bad-c8ac81d65c75","system_id":"levelo_inurba_marseille","lat":43.28265,"lon":5.35072,"is_reserved":false,"is_disabled":false,"rental_uris":{"android":"levelo://app?vid=ddaa344f-f14d-44bd-8bad-c8ac81d65c75","ios":"levelo://app?vid=ddaa344f-f14d-44bd-8bad-c8ac81d65c75"},"vehicle_type_id":"4","last_reported":1685365757,"current_range_meters":22400,"station_id":"ce4bhbp2rcd13ifvqerg","pricing_plan_id":"free"},{"bike_id":"1f902dab-7cd7-43cb-b0d5-d36893fac438","system_id":"levelo_inurba_marseille","lat":43.282744,"lon":5.350533,"is_reserved":false,"is_disabled":false,"rental_uris":{"android":"levelo://app?vid=1f902dab-7cd7-43cb-b0d5-d36893fac438","ios":"levelo://app?vid=1f902dab-7cd7-43cb-b0d5-d36893fac438"},"vehicle_type_id":"4","last_reported":1685365757,"current_range_meters":2800,"station_id":"ce4bhbp2rcd13ifvqerg","pricing_plan_id":"free"},{"bike_id":"3fa0b8ad-0ce7-4049-a623-750264f3a51c","system_id":"levelo_inurba_marseille","lat":43.28267,"lon":5.35064,"is_reserved":false,"is_disabled":false,"rental_uris":{"android":"levelo://app?vid=3fa0b8ad-0ce7-4049-a623-750264f3a51c","ios":"levelo://app?vid=3fa0b8ad-0ce7-4049-a623-750264f3a51c"},"vehicle_type_id":"4","last_reported":1685365757,"current_range_meters":4000,"station_id":"ce4bhbp2rcd13ifvqerg","pricing_plan_id":"free"},{"bike_id":"824d221b-5588-4248-8630-185fa4112b0e","system_id":"levelo_inurba_marseille","lat":43.282744,"lon":5.350533,"is_reserved":false,"is_disabled":false,"rental_uris":{"android":"levelo://app?vid=824d221b-5588-4248-8630-185fa4112b0e","ios":"levelo://app?vid=824d221b-5588-4248-8630-185fa4112b0e"},"vehicle_type_id":"4","last_reported":1685365757,"current_range_meters":30800,"station_id":"ce4bhbp2rcd13ifvqerg","pricing_plan_id":"free"},{"bike_id":"208895ae-5ff6-4c45-b47f-179bda42d2b4","system_id":"levelo_inurba_marseille","lat":43.28269,"lon":5.35056,"is_reserved":false,"is_disabled":false,"rental_uris":{"android":"levelo://app?vid=208895ae-5ff6-4c45-b47f-179bda42d2b4","ios":"levelo://app?vid=208895ae-5ff6-4c45-b47f-179bda42d2b4"},"vehicle_type_id":"4","last_reported":1685365757,"current_range_meters":22000,"station_id":"ce4bhbp2rcd13ifvqerg","pricing_plan_id":"free"},{"bike_id":"fba8e799-9e67-4b20-b8a9-bbfb077563ab","system_id":"levelo_inurba_marseille","lat":43.28268,"lon":5.35059,"is_reserved":false,"is_disabled":false,"rental_uris":{"android":"levelo://app?vid=fba8e799-9e67-4b20-b8a9-bbfb077563ab","ios":"levelo://app?vid=fba8e799-9e67-4b20-b8a9-bbfb077563ab"},"vehicle_type_id":"4","last_reported":1685365757,"current_range_meters":31200,"station_id":"ce4bhbp2rcd13ifvqerg","pricing_plan_id":"free"},{"bike_id":"a1f935db-9ba1-4497-93f4-8cf627d9aff4","system_id":"levelo_inurba_marseille","lat":43.28268,"lon":5.35058,"is_reserved":false,"is_disabled":false,"rental_uris":{"android":"levelo://app?vid=a1f935db-9ba1-4497-93f4-8cf627d9aff4","ios":"levelo://app?vid=a1f935db-9ba1-4497-93f4-8cf627d9aff4"},"vehicle_type_id":"4","last_reported":1685365757,"current_range_meters":22800,"station_id":"ce4bhbp2rcd13ifvqerg","pricing_plan_id":"free"},{"bike_id":"a0e3d4cb-6282-41ed-81cb-64ff6cdf8713","system_id":"levelo_inurba_marseille","lat":43.282744,"lon":5.350533,"is_reserved":false,"is_disabled":false,"rental_uris":{"android":"levelo://app?vid=a0e3d4cb-6282-41ed-81cb-64ff6cdf8713","ios":"levelo://app?vid=a0e3d4cb-6282-41ed-81cb-64ff6cdf8713"},"vehicle_type_id":"4","last_reported":1685365757,"current_range_meters":24800,"station_id":"ce4bhbp2rcd13ifvqerg","pricing_plan_id":"free"},{"bike_id":"c6d1ac23-8830-41b5-b69a-7756f780af46","system_id":"levelo_inurba_marseille","lat":43.282754,"lon":5.350519,"is_reserved":false,"is_disabled":false,"rental_uris":{"android":"levelo://app?vid=c6d1ac23-8830-41b5-b69a-7756f780af46","ios":"levelo://app?vid=c6d1ac23-8830-41b5-b69a-7756f780af46"},"vehicle_type_id":"4","last_reported":1685365757,"current_range_meters":30800,"station_id":"ce4bhbp2rcd13ifvqerg","pricing_plan_id":"free"},{"bike_id":"99172a0d-909f-44ef-a03a-dd2959fce7d4","system_id":"levelo_inurba_marseille","lat":43.28266,"lon":5.35056,"is_reserved":false,"is_disabled":false,"rental_uris":{"android":"levelo://app?vid=99172a0d-909f-44ef-a03a-dd2959fce7d4","ios":"levelo://app?vid=99172a0d-909f-44ef-a03a-dd2959fce7d4"},"vehicle_type_id":"4","last_reported":1685365757,"current_range_meters":25200,"station_id":"ce4bhbp2rcd13ifvqerg","pricing_plan_id":"free"},{"bike_id":"0588983e-3c25-4872-ad53-c8740fea039e","system_id":"levelo_inurba_marseille","lat":43.280382,"lon":5.369291,"is_reserved":false,"is_disabled":false,"rental_uris":{"android":"levelo://app?vid=0588983e-3c25-4872-ad53-c8740fea039e","ios":"levelo://app?vid=0588983e-3c25-4872-ad53-c8740fea039e"},"vehicle_type_id":"4","last_reported":1685365757,"current_range_meters":28000,"station_id":"ce4bha12rcd13ifvqef0","pricing_plan_id":"free"},{"bike_id":"82a77095-e50b-4709-acff-04a706548c2f","system_id":"levelo_inurba_marseille","lat":43.29041,"lon":5.399634,"is_reserved":false,"is_disabled":false,"rental_uris":{"android":"levelo://app?vid=82a77095-e50b-4709-acff-04a706548c2f","ios":"levelo://app?vid=82a77095-e50b-4709-acff-04a706548c2f"},"vehicle_type_id":"4","last_reported":1685365757,"current_range_meters":8000,"station_id":"ce4bh392rcd13ifvqdm0","pricing_plan_id":"free"},{"bike_id":"f05bd149-8523-4e53-a8c3-5521583228f2","system_id":"levelo_inurba_marseille","lat":43.296263,"lon":5.40601,"is_reserved":false,"is_disabled":false,"rental_uris":{"android":"levelo://app?vid=f05bd149-8523-4e53-a8c3-5521583228f2","ios":"levelo://app?vid=f05bd149-8523-4e53-a8c3-5521583228f2"},"vehicle_type_id":"4","last_reported":1685365757,"current_range_meters":24000,"station_id":"ce4bh0h2rcd13ifvqd60","pricing_plan_id":"free"},{"bike_id":"183a60a0-a58c-4ffa-b724-ba47d7cc54ce","system_id":"levelo_inurba_marseille","lat":43.296263,"lon":5.40601,"is_reserved":false,"is_disabled":false,"rental_uris":{"android":"levelo://app?vid=183a60a0-a58c-4ffa-b724-ba47d7cc54ce","ios":"levelo://app?vid=183a60a0-a58c-4ffa-b724-ba47d7cc54ce"},"vehicle_type_id":"4","last_reported":1685365757,"current_range_meters":0,"station_id":"ce4bh0h2rcd13ifvqd60","pricing_plan_id":"free"},{"bike_id":"8af13262-4f51-4029-80f7-b31e6ac4b9c1","system_id":"levelo_inurba_marseille","lat":43.29041,"lon":5.399634,"is_reserved":false,"is_disabled":false,"rental_uris":{"android":"levelo://app?vid=8af13262-4f51-4029-80f7-b31e6ac4b9c1","ios":"levelo://app?vid=8af13262-4f51-4029-80f7-b31e6ac4b9c1"},"vehicle_type_id":"4","last_reported":1685365757,"current_range_meters":16800,"station_id":"ce4bh392rcd13ifvqdm0","pricing_plan_id":"free"},{"bike_id":"b6a4d590-4d55-4ee1-865a-2a2bf08d1ad9","system_id":"levelo_inurba_marseille","lat":43.2844,"lon":5.39194,"is_reserved":false,"is_disabled":false,"rental_uris":{"android":"levelo://app?vid=b6a4d590-4d55-4ee1-865a-2a2bf08d1ad9","ios":"levelo://app?vid=b6a4d590-4d55-4ee1-865a-2a2bf08d1ad9"},"vehicle_type_id":"4","last_reported":1685365757,"current_range_meters":25600,"station_id":"ce4bhoh2rcd13ifvqh5g","pricing_plan_id":"free"},{"bike_id":"d7e4e9e4-bcca-426c-86eb-756130cae472","system_id":"levelo_inurba_marseille","lat":43.299579,"lon":5.413255,"is_reserved":false,"is_disabled":false,"rental_uris":{"android":"levelo://app?vid=d7e4e9e4-bcca-426c-86eb-756130cae472","ios":"levelo://app?vid=d7e4e9e4-bcca-426c-86eb-756130cae472"},"vehicle_type_id":"4","last_reported":1685365757,"current_range_meters":27600,"station_id":"ce4bhp12rcd13ifvqh9g","pricing_plan_id":"free"},{"bike_id":"f330e42b-41f3-4919-ae65-306a2a0518a5","system_id":"levelo_inurba_marseille","lat":43.279742,"lon":5.38744,"is_reserved":false,"is_disabled":false,"rental_uris":{"android":"levelo://app?vid=f330e42b-41f3-4919-ae65-306a2a0518a5","ios":"levelo://app?vid=f330e42b-41f3-4919-ae65-306a2a0518a5"},"vehicle_type_id":"4","last_reported":1685365757,"current_range_meters":14800,"station_id":"ce4bhg12rcd13ifvqf80","pricing_plan_id":"free"},{"bike_id":"75ba4b7c-cef0-4add-b34a-48b324aad131","system_id":"levelo_inurba_marseille","lat":43.279742,"lon":5.38744,"is_reserved":false,"is_disabled":false,"rental_uris":{"android":"levelo://app?vid=75ba4b7c-cef0-4add-b34a-48b324aad131","ios":"levelo://app?vid=75ba4b7c-cef0-4add-b34a-48b324aad131"},"vehicle_type_id":"4","last_reported":1685365757,"current_range_meters":5200,"station_id":"ce4bhg12rcd13ifvqf80","pricing_plan_id":"free"},{"bike_id":"5f8ec637-274b-4f19-8c32-9f1768ef669f","system_id":"levelo_inurba_marseille","lat":43.292571,"lon":5.409107,"is_reserved":false,"is_disabled":false,"rental_uris":{"android":"levelo://app?vid=5f8ec637-274b-4f19-8c32-9f1768ef669f","ios":"levelo://app?vid=5f8ec637-274b-4f19-8c32-9f1768ef669f"},"vehicle_type_id":"4","last_reported":1685365757,"current_range_meters":11600,"station_id":"ce4bh192rcd13ifvqdc0","pricing_plan_id":"free"},{"bike_id":"ae1cdf95-36a8-4472-91d0-6e681c120bbc","system_id":"levelo_inurba_marseille","lat":43.292571,"lon":5.409107,"is_reserved":false,"is_disabled":false,"rental_uris":{"android":"levelo://app?vid=ae1cdf95-36a8-4472-91d0-6e681c120bbc","ios":"levelo://app?vid=ae1cdf95-36a8-4472-91d0-6e681c120bbc"},"vehicle_type_id":"4","last_reported":1685365757,"current_range_meters":31200,"station_id":"ce4bh192rcd13ifvqdc0","pricing_plan_id":"free"},{"bike_id":"01988e69-77c4-41bb-a59a-f92df6fceffd","system_id":"levelo_inurba_marseille","lat":43.27625,"lon":5.36104,"is_reserved":false,"is_disabled":false,"rental_uris":{"android":"levelo://app?vid=01988e69-77c4-41bb-a59a-f92df6fceffd","ios":"levelo://app?vid=01988e69-77c4-41bb-a59a-f92df6fceffd"},"vehicle_type_id":"4","last_reported":1685365757,"current_range_meters":22000,"station_id":"ce4bgj92rcd13ifvqbe0","pricing_plan_id":"free"},{"bike_id":"e37bc7d8-eb13-42f0-b444-d4080a4488a6","system_id":"levelo_inurba_marseille","lat":43.3255,"lon":5.41433,"is_reserved":false,"is_disabled":false,"rental_uris":{"android":"levelo://app?vid=e37bc7d8-eb13-42f0-b444-d4080a4488a6","ios":"levelo://app?vid=e37bc7d8-eb13-42f0-b444-d4080a4488a6"},"vehicle_type_id":"4","last_reported":1685365757,"current_range_meters":23600,"station_id":"","pricing_plan_id":"free"},{"bike_id":"479a73e1-fc59-4def-ae77-a88abf40d31c","system_id":"levelo_inurba_marseille","lat":43.276179,"lon":5.361009,"is_reserved":false,"is_disabled":false,"rental_uris":{"android":"levelo://app?vid=479a73e1-fc59-4def-ae77-a88abf40d31c","ios":"levelo://app?vid=479a73e1-fc59-4def-ae77-a88abf40d31c"},"vehicle_type_id":"4","last_reported":1685365757,"current_range_meters":28800,"station_id":"ce4bgj92rcd13ifvqbe0","pricing_plan_id":"free"},{"bike_id":"a2e9cbfa-4b2b-4934-a99d-91122d833ef6","system_id":"levelo_inurba_marseille","lat":43.276179,"lon":5.361009,"is_reserved":false,"is_disabled":false,"rental_uris":{"android":"levelo://app?vid=a2e9cbfa-4b2b-4934-a99d-91122d833ef6","ios":"levelo://app?vid=a2e9cbfa-4b2b-4934-a99d-91122d833ef6"},"vehicle_type_id":"4","last_reported":1685365757,"current_range_meters":28000,"station_id":"ce4bgj92rcd13ifvqbe0","pricing_plan_id":"free"},{"bike_id":"3c23a1ba-2251-441d-bb72-cfe28ecee408","system_id":"levelo_inurba_marseille","lat":43.27612,"lon":5.36116,"is_reserved":false,"is_disabled":false,"rental_uris":{"android":"levelo://app?vid=3c23a1ba-2251-441d-bb72-cfe28ecee408","ios":"levelo://app?vid=3c23a1ba-2251-441d-bb72-cfe28ecee408"},"vehicle_type_id":"4","last_reported":1685365757,"current_range_meters":24800,"station_id":"ce4bgj92rcd13ifvqbe0","pricing_plan_id":"free"},{"bike_id":"4d334810-6f4b-4c1d-a3f0-85988ce1a134","system_id":"levelo_inurba_marseille","lat":43.276179,"lon":5.361009,"is_reserved":false,"is_disabled":false,"rental_uris":{"android":"levelo://app?vid=4d334810-6f4b-4c1d-a3f0-85988ce1a134","ios":"levelo://app?vid=4d334810-6f4b-4c1d-a3f0-85988ce1a134"},"vehicle_type_id":"4","last_reported":1685365757,"current_range_meters":25200,"station_id":"ce4bgj92rcd13ifvqbe0","pricing_plan_id":"free"},{"bike_id":"eca66c1d-ae2c-4bc5-ae81-3fed2c4309c4","system_id":"levelo_inurba_marseille","lat":43.27611,"lon":5.36113,"is_reserved":false,"is_disabled":false,"rental_uris":{"android":"levelo://app?vid=eca66c1d-ae2c-4bc5-ae81-3fed2c4309c4","ios":"levelo://app?vid=eca66c1d-ae2c-4bc5-ae81-3fed2c4309c4"},"vehicle_type_id":"4","last_reported":1685365757,"current_range_meters":24800,"station_id":"ce4bgj92rcd13ifvqbe0","pricing_plan_id":"free"},{"bike_id":"60a09ca2-0258-47ca-ac36-25c1327d0259","system_id":"levelo_inurba_marseille","lat":43.276179,"lon":5.361009,"is_reserved":false,"is_disabled":false,"rental_uris":{"android":"levelo://app?vid=60a09ca2-0258-47ca-ac36-25c1327d0259","ios":"levelo://app?vid=60a09ca2-0258-47ca-ac36-25c1327d0259"},"vehicle_type_id":"4","last_reported":1685365757,"current_range_meters":31200,"station_id":"ce4bgj92rcd13ifvqbe0","pricing_plan_id":"free"},{"bike_id":"ca6faf05-0f3b-4010-a2f1-8fb9acd54108","system_id":"levelo_inurba_marseille","lat":43.303837,"lon":5.418724,"is_reserved":false,"is_disabled":false,"rental_uris":{"android":"levelo://app?vid=ca6faf05-0f3b-4010-a2f1-8fb9acd54108","ios":"levelo://app?vid=ca6faf05-0f3b-4010-a2f1-8fb9acd54108"},"vehicle_type_id":"4","last_reported":1685365757,"current_range_meters":31200,"station_id":"ce4bhop2rcd13ifvqh7g","pricing_plan_id":"free"},{"bike_id":"85cfc301-dd03-4d26-9397-68f5e98cae37","system_id":"levelo_inurba_marseille","lat":43.27576,"lon":5.38419,"is_reserved":false,"is_disabled":false,"rental_uris":{"android":"levelo://app?vid=85cfc301-dd03-4d26-9397-68f5e98cae37","ios":"levelo://app?vid=85cfc301-dd03-4d26-9397-68f5e98cae37"},"vehicle_type_id":"4","last_reported":1685365757,"current_range_meters":27200,"station_id":"","pricing_plan_id":"free"},{"bike_id":"75f6d79e-90f8-46cf-a1cf-9e8f537b7726","system_id":"levelo_inurba_marseille","lat":43.27379,"lon":5.36252,"is_reserved":false,"is_disabled":false,"rental_uris":{"android":"levelo://app?vid=75f6d79e-90f8-46cf-a1cf-9e8f537b7726","ios":"levelo://app?vid=75f6d79e-90f8-46cf-a1cf-9e8f537b7726"},"vehicle_type_id":"4","last_reported":1685365757,"current_range_meters":21200,"station_id":"ce4bhbh2rcd13ifvqeo0","pricing_plan_id":"free"},{"bike_id":"6bac119f-7fdc-462a-b9aa-b2ea52a69389","system_id":"levelo_inurba_marseille","lat":43.27378,"lon":5.36255,"is_reserved":false,"is_disabled":false,"rental_uris":{"android":"levelo://app?vid=6bac119f-7fdc-462a-b9aa-b2ea52a69389","ios":"levelo://app?vid=6bac119f-7fdc-462a-b9aa-b2ea52a69389"},"vehicle_type_id":"4","last_reported":1685365757,"current_range_meters":22400,"station_id":"ce4bhbh2rcd13ifvqeo0","pricing_plan_id":"free"},{"bike_id":"1f9fbc39-f010-4190-a08d-1dcfa098a0a6","system_id":"levelo_inurba_marseille","lat":43.27376,"lon":5.36257,"is_reserved":false,"is_disabled":false,"rental_uris":{"android":"levelo://app?vid=1f9fbc39-f010-4190-a08d-1dcfa098a0a6","ios":"levelo://app?vid=1f9fbc39-f010-4190-a08d-1dcfa098a0a6"},"vehicle_type_id":"4","last_reported":1685365757,"current_range_meters":14800,"station_id":"ce4bhbh2rcd13ifvqeo0","pricing_plan_id":"free"},{"bike_id":"d25491cd-4a67-422d-a385-910d2bff5a5f","system_id":"levelo_inurba_marseille","lat":43.27376,"lon":5.36254,"is_reserved":false,"is_disabled":false,"rental_uris":{"android":"levelo://app?vid=d25491cd-4a67-422d-a385-910d2bff5a5f","ios":"levelo://app?vid=d25491cd-4a67-422d-a385-910d2bff5a5f"},"vehicle_type_id":"4","last_reported":1685365757,"current_range_meters":13200,"station_id":"ce4bhbh2rcd13ifvqeo0","pricing_plan_id":"free"},{"bike_id":"c9479f6c-dd6a-43b7-86d1-59fddd68cfd8","system_id":"levelo_inurba_marseille","lat":43.27376,"lon":5.36251,"is_reserved":false,"is_disabled":false,"rental_uris":{"android":"levelo://app?vid=c9479f6c-dd6a-43b7-86d1-59fddd68cfd8","ios":"levelo://app?vid=c9479f6c-dd6a-43b7-86d1-59fddd68cfd8"},"vehicle_type_id":"4","last_reported":1685365757,"current_range_meters":28000,"station_id":"ce4bhbh2rcd13ifvqeo0","pricing_plan_id":"free"},{"bike_id":"b17318f2-8ca9-44be-9033-bcc68967c998","system_id":"levelo_inurba_marseille","lat":43.27376,"lon":5.36246,"is_reserved":false,"is_disabled":false,"rental_uris":{"android":"levelo://app?vid=b17318f2-8ca9-44be-9033-bcc68967c998","ios":"levelo://app?vid=b17318f2-8ca9-44be-9033-bcc68967c998"},"vehicle_type_id":"4","last_reported":1685365757,"current_range_meters":25200,"station_id":"ce4bhbh2rcd13ifvqeo0","pricing_plan_id":"free"},{"bike_id":"90028714-f1a0-4dbd-8ede-050aa4b12b73","system_id":"levelo_inurba_marseille","lat":43.27375,"lon":5.36249,"is_reserved":false,"is_disabled":false,"rental_uris":{"android":"levelo://app?vid=90028714-f1a0-4dbd-8ede-050aa4b12b73","ios":"levelo://app?vid=90028714-f1a0-4dbd-8ede-050aa4b12b73"},"vehicle_type_id":"4","last_reported":1685365757,"current_range_meters":19200,"station_id":"ce4bhbh2rcd13ifvqeo0","pricing_plan_id":"free"},{"bike_id":"24001c60-21fc-47db-9007-08af1f6d3561","system_id":"levelo_inurba_marseille","lat":43.273609,"lon":5.362708,"is_reserved":false,"is_disabled":false,"rental_uris":{"android":"levelo://app?vid=24001c60-21fc-47db-9007-08af1f6d3561","ios":"levelo://app?vid=24001c60-21fc-47db-9007-08af1f6d3561"},"vehicle_type_id":"4","last_reported":1685365757,"current_range_meters":8800,"station_id":"ce4bhbh2rcd13ifvqeo0","pricing_plan_id":"free"},{"bike_id":"94023db1-6bb7-415c-8a3e-28a4f1a183de","system_id":"levelo_inurba_marseille","lat":43.27374,"lon":5.36257,"is_reserved":false,"is_disabled":false,"rental_uris":{"android":"levelo://app?vid=94023db1-6bb7-415c-8a3e-28a4f1a183de","ios":"levelo://app?vid=94023db1-6bb7-415c-8a3e-28a4f1a183de"},"vehicle_type_id":"4","last_reported":1685365757,"current_range_meters":19600,"station_id":"ce4bhbh2rcd13ifvqeo0","pricing_plan_id":"free"},{"bike_id":"6b5f54f9-c011-41b0-ac12-8651404aa7b5","system_id":"levelo_inurba_marseille","lat":43.27374,"lon":5.36254,"is_reserved":false,"is_disabled":false,"rental_uris":{"android":"levelo://app?vid=6b5f54f9-c011-41b0-ac12-8651404aa7b5","ios":"levelo://app?vid=6b5f54f9-c011-41b0-ac12-8651404aa7b5"},"vehicle_type_id":"4","last_reported":1685365757,"current_range_meters":17600,"station_id":"ce4bhbh2rcd13ifvqeo0","pricing_plan_id":"free"},{"bike_id":"391924ae-d2ff-4e26-a69e-cd4bc56deca3","system_id":"levelo_inurba_marseille","lat":43.273609,"lon":5.362708,"is_reserved":false,"is_disabled":false,"rental_uris":{"android":"levelo://app?vid=391924ae-d2ff-4e26-a69e-cd4bc56deca3","ios":"levelo://app?vid=391924ae-d2ff-4e26-a69e-cd4bc56deca3"},"vehicle_type_id":"4","last_reported":1685365757,"current_range_meters":28000,"station_id":"ce4bhbh2rcd13ifvqeo0","pricing_plan_id":"free"},{"bike_id":"78a3dbcd-8d00-43e0-a5fd-eebbea8c4401","system_id":"levelo_inurba_marseille","lat":43.273609,"lon":5.362708,"is_reserved":false,"is_disabled":false,"rental_uris":{"android":"levelo://app?vid=78a3dbcd-8d00-43e0-a5fd-eebbea8c4401","ios":"levelo://app?vid=78a3dbcd-8d00-43e0-a5fd-eebbea8c4401"},"vehicle_type_id":"4","last_reported":1685365757,"current_range_meters":18000,"station_id":"ce4bhbh2rcd13ifvqeo0","pricing_plan_id":"free"},{"bike_id":"a0240019-08c6-4a0f-950a-11be31fd56dd","system_id":"levelo_inurba_marseille","lat":43.273609,"lon":5.362708,"is_reserved":false,"is_disabled":false,"rental_uris":{"android":"levelo://app?vid=a0240019-08c6-4a0f-950a-11be31fd56dd","ios":"levelo://app?vid=a0240019-08c6-4a0f-950a-11be31fd56dd"},"vehicle_type_id":"4","last_reported":1685365757,"current_range_meters":28800,"station_id":"ce4bhbh2rcd13ifvqeo0","pricing_plan_id":"free"},{"bike_id":"0bc2c0c1-027d-4130-8d42-dbcebc8c11a8","system_id":"levelo_inurba_marseille","lat":43.273609,"lon":5.362708,"is_reserved":false,"is_disabled":false,"rental_uris":{"android":"levelo://app?vid=0bc2c0c1-027d-4130-8d42-dbcebc8c11a8","ios":"levelo://app?vid=0bc2c0c1-027d-4130-8d42-dbcebc8c11a8"},"vehicle_type_id":"4","last_reported":1685365757,"current_range_meters":29200,"station_id":"ce4bhbh2rcd13ifvqeo0","pricing_plan_id":"free"},{"bike_id":"ff645cf7-de40-47c8-814d-b4e7df3d0296","system_id":"levelo_inurba_marseille","lat":43.273609,"lon":5.362708,"is_reserved":false,"is_disabled":false,"rental_uris":{"android":"levelo://app?vid=ff645cf7-de40-47c8-814d-b4e7df3d0296","ios":"levelo://app?vid=ff645cf7-de40-47c8-814d-b4e7df3d0296"},"vehicle_type_id":"4","last_reported":1685365757,"current_range_meters":31200,"station_id":"ce4bhbh2rcd13ifvqeo0","pricing_plan_id":"free"},{"bike_id":"4673a829-c6bb-4711-ab07-f0f65880fdc6","system_id":"levelo_inurba_marseille","lat":43.27372,"lon":5.36254,"is_reserved":false,"is_disabled":false,"rental_uris":{"android":"levelo://app?vid=4673a829-c6bb-4711-ab07-f0f65880fdc6","ios":"levelo://app?vid=4673a829-c6bb-4711-ab07-f0f65880fdc6"},"vehicle_type_id":"4","last_reported":1685365757,"current_range_meters":2400,"station_id":"ce4bhbh2rcd13ifvqeo0","pricing_plan_id":"free"},{"bike_id":"cd50e38f-be01-4043-b35c-a9a528b15b22","system_id":"levelo_inurba_marseille","lat":43.27372,"lon":5.36251,"is_reserved":false,"is_disabled":false,"rental_uris":{"android":"levelo://app?vid=cd50e38f-be01-4043-b35c-a9a528b15b22","ios":"levelo://app?vid=cd50e38f-be01-4043-b35c-a9a528b15b22"},"vehicle_type_id":"4","last_reported":1685365757,"current_range_meters":20800,"station_id":"ce4bhbh2rcd13ifvqeo0","pricing_plan_id":"free"},{"bike_id":"4b518eea-3ade-417b-9f42-e5bc7ba9e638","system_id":"levelo_inurba_marseille","lat":43.273609,"lon":5.362708,"is_reserved":false,"is_disabled":false,"rental_uris":{"android":"levelo://app?vid=4b518eea-3ade-417b-9f42-e5bc7ba9e638","ios":"levelo://app?vid=4b518eea-3ade-417b-9f42-e5bc7ba9e638"},"vehicle_type_id":"4","last_reported":1685365757,"current_range_meters":31200,"station_id":"ce4bhbh2rcd13ifvqeo0","pricing_plan_id":"free"},{"bike_id":"dfd821b6-1cff-4c91-9436-b16e7721e3b1","system_id":"levelo_inurba_marseille","lat":43.273609,"lon":5.362708,"is_reserved":false,"is_disabled":false,"rental_uris":{"android":"levelo://app?vid=dfd821b6-1cff-4c91-9436-b16e7721e3b1","ios":"levelo://app?vid=dfd821b6-1cff-4c91-9436-b16e7721e3b1"},"vehicle_type_id":"4","last_reported":1685365757,"current_range_meters":13200,"station_id":"ce4bhbh2rcd13ifvqeo0","pricing_plan_id":"free"},{"bike_id":"957ed6cd-f078-4701-96fd-7f3fe454d542","system_id":"levelo_inurba_marseille","lat":43.273609,"lon":5.362708,"is_reserved":false,"is_disabled":false,"rental_uris":{"android":"levelo://app?vid=957ed6cd-f078-4701-96fd-7f3fe454d542","ios":"levelo://app?vid=957ed6cd-f078-4701-96fd-7f3fe454d542"},"vehicle_type_id":"4","last_reported":1685365757,"current_range_meters":1600,"station_id":"ce4bhbh2rcd13ifvqeo0","pricing_plan_id":"free"},{"bike_id":"91b49189-18df-431a-bbbf-f0b2350181de","system_id":"levelo_inurba_marseille","lat":43.28428,"lon":5.4079,"is_reserved":false,"is_disabled":false,"rental_uris":{"android":"levelo://app?vid=91b49189-18df-431a-bbbf-f0b2350181de","ios":"levelo://app?vid=91b49189-18df-431a-bbbf-f0b2350181de"},"vehicle_type_id":"4","last_reported":1685365757,"current_range_meters":3600,"station_id":"","pricing_plan_id":"free"},{"bike_id":"1f44f758-4f60-46d5-9cba-c2cdfa4441e4","system_id":"levelo_inurba_marseille","lat":43.317121,"lon":5.423936,"is_reserved":false,"is_disabled":false,"rental_uris":{"android":"levelo://app?vid=1f44f758-4f60-46d5-9cba-c2cdfa4441e4","ios":"levelo://app?vid=1f44f758-4f60-46d5-9cba-c2cdfa4441e4"},"vehicle_type_id":"4","last_reported":1685365757,"current_range_meters":25200,"station_id":"ce4bhp92rcd13ifvqhbg","pricing_plan_id":"free"},{"bike_id":"cc1cc54e-1a9a-49f4-a8bd-07697f28e60a","system_id":"levelo_inurba_marseille","lat":43.317121,"lon":5.423936,"is_reserved":false,"is_disabled":false,"rental_uris":{"android":"levelo://app?vid=cc1cc54e-1a9a-49f4-a8bd-07697f28e60a","ios":"levelo://app?vid=cc1cc54e-1a9a-49f4-a8bd-07697f28e60a"},"vehicle_type_id":"4","last_reported":1685365757,"current_range_meters":31200,"station_id":"ce4bhp92rcd13ifvqhbg","pricing_plan_id":"free"},{"bike_id":"b6fde87d-9380-4612-9856-6a4c15e474d5","system_id":"levelo_inurba_marseille","lat":43.310785,"lon":5.424305,"is_reserved":false,"is_disabled":false,"rental_uris":{"android":"levelo://app?vid=b6fde87d-9380-4612-9856-6a4c15e474d5","ios":"levelo://app?vid=b6fde87d-9380-4612-9856-6a4c15e474d5"},"vehicle_type_id":"4","last_reported":1685365757,"current_range_meters":31600,"station_id":"ce4bhp92rcd13ifvqhag","pricing_plan_id":"free"},{"bike_id":"6b586849-4cb2-4f0c-a6d8-7549b3a03b77","system_id":"levelo_inurba_marseille","lat":43.310785,"lon":5.424305,"is_reserved":false,"is_disabled":false,"rental_uris":{"android":"levelo://app?vid=6b586849-4cb2-4f0c-a6d8-7549b3a03b77","ios":"levelo://app?vid=6b586849-4cb2-4f0c-a6d8-7549b3a03b77"},"vehicle_type_id":"4","last_reported":1685365757,"current_range_meters":26800,"station_id":"ce4bhp92rcd13ifvqhag","pricing_plan_id":"free"},{"bike_id":"a836af40-09af-4eb0-8db9-1fc5b0f18843","system_id":"levelo_inurba_marseille","lat":43.2733,"lon":5.39087,"is_reserved":false,"is_disabled":false,"rental_uris":{"android":"levelo://app?vid=a836af40-09af-4eb0-8db9-1fc5b0f18843","ios":"levelo://app?vid=a836af40-09af-4eb0-8db9-1fc5b0f18843"},"vehicle_type_id":"4","last_reported":1685365757,"current_range_meters":0,"station_id":"ce4bhgp2rcd13ifvqfe0","pricing_plan_id":"free"},{"bike_id":"02a7be02-2315-45df-9e1d-6372c4d5f782","system_id":"levelo_inurba_marseille","lat":43.273125,"lon":5.390731,"is_reserved":false,"is_disabled":false,"rental_uris":{"android":"levelo://app?vid=02a7be02-2315-45df-9e1d-6372c4d5f782","ios":"levelo://app?vid=02a7be02-2315-45df-9e1d-6372c4d5f782"},"vehicle_type_id":"4","last_reported":1685365757,"current_range_meters":18000,"station_id":"ce4bhgp2rcd13ifvqfe0","pricing_plan_id":"free"},{"bike_id":"b4fe48df-d72e-4f74-bb11-4f823baee7fb","system_id":"levelo_inurba_marseille","lat":43.273129,"lon":5.390725,"is_reserved":false,"is_disabled":false,"rental_uris":{"android":"levelo://app?vid=b4fe48df-d72e-4f74-bb11-4f823baee7fb","ios":"levelo://app?vid=b4fe48df-d72e-4f74-bb11-4f823baee7fb"},"vehicle_type_id":"4","last_reported":1685365757,"current_range_meters":19200,"station_id":"ce4bhgp2rcd13ifvqfe0","pricing_plan_id":"free"},{"bike_id":"006b1477-59d9-4abf-bf30-fe468e8a0337","system_id":"levelo_inurba_marseille","lat":43.30456,"lon":5.42544,"is_reserved":false,"is_disabled":false,"rental_uris":{"android":"levelo://app?vid=006b1477-59d9-4abf-bf30-fe468e8a0337","ios":"levelo://app?vid=006b1477-59d9-4abf-bf30-fe468e8a0337"},"vehicle_type_id":"4","last_reported":1685365757,"current_range_meters":26800,"station_id":"","pricing_plan_id":"free"},{"bike_id":"483691a5-a9d6-4a8a-ad31-6abbcc23015c","system_id":"levelo_inurba_marseille","lat":43.273129,"lon":5.390725,"is_reserved":false,"is_disabled":false,"rental_uris":{"android":"levelo://app?vid=483691a5-a9d6-4a8a-ad31-6abbcc23015c","ios":"levelo://app?vid=483691a5-a9d6-4a8a-ad31-6abbcc23015c"},"vehicle_type_id":"4","last_reported":1685365757,"current_range_meters":18800,"station_id":"ce4bhgp2rcd13ifvqfe0","pricing_plan_id":"free"},{"bike_id":"4ccce2f7-ce49-4f2d-854c-e845debf3029","system_id":"levelo_inurba_marseille","lat":43.30419,"lon":5.42538,"is_reserved":false,"is_disabled":false,"rental_uris":{"android":"levelo://app?vid=4ccce2f7-ce49-4f2d-854c-e845debf3029","ios":"levelo://app?vid=4ccce2f7-ce49-4f2d-854c-e845debf3029"},"vehicle_type_id":"4","last_reported":1685365757,"current_range_meters":16400,"station_id":"ce4bhoh2rcd13ifvqh6g","pricing_plan_id":"free"},{"bike_id":"6390dd97-3f50-4160-bb3e-8286a27a0e7b","system_id":"levelo_inurba_marseille","lat":43.30392,"lon":5.42594,"is_reserved":false,"is_disabled":false,"rental_uris":{"android":"levelo://app?vid=6390dd97-3f50-4160-bb3e-8286a27a0e7b","ios":"levelo://app?vid=6390dd97-3f50-4160-bb3e-8286a27a0e7b"},"vehicle_type_id":"4","last_reported":1685365757,"current_range_meters":25200,"station_id":"","pricing_plan_id":"free"},{"bike_id":"c6c2532e-9028-4b01-ae4d-2b67669a1028","system_id":"levelo_inurba_marseille","lat":43.231919,"lon":5.355532,"is_reserved":false,"is_disabled":false,"rental_uris":{"android":"levelo://app?vid=c6c2532e-9028-4b01-ae4d-2b67669a1028","ios":"levelo://app?vid=c6c2532e-9028-4b01-ae4d-2b67669a1028"},"vehicle_type_id":"4","last_reported":1685365757,"current_range_meters":18400,"station_id":"ce4bhu92rcd13ifvqi70","pricing_plan_id":"free"},{"bike_id":"03330d11-492d-443f-a226-02c81e516f72","system_id":"levelo_inurba_marseille","lat":43.295523,"lon":5.422926,"is_reserved":false,"is_disabled":false,"rental_uris":{"android":"levelo://app?vid=03330d11-492d-443f-a226-02c81e516f72","ios":"levelo://app?vid=03330d11-492d-443f-a226-02c81e516f72"},"vehicle_type_id":"4","last_reported":1685365757,"current_range_meters":13200,"station_id":"ce4bhph2rcd13ifvqhdg","pricing_plan_id":"free"},{"bike_id":"3e871484-7aba-4242-a7d9-043cd5ebb41b","system_id":"levelo_inurba_marseille","lat":43.26703,"lon":5.38296,"is_reserved":false,"is_disabled":false,"rental_uris":{"android":"levelo://app?vid=3e871484-7aba-4242-a7d9-043cd5ebb41b","ios":"levelo://app?vid=3e871484-7aba-4242-a7d9-043cd5ebb41b"},"vehicle_type_id":"4","last_reported":1685365757,"current_range_meters":19200,"station_id":"","pricing_plan_id":"free"},{"bike_id":"be43125f-3f29-4d6f-ada1-c2763dce5d88","system_id":"levelo_inurba_marseille","lat":43.265714,"lon":5.372891,"is_reserved":false,"is_disabled":false,"rental_uris":{"android":"levelo://app?vid=be43125f-3f29-4d6f-ada1-c2763dce5d88","ios":"levelo://app?vid=be43125f-3f29-4d6f-ada1-c2763dce5d88"},"vehicle_type_id":"4","last_reported":1685365757,"current_range_meters":23600,"station_id":"ce4bhg12rcd13ifvqf70","pricing_plan_id":"free"},{"bike_id":"0f017e38-1240-478f-92c4-d9bcc9b156cc","system_id":"levelo_inurba_marseille","lat":43.265714,"lon":5.372891,"is_reserved":false,"is_disabled":false,"rental_uris":{"android":"levelo://app?vid=0f017e38-1240-478f-92c4-d9bcc9b156cc","ios":"levelo://app?vid=0f017e38-1240-478f-92c4-d9bcc9b156cc"},"vehicle_type_id":"4","last_reported":1685365757,"current_range_meters":18000,"station_id":"ce4bhg12rcd13ifvqf70","pricing_plan_id":"free"},{"bike_id":"1ec20cc1-7363-4af0-a4b4-2ec760666506","system_id":"levelo_inurba_marseille","lat":43.265714,"lon":5.372891,"is_reserved":false,"is_disabled":false,"rental_uris":{"android":"levelo://app?vid=1ec20cc1-7363-4af0-a4b4-2ec760666506","ios":"levelo://app?vid=1ec20cc1-7363-4af0-a4b4-2ec760666506"},"vehicle_type_id":"4","last_reported":1685365757,"current_range_meters":29600,"station_id":"ce4bhg12rcd13ifvqf70","pricing_plan_id":"free"},{"bike_id":"abd4d2c0-af42-4958-befb-b3bef5860100","system_id":"levelo_inurba_marseille","lat":43.2656,"lon":5.37281,"is_reserved":false,"is_disabled":false,"rental_uris":{"android":"levelo://app?vid=abd4d2c0-af42-4958-befb-b3bef5860100","ios":"levelo://app?vid=abd4d2c0-af42-4958-befb-b3bef5860100"},"vehicle_type_id":"4","last_reported":1685365757,"current_range_meters":24000,"station_id":"ce4bhg12rcd13ifvqf70","pricing_plan_id":"free"},{"bike_id":"bccd5c63-f3b6-421d-8fe2-ff894bb32f08","system_id":"levelo_inurba_marseille","lat":43.26558,"lon":5.37283,"is_reserved":false,"is_disabled":false,"rental_uris":{"android":"levelo://app?vid=bccd5c63-f3b6-421d-8fe2-ff894bb32f08","ios":"levelo://app?vid=bccd5c63-f3b6-421d-8fe2-ff894bb32f08"},"vehicle_type_id":"4","last_reported":1685365757,"current_range_meters":29600,"station_id":"ce4bhg12rcd13ifvqf70","pricing_plan_id":"free"},{"bike_id":"426cc59b-3558-4da0-813c-099799295961","system_id":"levelo_inurba_marseille","lat":43.265714,"lon":5.372891,"is_reserved":false,"is_disabled":false,"rental_uris":{"android":"levelo://app?vid=426cc59b-3558-4da0-813c-099799295961","ios":"levelo://app?vid=426cc59b-3558-4da0-813c-099799295961"},"vehicle_type_id":"4","last_reported":1685365757,"current_range_meters":24800,"station_id":"ce4bhg12rcd13ifvqf70","pricing_plan_id":"free"},{"bike_id":"28073e52-8ac4-4b0d-83e6-dfcd5ef1bc4d","system_id":"levelo_inurba_marseille","lat":43.265714,"lon":5.372891,"is_reserved":false,"is_disabled":false,"rental_uris":{"android":"levelo://app?vid=28073e52-8ac4-4b0d-83e6-dfcd5ef1bc4d","ios":"levelo://app?vid=28073e52-8ac4-4b0d-83e6-dfcd5ef1bc4d"},"vehicle_type_id":"4","last_reported":1685365757,"current_range_meters":28800,"station_id":"ce4bhg12rcd13ifvqf70","pricing_plan_id":"free"},{"bike_id":"d2a3fbd8-b2b0-4cab-a7fb-cdad8d8dcecd","system_id":"levelo_inurba_marseille","lat":43.26557,"lon":5.3729,"is_reserved":false,"is_disabled":false,"rental_uris":{"android":"levelo://app?vid=d2a3fbd8-b2b0-4cab-a7fb-cdad8d8dcecd","ios":"levelo://app?vid=d2a3fbd8-b2b0-4cab-a7fb-cdad8d8dcecd"},"vehicle_type_id":"4","last_reported":1685365757,"current_range_meters":25200,"station_id":"ce4bhg12rcd13ifvqf70","pricing_plan_id":"free"},{"bike_id":"840cca60-def5-410c-9d22-fa36de0b039f","system_id":"levelo_inurba_marseille","lat":43.26556,"lon":5.37283,"is_reserved":false,"is_disabled":false,"rental_uris":{"android":"levelo://app?vid=840cca60-def5-410c-9d22-fa36de0b039f","ios":"levelo://app?vid=840cca60-def5-410c-9d22-fa36de0b039f"},"vehicle_type_id":"4","last_reported":1685365757,"current_range_meters":31200,"station_id":"ce4bhg12rcd13ifvqf70","pricing_plan_id":"free"},{"bike_id":"9e8d5639-c72d-4001-b6c6-b41f74a1feb8","system_id":"levelo_inurba_marseille","lat":43.26555,"lon":5.37282,"is_reserved":false,"is_disabled":false,"rental_uris":{"android":"levelo://app?vid=9e8d5639-c72d-4001-b6c6-b41f74a1feb8","ios":"levelo://app?vid=9e8d5639-c72d-4001-b6c6-b41f74a1feb8"},"vehicle_type_id":"4","last_reported":1685365757,"current_range_meters":24800,"station_id":"ce4bhg12rcd13ifvqf70","pricing_plan_id":"free"},{"bike_id":"cf9f1a90-a3bc-40bc-81dd-12452a4a29ea","system_id":"levelo_inurba_marseille","lat":43.26554,"lon":5.37281,"is_reserved":false,"is_disabled":false,"rental_uris":{"android":"levelo://app?vid=cf9f1a90-a3bc-40bc-81dd-12452a4a29ea","ios":"levelo://app?vid=cf9f1a90-a3bc-40bc-81dd-12452a4a29ea"},"vehicle_type_id":"4","last_reported":1685365757,"current_range_meters":30000,"station_id":"ce4bhg12rcd13ifvqf70","pricing_plan_id":"free"},{"bike_id":"3812abe1-f8c6-4e5a-af26-c190ebe0f72d","system_id":"levelo_inurba_marseille","lat":43.26554,"lon":5.37287,"is_reserved":false,"is_disabled":false,"rental_uris":{"android":"levelo://app?vid=3812abe1-f8c6-4e5a-af26-c190ebe0f72d","ios":"levelo://app?vid=3812abe1-f8c6-4e5a-af26-c190ebe0f72d"},"vehicle_type_id":"4","last_reported":1685365757,"current_range_meters":400,"station_id":"ce4bhg12rcd13ifvqf70","pricing_plan_id":"free"},{"bike_id":"d9d9b657-7cdd-4600-acb5-7fc6140ff404","system_id":"levelo_inurba_marseille","lat":43.26548,"lon":5.372857,"is_reserved":false,"is_disabled":false,"rental_uris":{"android":"levelo://app?vid=d9d9b657-7cdd-4600-acb5-7fc6140ff404","ios":"levelo://app?vid=d9d9b657-7cdd-4600-acb5-7fc6140ff404"},"vehicle_type_id":"4","last_reported":1685365757,"current_range_meters":2800,"station_id":"ce4bh492rcd13ifvqdvg","pricing_plan_id":"free"},{"bike_id":"839cc5b5-431e-4a3e-96bb-e90e31ca9dfd","system_id":"levelo_inurba_marseille","lat":43.26563,"lon":5.38093,"is_reserved":false,"is_disabled":false,"rental_uris":{"android":"levelo://app?vid=839cc5b5-431e-4a3e-96bb-e90e31ca9dfd","ios":"levelo://app?vid=839cc5b5-431e-4a3e-96bb-e90e31ca9dfd"},"vehicle_type_id":"4","last_reported":1685365757,"current_range_meters":31200,"station_id":"","pricing_plan_id":"free"},{"bike_id":"5a5ce047-ca23-436f-81e8-29b7ce99e453","system_id":"levelo_inurba_marseille","lat":43.26558,"lon":5.38081,"is_reserved":false,"is_disabled":false,"rental_uris":{"android":"levelo://app?vid=5a5ce047-ca23-436f-81e8-29b7ce99e453","ios":"levelo://app?vid=5a5ce047-ca23-436f-81e8-29b7ce99e453"},"vehicle_type_id":"4","last_reported":1685365757,"current_range_meters":28400,"station_id":"","pricing_plan_id":"free"},{"bike_id":"89dad29d-9d23-42ff-8f4a-2b694f90dbe8","system_id":"levelo_inurba_marseille","lat":43.26547,"lon":5.38063,"is_reserved":false,"is_disabled":false,"rental_uris":{"android":"levelo://app?vid=89dad29d-9d23-42ff-8f4a-2b694f90dbe8","ios":"levelo://app?vid=89dad29d-9d23-42ff-8f4a-2b694f90dbe8"},"vehicle_type_id":"4","last_reported":1685365757,"current_range_meters":31200,"station_id":"","pricing_plan_id":"free"},{"bike_id":"1bc1445b-532f-4275-8ed4-ae5a30613b98","system_id":"levelo_inurba_marseille","lat":43.26534,"lon":5.38046,"is_reserved":false,"is_disabled":false,"rental_uris":{"android":"levelo://app?vid=1bc1445b-532f-4275-8ed4-ae5a30613b98","ios":"levelo://app?vid=1bc1445b-532f-4275-8ed4-ae5a30613b98"},"vehicle_type_id":"4","last_reported":1685365757,"current_range_meters":23600,"station_id":"","pricing_plan_id":"free"},{"bike_id":"97f92444-dc7f-4ac8-885e-43ac50454dc0","system_id":"levelo_inurba_marseille","lat":43.31679,"lon":5.4333,"is_reserved":false,"is_disabled":false,"rental_uris":{"android":"levelo://app?vid=97f92444-dc7f-4ac8-885e-43ac50454dc0","ios":"levelo://app?vid=97f92444-dc7f-4ac8-885e-43ac50454dc0"},"vehicle_type_id":"4","last_reported":1685365757,"current_range_meters":0,"station_id":"","pricing_plan_id":"free"},{"bike_id":"d04409f4-1b7e-4bd7-b364-b5a32bd9fa3b","system_id":"levelo_inurba_marseille","lat":43.26515,"lon":5.38018,"is_reserved":false,"is_disabled":false,"rental_uris":{"android":"levelo://app?vid=d04409f4-1b7e-4bd7-b364-b5a32bd9fa3b","ios":"levelo://app?vid=d04409f4-1b7e-4bd7-b364-b5a32bd9fa3b"},"vehicle_type_id":"4","last_reported":1685365757,"current_range_meters":30000,"station_id":"","pricing_plan_id":"free"},{"bike_id":"30211e9f-243d-4d61-8965-7b9f27f18fc6","system_id":"levelo_inurba_marseille","lat":43.26408,"lon":5.37115,"is_reserved":false,"is_disabled":false,"rental_uris":{"android":"levelo://app?vid=30211e9f-243d-4d61-8965-7b9f27f18fc6","ios":"levelo://app?vid=30211e9f-243d-4d61-8965-7b9f27f18fc6"},"vehicle_type_id":"4","last_reported":1685365757,"current_range_meters":16000,"station_id":"","pricing_plan_id":"free"},{"bike_id":"497d2c06-cdbb-4f5f-a74e-e9c31416d36b","system_id":"levelo_inurba_marseille","lat":43.267966,"lon":5.393976,"is_reserved":false,"is_disabled":false,"rental_uris":{"android":"levelo://app?vid=497d2c06-cdbb-4f5f-a74e-e9c31416d36b","ios":"levelo://app?vid=497d2c06-cdbb-4f5f-a74e-e9c31416d36b"},"vehicle_type_id":"4","last_reported":1685365757,"current_range_meters":27200,"station_id":"ce4bhh12rcd13ifvqfg0","pricing_plan_id":"free"},{"bike_id":"c5df317e-1c1f-425f-bdaa-7e05f4cfd02e","system_id":"levelo_inurba_marseille","lat":43.265569,"lon":5.390047,"is_reserved":false,"is_disabled":false,"rental_uris":{"android":"levelo://app?vid=c5df317e-1c1f-425f-bdaa-7e05f4cfd02e","ios":"levelo://app?vid=c5df317e-1c1f-425f-bdaa-7e05f4cfd02e"},"vehicle_type_id":"4","last_reported":1685365757,"current_range_meters":0,"station_id":"ce4bhe12rcd13ifvqf30","pricing_plan_id":"free"},{"bike_id":"60c18c84-3649-4205-947b-702d8f650b02","system_id":"levelo_inurba_marseille","lat":43.308,"lon":5.43516,"is_reserved":false,"is_disabled":false,"rental_uris":{"android":"levelo://app?vid=60c18c84-3649-4205-947b-702d8f650b02","ios":"levelo://app?vid=60c18c84-3649-4205-947b-702d8f650b02"},"vehicle_type_id":"4","last_reported":1685365757,"current_range_meters":23600,"station_id":"","pricing_plan_id":"free"},{"bike_id":"020e9bac-1d44-4b98-b809-6bfdeb9de9d1","system_id":"levelo_inurba_marseille","lat":43.30808,"lon":5.43521,"is_reserved":false,"is_disabled":false,"rental_uris":{"android":"levelo://app?vid=020e9bac-1d44-4b98-b809-6bfdeb9de9d1","ios":"levelo://app?vid=020e9bac-1d44-4b98-b809-6bfdeb9de9d1"},"vehicle_type_id":"4","last_reported":1685365757,"current_range_meters":1600,"station_id":"","pricing_plan_id":"free"},{"bike_id":"d1851c0a-6e9b-458b-921f-ce85e914c0c7","system_id":"levelo_inurba_marseille","lat":43.30794,"lon":5.43526,"is_reserved":false,"is_disabled":false,"rental_uris":{"android":"levelo://app?vid=d1851c0a-6e9b-458b-921f-ce85e914c0c7","ios":"levelo://app?vid=d1851c0a-6e9b-458b-921f-ce85e914c0c7"},"vehicle_type_id":"4","last_reported":1685365757,"current_range_meters":12400,"station_id":"","pricing_plan_id":"free"},{"bike_id":"d555aa12-d4d6-46aa-be1b-05627e375736","system_id":"levelo_inurba_marseille","lat":43.265569,"lon":5.390047,"is_reserved":false,"is_disabled":false,"rental_uris":{"android":"levelo://app?vid=d555aa12-d4d6-46aa-be1b-05627e375736","ios":"levelo://app?vid=d555aa12-d4d6-46aa-be1b-05627e375736"},"vehicle_type_id":"4","last_reported":1685365757,"current_range_meters":9600,"station_id":"ce4bhe12rcd13ifvqf30","pricing_plan_id":"free"},{"bike_id":"4172abc1-9867-4070-8f3d-48360ee8657b","system_id":"levelo_inurba_marseille","lat":43.261782,"lon":5.374515,"is_reserved":false,"is_disabled":false,"rental_uris":{"android":"levelo://app?vid=4172abc1-9867-4070-8f3d-48360ee8657b","ios":"levelo://app?vid=4172abc1-9867-4070-8f3d-48360ee8657b"},"vehicle_type_id":"4","last_reported":1685365757,"current_range_meters":30400,"station_id":"ce4bhgp2rcd13ifvqfc0","pricing_plan_id":"free"},{"bike_id":"2fcc0c23-ac53-41eb-a2d4-d3336177ee7b","system_id":"levelo_inurba_marseille","lat":43.32315,"lon":5.43568,"is_reserved":false,"is_disabled":false,"rental_uris":{"android":"levelo://app?vid=2fcc0c23-ac53-41eb-a2d4-d3336177ee7b","ios":"levelo://app?vid=2fcc0c23-ac53-41eb-a2d4-d3336177ee7b"},"vehicle_type_id":"4","last_reported":1685365757,"current_range_meters":12000,"station_id":"","pricing_plan_id":"free"},{"bike_id":"6133ca60-8976-4a42-8139-38ffec974566","system_id":"levelo_inurba_marseille","lat":43.261782,"lon":5.374515,"is_reserved":false,"is_disabled":false,"rental_uris":{"android":"levelo://app?vid=6133ca60-8976-4a42-8139-38ffec974566","ios":"levelo://app?vid=6133ca60-8976-4a42-8139-38ffec974566"},"vehicle_type_id":"4","last_reported":1685365757,"current_range_meters":31600,"station_id":"ce4bhgp2rcd13ifvqfc0","pricing_plan_id":"free"},{"bike_id":"e1ef04f7-01c4-4aee-b41b-73827b44e070","system_id":"levelo_inurba_marseille","lat":43.261782,"lon":5.374515,"is_reserved":false,"is_disabled":false,"rental_uris":{"android":"levelo://app?vid=e1ef04f7-01c4-4aee-b41b-73827b44e070","ios":"levelo://app?vid=e1ef04f7-01c4-4aee-b41b-73827b44e070"},"vehicle_type_id":"4","last_reported":1685365757,"current_range_meters":31200,"station_id":"ce4bhgp2rcd13ifvqfc0","pricing_plan_id":"free"},{"bike_id":"3164386b-dc2a-46ce-8c18-f37c7c33b9e5","system_id":"levelo_inurba_marseille","lat":43.261782,"lon":5.374515,"is_reserved":false,"is_disabled":false,"rental_uris":{"android":"levelo://app?vid=3164386b-dc2a-46ce-8c18-f37c7c33b9e5","ios":"levelo://app?vid=3164386b-dc2a-46ce-8c18-f37c7c33b9e5"},"vehicle_type_id":"4","last_reported":1685365757,"current_range_meters":25200,"station_id":"ce4bhgp2rcd13ifvqfc0","pricing_plan_id":"free"},{"bike_id":"7461cd84-6c24-4ea6-8870-dd91d2e7cc54","system_id":"levelo_inurba_marseille","lat":43.260225,"lon":5.375455,"is_reserved":false,"is_disabled":false,"rental_uris":{"android":"levelo://app?vid=7461cd84-6c24-4ea6-8870-dd91d2e7cc54","ios":"levelo://app?vid=7461cd84-6c24-4ea6-8870-dd91d2e7cc54"},"vehicle_type_id":"4","last_reported":1685365757,"current_range_meters":24800,"station_id":"ce4bhgh2rcd13ifvqfa0","pricing_plan_id":"free"},{"bike_id":"3147169e-4532-4d81-8141-d07c8c08deb3","system_id":"levelo_inurba_marseille","lat":43.261782,"lon":5.374515,"is_reserved":false,"is_disabled":false,"rental_uris":{"android":"levelo://app?vid=3147169e-4532-4d81-8141-d07c8c08deb3","ios":"levelo://app?vid=3147169e-4532-4d81-8141-d07c8c08deb3"},"vehicle_type_id":"4","last_reported":1685365757,"current_range_meters":1600,"station_id":"ce4bhgp2rcd13ifvqfc0","pricing_plan_id":"free"},{"bike_id":"9a3cdbb6-95b2-4346-ab22-31e7dd05a38c","system_id":"levelo_inurba_marseille","lat":43.261782,"lon":5.374515,"is_reserved":false,"is_disabled":false,"rental_uris":{"android":"levelo://app?vid=9a3cdbb6-95b2-4346-ab22-31e7dd05a38c","ios":"levelo://app?vid=9a3cdbb6-95b2-4346-ab22-31e7dd05a38c"},"vehicle_type_id":"4","last_reported":1685365757,"current_range_meters":12800,"station_id":"ce4bhgp2rcd13ifvqfc0","pricing_plan_id":"free"},{"bike_id":"16c4259d-df82-401a-ba34-9d0b2a20d4f7","system_id":"levelo_inurba_marseille","lat":43.261782,"lon":5.374515,"is_reserved":false,"is_disabled":false,"rental_uris":{"android":"levelo://app?vid=16c4259d-df82-401a-ba34-9d0b2a20d4f7","ios":"levelo://app?vid=16c4259d-df82-401a-ba34-9d0b2a20d4f7"},"vehicle_type_id":"4","last_reported":1685365757,"current_range_meters":29600,"station_id":"ce4bhgp2rcd13ifvqfc0","pricing_plan_id":"free"},{"bike_id":"f8cea569-d7c4-441f-9c80-4201dee7a33f","system_id":"levelo_inurba_marseille","lat":43.261782,"lon":5.374515,"is_reserved":false,"is_disabled":false,"rental_uris":{"android":"levelo://app?vid=f8cea569-d7c4-441f-9c80-4201dee7a33f","ios":"levelo://app?vid=f8cea569-d7c4-441f-9c80-4201dee7a33f"},"vehicle_type_id":"4","last_reported":1685365757,"current_range_meters":400,"station_id":"ce4bhgp2rcd13ifvqfc0","pricing_plan_id":"free"},{"bike_id":"d05b727c-965b-4a6f-81b7-3099b05d3930","system_id":"levelo_inurba_marseille","lat":43.261782,"lon":5.374515,"is_reserved":false,"is_disabled":false,"rental_uris":{"android":"levelo://app?vid=d05b727c-965b-4a6f-81b7-3099b05d3930","ios":"levelo://app?vid=d05b727c-965b-4a6f-81b7-3099b05d3930"},"vehicle_type_id":"4","last_reported":1685365757,"current_range_meters":10800,"station_id":"ce4bhgp2rcd13ifvqfc0","pricing_plan_id":"free"},{"bike_id":"c37f6ebd-e1c2-46f5-97a0-9df4f24b7020","system_id":"levelo_inurba_marseille","lat":43.261782,"lon":5.374515,"is_reserved":false,"is_disabled":false,"rental_uris":{"android":"levelo://app?vid=c37f6ebd-e1c2-46f5-97a0-9df4f24b7020","ios":"levelo://app?vid=c37f6ebd-e1c2-46f5-97a0-9df4f24b7020"},"vehicle_type_id":"4","last_reported":1685365757,"current_range_meters":30400,"station_id":"ce4bhgp2rcd13ifvqfc0","pricing_plan_id":"free"},