{"last_updated":1745104153,"ttl":60,"version":"2.2","data":{"bikes":[{"bike_id":"8ff3876f-4e58-4cb7-b3a3-e264a04fd0b6","system_id":"levelo_inurba_marseille","lat":43.26694,"lon":5.38262,"is_reserved":false,"is_disabled":true,"rental_uris":{"android":"levelo://app?vid=8ff3876f-4e58-4cb7-b3a3-e264a04fd0b6","ios":"levelo://app?vid=8ff3876f-4e58-4cb7-b3a3-e264a04fd0b6"},"vehicle_type_id":"4","last_reported":1745104153,"current_range_meters":2800,"station_id":"ce4bhg92rcd13ifvqf90","pricing_plan_id":"cebpf4jnsgd1na2vs0mg"},{"bike_id":"73b37120-de46-42ad-a42b-0342ebf6def3","system_id":"levelo_inurba_marseille","lat":43.26697,"lon":5.38257,"is_reserved":false,"is_disabled":true,"rental_uris":{"android":"levelo://app?vid=73b37120-de46-42ad-a42b-0342ebf6def3","ios":"levelo://app?vid=73b37120-de46-42ad-a42b-0342ebf6def3"},"vehicle_type_id":"4","last_reported":1745104153,"current_range_meters":2800,"station_id":"ce4bhg92rcd13ifvqf90","pricing_plan_id":"cebpf4jnsgd1na2vs0mg"},{"bike_id":"25ecca6c-6c28-492e-adf2-fb31b4629ad6","system_id":"levelo_inurba_marseille","lat":43.269426,"lon":5.402396,"is_reserved":false,"is_disabled":true,"rental_uris":{"android":"levelo://app?vid=25ecca6c-6c28-492e-adf2-fb31b4629ad6","ios":"levelo://app?vid=25ecca6c-6c28-492e-adf2-fb31b4629ad6"},"vehicle_type_id":"4","last_reported":1745104153,"current_range_meters":2800,"station_id":"cjm6bp8fraef2m0cb0m0","pricing_plan_id":"cebpf4jnsgd1na2vs0mg"},{"bike_id":"69e96352-4fd6-4884-823d-308c139109fa","system_id":"levelo_inurba_marseille","lat":43.290279,"lon":5.381338,"is_reserved":false,"is_disabled":false,"rental_uris":{"android":"levelo://app?vid=69e96352-4fd6-4884-823d-308c139109fa","ios":"levelo://app?vid=69e96352-4fd6-4884-823d-308c139109fa"},"vehicle_type_id":"4","last_reported":1745104153,"current_range_meters":3200,"station_id":"ce4bh4p2rcd13ifvqe1g","pricing_plan_id":"cebpf4jnsgd1na2vs0mg"},{"bike_id":"6987c513-b50c-45b1-80e3-356055d982d5","system_id":"levelo_inurba_marseille","lat":43.299708,"lon":5.377383,"is_reserved":false,"is_disabled":true,"rental_uris":{"android":"levelo://app?vid=6987c513-b50c-45b1-80e3-356055d982d5","ios":"levelo://app?vid=6987c513-b50c-45b1-80e3-356055d982d5"},"vehicle_type_id":"4","last_reported":1745104153,"current_range_meters":3600,"station_id":"","pricing_plan_id":"cebpf4jnsgd1na2vs0mg"},{"bike_id":"07f8b352-e459-4f90-9b06-810445664253","system_id":"levelo_inurba_marseille","lat":43.23156,"lon":5.43707,"is_reserved":false,"is_disabled":false,"rental_uris":{"android":"levelo://app?vid=07f8b352-e459-4f90-9b06-810445664253","ios":"levelo://app?vid=07f8b352-e459-4f90-9b06-810445664253"},"vehicle_type_id":"4","last_reported":1745104153,"current_range_meters":3600,"station_id":"ce4bhmp2rcd13ifvqgog","pricing_plan_id":"cebpf4jnsgd1na2vs0mg"},{"bike_id":"02171006-18dd-4d32-bf2e-9c96d96dcdd8","system_id":"levelo_inurba_marseille","lat":43.31373,"lon":5.38498,"is_reserved":false,"is_disabled":false,"rental_uris":{"android":"levelo://app?vid=02171006-18dd-4d32-bf2e-9c96d96dcdd8","ios":"levelo://app?vid=02171006-18dd-4d32-bf2e-9c96d96dcdd8"},"vehicle_type_id":"4","last_reported":1745104153,"current_range_meters":3600,"station_id":"ce4bgt92rcd13ifvqcf0","pricing_plan_id":"cebpf4jnsgd1na2vs0mg"},{"bike_id":"ee2c42d9-062e-486d-94e5-a8bebc2f1c3b","system_id":"levelo_inurba_marseille","lat":43.251943,"lon":5.375819,"is_reserved":false,"is_disabled":true,"rental_uris":{"android":"levelo://app?vid=ee2c42d9-062e-486d-94e5-a8bebc2f1c3b","ios":"levelo://app?vid=ee2c42d9-062e-486d-94e5-a8bebc2f1c3b"},"vehicle_type_id":"4","last_reported":1745104153,"current_range_meters":3600,"station_id":"","pricing_plan_id":"cebpf4jnsgd1na2vs0mg"},{"bike_id":"0b4b6463-6d1e-4ad2-a261-866e414facb0","system_id":"levelo_inurba_marseille","lat":43.31796,"lon":5.37637,"is_reserved":false,"is_disabled":false,"rental_uris":{"android":"levelo://app?vid=0b4b6463-6d1e-4ad2-a261-866e414facb0","ios":"levelo://app?vid=0b4b6463-6d1e-4ad2-a261-866e414facb0"},"vehicle_type_id":"4","last_reported":1745104153,"current_range_meters":3600,"station_id":"","pricing_plan_id":"cebpf4jnsgd1na2vs0mg"},{"bike_id":"38a1cfb2-503d-46af-988b-2a23d20d6d2a","system_id":"levelo_inurba_marseille","lat":43.28425,"lon":5.37502,"is_reserved":false,"is_disabled":false,"rental_uris":{"android":"levelo://app?vid=38a1cfb2-503d-46af-988b-2a23d20d6d2a","ios":"levelo://app?vid=38a1cfb2-503d-46af-988b-2a23d20d6d2a"},"vehicle_type_id":"4","last_reported":1745104153,"current_range_meters":3600,"station_id":"ce4bh412rcd13ifvqds0","pricing_plan_id":"cebpf4jnsgd1na2vs0mg"},{"bike_id":"eef01461-00a8-4fe0-942b-7d3e2d42628c","system_id":"levelo_inurba_marseille","lat":43.28615,"lon":5.35101,"is_reserved":false,"is_disabled":false,"rental_uris":{"android":"levelo://app?vid=eef01461-00a8-4fe0-942b-7d3e2d42628c","ios":"levelo://app?vid=eef01461-00a8-4fe0-942b-7d3e2d42628c"},"vehicle_type_id":"4","last_reported":1745104153,"current_range_meters":3600,"station_id":"ce4bhch2rcd13ifvqeug","pricing_plan_id":"cebpf4jnsgd1na2vs0mg"},{"bike_id":"bbcbf55a-5484-40db-a874-f81e0300c4d9","system_id":"levelo_inurba_marseille","lat":43.25936,"lon":5.40885,"is_reserved":false,"is_disabled":false,"rental_uris":{"android":"levelo://app?vid=bbcbf55a-5484-40db-a874-f81e0300c4d9","ios":"levelo://app?vid=bbcbf55a-5484-40db-a874-f81e0300c4d9"},"vehicle_type_id":"4","last_reported":1745104153,"current_range_meters":4400,"station_id":"ce4bhm92rcd13ifvqglg","pricing_plan_id":"cebpf4jnsgd1na2vs0mg"},{"bike_id":"a4ee9808-c56f-429a-bd9e-2837e81985cb","system_id":"levelo_inurba_marseille","lat":43.27989,"lon":5.4167,"is_reserved":false,"is_disabled":true,"rental_uris":{"android":"levelo://app?vid=a4ee9808-c56f-429a-bd9e-2837e81985cb","ios":"levelo://app?vid=a4ee9808-c56f-429a-bd9e-2837e81985cb"},"vehicle_type_id":"4","last_reported":1745104153,"current_range_meters":4400,"station_id":"ce4bho12rcd13ifvqh1g","pricing_plan_id":"cebpf4jnsgd1na2vs0mg"},{"bike_id":"709c5515-4e73-41f4-a094-b1cb2d9405da","system_id":"levelo_inurba_marseille","lat":43.24175,"lon":5.36383,"is_reserved":false,"is_disabled":false,"rental_uris":{"android":"levelo://app?vid=709c5515-4e73-41f4-a094-b1cb2d9405da","ios":"levelo://app?vid=709c5515-4e73-41f4-a094-b1cb2d9405da"},"vehicle_type_id":"4","last_reported":1745104153,"current_range_meters":4400,"station_id":"cpo36qri1sfpv3e86is0","pricing_plan_id":"cebpf4jnsgd1na2vs0mg"},{"bike_id":"8a6702f5-2603-4da1-b2e2-5f0cb260c889","system_id":"levelo_inurba_marseille","lat":43.27371,"lon":5.36248,"is_reserved":false,"is_disabled":false,"rental_uris":{"android":"levelo://app?vid=8a6702f5-2603-4da1-b2e2-5f0cb260c889","ios":"levelo://app?vid=8a6702f5-2603-4da1-b2e2-5f0cb260c889"},"vehicle_type_id":"4","last_reported":1745104153,"current_range_meters":4800,"station_id":"ce4bhbh2rcd13ifvqeo0","pricing_plan_id":"cebpf4jnsgd1na2vs0mg"},{"bike_id":"c6ac01e0-a3ce-4d11-a814-c97261dc3e84","system_id":"levelo_inurba_marseille","lat":43.24548,"lon":5.39521,"is_reserved":false,"is_disabled":false,"rental_uris":{"android":"levelo://app?vid=c6ac01e0-a3ce-4d11-a814-c97261dc3e84","ios":"levelo://app?vid=c6ac01e0-a3ce-4d11-a814-c97261dc3e84"},"vehicle_type_id":"4","last_reported":1745104153,"current_range_meters":4800,"station_id":"ce4bhlp2rcd13ifvqgjg","pricing_plan_id":"cebpf4jnsgd1na2vs0mg"},{"bike_id":"705b0372-eed6-49f7-a74b-eb66982301c7","system_id":"levelo_inurba_marseille","lat":43.31359,"lon":5.38485,"is_reserved":false,"is_disabled":false,"rental_uris":{"android":"levelo://app?vid=705b0372-eed6-49f7-a74b-eb66982301c7","ios":"levelo://app?vid=705b0372-eed6-49f7-a74b-eb66982301c7"},"vehicle_type_id":"4","last_reported":1745104153,"current_range_meters":4400,"station_id":"ce4bgt92rcd13ifvqcf0","pricing_plan_id":"cebpf4jnsgd1na2vs0mg"},{"bike_id":"11b970d9-27b9-4e6f-86a0-cf6dc98382f2","system_id":"levelo_inurba_marseille","lat":43.31109,"lon":5.37773,"is_reserved":false,"is_disabled":false,"rental_uris":{"android":"levelo://app?vid=11b970d9-27b9-4e6f-86a0-cf6dc98382f2","ios":"levelo://app?vid=11b970d9-27b9-4e6f-86a0-cf6dc98382f2"},"vehicle_type_id":"4","last_reported":1745104153,"current_range_meters":4800,"station_id":"ce4bgt92rcd13ifvqcg0","pricing_plan_id":"cebpf4jnsgd1na2vs0mg"},{"bike_id":"38d71541-39fa-44bc-b9fa-dad7cbdc7434","system_id":"levelo_inurba_marseille","lat":43.287576,"lon":5.386516,"is_reserved":false,"is_disabled":false,"rental_uris":{"android":"levelo://app?vid=38d71541-39fa-44bc-b9fa-dad7cbdc7434","ios":"levelo://app?vid=38d71541-39fa-44bc-b9fa-dad7cbdc7434"},"vehicle_type_id":"4","last_reported":1745104153,"current_range_meters":4800,"station_id":"","pricing_plan_id":"cebpf4jnsgd1na2vs0mg"},{"bike_id":"df982341-d3f1-47bb-bcdf-1054fc116c62","system_id":"levelo_inurba_marseille","lat":43.29786,"lon":5.3816,"is_reserved":false,"is_disabled":true,"rental_uris":{"android":"levelo://app?vid=df982341-d3f1-47bb-bcdf-1054fc116c62","ios":"levelo://app?vid=df982341-d3f1-47bb-bcdf-1054fc116c62"},"vehicle_type_id":"4","last_reported":1745104153,"current_range_meters":6400,"station_id":"ce4bgip2rcd13ifvqbb0","pricing_plan_id":"cebpf4jnsgd1na2vs0mg"},{"bike_id":"8ff9f10e-8733-4a3a-8b8c-71b67317cfa0","system_id":"levelo_inurba_marseille","lat":43.24173,"lon":5.36393,"is_reserved":false,"is_disabled":false,"rental_uris":{"android":"levelo://app?vid=8ff9f10e-8733-4a3a-8b8c-71b67317cfa0","ios":"levelo://app?vid=8ff9f10e-8733-4a3a-8b8c-71b67317cfa0"},"vehicle_type_id":"4","last_reported":1745104153,"current_range_meters":6000,"station_id":"cpo36qri1sfpv3e86is0","pricing_plan_id":"cebpf4jnsgd1na2vs0mg"},{"bike_id":"276d94a9-b91a-47b5-b4e8-19ed1fdcca68","system_id":"levelo_inurba_marseille","lat":43.29556,"lon":5.42276,"is_reserved":false,"is_disabled":true,"rental_uris":{"android":"levelo://app?vid=276d94a9-b91a-47b5-b4e8-19ed1fdcca68","ios":"levelo://app?vid=276d94a9-b91a-47b5-b4e8-19ed1fdcca68"},"vehicle_type_id":"4","last_reported":1745104153,"current_range_meters":6400,"station_id":"ce4bhph2rcd13ifvqhdg","pricing_plan_id":"cebpf4jnsgd1na2vs0mg"},{"bike_id":"c42c97dc-851b-476d-ba23-67d0582febc0","system_id":"levelo_inurba_marseille","lat":43.30313,"lon":5.40439,"is_reserved":false,"is_disabled":true,"rental_uris":{"android":"levelo://app?vid=c42c97dc-851b-476d-ba23-67d0582febc0","ios":"levelo://app?vid=c42c97dc-851b-476d-ba23-67d0582febc0"},"vehicle_type_id":"4","last_reported":1745104153,"current_range_meters":6400,"station_id":"ce4bh012rcd13ifvqd10","pricing_plan_id":"cebpf4jnsgd1na2vs0mg"},{"bike_id":"4a86d0f8-ff65-4446-9521-1002867a3da0","system_id":"levelo_inurba_marseille","lat":43.24544,"lon":5.39519,"is_reserved":false,"is_disabled":true,"rental_uris":{"android":"levelo://app?vid=4a86d0f8-ff65-4446-9521-1002867a3da0","ios":"levelo://app?vid=4a86d0f8-ff65-4446-9521-1002867a3da0"},"vehicle_type_id":"4","last_reported":1745104153,"current_range_meters":6400,"station_id":"ce4bhlp2rcd13ifvqgjg","pricing_plan_id":"cebpf4jnsgd1na2vs0mg"},{"bike_id":"a0ddb0a5-f7f0-4281-aa27-9e82747cc573","system_id":"levelo_inurba_marseille","lat":43.33754,"lon":5.37491,"is_reserved":false,"is_disabled":false,"rental_uris":{"android":"levelo://app?vid=a0ddb0a5-f7f0-4281-aa27-9e82747cc573","ios":"levelo://app?vid=a0ddb0a5-f7f0-4281-aa27-9e82747cc573"},"vehicle_type_id":"4","last_reported":1745104153,"current_range_meters":6400,"station_id":"","pricing_plan_id":"cebpf4jnsgd1na2vs0mg"},{"bike_id":"20b11221-aec4-4875-ab35-21b273d071b9","system_id":"levelo_inurba_marseille","lat":43.30128,"lon":5.39839,"is_reserved":false,"is_disabled":false,"rental_uris":{"android":"levelo://app?vid=20b11221-aec4-4875-ab35-21b273d071b9","ios":"levelo://app?vid=20b11221-aec4-4875-ab35-21b273d071b9"},"vehicle_type_id":"4","last_reported":1745104153,"current_range_meters":6800,"station_id":"ce4bh0h2rcd13ifvqd40","pricing_plan_id":"cebpf4jnsgd1na2vs0mg"},{"bike_id":"066f1a3f-2f55-42ac-aa57-b561bb82f13e","system_id":"levelo_inurba_marseille","lat":43.30855,"lon":5.37346,"is_reserved":false,"is_disabled":false,"rental_uris":{"android":"levelo://app?vid=066f1a3f-2f55-42ac-aa57-b561bb82f13e","ios":"levelo://app?vid=066f1a3f-2f55-42ac-aa57-b561bb82f13e"},"vehicle_type_id":"4","last_reported":1745104153,"current_range_meters":6800,"station_id":"","pricing_plan_id":"cebpf4jnsgd1na2vs0mg"},{"bike_id":"19ada103-4cbd-4062-a809-34f5987a7a6d","system_id":"levelo_inurba_marseille","lat":43.26802,"lon":5.38901,"is_reserved":false,"is_disabled":false,"rental_uris":{"android":"levelo://app?vid=19ada103-4cbd-4062-a809-34f5987a7a6d","ios":"levelo://app?vid=19ada103-4cbd-4062-a809-34f5987a7a6d"},"vehicle_type_id":"4","last_reported":1745104153,"current_range_meters":6800,"station_id":"","pricing_plan_id":"cebpf4jnsgd1na2vs0mg"},{"bike_id":"98133c5f-1713-4ff0-94e5-8b169d954486","system_id":"levelo_inurba_marseille","lat":43.29789,"lon":5.38099,"is_reserved":false,"is_disabled":true,"rental_uris":{"android":"levelo://app?vid=98133c5f-1713-4ff0-94e5-8b169d954486","ios":"levelo://app?vid=98133c5f-1713-4ff0-94e5-8b169d954486"},"vehicle_type_id":"4","last_reported":1745104153,"current_range_meters":6800,"station_id":"ce4bgip2rcd13ifvqbb0","pricing_plan_id":"cebpf4jnsgd1na2vs0mg"},{"bike_id":"fccdaa19-2f4f-44ca-8ac1-38492ea4fcb8","system_id":"levelo_inurba_marseille","lat":43.24069,"lon":5.37759,"is_reserved":false,"is_disabled":false,"rental_uris":{"android":"levelo://app?vid=fccdaa19-2f4f-44ca-8ac1-38492ea4fcb8","ios":"levelo://app?vid=fccdaa19-2f4f-44ca-8ac1-38492ea4fcb8"},"vehicle_type_id":"4","last_reported":1745104153,"current_range_meters":7200,"station_id":"ce4bhnp2rcd13ifvqgvg","pricing_plan_id":"cebpf4jnsgd1na2vs0mg"},{"bike_id":"9fe8c14c-2d24-41b2-9662-956cdf9f075c","system_id":"levelo_inurba_marseille","lat":43.2452,"lon":5.36883,"is_reserved":false,"is_disabled":false,"rental_uris":{"android":"levelo://app?vid=9fe8c14c-2d24-41b2-9662-956cdf9f075c","ios":"levelo://app?vid=9fe8c14c-2d24-41b2-9662-956cdf9f075c"},"vehicle_type_id":"4","last_reported":1745104153,"current_range_meters":7200,"station_id":"","pricing_plan_id":"cebpf4jnsgd1na2vs0mg"},{"bike_id":"0324153e-f381-4cc6-b500-7d19d04a59fc","system_id":"levelo_inurba_marseille","lat":43.31368,"lon":5.38494,"is_reserved":false,"is_disabled":false,"rental_uris":{"android":"levelo://app?vid=0324153e-f381-4cc6-b500-7d19d04a59fc","ios":"levelo://app?vid=0324153e-f381-4cc6-b500-7d19d04a59fc"},"vehicle_type_id":"4","last_reported":1745104153,"current_range_meters":7200,"station_id":"ce4bgt92rcd13ifvqcf0","pricing_plan_id":"cebpf4jnsgd1na2vs0mg"},{"bike_id":"36422801-a6f2-484d-afc0-5800bf49fd3c","system_id":"levelo_inurba_marseille","lat":43.25111,"lon":5.40325,"is_reserved":false,"is_disabled":false,"rental_uris":{"android":"levelo://app?vid=36422801-a6f2-484d-afc0-5800bf49fd3c","ios":"levelo://app?vid=36422801-a6f2-484d-afc0-5800bf49fd3c"},"vehicle_type_id":"4","last_reported":1745104153,"current_range_meters":7200,"station_id":"ce4bhlh2rcd13ifvqgig","pricing_plan_id":"cebpf4jnsgd1na2vs0mg"},{"bike_id":"f6ba2129-4c99-433a-9ce5-8a3893340f52","system_id":"levelo_inurba_marseille","lat":43.241618,"lon":5.364074,"is_reserved":false,"is_disabled":false,"rental_uris":{"android":"levelo://app?vid=f6ba2129-4c99-433a-9ce5-8a3893340f52","ios":"levelo://app?vid=f6ba2129-4c99-433a-9ce5-8a3893340f52"},"vehicle_type_id":"4","last_reported":1745104153,"current_range_meters":7200,"station_id":"cpo36qri1sfpv3e86is0","pricing_plan_id":"cebpf4jnsgd1na2vs0mg"},{"bike_id":"f3db6b84-95ea-47eb-b4cd-d586544348cb","system_id":"levelo_inurba_marseille","lat":43.24166,"lon":5.36391,"is_reserved":false,"is_disabled":false,"rental_uris":{"android":"levelo://app?vid=f3db6b84-95ea-47eb-b4cd-d586544348cb","ios":"levelo://app?vid=f3db6b84-95ea-47eb-b4cd-d586544348cb"},"vehicle_type_id":"4","last_reported":1745104153,"current_range_meters":7200,"station_id":"cpo36qri1sfpv3e86is0","pricing_plan_id":"cebpf4jnsgd1na2vs0mg"},{"bike_id":"c2ee7244-5bfe-4374-b5ec-6449e52bf4af","system_id":"levelo_inurba_marseille","lat":43.240705,"lon":5.377613,"is_reserved":false,"is_disabled":false,"rental_uris":{"android":"levelo://app?vid=c2ee7244-5bfe-4374-b5ec-6449e52bf4af","ios":"levelo://app?vid=c2ee7244-5bfe-4374-b5ec-6449e52bf4af"},"vehicle_type_id":"4","last_reported":1745104153,"current_range_meters":7200,"station_id":"ce4bhnp2rcd13ifvqgvg","pricing_plan_id":"cebpf4jnsgd1na2vs0mg"},{"bike_id":"0b40943d-b526-41fb-810d-35e7e3139bd0","system_id":"levelo_inurba_marseille","lat":43.30672,"lon":5.39252,"is_reserved":false,"is_disabled":false,"rental_uris":{"android":"levelo://app?vid=0b40943d-b526-41fb-810d-35e7e3139bd0","ios":"levelo://app?vid=0b40943d-b526-41fb-810d-35e7e3139bd0"},"vehicle_type_id":"4","last_reported":1745104153,"current_range_meters":7200,"station_id":"","pricing_plan_id":"cebpf4jnsgd1na2vs0mg"},{"bike_id":"a8bb5851-2286-4f11-a2e8-d189dc708342","system_id":"levelo_inurba_marseille","lat":43.284555,"lon":5.358758,"is_reserved":false,"is_disabled":false,"rental_uris":{"android":"levelo://app?vid=a8bb5851-2286-4f11-a2e8-d189dc708342","ios":"levelo://app?vid=a8bb5851-2286-4f11-a2e8-d189dc708342"},"vehicle_type_id":"4","last_reported":1745104153,"current_range_meters":7200,"station_id":"ce4bhah2rcd13ifvqei0","pricing_plan_id":"cebpf4jnsgd1na2vs0mg"},{"bike_id":"33c10559-5d3c-44c4-a72c-4b86fdac0391","system_id":"levelo_inurba_marseille","lat":43.24063,"lon":5.37758,"is_reserved":false,"is_disabled":false,"rental_uris":{"android":"levelo://app?vid=33c10559-5d3c-44c4-a72c-4b86fdac0391","ios":"levelo://app?vid=33c10559-5d3c-44c4-a72c-4b86fdac0391"},"vehicle_type_id":"4","last_reported":1745104153,"current_range_meters":7200,"station_id":"ce4bhnp2rcd13ifvqgvg","pricing_plan_id":"cebpf4jnsgd1na2vs0mg"},{"bike_id":"c32807f3-5d2b-4a2e-bddd-0b05279898de","system_id":"levelo_inurba_marseille","lat":43.26562,"lon":5.37293,"is_reserved":false,"is_disabled":false,"rental_uris":{"android":"levelo://app?vid=c32807f3-5d2b-4a2e-bddd-0b05279898de","ios":"levelo://app?vid=c32807f3-5d2b-4a2e-bddd-0b05279898de"},"vehicle_type_id":"4","last_reported":1745104153,"current_range_meters":8000,"station_id":"ce4bhg12rcd13ifvqf70","pricing_plan_id":"cebpf4jnsgd1na2vs0mg"},{"bike_id":"82cf97f6-2d10-439b-a6f0-f962bacaaf34","system_id":"levelo_inurba_marseille","lat":43.3239,"lon":5.38855,"is_reserved":false,"is_disabled":false,"rental_uris":{"android":"levelo://app?vid=82cf97f6-2d10-439b-a6f0-f962bacaaf34","ios":"levelo://app?vid=82cf97f6-2d10-439b-a6f0-f962bacaaf34"},"vehicle_type_id":"4","last_reported":1745104153,"current_range_meters":8000,"station_id":"ce4bhqp2rcd13ifvqhog","pricing_plan_id":"cebpf4jnsgd1na2vs0mg"},{"bike_id":"8a754be3-6b56-46a7-92dc-0bd2fe8cad1e","system_id":"levelo_inurba_marseille","lat":43.29633,"lon":5.40601,"is_reserved":false,"is_disabled":false,"rental_uris":{"android":"levelo://app?vid=8a754be3-6b56-46a7-92dc-0bd2fe8cad1e","ios":"levelo://app?vid=8a754be3-6b56-46a7-92dc-0bd2fe8cad1e"},"vehicle_type_id":"4","last_reported":1745104153,"current_range_meters":8000,"station_id":"ce4bh0h2rcd13ifvqd60","pricing_plan_id":"cebpf4jnsgd1na2vs0mg"},{"bike_id":"2fd61b6f-dbc1-486d-a3ce-bb63a7686d8d","system_id":"levelo_inurba_marseille","lat":43.290466,"lon":5.359137,"is_reserved":false,"is_disabled":false,"rental_uris":{"android":"levelo://app?vid=2fd61b6f-dbc1-486d-a3ce-bb63a7686d8d","ios":"levelo://app?vid=2fd61b6f-dbc1-486d-a3ce-bb63a7686d8d"},"vehicle_type_id":"4","last_reported":1745104153,"current_range_meters":8000,"station_id":"ce4bgop2rcd13ifvqc1g","pricing_plan_id":"cebpf4jnsgd1na2vs0mg"},{"bike_id":"506029f3-934b-4b14-bf28-b9c4802540f9","system_id":"levelo_inurba_marseille","lat":43.23209,"lon":5.35537,"is_reserved":false,"is_disabled":false,"rental_uris":{"android":"levelo://app?vid=506029f3-934b-4b14-bf28-b9c4802540f9","ios":"levelo://app?vid=506029f3-934b-4b14-bf28-b9c4802540f9"},"vehicle_type_id":"4","last_reported":1745104153,"current_range_meters":8000,"station_id":"ce4bhu92rcd13ifvqi70","pricing_plan_id":"cebpf4jnsgd1na2vs0mg"},{"bike_id":"f157b9bb-0a5c-46c9-8dae-38e677030ee5","system_id":"levelo_inurba_marseille","lat":43.28735,"lon":5.37946,"is_reserved":false,"is_disabled":false,"rental_uris":{"android":"levelo://app?vid=f157b9bb-0a5c-46c9-8dae-38e677030ee5","ios":"levelo://app?vid=f157b9bb-0a5c-46c9-8dae-38e677030ee5"},"vehicle_type_id":"4","last_reported":1745104153,"current_range_meters":7200,"station_id":"ce4bh9p2rcd13ifvqec0","pricing_plan_id":"cebpf4jnsgd1na2vs0mg"},{"bike_id":"a2a6f098-8d58-42f2-80ae-d26a0e0f3ac1","system_id":"levelo_inurba_marseille","lat":43.30541,"lon":5.40151,"is_reserved":false,"is_disabled":false,"rental_uris":{"android":"levelo://app?vid=a2a6f098-8d58-42f2-80ae-d26a0e0f3ac1","ios":"levelo://app?vid=a2a6f098-8d58-42f2-80ae-d26a0e0f3ac1"},"vehicle_type_id":"4","last_reported":1745104153,"current_range_meters":8000,"station_id":"","pricing_plan_id":"cebpf4jnsgd1na2vs0mg"},{"bike_id":"238863de-7163-4a21-a2c9-990b68fd6ded","system_id":"levelo_inurba_marseille","lat":43.23964,"lon":5.36626,"is_reserved":false,"is_disabled":false,"rental_uris":{"android":"levelo://app?vid=238863de-7163-4a21-a2c9-990b68fd6ded","ios":"levelo://app?vid=238863de-7163-4a21-a2c9-990b68fd6ded"},"vehicle_type_id":"4","last_reported":1745104153,"current_range_meters":8400,"station_id":"ce4bhi12rcd13ifvqfp0","pricing_plan_id":"cebpf4jnsgd1na2vs0mg"},{"bike_id":"35f0a6e1-f9a9-47ee-bab6-2641cdd8ae57","system_id":"levelo_inurba_marseille","lat":43.27326,"lon":5.39082,"is_reserved":false,"is_disabled":true,"rental_uris":{"android":"levelo://app?vid=35f0a6e1-f9a9-47ee-bab6-2641cdd8ae57","ios":"levelo://app?vid=35f0a6e1-f9a9-47ee-bab6-2641cdd8ae57"},"vehicle_type_id":"4","last_reported":1745104153,"current_range_meters":8400,"station_id":"ce4bhgp2rcd13ifvqfe0","pricing_plan_id":"cebpf4jnsgd1na2vs0mg"},{"bike_id":"b6b70243-19bc-40b9-ab95-efde7c5272ba","system_id":"levelo_inurba_marseille","lat":43.25125,"lon":5.40331,"is_reserved":false,"is_disabled":false,"rental_uris":{"android":"levelo://app?vid=b6b70243-19bc-40b9-ab95-efde7c5272ba","ios":"levelo://app?vid=b6b70243-19bc-40b9-ab95-efde7c5272ba"},"vehicle_type_id":"4","last_reported":1745104153,"current_range_meters":8400,"station_id":"ce4bhlh2rcd13ifvqgig","pricing_plan_id":"cebpf4jnsgd1na2vs0mg"},{"bike_id":"7f545bbc-a0a7-4368-8a07-6a6863048111","system_id":"levelo_inurba_marseille","lat":43.22977,"lon":5.35344,"is_reserved":false,"is_disabled":false,"rental_uris":{"android":"levelo://app?vid=7f545bbc-a0a7-4368-8a07-6a6863048111","ios":"levelo://app?vid=7f545bbc-a0a7-4368-8a07-6a6863048111"},"vehicle_type_id":"4","last_reported":1745104153,"current_range_meters":8400,"station_id":"cpo3532slgdg3j2ikp40","pricing_plan_id":"cebpf4jnsgd1na2vs0mg"},{"bike_id":"72c8ea71-2726-4474-b978-8a49836c4c90","system_id":"levelo_inurba_marseille","lat":43.29888,"lon":5.389,"is_reserved":false,"is_disabled":false,"rental_uris":{"android":"levelo://app?vid=72c8ea71-2726-4474-b978-8a49836c4c90","ios":"levelo://app?vid=72c8ea71-2726-4474-b978-8a49836c4c90"},"vehicle_type_id":"4","last_reported":1745104153,"current_range_meters":8400,"station_id":"ce4bh392rcd13ifvqdl0","pricing_plan_id":"cebpf4jnsgd1na2vs0mg"},{"bike_id":"98dc27ee-79b6-49d6-9af6-5935a0dab5f2","system_id":"levelo_inurba_marseille","lat":43.30441,"lon":5.38874,"is_reserved":false,"is_disabled":false,"rental_uris":{"android":"levelo://app?vid=98dc27ee-79b6-49d6-9af6-5935a0dab5f2","ios":"levelo://app?vid=98dc27ee-79b6-49d6-9af6-5935a0dab5f2"},"vehicle_type_id":"4","last_reported":1745104153,"current_range_meters":8400,"station_id":"ce4bgk12rcd13ifvqbi0","pricing_plan_id":"cebpf4jnsgd1na2vs0mg"},{"bike_id":"6246c52b-0de2-4a85-bc22-8792f41632f9","system_id":"levelo_inurba_marseille","lat":43.2749,"lon":5.4245,"is_reserved":false,"is_disabled":false,"rental_uris":{"android":"levelo://app?vid=6246c52b-0de2-4a85-bc22-8792f41632f9","ios":"levelo://app?vid=6246c52b-0de2-4a85-bc22-8792f41632f9"},"vehicle_type_id":"4","last_reported":1745104153,"current_range_meters":8400,"station_id":"ce4bhn92rcd13ifvqgrg","pricing_plan_id":"cebpf4jnsgd1na2vs0mg"},{"bike_id":"7fc6de1b-7d8b-41c1-99e8-6fa39f3491b3","system_id":"levelo_inurba_marseille","lat":43.30906,"lon":5.37199,"is_reserved":false,"is_disabled":false,"rental_uris":{"android":"levelo://app?vid=7fc6de1b-7d8b-41c1-99e8-6fa39f3491b3","ios":"levelo://app?vid=7fc6de1b-7d8b-41c1-99e8-6fa39f3491b3"},"vehicle_type_id":"4","last_reported":1745104153,"current_range_meters":8400,"station_id":"ce4bguh2rcd13ifvqckg","pricing_plan_id":"cebpf4jnsgd1na2vs0mg"},{"bike_id":"1341fefe-da6d-47da-befe-0533c944921c","system_id":"levelo_inurba_marseille","lat":43.31071,"lon":5.38344,"is_reserved":false,"is_disabled":false,"rental_uris":{"android":"levelo://app?vid=1341fefe-da6d-47da-befe-0533c944921c","ios":"levelo://app?vid=1341fefe-da6d-47da-befe-0533c944921c"},"vehicle_type_id":"4","last_reported":1745104153,"current_range_meters":8400,"station_id":"ce4bgv92rcd13ifvqcr0","pricing_plan_id":"cebpf4jnsgd1na2vs0mg"},{"bike_id":"06a4005b-b24a-4a6d-b0ac-dcf0e9ac719f","system_id":"levelo_inurba_marseille","lat":43.26195,"lon":5.37941,"is_reserved":false,"is_disabled":false,"rental_uris":{"android":"levelo://app?vid=06a4005b-b24a-4a6d-b0ac-dcf0e9ac719f","ios":"levelo://app?vid=06a4005b-b24a-4a6d-b0ac-dcf0e9ac719f"},"vehicle_type_id":"4","last_reported":1745104153,"current_range_meters":8400,"station_id":"ce4bhjp2rcd13ifvqg90","pricing_plan_id":"cebpf4jnsgd1na2vs0mg"},{"bike_id":"2106afa7-e06f-4e8b-a40f-f48ffd306df4","system_id":"levelo_inurba_marseille","lat":43.30643,"lon":5.40064,"is_reserved":false,"is_disabled":false,"rental_uris":{"android":"levelo://app?vid=2106afa7-e06f-4e8b-a40f-f48ffd306df4","ios":"levelo://app?vid=2106afa7-e06f-4e8b-a40f-f48ffd306df4"},"vehicle_type_id":"4","last_reported":1745104153,"current_range_meters":8400,"station_id":"ce4bh112rcd13ifvqda0","pricing_plan_id":"cebpf4jnsgd1na2vs0mg"},{"bike_id":"6b4ae8f7-c685-4514-83bc-a80f2e94c817","system_id":"levelo_inurba_marseille","lat":43.28933,"lon":5.36639,"is_reserved":false,"is_disabled":false,"rental_uris":{"android":"levelo://app?vid=6b4ae8f7-c685-4514-83bc-a80f2e94c817","ios":"levelo://app?vid=6b4ae8f7-c685-4514-83bc-a80f2e94c817"},"vehicle_type_id":"4","last_reported":1745104153,"current_range_meters":8400,"station_id":"ce4bhap2rcd13ifvqek0","pricing_plan_id":"cebpf4jnsgd1na2vs0mg"},{"bike_id":"6c30e091-3528-44fd-8a69-703e2e6ecfc4","system_id":"levelo_inurba_marseille","lat":43.23964,"lon":5.36623,"is_reserved":false,"is_disabled":false,"rental_uris":{"android":"levelo://app?vid=6c30e091-3528-44fd-8a69-703e2e6ecfc4","ios":"levelo://app?vid=6c30e091-3528-44fd-8a69-703e2e6ecfc4"},"vehicle_type_id":"4","last_reported":1745104153,"current_range_meters":8800,"station_id":"ce4bhi12rcd13ifvqfp0","pricing_plan_id":"cebpf4jnsgd1na2vs0mg"},{"bike_id":"613a352f-e21e-411f-bca1-4a1d61d7df7a","system_id":"levelo_inurba_marseille","lat":43.323643,"lon":5.388867,"is_reserved":false,"is_disabled":false,"rental_uris":{"android":"levelo://app?vid=613a352f-e21e-411f-bca1-4a1d61d7df7a","ios":"levelo://app?vid=613a352f-e21e-411f-bca1-4a1d61d7df7a"},"vehicle_type_id":"4","last_reported":1745104153,"current_range_meters":8800,"station_id":"ce4bhqp2rcd13ifvqhog","pricing_plan_id":"cebpf4jnsgd1na2vs0mg"},{"bike_id":"1eaca8f5-0017-418a-9bfc-52185bf67513","system_id":"levelo_inurba_marseille","lat":43.33743,"lon":5.39188,"is_reserved":false,"is_disabled":false,"rental_uris":{"android":"levelo://app?vid=1eaca8f5-0017-418a-9bfc-52185bf67513","ios":"levelo://app?vid=1eaca8f5-0017-418a-9bfc-52185bf67513"},"vehicle_type_id":"4","last_reported":1745104153,"current_range_meters":8800,"station_id":"ce4bhr92rcd13ifvqhsg","pricing_plan_id":"cebpf4jnsgd1na2vs0mg"},{"bike_id":"df4a294c-ae9e-4325-afee-1498c1264526","system_id":"levelo_inurba_marseille","lat":43.29798,"lon":5.39349,"is_reserved":false,"is_disabled":false,"rental_uris":{"android":"levelo://app?vid=df4a294c-ae9e-4325-afee-1498c1264526","ios":"levelo://app?vid=df4a294c-ae9e-4325-afee-1498c1264526"},"vehicle_type_id":"4","last_reported":1745104153,"current_range_meters":8800,"station_id":"chh1huq6cuj3fo74tm60","pricing_plan_id":"cebpf4jnsgd1na2vs0mg"},{"bike_id":"265e8b15-6e2c-46c5-a660-476f5d328214","system_id":"levelo_inurba_marseille","lat":43.272168,"lon":5.390879,"is_reserved":false,"is_disabled":false,"rental_uris":{"android":"levelo://app?vid=265e8b15-6e2c-46c5-a660-476f5d328214","ios":"levelo://app?vid=265e8b15-6e2c-46c5-a660-476f5d328214"},"vehicle_type_id":"4","last_reported":1745104153,"current_range_meters":8800,"station_id":"ce4bhe12rcd13ifvqf30","pricing_plan_id":"cebpf4jnsgd1na2vs0mg"},{"bike_id":"186380b9-3dab-457b-b648-71d123fa0368","system_id":"levelo_inurba_marseille","lat":43.2513,"lon":5.40331,"is_reserved":false,"is_disabled":true,"rental_uris":{"android":"levelo://app?vid=186380b9-3dab-457b-b648-71d123fa0368","ios":"levelo://app?vid=186380b9-3dab-457b-b648-71d123fa0368"},"vehicle_type_id":"4","last_reported":1745104153,"current_range_meters":8800,"station_id":"ce4bhlh2rcd13ifvqgig","pricing_plan_id":"cebpf4jnsgd1na2vs0mg"},{"bike_id":"4f7d7a48-9ed4-49ae-98c3-6d5ae3d0a41a","system_id":"levelo_inurba_marseille","lat":43.22963,"lon":5.35375,"is_reserved":false,"is_disabled":false,"rental_uris":{"android":"levelo://app?vid=4f7d7a48-9ed4-49ae-98c3-6d5ae3d0a41a","ios":"levelo://app?vid=4f7d7a48-9ed4-49ae-98c3-6d5ae3d0a41a"},"vehicle_type_id":"4","last_reported":1745104153,"current_range_meters":8800,"station_id":"cpo3532slgdg3j2ikp40","pricing_plan_id":"cebpf4jnsgd1na2vs0mg"},{"bike_id":"f8b7c9b2-3986-4973-b97b-aed65c7aed6a","system_id":"levelo_inurba_marseille","lat":43.31359,"lon":5.38503,"is_reserved":false,"is_disabled":false,"rental_uris":{"android":"levelo://app?vid=f8b7c9b2-3986-4973-b97b-aed65c7aed6a","ios":"levelo://app?vid=f8b7c9b2-3986-4973-b97b-aed65c7aed6a"},"vehicle_type_id":"4","last_reported":1745104153,"current_range_meters":8800,"station_id":"ce4bgt92rcd13ifvqcf0","pricing_plan_id":"cebpf4jnsgd1na2vs0mg"},{"bike_id":"d6138b2d-f98f-4f0a-8eb5-89a204ecd78d","system_id":"levelo_inurba_marseille","lat":43.28847,"lon":5.35849,"is_reserved":false,"is_disabled":false,"rental_uris":{"android":"levelo://app?vid=d6138b2d-f98f-4f0a-8eb5-89a204ecd78d","ios":"levelo://app?vid=d6138b2d-f98f-4f0a-8eb5-89a204ecd78d"},"vehicle_type_id":"4","last_reported":1745104153,"current_range_meters":9200,"station_id":"ce4bhb12rcd13ifvqem0","pricing_plan_id":"cebpf4jnsgd1na2vs0mg"},{"bike_id":"f2d81dd8-27f6-4072-a46a-969b5dbd7bd9","system_id":"levelo_inurba_marseille","lat":43.30441,"lon":5.38891,"is_reserved":false,"is_disabled":false,"rental_uris":{"android":"levelo://app?vid=f2d81dd8-27f6-4072-a46a-969b5dbd7bd9","ios":"levelo://app?vid=f2d81dd8-27f6-4072-a46a-969b5dbd7bd9"},"vehicle_type_id":"4","last_reported":1745104153,"current_range_meters":9200,"station_id":"ce4bgk12rcd13ifvqbi0","pricing_plan_id":"cebpf4jnsgd1na2vs0mg"},{"bike_id":"ad86806a-5977-46f8-814f-5fde7a76118c","system_id":"levelo_inurba_marseille","lat":43.3137,"lon":5.38491,"is_reserved":false,"is_disabled":false,"rental_uris":{"android":"levelo://app?vid=ad86806a-5977-46f8-814f-5fde7a76118c","ios":"levelo://app?vid=ad86806a-5977-46f8-814f-5fde7a76118c"},"vehicle_type_id":"4","last_reported":1745104153,"current_range_meters":9200,"station_id":"ce4bgt92rcd13ifvqcf0","pricing_plan_id":"cebpf4jnsgd1na2vs0mg"},{"bike_id":"32d0376c-7031-4c7f-841e-7570a6189b10","system_id":"levelo_inurba_marseille","lat":43.24407,"lon":5.37037,"is_reserved":false,"is_disabled":false,"rental_uris":{"android":"levelo://app?vid=32d0376c-7031-4c7f-841e-7570a6189b10","ios":"levelo://app?vid=32d0376c-7031-4c7f-841e-7570a6189b10"},"vehicle_type_id":"4","last_reported":1745104153,"current_range_meters":9200,"station_id":"ce4bhhh2rcd13ifvqfk0","pricing_plan_id":"cebpf4jnsgd1na2vs0mg"},{"bike_id":"1965f819-3778-4654-96e5-aaaf9c36cc08","system_id":"levelo_inurba_marseille","lat":43.30366,"lon":5.42466,"is_reserved":false,"is_disabled":false,"rental_uris":{"android":"levelo://app?vid=1965f819-3778-4654-96e5-aaaf9c36cc08","ios":"levelo://app?vid=1965f819-3778-4654-96e5-aaaf9c36cc08"},"vehicle_type_id":"4","last_reported":1745104153,"current_range_meters":9200,"station_id":"ce4bhoh2rcd13ifvqh6g","pricing_plan_id":"cebpf4jnsgd1na2vs0mg"},{"bike_id":"fad00337-7ff5-4cde-ae41-7324defc86f2","system_id":"levelo_inurba_marseille","lat":43.32352,"lon":5.36743,"is_reserved":false,"is_disabled":false,"rental_uris":{"android":"levelo://app?vid=fad00337-7ff5-4cde-ae41-7324defc86f2","ios":"levelo://app?vid=fad00337-7ff5-4cde-ae41-7324defc86f2"},"vehicle_type_id":"4","last_reported":1745104153,"current_range_meters":9200,"station_id":"ce4bhsh2rcd13ifvqi2g","pricing_plan_id":"cebpf4jnsgd1na2vs0mg"},{"bike_id":"8a45211d-408b-43cb-ae76-f907d90fcf58","system_id":"levelo_inurba_marseille","lat":43.33731,"lon":5.39191,"is_reserved":false,"is_disabled":false,"rental_uris":{"android":"levelo://app?vid=8a45211d-408b-43cb-ae76-f907d90fcf58","ios":"levelo://app?vid=8a45211d-408b-43cb-ae76-f907d90fcf58"},"vehicle_type_id":"4","last_reported":1745104153,"current_range_meters":9200,"station_id":"ce4bhr92rcd13ifvqhsg","pricing_plan_id":"cebpf4jnsgd1na2vs0mg"},{"bike_id":"d2ba4413-c35f-41b1-8baf-f83e6001a359","system_id":"levelo_inurba_marseille","lat":43.290316,"lon":5.386545,"is_reserved":false,"is_disabled":true,"rental_uris":{"android":"levelo://app?vid=d2ba4413-c35f-41b1-8baf-f83e6001a359","ios":"levelo://app?vid=d2ba4413-c35f-41b1-8baf-f83e6001a359"},"vehicle_type_id":"4","last_reported":1745104153,"current_range_meters":9200,"station_id":"ce4bh4p2rcd13ifvqe0g","pricing_plan_id":"cebpf4jnsgd1na2vs0mg"},{"bike_id":"f6613f71-12b1-4d15-8dd4-9e36e4cdbff1","system_id":"levelo_inurba_marseille","lat":43.31368,"lon":5.38498,"is_reserved":false,"is_disabled":false,"rental_uris":{"android":"levelo://app?vid=f6613f71-12b1-4d15-8dd4-9e36e4cdbff1","ios":"levelo://app?vid=f6613f71-12b1-4d15-8dd4-9e36e4cdbff1"},"vehicle_type_id":"4","last_reported":1745104153,"current_range_meters":9200,"station_id":"ce4bgt92rcd13ifvqcf0","pricing_plan_id":"cebpf4jnsgd1na2vs0mg"},{"bike_id":"22583896-a653-48d4-8b37-6cfca0e7be93","system_id":"levelo_inurba_marseille","lat":43.21208,"lon":5.35055,"is_reserved":false,"is_disabled":false,"rental_uris":{"android":"levelo://app?vid=22583896-a653-48d4-8b37-6cfca0e7be93","ios":"levelo://app?vid=22583896-a653-48d4-8b37-6cfca0e7be93"},"vehicle_type_id":"4","last_reported":1745104153,"current_range_meters":9200,"station_id":"st_cvj6sg6p6f1abm77japg","pricing_plan_id":"cebpf4jnsgd1na2vs0mg"},{"bike_id":"106c5265-7c1a-45be-9031-3c55f8880986","system_id":"levelo_inurba_marseille","lat":43.2622,"lon":5.37914,"is_reserved":false,"is_disabled":false,"rental_uris":{"android":"levelo://app?vid=106c5265-7c1a-45be-9031-3c55f8880986","ios":"levelo://app?vid=106c5265-7c1a-45be-9031-3c55f8880986"},"vehicle_type_id":"4","last_reported":1745104153,"current_range_meters":9600,"station_id":"ce4bhjp2rcd13ifvqg90","pricing_plan_id":"cebpf4jnsgd1na2vs0mg"},{"bike_id":"04bb7849-08cf-4405-905d-0c016303977b","system_id":"levelo_inurba_marseille","lat":43.29889,"lon":5.43661,"is_reserved":false,"is_disabled":false,"rental_uris":{"android":"levelo://app?vid=04bb7849-08cf-4405-905d-0c016303977b","ios":"levelo://app?vid=04bb7849-08cf-4405-905d-0c016303977b"},"vehicle_type_id":"4","last_reported":1745104153,"current_range_meters":9600,"station_id":"ce4bhpp2rcd13ifvqhfg","pricing_plan_id":"cebpf4jnsgd1na2vs0mg"},{"bike_id":"9bced3b3-e34f-4a6c-8939-b66c874e860b","system_id":"levelo_inurba_marseille","lat":43.241757,"lon":5.397323,"is_reserved":false,"is_disabled":false,"rental_uris":{"android":"levelo://app?vid=9bced3b3-e34f-4a6c-8939-b66c874e860b","ios":"levelo://app?vid=9bced3b3-e34f-4a6c-8939-b66c874e860b"},"vehicle_type_id":"4","last_reported":1745104153,"current_range_meters":9600,"station_id":"ce4bhn12rcd13ifvqgpg","pricing_plan_id":"cebpf4jnsgd1na2vs0mg"},{"bike_id":"74c88ba6-0f33-4d7f-a068-d37fe9bc81f6","system_id":"levelo_inurba_marseille","lat":43.30136,"lon":5.39849,"is_reserved":false,"is_disabled":false,"rental_uris":{"android":"levelo://app?vid=74c88ba6-0f33-4d7f-a068-d37fe9bc81f6","ios":"levelo://app?vid=74c88ba6-0f33-4d7f-a068-d37fe9bc81f6"},"vehicle_type_id":"4","last_reported":1745104153,"current_range_meters":9600,"station_id":"ce4bh0h2rcd13ifvqd40","pricing_plan_id":"cebpf4jnsgd1na2vs0mg"},{"bike_id":"6b2a2f68-fd74-4a24-a495-23dd8d3467f4","system_id":"levelo_inurba_marseille","lat":43.21194,"lon":5.35064,"is_reserved":false,"is_disabled":false,"rental_uris":{"android":"levelo://app?vid=6b2a2f68-fd74-4a24-a495-23dd8d3467f4","ios":"levelo://app?vid=6b2a2f68-fd74-4a24-a495-23dd8d3467f4"},"vehicle_type_id":"4","last_reported":1745104153,"current_range_meters":9600,"station_id":"st_cvj6sg6p6f1abm77japg","pricing_plan_id":"cebpf4jnsgd1na2vs0mg"},{"bike_id":"bceca376-b320-4023-9d3c-27333a171d6e","system_id":"levelo_inurba_marseille","lat":43.31694,"lon":5.3776,"is_reserved":false,"is_disabled":false,"rental_uris":{"android":"levelo://app?vid=bceca376-b320-4023-9d3c-27333a171d6e","ios":"levelo://app?vid=bceca376-b320-4023-9d3c-27333a171d6e"},"vehicle_type_id":"4","last_reported":1745104153,"current_range_meters":9600,"station_id":"ce4bgth2rcd13ifvqch0","pricing_plan_id":"cebpf4jnsgd1na2vs0mg"},{"bike_id":"a68d00fe-a40d-479c-83db-11cf7a3919a4","system_id":"levelo_inurba_marseille","lat":43.31727,"lon":5.42397,"is_reserved":false,"is_disabled":false,"rental_uris":{"android":"levelo://app?vid=a68d00fe-a40d-479c-83db-11cf7a3919a4","ios":"levelo://app?vid=a68d00fe-a40d-479c-83db-11cf7a3919a4"},"vehicle_type_id":"4","last_reported":1745104153,"current_range_meters":9600,"station_id":"ce4bhp92rcd13ifvqhbg","pricing_plan_id":"cebpf4jnsgd1na2vs0mg"},{"bike_id":"97e50bb0-9a70-481b-b370-e509345e710a","system_id":"levelo_inurba_marseille","lat":43.28071,"lon":5.36925,"is_reserved":false,"is_disabled":true,"rental_uris":{"android":"levelo://app?vid=97e50bb0-9a70-481b-b370-e509345e710a","ios":"levelo://app?vid=97e50bb0-9a70-481b-b370-e509345e710a"},"vehicle_type_id":"4","last_reported":1745104153,"current_range_meters":10000,"station_id":"ce4bha12rcd13ifvqef0","pricing_plan_id":"cebpf4jnsgd1na2vs0mg"},{"bike_id":"e970a77c-97b4-4b75-8155-7044bacc8b02","system_id":"levelo_inurba_marseille","lat":43.25124,"lon":5.40328,"is_reserved":false,"is_disabled":false,"rental_uris":{"android":"levelo://app?vid=e970a77c-97b4-4b75-8155-7044bacc8b02","ios":"levelo://app?vid=e970a77c-97b4-4b75-8155-7044bacc8b02"},"vehicle_type_id":"4","last_reported":1745104153,"current_range_meters":10000,"station_id":"ce4bhlh2rcd13ifvqgig","pricing_plan_id":"cebpf4jnsgd1na2vs0mg"},{"bike_id":"545891ed-e617-4e64-afe2-89ad3a952c60","system_id":"levelo_inurba_marseille","lat":43.30245,"lon":5.40057,"is_reserved":false,"is_disabled":false,"rental_uris":{"android":"levelo://app?vid=545891ed-e617-4e64-afe2-89ad3a952c60","ios":"levelo://app?vid=545891ed-e617-4e64-afe2-89ad3a952c60"},"vehicle_type_id":"4","last_reported":1745104153,"current_range_meters":10000,"station_id":"ce4bgvh2rcd13ifvqcs0","pricing_plan_id":"cebpf4jnsgd1na2vs0mg"},{"bike_id":"20aab713-b807-4cab-a272-9ffba5cba397","system_id":"levelo_inurba_marseille","lat":43.30268,"lon":5.38982,"is_reserved":false,"is_disabled":false,"rental_uris":{"android":"levelo://app?vid=20aab713-b807-4cab-a272-9ffba5cba397","ios":"levelo://app?vid=20aab713-b807-4cab-a272-9ffba5cba397"},"vehicle_type_id":"4","last_reported":1745104153,"current_range_meters":10000,"station_id":"","pricing_plan_id":"cebpf4jnsgd1na2vs0mg"},{"bike_id":"847d0d5f-f400-4c94-aa3c-bd5c9af535c5","system_id":"levelo_inurba_marseille","lat":43.31371,"lon":5.38497,"is_reserved":false,"is_disabled":false,"rental_uris":{"android":"levelo://app?vid=847d0d5f-f400-4c94-aa3c-bd5c9af535c5","ios":"levelo://app?vid=847d0d5f-f400-4c94-aa3c-bd5c9af535c5"},"vehicle_type_id":"4","last_reported":1745104153,"current_range_meters":10000,"station_id":"ce4bgt92rcd13ifvqcf0","pricing_plan_id":"cebpf4jnsgd1na2vs0mg"},{"bike_id":"f0b6af0d-1cbf-47a3-af07-dab09fabbbf0","system_id":"levelo_inurba_marseille","lat":43.231961,"lon":5.355531,"is_reserved":false,"is_disabled":false,"rental_uris":{"android":"levelo://app?vid=f0b6af0d-1cbf-47a3-af07-dab09fabbbf0","ios":"levelo://app?vid=f0b6af0d-1cbf-47a3-af07-dab09fabbbf0"},"vehicle_type_id":"4","last_reported":1745104153,"current_range_meters":10000,"station_id":"ce4bhu92rcd13ifvqi70","pricing_plan_id":"cebpf4jnsgd1na2vs0mg"},{"bike_id":"58a86d93-d682-412a-acc9-83b24b69b362","system_id":"levelo_inurba_marseille","lat":43.3096,"lon":5.38252,"is_reserved":false,"is_disabled":false,"rental_uris":{"android":"levelo://app?vid=58a86d93-d682-412a-acc9-83b24b69b362","ios":"levelo://app?vid=58a86d93-d682-412a-acc9-83b24b69b362"},"vehicle_type_id":"4","last_reported":1745104153,"current_range_meters":10000,"station_id":"","pricing_plan_id":"cebpf4jnsgd1na2vs0mg"},{"bike_id":"7bc50c19-7834-4f25-b6ff-36c45d74d9e9","system_id":"levelo_inurba_marseille","lat":43.29038,"lon":5.39957,"is_reserved":false,"is_disabled":false,"rental_uris":{"android":"levelo://app?vid=7bc50c19-7834-4f25-b6ff-36c45d74d9e9","ios":"levelo://app?vid=7bc50c19-7834-4f25-b6ff-36c45d74d9e9"},"vehicle_type_id":"4","last_reported":1745104153,"current_range_meters":10000,"station_id":"ce4bh392rcd13ifvqdm0","pricing_plan_id":"cebpf4jnsgd1na2vs0mg"},{"bike_id":"0ee6d96f-d032-4220-b994-f36efe913c8c","system_id":"levelo_inurba_marseille","lat":43.280012,"lon":5.40009,"is_reserved":false,"is_disabled":false,"rental_uris":{"android":"levelo://app?vid=0ee6d96f-d032-4220-b994-f36efe913c8c","ios":"levelo://app?vid=0ee6d96f-d032-4220-b994-f36efe913c8c"},"vehicle_type_id":"4","last_reported":1745104153,"current_range_meters":10000,"station_id":"ce4bho92rcd13ifvqh4g","pricing_plan_id":"cebpf4jnsgd1na2vs0mg"},{"bike_id":"23b5cb82-5763-4950-a99c-24564a94eea9","system_id":"levelo_inurba_marseille","lat":43.30597,"lon":5.3936,"is_reserved":false,"is_disabled":false,"rental_uris":{"android":"levelo://app?vid=23b5cb82-5763-4950-a99c-24564a94eea9","ios":"levelo://app?vid=23b5cb82-5763-4950-a99c-24564a94eea9"},"vehicle_type_id":"4","last_reported":1745104153,"current_range_meters":10800,"station_id":"ce4bh0p2rcd13ifvqd80","pricing_plan_id":"cebpf4jnsgd1na2vs0mg"},{"bike_id":"138d6608-886e-4863-a664-7df6e5cc9a47","system_id":"levelo_inurba_marseille","lat":43.32674,"lon":5.42197,"is_reserved":false,"is_disabled":false,"rental_uris":{"android":"levelo://app?vid=138d6608-886e-4863-a664-7df6e5cc9a47","ios":"levelo://app?vid=138d6608-886e-4863-a664-7df6e5cc9a47"},"vehicle_type_id":"4","last_reported":1745104153,"current_range_meters":10800,"station_id":"","pricing_plan_id":"cebpf4jnsgd1na2vs0mg"},{"bike_id":"4500bcf7-bacd-47ce-8256-01f941bfb534","system_id":"levelo_inurba_marseille","lat":43.29543,"lon":5.37527,"is_reserved":false,"is_disabled":true,"rental_uris":{"android":"levelo://app?vid=4500bcf7-bacd-47ce-8256-01f941bfb534","ios":"levelo://app?vid=4500bcf7-bacd-47ce-8256-01f941bfb534"},"vehicle_type_id":"4","last_reported":1745104153,"current_range_meters":11200,"station_id":"ce4bgkp2rcd13ifvqbmg","pricing_plan_id":"cebpf4jnsgd1na2vs0mg"},{"bike_id":"06d20799-fe4e-4e2c-aa01-a6a09b9e4c30","system_id":"levelo_inurba_marseille","lat":43.25119,"lon":5.40319,"is_reserved":false,"is_disabled":false,"rental_uris":{"android":"levelo://app?vid=06d20799-fe4e-4e2c-aa01-a6a09b9e4c30","ios":"levelo://app?vid=06d20799-fe4e-4e2c-aa01-a6a09b9e4c30"},"vehicle_type_id":"4","last_reported":1745104153,"current_range_meters":11200,"station_id":"ce4bhlh2rcd13ifvqgig","pricing_plan_id":"cebpf4jnsgd1na2vs0mg"},{"bike_id":"6565ca44-2e63-4f42-a847-09fa2bdb37f3","system_id":"levelo_inurba_marseille","lat":43.31979,"lon":5.38107,"is_reserved":false,"is_disabled":true,"rental_uris":{"android":"levelo://app?vid=6565ca44-2e63-4f42-a847-09fa2bdb37f3","ios":"levelo://app?vid=6565ca44-2e63-4f42-a847-09fa2bdb37f3"},"vehicle_type_id":"4","last_reported":1745104153,"current_range_meters":11200,"station_id":"ce4bhr12rcd13ifvqhpg","pricing_plan_id":"cebpf4jnsgd1na2vs0mg"},{"bike_id":"13f3fb34-9413-413f-89a9-b1ef385d22f2","system_id":"levelo_inurba_marseille","lat":43.23967,"lon":5.36617,"is_reserved":false,"is_disabled":false,"rental_uris":{"android":"levelo://app?vid=13f3fb34-9413-413f-89a9-b1ef385d22f2","ios":"levelo://app?vid=13f3fb34-9413-413f-89a9-b1ef385d22f2"},"vehicle_type_id":"4","last_reported":1745104153,"current_range_meters":11200,"station_id":"ce4bhi12rcd13ifvqfp0","pricing_plan_id":"cebpf4jnsgd1na2vs0mg"},{"bike_id":"684c960c-b276-469d-addf-06704aff51ce","system_id":"levelo_inurba_marseille","lat":43.28898,"lon":5.35803,"is_reserved":false,"is_disabled":false,"rental_uris":{"android":"levelo://app?vid=684c960c-b276-469d-addf-06704aff51ce","ios":"levelo://app?vid=684c960c-b276-469d-addf-06704aff51ce"},"vehicle_type_id":"4","last_reported":1745104153,"current_range_meters":11600,"station_id":"ce4bhb12rcd13ifvqem0","pricing_plan_id":"cebpf4jnsgd1na2vs0mg"},{"bike_id":"24213b37-b766-4d9c-a174-f6bf34920497","system_id":"levelo_inurba_marseille","lat":43.28469,"lon":5.384178,"is_reserved":false,"is_disabled":false,"rental_uris":{"android":"levelo://app?vid=24213b37-b766-4d9c-a174-f6bf34920497","ios":"levelo://app?vid=24213b37-b766-4d9c-a174-f6bf34920497"},"vehicle_type_id":"4","last_reported":1745104153,"current_range_meters":11600,"station_id":"ce4bh512rcd13ifvqe3g","pricing_plan_id":"cebpf4jnsgd1na2vs0mg"},{"bike_id":"ad99e864-4d0b-4b78-ab73-853377ac4da1","system_id":"levelo_inurba_marseille","lat":43.28035,"lon":5.3693,"is_reserved":false,"is_disabled":false,"rental_uris":{"android":"levelo://app?vid=ad99e864-4d0b-4b78-ab73-853377ac4da1","ios":"levelo://app?vid=ad99e864-4d0b-4b78-ab73-853377ac4da1"},"vehicle_type_id":"4","last_reported":1745104153,"current_range_meters":11600,"station_id":"ce4bha12rcd13ifvqef0","pricing_plan_id":"cebpf4jnsgd1na2vs0mg"},{"bike_id":"a92a2982-7d06-4b44-b63a-a4d6fe2ee98b","system_id":"levelo_inurba_marseille","lat":43.29716,"lon":5.36602,"is_reserved":false,"is_disabled":false,"rental_uris":{"android":"levelo://app?vid=a92a2982-7d06-4b44-b63a-a4d6fe2ee98b","ios":"levelo://app?vid=a92a2982-7d06-4b44-b63a-a4d6fe2ee98b"},"vehicle_type_id":"4","last_reported":1745104153,"current_range_meters":11600,"station_id":"ce4bgn12rcd13ifvqbt0","pricing_plan_id":"cebpf4jnsgd1na2vs0mg"},{"bike_id":"4b44bcc4-7340-4196-9d80-e6b8c8ef283e","system_id":"levelo_inurba_marseille","lat":43.29602,"lon":5.38095,"is_reserved":false,"is_disabled":false,"rental_uris":{"android":"levelo://app?vid=4b44bcc4-7340-4196-9d80-e6b8c8ef283e","ios":"levelo://app?vid=4b44bcc4-7340-4196-9d80-e6b8c8ef283e"},"vehicle_type_id":"4","last_reported":1745104153,"current_range_meters":11600,"station_id":"ce4bgl12rcd13ifvqbo0","pricing_plan_id":"cebpf4jnsgd1na2vs0mg"},{"bike_id":"3ef7817b-4812-4407-b7b6-5cedb3d61160","system_id":"levelo_inurba_marseille","lat":43.30791,"lon":5.37635,"is_reserved":false,"is_disabled":false,"rental_uris":{"android":"levelo://app?vid=3ef7817b-4812-4407-b7b6-5cedb3d61160","ios":"levelo://app?vid=3ef7817b-4812-4407-b7b6-5cedb3d61160"},"vehicle_type_id":"4","last_reported":1745104153,"current_range_meters":11600,"station_id":"ce4bgv92rcd13ifvqcq0","pricing_plan_id":"cebpf4jnsgd1na2vs0mg"},{"bike_id":"4e6892ef-dbe3-43e4-bc69-b2da5d802c90","system_id":"levelo_inurba_marseille","lat":43.27386,"lon":5.36253,"is_reserved":false,"is_disabled":true,"rental_uris":{"android":"levelo://app?vid=4e6892ef-dbe3-43e4-bc69-b2da5d802c90","ios":"levelo://app?vid=4e6892ef-dbe3-43e4-bc69-b2da5d802c90"},"vehicle_type_id":"4","last_reported":1745104153,"current_range_meters":12000,"station_id":"ce4bhbh2rcd13ifvqeo0","pricing_plan_id":"cebpf4jnsgd1na2vs0mg"},{"bike_id":"386c0466-92a0-4b14-84ad-ceae0ada9e40","system_id":"levelo_inurba_marseille","lat":43.30911,"lon":5.36874,"is_reserved":false,"is_disabled":true,"rental_uris":{"android":"levelo://app?vid=386c0466-92a0-4b14-84ad-ceae0ada9e40","ios":"levelo://app?vid=386c0466-92a0-4b14-84ad-ceae0ada9e40"},"vehicle_type_id":"4","last_reported":1745104153,"current_range_meters":12000,"station_id":"ce4bgn92rcd13ifvqbvg","pricing_plan_id":"cebpf4jnsgd1na2vs0mg"},{"bike_id":"9e726e22-a2aa-4e5e-9e82-f9fb9f29b196","system_id":"levelo_inurba_marseille","lat":43.25719,"lon":5.41114,"is_reserved":false,"is_disabled":false,"rental_uris":{"android":"levelo://app?vid=9e726e22-a2aa-4e5e-9e82-f9fb9f29b196","ios":"levelo://app?vid=9e726e22-a2aa-4e5e-9e82-f9fb9f29b196"},"vehicle_type_id":"4","last_reported":1745104153,"current_range_meters":12000,"station_id":"ce4bhkp2rcd13ifvqgd0","pricing_plan_id":"cebpf4jnsgd1na2vs0mg"},{"bike_id":"ee77508c-6f9d-400c-9442-6494c8451c48","system_id":"levelo_inurba_marseille","lat":43.25116,"lon":5.40329,"is_reserved":false,"is_disabled":false,"rental_uris":{"android":"levelo://app?vid=ee77508c-6f9d-400c-9442-6494c8451c48","ios":"levelo://app?vid=ee77508c-6f9d-400c-9442-6494c8451c48"},"vehicle_type_id":"4","last_reported":1745104153,"current_range_meters":12000,"station_id":"ce4bhlh2rcd13ifvqgig","pricing_plan_id":"cebpf4jnsgd1na2vs0mg"},{"bike_id":"a7365d94-3c13-45f7-8410-092b80c6163d","system_id":"levelo_inurba_marseille","lat":43.28414,"lon":5.37524,"is_reserved":false,"is_disabled":true,"rental_uris":{"android":"levelo://app?vid=a7365d94-3c13-45f7-8410-092b80c6163d","ios":"levelo://app?vid=a7365d94-3c13-45f7-8410-092b80c6163d"},"vehicle_type_id":"4","last_reported":1745104153,"current_range_meters":12000,"station_id":"ce4bh412rcd13ifvqds0","pricing_plan_id":"cebpf4jnsgd1na2vs0mg"},{"bike_id":"00879c1d-a962-4133-ba5d-8de0f524e6f5","system_id":"levelo_inurba_marseille","lat":43.274983,"lon":5.424574,"is_reserved":false,"is_disabled":false,"rental_uris":{"android":"levelo://app?vid=00879c1d-a962-4133-ba5d-8de0f524e6f5","ios":"levelo://app?vid=00879c1d-a962-4133-ba5d-8de0f524e6f5"},"vehicle_type_id":"4","last_reported":1745104153,"current_range_meters":12000,"station_id":"ce4bhn92rcd13ifvqgrg","pricing_plan_id":"cebpf4jnsgd1na2vs0mg"},{"bike_id":"ef504de2-6abd-4cb7-9699-cdd5d158f844","system_id":"levelo_inurba_marseille","lat":43.280334,"lon":5.369361,"is_reserved":false,"is_disabled":false,"rental_uris":{"android":"levelo://app?vid=ef504de2-6abd-4cb7-9699-cdd5d158f844","ios":"levelo://app?vid=ef504de2-6abd-4cb7-9699-cdd5d158f844"},"vehicle_type_id":"4","last_reported":1745104153,"current_range_meters":12000,"station_id":"ce4bha12rcd13ifvqef0","pricing_plan_id":"cebpf4jnsgd1na2vs0mg"},{"bike_id":"c6eb518d-f8e2-4c5c-8098-b5d751548fcd","system_id":"levelo_inurba_marseille","lat":43.25936,"lon":5.40927,"is_reserved":false,"is_disabled":false,"rental_uris":{"android":"levelo://app?vid=c6eb518d-f8e2-4c5c-8098-b5d751548fcd","ios":"levelo://app?vid=c6eb518d-f8e2-4c5c-8098-b5d751548fcd"},"vehicle_type_id":"4","last_reported":1745104153,"current_range_meters":12400,"station_id":"ce4bhm92rcd13ifvqglg","pricing_plan_id":"cebpf4jnsgd1na2vs0mg"},{"bike_id":"527fac75-0783-4b2c-bd4e-07f2f2fee902","system_id":"levelo_inurba_marseille","lat":43.31121,"lon":5.37768,"is_reserved":false,"is_disabled":true,"rental_uris":{"android":"levelo://app?vid=527fac75-0783-4b2c-bd4e-07f2f2fee902","ios":"levelo://app?vid=527fac75-0783-4b2c-bd4e-07f2f2fee902"},"vehicle_type_id":"4","last_reported":1745104153,"current_range_meters":12400,"station_id":"ce4bgt92rcd13ifvqcg0","pricing_plan_id":"cebpf4jnsgd1na2vs0mg"},{"bike_id":"396ea9f0-d981-4e1c-a0e6-efd305b04d65","system_id":"levelo_inurba_marseille","lat":43.27914,"lon":5.37992,"is_reserved":false,"is_disabled":false,"rental_uris":{"android":"levelo://app?vid=396ea9f0-d981-4e1c-a0e6-efd305b04d65","ios":"levelo://app?vid=396ea9f0-d981-4e1c-a0e6-efd305b04d65"},"vehicle_type_id":"4","last_reported":1745104153,"current_range_meters":12400,"station_id":"ce4bhf92rcd13ifvqf50","pricing_plan_id":"cebpf4jnsgd1na2vs0mg"},{"bike_id":"7cc92e6e-2629-4b17-a319-4be81dbadda0","system_id":"levelo_inurba_marseille","lat":43.30938,"lon":5.40137,"is_reserved":false,"is_disabled":false,"rental_uris":{"android":"levelo://app?vid=7cc92e6e-2629-4b17-a319-4be81dbadda0","ios":"levelo://app?vid=7cc92e6e-2629-4b17-a319-4be81dbadda0"},"vehicle_type_id":"4","last_reported":1745104153,"current_range_meters":12400,"station_id":"ce4bgvp2rcd13ifvqct0","pricing_plan_id":"cebpf4jnsgd1na2vs0mg"},{"bike_id":"f970c391-3d68-4ffb-91b3-5dbb9dd22fa0","system_id":"levelo_inurba_marseille","lat":43.29618,"lon":5.38061,"is_reserved":false,"is_disabled":false,"rental_uris":{"android":"levelo://app?vid=f970c391-3d68-4ffb-91b3-5dbb9dd22fa0","ios":"levelo://app?vid=f970c391-3d68-4ffb-91b3-5dbb9dd22fa0"},"vehicle_type_id":"4","last_reported":1745104153,"current_range_meters":12800,"station_id":"ce4bgl12rcd13ifvqbo0","pricing_plan_id":"cebpf4jnsgd1na2vs0mg"},{"bike_id":"15572984-94dd-404c-b34b-0eba775da91a","system_id":"levelo_inurba_marseille","lat":43.25016,"lon":5.3891,"is_reserved":false,"is_disabled":false,"rental_uris":{"android":"levelo://app?vid=15572984-94dd-404c-b34b-0eba775da91a","ios":"levelo://app?vid=15572984-94dd-404c-b34b-0eba775da91a"},"vehicle_type_id":"4","last_reported":1745104153,"current_range_meters":13600,"station_id":"ce4bhgp2rcd13ifvqfd0","pricing_plan_id":"cebpf4jnsgd1na2vs0mg"},{"bike_id":"3708505e-d311-493d-85d2-8c21dea28764","system_id":"levelo_inurba_marseille","lat":43.30632,"lon":5.40072,"is_reserved":false,"is_disabled":false,"rental_uris":{"android":"levelo://app?vid=3708505e-d311-493d-85d2-8c21dea28764","ios":"levelo://app?vid=3708505e-d311-493d-85d2-8c21dea28764"},"vehicle_type_id":"4","last_reported":1745104153,"current_range_meters":13600,"station_id":"ce4bh112rcd13ifvqda0","pricing_plan_id":"cebpf4jnsgd1na2vs0mg"},{"bike_id":"5b24d86a-8b08-47db-8ee1-38d6ccaf2fa6","system_id":"levelo_inurba_marseille","lat":43.29882,"lon":5.38903,"is_reserved":false,"is_disabled":false,"rental_uris":{"android":"levelo://app?vid=5b24d86a-8b08-47db-8ee1-38d6ccaf2fa6","ios":"levelo://app?vid=5b24d86a-8b08-47db-8ee1-38d6ccaf2fa6"},"vehicle_type_id":"4","last_reported":1745104153,"current_range_meters":13600,"station_id":"ce4bh392rcd13ifvqdl0","pricing_plan_id":"cebpf4jnsgd1na2vs0mg"},{"bike_id":"33399c5a-7b71-4ae2-a964-55b2f2e618d0","system_id":"levelo_inurba_marseille","lat":43.30223,"lon":5.36553,"is_reserved":false,"is_disabled":true,"rental_uris":{"android":"levelo://app?vid=33399c5a-7b71-4ae2-a964-55b2f2e618d0","ios":"levelo://app?vid=33399c5a-7b71-4ae2-a964-55b2f2e618d0"},"vehicle_type_id":"4","last_reported":1745104153,"current_range_meters":13600,"station_id":"","pricing_plan_id":"cebpf4jnsgd1na2vs0mg"},{"bike_id":"1886fb80-2895-40f7-844d-7933f5d904dc","system_id":"levelo_inurba_marseille","lat":43.27875,"lon":5.39309,"is_reserved":false,"is_disabled":false,"rental_uris":{"android":"levelo://app?vid=1886fb80-2895-40f7-844d-7933f5d904dc","ios":"levelo://app?vid=1886fb80-2895-40f7-844d-7933f5d904dc"},"vehicle_type_id":"4","last_reported":1745104153,"current_range_meters":13600,"station_id":"","pricing_plan_id":"cebpf4jnsgd1na2vs0mg"},{"bike_id":"18e1aa38-3f06-458a-ab83-66c2e6b2cc1b","system_id":"levelo_inurba_marseille","lat":43.31361,"lon":5.38484,"is_reserved":false,"is_disabled":false,"rental_uris":{"android":"levelo://app?vid=18e1aa38-3f06-458a-ab83-66c2e6b2cc1b","ios":"levelo://app?vid=18e1aa38-3f06-458a-ab83-66c2e6b2cc1b"},"vehicle_type_id":"4","last_reported":1745104153,"current_range_meters":13600,"station_id":"ce4bgt92rcd13ifvqcf0","pricing_plan_id":"cebpf4jnsgd1na2vs0mg"},{"bike_id":"0c637000-3d35-4368-aed5-988cf43a6525","system_id":"levelo_inurba_marseille","lat":43.30122,"lon":5.39856,"is_reserved":false,"is_disabled":false,"rental_uris":{"android":"levelo://app?vid=0c637000-3d35-4368-aed5-988cf43a6525","ios":"levelo://app?vid=0c637000-3d35-4368-aed5-988cf43a6525"},"vehicle_type_id":"4","last_reported":1745104153,"current_range_meters":14000,"station_id":"ce4bh0h2rcd13ifvqd40","pricing_plan_id":"cebpf4jnsgd1na2vs0mg"},{"bike_id":"aee7beeb-e8af-4cc7-ab9f-f5593a3a0703","system_id":"levelo_inurba_marseille","lat":43.30891,"lon":5.39631,"is_reserved":false,"is_disabled":false,"rental_uris":{"android":"levelo://app?vid=aee7beeb-e8af-4cc7-ab9f-f5593a3a0703","ios":"levelo://app?vid=aee7beeb-e8af-4cc7-ab9f-f5593a3a0703"},"vehicle_type_id":"4","last_reported":1745104153,"current_range_meters":13600,"station_id":"ce4bh012rcd13ifvqcv0","pricing_plan_id":"cebpf4jnsgd1na2vs0mg"},{"bike_id":"1ce93995-f7d9-44e8-aeb9-c8e93167842a","system_id":"levelo_inurba_marseille","lat":43.31378,"lon":5.38503,"is_reserved":false,"is_disabled":false,"rental_uris":{"android":"levelo://app?vid=1ce93995-f7d9-44e8-aeb9-c8e93167842a","ios":"levelo://app?vid=1ce93995-f7d9-44e8-aeb9-c8e93167842a"},"vehicle_type_id":"4","last_reported":1745104153,"current_range_meters":14000,"station_id":"ce4bgt92rcd13ifvqcf0","pricing_plan_id":"cebpf4jnsgd1na2vs0mg"},{"bike_id":"e47ec571-515c-40d7-8002-8d9916e2b8a9","system_id":"levelo_inurba_marseille","lat":43.28715,"lon":5.37899,"is_reserved":false,"is_disabled":false,"rental_uris":{"android":"levelo://app?vid=e47ec571-515c-40d7-8002-8d9916e2b8a9","ios":"levelo://app?vid=e47ec571-515c-40d7-8002-8d9916e2b8a9"},"vehicle_type_id":"4","last_reported":1745104153,"current_range_meters":14000,"station_id":"ce4bh9p2rcd13ifvqec0","pricing_plan_id":"cebpf4jnsgd1na2vs0mg"},{"bike_id":"add72ab2-a4c3-4777-a0b2-2af194e62ce2","system_id":"levelo_inurba_marseille","lat":43.29526,"lon":5.37509,"is_reserved":false,"is_disabled":false,"rental_uris":{"android":"levelo://app?vid=add72ab2-a4c3-4777-a0b2-2af194e62ce2","ios":"levelo://app?vid=add72ab2-a4c3-4777-a0b2-2af194e62ce2"},"vehicle_type_id":"4","last_reported":1745104153,"current_range_meters":14000,"station_id":"ce4bgkp2rcd13ifvqbmg","pricing_plan_id":"cebpf4jnsgd1na2vs0mg"},{"bike_id":"42ca51b4-3fde-468a-8b4c-241a924d305d","system_id":"levelo_inurba_marseille","lat":43.30353,"lon":5.4047,"is_reserved":false,"is_disabled":false,"rental_uris":{"android":"levelo://app?vid=42ca51b4-3fde-468a-8b4c-241a924d305d","ios":"levelo://app?vid=42ca51b4-3fde-468a-8b4c-241a924d305d"},"vehicle_type_id":"4","last_reported":1745104153,"current_range_meters":14400,"station_id":"ce4bh012rcd13ifvqd10","pricing_plan_id":"cebpf4jnsgd1na2vs0mg"},{"bike_id":"beb9bda7-61e8-421f-917a-5d3a7bbc7c3a","system_id":"levelo_inurba_marseille","lat":43.27426,"lon":5.39416,"is_reserved":false,"is_disabled":false,"rental_uris":{"android":"levelo://app?vid=beb9bda7-61e8-421f-917a-5d3a7bbc7c3a","ios":"levelo://app?vid=beb9bda7-61e8-421f-917a-5d3a7bbc7c3a"},"vehicle_type_id":"4","last_reported":1745104153,"current_range_meters":14400,"station_id":"ce4bhdp2rcd13ifvqf20","pricing_plan_id":"cebpf4jnsgd1na2vs0mg"},{"bike_id":"352294dd-af92-4116-82a7-f0f1e7ca4ad4","system_id":"levelo_inurba_marseille","lat":43.3119,"lon":5.40123,"is_reserved":false,"is_disabled":false,"rental_uris":{"android":"levelo://app?vid=352294dd-af92-4116-82a7-f0f1e7ca4ad4","ios":"levelo://app?vid=352294dd-af92-4116-82a7-f0f1e7ca4ad4"},"vehicle_type_id":"4","last_reported":1745104153,"current_range_meters":14000,"station_id":"ce4bh092rcd13ifvqd30","pricing_plan_id":"cebpf4jnsgd1na2vs0mg"},{"bike_id":"2fd4ea47-86c5-470d-92db-d97b9f1ce937","system_id":"levelo_inurba_marseille","lat":43.28111,"lon":5.37842,"is_reserved":false,"is_disabled":false,"rental_uris":{"android":"levelo://app?vid=2fd4ea47-86c5-470d-92db-d97b9f1ce937","ios":"levelo://app?vid=2fd4ea47-86c5-470d-92db-d97b9f1ce937"},"vehicle_type_id":"4","last_reported":1745104153,"current_range_meters":14400,"station_id":"ce4bha12rcd13ifvqee0","pricing_plan_id":"cebpf4jnsgd1na2vs0mg"},{"bike_id":"8ea95ed7-78b3-4a49-9c94-6fa5948572bf","system_id":"levelo_inurba_marseille","lat":43.30533,"lon":5.3844,"is_reserved":false,"is_disabled":false,"rental_uris":{"android":"levelo://app?vid=8ea95ed7-78b3-4a49-9c94-6fa5948572bf","ios":"levelo://app?vid=8ea95ed7-78b3-4a49-9c94-6fa5948572bf"},"vehicle_type_id":"4","last_reported":1745104153,"current_range_meters":14400,"station_id":"ce4bgg92rcd13ifvqb30","pricing_plan_id":"cebpf4jnsgd1na2vs0mg"},{"bike_id":"e7c1e638-7f54-40b4-b965-ceb603526a07","system_id":"levelo_inurba_marseille","lat":43.31385,"lon":5.38515,"is_reserved":false,"is_disabled":false,"rental_uris":{"android":"levelo://app?vid=e7c1e638-7f54-40b4-b965-ceb603526a07","ios":"levelo://app?vid=e7c1e638-7f54-40b4-b965-ceb603526a07"},"vehicle_type_id":"4","last_reported":1745104153,"current_range_meters":14400,"station_id":"ce4bgt92rcd13ifvqcf0","pricing_plan_id":"cebpf4jnsgd1na2vs0mg"},{"bike_id":"31388e1f-cdb6-4568-97ad-2cf2357ad0e0","system_id":"levelo_inurba_marseille","lat":43.30213,"lon":5.39465,"is_reserved":false,"is_disabled":false,"rental_uris":{"android":"levelo://app?vid=31388e1f-cdb6-4568-97ad-2cf2357ad0e0","ios":"levelo://app?vid=31388e1f-cdb6-4568-97ad-2cf2357ad0e0"},"vehicle_type_id":"4","last_reported":1745104153,"current_range_meters":14800,"station_id":"ce4bgl92rcd13ifvqbq0","pricing_plan_id":"cebpf4jnsgd1na2vs0mg"},{"bike_id":"e2e275b0-7733-4521-8a7a-33d0200db17d","system_id":"levelo_inurba_marseille","lat":43.26205,"lon":5.37917,"is_reserved":false,"is_disabled":false,"rental_uris":{"android":"levelo://app?vid=e2e275b0-7733-4521-8a7a-33d0200db17d","ios":"levelo://app?vid=e2e275b0-7733-4521-8a7a-33d0200db17d"},"vehicle_type_id":"4","last_reported":1745104153,"current_range_meters":14800,"station_id":"ce4bhjp2rcd13ifvqg90","pricing_plan_id":"cebpf4jnsgd1na2vs0mg"},{"bike_id":"5e7e83d6-8284-48e9-9372-797b9c44861d","system_id":"levelo_inurba_marseille","lat":43.26185,"lon":5.37879,"is_reserved":false,"is_disabled":false,"rental_uris":{"android":"levelo://app?vid=5e7e83d6-8284-48e9-9372-797b9c44861d","ios":"levelo://app?vid=5e7e83d6-8284-48e9-9372-797b9c44861d"},"vehicle_type_id":"4","last_reported":1745104153,"current_range_meters":14800,"station_id":"ce4bhjp2rcd13ifvqg90","pricing_plan_id":"cebpf4jnsgd1na2vs0mg"},{"bike_id":"ee9c6b20-39f7-4ea9-804e-b08eb5bb4cdc","system_id":"levelo_inurba_marseille","lat":43.28615,"lon":5.35102,"is_reserved":false,"is_disabled":false,"rental_uris":{"android":"levelo://app?vid=ee9c6b20-39f7-4ea9-804e-b08eb5bb4cdc","ios":"levelo://app?vid=ee9c6b20-39f7-4ea9-804e-b08eb5bb4cdc"},"vehicle_type_id":"4","last_reported":1745104153,"current_range_meters":14800,"station_id":"","pricing_plan_id":"cebpf4jnsgd1na2vs0mg"},{"bike_id":"dcc78168-aa9b-4738-a163-c4551731c530","system_id":"levelo_inurba_marseille","lat":43.23053,"lon":5.35531,"is_reserved":false,"is_disabled":false,"rental_uris":{"android":"levelo://app?vid=dcc78168-aa9b-4738-a163-c4551731c530","ios":"levelo://app?vid=dcc78168-aa9b-4738-a163-c4551731c530"},"vehicle_type_id":"4","last_reported":1745104153,"current_range_meters":15200,"station_id":"cpo3342slgdg3j2ifvpg","pricing_plan_id":"cebpf4jnsgd1na2vs0mg"},{"bike_id":"537ae7fb-f31d-4ccb-b828-7224f4df0d90","system_id":"levelo_inurba_marseille","lat":43.30305,"lon":5.39183,"is_reserved":false,"is_disabled":false,"rental_uris":{"android":"levelo://app?vid=537ae7fb-f31d-4ccb-b828-7224f4df0d90","ios":"levelo://app?vid=537ae7fb-f31d-4ccb-b828-7224f4df0d90"},"vehicle_type_id":"4","last_reported":1745104153,"current_range_meters":15200,"station_id":"ce4bgkh2rcd13ifvqbk0","pricing_plan_id":"cebpf4jnsgd1na2vs0mg"},{"bike_id":"a45fd913-00b8-4129-b5e8-0f61f6cfe889","system_id":"levelo_inurba_marseille","lat":43.30326,"lon":5.40439,"is_reserved":false,"is_disabled":false,"rental_uris":{"android":"levelo://app?vid=a45fd913-00b8-4129-b5e8-0f61f6cfe889","ios":"levelo://app?vid=a45fd913-00b8-4129-b5e8-0f61f6cfe889"},"vehicle_type_id":"4","last_reported":1745104153,"current_range_meters":15200,"station_id":"ce4bh012rcd13ifvqd10","pricing_plan_id":"cebpf4jnsgd1na2vs0mg"},{"bike_id":"d696ec8c-4185-4103-ab1d-addb8a47ea66","system_id":"levelo_inurba_marseille","lat":43.29892,"lon":5.38135,"is_reserved":false,"is_disabled":false,"rental_uris":{"android":"levelo://app?vid=d696ec8c-4185-4103-ab1d-addb8a47ea66","ios":"levelo://app?vid=d696ec8c-4185-4103-ab1d-addb8a47ea66"},"vehicle_type_id":"4","last_reported":1745104153,"current_range_meters":15200,"station_id":"ce4bgj12rcd13ifvqbc0","pricing_plan_id":"cebpf4jnsgd1na2vs0mg"},{"bike_id":"4ff7f8cf-2e9c-4563-bbaa-9d75d0f317dd","system_id":"levelo_inurba_marseille","lat":43.31695,"lon":5.40461,"is_reserved":false,"is_disabled":false,"rental_uris":{"android":"levelo://app?vid=4ff7f8cf-2e9c-4563-bbaa-9d75d0f317dd","ios":"levelo://app?vid=4ff7f8cf-2e9c-4563-bbaa-9d75d0f317dd"},"vehicle_type_id":"4","last_reported":1745104153,"current_range_meters":15200,"station_id":"ce4bh012rcd13ifvqd00","pricing_plan_id":"cebpf4jnsgd1na2vs0mg"},{"bike_id":"d5ef647d-00ca-43ce-8de2-a9826ded3f15","system_id":"levelo_inurba_marseille","lat":43.21213,"lon":5.35082,"is_reserved":false,"is_disabled":false,"rental_uris":{"android":"levelo://app?vid=d5ef647d-00ca-43ce-8de2-a9826ded3f15","ios":"levelo://app?vid=d5ef647d-00ca-43ce-8de2-a9826ded3f15"},"vehicle_type_id":"4","last_reported":1745104153,"current_range_meters":15200,"station_id":"st_cvj6sg6p6f1abm77japg","pricing_plan_id":"cebpf4jnsgd1na2vs0mg"},{"bike_id":"0efc0adb-0d75-4959-aaac-2fafa72c4ede","system_id":"levelo_inurba_marseille","lat":43.29194,"lon":5.36895,"is_reserved":false,"is_disabled":false,"rental_uris":{"android":"levelo://app?vid=0efc0adb-0d75-4959-aaac-2fafa72c4ede","ios":"levelo://app?vid=0efc0adb-0d75-4959-aaac-2fafa72c4ede"},"vehicle_type_id":"4","last_reported":1745104153,"current_range_meters":16000,"station_id":"","pricing_plan_id":"cebpf4jnsgd1na2vs0mg"},{"bike_id":"3c68d4af-f244-4d5b-a673-170645748e37","system_id":"levelo_inurba_marseille","lat":43.27682,"lon":5.39794,"is_reserved":false,"is_disabled":false,"rental_uris":{"android":"levelo://app?vid=3c68d4af-f244-4d5b-a673-170645748e37","ios":"levelo://app?vid=3c68d4af-f244-4d5b-a673-170645748e37"},"vehicle_type_id":"4","last_reported":1745104153,"current_range_meters":16000,"station_id":"","pricing_plan_id":"cebpf4jnsgd1na2vs0mg"},{"bike_id":"55101945-fe55-415f-8c4e-d5c16b9640ff","system_id":"levelo_inurba_marseille","lat":43.31072,"lon":5.38358,"is_reserved":false,"is_disabled":false,"rental_uris":{"android":"levelo://app?vid=55101945-fe55-415f-8c4e-d5c16b9640ff","ios":"levelo://app?vid=55101945-fe55-415f-8c4e-d5c16b9640ff"},"vehicle_type_id":"4","last_reported":1745104153,"current_range_meters":16000,"station_id":"ce4bgv92rcd13ifvqcr0","pricing_plan_id":"cebpf4jnsgd1na2vs0mg"},{"bike_id":"e34d7a70-e15a-4962-8b18-40d5c8097fce","system_id":"levelo_inurba_marseille","lat":43.28456,"lon":5.35905,"is_reserved":false,"is_disabled":false,"rental_uris":{"android":"levelo://app?vid=e34d7a70-e15a-4962-8b18-40d5c8097fce","ios":"levelo://app?vid=e34d7a70-e15a-4962-8b18-40d5c8097fce"},"vehicle_type_id":"4","last_reported":1745104153,"current_range_meters":16000,"station_id":"ce4bhah2rcd13ifvqei0","pricing_plan_id":"cebpf4jnsgd1na2vs0mg"},{"bike_id":"761aac66-306a-4f46-8bb8-02f551c516bd","system_id":"levelo_inurba_marseille","lat":43.33602,"lon":5.41023,"is_reserved":false,"is_disabled":false,"rental_uris":{"android":"levelo://app?vid=761aac66-306a-4f46-8bb8-02f551c516bd","ios":"levelo://app?vid=761aac66-306a-4f46-8bb8-02f551c516bd"},"vehicle_type_id":"4","last_reported":1745104153,"current_range_meters":16000,"station_id":"ce4bhqh2rcd13ifvqhmg","pricing_plan_id":"cebpf4jnsgd1na2vs0mg"},{"bike_id":"fcf8adb9-749e-492d-949f-17df5b7dbc62","system_id":"levelo_inurba_marseille","lat":43.284469,"lon":5.392086,"is_reserved":false,"is_disabled":false,"rental_uris":{"android":"levelo://app?vid=fcf8adb9-749e-492d-949f-17df5b7dbc62","ios":"levelo://app?vid=fcf8adb9-749e-492d-949f-17df5b7dbc62"},"vehicle_type_id":"4","last_reported":1745104153,"current_range_meters":16000,"station_id":"ce4bhoh2rcd13ifvqh5g","pricing_plan_id":"cebpf4jnsgd1na2vs0mg"},{"bike_id":"4cdb0a0f-6366-43af-85c7-3c43d75a4386","system_id":"levelo_inurba_marseille","lat":43.31908,"lon":5.36737,"is_reserved":false,"is_disabled":false,"rental_uris":{"android":"levelo://app?vid=4cdb0a0f-6366-43af-85c7-3c43d75a4386","ios":"levelo://app?vid=4cdb0a0f-6366-43af-85c7-3c43d75a4386"},"vehicle_type_id":"4","last_reported":1745104153,"current_range_meters":16000,"station_id":"","pricing_plan_id":"cebpf4jnsgd1na2vs0mg"},{"bike_id":"a2abe0a9-067d-4ecc-8535-157d759ab9a4","system_id":"levelo_inurba_marseille","lat":43.28567,"lon":5.39505,"is_reserved":false,"is_disabled":false,"rental_uris":{"android":"levelo://app?vid=a2abe0a9-067d-4ecc-8535-157d759ab9a4","ios":"levelo://app?vid=a2abe0a9-067d-4ecc-8535-157d759ab9a4"},"vehicle_type_id":"4","last_reported":1745104153,"current_range_meters":16400,"station_id":"ce4bh292rcd13ifvqdg0","pricing_plan_id":"cebpf4jnsgd1na2vs0mg"},{"bike_id":"89dece9e-fbe4-4579-8f17-0d8766c4a6c4","system_id":"levelo_inurba_marseille","lat":43.2408,"lon":5.3776,"is_reserved":false,"is_disabled":false,"rental_uris":{"android":"levelo://app?vid=89dece9e-fbe4-4579-8f17-0d8766c4a6c4","ios":"levelo://app?vid=89dece9e-fbe4-4579-8f17-0d8766c4a6c4"},"vehicle_type_id":"4","last_reported":1745104153,"current_range_meters":16400,"station_id":"ce4bhnp2rcd13ifvqgvg","pricing_plan_id":"cebpf4jnsgd1na2vs0mg"},{"bike_id":"84774138-0348-4bef-b463-909ef7da54d1","system_id":"levelo_inurba_marseille","lat":43.3138,"lon":5.38491,"is_reserved":false,"is_disabled":false,"rental_uris":{"android":"levelo://app?vid=84774138-0348-4bef-b463-909ef7da54d1","ios":"levelo://app?vid=84774138-0348-4bef-b463-909ef7da54d1"},"vehicle_type_id":"4","last_reported":1745104153,"current_range_meters":16400,"station_id":"ce4bgt92rcd13ifvqcf0","pricing_plan_id":"cebpf4jnsgd1na2vs0mg"},{"bike_id":"3f751b92-ba1e-472e-8fc6-c2335c4cf256","system_id":"levelo_inurba_marseille","lat":43.29577,"lon":5.37515,"is_reserved":false,"is_disabled":false,"rental_uris":{"android":"levelo://app?vid=3f751b92-ba1e-472e-8fc6-c2335c4cf256","ios":"levelo://app?vid=3f751b92-ba1e-472e-8fc6-c2335c4cf256"},"vehicle_type_id":"4","last_reported":1745104153,"current_range_meters":16000,"station_id":"ce4bgh92rcd13ifvqb50","pricing_plan_id":"cebpf4jnsgd1na2vs0mg"},{"bike_id":"f6b06603-46d7-458b-9dc9-fbc0bce785af","system_id":"levelo_inurba_marseille","lat":43.25159,"lon":5.40353,"is_reserved":false,"is_disabled":false,"rental_uris":{"android":"levelo://app?vid=f6b06603-46d7-458b-9dc9-fbc0bce785af","ios":"levelo://app?vid=f6b06603-46d7-458b-9dc9-fbc0bce785af"},"vehicle_type_id":"4","last_reported":1745104153,"current_range_meters":16400,"station_id":"ce4bhlh2rcd13ifvqgig","pricing_plan_id":"cebpf4jnsgd1na2vs0mg"},{"bike_id":"e59438bd-e522-4d6e-8986-595969b979a9","system_id":"levelo_inurba_marseille","lat":43.26563,"lon":5.37274,"is_reserved":false,"is_disabled":false,"rental_uris":{"android":"levelo://app?vid=e59438bd-e522-4d6e-8986-595969b979a9","ios":"levelo://app?vid=e59438bd-e522-4d6e-8986-595969b979a9"},"vehicle_type_id":"4","last_reported":1745104153,"current_range_meters":16400,"station_id":"ce4bhg12rcd13ifvqf70","pricing_plan_id":"cebpf4jnsgd1na2vs0mg"},{"bike_id":"41f743d5-a741-4149-b5f0-62becf5c1ef5","system_id":"levelo_inurba_marseille","lat":43.290343,"lon":5.399537,"is_reserved":false,"is_disabled":false,"rental_uris":{"android":"levelo://app?vid=41f743d5-a741-4149-b5f0-62becf5c1ef5","ios":"levelo://app?vid=41f743d5-a741-4149-b5f0-62becf5c1ef5"},"vehicle_type_id":"4","last_reported":1745104153,"current_range_meters":16400,"station_id":"ce4bh392rcd13ifvqdm0","pricing_plan_id":"cebpf4jnsgd1na2vs0mg"},{"bike_id":"6019390b-7088-4c04-b80b-2acf1cb29041","system_id":"levelo_inurba_marseille","lat":43.29399,"lon":5.41242,"is_reserved":false,"is_disabled":false,"rental_uris":{"android":"levelo://app?vid=6019390b-7088-4c04-b80b-2acf1cb29041","ios":"levelo://app?vid=6019390b-7088-4c04-b80b-2acf1cb29041"},"vehicle_type_id":"4","last_reported":1745104153,"current_range_meters":16800,"station_id":"","pricing_plan_id":"cebpf4jnsgd1na2vs0mg"},{"bike_id":"cab64969-2640-47ee-abb9-f11afb1f3a59","system_id":"levelo_inurba_marseille","lat":43.28613,"lon":5.35093,"is_reserved":false,"is_disabled":true,"rental_uris":{"android":"levelo://app?vid=cab64969-2640-47ee-abb9-f11afb1f3a59","ios":"levelo://app?vid=cab64969-2640-47ee-abb9-f11afb1f3a59"},"vehicle_type_id":"4","last_reported":1745104153,"current_range_meters":16800,"station_id":"ce4bhch2rcd13ifvqeug","pricing_plan_id":"cebpf4jnsgd1na2vs0mg"},{"bike_id":"ce034b4a-bb67-4c72-856c-a0c7ed4c8b8f","system_id":"levelo_inurba_marseille","lat":43.23442,"lon":5.3592,"is_reserved":false,"is_disabled":false,"rental_uris":{"android":"levelo://app?vid=ce034b4a-bb67-4c72-856c-a0c7ed4c8b8f","ios":"levelo://app?vid=ce034b4a-bb67-4c72-856c-a0c7ed4c8b8f"},"vehicle_type_id":"4","last_reported":1745104153,"current_range_meters":16800,"station_id":"","pricing_plan_id":"cebpf4jnsgd1na2vs0mg"},{"bike_id":"5801a3ca-80c0-4f04-85da-122046aa79e1","system_id":"levelo_inurba_marseille","lat":43.29038,"lon":5.43804,"is_reserved":false,"is_disabled":false,"rental_uris":{"android":"levelo://app?vid=5801a3ca-80c0-4f04-85da-122046aa79e1","ios":"levelo://app?vid=5801a3ca-80c0-4f04-85da-122046aa79e1"},"vehicle_type_id":"4","last_reported":1745104153,"current_range_meters":16800,"station_id":"","pricing_plan_id":"cebpf4jnsgd1na2vs0mg"},{"bike_id":"d5bf3e51-83b4-419b-b784-58ab0f4a9ad2","system_id":"levelo_inurba_marseille","lat":43.21197,"lon":5.35067,"is_reserved":false,"is_disabled":false,"rental_uris":{"android":"levelo://app?vid=d5bf3e51-83b4-419b-b784-58ab0f4a9ad2","ios":"levelo://app?vid=d5bf3e51-83b4-419b-b784-58ab0f4a9ad2"},"vehicle_type_id":"4","last_reported":1745104153,"current_range_meters":16800,"station_id":"st_cvj6sg6p6f1abm77japg","pricing_plan_id":"cebpf4jnsgd1na2vs0mg"},{"bike_id":"859e2a4f-141b-4375-85ea-cec166f58097","system_id":"levelo_inurba_marseille","lat":43.28724,"lon":5.36082,"is_reserved":false,"is_disabled":false,"rental_uris":{"android":"levelo://app?vid=859e2a4f-141b-4375-85ea-cec166f58097","ios":"levelo://app?vid=859e2a4f-141b-4375-85ea-cec166f58097"},"vehicle_type_id":"4","last_reported":1745104153,"current_range_meters":16800,"station_id":"cki0cbj6b192h4jlfktg","pricing_plan_id":"cebpf4jnsgd1na2vs0mg"},{"bike_id":"4ac1ed27-32b0-460a-a266-c6fc97fec0bc","system_id":"levelo_inurba_marseille","lat":43.28881,"lon":5.35831,"is_reserved":false,"is_disabled":false,"rental_uris":{"android":"levelo://app?vid=4ac1ed27-32b0-460a-a266-c6fc97fec0bc","ios":"levelo://app?vid=4ac1ed27-32b0-460a-a266-c6fc97fec0bc"},"vehicle_type_id":"4","last_reported":1745104153,"current_range_meters":16800,"station_id":"ce4bhb12rcd13ifvqem0","pricing_plan_id":"cebpf4jnsgd1na2vs0mg"},{"bike_id":"11fdd5a2-1fee-421d-af4c-d2711885ee87","system_id":"levelo_inurba_marseille","lat":43.241704,"lon":5.36406,"is_reserved":false,"is_disabled":false,"rental_uris":{"android":"levelo://app?vid=11fdd5a2-1fee-421d-af4c-d2711885ee87","ios":"levelo://app?vid=11fdd5a2-1fee-421d-af4c-d2711885ee87"},"vehicle_type_id":"4","last_reported":1745104153,"current_range_meters":16800,"station_id":"cpo36qri1sfpv3e86is0","pricing_plan_id":"cebpf4jnsgd1na2vs0mg"},{"bike_id":"d227ea9c-7792-4463-9253-d38241da3c72","system_id":"levelo_inurba_marseille","lat":43.21778,"lon":5.3459,"is_reserved":false,"is_disabled":true,"rental_uris":{"android":"levelo://app?vid=d227ea9c-7792-4463-9253-d38241da3c72","ios":"levelo://app?vid=d227ea9c-7792-4463-9253-d38241da3c72"},"vehicle_type_id":"4","last_reported":1745104153,"current_range_meters":16800,"station_id":"st_cvj6r9ubvosntc0bgbag","pricing_plan_id":"cebpf4jnsgd1na2vs0mg"},{"bike_id":"82cf3a3d-2e8e-4531-9d06-5b9b88cd8ad9","system_id":"levelo_inurba_marseille","lat":43.30896,"lon":5.37206,"is_reserved":false,"is_disabled":false,"rental_uris":{"android":"levelo://app?vid=82cf3a3d-2e8e-4531-9d06-5b9b88cd8ad9","ios":"levelo://app?vid=82cf3a3d-2e8e-4531-9d06-5b9b88cd8ad9"},"vehicle_type_id":"4","last_reported":1745104153,"current_range_meters":16800,"station_id":"ce4bguh2rcd13ifvqckg","pricing_plan_id":"cebpf4jnsgd1na2vs0mg"},{"bike_id":"de9c76e9-5b34-44dc-89d9-de6e318e6be4","system_id":"levelo_inurba_marseille","lat":43.282195,"lon":5.385847,"is_reserved":false,"is_disabled":false,"rental_uris":{"android":"levelo://app?vid=de9c76e9-5b34-44dc-89d9-de6e318e6be4","ios":"levelo://app?vid=de9c76e9-5b34-44dc-89d9-de6e318e6be4"},"vehicle_type_id":"4","last_reported":1745104153,"current_range_meters":17200,"station_id":"","pricing_plan_id":"cebpf4jnsgd1na2vs0mg"},{"bike_id":"b751cf70-4d02-4d28-803f-1b7068c1014d","system_id":"levelo_inurba_marseille","lat":43.29882,"lon":5.38909,"is_reserved":false,"is_disabled":false,"rental_uris":{"android":"levelo://app?vid=b751cf70-4d02-4d28-803f-1b7068c1014d","ios":"levelo://app?vid=b751cf70-4d02-4d28-803f-1b7068c1014d"},"vehicle_type_id":"4","last_reported":1745104153,"current_range_meters":17200,"station_id":"ce4bh392rcd13ifvqdl0","pricing_plan_id":"cebpf4jnsgd1na2vs0mg"},{"bike_id":"f7027e6a-48d2-4cae-b50c-97b01f670552","system_id":"levelo_inurba_marseille","lat":43.23965,"lon":5.36595,"is_reserved":false,"is_disabled":false,"rental_uris":{"android":"levelo://app?vid=f7027e6a-48d2-4cae-b50c-97b01f670552","ios":"levelo://app?vid=f7027e6a-48d2-4cae-b50c-97b01f670552"},"vehicle_type_id":"4","last_reported":1745104153,"current_range_meters":17200,"station_id":"ce4bhi12rcd13ifvqfp0","pricing_plan_id":"cebpf4jnsgd1na2vs0mg"},{"bike_id":"c6ed9527-ff50-4dba-b75d-77b504ff304a","system_id":"levelo_inurba_marseille","lat":43.25083,"lon":5.3952,"is_reserved":false,"is_disabled":false,"rental_uris":{"android":"levelo://app?vid=c6ed9527-ff50-4dba-b75d-77b504ff304a","ios":"levelo://app?vid=c6ed9527-ff50-4dba-b75d-77b504ff304a"},"vehicle_type_id":"4","last_reported":1745104153,"current_range_meters":17200,"station_id":"ce4bhm12rcd13ifvqgkg","pricing_plan_id":"cebpf4jnsgd1na2vs0mg"},{"bike_id":"d53e964c-f934-484c-a259-3e8f23cdd819","system_id":"levelo_inurba_marseille","lat":43.33752,"lon":5.39195,"is_reserved":false,"is_disabled":false,"rental_uris":{"android":"levelo://app?vid=d53e964c-f934-484c-a259-3e8f23cdd819","ios":"levelo://app?vid=d53e964c-f934-484c-a259-3e8f23cdd819"},"vehicle_type_id":"4","last_reported":1745104153,"current_range_meters":17600,"station_id":"ce4bhr92rcd13ifvqhsg","pricing_plan_id":"cebpf4jnsgd1na2vs0mg"},{"bike_id":"cbb8c20f-0422-4610-a50f-a600497f00b5","system_id":"levelo_inurba_marseille","lat":43.29791,"lon":5.37741,"is_reserved":false,"is_disabled":false,"rental_uris":{"android":"levelo://app?vid=cbb8c20f-0422-4610-a50f-a600497f00b5","ios":"levelo://app?vid=cbb8c20f-0422-4610-a50f-a600497f00b5"},"vehicle_type_id":"4","last_reported":1745104153,"current_range_meters":17600,"station_id":"","pricing_plan_id":"cebpf4jnsgd1na2vs0mg"},{"bike_id":"7818896f-76b4-4441-bdcd-7710c7a19b78","system_id":"levelo_inurba_marseille","lat":43.26499,"lon":5.39535,"is_reserved":false,"is_disabled":false,"rental_uris":{"android":"levelo://app?vid=7818896f-76b4-4441-bdcd-7710c7a19b78","ios":"levelo://app?vid=7818896f-76b4-4441-bdcd-7710c7a19b78"},"vehicle_type_id":"4","last_reported":1745104153,"current_range_meters":17600,"station_id":"ce4bhi12rcd13ifvqfq0","pricing_plan_id":"cebpf4jnsgd1na2vs0mg"},{"bike_id":"ca98692d-888f-49bc-b77a-1ab58ba8e795","system_id":"levelo_inurba_marseille","lat":43.30641,"lon":5.40069,"is_reserved":false,"is_disabled":false,"rental_uris":{"android":"levelo://app?vid=ca98692d-888f-49bc-b77a-1ab58ba8e795","ios":"levelo://app?vid=ca98692d-888f-49bc-b77a-1ab58ba8e795"},"vehicle_type_id":"4","last_reported":1745104153,"current_range_meters":18000,"station_id":"ce4bh112rcd13ifvqda0","pricing_plan_id":"cebpf4jnsgd1na2vs0mg"},{"bike_id":"7d29063e-cc47-43de-9fe3-33b900004d65","system_id":"levelo_inurba_marseille","lat":43.21226,"lon":5.3507,"is_reserved":false,"is_disabled":false,"rental_uris":{"android":"levelo://app?vid=7d29063e-cc47-43de-9fe3-33b900004d65","ios":"levelo://app?vid=7d29063e-cc47-43de-9fe3-33b900004d65"},"vehicle_type_id":"4","last_reported":1745104153,"current_range_meters":18000,"station_id":"","pricing_plan_id":"cebpf4jnsgd1na2vs0mg"},{"bike_id":"d66f2fbf-84c1-4006-a003-d92ef3aa9479","system_id":"levelo_inurba_marseille","lat":43.23192,"lon":5.35533,"is_reserved":false,"is_disabled":false,"rental_uris":{"android":"levelo://app?vid=d66f2fbf-84c1-4006-a003-d92ef3aa9479","ios":"levelo://app?vid=d66f2fbf-84c1-4006-a003-d92ef3aa9479"},"vehicle_type_id":"4","last_reported":1745104153,"current_range_meters":18000,"station_id":"ce4bhu92rcd13ifvqi70","pricing_plan_id":"cebpf4jnsgd1na2vs0mg"},{"bike_id":"410ded57-8860-4f34-b557-cd066f5c7d99","system_id":"levelo_inurba_marseille","lat":43.31081,"lon":5.3835,"is_reserved":false,"is_disabled":false,"rental_uris":{"android":"levelo://app?vid=410ded57-8860-4f34-b557-cd066f5c7d99","ios":"levelo://app?vid=410ded57-8860-4f34-b557-cd066f5c7d99"},"vehicle_type_id":"4","last_reported":1745104153,"current_range_meters":18000,"station_id":"ce4bgv92rcd13ifvqcr0","pricing_plan_id":"cebpf4jnsgd1na2vs0mg"},{"bike_id":"23762309-86d0-4470-b564-32977fd2f47c","system_id":"levelo_inurba_marseille","lat":43.2397,"lon":5.3663,"is_reserved":false,"is_disabled":false,"rental_uris":{"android":"levelo://app?vid=23762309-86d0-4470-b564-32977fd2f47c","ios":"levelo://app?vid=23762309-86d0-4470-b564-32977fd2f47c"},"vehicle_type_id":"4","last_reported":1745104153,"current_range_meters":17600,"station_id":"ce4bhi12rcd13ifvqfp0","pricing_plan_id":"cebpf4jnsgd1na2vs0mg"},{"bike_id":"ef785c52-8cc3-44cf-8b6c-8053ce78a21f","system_id":"levelo_inurba_marseille","lat":43.29033,"lon":5.3863,"is_reserved":false,"is_disabled":false,"rental_uris":{"android":"levelo://app?vid=ef785c52-8cc3-44cf-8b6c-8053ce78a21f","ios":"levelo://app?vid=ef785c52-8cc3-44cf-8b6c-8053ce78a21f"},"vehicle_type_id":"4","last_reported":1745104153,"current_range_meters":18000,"station_id":"ce4bh4p2rcd13ifvqe0g","pricing_plan_id":"cebpf4jnsgd1na2vs0mg"},{"bike_id":"f01fc261-033f-49c7-b09e-b9967362bd76","system_id":"levelo_inurba_marseille","lat":43.28879,"lon":5.35808,"is_reserved":false,"is_disabled":true,"rental_uris":{"android":"levelo://app?vid=f01fc261-033f-49c7-b09e-b9967362bd76","ios":"levelo://app?vid=f01fc261-033f-49c7-b09e-b9967362bd76"},"vehicle_type_id":"4","last_reported":1745104153,"current_range_meters":18000,"station_id":"ce4bhb12rcd13ifvqem0","pricing_plan_id":"cebpf4jnsgd1na2vs0mg"},{"bike_id":"1b2623e0-90bf-4d27-a569-ebc27b9384c2","system_id":"levelo_inurba_marseille","lat":43.241714,"lon":5.363904,"is_reserved":false,"is_disabled":false,"rental_uris":{"android":"levelo://app?vid=1b2623e0-90bf-4d27-a569-ebc27b9384c2","ios":"levelo://app?vid=1b2623e0-90bf-4d27-a569-ebc27b9384c2"},"vehicle_type_id":"4","last_reported":1745104153,"current_range_meters":18800,"station_id":"cpo36qri1sfpv3e86is0","pricing_plan_id":"cebpf4jnsgd1na2vs0mg"},{"bike_id":"cb04d036-524e-497d-b1e8-d53251979b05","system_id":"levelo_inurba_marseille","lat":43.29879,"lon":5.39736,"is_reserved":false,"is_disabled":true,"rental_uris":{"android":"levelo://app?vid=cb04d036-524e-497d-b1e8-d53251979b05","ios":"levelo://app?vid=cb04d036-524e-497d-b1e8-d53251979b05"},"vehicle_type_id":"4","last_reported":1745104153,"current_range_meters":18800,"station_id":"ce4bh0h2rcd13ifvqd50","pricing_plan_id":"cebpf4jnsgd1na2vs0mg"},{"bike_id":"43d16f90-36ad-4f55-8765-f7d472e03959","system_id":"levelo_inurba_marseille","lat":43.32361,"lon":5.36752,"is_reserved":false,"is_disabled":false,"rental_uris":{"android":"levelo://app?vid=43d16f90-36ad-4f55-8765-f7d472e03959","ios":"levelo://app?vid=43d16f90-36ad-4f55-8765-f7d472e03959"},"vehicle_type_id":"4","last_reported":1745104153,"current_range_meters":18800,"station_id":"ce4bhsh2rcd13ifvqi2g","pricing_plan_id":"cebpf4jnsgd1na2vs0mg"},{"bike_id":"9cd66f20-0974-44a3-a00c-3af08e74ebf2","system_id":"levelo_inurba_marseille","lat":43.2602,"lon":5.4174,"is_reserved":false,"is_disabled":false,"rental_uris":{"android":"levelo://app?vid=9cd66f20-0974-44a3-a00c-3af08e74ebf2","ios":"levelo://app?vid=9cd66f20-0974-44a3-a00c-3af08e74ebf2"},"vehicle_type_id":"4","last_reported":1745104153,"current_range_meters":18800,"station_id":"","pricing_plan_id":"cebpf4jnsgd1na2vs0mg"},{"bike_id":"e653e066-2807-4514-8a61-d3a7d53ac289","system_id":"levelo_inurba_marseille","lat":43.22517,"lon":5.34812,"is_reserved":false,"is_disabled":false,"rental_uris":{"android":"levelo://app?vid=e653e066-2807-4514-8a61-d3a7d53ac289","ios":"levelo://app?vid=e653e066-2807-4514-8a61-d3a7d53ac289"},"vehicle_type_id":"4","last_reported":1745104153,"current_range_meters":18800,"station_id":"st_cvj5dfep6f1abm77gieg","pricing_plan_id":"cebpf4jnsgd1na2vs0mg"},{"bike_id":"6d10d7a7-6c32-4e1e-8e59-bb1ff89e5fa7","system_id":"levelo_inurba_marseille","lat":43.32367,"lon":5.36758,"is_reserved":false,"is_disabled":false,"rental_uris":{"android":"levelo://app?vid=6d10d7a7-6c32-4e1e-8e59-bb1ff89e5fa7","ios":"levelo://app?vid=6d10d7a7-6c32-4e1e-8e59-bb1ff89e5fa7"},"vehicle_type_id":"4","last_reported":1745104153,"current_range_meters":18800,"station_id":"ce4bhsh2rcd13ifvqi2g","pricing_plan_id":"cebpf4jnsgd1na2vs0mg"},{"bike_id":"d2963599-a21d-4200-a9ab-95f6d8b84193","system_id":"levelo_inurba_marseille","lat":43.309662,"lon":5.39027,"is_reserved":false,"is_disabled":false,"rental_uris":{"android":"levelo://app?vid=d2963599-a21d-4200-a9ab-95f6d8b84193","ios":"levelo://app?vid=d2963599-a21d-4200-a9ab-95f6d8b84193"},"vehicle_type_id":"4","last_reported":1745104153,"current_range_meters":19200,"station_id":"ce4bgup2rcd13ifvqco0","pricing_plan_id":"cebpf4jnsgd1na2vs0mg"},{"bike_id":"1a5f2cec-6354-428d-a667-d2081b30c7f2","system_id":"levelo_inurba_marseille","lat":43.27682,"lon":5.39796,"is_reserved":false,"is_disabled":false,"rental_uris":{"android":"levelo://app?vid=1a5f2cec-6354-428d-a667-d2081b30c7f2","ios":"levelo://app?vid=1a5f2cec-6354-428d-a667-d2081b30c7f2"},"vehicle_type_id":"4","last_reported":1745104153,"current_range_meters":19200,"station_id":"","pricing_plan_id":"cebpf4jnsgd1na2vs0mg"},{"bike_id":"1ed601e7-b71b-4de4-8bda-46cc17906aa0","system_id":"levelo_inurba_marseille","lat":43.28443,"lon":5.35895,"is_reserved":false,"is_disabled":false,"rental_uris":{"android":"levelo://app?vid=1ed601e7-b71b-4de4-8bda-46cc17906aa0","ios":"levelo://app?vid=1ed601e7-b71b-4de4-8bda-46cc17906aa0"},"vehicle_type_id":"4","last_reported":1745104153,"current_range_meters":19200,"station_id":"ce4bhah2rcd13ifvqei0","pricing_plan_id":"cebpf4jnsgd1na2vs0mg"},{"bike_id":"c3a3e06c-3bd3-472f-9cae-a0c530d3afac","system_id":"levelo_inurba_marseille","lat":43.30733,"lon":5.42433,"is_reserved":false,"is_disabled":false,"rental_uris":{"android":"levelo://app?vid=c3a3e06c-3bd3-472f-9cae-a0c530d3afac","ios":"levelo://app?vid=c3a3e06c-3bd3-472f-9cae-a0c530d3afac"},"vehicle_type_id":"4","last_reported":1745104153,"current_range_meters":19200,"station_id":"st_cvj6ca6bvosntc0bfgr0","pricing_plan_id":"cebpf4jnsgd1na2vs0mg"},{"bike_id":"0ccc90ba-95d0-4e22-8c09-d3002a5d6959","system_id":"levelo_inurba_marseille","lat":43.31718,"lon":5.40428,"is_reserved":false,"is_disabled":false,"rental_uris":{"android":"levelo://app?vid=0ccc90ba-95d0-4e22-8c09-d3002a5d6959","ios":"levelo://app?vid=0ccc90ba-95d0-4e22-8c09-d3002a5d6959"},"vehicle_type_id":"4","last_reported":1745104153,"current_range_meters":19600,"station_id":"ce4bh012rcd13ifvqd00","pricing_plan_id":"cebpf4jnsgd1na2vs0mg"},{"bike_id":"4789d6cc-c61d-4383-91cd-c0bbaaa53448","system_id":"levelo_inurba_marseille","lat":43.2315,"lon":5.43715,"is_reserved":false,"is_disabled":false,"rental_uris":{"android":"levelo://app?vid=4789d6cc-c61d-4383-91cd-c0bbaaa53448","ios":"levelo://app?vid=4789d6cc-c61d-4383-91cd-c0bbaaa53448"},"vehicle_type_id":"4","last_reported":1745104153,"current_range_meters":19600,"station_id":"ce4bhmp2rcd13ifvqgog","pricing_plan_id":"cebpf4jnsgd1na2vs0mg"},{"bike_id":"6b756a6a-3e2a-4904-8a4d-c16a5babc7ae","system_id":"levelo_inurba_marseille","lat":43.32369,"lon":5.36762,"is_reserved":false,"is_disabled":false,"rental_uris":{"android":"levelo://app?vid=6b756a6a-3e2a-4904-8a4d-c16a5babc7ae","ios":"levelo://app?vid=6b756a6a-3e2a-4904-8a4d-c16a5babc7ae"},"vehicle_type_id":"4","last_reported":1745104153,"current_range_meters":19600,"station_id":"ce4bhsh2rcd13ifvqi2g","pricing_plan_id":"cebpf4jnsgd1na2vs0mg"},{"bike_id":"5ad8dd6b-ee8a-4f3f-924e-6d10a631b0b3","system_id":"levelo_inurba_marseille","lat":43.261989,"lon":5.379261,"is_reserved":false,"is_disabled":true,"rental_uris":{"android":"levelo://app?vid=5ad8dd6b-ee8a-4f3f-924e-6d10a631b0b3","ios":"levelo://app?vid=5ad8dd6b-ee8a-4f3f-924e-6d10a631b0b3"},"vehicle_type_id":"4","last_reported":1745104153,"current_range_meters":19600,"station_id":"ce4bhjp2rcd13ifvqg90","pricing_plan_id":"cebpf4jnsgd1na2vs0mg"},{"bike_id":"a1fe615a-02be-426a-9169-c605d4abd3ed","system_id":"levelo_inurba_marseille","lat":43.29395,"lon":5.37979,"is_reserved":false,"is_disabled":false,"rental_uris":{"android":"levelo://app?vid=a1fe615a-02be-426a-9169-c605d4abd3ed","ios":"levelo://app?vid=a1fe615a-02be-426a-9169-c605d4abd3ed"},"vehicle_type_id":"4","last_reported":1745104153,"current_range_meters":20000,"station_id":"","pricing_plan_id":"cebpf4jnsgd1na2vs0mg"},{"bike_id":"cbcf2b63-1e60-4b5d-b61b-8baaf7f6ab2f","system_id":"levelo_inurba_marseille","lat":43.26176,"lon":5.37461,"is_reserved":false,"is_disabled":false,"rental_uris":{"android":"levelo://app?vid=cbcf2b63-1e60-4b5d-b61b-8baaf7f6ab2f","ios":"levelo://app?vid=cbcf2b63-1e60-4b5d-b61b-8baaf7f6ab2f"},"vehicle_type_id":"4","last_reported":1745104153,"current_range_meters":20000,"station_id":"ce4bhgp2rcd13ifvqfc0","pricing_plan_id":"cebpf4jnsgd1na2vs0mg"},{"bike_id":"3e3c8c50-0433-4468-9b5f-71ae2ad7c709","system_id":"levelo_inurba_marseille","lat":43.323697,"lon":5.367569,"is_reserved":false,"is_disabled":false,"rental_uris":{"android":"levelo://app?vid=3e3c8c50-0433-4468-9b5f-71ae2ad7c709","ios":"levelo://app?vid=3e3c8c50-0433-4468-9b5f-71ae2ad7c709"},"vehicle_type_id":"4","last_reported":1745104153,"current_range_meters":20000,"station_id":"ce4bhsh2rcd13ifvqi2g","pricing_plan_id":"cebpf4jnsgd1na2vs0mg"},{"bike_id":"721f595d-f057-44ac-ac8d-4aec1bc01567","system_id":"levelo_inurba_marseille","lat":43.25134,"lon":5.40346,"is_reserved":false,"is_disabled":false,"rental_uris":{"android":"levelo://app?vid=721f595d-f057-44ac-ac8d-4aec1bc01567","ios":"levelo://app?vid=721f595d-f057-44ac-ac8d-4aec1bc01567"},"vehicle_type_id":"4","last_reported":1745104153,"current_range_meters":20000,"station_id":"ce4bhlh2rcd13ifvqgig","pricing_plan_id":"cebpf4jnsgd1na2vs0mg"},{"bike_id":"aaf4594b-2c9c-4ad6-a847-3f571d609a4b","system_id":"levelo_inurba_marseille","lat":43.279114,"lon":5.395722,"is_reserved":false,"is_disabled":false,"rental_uris":{"android":"levelo://app?vid=aaf4594b-2c9c-4ad6-a847-3f571d609a4b","ios":"levelo://app?vid=aaf4594b-2c9c-4ad6-a847-3f571d609a4b"},"vehicle_type_id":"4","last_reported":1745104153,"current_range_meters":20000,"station_id":"ce4bhf92rcd13ifvqf40","pricing_plan_id":"cebpf4jnsgd1na2vs0mg"},{"bike_id":"08460c0e-f483-4cae-8efa-e145e7b3e0b5","system_id":"levelo_inurba_marseille","lat":43.294342,"lon":5.38609,"is_reserved":false,"is_disabled":false,"rental_uris":{"android":"levelo://app?vid=08460c0e-f483-4cae-8efa-e145e7b3e0b5","ios":"levelo://app?vid=08460c0e-f483-4cae-8efa-e145e7b3e0b5"},"vehicle_type_id":"4","last_reported":1745104153,"current_range_meters":20000,"station_id":"ce4bh012rcd13ifvqd10","pricing_plan_id":"cebpf4jnsgd1na2vs0mg"},{"bike_id":"b63b7a5e-a38c-41b2-b8ca-03dcb2ce1a70","system_id":"levelo_inurba_marseille","lat":43.2508,"lon":5.39503,"is_reserved":false,"is_disabled":true,"rental_uris":{"android":"levelo://app?vid=b63b7a5e-a38c-41b2-b8ca-03dcb2ce1a70","ios":"levelo://app?vid=b63b7a5e-a38c-41b2-b8ca-03dcb2ce1a70"},"vehicle_type_id":"4","last_reported":1745104153,"current_range_meters":20000,"station_id":"ce4bhm12rcd13ifvqgkg","pricing_plan_id":"cebpf4jnsgd1na2vs0mg"},{"bike_id":"fc7807cb-5baf-4f18-a0b8-7d0eacd9d80d","system_id":"levelo_inurba_marseille","lat":43.24768,"lon":5.41254,"is_reserved":false,"is_disabled":false,"rental_uris":{"android":"levelo://app?vid=fc7807cb-5baf-4f18-a0b8-7d0eacd9d80d","ios":"levelo://app?vid=fc7807cb-5baf-4f18-a0b8-7d0eacd9d80d"},"vehicle_type_id":"4","last_reported":1745104153,"current_range_meters":20400,"station_id":"","pricing_plan_id":"cebpf4jnsgd1na2vs0mg"},{"bike_id":"88f9484d-7764-4125-8ae2-cb3b1ae8fa4d","system_id":"levelo_inurba_marseille","lat":43.28169,"lon":5.42636,"is_reserved":false,"is_disabled":false,"rental_uris":{"android":"levelo://app?vid=88f9484d-7764-4125-8ae2-cb3b1ae8fa4d","ios":"levelo://app?vid=88f9484d-7764-4125-8ae2-cb3b1ae8fa4d"},"vehicle_type_id":"4","last_reported":1745104153,"current_range_meters":20400,"station_id":"ce4bhnh2rcd13ifvqgug","pricing_plan_id":"cebpf4jnsgd1na2vs0mg"},{"bike_id":"633aaa8d-350d-4b35-8468-8637c30910a1","system_id":"levelo_inurba_marseille","lat":43.295685,"lon":5.386902,"is_reserved":false,"is_disabled":false,"rental_uris":{"android":"levelo://app?vid=633aaa8d-350d-4b35-8468-8637c30910a1","ios":"levelo://app?vid=633aaa8d-350d-4b35-8468-8637c30910a1"},"vehicle_type_id":"4","last_reported":1745104153,"current_range_meters":20400,"station_id":"ce4bgt12rcd13ifvqce0","pricing_plan_id":"cebpf4jnsgd1na2vs0mg"},{"bike_id":"6da9512a-488d-4939-928c-80217031fafd","system_id":"levelo_inurba_marseille","lat":43.27695,"lon":5.38885,"is_reserved":false,"is_disabled":false,"rental_uris":{"android":"levelo://app?vid=6da9512a-488d-4939-928c-80217031fafd","ios":"levelo://app?vid=6da9512a-488d-4939-928c-80217031fafd"},"vehicle_type_id":"4","last_reported":1745104153,"current_range_meters":20800,"station_id":"ce4bhi12rcd13ifvqfo0","pricing_plan_id":"cebpf4jnsgd1na2vs0mg"},{"bike_id":"cf431e88-e4d3-4093-af4e-4e00f5c336c8","system_id":"levelo_inurba_marseille","lat":43.32351,"lon":5.40613,"is_reserved":false,"is_disabled":false,"rental_uris":{"android":"levelo://app?vid=cf431e88-e4d3-4093-af4e-4e00f5c336c8","ios":"levelo://app?vid=cf431e88-e4d3-4093-af4e-4e00f5c336c8"},"vehicle_type_id":"4","last_reported":1745104153,"current_range_meters":21600,"station_id":"ce4bhq92rcd13ifvqhjg","pricing_plan_id":"cebpf4jnsgd1na2vs0mg"},{"bike_id":"7f85cb0c-933e-490b-a0c3-bfacab605268","system_id":"levelo_inurba_marseille","lat":43.288706,"lon":5.359765,"is_reserved":false,"is_disabled":true,"rental_uris":{"android":"levelo://app?vid=7f85cb0c-933e-490b-a0c3-bfacab605268","ios":"levelo://app?vid=7f85cb0c-933e-490b-a0c3-bfacab605268"},"vehicle_type_id":"4","last_reported":1745104153,"current_range_meters":21600,"station_id":"","pricing_plan_id":"cebpf4jnsgd1na2vs0mg"},{"bike_id":"410103c1-3765-486f-95e2-5b2318679158","system_id":"levelo_inurba_marseille","lat":43.29895,"lon":5.38138,"is_reserved":false,"is_disabled":false,"rental_uris":{"android":"levelo://app?vid=410103c1-3765-486f-95e2-5b2318679158","ios":"levelo://app?vid=410103c1-3765-486f-95e2-5b2318679158"},"vehicle_type_id":"4","last_reported":1745104153,"current_range_meters":22000,"station_id":"ce4bgj12rcd13ifvqbc0","pricing_plan_id":"cebpf4jnsgd1na2vs0mg"},{"bike_id":"9b92edd3-528c-45f1-9033-54d1ec64895d","system_id":"levelo_inurba_marseille","lat":43.29207,"lon":5.39323,"is_reserved":false,"is_disabled":false,"rental_uris":{"android":"levelo://app?vid=9b92edd3-528c-45f1-9033-54d1ec64895d","ios":"levelo://app?vid=9b92edd3-528c-45f1-9033-54d1ec64895d"},"vehicle_type_id":"4","last_reported":1745104153,"current_range_meters":22000,"station_id":"ce4bh192rcd13ifvqdd0","pricing_plan_id":"cebpf4jnsgd1na2vs0mg"},{"bike_id":"f5082407-ad9f-416d-b3f3-a40cd04bfde3","system_id":"levelo_inurba_marseille","lat":43.23,"lon":5.35466,"is_reserved":false,"is_disabled":false,"rental_uris":{"android":"levelo://app?vid=f5082407-ad9f-416d-b3f3-a40cd04bfde3","ios":"levelo://app?vid=f5082407-ad9f-416d-b3f3-a40cd04bfde3"},"vehicle_type_id":"4","last_reported":1745104153,"current_range_meters":22000,"station_id":"","pricing_plan_id":"cebpf4jnsgd1na2vs0mg"},{"bike_id":"41242beb-616e-4303-9719-1ebf1d971115","system_id":"levelo_inurba_marseille","lat":43.2855,"lon":5.39487,"is_reserved":false,"is_disabled":false,"rental_uris":{"android":"levelo://app?vid=41242beb-616e-4303-9719-1ebf1d971115","ios":"levelo://app?vid=41242beb-616e-4303-9719-1ebf1d971115"},"vehicle_type_id":"4","last_reported":1745104153,"current_range_meters":21600,"station_id":"ce4bh292rcd13ifvqdg0","pricing_plan_id":"cebpf4jnsgd1na2vs0mg"},{"bike_id":"f9179a33-6528-43ac-b9e7-37bf13c563dd","system_id":"levelo_inurba_marseille","lat":43.2511,"lon":5.40343,"is_reserved":false,"is_disabled":false,"rental_uris":{"android":"levelo://app?vid=f9179a33-6528-43ac-b9e7-37bf13c563dd","ios":"levelo://app?vid=f9179a33-6528-43ac-b9e7-37bf13c563dd"},"vehicle_type_id":"4","last_reported":1745104153,"current_range_meters":22000,"station_id":"ce4bhlh2rcd13ifvqgig","pricing_plan_id":"cebpf4jnsgd1na2vs0mg"},{"bike_id":"36b3de7d-8486-4c92-b93e-9bc69270e48e","system_id":"levelo_inurba_marseille","lat":43.30278,"lon":5.4006,"is_reserved":false,"is_disabled":false,"rental_uris":{"android":"levelo://app?vid=36b3de7d-8486-4c92-b93e-9bc69270e48e","ios":"levelo://app?vid=36b3de7d-8486-4c92-b93e-9bc69270e48e"},"vehicle_type_id":"4","last_reported":1745104153,"current_range_meters":22000,"station_id":"ce4bgvh2rcd13ifvqcs0","pricing_plan_id":"cebpf4jnsgd1na2vs0mg"},{"bike_id":"383921e1-235e-4662-918f-17ac48b2cc7c","system_id":"levelo_inurba_marseille","lat":43.29676,"lon":5.37289,"is_reserved":false,"is_disabled":false,"rental_uris":{"android":"levelo://app?vid=383921e1-235e-4662-918f-17ac48b2cc7c","ios":"levelo://app?vid=383921e1-235e-4662-918f-17ac48b2cc7c"},"vehicle_type_id":"4","last_reported":1745104153,"current_range_meters":22000,"station_id":"ce4bgk12rcd13ifvqbj0","pricing_plan_id":"cebpf4jnsgd1na2vs0mg"},{"bike_id":"a7f91fb8-2846-493f-a68f-69867197cfa1","system_id":"levelo_inurba_marseille","lat":43.33652,"lon":5.39752,"is_reserved":false,"is_disabled":false,"rental_uris":{"android":"levelo://app?vid=a7f91fb8-2846-493f-a68f-69867197cfa1","ios":"levelo://app?vid=a7f91fb8-2846-493f-a68f-69867197cfa1"},"vehicle_type_id":"4","last_reported":1745104153,"current_range_meters":22400,"station_id":"","pricing_plan_id":"cebpf4jnsgd1na2vs0mg"},{"bike_id":"8af18118-ae7a-4723-a153-6a1c5771d8ae","system_id":"levelo_inurba_marseille","lat":43.30815,"lon":5.38145,"is_reserved":false,"is_disabled":false,"rental_uris":{"android":"levelo://app?vid=8af18118-ae7a-4723-a153-6a1c5771d8ae","ios":"levelo://app?vid=8af18118-ae7a-4723-a153-6a1c5771d8ae"},"vehicle_type_id":"4","last_reported":1745104153,"current_range_meters":22400,"station_id":"ce4bgt12rcd13ifvqce0","pricing_plan_id":"cebpf4jnsgd1na2vs0mg"},{"bike_id":"75f7f6e1-dc81-4d9b-aa16-1067d60e9d40","system_id":"levelo_inurba_marseille","lat":43.3093,"lon":5.40138,"is_reserved":false,"is_disabled":false,"rental_uris":{"android":"levelo://app?vid=75f7f6e1-dc81-4d9b-aa16-1067d60e9d40","ios":"levelo://app?vid=75f7f6e1-dc81-4d9b-aa16-1067d60e9d40"},"vehicle_type_id":"4","last_reported":1745104153,"current_range_meters":22400,"station_id":"ce4bgvp2rcd13ifvqct0","pricing_plan_id":"cebpf4jnsgd1na2vs0mg"},{"bike_id":"4fddb3aa-924e-4de5-8baf-e729f494590a","system_id":"levelo_inurba_marseille","lat":43.31094,"lon":5.38351,"is_reserved":false,"is_disabled":false,"rental_uris":{"android":"levelo://app?vid=4fddb3aa-924e-4de5-8baf-e729f494590a","ios":"levelo://app?vid=4fddb3aa-924e-4de5-8baf-e729f494590a"},"vehicle_type_id":"4","last_reported":1745104153,"current_range_meters":22400,"station_id":"ce4bgv92rcd13ifvqcr0","pricing_plan_id":"cebpf4jnsgd1na2vs0mg"},{"bike_id":"d05a9409-1100-471e-93f6-61cbcf1d7189","system_id":"levelo_inurba_marseille","lat":43.2455,"lon":5.39513,"is_reserved":false,"is_disabled":false,"rental_uris":{"android":"levelo://app?vid=d05a9409-1100-471e-93f6-61cbcf1d7189","ios":"levelo://app?vid=d05a9409-1100-471e-93f6-61cbcf1d7189"},"vehicle_type_id":"4","last_reported":1745104153,"current_range_meters":22400,"station_id":"ce4bhlp2rcd13ifvqgjg","pricing_plan_id":"cebpf4jnsgd1na2vs0mg"},