{"last_updated":1752067630,"ttl":60,"version":"2.2","data":{"bikes":[{"bike_id":"cd20cfea-2f2f-444d-a882-a49b6cf370eb","system_id":"levelo_inurba_marseille","lat":43.337444,"lon":5.374475,"is_reserved":false,"is_disabled":true,"rental_uris":{"android":"levelo://app?vid=cd20cfea-2f2f-444d-a882-a49b6cf370eb","ios":"levelo://app?vid=cd20cfea-2f2f-444d-a882-a49b6cf370eb"},"vehicle_type_id":"4","last_reported":1752067630,"current_range_meters":0,"station_id":"","pricing_plan_id":"cebpf4jnsgd1na2vs0mg"},{"bike_id":"3da29fb8-fc97-44c6-b9ac-31dd456b2fd4","system_id":"levelo_inurba_marseille","lat":43.33771,"lon":5.37424,"is_reserved":false,"is_disabled":true,"rental_uris":{"android":"levelo://app?vid=3da29fb8-fc97-44c6-b9ac-31dd456b2fd4","ios":"levelo://app?vid=3da29fb8-fc97-44c6-b9ac-31dd456b2fd4"},"vehicle_type_id":"4","last_reported":1752067630,"current_range_meters":0,"station_id":"","pricing_plan_id":"cebpf4jnsgd1na2vs0mg"},{"bike_id":"01861ad8-a8d7-4be6-816e-651927c87584","system_id":"levelo_inurba_marseille","lat":43.33751,"lon":5.37456,"is_reserved":false,"is_disabled":true,"rental_uris":{"android":"levelo://app?vid=01861ad8-a8d7-4be6-816e-651927c87584","ios":"levelo://app?vid=01861ad8-a8d7-4be6-816e-651927c87584"},"vehicle_type_id":"4","last_reported":1752067630,"current_range_meters":0,"station_id":"","pricing_plan_id":"cebpf4jnsgd1na2vs0mg"},{"bike_id":"53b1a31e-8ada-40c0-8d64-113a81233c84","system_id":"levelo_inurba_marseille","lat":43.364184,"lon":5.31926,"is_reserved":false,"is_disabled":true,"rental_uris":{"android":"levelo://app?vid=53b1a31e-8ada-40c0-8d64-113a81233c84","ios":"levelo://app?vid=53b1a31e-8ada-40c0-8d64-113a81233c84"},"vehicle_type_id":"4","last_reported":1752067630,"current_range_meters":0,"station_id":"","pricing_plan_id":"cebpf4jnsgd1na2vs0mg"},{"bike_id":"b41a5c96-465f-4afc-9661-2a514df19ef3","system_id":"levelo_inurba_marseille","lat":43.300607,"lon":5.386914,"is_reserved":false,"is_disabled":true,"rental_uris":{"android":"levelo://app?vid=b41a5c96-465f-4afc-9661-2a514df19ef3","ios":"levelo://app?vid=b41a5c96-465f-4afc-9661-2a514df19ef3"},"vehicle_type_id":"4","last_reported":1752067630,"current_range_meters":0,"station_id":"ce4bgk12rcd13ifvqbi0","pricing_plan_id":"cebpf4jnsgd1na2vs0mg"},{"bike_id":"bf0d03d1-7b55-464a-9fc5-474a00ff3cde","system_id":"levelo_inurba_marseille","lat":43.2439,"lon":5.37063,"is_reserved":false,"is_disabled":true,"rental_uris":{"android":"levelo://app?vid=bf0d03d1-7b55-464a-9fc5-474a00ff3cde","ios":"levelo://app?vid=bf0d03d1-7b55-464a-9fc5-474a00ff3cde"},"vehicle_type_id":"4","last_reported":1752067630,"current_range_meters":0,"station_id":"ce4bhhh2rcd13ifvqfk0","pricing_plan_id":"cebpf4jnsgd1na2vs0mg"},{"bike_id":"ad0cb22c-ab6a-472d-a6e0-70e1b50cdbf8","system_id":"levelo_inurba_marseille","lat":43.32358,"lon":5.36756,"is_reserved":false,"is_disabled":true,"rental_uris":{"android":"levelo://app?vid=ad0cb22c-ab6a-472d-a6e0-70e1b50cdbf8","ios":"levelo://app?vid=ad0cb22c-ab6a-472d-a6e0-70e1b50cdbf8"},"vehicle_type_id":"4","last_reported":1752067630,"current_range_meters":0,"station_id":"ce4bhsh2rcd13ifvqi2g","pricing_plan_id":"cebpf4jnsgd1na2vs0mg"},{"bike_id":"78a1f729-3e1a-4e3f-b633-6e390b99ce62","system_id":"levelo_inurba_marseille","lat":43.23195,"lon":5.35554,"is_reserved":false,"is_disabled":true,"rental_uris":{"android":"levelo://app?vid=78a1f729-3e1a-4e3f-b633-6e390b99ce62","ios":"levelo://app?vid=78a1f729-3e1a-4e3f-b633-6e390b99ce62"},"vehicle_type_id":"4","last_reported":1752067630,"current_range_meters":0,"station_id":"ce4bhu92rcd13ifvqi70","pricing_plan_id":"cebpf4jnsgd1na2vs0mg"},{"bike_id":"e562ad4e-a577-4b7b-a74e-7e00b9c0f52f","system_id":"levelo_inurba_marseille","lat":43.225027,"lon":5.347812,"is_reserved":false,"is_disabled":true,"rental_uris":{"android":"levelo://app?vid=e562ad4e-a577-4b7b-a74e-7e00b9c0f52f","ios":"levelo://app?vid=e562ad4e-a577-4b7b-a74e-7e00b9c0f52f"},"vehicle_type_id":"4","last_reported":1752067630,"current_range_meters":0,"station_id":"st_cvj5dfep6f1abm77gieg","pricing_plan_id":"cebpf4jnsgd1na2vs0mg"},{"bike_id":"6661cbd2-6ba2-4b46-b15e-1188df0f29d7","system_id":"levelo_inurba_marseille","lat":43.211928,"lon":5.350791,"is_reserved":false,"is_disabled":true,"rental_uris":{"android":"levelo://app?vid=6661cbd2-6ba2-4b46-b15e-1188df0f29d7","ios":"levelo://app?vid=6661cbd2-6ba2-4b46-b15e-1188df0f29d7"},"vehicle_type_id":"4","last_reported":1752067630,"current_range_meters":0,"station_id":"st_cvj6sg6p6f1abm77japg","pricing_plan_id":"cebpf4jnsgd1na2vs0mg"},{"bike_id":"6fe6f61a-eb9a-49be-8322-4119508620e8","system_id":"levelo_inurba_marseille","lat":43.2439,"lon":5.3707,"is_reserved":false,"is_disabled":true,"rental_uris":{"android":"levelo://app?vid=6fe6f61a-eb9a-49be-8322-4119508620e8","ios":"levelo://app?vid=6fe6f61a-eb9a-49be-8322-4119508620e8"},"vehicle_type_id":"4","last_reported":1752067630,"current_range_meters":400,"station_id":"ce4bhhh2rcd13ifvqfk0","pricing_plan_id":"cebpf4jnsgd1na2vs0mg"},{"bike_id":"ab2b2544-100a-41e0-8019-f1264a419ac3","system_id":"levelo_inurba_marseille","lat":43.24803,"lon":5.37455,"is_reserved":false,"is_disabled":true,"rental_uris":{"android":"levelo://app?vid=ab2b2544-100a-41e0-8019-f1264a419ac3","ios":"levelo://app?vid=ab2b2544-100a-41e0-8019-f1264a419ac3"},"vehicle_type_id":"4","last_reported":1752067630,"current_range_meters":800,"station_id":"ce4bhgh2rcd13ifvqfb0","pricing_plan_id":"cebpf4jnsgd1na2vs0mg"},{"bike_id":"0650d222-8a61-4821-88f3-8eb8a5502644","system_id":"levelo_inurba_marseille","lat":43.2908,"lon":5.37963,"is_reserved":false,"is_disabled":true,"rental_uris":{"android":"levelo://app?vid=0650d222-8a61-4821-88f3-8eb8a5502644","ios":"levelo://app?vid=0650d222-8a61-4821-88f3-8eb8a5502644"},"vehicle_type_id":"4","last_reported":1752067630,"current_range_meters":1600,"station_id":"","pricing_plan_id":"cebpf4jnsgd1na2vs0mg"},{"bike_id":"fee33eb4-a287-47ce-84af-44a41f968e38","system_id":"levelo_inurba_marseille","lat":43.317262,"lon":5.423936,"is_reserved":false,"is_disabled":true,"rental_uris":{"android":"levelo://app?vid=fee33eb4-a287-47ce-84af-44a41f968e38","ios":"levelo://app?vid=fee33eb4-a287-47ce-84af-44a41f968e38"},"vehicle_type_id":"4","last_reported":1752067630,"current_range_meters":1600,"station_id":"ce4bhp92rcd13ifvqhbg","pricing_plan_id":"cebpf4jnsgd1na2vs0mg"},{"bike_id":"1e256ef1-f14e-4c9d-ab42-5aeffd26cfab","system_id":"levelo_inurba_marseille","lat":43.26508,"lon":5.39509,"is_reserved":false,"is_disabled":false,"rental_uris":{"android":"levelo://app?vid=1e256ef1-f14e-4c9d-ab42-5aeffd26cfab","ios":"levelo://app?vid=1e256ef1-f14e-4c9d-ab42-5aeffd26cfab"},"vehicle_type_id":"4","last_reported":1752067630,"current_range_meters":2000,"station_id":"ce4bhi12rcd13ifvqfq0","pricing_plan_id":"cebpf4jnsgd1na2vs0mg"},{"bike_id":"14e7b21f-6a49-4bd8-adcb-9e2a34f46350","system_id":"levelo_inurba_marseille","lat":43.28098,"lon":5.39866,"is_reserved":false,"is_disabled":false,"rental_uris":{"android":"levelo://app?vid=14e7b21f-6a49-4bd8-adcb-9e2a34f46350","ios":"levelo://app?vid=14e7b21f-6a49-4bd8-adcb-9e2a34f46350"},"vehicle_type_id":"4","last_reported":1752067630,"current_range_meters":2800,"station_id":"","pricing_plan_id":"cebpf4jnsgd1na2vs0mg"},{"bike_id":"c98d0307-3157-4a39-9409-864e8e505802","system_id":"levelo_inurba_marseille","lat":43.24159,"lon":5.39363,"is_reserved":false,"is_disabled":false,"rental_uris":{"android":"levelo://app?vid=c98d0307-3157-4a39-9409-864e8e505802","ios":"levelo://app?vid=c98d0307-3157-4a39-9409-864e8e505802"},"vehicle_type_id":"4","last_reported":1752067630,"current_range_meters":2800,"station_id":"","pricing_plan_id":"cebpf4jnsgd1na2vs0mg"},{"bike_id":"3b22f952-d0bc-4c00-8fd3-7e27b88aea23","system_id":"levelo_inurba_marseille","lat":43.29659,"lon":5.36245,"is_reserved":false,"is_disabled":false,"rental_uris":{"android":"levelo://app?vid=3b22f952-d0bc-4c00-8fd3-7e27b88aea23","ios":"levelo://app?vid=3b22f952-d0bc-4c00-8fd3-7e27b88aea23"},"vehicle_type_id":"4","last_reported":1752067630,"current_range_meters":2800,"station_id":"","pricing_plan_id":"cebpf4jnsgd1na2vs0mg"},{"bike_id":"984a80e0-30b8-474b-8067-d6813140342e","system_id":"levelo_inurba_marseille","lat":43.30582,"lon":5.39352,"is_reserved":false,"is_disabled":false,"rental_uris":{"android":"levelo://app?vid=984a80e0-30b8-474b-8067-d6813140342e","ios":"levelo://app?vid=984a80e0-30b8-474b-8067-d6813140342e"},"vehicle_type_id":"4","last_reported":1752067630,"current_range_meters":2800,"station_id":"ce4bh0p2rcd13ifvqd80","pricing_plan_id":"cebpf4jnsgd1na2vs0mg"},{"bike_id":"4eb3a6f7-61ab-4696-ae8c-b98c21d9096b","system_id":"levelo_inurba_marseille","lat":43.23973,"lon":5.36627,"is_reserved":false,"is_disabled":false,"rental_uris":{"android":"levelo://app?vid=4eb3a6f7-61ab-4696-ae8c-b98c21d9096b","ios":"levelo://app?vid=4eb3a6f7-61ab-4696-ae8c-b98c21d9096b"},"vehicle_type_id":"4","last_reported":1752067630,"current_range_meters":2800,"station_id":"ce4bhi12rcd13ifvqfp0","pricing_plan_id":"cebpf4jnsgd1na2vs0mg"},{"bike_id":"cc5f0a45-c898-468d-8f9f-cd21d864738e","system_id":"levelo_inurba_marseille","lat":43.26201,"lon":5.37933,"is_reserved":false,"is_disabled":false,"rental_uris":{"android":"levelo://app?vid=cc5f0a45-c898-468d-8f9f-cd21d864738e","ios":"levelo://app?vid=cc5f0a45-c898-468d-8f9f-cd21d864738e"},"vehicle_type_id":"4","last_reported":1752067630,"current_range_meters":2800,"station_id":"ce4bhjp2rcd13ifvqg90","pricing_plan_id":"cebpf4jnsgd1na2vs0mg"},{"bike_id":"744ea4d8-ed9b-48ee-911c-6b41f0643a95","system_id":"levelo_inurba_marseille","lat":43.27492,"lon":5.42451,"is_reserved":false,"is_disabled":false,"rental_uris":{"android":"levelo://app?vid=744ea4d8-ed9b-48ee-911c-6b41f0643a95","ios":"levelo://app?vid=744ea4d8-ed9b-48ee-911c-6b41f0643a95"},"vehicle_type_id":"4","last_reported":1752067630,"current_range_meters":2800,"station_id":"ce4bhn92rcd13ifvqgrg","pricing_plan_id":"cebpf4jnsgd1na2vs0mg"},{"bike_id":"37f2becd-23f9-4f13-a711-38b8024eeec7","system_id":"levelo_inurba_marseille","lat":43.33768,"lon":5.37516,"is_reserved":false,"is_disabled":false,"rental_uris":{"android":"levelo://app?vid=37f2becd-23f9-4f13-a711-38b8024eeec7","ios":"levelo://app?vid=37f2becd-23f9-4f13-a711-38b8024eeec7"},"vehicle_type_id":"4","last_reported":1752067630,"current_range_meters":3200,"station_id":"","pricing_plan_id":"cebpf4jnsgd1na2vs0mg"},{"bike_id":"2c423baa-ecca-420a-87d7-ad0b7e0b9ebb","system_id":"levelo_inurba_marseille","lat":43.28053,"lon":5.35353,"is_reserved":false,"is_disabled":false,"rental_uris":{"android":"levelo://app?vid=2c423baa-ecca-420a-87d7-ad0b7e0b9ebb","ios":"levelo://app?vid=2c423baa-ecca-420a-87d7-ad0b7e0b9ebb"},"vehicle_type_id":"4","last_reported":1752067630,"current_range_meters":4000,"station_id":"","pricing_plan_id":"cebpf4jnsgd1na2vs0mg"},{"bike_id":"05a931d8-879f-4478-9418-13bca1458045","system_id":"levelo_inurba_marseille","lat":43.28409,"lon":5.34992,"is_reserved":false,"is_disabled":false,"rental_uris":{"android":"levelo://app?vid=05a931d8-879f-4478-9418-13bca1458045","ios":"levelo://app?vid=05a931d8-879f-4478-9418-13bca1458045"},"vehicle_type_id":"4","last_reported":1752067630,"current_range_meters":4000,"station_id":"ce4bhbh2rcd13ifvqepg","pricing_plan_id":"cebpf4jnsgd1na2vs0mg"},{"bike_id":"303615e2-b645-47aa-b8dc-d69233e50c42","system_id":"levelo_inurba_marseille","lat":43.29897,"lon":5.43647,"is_reserved":false,"is_disabled":false,"rental_uris":{"android":"levelo://app?vid=303615e2-b645-47aa-b8dc-d69233e50c42","ios":"levelo://app?vid=303615e2-b645-47aa-b8dc-d69233e50c42"},"vehicle_type_id":"4","last_reported":1752067630,"current_range_meters":4000,"station_id":"ce4bhpp2rcd13ifvqhfg","pricing_plan_id":"cebpf4jnsgd1na2vs0mg"},{"bike_id":"b34661ff-6092-4219-aecd-4655a9b817e5","system_id":"levelo_inurba_marseille","lat":43.27809,"lon":5.40721,"is_reserved":false,"is_disabled":false,"rental_uris":{"android":"levelo://app?vid=b34661ff-6092-4219-aecd-4655a9b817e5","ios":"levelo://app?vid=b34661ff-6092-4219-aecd-4655a9b817e5"},"vehicle_type_id":"4","last_reported":1752067630,"current_range_meters":4800,"station_id":"ce4bhnh2rcd13ifvqgtg","pricing_plan_id":"cebpf4jnsgd1na2vs0mg"},{"bike_id":"2c951ef5-d405-4594-bbf6-f11f93edd07b","system_id":"levelo_inurba_marseille","lat":43.23055,"lon":5.35493,"is_reserved":false,"is_disabled":false,"rental_uris":{"android":"levelo://app?vid=2c951ef5-d405-4594-bbf6-f11f93edd07b","ios":"levelo://app?vid=2c951ef5-d405-4594-bbf6-f11f93edd07b"},"vehicle_type_id":"4","last_reported":1752067630,"current_range_meters":4800,"station_id":"cpo3342slgdg3j2ifvpg","pricing_plan_id":"cebpf4jnsgd1na2vs0mg"},{"bike_id":"dd058f99-adb9-42fa-9e70-98d79a484599","system_id":"levelo_inurba_marseille","lat":43.269415,"lon":5.389439,"is_reserved":false,"is_disabled":false,"rental_uris":{"android":"levelo://app?vid=dd058f99-adb9-42fa-9e70-98d79a484599","ios":"levelo://app?vid=dd058f99-adb9-42fa-9e70-98d79a484599"},"vehicle_type_id":"4","last_reported":1752067630,"current_range_meters":5600,"station_id":"ce4bhhh2rcd13ifvqfl0","pricing_plan_id":"cebpf4jnsgd1na2vs0mg"},{"bike_id":"8793e523-5eb1-455e-838e-15f85858808e","system_id":"levelo_inurba_marseille","lat":43.212407,"lon":5.351029,"is_reserved":false,"is_disabled":false,"rental_uris":{"android":"levelo://app?vid=8793e523-5eb1-455e-838e-15f85858808e","ios":"levelo://app?vid=8793e523-5eb1-455e-838e-15f85858808e"},"vehicle_type_id":"4","last_reported":1752067630,"current_range_meters":5600,"station_id":"st_cvj6sg6p6f1abm77japg","pricing_plan_id":"cebpf4jnsgd1na2vs0mg"},{"bike_id":"0c8f92f0-34dd-4528-ac9a-218976babbcb","system_id":"levelo_inurba_marseille","lat":43.297057,"lon":5.376893,"is_reserved":false,"is_disabled":false,"rental_uris":{"android":"levelo://app?vid=0c8f92f0-34dd-4528-ac9a-218976babbcb","ios":"levelo://app?vid=0c8f92f0-34dd-4528-ac9a-218976babbcb"},"vehicle_type_id":"4","last_reported":1752067630,"current_range_meters":6000,"station_id":"ce4bgkh2rcd13ifvqbl0","pricing_plan_id":"cebpf4jnsgd1na2vs0mg"},{"bike_id":"1facfc2e-8fdf-4c75-86e7-5d15f353b28f","system_id":"levelo_inurba_marseille","lat":43.26956,"lon":5.38631,"is_reserved":false,"is_disabled":false,"rental_uris":{"android":"levelo://app?vid=1facfc2e-8fdf-4c75-86e7-5d15f353b28f","ios":"levelo://app?vid=1facfc2e-8fdf-4c75-86e7-5d15f353b28f"},"vehicle_type_id":"4","last_reported":1752067630,"current_range_meters":6000,"station_id":"ce4bhh92rcd13ifvqfh0","pricing_plan_id":"cebpf4jnsgd1na2vs0mg"},{"bike_id":"558b5fbc-db2f-4bac-8493-28cdc5ca64c2","system_id":"levelo_inurba_marseille","lat":43.30271,"lon":5.3771,"is_reserved":false,"is_disabled":false,"rental_uris":{"android":"levelo://app?vid=558b5fbc-db2f-4bac-8493-28cdc5ca64c2","ios":"levelo://app?vid=558b5fbc-db2f-4bac-8493-28cdc5ca64c2"},"vehicle_type_id":"4","last_reported":1752067630,"current_range_meters":6400,"station_id":"ce4bguh2rcd13ifvqcj0","pricing_plan_id":"cebpf4jnsgd1na2vs0mg"},{"bike_id":"3f1321c4-5ffa-415a-b9a3-5f4c487a94e9","system_id":"levelo_inurba_marseille","lat":43.29554,"lon":5.42292,"is_reserved":false,"is_disabled":false,"rental_uris":{"android":"levelo://app?vid=3f1321c4-5ffa-415a-b9a3-5f4c487a94e9","ios":"levelo://app?vid=3f1321c4-5ffa-415a-b9a3-5f4c487a94e9"},"vehicle_type_id":"4","last_reported":1752067630,"current_range_meters":6400,"station_id":"ce4bhph2rcd13ifvqhdg","pricing_plan_id":"cebpf4jnsgd1na2vs0mg"},{"bike_id":"a66e68a1-47fd-46d6-a978-13ee1a1adcd9","system_id":"levelo_inurba_marseille","lat":43.32483,"lon":5.36573,"is_reserved":false,"is_disabled":false,"rental_uris":{"android":"levelo://app?vid=a66e68a1-47fd-46d6-a978-13ee1a1adcd9","ios":"levelo://app?vid=a66e68a1-47fd-46d6-a978-13ee1a1adcd9"},"vehicle_type_id":"4","last_reported":1752067630,"current_range_meters":6400,"station_id":"ce4bhs12rcd13ifvqhvg","pricing_plan_id":"cebpf4jnsgd1na2vs0mg"},{"bike_id":"c892e348-beb6-425c-b800-690c68cbec7c","system_id":"levelo_inurba_marseille","lat":43.23052,"lon":5.35495,"is_reserved":false,"is_disabled":false,"rental_uris":{"android":"levelo://app?vid=c892e348-beb6-425c-b800-690c68cbec7c","ios":"levelo://app?vid=c892e348-beb6-425c-b800-690c68cbec7c"},"vehicle_type_id":"4","last_reported":1752067630,"current_range_meters":6400,"station_id":"cpo3342slgdg3j2ifvpg","pricing_plan_id":"cebpf4jnsgd1na2vs0mg"},{"bike_id":"373f7154-05e4-4923-8d21-eb4b99691656","system_id":"levelo_inurba_marseille","lat":43.31534,"lon":5.38683,"is_reserved":false,"is_disabled":false,"rental_uris":{"android":"levelo://app?vid=373f7154-05e4-4923-8d21-eb4b99691656","ios":"levelo://app?vid=373f7154-05e4-4923-8d21-eb4b99691656"},"vehicle_type_id":"4","last_reported":1752067630,"current_range_meters":8000,"station_id":"","pricing_plan_id":"cebpf4jnsgd1na2vs0mg"},{"bike_id":"888522e3-39b6-4ff3-ad74-ff6c6f771157","system_id":"levelo_inurba_marseille","lat":43.29489,"lon":5.4036,"is_reserved":false,"is_disabled":false,"rental_uris":{"android":"levelo://app?vid=888522e3-39b6-4ff3-ad74-ff6c6f771157","ios":"levelo://app?vid=888522e3-39b6-4ff3-ad74-ff6c6f771157"},"vehicle_type_id":"4","last_reported":1752067630,"current_range_meters":8000,"station_id":"","pricing_plan_id":"cebpf4jnsgd1na2vs0mg"},{"bike_id":"46c2bd78-6fc9-425f-9596-0adf35280f74","system_id":"levelo_inurba_marseille","lat":43.28265,"lon":5.35062,"is_reserved":false,"is_disabled":false,"rental_uris":{"android":"levelo://app?vid=46c2bd78-6fc9-425f-9596-0adf35280f74","ios":"levelo://app?vid=46c2bd78-6fc9-425f-9596-0adf35280f74"},"vehicle_type_id":"4","last_reported":1752067630,"current_range_meters":8000,"station_id":"ce4bhbp2rcd13ifvqerg","pricing_plan_id":"cebpf4jnsgd1na2vs0mg"},{"bike_id":"c4f85196-d81f-47a3-8720-05006d4c86e7","system_id":"levelo_inurba_marseille","lat":43.25927,"lon":5.40895,"is_reserved":false,"is_disabled":false,"rental_uris":{"android":"levelo://app?vid=c4f85196-d81f-47a3-8720-05006d4c86e7","ios":"levelo://app?vid=c4f85196-d81f-47a3-8720-05006d4c86e7"},"vehicle_type_id":"4","last_reported":1752067630,"current_range_meters":8000,"station_id":"ce4bhm92rcd13ifvqglg","pricing_plan_id":"cebpf4jnsgd1na2vs0mg"},{"bike_id":"ac153622-3e3b-42ef-b74e-88c9e56968df","system_id":"levelo_inurba_marseille","lat":43.32108,"lon":5.36776,"is_reserved":false,"is_disabled":false,"rental_uris":{"android":"levelo://app?vid=ac153622-3e3b-42ef-b74e-88c9e56968df","ios":"levelo://app?vid=ac153622-3e3b-42ef-b74e-88c9e56968df"},"vehicle_type_id":"4","last_reported":1752067630,"current_range_meters":8400,"station_id":"ce4bhrh2rcd13ifvqhug","pricing_plan_id":"cebpf4jnsgd1na2vs0mg"},{"bike_id":"8d355ab6-4461-49e0-aadf-54d1296aa083","system_id":"levelo_inurba_marseille","lat":43.21756,"lon":5.34604,"is_reserved":false,"is_disabled":false,"rental_uris":{"android":"levelo://app?vid=8d355ab6-4461-49e0-aadf-54d1296aa083","ios":"levelo://app?vid=8d355ab6-4461-49e0-aadf-54d1296aa083"},"vehicle_type_id":"4","last_reported":1752067630,"current_range_meters":8400,"station_id":"st_cvj6r9ubvosntc0bgbag","pricing_plan_id":"cebpf4jnsgd1na2vs0mg"},{"bike_id":"069759f3-8488-4973-b337-5e447fc27e24","system_id":"levelo_inurba_marseille","lat":43.21192,"lon":5.35071,"is_reserved":false,"is_disabled":false,"rental_uris":{"android":"levelo://app?vid=069759f3-8488-4973-b337-5e447fc27e24","ios":"levelo://app?vid=069759f3-8488-4973-b337-5e447fc27e24"},"vehicle_type_id":"4","last_reported":1752067630,"current_range_meters":8400,"station_id":"st_cvj6sg6p6f1abm77japg","pricing_plan_id":"cebpf4jnsgd1na2vs0mg"},{"bike_id":"8fb47260-6da5-4fbe-ae4b-97caeedf5797","system_id":"levelo_inurba_marseille","lat":43.30425,"lon":5.39745,"is_reserved":false,"is_disabled":false,"rental_uris":{"android":"levelo://app?vid=8fb47260-6da5-4fbe-ae4b-97caeedf5797","ios":"levelo://app?vid=8fb47260-6da5-4fbe-ae4b-97caeedf5797"},"vehicle_type_id":"4","last_reported":1752067630,"current_range_meters":8800,"station_id":"ce4bh092rcd13ifvqd20","pricing_plan_id":"cebpf4jnsgd1na2vs0mg"},{"bike_id":"a57baff1-aa7e-473b-96dd-0a6b6e628f25","system_id":"levelo_inurba_marseille","lat":43.28262,"lon":5.35072,"is_reserved":false,"is_disabled":false,"rental_uris":{"android":"levelo://app?vid=a57baff1-aa7e-473b-96dd-0a6b6e628f25","ios":"levelo://app?vid=a57baff1-aa7e-473b-96dd-0a6b6e628f25"},"vehicle_type_id":"4","last_reported":1752067630,"current_range_meters":8800,"station_id":"ce4bhbp2rcd13ifvqerg","pricing_plan_id":"cebpf4jnsgd1na2vs0mg"},{"bike_id":"3e40b58f-85e7-4016-8fdf-0e1afcab36f8","system_id":"levelo_inurba_marseille","lat":43.28611,"lon":5.35101,"is_reserved":false,"is_disabled":false,"rental_uris":{"android":"levelo://app?vid=3e40b58f-85e7-4016-8fdf-0e1afcab36f8","ios":"levelo://app?vid=3e40b58f-85e7-4016-8fdf-0e1afcab36f8"},"vehicle_type_id":"4","last_reported":1752067630,"current_range_meters":8800,"station_id":"ce4bhch2rcd13ifvqeug","pricing_plan_id":"cebpf4jnsgd1na2vs0mg"},{"bike_id":"c43ed30f-381e-43a2-b4c8-d895ac652420","system_id":"levelo_inurba_marseille","lat":43.24389,"lon":5.37068,"is_reserved":false,"is_disabled":false,"rental_uris":{"android":"levelo://app?vid=c43ed30f-381e-43a2-b4c8-d895ac652420","ios":"levelo://app?vid=c43ed30f-381e-43a2-b4c8-d895ac652420"},"vehicle_type_id":"4","last_reported":1752067630,"current_range_meters":8800,"station_id":"ce4bhhh2rcd13ifvqfk0","pricing_plan_id":"cebpf4jnsgd1na2vs0mg"},{"bike_id":"1fae7385-17e6-4b67-939f-d881940c6d80","system_id":"levelo_inurba_marseille","lat":43.32354,"lon":5.36754,"is_reserved":false,"is_disabled":false,"rental_uris":{"android":"levelo://app?vid=1fae7385-17e6-4b67-939f-d881940c6d80","ios":"levelo://app?vid=1fae7385-17e6-4b67-939f-d881940c6d80"},"vehicle_type_id":"4","last_reported":1752067630,"current_range_meters":8800,"station_id":"ce4bhsh2rcd13ifvqi2g","pricing_plan_id":"cebpf4jnsgd1na2vs0mg"},{"bike_id":"75c63113-e9b1-4fb3-a677-e8502a111c02","system_id":"levelo_inurba_marseille","lat":43.2937,"lon":5.37839,"is_reserved":false,"is_disabled":false,"rental_uris":{"android":"levelo://app?vid=75c63113-e9b1-4fb3-a677-e8502a111c02","ios":"levelo://app?vid=75c63113-e9b1-4fb3-a677-e8502a111c02"},"vehicle_type_id":"4","last_reported":1752067630,"current_range_meters":9200,"station_id":"ce4bgjh2rcd13ifvqbf0","pricing_plan_id":"cebpf4jnsgd1na2vs0mg"},{"bike_id":"a086d5b2-d132-4e71-9c04-f8b92ed6540b","system_id":"levelo_inurba_marseille","lat":43.30886,"lon":5.37192,"is_reserved":false,"is_disabled":false,"rental_uris":{"android":"levelo://app?vid=a086d5b2-d132-4e71-9c04-f8b92ed6540b","ios":"levelo://app?vid=a086d5b2-d132-4e71-9c04-f8b92ed6540b"},"vehicle_type_id":"4","last_reported":1752067630,"current_range_meters":9200,"station_id":"ce4bguh2rcd13ifvqckg","pricing_plan_id":"cebpf4jnsgd1na2vs0mg"},{"bike_id":"bdd9c795-48e2-4a81-b99d-144a3f6d371c","system_id":"levelo_inurba_marseille","lat":43.26776,"lon":5.39418,"is_reserved":false,"is_disabled":false,"rental_uris":{"android":"levelo://app?vid=bdd9c795-48e2-4a81-b99d-144a3f6d371c","ios":"levelo://app?vid=bdd9c795-48e2-4a81-b99d-144a3f6d371c"},"vehicle_type_id":"4","last_reported":1752067630,"current_range_meters":9200,"station_id":"ce4bhh12rcd13ifvqfg0","pricing_plan_id":"cebpf4jnsgd1na2vs0mg"},{"bike_id":"c7b8bc6d-5807-41c5-b013-8000ad88c753","system_id":"levelo_inurba_marseille","lat":43.24164,"lon":5.36397,"is_reserved":false,"is_disabled":false,"rental_uris":{"android":"levelo://app?vid=c7b8bc6d-5807-41c5-b013-8000ad88c753","ios":"levelo://app?vid=c7b8bc6d-5807-41c5-b013-8000ad88c753"},"vehicle_type_id":"4","last_reported":1752067630,"current_range_meters":9200,"station_id":"cpo36qri1sfpv3e86is0","pricing_plan_id":"cebpf4jnsgd1na2vs0mg"},{"bike_id":"7d933cef-15cf-47fc-812c-894d3d9bd172","system_id":"levelo_inurba_marseille","lat":43.217465,"lon":5.346028,"is_reserved":false,"is_disabled":false,"rental_uris":{"android":"levelo://app?vid=7d933cef-15cf-47fc-812c-894d3d9bd172","ios":"levelo://app?vid=7d933cef-15cf-47fc-812c-894d3d9bd172"},"vehicle_type_id":"4","last_reported":1752067630,"current_range_meters":9600,"station_id":"st_cvj6r9ubvosntc0bgbag","pricing_plan_id":"cebpf4jnsgd1na2vs0mg"},{"bike_id":"3030cb07-c041-4d87-a253-8c849c24aa85","system_id":"levelo_inurba_marseille","lat":43.32655,"lon":5.36221,"is_reserved":false,"is_disabled":false,"rental_uris":{"android":"levelo://app?vid=3030cb07-c041-4d87-a253-8c849c24aa85","ios":"levelo://app?vid=3030cb07-c041-4d87-a253-8c849c24aa85"},"vehicle_type_id":"4","last_reported":1752067630,"current_range_meters":10000,"station_id":"","pricing_plan_id":"cebpf4jnsgd1na2vs0mg"},{"bike_id":"4a9ca783-2125-44e5-aa07-76412ba19333","system_id":"levelo_inurba_marseille","lat":43.3053,"lon":5.36717,"is_reserved":false,"is_disabled":false,"rental_uris":{"android":"levelo://app?vid=4a9ca783-2125-44e5-aa07-76412ba19333","ios":"levelo://app?vid=4a9ca783-2125-44e5-aa07-76412ba19333"},"vehicle_type_id":"4","last_reported":1752067630,"current_range_meters":10000,"station_id":"ce4bgrp2rcd13ifvqc9g","pricing_plan_id":"cebpf4jnsgd1na2vs0mg"},{"bike_id":"3d828fc3-351e-4d89-b607-abc4d5b36fb3","system_id":"levelo_inurba_marseille","lat":43.31171,"lon":5.38719,"is_reserved":false,"is_disabled":false,"rental_uris":{"android":"levelo://app?vid=3d828fc3-351e-4d89-b607-abc4d5b36fb3","ios":"levelo://app?vid=3d828fc3-351e-4d89-b607-abc4d5b36fb3"},"vehicle_type_id":"4","last_reported":1752067630,"current_range_meters":10000,"station_id":"ce4bgv12rcd13ifvqcp0","pricing_plan_id":"cebpf4jnsgd1na2vs0mg"},{"bike_id":"c1dfe0b9-49ee-4c7d-b4b9-1421b06c7da0","system_id":"levelo_inurba_marseille","lat":43.24401,"lon":5.37059,"is_reserved":false,"is_disabled":false,"rental_uris":{"android":"levelo://app?vid=c1dfe0b9-49ee-4c7d-b4b9-1421b06c7da0","ios":"levelo://app?vid=c1dfe0b9-49ee-4c7d-b4b9-1421b06c7da0"},"vehicle_type_id":"4","last_reported":1752067630,"current_range_meters":10000,"station_id":"ce4bhhh2rcd13ifvqfk0","pricing_plan_id":"cebpf4jnsgd1na2vs0mg"},{"bike_id":"038cc9f7-3db3-4a14-a3dd-a9f6e9d54aa7","system_id":"levelo_inurba_marseille","lat":43.23057,"lon":5.3549,"is_reserved":false,"is_disabled":false,"rental_uris":{"android":"levelo://app?vid=038cc9f7-3db3-4a14-a3dd-a9f6e9d54aa7","ios":"levelo://app?vid=038cc9f7-3db3-4a14-a3dd-a9f6e9d54aa7"},"vehicle_type_id":"4","last_reported":1752067630,"current_range_meters":10000,"station_id":"cpo3342slgdg3j2ifvpg","pricing_plan_id":"cebpf4jnsgd1na2vs0mg"},{"bike_id":"3bd8b8a3-512e-4c45-8839-c2f9349ff4ec","system_id":"levelo_inurba_marseille","lat":43.21755,"lon":5.34595,"is_reserved":false,"is_disabled":false,"rental_uris":{"android":"levelo://app?vid=3bd8b8a3-512e-4c45-8839-c2f9349ff4ec","ios":"levelo://app?vid=3bd8b8a3-512e-4c45-8839-c2f9349ff4ec"},"vehicle_type_id":"4","last_reported":1752067630,"current_range_meters":10800,"station_id":"","pricing_plan_id":"cebpf4jnsgd1na2vs0mg"},{"bike_id":"87c2d236-4978-4760-be77-27d7f5a212e4","system_id":"levelo_inurba_marseille","lat":43.29644,"lon":5.36205,"is_reserved":false,"is_disabled":false,"rental_uris":{"android":"levelo://app?vid=87c2d236-4978-4760-be77-27d7f5a212e4","ios":"levelo://app?vid=87c2d236-4978-4760-be77-27d7f5a212e4"},"vehicle_type_id":"4","last_reported":1752067630,"current_range_meters":10800,"station_id":"","pricing_plan_id":"cebpf4jnsgd1na2vs0mg"},{"bike_id":"3d03e4d1-9223-421e-971a-04ea26a2054f","system_id":"levelo_inurba_marseille","lat":43.30911,"lon":5.36846,"is_reserved":false,"is_disabled":false,"rental_uris":{"android":"levelo://app?vid=3d03e4d1-9223-421e-971a-04ea26a2054f","ios":"levelo://app?vid=3d03e4d1-9223-421e-971a-04ea26a2054f"},"vehicle_type_id":"4","last_reported":1752067630,"current_range_meters":10800,"station_id":"ce4bgn92rcd13ifvqbvg","pricing_plan_id":"cebpf4jnsgd1na2vs0mg"},{"bike_id":"562b2c97-bada-4cc5-8d1a-706a99a144a7","system_id":"levelo_inurba_marseille","lat":43.28409,"lon":5.37522,"is_reserved":false,"is_disabled":false,"rental_uris":{"android":"levelo://app?vid=562b2c97-bada-4cc5-8d1a-706a99a144a7","ios":"levelo://app?vid=562b2c97-bada-4cc5-8d1a-706a99a144a7"},"vehicle_type_id":"4","last_reported":1752067630,"current_range_meters":10800,"station_id":"ce4bh412rcd13ifvqds0","pricing_plan_id":"cebpf4jnsgd1na2vs0mg"},{"bike_id":"c4359b04-f774-46a8-b3be-d50437b5bdb7","system_id":"levelo_inurba_marseille","lat":43.27371,"lon":5.36256,"is_reserved":false,"is_disabled":false,"rental_uris":{"android":"levelo://app?vid=c4359b04-f774-46a8-b3be-d50437b5bdb7","ios":"levelo://app?vid=c4359b04-f774-46a8-b3be-d50437b5bdb7"},"vehicle_type_id":"4","last_reported":1752067630,"current_range_meters":10800,"station_id":"ce4bhbh2rcd13ifvqeo0","pricing_plan_id":"cebpf4jnsgd1na2vs0mg"},{"bike_id":"f46f42ca-0d22-4433-873b-d2bc6d7d7f82","system_id":"levelo_inurba_marseille","lat":43.24803,"lon":5.37458,"is_reserved":false,"is_disabled":false,"rental_uris":{"android":"levelo://app?vid=f46f42ca-0d22-4433-873b-d2bc6d7d7f82","ios":"levelo://app?vid=f46f42ca-0d22-4433-873b-d2bc6d7d7f82"},"vehicle_type_id":"4","last_reported":1752067630,"current_range_meters":10800,"station_id":"ce4bhgh2rcd13ifvqfb0","pricing_plan_id":"cebpf4jnsgd1na2vs0mg"},{"bike_id":"35e4c553-5e53-4c65-bf93-6ca1a295f1f8","system_id":"levelo_inurba_marseille","lat":43.280005,"lon":5.40004,"is_reserved":false,"is_disabled":false,"rental_uris":{"android":"levelo://app?vid=35e4c553-5e53-4c65-bf93-6ca1a295f1f8","ios":"levelo://app?vid=35e4c553-5e53-4c65-bf93-6ca1a295f1f8"},"vehicle_type_id":"4","last_reported":1752067630,"current_range_meters":10800,"station_id":"ce4bho92rcd13ifvqh4g","pricing_plan_id":"cebpf4jnsgd1na2vs0mg"},{"bike_id":"f357771c-199b-41ac-93d6-3aa12521b0e8","system_id":"levelo_inurba_marseille","lat":43.29552,"lon":5.42296,"is_reserved":false,"is_disabled":false,"rental_uris":{"android":"levelo://app?vid=f357771c-199b-41ac-93d6-3aa12521b0e8","ios":"levelo://app?vid=f357771c-199b-41ac-93d6-3aa12521b0e8"},"vehicle_type_id":"4","last_reported":1752067630,"current_range_meters":10800,"station_id":"ce4bhph2rcd13ifvqhdg","pricing_plan_id":"cebpf4jnsgd1na2vs0mg"},{"bike_id":"20904a9f-6955-47a0-a760-4d70dd099470","system_id":"levelo_inurba_marseille","lat":43.23302,"lon":5.40053,"is_reserved":false,"is_disabled":false,"rental_uris":{"android":"levelo://app?vid=20904a9f-6955-47a0-a760-4d70dd099470","ios":"levelo://app?vid=20904a9f-6955-47a0-a760-4d70dd099470"},"vehicle_type_id":"4","last_reported":1752067630,"current_range_meters":11200,"station_id":"","pricing_plan_id":"cebpf4jnsgd1na2vs0mg"},{"bike_id":"fff1ff4e-c9f9-4f9f-8ead-cd7131e1c440","system_id":"levelo_inurba_marseille","lat":43.26207,"lon":5.37443,"is_reserved":false,"is_disabled":false,"rental_uris":{"android":"levelo://app?vid=fff1ff4e-c9f9-4f9f-8ead-cd7131e1c440","ios":"levelo://app?vid=fff1ff4e-c9f9-4f9f-8ead-cd7131e1c440"},"vehicle_type_id":"4","last_reported":1752067630,"current_range_meters":11200,"station_id":"ce4bhgp2rcd13ifvqfc0","pricing_plan_id":"cebpf4jnsgd1na2vs0mg"},{"bike_id":"a74d1421-7a37-499b-b1c4-5e1394842b7e","system_id":"levelo_inurba_marseille","lat":43.33725,"lon":5.39179,"is_reserved":false,"is_disabled":false,"rental_uris":{"android":"levelo://app?vid=a74d1421-7a37-499b-b1c4-5e1394842b7e","ios":"levelo://app?vid=a74d1421-7a37-499b-b1c4-5e1394842b7e"},"vehicle_type_id":"4","last_reported":1752067630,"current_range_meters":11200,"station_id":"ce4bhr92rcd13ifvqhsg","pricing_plan_id":"cebpf4jnsgd1na2vs0mg"},{"bike_id":"34775ba0-ef64-446b-a197-fa80cd394d2b","system_id":"levelo_inurba_marseille","lat":43.21194,"lon":5.35073,"is_reserved":false,"is_disabled":false,"rental_uris":{"android":"levelo://app?vid=34775ba0-ef64-446b-a197-fa80cd394d2b","ios":"levelo://app?vid=34775ba0-ef64-446b-a197-fa80cd394d2b"},"vehicle_type_id":"4","last_reported":1752067630,"current_range_meters":11200,"station_id":"st_cvj6sg6p6f1abm77japg","pricing_plan_id":"cebpf4jnsgd1na2vs0mg"},{"bike_id":"8aa56a6a-b6ff-4a94-9380-680f03852d53","system_id":"levelo_inurba_marseille","lat":43.337699,"lon":5.374282,"is_reserved":false,"is_disabled":false,"rental_uris":{"android":"levelo://app?vid=8aa56a6a-b6ff-4a94-9380-680f03852d53","ios":"levelo://app?vid=8aa56a6a-b6ff-4a94-9380-680f03852d53"},"vehicle_type_id":"4","last_reported":1752067630,"current_range_meters":11600,"station_id":"","pricing_plan_id":"cebpf4jnsgd1na2vs0mg"},{"bike_id":"358a6808-ea51-4b17-983b-537fe7c78e0c","system_id":"levelo_inurba_marseille","lat":43.30246,"lon":5.40075,"is_reserved":false,"is_disabled":false,"rental_uris":{"android":"levelo://app?vid=358a6808-ea51-4b17-983b-537fe7c78e0c","ios":"levelo://app?vid=358a6808-ea51-4b17-983b-537fe7c78e0c"},"vehicle_type_id":"4","last_reported":1752067630,"current_range_meters":11600,"station_id":"ce4bgvh2rcd13ifvqcs0","pricing_plan_id":"cebpf4jnsgd1na2vs0mg"},{"bike_id":"f068a957-25e7-492d-b17d-d5308b0098a6","system_id":"levelo_inurba_marseille","lat":43.30132,"lon":5.39873,"is_reserved":false,"is_disabled":false,"rental_uris":{"android":"levelo://app?vid=f068a957-25e7-492d-b17d-d5308b0098a6","ios":"levelo://app?vid=f068a957-25e7-492d-b17d-d5308b0098a6"},"vehicle_type_id":"4","last_reported":1752067630,"current_range_meters":11600,"station_id":"ce4bh0h2rcd13ifvqd40","pricing_plan_id":"cebpf4jnsgd1na2vs0mg"},{"bike_id":"5a0a7d3e-c391-4254-8a57-0f34df6985ea","system_id":"levelo_inurba_marseille","lat":43.29059,"lon":5.37137,"is_reserved":false,"is_disabled":false,"rental_uris":{"android":"levelo://app?vid=5a0a7d3e-c391-4254-8a57-0f34df6985ea","ios":"levelo://app?vid=5a0a7d3e-c391-4254-8a57-0f34df6985ea"},"vehicle_type_id":"4","last_reported":1752067630,"current_range_meters":11600,"station_id":"ce4bh5p2rcd13ifvqe4g","pricing_plan_id":"cebpf4jnsgd1na2vs0mg"},{"bike_id":"a1e2b254-3d68-416b-a9c4-c99db595cc5e","system_id":"levelo_inurba_marseille","lat":43.28408,"lon":5.35007,"is_reserved":false,"is_disabled":false,"rental_uris":{"android":"levelo://app?vid=a1e2b254-3d68-416b-a9c4-c99db595cc5e","ios":"levelo://app?vid=a1e2b254-3d68-416b-a9c4-c99db595cc5e"},"vehicle_type_id":"4","last_reported":1752067630,"current_range_meters":11600,"station_id":"ce4bhbh2rcd13ifvqepg","pricing_plan_id":"cebpf4jnsgd1na2vs0mg"},{"bike_id":"424fd8d5-b890-4af3-a856-0e4624d18a3b","system_id":"levelo_inurba_marseille","lat":43.28252,"lon":5.3508,"is_reserved":false,"is_disabled":false,"rental_uris":{"android":"levelo://app?vid=424fd8d5-b890-4af3-a856-0e4624d18a3b","ios":"levelo://app?vid=424fd8d5-b890-4af3-a856-0e4624d18a3b"},"vehicle_type_id":"4","last_reported":1752067630,"current_range_meters":11600,"station_id":"ce4bhbp2rcd13ifvqerg","pricing_plan_id":"cebpf4jnsgd1na2vs0mg"},{"bike_id":"00a55dd1-a88f-44d7-b4cc-38175a2949f4","system_id":"levelo_inurba_marseille","lat":43.26067,"lon":5.39389,"is_reserved":false,"is_disabled":false,"rental_uris":{"android":"levelo://app?vid=00a55dd1-a88f-44d7-b4cc-38175a2949f4","ios":"levelo://app?vid=00a55dd1-a88f-44d7-b4cc-38175a2949f4"},"vehicle_type_id":"4","last_reported":1752067630,"current_range_meters":11600,"station_id":"ce4bhh92rcd13ifvqfj0","pricing_plan_id":"cebpf4jnsgd1na2vs0mg"},{"bike_id":"84f0d06d-50e1-4da5-ba6a-3c6fe9dfab5d","system_id":"levelo_inurba_marseille","lat":43.301908,"lon":5.366081,"is_reserved":false,"is_disabled":false,"rental_uris":{"android":"levelo://app?vid=84f0d06d-50e1-4da5-ba6a-3c6fe9dfab5d","ios":"levelo://app?vid=84f0d06d-50e1-4da5-ba6a-3c6fe9dfab5d"},"vehicle_type_id":"4","last_reported":1752067630,"current_range_meters":12000,"station_id":"ce4bgrh2rcd13ifvqc8g","pricing_plan_id":"cebpf4jnsgd1na2vs0mg"},{"bike_id":"ba958952-a520-4602-8ca0-f28ce7d4c533","system_id":"levelo_inurba_marseille","lat":43.28413,"lon":5.34995,"is_reserved":false,"is_disabled":false,"rental_uris":{"android":"levelo://app?vid=ba958952-a520-4602-8ca0-f28ce7d4c533","ios":"levelo://app?vid=ba958952-a520-4602-8ca0-f28ce7d4c533"},"vehicle_type_id":"4","last_reported":1752067630,"current_range_meters":12000,"station_id":"ce4bhbh2rcd13ifvqepg","pricing_plan_id":"cebpf4jnsgd1na2vs0mg"},{"bike_id":"ca2bab86-416f-413e-81b0-5002099ee069","system_id":"levelo_inurba_marseille","lat":43.27581,"lon":5.42011,"is_reserved":false,"is_disabled":false,"rental_uris":{"android":"levelo://app?vid=ca2bab86-416f-413e-81b0-5002099ee069","ios":"levelo://app?vid=ca2bab86-416f-413e-81b0-5002099ee069"},"vehicle_type_id":"4","last_reported":1752067630,"current_range_meters":12400,"station_id":"","pricing_plan_id":"cebpf4jnsgd1na2vs0mg"},{"bike_id":"840281e7-03cf-4e27-8ab0-ed5dcfb45157","system_id":"levelo_inurba_marseille","lat":43.31477,"lon":5.37302,"is_reserved":false,"is_disabled":false,"rental_uris":{"android":"levelo://app?vid=840281e7-03cf-4e27-8ab0-ed5dcfb45157","ios":"levelo://app?vid=840281e7-03cf-4e27-8ab0-ed5dcfb45157"},"vehicle_type_id":"4","last_reported":1752067630,"current_range_meters":12400,"station_id":"ce4bgt12rcd13ifvqcd0","pricing_plan_id":"cebpf4jnsgd1na2vs0mg"},{"bike_id":"d736d6d4-ec4c-46a4-9ecb-b39d3bcfe47f","system_id":"levelo_inurba_marseille","lat":43.28408,"lon":5.3752,"is_reserved":false,"is_disabled":false,"rental_uris":{"android":"levelo://app?vid=d736d6d4-ec4c-46a4-9ecb-b39d3bcfe47f","ios":"levelo://app?vid=d736d6d4-ec4c-46a4-9ecb-b39d3bcfe47f"},"vehicle_type_id":"4","last_reported":1752067630,"current_range_meters":12400,"station_id":"ce4bh412rcd13ifvqds0","pricing_plan_id":"cebpf4jnsgd1na2vs0mg"},{"bike_id":"449ed129-2f06-47da-936f-6e63a3609258","system_id":"levelo_inurba_marseille","lat":43.23192,"lon":5.35548,"is_reserved":false,"is_disabled":false,"rental_uris":{"android":"levelo://app?vid=449ed129-2f06-47da-936f-6e63a3609258","ios":"levelo://app?vid=449ed129-2f06-47da-936f-6e63a3609258"},"vehicle_type_id":"4","last_reported":1752067630,"current_range_meters":12400,"station_id":"ce4bhu92rcd13ifvqi70","pricing_plan_id":"cebpf4jnsgd1na2vs0mg"},{"bike_id":"84e7e709-4e4f-4764-818c-af719435bfca","system_id":"levelo_inurba_marseille","lat":43.31784,"lon":5.37443,"is_reserved":false,"is_disabled":false,"rental_uris":{"android":"levelo://app?vid=84e7e709-4e4f-4764-818c-af719435bfca","ios":"levelo://app?vid=84e7e709-4e4f-4764-818c-af719435bfca"},"vehicle_type_id":"4","last_reported":1752067630,"current_range_meters":12800,"station_id":"","pricing_plan_id":"cebpf4jnsgd1na2vs0mg"},{"bike_id":"c5fc67f3-4b04-401c-96cd-e119737a4edd","system_id":"levelo_inurba_marseille","lat":43.30887,"lon":5.37197,"is_reserved":false,"is_disabled":false,"rental_uris":{"android":"levelo://app?vid=c5fc67f3-4b04-401c-96cd-e119737a4edd","ios":"levelo://app?vid=c5fc67f3-4b04-401c-96cd-e119737a4edd"},"vehicle_type_id":"4","last_reported":1752067630,"current_range_meters":12800,"station_id":"ce4bguh2rcd13ifvqckg","pricing_plan_id":"cebpf4jnsgd1na2vs0mg"},{"bike_id":"bda4c5af-8f12-4459-89ca-3d87d638eab5","system_id":"levelo_inurba_marseille","lat":43.30335,"lon":5.40424,"is_reserved":false,"is_disabled":false,"rental_uris":{"android":"levelo://app?vid=bda4c5af-8f12-4459-89ca-3d87d638eab5","ios":"levelo://app?vid=bda4c5af-8f12-4459-89ca-3d87d638eab5"},"vehicle_type_id":"4","last_reported":1752067630,"current_range_meters":12800,"station_id":"ce4bh012rcd13ifvqd10","pricing_plan_id":"cebpf4jnsgd1na2vs0mg"},{"bike_id":"db809e37-3097-4853-a0a7-f5c4fd265e11","system_id":"levelo_inurba_marseille","lat":43.24387,"lon":5.37044,"is_reserved":false,"is_disabled":false,"rental_uris":{"android":"levelo://app?vid=db809e37-3097-4853-a0a7-f5c4fd265e11","ios":"levelo://app?vid=db809e37-3097-4853-a0a7-f5c4fd265e11"},"vehicle_type_id":"4","last_reported":1752067630,"current_range_meters":12800,"station_id":"ce4bhhh2rcd13ifvqfk0","pricing_plan_id":"cebpf4jnsgd1na2vs0mg"},{"bike_id":"a5a1db4c-4dcc-46e5-a84f-c0fb8283b97a","system_id":"levelo_inurba_marseille","lat":43.24078,"lon":5.37727,"is_reserved":false,"is_disabled":false,"rental_uris":{"android":"levelo://app?vid=a5a1db4c-4dcc-46e5-a84f-c0fb8283b97a","ios":"levelo://app?vid=a5a1db4c-4dcc-46e5-a84f-c0fb8283b97a"},"vehicle_type_id":"4","last_reported":1752067630,"current_range_meters":12800,"station_id":"ce4bhnp2rcd13ifvqgvg","pricing_plan_id":"cebpf4jnsgd1na2vs0mg"},{"bike_id":"757f6982-67d4-4eb3-9a36-cc30d2d2c8c3","system_id":"levelo_inurba_marseille","lat":43.297,"lon":5.37814,"is_reserved":false,"is_disabled":false,"rental_uris":{"android":"levelo://app?vid=757f6982-67d4-4eb3-9a36-cc30d2d2c8c3","ios":"levelo://app?vid=757f6982-67d4-4eb3-9a36-cc30d2d2c8c3"},"vehicle_type_id":"4","last_reported":1752067630,"current_range_meters":13600,"station_id":"ce4bh192rcd13ifvqdb0","pricing_plan_id":"cebpf4jnsgd1na2vs0mg"},{"bike_id":"ecbd5974-5639-4ba8-95aa-9b52eb330727","system_id":"levelo_inurba_marseille","lat":43.282745,"lon":5.350674,"is_reserved":false,"is_disabled":false,"rental_uris":{"android":"levelo://app?vid=ecbd5974-5639-4ba8-95aa-9b52eb330727","ios":"levelo://app?vid=ecbd5974-5639-4ba8-95aa-9b52eb330727"},"vehicle_type_id":"4","last_reported":1752067630,"current_range_meters":13600,"station_id":"ce4bhbp2rcd13ifvqerg","pricing_plan_id":"cebpf4jnsgd1na2vs0mg"},{"bike_id":"34b55799-542c-46b7-822d-1daf5f1fbae9","system_id":"levelo_inurba_marseille","lat":43.24197,"lon":5.39711,"is_reserved":false,"is_disabled":false,"rental_uris":{"android":"levelo://app?vid=34b55799-542c-46b7-822d-1daf5f1fbae9","ios":"levelo://app?vid=34b55799-542c-46b7-822d-1daf5f1fbae9"},"vehicle_type_id":"4","last_reported":1752067630,"current_range_meters":13600,"station_id":"ce4bhn12rcd13ifvqgpg","pricing_plan_id":"cebpf4jnsgd1na2vs0mg"},{"bike_id":"ac39d365-5643-4610-bf4b-0e5167a77f88","system_id":"levelo_inurba_marseille","lat":43.337234,"lon":5.391805,"is_reserved":false,"is_disabled":false,"rental_uris":{"android":"levelo://app?vid=ac39d365-5643-4610-bf4b-0e5167a77f88","ios":"levelo://app?vid=ac39d365-5643-4610-bf4b-0e5167a77f88"},"vehicle_type_id":"4","last_reported":1752067630,"current_range_meters":13600,"station_id":"ce4bhr92rcd13ifvqhsg","pricing_plan_id":"cebpf4jnsgd1na2vs0mg"},{"bike_id":"308997f7-9cfd-4afe-9fb5-3237642119ea","system_id":"levelo_inurba_marseille","lat":43.21765,"lon":5.34601,"is_reserved":false,"is_disabled":false,"rental_uris":{"android":"levelo://app?vid=308997f7-9cfd-4afe-9fb5-3237642119ea","ios":"levelo://app?vid=308997f7-9cfd-4afe-9fb5-3237642119ea"},"vehicle_type_id":"4","last_reported":1752067630,"current_range_meters":13600,"station_id":"st_cvj6r9ubvosntc0bgbag","pricing_plan_id":"cebpf4jnsgd1na2vs0mg"},{"bike_id":"f573a8fb-f1f8-47c4-901e-ddf2739a5cca","system_id":"levelo_inurba_marseille","lat":43.35999,"lon":5.3249,"is_reserved":false,"is_disabled":false,"rental_uris":{"android":"levelo://app?vid=f573a8fb-f1f8-47c4-901e-ddf2739a5cca","ios":"levelo://app?vid=f573a8fb-f1f8-47c4-901e-ddf2739a5cca"},"vehicle_type_id":"4","last_reported":1752067630,"current_range_meters":14000,"station_id":"","pricing_plan_id":"cebpf4jnsgd1na2vs0mg"},{"bike_id":"4e49d728-c5d4-4e9a-a6d3-f7513bcef38f","system_id":"levelo_inurba_marseille","lat":43.30946,"lon":5.39029,"is_reserved":false,"is_disabled":false,"rental_uris":{"android":"levelo://app?vid=4e49d728-c5d4-4e9a-a6d3-f7513bcef38f","ios":"levelo://app?vid=4e49d728-c5d4-4e9a-a6d3-f7513bcef38f"},"vehicle_type_id":"4","last_reported":1752067630,"current_range_meters":14000,"station_id":"ce4bgup2rcd13ifvqco0","pricing_plan_id":"cebpf4jnsgd1na2vs0mg"},{"bike_id":"47e24036-b202-4ba2-945e-5f08a9b07e1b","system_id":"levelo_inurba_marseille","lat":43.275571,"lon":5.384315,"is_reserved":false,"is_disabled":false,"rental_uris":{"android":"levelo://app?vid=47e24036-b202-4ba2-945e-5f08a9b07e1b","ios":"levelo://app?vid=47e24036-b202-4ba2-945e-5f08a9b07e1b"},"vehicle_type_id":"4","last_reported":1752067630,"current_range_meters":14000,"station_id":"ce4bhh92rcd13ifvqfi0","pricing_plan_id":"cebpf4jnsgd1na2vs0mg"},{"bike_id":"4975b22d-8c48-452f-bd19-7a9d3ed7c378","system_id":"levelo_inurba_marseille","lat":43.29676,"lon":5.37424,"is_reserved":false,"is_disabled":false,"rental_uris":{"android":"levelo://app?vid=4975b22d-8c48-452f-bd19-7a9d3ed7c378","ios":"levelo://app?vid=4975b22d-8c48-452f-bd19-7a9d3ed7c378"},"vehicle_type_id":"4","last_reported":1752067630,"current_range_meters":14400,"station_id":"","pricing_plan_id":"cebpf4jnsgd1na2vs0mg"},{"bike_id":"c2b72fe0-bae6-4c7b-ad48-9e771b203dc8","system_id":"levelo_inurba_marseille","lat":43.31358,"lon":5.38467,"is_reserved":false,"is_disabled":false,"rental_uris":{"android":"levelo://app?vid=c2b72fe0-bae6-4c7b-ad48-9e771b203dc8","ios":"levelo://app?vid=c2b72fe0-bae6-4c7b-ad48-9e771b203dc8"},"vehicle_type_id":"4","last_reported":1752067630,"current_range_meters":14400,"station_id":"ce4bgt92rcd13ifvqcf0","pricing_plan_id":"cebpf4jnsgd1na2vs0mg"},{"bike_id":"ba628b00-7b7a-4379-bb44-09eb44ca59c9","system_id":"levelo_inurba_marseille","lat":43.24387,"lon":5.37069,"is_reserved":false,"is_disabled":false,"rental_uris":{"android":"levelo://app?vid=ba628b00-7b7a-4379-bb44-09eb44ca59c9","ios":"levelo://app?vid=ba628b00-7b7a-4379-bb44-09eb44ca59c9"},"vehicle_type_id":"4","last_reported":1752067630,"current_range_meters":14400,"station_id":"ce4bhhh2rcd13ifvqfk0","pricing_plan_id":"cebpf4jnsgd1na2vs0mg"},{"bike_id":"0e58fbbd-b608-4f41-b19d-911fbdc9654c","system_id":"levelo_inurba_marseille","lat":43.28142,"lon":5.42653,"is_reserved":false,"is_disabled":false,"rental_uris":{"android":"levelo://app?vid=0e58fbbd-b608-4f41-b19d-911fbdc9654c","ios":"levelo://app?vid=0e58fbbd-b608-4f41-b19d-911fbdc9654c"},"vehicle_type_id":"4","last_reported":1752067630,"current_range_meters":14800,"station_id":"ce4bhnh2rcd13ifvqgug","pricing_plan_id":"cebpf4jnsgd1na2vs0mg"},{"bike_id":"b2caa530-bb19-4cc6-a6bd-61e3e1d7432e","system_id":"levelo_inurba_marseille","lat":43.33763,"lon":5.37461,"is_reserved":false,"is_disabled":false,"rental_uris":{"android":"levelo://app?vid=b2caa530-bb19-4cc6-a6bd-61e3e1d7432e","ios":"levelo://app?vid=b2caa530-bb19-4cc6-a6bd-61e3e1d7432e"},"vehicle_type_id":"4","last_reported":1752067630,"current_range_meters":15200,"station_id":"","pricing_plan_id":"cebpf4jnsgd1na2vs0mg"},{"bike_id":"8b52e051-4e83-4103-a98d-28f12690ba46","system_id":"levelo_inurba_marseille","lat":43.30514,"lon":5.39455,"is_reserved":false,"is_disabled":false,"rental_uris":{"android":"levelo://app?vid=8b52e051-4e83-4103-a98d-28f12690ba46","ios":"levelo://app?vid=8b52e051-4e83-4103-a98d-28f12690ba46"},"vehicle_type_id":"4","last_reported":1752067630,"current_range_meters":15200,"station_id":"","pricing_plan_id":"cebpf4jnsgd1na2vs0mg"},{"bike_id":"e597028a-451b-4e97-ba41-77c248cc2363","system_id":"levelo_inurba_marseille","lat":43.28615,"lon":5.351,"is_reserved":false,"is_disabled":false,"rental_uris":{"android":"levelo://app?vid=e597028a-451b-4e97-ba41-77c248cc2363","ios":"levelo://app?vid=e597028a-451b-4e97-ba41-77c248cc2363"},"vehicle_type_id":"4","last_reported":1752067630,"current_range_meters":15200,"station_id":"ce4bhch2rcd13ifvqeug","pricing_plan_id":"cebpf4jnsgd1na2vs0mg"},{"bike_id":"e3b1ce06-2eb1-4464-bdfe-b6547a23d4a6","system_id":"levelo_inurba_marseille","lat":43.26537,"lon":5.37316,"is_reserved":false,"is_disabled":false,"rental_uris":{"android":"levelo://app?vid=e3b1ce06-2eb1-4464-bdfe-b6547a23d4a6","ios":"levelo://app?vid=e3b1ce06-2eb1-4464-bdfe-b6547a23d4a6"},"vehicle_type_id":"4","last_reported":1752067630,"current_range_meters":15200,"station_id":"ce4bhg12rcd13ifvqf70","pricing_plan_id":"cebpf4jnsgd1na2vs0mg"},{"bike_id":"8eaf9cfc-2ad3-4ac7-9ebb-d0ed42c26594","system_id":"levelo_inurba_marseille","lat":43.22921,"lon":5.35381,"is_reserved":false,"is_disabled":false,"rental_uris":{"android":"levelo://app?vid=8eaf9cfc-2ad3-4ac7-9ebb-d0ed42c26594","ios":"levelo://app?vid=8eaf9cfc-2ad3-4ac7-9ebb-d0ed42c26594"},"vehicle_type_id":"4","last_reported":1752067630,"current_range_meters":15200,"station_id":"cpo3532slgdg3j2ikp40","pricing_plan_id":"cebpf4jnsgd1na2vs0mg"},{"bike_id":"b6d9b946-f66a-4c6f-96e5-5d23e176360c","system_id":"levelo_inurba_marseille","lat":43.31315,"lon":5.38172,"is_reserved":false,"is_disabled":false,"rental_uris":{"android":"levelo://app?vid=b6d9b946-f66a-4c6f-96e5-5d23e176360c","ios":"levelo://app?vid=b6d9b946-f66a-4c6f-96e5-5d23e176360c"},"vehicle_type_id":"4","last_reported":1752067630,"current_range_meters":16000,"station_id":"","pricing_plan_id":"cebpf4jnsgd1na2vs0mg"},{"bike_id":"b757ffbb-2b71-4330-9f60-5f8a9d46d16e","system_id":"levelo_inurba_marseille","lat":43.29655,"lon":5.3712,"is_reserved":false,"is_disabled":false,"rental_uris":{"android":"levelo://app?vid=b757ffbb-2b71-4330-9f60-5f8a9d46d16e","ios":"levelo://app?vid=b757ffbb-2b71-4330-9f60-5f8a9d46d16e"},"vehicle_type_id":"4","last_reported":1752067630,"current_range_meters":16000,"station_id":"","pricing_plan_id":"cebpf4jnsgd1na2vs0mg"},{"bike_id":"93d6be08-2471-48d7-9948-c35dc9626201","system_id":"levelo_inurba_marseille","lat":43.31714,"lon":5.37647,"is_reserved":false,"is_disabled":false,"rental_uris":{"android":"levelo://app?vid=93d6be08-2471-48d7-9948-c35dc9626201","ios":"levelo://app?vid=93d6be08-2471-48d7-9948-c35dc9626201"},"vehicle_type_id":"4","last_reported":1752067630,"current_range_meters":16000,"station_id":"","pricing_plan_id":"cebpf4jnsgd1na2vs0mg"},{"bike_id":"f5c16f07-bc6f-4121-91a7-5ad90eec4f34","system_id":"levelo_inurba_marseille","lat":43.31196,"lon":5.37327,"is_reserved":false,"is_disabled":false,"rental_uris":{"android":"levelo://app?vid=f5c16f07-bc6f-4121-91a7-5ad90eec4f34","ios":"levelo://app?vid=f5c16f07-bc6f-4121-91a7-5ad90eec4f34"},"vehicle_type_id":"4","last_reported":1752067630,"current_range_meters":16000,"station_id":"","pricing_plan_id":"cebpf4jnsgd1na2vs0mg"},{"bike_id":"7dc48cb7-b742-4446-8d3e-f56bc6d6cf97","system_id":"levelo_inurba_marseille","lat":43.262067,"lon":5.374698,"is_reserved":false,"is_disabled":false,"rental_uris":{"android":"levelo://app?vid=7dc48cb7-b742-4446-8d3e-f56bc6d6cf97","ios":"levelo://app?vid=7dc48cb7-b742-4446-8d3e-f56bc6d6cf97"},"vehicle_type_id":"4","last_reported":1752067630,"current_range_meters":16000,"station_id":"ce4bhgp2rcd13ifvqfc0","pricing_plan_id":"cebpf4jnsgd1na2vs0mg"},{"bike_id":"680e7fe5-1fc7-41e4-be3a-7c68cd315ba3","system_id":"levelo_inurba_marseille","lat":43.25494,"lon":5.37664,"is_reserved":false,"is_disabled":false,"rental_uris":{"android":"levelo://app?vid=680e7fe5-1fc7-41e4-be3a-7c68cd315ba3","ios":"levelo://app?vid=680e7fe5-1fc7-41e4-be3a-7c68cd315ba3"},"vehicle_type_id":"4","last_reported":1752067630,"current_range_meters":16000,"station_id":"ce4bhh12rcd13ifvqff0","pricing_plan_id":"cebpf4jnsgd1na2vs0mg"},{"bike_id":"a5ade55b-5452-4494-b856-af187b8bde8f","system_id":"levelo_inurba_marseille","lat":43.26944,"lon":5.38926,"is_reserved":false,"is_disabled":false,"rental_uris":{"android":"levelo://app?vid=a5ade55b-5452-4494-b856-af187b8bde8f","ios":"levelo://app?vid=a5ade55b-5452-4494-b856-af187b8bde8f"},"vehicle_type_id":"4","last_reported":1752067630,"current_range_meters":16000,"station_id":"ce4bhhh2rcd13ifvqfl0","pricing_plan_id":"cebpf4jnsgd1na2vs0mg"},{"bike_id":"787512f5-7d91-4e8f-abdc-6333f6ccf085","system_id":"levelo_inurba_marseille","lat":43.27945,"lon":5.41043,"is_reserved":false,"is_disabled":false,"rental_uris":{"android":"levelo://app?vid=787512f5-7d91-4e8f-abdc-6333f6ccf085","ios":"levelo://app?vid=787512f5-7d91-4e8f-abdc-6333f6ccf085"},"vehicle_type_id":"4","last_reported":1752067630,"current_range_meters":16000,"station_id":"ce4bhnp2rcd13ifvqh0g","pricing_plan_id":"cebpf4jnsgd1na2vs0mg"},{"bike_id":"b28aa0a0-791c-4a08-9a16-c7bf6ea0ed5a","system_id":"levelo_inurba_marseille","lat":43.22526,"lon":5.3478,"is_reserved":false,"is_disabled":false,"rental_uris":{"android":"levelo://app?vid=b28aa0a0-791c-4a08-9a16-c7bf6ea0ed5a","ios":"levelo://app?vid=b28aa0a0-791c-4a08-9a16-c7bf6ea0ed5a"},"vehicle_type_id":"4","last_reported":1752067630,"current_range_meters":16000,"station_id":"st_cvj5dfep6f1abm77gieg","pricing_plan_id":"cebpf4jnsgd1na2vs0mg"},{"bike_id":"1bc63c58-183e-4688-9173-e004e373962b","system_id":"levelo_inurba_marseille","lat":43.22977,"lon":5.35433,"is_reserved":false,"is_disabled":false,"rental_uris":{"android":"levelo://app?vid=1bc63c58-183e-4688-9173-e004e373962b","ios":"levelo://app?vid=1bc63c58-183e-4688-9173-e004e373962b"},"vehicle_type_id":"4","last_reported":1752067630,"current_range_meters":16400,"station_id":"","pricing_plan_id":"cebpf4jnsgd1na2vs0mg"},{"bike_id":"baf30b8c-ee23-432e-a136-ad07ae77374d","system_id":"levelo_inurba_marseille","lat":43.28255,"lon":5.35077,"is_reserved":false,"is_disabled":false,"rental_uris":{"android":"levelo://app?vid=baf30b8c-ee23-432e-a136-ad07ae77374d","ios":"levelo://app?vid=baf30b8c-ee23-432e-a136-ad07ae77374d"},"vehicle_type_id":"4","last_reported":1752067630,"current_range_meters":16400,"station_id":"ce4bhbp2rcd13ifvqerg","pricing_plan_id":"cebpf4jnsgd1na2vs0mg"},{"bike_id":"02faac68-6c48-46c8-ab61-df3ab25b267f","system_id":"levelo_inurba_marseille","lat":43.28609,"lon":5.35106,"is_reserved":false,"is_disabled":false,"rental_uris":{"android":"levelo://app?vid=02faac68-6c48-46c8-ab61-df3ab25b267f","ios":"levelo://app?vid=02faac68-6c48-46c8-ab61-df3ab25b267f"},"vehicle_type_id":"4","last_reported":1752067630,"current_range_meters":16400,"station_id":"ce4bhch2rcd13ifvqeug","pricing_plan_id":"cebpf4jnsgd1na2vs0mg"},{"bike_id":"8e91adc0-5419-476b-9505-4a2ef9f05354","system_id":"levelo_inurba_marseille","lat":43.26937,"lon":5.38922,"is_reserved":false,"is_disabled":false,"rental_uris":{"android":"levelo://app?vid=8e91adc0-5419-476b-9505-4a2ef9f05354","ios":"levelo://app?vid=8e91adc0-5419-476b-9505-4a2ef9f05354"},"vehicle_type_id":"4","last_reported":1752067630,"current_range_meters":16400,"station_id":"ce4bhhh2rcd13ifvqfl0","pricing_plan_id":"cebpf4jnsgd1na2vs0mg"},{"bike_id":"6e5c2657-ccb8-4153-8b94-2143bc427a03","system_id":"levelo_inurba_marseille","lat":43.225,"lon":5.34765,"is_reserved":false,"is_disabled":false,"rental_uris":{"android":"levelo://app?vid=6e5c2657-ccb8-4153-8b94-2143bc427a03","ios":"levelo://app?vid=6e5c2657-ccb8-4153-8b94-2143bc427a03"},"vehicle_type_id":"4","last_reported":1752067630,"current_range_meters":16400,"station_id":"st_cvj5dfep6f1abm77gieg","pricing_plan_id":"cebpf4jnsgd1na2vs0mg"},{"bike_id":"21e293e3-5509-407a-a7d5-37e7fec5beb9","system_id":"levelo_inurba_marseille","lat":43.21746,"lon":5.34606,"is_reserved":false,"is_disabled":false,"rental_uris":{"android":"levelo://app?vid=21e293e3-5509-407a-a7d5-37e7fec5beb9","ios":"levelo://app?vid=21e293e3-5509-407a-a7d5-37e7fec5beb9"},"vehicle_type_id":"4","last_reported":1752067630,"current_range_meters":16400,"station_id":"st_cvj6r9ubvosntc0bgbag","pricing_plan_id":"cebpf4jnsgd1na2vs0mg"},{"bike_id":"1be39311-cfa5-4cbb-b93d-fb0870d6e611","system_id":"levelo_inurba_marseille","lat":43.211967,"lon":5.35077,"is_reserved":false,"is_disabled":false,"rental_uris":{"android":"levelo://app?vid=1be39311-cfa5-4cbb-b93d-fb0870d6e611","ios":"levelo://app?vid=1be39311-cfa5-4cbb-b93d-fb0870d6e611"},"vehicle_type_id":"4","last_reported":1752067630,"current_range_meters":16400,"station_id":"st_cvj6sg6p6f1abm77japg","pricing_plan_id":"cebpf4jnsgd1na2vs0mg"},{"bike_id":"8d1bb6c9-4632-44ec-b54b-ffc7f30aee0b","system_id":"levelo_inurba_marseille","lat":43.313484,"lon":5.367115,"is_reserved":false,"is_disabled":false,"rental_uris":{"android":"levelo://app?vid=8d1bb6c9-4632-44ec-b54b-ffc7f30aee0b","ios":"levelo://app?vid=8d1bb6c9-4632-44ec-b54b-ffc7f30aee0b"},"vehicle_type_id":"4","last_reported":1752067630,"current_range_meters":16800,"station_id":"ce4bgr92rcd13ifvqc6g","pricing_plan_id":"cebpf4jnsgd1na2vs0mg"},{"bike_id":"17222f3c-ef4f-4b37-8451-ea33722200d9","system_id":"levelo_inurba_marseille","lat":43.30524,"lon":5.36556,"is_reserved":false,"is_disabled":false,"rental_uris":{"android":"levelo://app?vid=17222f3c-ef4f-4b37-8451-ea33722200d9","ios":"levelo://app?vid=17222f3c-ef4f-4b37-8451-ea33722200d9"},"vehicle_type_id":"4","last_reported":1752067630,"current_range_meters":16800,"station_id":"ce4bgs12rcd13ifvqcag","pricing_plan_id":"cebpf4jnsgd1na2vs0mg"},{"bike_id":"7b9c24ee-bc6e-4c01-81e0-2cbb591d78dc","system_id":"levelo_inurba_marseille","lat":43.29614,"lon":5.40606,"is_reserved":false,"is_disabled":false,"rental_uris":{"android":"levelo://app?vid=7b9c24ee-bc6e-4c01-81e0-2cbb591d78dc","ios":"levelo://app?vid=7b9c24ee-bc6e-4c01-81e0-2cbb591d78dc"},"vehicle_type_id":"4","last_reported":1752067630,"current_range_meters":16800,"station_id":"ce4bh0h2rcd13ifvqd60","pricing_plan_id":"cebpf4jnsgd1na2vs0mg"},{"bike_id":"04cbc2bc-938c-44f2-8257-1234a6e7a43c","system_id":"levelo_inurba_marseille","lat":43.23964,"lon":5.3663,"is_reserved":false,"is_disabled":false,"rental_uris":{"android":"levelo://app?vid=04cbc2bc-938c-44f2-8257-1234a6e7a43c","ios":"levelo://app?vid=04cbc2bc-938c-44f2-8257-1234a6e7a43c"},"vehicle_type_id":"4","last_reported":1752067630,"current_range_meters":16800,"station_id":"ce4bhi12rcd13ifvqfp0","pricing_plan_id":"cebpf4jnsgd1na2vs0mg"},{"bike_id":"2dc1f5c8-26fe-4e87-bcea-d5f6d3c1c40c","system_id":"levelo_inurba_marseille","lat":43.317268,"lon":5.424055,"is_reserved":false,"is_disabled":false,"rental_uris":{"android":"levelo://app?vid=2dc1f5c8-26fe-4e87-bcea-d5f6d3c1c40c","ios":"levelo://app?vid=2dc1f5c8-26fe-4e87-bcea-d5f6d3c1c40c"},"vehicle_type_id":"4","last_reported":1752067630,"current_range_meters":16800,"station_id":"ce4bhp92rcd13ifvqhbg","pricing_plan_id":"cebpf4jnsgd1na2vs0mg"},{"bike_id":"57698598-17d2-4895-9ebc-edd8a1a13f51","system_id":"levelo_inurba_marseille","lat":43.32355,"lon":5.36764,"is_reserved":false,"is_disabled":false,"rental_uris":{"android":"levelo://app?vid=57698598-17d2-4895-9ebc-edd8a1a13f51","ios":"levelo://app?vid=57698598-17d2-4895-9ebc-edd8a1a13f51"},"vehicle_type_id":"4","last_reported":1752067630,"current_range_meters":16800,"station_id":"ce4bhsh2rcd13ifvqi2g","pricing_plan_id":"cebpf4jnsgd1na2vs0mg"},{"bike_id":"999f2a33-af15-4ca0-853a-d2550f2d6574","system_id":"levelo_inurba_marseille","lat":43.23466,"lon":5.3593,"is_reserved":false,"is_disabled":false,"rental_uris":{"android":"levelo://app?vid=999f2a33-af15-4ca0-853a-d2550f2d6574","ios":"levelo://app?vid=999f2a33-af15-4ca0-853a-d2550f2d6574"},"vehicle_type_id":"4","last_reported":1752067630,"current_range_meters":17200,"station_id":"","pricing_plan_id":"cebpf4jnsgd1na2vs0mg"},{"bike_id":"320f2a33-deaa-4e0a-a3d5-c39ce8ad680a","system_id":"levelo_inurba_marseille","lat":43.315656,"lon":5.374309,"is_reserved":false,"is_disabled":false,"rental_uris":{"android":"levelo://app?vid=320f2a33-deaa-4e0a-a3d5-c39ce8ad680a","ios":"levelo://app?vid=320f2a33-deaa-4e0a-a3d5-c39ce8ad680a"},"vehicle_type_id":"4","last_reported":1752067630,"current_range_meters":17200,"station_id":"","pricing_plan_id":"cebpf4jnsgd1na2vs0mg"},{"bike_id":"cd1196aa-2423-4797-ac17-6f5a7a5c0564","system_id":"levelo_inurba_marseille","lat":43.31206,"lon":5.369,"is_reserved":false,"is_disabled":false,"rental_uris":{"android":"levelo://app?vid=cd1196aa-2423-4797-ac17-6f5a7a5c0564","ios":"levelo://app?vid=cd1196aa-2423-4797-ac17-6f5a7a5c0564"},"vehicle_type_id":"4","last_reported":1752067630,"current_range_meters":17200,"station_id":"ce4bgl92rcd13ifvqbq0","pricing_plan_id":"cebpf4jnsgd1na2vs0mg"},{"bike_id":"a443e824-b364-4874-850c-3d51c9448eb3","system_id":"levelo_inurba_marseille","lat":43.30914,"lon":5.36858,"is_reserved":false,"is_disabled":false,"rental_uris":{"android":"levelo://app?vid=a443e824-b364-4874-850c-3d51c9448eb3","ios":"levelo://app?vid=a443e824-b364-4874-850c-3d51c9448eb3"},"vehicle_type_id":"4","last_reported":1752067630,"current_range_meters":17200,"station_id":"ce4bgn92rcd13ifvqbvg","pricing_plan_id":"cebpf4jnsgd1na2vs0mg"},{"bike_id":"849f5b12-63e6-4a27-a0dd-03b796077450","system_id":"levelo_inurba_marseille","lat":43.29568,"lon":5.3999,"is_reserved":false,"is_disabled":false,"rental_uris":{"android":"levelo://app?vid=849f5b12-63e6-4a27-a0dd-03b796077450","ios":"levelo://app?vid=849f5b12-63e6-4a27-a0dd-03b796077450"},"vehicle_type_id":"4","last_reported":1752067630,"current_range_meters":17200,"station_id":"ce4bh312rcd13ifvqdj0","pricing_plan_id":"cebpf4jnsgd1na2vs0mg"},{"bike_id":"b9aad953-9bed-4824-834b-f3f50fd8c58d","system_id":"levelo_inurba_marseille","lat":43.2841,"lon":5.34994,"is_reserved":false,"is_disabled":false,"rental_uris":{"android":"levelo://app?vid=b9aad953-9bed-4824-834b-f3f50fd8c58d","ios":"levelo://app?vid=b9aad953-9bed-4824-834b-f3f50fd8c58d"},"vehicle_type_id":"4","last_reported":1752067630,"current_range_meters":17200,"station_id":"ce4bhbh2rcd13ifvqepg","pricing_plan_id":"cebpf4jnsgd1na2vs0mg"},{"bike_id":"191da7b9-bed7-4843-89f5-6df19e076b49","system_id":"levelo_inurba_marseille","lat":43.286142,"lon":5.351119,"is_reserved":false,"is_disabled":false,"rental_uris":{"android":"levelo://app?vid=191da7b9-bed7-4843-89f5-6df19e076b49","ios":"levelo://app?vid=191da7b9-bed7-4843-89f5-6df19e076b49"},"vehicle_type_id":"4","last_reported":1752067630,"current_range_meters":17200,"station_id":"ce4bhch2rcd13ifvqeug","pricing_plan_id":"cebpf4jnsgd1na2vs0mg"},{"bike_id":"08f0d7fb-aa28-426a-8d80-c22cf408ee7c","system_id":"levelo_inurba_marseille","lat":43.25936,"lon":5.40893,"is_reserved":false,"is_disabled":false,"rental_uris":{"android":"levelo://app?vid=08f0d7fb-aa28-426a-8d80-c22cf408ee7c","ios":"levelo://app?vid=08f0d7fb-aa28-426a-8d80-c22cf408ee7c"},"vehicle_type_id":"4","last_reported":1752067630,"current_range_meters":17200,"station_id":"ce4bhm92rcd13ifvqglg","pricing_plan_id":"cebpf4jnsgd1na2vs0mg"},{"bike_id":"7dd4258d-8fe1-466b-bba8-036a896c4262","system_id":"levelo_inurba_marseille","lat":43.23184,"lon":5.35594,"is_reserved":false,"is_disabled":false,"rental_uris":{"android":"levelo://app?vid=7dd4258d-8fe1-466b-bba8-036a896c4262","ios":"levelo://app?vid=7dd4258d-8fe1-466b-bba8-036a896c4262"},"vehicle_type_id":"4","last_reported":1752067630,"current_range_meters":17200,"station_id":"ce4bhu92rcd13ifvqi70","pricing_plan_id":"cebpf4jnsgd1na2vs0mg"},{"bike_id":"a21a1ef5-4bf5-48f8-9c15-f46ff462ebe8","system_id":"levelo_inurba_marseille","lat":43.217445,"lon":5.346015,"is_reserved":false,"is_disabled":false,"rental_uris":{"android":"levelo://app?vid=a21a1ef5-4bf5-48f8-9c15-f46ff462ebe8","ios":"levelo://app?vid=a21a1ef5-4bf5-48f8-9c15-f46ff462ebe8"},"vehicle_type_id":"4","last_reported":1752067630,"current_range_meters":17200,"station_id":"st_cvj6r9ubvosntc0bgbag","pricing_plan_id":"cebpf4jnsgd1na2vs0mg"},{"bike_id":"65d92824-9993-4fe7-807d-1c39abd39c4d","system_id":"levelo_inurba_marseille","lat":43.284576,"lon":5.358767,"is_reserved":false,"is_disabled":false,"rental_uris":{"android":"levelo://app?vid=65d92824-9993-4fe7-807d-1c39abd39c4d","ios":"levelo://app?vid=65d92824-9993-4fe7-807d-1c39abd39c4d"},"vehicle_type_id":"4","last_reported":1752067630,"current_range_meters":17600,"station_id":"ce4bhah2rcd13ifvqei0","pricing_plan_id":"cebpf4jnsgd1na2vs0mg"},{"bike_id":"e2bb7ee9-ac0d-44b3-bb61-6afabc57f457","system_id":"levelo_inurba_marseille","lat":43.27377,"lon":5.36255,"is_reserved":false,"is_disabled":false,"rental_uris":{"android":"levelo://app?vid=e2bb7ee9-ac0d-44b3-bb61-6afabc57f457","ios":"levelo://app?vid=e2bb7ee9-ac0d-44b3-bb61-6afabc57f457"},"vehicle_type_id":"4","last_reported":1752067630,"current_range_meters":17600,"station_id":"ce4bhbh2rcd13ifvqeo0","pricing_plan_id":"cebpf4jnsgd1na2vs0mg"},{"bike_id":"749370c6-54e1-4cc8-942a-7921a4b8fb09","system_id":"levelo_inurba_marseille","lat":43.282664,"lon":5.350759,"is_reserved":false,"is_disabled":false,"rental_uris":{"android":"levelo://app?vid=749370c6-54e1-4cc8-942a-7921a4b8fb09","ios":"levelo://app?vid=749370c6-54e1-4cc8-942a-7921a4b8fb09"},"vehicle_type_id":"4","last_reported":1752067630,"current_range_meters":17600,"station_id":"ce4bhbp2rcd13ifvqerg","pricing_plan_id":"cebpf4jnsgd1na2vs0mg"},{"bike_id":"032a14ce-e367-40e6-a795-74d0ad4487ac","system_id":"levelo_inurba_marseille","lat":43.25941,"lon":5.40905,"is_reserved":false,"is_disabled":false,"rental_uris":{"android":"levelo://app?vid=032a14ce-e367-40e6-a795-74d0ad4487ac","ios":"levelo://app?vid=032a14ce-e367-40e6-a795-74d0ad4487ac"},"vehicle_type_id":"4","last_reported":1752067630,"current_range_meters":17600,"station_id":"ce4bhm92rcd13ifvqglg","pricing_plan_id":"cebpf4jnsgd1na2vs0mg"},{"bike_id":"641fa15e-cfec-46f9-86be-6bc5c2530962","system_id":"levelo_inurba_marseille","lat":43.32065,"lon":5.41535,"is_reserved":false,"is_disabled":false,"rental_uris":{"android":"levelo://app?vid=641fa15e-cfec-46f9-86be-6bc5c2530962","ios":"levelo://app?vid=641fa15e-cfec-46f9-86be-6bc5c2530962"},"vehicle_type_id":"4","last_reported":1752067630,"current_range_meters":17600,"station_id":"ce4bhq92rcd13ifvqhkg","pricing_plan_id":"cebpf4jnsgd1na2vs0mg"},{"bike_id":"9565d3ce-9739-43cd-9faf-f6b015eca3ae","system_id":"levelo_inurba_marseille","lat":43.22929,"lon":5.35385,"is_reserved":false,"is_disabled":false,"rental_uris":{"android":"levelo://app?vid=9565d3ce-9739-43cd-9faf-f6b015eca3ae","ios":"levelo://app?vid=9565d3ce-9739-43cd-9faf-f6b015eca3ae"},"vehicle_type_id":"4","last_reported":1752067630,"current_range_meters":17600,"station_id":"cpo3532slgdg3j2ikp40","pricing_plan_id":"cebpf4jnsgd1na2vs0mg"},{"bike_id":"f2962ad6-e210-4b31-95a3-4eebd34a77e9","system_id":"levelo_inurba_marseille","lat":43.26976,"lon":5.39865,"is_reserved":false,"is_disabled":false,"rental_uris":{"android":"levelo://app?vid=f2962ad6-e210-4b31-95a3-4eebd34a77e9","ios":"levelo://app?vid=f2962ad6-e210-4b31-95a3-4eebd34a77e9"},"vehicle_type_id":"4","last_reported":1752067630,"current_range_meters":18000,"station_id":"","pricing_plan_id":"cebpf4jnsgd1na2vs0mg"},{"bike_id":"fe930d60-ba1a-47e2-bff4-6dc50e2c2dec","system_id":"levelo_inurba_marseille","lat":43.28527,"lon":5.38512,"is_reserved":false,"is_disabled":false,"rental_uris":{"android":"levelo://app?vid=fe930d60-ba1a-47e2-bff4-6dc50e2c2dec","ios":"levelo://app?vid=fe930d60-ba1a-47e2-bff4-6dc50e2c2dec"},"vehicle_type_id":"4","last_reported":1752067630,"current_range_meters":18000,"station_id":"ce4bh8p2rcd13ifvqeb0","pricing_plan_id":"cebpf4jnsgd1na2vs0mg"},{"bike_id":"9d2e056a-5a76-483e-bd70-1ba4cc8582d9","system_id":"levelo_inurba_marseille","lat":43.2827,"lon":5.35076,"is_reserved":false,"is_disabled":false,"rental_uris":{"android":"levelo://app?vid=9d2e056a-5a76-483e-bd70-1ba4cc8582d9","ios":"levelo://app?vid=9d2e056a-5a76-483e-bd70-1ba4cc8582d9"},"vehicle_type_id":"4","last_reported":1752067630,"current_range_meters":18000,"station_id":"ce4bhbp2rcd13ifvqerg","pricing_plan_id":"cebpf4jnsgd1na2vs0mg"},{"bike_id":"5f700fc8-1c04-44f1-a407-3ad75a4ad2e0","system_id":"levelo_inurba_marseille","lat":43.26205,"lon":5.37444,"is_reserved":false,"is_disabled":false,"rental_uris":{"android":"levelo://app?vid=5f700fc8-1c04-44f1-a407-3ad75a4ad2e0","ios":"levelo://app?vid=5f700fc8-1c04-44f1-a407-3ad75a4ad2e0"},"vehicle_type_id":"4","last_reported":1752067630,"current_range_meters":18000,"station_id":"ce4bhgp2rcd13ifvqfc0","pricing_plan_id":"cebpf4jnsgd1na2vs0mg"},{"bike_id":"0dde599a-9e49-4424-bf17-46b64f156432","system_id":"levelo_inurba_marseille","lat":43.24079,"lon":5.37762,"is_reserved":false,"is_disabled":false,"rental_uris":{"android":"levelo://app?vid=0dde599a-9e49-4424-bf17-46b64f156432","ios":"levelo://app?vid=0dde599a-9e49-4424-bf17-46b64f156432"},"vehicle_type_id":"4","last_reported":1752067630,"current_range_meters":18000,"station_id":"ce4bhnp2rcd13ifvqgvg","pricing_plan_id":"cebpf4jnsgd1na2vs0mg"},{"bike_id":"bc79cf22-9600-43f9-855f-d2516f160b65","system_id":"levelo_inurba_marseille","lat":43.31301,"lon":5.37611,"is_reserved":false,"is_disabled":false,"rental_uris":{"android":"levelo://app?vid=bc79cf22-9600-43f9-855f-d2516f160b65","ios":"levelo://app?vid=bc79cf22-9600-43f9-855f-d2516f160b65"},"vehicle_type_id":"4","last_reported":1752067630,"current_range_meters":18800,"station_id":"","pricing_plan_id":"cebpf4jnsgd1na2vs0mg"},{"bike_id":"36c387ea-be50-4028-8ecc-21605fe3e879","system_id":"levelo_inurba_marseille","lat":43.29343,"lon":5.4283,"is_reserved":false,"is_disabled":false,"rental_uris":{"android":"levelo://app?vid=36c387ea-be50-4028-8ecc-21605fe3e879","ios":"levelo://app?vid=36c387ea-be50-4028-8ecc-21605fe3e879"},"vehicle_type_id":"4","last_reported":1752067630,"current_range_meters":18800,"station_id":"","pricing_plan_id":"cebpf4jnsgd1na2vs0mg"},{"bike_id":"e9c52e2e-1391-4329-8438-e4f2c2348935","system_id":"levelo_inurba_marseille","lat":43.25211,"lon":5.39434,"is_reserved":false,"is_disabled":false,"rental_uris":{"android":"levelo://app?vid=e9c52e2e-1391-4329-8438-e4f2c2348935","ios":"levelo://app?vid=e9c52e2e-1391-4329-8438-e4f2c2348935"},"vehicle_type_id":"4","last_reported":1752067630,"current_range_meters":18800,"station_id":"","pricing_plan_id":"cebpf4jnsgd1na2vs0mg"},{"bike_id":"feaa7e3a-cbe4-4489-be11-8a12d7eec173","system_id":"levelo_inurba_marseille","lat":43.25173,"lon":5.42574,"is_reserved":false,"is_disabled":false,"rental_uris":{"android":"levelo://app?vid=feaa7e3a-cbe4-4489-be11-8a12d7eec173","ios":"levelo://app?vid=feaa7e3a-cbe4-4489-be11-8a12d7eec173"},"vehicle_type_id":"4","last_reported":1752067630,"current_range_meters":18800,"station_id":"","pricing_plan_id":"cebpf4jnsgd1na2vs0mg"},{"bike_id":"7c1ac00f-9550-4218-9ee5-dd9d8cb43880","system_id":"levelo_inurba_marseille","lat":43.24402,"lon":5.3704,"is_reserved":false,"is_disabled":false,"rental_uris":{"android":"levelo://app?vid=7c1ac00f-9550-4218-9ee5-dd9d8cb43880","ios":"levelo://app?vid=7c1ac00f-9550-4218-9ee5-dd9d8cb43880"},"vehicle_type_id":"4","last_reported":1752067630,"current_range_meters":18800,"station_id":"ce4bhhh2rcd13ifvqfk0","pricing_plan_id":"cebpf4jnsgd1na2vs0mg"},{"bike_id":"e0973b47-aa25-4308-a3d7-9c79b6a106be","system_id":"levelo_inurba_marseille","lat":43.32105,"lon":5.3677,"is_reserved":false,"is_disabled":false,"rental_uris":{"android":"levelo://app?vid=e0973b47-aa25-4308-a3d7-9c79b6a106be","ios":"levelo://app?vid=e0973b47-aa25-4308-a3d7-9c79b6a106be"},"vehicle_type_id":"4","last_reported":1752067630,"current_range_meters":18800,"station_id":"ce4bhrh2rcd13ifvqhug","pricing_plan_id":"cebpf4jnsgd1na2vs0mg"},{"bike_id":"0f08dfca-0bfe-4b2f-892f-97a869e97723","system_id":"levelo_inurba_marseille","lat":43.231969,"lon":5.355486,"is_reserved":false,"is_disabled":false,"rental_uris":{"android":"levelo://app?vid=0f08dfca-0bfe-4b2f-892f-97a869e97723","ios":"levelo://app?vid=0f08dfca-0bfe-4b2f-892f-97a869e97723"},"vehicle_type_id":"4","last_reported":1752067630,"current_range_meters":18800,"station_id":"ce4bhu92rcd13ifvqi70","pricing_plan_id":"cebpf4jnsgd1na2vs0mg"},{"bike_id":"5df62db8-3a5e-4dcf-a4e0-7429825df498","system_id":"levelo_inurba_marseille","lat":43.22933,"lon":5.35377,"is_reserved":false,"is_disabled":false,"rental_uris":{"android":"levelo://app?vid=5df62db8-3a5e-4dcf-a4e0-7429825df498","ios":"levelo://app?vid=5df62db8-3a5e-4dcf-a4e0-7429825df498"},"vehicle_type_id":"4","last_reported":1752067630,"current_range_meters":18800,"station_id":"cpo3532slgdg3j2ikp40","pricing_plan_id":"cebpf4jnsgd1na2vs0mg"},{"bike_id":"87d13c3c-9453-4492-8a8f-f2b4c8e828c6","system_id":"levelo_inurba_marseille","lat":43.26177,"lon":5.37049,"is_reserved":false,"is_disabled":false,"rental_uris":{"android":"levelo://app?vid=87d13c3c-9453-4492-8a8f-f2b4c8e828c6","ios":"levelo://app?vid=87d13c3c-9453-4492-8a8f-f2b4c8e828c6"},"vehicle_type_id":"4","last_reported":1752067630,"current_range_meters":19200,"station_id":"","pricing_plan_id":"cebpf4jnsgd1na2vs0mg"},{"bike_id":"a90c350a-2472-4eb5-a2b8-d31d488525bf","system_id":"levelo_inurba_marseille","lat":43.276196,"lon":5.36102,"is_reserved":false,"is_disabled":false,"rental_uris":{"android":"levelo://app?vid=a90c350a-2472-4eb5-a2b8-d31d488525bf","ios":"levelo://app?vid=a90c350a-2472-4eb5-a2b8-d31d488525bf"},"vehicle_type_id":"4","last_reported":1752067630,"current_range_meters":19200,"station_id":"ce4bgj92rcd13ifvqbe0","pricing_plan_id":"cebpf4jnsgd1na2vs0mg"},{"bike_id":"3239c2a0-3032-4e23-905d-35be40ea26ad","system_id":"levelo_inurba_marseille","lat":43.309293,"lon":5.401399,"is_reserved":false,"is_disabled":false,"rental_uris":{"android":"levelo://app?vid=3239c2a0-3032-4e23-905d-35be40ea26ad","ios":"levelo://app?vid=3239c2a0-3032-4e23-905d-35be40ea26ad"},"vehicle_type_id":"4","last_reported":1752067630,"current_range_meters":19200,"station_id":"ce4bgvp2rcd13ifvqct0","pricing_plan_id":"cebpf4jnsgd1na2vs0mg"},{"bike_id":"b086a275-937a-42df-90d1-c8164627358d","system_id":"levelo_inurba_marseille","lat":43.27377,"lon":5.36268,"is_reserved":false,"is_disabled":false,"rental_uris":{"android":"levelo://app?vid=b086a275-937a-42df-90d1-c8164627358d","ios":"levelo://app?vid=b086a275-937a-42df-90d1-c8164627358d"},"vehicle_type_id":"4","last_reported":1752067630,"current_range_meters":19200,"station_id":"ce4bhbh2rcd13ifvqeo0","pricing_plan_id":"cebpf4jnsgd1na2vs0mg"},{"bike_id":"fe393e70-3017-4f74-9643-ce2ab31a2adc","system_id":"levelo_inurba_marseille","lat":43.286204,"lon":5.351036,"is_reserved":false,"is_disabled":false,"rental_uris":{"android":"levelo://app?vid=fe393e70-3017-4f74-9643-ce2ab31a2adc","ios":"levelo://app?vid=fe393e70-3017-4f74-9643-ce2ab31a2adc"},"vehicle_type_id":"4","last_reported":1752067630,"current_range_meters":19200,"station_id":"ce4bhch2rcd13ifvqeug","pricing_plan_id":"cebpf4jnsgd1na2vs0mg"},{"bike_id":"3c2be974-f10a-47a0-ae30-b9e120db49ce","system_id":"levelo_inurba_marseille","lat":43.25486,"lon":5.37688,"is_reserved":false,"is_disabled":false,"rental_uris":{"android":"levelo://app?vid=3c2be974-f10a-47a0-ae30-b9e120db49ce","ios":"levelo://app?vid=3c2be974-f10a-47a0-ae30-b9e120db49ce"},"vehicle_type_id":"4","last_reported":1752067630,"current_range_meters":19200,"station_id":"ce4bhh12rcd13ifvqff0","pricing_plan_id":"cebpf4jnsgd1na2vs0mg"},{"bike_id":"ef6311b9-c394-4e85-b3f2-bf62d7fa6877","system_id":"levelo_inurba_marseille","lat":43.245477,"lon":5.395235,"is_reserved":false,"is_disabled":false,"rental_uris":{"android":"levelo://app?vid=ef6311b9-c394-4e85-b3f2-bf62d7fa6877","ios":"levelo://app?vid=ef6311b9-c394-4e85-b3f2-bf62d7fa6877"},"vehicle_type_id":"4","last_reported":1752067630,"current_range_meters":19200,"station_id":"ce4bhlp2rcd13ifvqgjg","pricing_plan_id":"cebpf4jnsgd1na2vs0mg"},{"bike_id":"dfa9107f-6b51-4140-873d-540e5c00b3a9","system_id":"levelo_inurba_marseille","lat":43.22506,"lon":5.34791,"is_reserved":false,"is_disabled":false,"rental_uris":{"android":"levelo://app?vid=dfa9107f-6b51-4140-873d-540e5c00b3a9","ios":"levelo://app?vid=dfa9107f-6b51-4140-873d-540e5c00b3a9"},"vehicle_type_id":"4","last_reported":1752067630,"current_range_meters":19200,"station_id":"st_cvj5dfep6f1abm77gieg","pricing_plan_id":"cebpf4jnsgd1na2vs0mg"},{"bike_id":"42ddf1de-52a6-47b1-8606-f9f2c373dc80","system_id":"levelo_inurba_marseille","lat":43.21752,"lon":5.34609,"is_reserved":false,"is_disabled":false,"rental_uris":{"android":"levelo://app?vid=42ddf1de-52a6-47b1-8606-f9f2c373dc80","ios":"levelo://app?vid=42ddf1de-52a6-47b1-8606-f9f2c373dc80"},"vehicle_type_id":"4","last_reported":1752067630,"current_range_meters":19200,"station_id":"st_cvj6r9ubvosntc0bgbag","pricing_plan_id":"cebpf4jnsgd1na2vs0mg"},{"bike_id":"dbbaec9a-9559-44c4-878c-dc0f3c456f91","system_id":"levelo_inurba_marseille","lat":43.29553,"lon":5.37841,"is_reserved":false,"is_disabled":false,"rental_uris":{"android":"levelo://app?vid=dbbaec9a-9559-44c4-878c-dc0f3c456f91","ios":"levelo://app?vid=dbbaec9a-9559-44c4-878c-dc0f3c456f91"},"vehicle_type_id":"4","last_reported":1752067630,"current_range_meters":19600,"station_id":"","pricing_plan_id":"cebpf4jnsgd1na2vs0mg"},{"bike_id":"9f5e74ce-2459-4c6f-a171-f6d1e8a1ed83","system_id":"levelo_inurba_marseille","lat":43.31852,"lon":5.37556,"is_reserved":false,"is_disabled":false,"rental_uris":{"android":"levelo://app?vid=9f5e74ce-2459-4c6f-a171-f6d1e8a1ed83","ios":"levelo://app?vid=9f5e74ce-2459-4c6f-a171-f6d1e8a1ed83"},"vehicle_type_id":"4","last_reported":1752067630,"current_range_meters":19600,"station_id":"","pricing_plan_id":"cebpf4jnsgd1na2vs0mg"},{"bike_id":"178620b3-e80f-4c11-90fe-b0c778968faa","system_id":"levelo_inurba_marseille","lat":43.27606,"lon":5.36133,"is_reserved":false,"is_disabled":false,"rental_uris":{"android":"levelo://app?vid=178620b3-e80f-4c11-90fe-b0c778968faa","ios":"levelo://app?vid=178620b3-e80f-4c11-90fe-b0c778968faa"},"vehicle_type_id":"4","last_reported":1752067630,"current_range_meters":19600,"station_id":"ce4bgj92rcd13ifvqbe0","pricing_plan_id":"cebpf4jnsgd1na2vs0mg"},{"bike_id":"67a4e5ab-738a-46ee-92e4-9e7af78d20ef","system_id":"levelo_inurba_marseille","lat":43.28413,"lon":5.34988,"is_reserved":false,"is_disabled":false,"rental_uris":{"android":"levelo://app?vid=67a4e5ab-738a-46ee-92e4-9e7af78d20ef","ios":"levelo://app?vid=67a4e5ab-738a-46ee-92e4-9e7af78d20ef"},"vehicle_type_id":"4","last_reported":1752067630,"current_range_meters":19600,"station_id":"ce4bhbh2rcd13ifvqepg","pricing_plan_id":"cebpf4jnsgd1na2vs0mg"},{"bike_id":"32a45745-158f-4e9b-8347-39544e4e467d","system_id":"levelo_inurba_marseille","lat":43.28421,"lon":5.34991,"is_reserved":false,"is_disabled":false,"rental_uris":{"android":"levelo://app?vid=32a45745-158f-4e9b-8347-39544e4e467d","ios":"levelo://app?vid=32a45745-158f-4e9b-8347-39544e4e467d"},"vehicle_type_id":"4","last_reported":1752067630,"current_range_meters":19600,"station_id":"ce4bhbh2rcd13ifvqepg","pricing_plan_id":"cebpf4jnsgd1na2vs0mg"},{"bike_id":"cee6d336-127f-4e82-945c-5ad937fd223e","system_id":"levelo_inurba_marseille","lat":43.23955,"lon":5.36651,"is_reserved":false,"is_disabled":false,"rental_uris":{"android":"levelo://app?vid=cee6d336-127f-4e82-945c-5ad937fd223e","ios":"levelo://app?vid=cee6d336-127f-4e82-945c-5ad937fd223e"},"vehicle_type_id":"4","last_reported":1752067630,"current_range_meters":19600,"station_id":"ce4bhi12rcd13ifvqfp0","pricing_plan_id":"cebpf4jnsgd1na2vs0mg"},{"bike_id":"f7db4f76-f9b4-4c58-81f0-17769d8a997d","system_id":"levelo_inurba_marseille","lat":43.25578,"lon":5.38247,"is_reserved":false,"is_disabled":false,"rental_uris":{"android":"levelo://app?vid=f7db4f76-f9b4-4c58-81f0-17769d8a997d","ios":"levelo://app?vid=f7db4f76-f9b4-4c58-81f0-17769d8a997d"},"vehicle_type_id":"4","last_reported":1752067630,"current_range_meters":19600,"station_id":"ce4bhih2rcd13ifvqfs0","pricing_plan_id":"cebpf4jnsgd1na2vs0mg"},{"bike_id":"7725683b-3883-4cb7-b23c-591c9a76b7b2","system_id":"levelo_inurba_marseille","lat":43.25572,"lon":5.38237,"is_reserved":false,"is_disabled":false,"rental_uris":{"android":"levelo://app?vid=7725683b-3883-4cb7-b23c-591c9a76b7b2","ios":"levelo://app?vid=7725683b-3883-4cb7-b23c-591c9a76b7b2"},"vehicle_type_id":"4","last_reported":1752067630,"current_range_meters":19600,"station_id":"ce4bhih2rcd13ifvqfs0","pricing_plan_id":"cebpf4jnsgd1na2vs0mg"},{"bike_id":"9813b7ec-cb1a-4868-a9a0-b6300aaaadd5","system_id":"levelo_inurba_marseille","lat":43.32109,"lon":5.36772,"is_reserved":false,"is_disabled":false,"rental_uris":{"android":"levelo://app?vid=9813b7ec-cb1a-4868-a9a0-b6300aaaadd5","ios":"levelo://app?vid=9813b7ec-cb1a-4868-a9a0-b6300aaaadd5"},"vehicle_type_id":"4","last_reported":1752067630,"current_range_meters":19600,"station_id":"ce4bhrh2rcd13ifvqhug","pricing_plan_id":"cebpf4jnsgd1na2vs0mg"},{"bike_id":"cade331f-a6e3-4d01-8bc4-dd218718d65a","system_id":"levelo_inurba_marseille","lat":43.22815,"lon":5.34938,"is_reserved":false,"is_disabled":false,"rental_uris":{"android":"levelo://app?vid=cade331f-a6e3-4d01-8bc4-dd218718d65a","ios":"levelo://app?vid=cade331f-a6e3-4d01-8bc4-dd218718d65a"},"vehicle_type_id":"4","last_reported":1752067630,"current_range_meters":20000,"station_id":"","pricing_plan_id":"cebpf4jnsgd1na2vs0mg"},{"bike_id":"fde530d0-eeed-4692-bb9c-2c65ba0cdd9f","system_id":"levelo_inurba_marseille","lat":43.30823,"lon":5.42598,"is_reserved":false,"is_disabled":false,"rental_uris":{"android":"levelo://app?vid=fde530d0-eeed-4692-bb9c-2c65ba0cdd9f","ios":"levelo://app?vid=fde530d0-eeed-4692-bb9c-2c65ba0cdd9f"},"vehicle_type_id":"4","last_reported":1752067630,"current_range_meters":20000,"station_id":"","pricing_plan_id":"cebpf4jnsgd1na2vs0mg"},{"bike_id":"fa87fcb5-aacb-41a1-a789-0296bbd02085","system_id":"levelo_inurba_marseille","lat":43.24578,"lon":5.37383,"is_reserved":false,"is_disabled":false,"rental_uris":{"android":"levelo://app?vid=fa87fcb5-aacb-41a1-a789-0296bbd02085","ios":"levelo://app?vid=fa87fcb5-aacb-41a1-a789-0296bbd02085"},"vehicle_type_id":"4","last_reported":1752067630,"current_range_meters":20400,"station_id":"","pricing_plan_id":"cebpf4jnsgd1na2vs0mg"},{"bike_id":"4e209b0c-855f-4b51-8120-2faef8673853","system_id":"levelo_inurba_marseille","lat":43.306029,"lon":5.369254,"is_reserved":false,"is_disabled":false,"rental_uris":{"android":"levelo://app?vid=4e209b0c-855f-4b51-8120-2faef8673853","ios":"levelo://app?vid=4e209b0c-855f-4b51-8120-2faef8673853"},"vehicle_type_id":"4","last_reported":1752067630,"current_range_meters":20400,"station_id":"","pricing_plan_id":"cebpf4jnsgd1na2vs0mg"},{"bike_id":"bc9f238c-1759-4788-8660-d8fc03e7ace9","system_id":"levelo_inurba_marseille","lat":43.29793,"lon":5.38113,"is_reserved":false,"is_disabled":false,"rental_uris":{"android":"levelo://app?vid=bc9f238c-1759-4788-8660-d8fc03e7ace9","ios":"levelo://app?vid=bc9f238c-1759-4788-8660-d8fc03e7ace9"},"vehicle_type_id":"4","last_reported":1752067630,"current_range_meters":20400,"station_id":"ce4bgip2rcd13ifvqbb0","pricing_plan_id":"cebpf4jnsgd1na2vs0mg"},{"bike_id":"c5f753ac-f4dc-4339-920d-d096a49930ec","system_id":"levelo_inurba_marseille","lat":43.28409,"lon":5.37519,"is_reserved":false,"is_disabled":false,"rental_uris":{"android":"levelo://app?vid=c5f753ac-f4dc-4339-920d-d096a49930ec","ios":"levelo://app?vid=c5f753ac-f4dc-4339-920d-d096a49930ec"},"vehicle_type_id":"4","last_reported":1752067630,"current_range_meters":20400,"station_id":"ce4bh412rcd13ifvqds0","pricing_plan_id":"cebpf4jnsgd1na2vs0mg"},{"bike_id":"835dbe99-3402-47f1-9e83-8b1aaa7218c4","system_id":"levelo_inurba_marseille","lat":43.27371,"lon":5.36253,"is_reserved":false,"is_disabled":false,"rental_uris":{"android":"levelo://app?vid=835dbe99-3402-47f1-9e83-8b1aaa7218c4","ios":"levelo://app?vid=835dbe99-3402-47f1-9e83-8b1aaa7218c4"},"vehicle_type_id":"4","last_reported":1752067630,"current_range_meters":20400,"station_id":"ce4bhbh2rcd13ifvqeo0","pricing_plan_id":"cebpf4jnsgd1na2vs0mg"},{"bike_id":"33ca56ee-489a-4240-9d4c-667abf911c67","system_id":"levelo_inurba_marseille","lat":43.2738,"lon":5.36253,"is_reserved":false,"is_disabled":false,"rental_uris":{"android":"levelo://app?vid=33ca56ee-489a-4240-9d4c-667abf911c67","ios":"levelo://app?vid=33ca56ee-489a-4240-9d4c-667abf911c67"},"vehicle_type_id":"4","last_reported":1752067630,"current_range_meters":20400,"station_id":"ce4bhbh2rcd13ifvqeo0","pricing_plan_id":"cebpf4jnsgd1na2vs0mg"},{"bike_id":"e724a286-195b-440b-912f-b7fda4d63c59","system_id":"levelo_inurba_marseille","lat":43.25573,"lon":5.38236,"is_reserved":false,"is_disabled":false,"rental_uris":{"android":"levelo://app?vid=e724a286-195b-440b-912f-b7fda4d63c59","ios":"levelo://app?vid=e724a286-195b-440b-912f-b7fda4d63c59"},"vehicle_type_id":"4","last_reported":1752067630,"current_range_meters":20400,"station_id":"ce4bhih2rcd13ifvqfs0","pricing_plan_id":"cebpf4jnsgd1na2vs0mg"},{"bike_id":"92be7e9f-0c62-4241-ba9b-8185c68d5343","system_id":"levelo_inurba_marseille","lat":43.24174,"lon":5.39706,"is_reserved":false,"is_disabled":false,"rental_uris":{"android":"levelo://app?vid=92be7e9f-0c62-4241-ba9b-8185c68d5343","ios":"levelo://app?vid=92be7e9f-0c62-4241-ba9b-8185c68d5343"},"vehicle_type_id":"4","last_reported":1752067630,"current_range_meters":20400,"station_id":"ce4bhn12rcd13ifvqgpg","pricing_plan_id":"cebpf4jnsgd1na2vs0mg"},{"bike_id":"89c88601-23fc-46eb-8f34-723cccb1bf9d","system_id":"levelo_inurba_marseille","lat":43.279073,"lon":5.412272,"is_reserved":false,"is_disabled":false,"rental_uris":{"android":"levelo://app?vid=89c88601-23fc-46eb-8f34-723cccb1bf9d","ios":"levelo://app?vid=89c88601-23fc-46eb-8f34-723cccb1bf9d"},"vehicle_type_id":"4","last_reported":1752067630,"current_range_meters":20400,"station_id":"ce4bhn92rcd13ifvqgrg","pricing_plan_id":"cebpf4jnsgd1na2vs0mg"},{"bike_id":"51d3cab3-3bb3-4357-a3a5-f7dd39edc0c5","system_id":"levelo_inurba_marseille","lat":43.25451,"lon":5.37946,"is_reserved":false,"is_disabled":false,"rental_uris":{"android":"levelo://app?vid=51d3cab3-3bb3-4357-a3a5-f7dd39edc0c5","ios":"levelo://app?vid=51d3cab3-3bb3-4357-a3a5-f7dd39edc0c5"},"vehicle_type_id":"4","last_reported":1752067630,"current_range_meters":20800,"station_id":"","pricing_plan_id":"cebpf4jnsgd1na2vs0mg"},{"bike_id":"d6ccf0b1-3fcc-4a6a-883f-25257c08898d","system_id":"levelo_inurba_marseille","lat":43.224976,"lon":5.348346,"is_reserved":false,"is_disabled":false,"rental_uris":{"android":"levelo://app?vid=d6ccf0b1-3fcc-4a6a-883f-25257c08898d","ios":"levelo://app?vid=d6ccf0b1-3fcc-4a6a-883f-25257c08898d"},"vehicle_type_id":"4","last_reported":1752067630,"current_range_meters":20800,"station_id":"","pricing_plan_id":"cebpf4jnsgd1na2vs0mg"},{"bike_id":"b8fb705f-c57a-4fce-a382-18375991cd0a","system_id":"levelo_inurba_marseille","lat":43.31489,"lon":5.37294,"is_reserved":false,"is_disabled":false,"rental_uris":{"android":"levelo://app?vid=b8fb705f-c57a-4fce-a382-18375991cd0a","ios":"levelo://app?vid=b8fb705f-c57a-4fce-a382-18375991cd0a"},"vehicle_type_id":"4","last_reported":1752067630,"current_range_meters":20800,"station_id":"ce4bgt12rcd13ifvqcd0","pricing_plan_id":"cebpf4jnsgd1na2vs0mg"},{"bike_id":"c7238839-bda7-4a37-b102-b102522126f8","system_id":"levelo_inurba_marseille","lat":43.28422,"lon":5.34996,"is_reserved":false,"is_disabled":false,"rental_uris":{"android":"levelo://app?vid=c7238839-bda7-4a37-b102-b102522126f8","ios":"levelo://app?vid=c7238839-bda7-4a37-b102-b102522126f8"},"vehicle_type_id":"4","last_reported":1752067630,"current_range_meters":20800,"station_id":"ce4bhbh2rcd13ifvqepg","pricing_plan_id":"cebpf4jnsgd1na2vs0mg"},{"bike_id":"dd669704-9ee0-422b-84c1-1e0f2725fe2e","system_id":"levelo_inurba_marseille","lat":43.26204,"lon":5.37926,"is_reserved":false,"is_disabled":false,"rental_uris":{"android":"levelo://app?vid=dd669704-9ee0-422b-84c1-1e0f2725fe2e","ios":"levelo://app?vid=dd669704-9ee0-422b-84c1-1e0f2725fe2e"},"vehicle_type_id":"4","last_reported":1752067630,"current_range_meters":20800,"station_id":"ce4bhjp2rcd13ifvqg90","pricing_plan_id":"cebpf4jnsgd1na2vs0mg"},{"bike_id":"915abf22-f980-4e44-aec2-b1eaf98435c7","system_id":"levelo_inurba_marseille","lat":43.22927,"lon":5.35375,"is_reserved":false,"is_disabled":false,"rental_uris":{"android":"levelo://app?vid=915abf22-f980-4e44-aec2-b1eaf98435c7","ios":"levelo://app?vid=915abf22-f980-4e44-aec2-b1eaf98435c7"},"vehicle_type_id":"4","last_reported":1752067630,"current_range_meters":20800,"station_id":"cpo3532slgdg3j2ikp40","pricing_plan_id":"cebpf4jnsgd1na2vs0mg"},{"bike_id":"ee1ac907-8623-4d00-ac01-d41dd90be9fe","system_id":"levelo_inurba_marseille","lat":43.21189,"lon":5.35068,"is_reserved":false,"is_disabled":false,"rental_uris":{"android":"levelo://app?vid=ee1ac907-8623-4d00-ac01-d41dd90be9fe","ios":"levelo://app?vid=ee1ac907-8623-4d00-ac01-d41dd90be9fe"},"vehicle_type_id":"4","last_reported":1752067630,"current_range_meters":20800,"station_id":"st_cvj6sg6p6f1abm77japg","pricing_plan_id":"cebpf4jnsgd1na2vs0mg"},{"bike_id":"2676d6ed-392e-4888-a2f9-53392870d491","system_id":"levelo_inurba_marseille","lat":43.313672,"lon":5.366903,"is_reserved":false,"is_disabled":false,"rental_uris":{"android":"levelo://app?vid=2676d6ed-392e-4888-a2f9-53392870d491","ios":"levelo://app?vid=2676d6ed-392e-4888-a2f9-53392870d491"},"vehicle_type_id":"4","last_reported":1752067630,"current_range_meters":21600,"station_id":"ce4bgr92rcd13ifvqc6g","pricing_plan_id":"cebpf4jnsgd1na2vs0mg"},{"bike_id":"6c85e017-62b5-441e-96ea-ae5f4be0004e","system_id":"levelo_inurba_marseille","lat":43.30783,"lon":5.37638,"is_reserved":false,"is_disabled":false,"rental_uris":{"android":"levelo://app?vid=6c85e017-62b5-441e-96ea-ae5f4be0004e","ios":"levelo://app?vid=6c85e017-62b5-441e-96ea-ae5f4be0004e"},"vehicle_type_id":"4","last_reported":1752067630,"current_range_meters":21600,"station_id":"ce4bgv92rcd13ifvqcq0","pricing_plan_id":"cebpf4jnsgd1na2vs0mg"},{"bike_id":"55eb3ee3-207d-45c9-a356-7e275a6ee08e","system_id":"levelo_inurba_marseille","lat":43.322208,"lon":5.407363,"is_reserved":false,"is_disabled":false,"rental_uris":{"android":"levelo://app?vid=55eb3ee3-207d-45c9-a356-7e275a6ee08e","ios":"levelo://app?vid=55eb3ee3-207d-45c9-a356-7e275a6ee08e"},"vehicle_type_id":"4","last_reported":1752067630,"current_range_meters":21600,"station_id":"ce4bh092rcd13ifvqd30","pricing_plan_id":"cebpf4jnsgd1na2vs0mg"},{"bike_id":"10c59449-1e22-41d8-be57-73de9f1e8e96","system_id":"levelo_inurba_marseille","lat":43.28408,"lon":5.34995,"is_reserved":false,"is_disabled":false,"rental_uris":{"android":"levelo://app?vid=10c59449-1e22-41d8-be57-73de9f1e8e96","ios":"levelo://app?vid=10c59449-1e22-41d8-be57-73de9f1e8e96"},"vehicle_type_id":"4","last_reported":1752067630,"current_range_meters":21600,"station_id":"ce4bhbh2rcd13ifvqepg","pricing_plan_id":"cebpf4jnsgd1na2vs0mg"},{"bike_id":"a639b820-7e59-4035-96cb-cf4c8016504d","system_id":"levelo_inurba_marseille","lat":43.26556,"lon":5.37285,"is_reserved":false,"is_disabled":false,"rental_uris":{"android":"levelo://app?vid=a639b820-7e59-4035-96cb-cf4c8016504d","ios":"levelo://app?vid=a639b820-7e59-4035-96cb-cf4c8016504d"},"vehicle_type_id":"4","last_reported":1752067630,"current_range_meters":21600,"station_id":"ce4bhg12rcd13ifvqf70","pricing_plan_id":"cebpf4jnsgd1na2vs0mg"},{"bike_id":"119ac35f-9f77-4ade-8210-2e36a1deb989","system_id":"levelo_inurba_marseille","lat":43.25498,"lon":5.37648,"is_reserved":false,"is_disabled":false,"rental_uris":{"android":"levelo://app?vid=119ac35f-9f77-4ade-8210-2e36a1deb989","ios":"levelo://app?vid=119ac35f-9f77-4ade-8210-2e36a1deb989"},"vehicle_type_id":"4","last_reported":1752067630,"current_range_meters":21600,"station_id":"ce4bhh12rcd13ifvqff0","pricing_plan_id":"cebpf4jnsgd1na2vs0mg"},{"bike_id":"8f5bfac4-1436-4c28-bb03-00228598e00f","system_id":"levelo_inurba_marseille","lat":43.24165,"lon":5.36398,"is_reserved":false,"is_disabled":false,"rental_uris":{"android":"levelo://app?vid=8f5bfac4-1436-4c28-bb03-00228598e00f","ios":"levelo://app?vid=8f5bfac4-1436-4c28-bb03-00228598e00f"},"vehicle_type_id":"4","last_reported":1752067630,"current_range_meters":21600,"station_id":"cpo36qri1sfpv3e86is0","pricing_plan_id":"cebpf4jnsgd1na2vs0mg"},{"bike_id":"12671aaf-df30-48df-969a-0e8ba311c0d9","system_id":"levelo_inurba_marseille","lat":43.299257,"lon":5.374755,"is_reserved":false,"is_disabled":false,"rental_uris":{"android":"levelo://app?vid=12671aaf-df30-48df-969a-0e8ba311c0d9","ios":"levelo://app?vid=12671aaf-df30-48df-969a-0e8ba311c0d9"},"vehicle_type_id":"4","last_reported":1752067630,"current_range_meters":22000,"station_id":"","pricing_plan_id":"cebpf4jnsgd1na2vs0mg"},{"bike_id":"24b17f7b-dff1-4936-b27a-7c2c6813a894","system_id":"levelo_inurba_marseille","lat":43.245883,"lon":5.373777,"is_reserved":false,"is_disabled":false,"rental_uris":{"android":"levelo://app?vid=24b17f7b-dff1-4936-b27a-7c2c6813a894","ios":"levelo://app?vid=24b17f7b-dff1-4936-b27a-7c2c6813a894"},"vehicle_type_id":"4","last_reported":1752067630,"current_range_meters":22000,"station_id":"","pricing_plan_id":"cebpf4jnsgd1na2vs0mg"},{"bike_id":"7ca944c3-775d-4b8b-974d-b4358747d78e","system_id":"levelo_inurba_marseille","lat":43.300737,"lon":5.375385,"is_reserved":false,"is_disabled":false,"rental_uris":{"android":"levelo://app?vid=7ca944c3-775d-4b8b-974d-b4358747d78e","ios":"levelo://app?vid=7ca944c3-775d-4b8b-974d-b4358747d78e"},"vehicle_type_id":"4","last_reported":1752067630,"current_range_meters":22000,"station_id":"ce4bgv92rcd13ifvqcq0","pricing_plan_id":"cebpf4jnsgd1na2vs0mg"},{"bike_id":"ac08d230-f784-4bdd-b809-5594d38fb2a6","system_id":"levelo_inurba_marseille","lat":43.28976,"lon":5.3784,"is_reserved":false,"is_disabled":false,"rental_uris":{"android":"levelo://app?vid=ac08d230-f784-4bdd-b809-5594d38fb2a6","ios":"levelo://app?vid=ac08d230-f784-4bdd-b809-5594d38fb2a6"},"vehicle_type_id":"4","last_reported":1752067630,"current_range_meters":22000,"station_id":"ce4bh9p2rcd13ifvqed0","pricing_plan_id":"cebpf4jnsgd1na2vs0mg"},{"bike_id":"43ef28e7-4568-480b-b2fe-84a6b7c911e4","system_id":"levelo_inurba_marseille","lat":43.292074,"lon":5.36062,"is_reserved":false,"is_disabled":false,"rental_uris":{"android":"levelo://app?vid=43ef28e7-4568-480b-b2fe-84a6b7c911e4","ios":"levelo://app?vid=43ef28e7-4568-480b-b2fe-84a6b7c911e4"},"vehicle_type_id":"4","last_reported":1752067630,"current_range_meters":22000,"station_id":"ce4bhbh2rcd13ifvqeqg","pricing_plan_id":"cebpf4jnsgd1na2vs0mg"},{"bike_id":"c024ffd9-ed88-4b54-b6e2-42be2e93ccca","system_id":"levelo_inurba_marseille","lat":43.26059,"lon":5.39396,"is_reserved":false,"is_disabled":false,"rental_uris":{"android":"levelo://app?vid=c024ffd9-ed88-4b54-b6e2-42be2e93ccca","ios":"levelo://app?vid=c024ffd9-ed88-4b54-b6e2-42be2e93ccca"},"vehicle_type_id":"4","last_reported":1752067630,"current_range_meters":22000,"station_id":"ce4bhh92rcd13ifvqfj0","pricing_plan_id":"cebpf4jnsgd1na2vs0mg"},{"bike_id":"d251acc5-83cf-477b-baa1-fc3f7643314b","system_id":"levelo_inurba_marseille","lat":43.278411,"lon":5.392146,"is_reserved":false,"is_disabled":false,"rental_uris":{"android":"levelo://app?vid=d251acc5-83cf-477b-baa1-fc3f7643314b","ios":"levelo://app?vid=d251acc5-83cf-477b-baa1-fc3f7643314b"},"vehicle_type_id":"4","last_reported":1752067630,"current_range_meters":22000,"station_id":"ce4bhjp2rcd13ifvqga0","pricing_plan_id":"cebpf4jnsgd1na2vs0mg"},{"bike_id":"7405c651-a868-4f97-b0fd-445de387662c","system_id":"levelo_inurba_marseille","lat":43.21752,"lon":5.34593,"is_reserved":false,"is_disabled":false,"rental_uris":{"android":"levelo://app?vid=7405c651-a868-4f97-b0fd-445de387662c","ios":"levelo://app?vid=7405c651-a868-4f97-b0fd-445de387662c"},"vehicle_type_id":"4","last_reported":1752067630,"current_range_meters":22000,"station_id":"st_cvj6r9ubvosntc0bgbag","pricing_plan_id":"cebpf4jnsgd1na2vs0mg"},{"bike_id":"6006a9aa-40e9-4dd0-9916-778076e2eaee","system_id":"levelo_inurba_marseille","lat":43.28414,"lon":5.35059,"is_reserved":false,"is_disabled":false,"rental_uris":{"android":"levelo://app?vid=6006a9aa-40e9-4dd0-9916-778076e2eaee","ios":"levelo://app?vid=6006a9aa-40e9-4dd0-9916-778076e2eaee"},"vehicle_type_id":"4","last_reported":1752067630,"current_range_meters":22400,"station_id":"","pricing_plan_id":"cebpf4jnsgd1na2vs0mg"},{"bike_id":"5a47dbc3-259f-405b-aae5-eb27140bbe63","system_id":"levelo_inurba_marseille","lat":43.31222,"lon":5.36893,"is_reserved":false,"is_disabled":false,"rental_uris":{"android":"levelo://app?vid=5a47dbc3-259f-405b-aae5-eb27140bbe63","ios":"levelo://app?vid=5a47dbc3-259f-405b-aae5-eb27140bbe63"},"vehicle_type_id":"4","last_reported":1752067630,"current_range_meters":22400,"station_id":"ce4bgl92rcd13ifvqbq0","pricing_plan_id":"cebpf4jnsgd1na2vs0mg"},{"bike_id":"7e865697-badc-47e7-9029-aa4579105f60","system_id":"levelo_inurba_marseille","lat":43.31337,"lon":5.36704,"is_reserved":false,"is_disabled":false,"rental_uris":{"android":"levelo://app?vid=7e865697-badc-47e7-9029-aa4579105f60","ios":"levelo://app?vid=7e865697-badc-47e7-9029-aa4579105f60"},"vehicle_type_id":"4","last_reported":1752067630,"current_range_meters":22400,"station_id":"ce4bgr92rcd13ifvqc6g","pricing_plan_id":"cebpf4jnsgd1na2vs0mg"},{"bike_id":"aa42f0ac-60e7-4aad-b3ec-b4cabc123d95","system_id":"levelo_inurba_marseille","lat":43.29425,"lon":5.38614,"is_reserved":false,"is_disabled":false,"rental_uris":{"android":"levelo://app?vid=aa42f0ac-60e7-4aad-b3ec-b4cabc123d95","ios":"levelo://app?vid=aa42f0ac-60e7-4aad-b3ec-b4cabc123d95"},"vehicle_type_id":"4","last_reported":1752067630,"current_range_meters":22400,"station_id":"ce4bh2h2rcd13ifvqdh0","pricing_plan_id":"cebpf4jnsgd1na2vs0mg"},{"bike_id":"7ca8669e-5ebb-4af4-bd11-81f6ebb589de","system_id":"levelo_inurba_marseille","lat":43.28413,"lon":5.34994,"is_reserved":false,"is_disabled":false,"rental_uris":{"android":"levelo://app?vid=7ca8669e-5ebb-4af4-bd11-81f6ebb589de","ios":"levelo://app?vid=7ca8669e-5ebb-4af4-bd11-81f6ebb589de"},"vehicle_type_id":"4","last_reported":1752067630,"current_range_meters":22400,"station_id":"ce4bhbh2rcd13ifvqepg","pricing_plan_id":"cebpf4jnsgd1na2vs0mg"},{"bike_id":"0c26df09-d83c-4ca1-8f87-549a7edc4c4c","system_id":"levelo_inurba_marseille","lat":43.24389,"lon":5.37057,"is_reserved":false,"is_disabled":false,"rental_uris":{"android":"levelo://app?vid=0c26df09-d83c-4ca1-8f87-549a7edc4c4c","ios":"levelo://app?vid=0c26df09-d83c-4ca1-8f87-549a7edc4c4c"},"vehicle_type_id":"4","last_reported":1752067630,"current_range_meters":22400,"station_id":"ce4bhhh2rcd13ifvqfk0","pricing_plan_id":"cebpf4jnsgd1na2vs0mg"},{"bike_id":"3b935dfc-179a-4512-b00d-bb8fa978bd14","system_id":"levelo_inurba_marseille","lat":43.29903,"lon":5.43666,"is_reserved":false,"is_disabled":false,"rental_uris":{"android":"levelo://app?vid=3b935dfc-179a-4512-b00d-bb8fa978bd14","ios":"levelo://app?vid=3b935dfc-179a-4512-b00d-bb8fa978bd14"},"vehicle_type_id":"4","last_reported":1752067630,"current_range_meters":22400,"station_id":"ce4bhpp2rcd13ifvqhfg","pricing_plan_id":"cebpf4jnsgd1na2vs0mg"},{"bike_id":"31d89142-be75-4fdb-a293-5afbdcea5d3b","system_id":"levelo_inurba_marseille","lat":43.3206,"lon":5.41543,"is_reserved":false,"is_disabled":false,"rental_uris":{"android":"levelo://app?vid=31d89142-be75-4fdb-a293-5afbdcea5d3b","ios":"levelo://app?vid=31d89142-be75-4fdb-a293-5afbdcea5d3b"},"vehicle_type_id":"4","last_reported":1752067630,"current_range_meters":22400,"station_id":"ce4bhq92rcd13ifvqhkg","pricing_plan_id":"cebpf4jnsgd1na2vs0mg"},{"bike_id":"8f89e4f3-495a-4317-bd6d-37a19186d65b","system_id":"levelo_inurba_marseille","lat":43.337236,"lon":5.391934,"is_reserved":false,"is_disabled":false,"rental_uris":{"android":"levelo://app?vid=8f89e4f3-495a-4317-bd6d-37a19186d65b","ios":"levelo://app?vid=8f89e4f3-495a-4317-bd6d-37a19186d65b"},"vehicle_type_id":"4","last_reported":1752067630,"current_range_meters":22400,"station_id":"ce4bhr92rcd13ifvqhsg","pricing_plan_id":"cebpf4jnsgd1na2vs0mg"},{"bike_id":"d08500b9-de3a-48ff-91b8-a1d08ec3b455","system_id":"levelo_inurba_marseille","lat":43.30114,"lon":5.36443,"is_reserved":false,"is_disabled":false,"rental_uris":{"android":"levelo://app?vid=d08500b9-de3a-48ff-91b8-a1d08ec3b455","ios":"levelo://app?vid=d08500b9-de3a-48ff-91b8-a1d08ec3b455"},"vehicle_type_id":"4","last_reported":1752067630,"current_range_meters":22800,"station_id":"","pricing_plan_id":"cebpf4jnsgd1na2vs0mg"},{"bike_id":"f64ea80f-2d40-46f6-af68-55052b037017","system_id":"levelo_inurba_marseille","lat":43.3195,"lon":5.37313,"is_reserved":false,"is_disabled":false,"rental_uris":{"android":"levelo://app?vid=f64ea80f-2d40-46f6-af68-55052b037017","ios":"levelo://app?vid=f64ea80f-2d40-46f6-af68-55052b037017"},"vehicle_type_id":"4","last_reported":1752067630,"current_range_meters":22800,"station_id":"","pricing_plan_id":"cebpf4jnsgd1na2vs0mg"},{"bike_id":"fe01dce9-3fd8-4bf8-81a5-2c847f3a0028","system_id":"levelo_inurba_marseille","lat":43.28698,"lon":5.37936,"is_reserved":false,"is_disabled":false,"rental_uris":{"android":"levelo://app?vid=fe01dce9-3fd8-4bf8-81a5-2c847f3a0028","ios":"levelo://app?vid=fe01dce9-3fd8-4bf8-81a5-2c847f3a0028"},"vehicle_type_id":"4","last_reported":1752067630,"current_range_meters":22800,"station_id":"ce4bh9p2rcd13ifvqec0","pricing_plan_id":"cebpf4jnsgd1na2vs0mg"},{"bike_id":"ae9a9b3f-e2a0-4531-806d-5eea26e4b3a7","system_id":"levelo_inurba_marseille","lat":43.28401,"lon":5.35006,"is_reserved":false,"is_disabled":false,"rental_uris":{"android":"levelo://app?vid=ae9a9b3f-e2a0-4531-806d-5eea26e4b3a7","ios":"levelo://app?vid=ae9a9b3f-e2a0-4531-806d-5eea26e4b3a7"},"vehicle_type_id":"4","last_reported":1752067630,"current_range_meters":22800,"station_id":"ce4bhbh2rcd13ifvqepg","pricing_plan_id":"cebpf4jnsgd1na2vs0mg"},{"bike_id":"ad6cb35f-4251-4456-903c-aa0fccd604c7","system_id":"levelo_inurba_marseille","lat":43.28422,"lon":5.34988,"is_reserved":false,"is_disabled":false,"rental_uris":{"android":"levelo://app?vid=ad6cb35f-4251-4456-903c-aa0fccd604c7","ios":"levelo://app?vid=ad6cb35f-4251-4456-903c-aa0fccd604c7"},