{"last_updated":1742321610,"ttl":60,"version":"2.2","data":{"bikes":[{"bike_id":"1d81a048-a6d6-4732-bc96-422394fc0cdd","system_id":"levelo_inurba_marseille","lat":43.27317,"lon":5.39109,"is_reserved":false,"is_disabled":true,"rental_uris":{"android":"levelo://app?vid=1d81a048-a6d6-4732-bc96-422394fc0cdd","ios":"levelo://app?vid=1d81a048-a6d6-4732-bc96-422394fc0cdd"},"vehicle_type_id":"4","last_reported":1742321610,"current_range_meters":2800,"station_id":"ce4bhgp2rcd13ifvqfe0","pricing_plan_id":"cebpf4jnsgd1na2vs0mg"},{"bike_id":"0fd5aa92-dc68-413f-ac6b-83b8fb561b7b","system_id":"levelo_inurba_marseille","lat":43.33722,"lon":5.39183,"is_reserved":false,"is_disabled":false,"rental_uris":{"android":"levelo://app?vid=0fd5aa92-dc68-413f-ac6b-83b8fb561b7b","ios":"levelo://app?vid=0fd5aa92-dc68-413f-ac6b-83b8fb561b7b"},"vehicle_type_id":"4","last_reported":1742321610,"current_range_meters":2800,"station_id":"ce4bhr92rcd13ifvqhsg","pricing_plan_id":"cebpf4jnsgd1na2vs0mg"},{"bike_id":"76d6ecbc-02ea-4601-a848-0098337df477","system_id":"levelo_inurba_marseille","lat":43.25824,"lon":5.39439,"is_reserved":false,"is_disabled":false,"rental_uris":{"android":"levelo://app?vid=76d6ecbc-02ea-4601-a848-0098337df477","ios":"levelo://app?vid=76d6ecbc-02ea-4601-a848-0098337df477"},"vehicle_type_id":"4","last_reported":1742321610,"current_range_meters":2000,"station_id":"ce4bhip2rcd13ifvqft0","pricing_plan_id":"cebpf4jnsgd1na2vs0mg"},{"bike_id":"b93228b5-85b5-4b69-9bcb-2b32870c7cd9","system_id":"levelo_inurba_marseille","lat":43.27372,"lon":5.36254,"is_reserved":false,"is_disabled":false,"rental_uris":{"android":"levelo://app?vid=b93228b5-85b5-4b69-9bcb-2b32870c7cd9","ios":"levelo://app?vid=b93228b5-85b5-4b69-9bcb-2b32870c7cd9"},"vehicle_type_id":"4","last_reported":1742321610,"current_range_meters":2800,"station_id":"ce4bhbh2rcd13ifvqeo0","pricing_plan_id":"cebpf4jnsgd1na2vs0mg"},{"bike_id":"fb145837-3957-4828-b675-d20baffd6aa7","system_id":"levelo_inurba_marseille","lat":43.27457,"lon":5.38501,"is_reserved":false,"is_disabled":false,"rental_uris":{"android":"levelo://app?vid=fb145837-3957-4828-b675-d20baffd6aa7","ios":"levelo://app?vid=fb145837-3957-4828-b675-d20baffd6aa7"},"vehicle_type_id":"4","last_reported":1742321610,"current_range_meters":2800,"station_id":"ce4bhh92rcd13ifvqfi0","pricing_plan_id":"cebpf4jnsgd1na2vs0mg"},{"bike_id":"930e4f25-7d6b-4f28-bc33-48a401199b68","system_id":"levelo_inurba_marseille","lat":43.28038,"lon":5.36945,"is_reserved":false,"is_disabled":false,"rental_uris":{"android":"levelo://app?vid=930e4f25-7d6b-4f28-bc33-48a401199b68","ios":"levelo://app?vid=930e4f25-7d6b-4f28-bc33-48a401199b68"},"vehicle_type_id":"4","last_reported":1742321610,"current_range_meters":3200,"station_id":"ce4bha12rcd13ifvqef0","pricing_plan_id":"cebpf4jnsgd1na2vs0mg"},{"bike_id":"95d90ad2-acd2-4aa9-81ec-a251aea3512b","system_id":"levelo_inurba_marseille","lat":43.290273,"lon":5.386478,"is_reserved":false,"is_disabled":false,"rental_uris":{"android":"levelo://app?vid=95d90ad2-acd2-4aa9-81ec-a251aea3512b","ios":"levelo://app?vid=95d90ad2-acd2-4aa9-81ec-a251aea3512b"},"vehicle_type_id":"4","last_reported":1742321610,"current_range_meters":3200,"station_id":"ce4bh4p2rcd13ifvqe0g","pricing_plan_id":"cebpf4jnsgd1na2vs0mg"},{"bike_id":"e687940f-3c9c-4a24-82d3-cc513234d0f2","system_id":"levelo_inurba_marseille","lat":43.26203,"lon":5.40545,"is_reserved":false,"is_disabled":true,"rental_uris":{"android":"levelo://app?vid=e687940f-3c9c-4a24-82d3-cc513234d0f2","ios":"levelo://app?vid=e687940f-3c9c-4a24-82d3-cc513234d0f2"},"vehicle_type_id":"4","last_reported":1742321610,"current_range_meters":3200,"station_id":"","pricing_plan_id":"cebpf4jnsgd1na2vs0mg"},{"bike_id":"460cad94-7ea5-46a4-84bd-4b2efd0fadfb","system_id":"levelo_inurba_marseille","lat":43.32364,"lon":5.38888,"is_reserved":false,"is_disabled":false,"rental_uris":{"android":"levelo://app?vid=460cad94-7ea5-46a4-84bd-4b2efd0fadfb","ios":"levelo://app?vid=460cad94-7ea5-46a4-84bd-4b2efd0fadfb"},"vehicle_type_id":"4","last_reported":1742321610,"current_range_meters":3200,"station_id":"ce4bhqp2rcd13ifvqhog","pricing_plan_id":"cebpf4jnsgd1na2vs0mg"},{"bike_id":"22d73ee7-aec9-4511-af0d-2340b68d59e3","system_id":"levelo_inurba_marseille","lat":43.31129,"lon":5.37756,"is_reserved":false,"is_disabled":false,"rental_uris":{"android":"levelo://app?vid=22d73ee7-aec9-4511-af0d-2340b68d59e3","ios":"levelo://app?vid=22d73ee7-aec9-4511-af0d-2340b68d59e3"},"vehicle_type_id":"4","last_reported":1742321610,"current_range_meters":3200,"station_id":"ce4bgt92rcd13ifvqcg0","pricing_plan_id":"cebpf4jnsgd1na2vs0mg"},{"bike_id":"4b92e75d-53bd-475d-b97e-f421d9cf10d0","system_id":"levelo_inurba_marseille","lat":43.27077,"lon":5.42278,"is_reserved":false,"is_disabled":false,"rental_uris":{"android":"levelo://app?vid=4b92e75d-53bd-475d-b97e-f421d9cf10d0","ios":"levelo://app?vid=4b92e75d-53bd-475d-b97e-f421d9cf10d0"},"vehicle_type_id":"4","last_reported":1742321610,"current_range_meters":2800,"station_id":"ce4bhk92rcd13ifvqgb0","pricing_plan_id":"cebpf4jnsgd1na2vs0mg"},{"bike_id":"2b61e431-d46c-4fc7-869a-9490152c3955","system_id":"levelo_inurba_marseille","lat":43.28576,"lon":5.39501,"is_reserved":false,"is_disabled":false,"rental_uris":{"android":"levelo://app?vid=2b61e431-d46c-4fc7-869a-9490152c3955","ios":"levelo://app?vid=2b61e431-d46c-4fc7-869a-9490152c3955"},"vehicle_type_id":"4","last_reported":1742321610,"current_range_meters":3200,"station_id":"ce4bh292rcd13ifvqdg0","pricing_plan_id":"cebpf4jnsgd1na2vs0mg"},{"bike_id":"2b21834e-b1fb-41c9-b62f-343fa24d9db8","system_id":"levelo_inurba_marseille","lat":43.31694,"lon":5.40465,"is_reserved":false,"is_disabled":false,"rental_uris":{"android":"levelo://app?vid=2b21834e-b1fb-41c9-b62f-343fa24d9db8","ios":"levelo://app?vid=2b21834e-b1fb-41c9-b62f-343fa24d9db8"},"vehicle_type_id":"4","last_reported":1742321610,"current_range_meters":3200,"station_id":"ce4bh012rcd13ifvqd00","pricing_plan_id":"cebpf4jnsgd1na2vs0mg"},{"bike_id":"79e85f62-10da-4a88-a5eb-1ff6be2110e1","system_id":"levelo_inurba_marseille","lat":43.29989,"lon":5.37174,"is_reserved":false,"is_disabled":false,"rental_uris":{"android":"levelo://app?vid=79e85f62-10da-4a88-a5eb-1ff6be2110e1","ios":"levelo://app?vid=79e85f62-10da-4a88-a5eb-1ff6be2110e1"},"vehicle_type_id":"4","last_reported":1742321610,"current_range_meters":3200,"station_id":"ce4bgr92rcd13ifvqc7g","pricing_plan_id":"cebpf4jnsgd1na2vs0mg"},{"bike_id":"384d8f7e-9451-462b-a942-b0df6aeea054","system_id":"levelo_inurba_marseille","lat":43.25159,"lon":5.40334,"is_reserved":false,"is_disabled":false,"rental_uris":{"android":"levelo://app?vid=384d8f7e-9451-462b-a942-b0df6aeea054","ios":"levelo://app?vid=384d8f7e-9451-462b-a942-b0df6aeea054"},"vehicle_type_id":"4","last_reported":1742321610,"current_range_meters":3200,"station_id":"ce4bhlh2rcd13ifvqgig","pricing_plan_id":"cebpf4jnsgd1na2vs0mg"},{"bike_id":"7fd97136-89e6-451f-8df0-aaf25d72d594","system_id":"levelo_inurba_marseille","lat":43.29823,"lon":5.401174,"is_reserved":false,"is_disabled":false,"rental_uris":{"android":"levelo://app?vid=7fd97136-89e6-451f-8df0-aaf25d72d594","ios":"levelo://app?vid=7fd97136-89e6-451f-8df0-aaf25d72d594"},"vehicle_type_id":"4","last_reported":1742321610,"current_range_meters":3200,"station_id":"ce4bh0h2rcd13ifvqd40","pricing_plan_id":"cebpf4jnsgd1na2vs0mg"},{"bike_id":"d83e6c73-ddce-49e5-afd6-4c31ae1d172a","system_id":"levelo_inurba_marseille","lat":43.29261,"lon":5.38438,"is_reserved":false,"is_disabled":false,"rental_uris":{"android":"levelo://app?vid=d83e6c73-ddce-49e5-afd6-4c31ae1d172a","ios":"levelo://app?vid=d83e6c73-ddce-49e5-afd6-4c31ae1d172a"},"vehicle_type_id":"4","last_reported":1742321610,"current_range_meters":3200,"station_id":"ce4bh692rcd13ifvqea0","pricing_plan_id":"cebpf4jnsgd1na2vs0mg"},{"bike_id":"02e0c082-990b-41dc-8871-bbb23b08abbf","system_id":"levelo_inurba_marseille","lat":43.28353,"lon":5.38118,"is_reserved":false,"is_disabled":false,"rental_uris":{"android":"levelo://app?vid=02e0c082-990b-41dc-8871-bbb23b08abbf","ios":"levelo://app?vid=02e0c082-990b-41dc-8871-bbb23b08abbf"},"vehicle_type_id":"4","last_reported":1742321610,"current_range_meters":3600,"station_id":"ce4bh412rcd13ifvqdr0","pricing_plan_id":"cebpf4jnsgd1na2vs0mg"},{"bike_id":"36c1eac0-102d-49b2-8ae6-3942da83e3d9","system_id":"levelo_inurba_marseille","lat":43.24661,"lon":5.3816,"is_reserved":false,"is_disabled":false,"rental_uris":{"android":"levelo://app?vid=36c1eac0-102d-49b2-8ae6-3942da83e3d9","ios":"levelo://app?vid=36c1eac0-102d-49b2-8ae6-3942da83e3d9"},"vehicle_type_id":"4","last_reported":1742321610,"current_range_meters":4000,"station_id":"ce4bhih2rcd13ifvqfr0","pricing_plan_id":"cebpf4jnsgd1na2vs0mg"},{"bike_id":"a12d301c-78a9-45d5-9109-54bab81b5d62","system_id":"levelo_inurba_marseille","lat":43.31076,"lon":5.38353,"is_reserved":false,"is_disabled":false,"rental_uris":{"android":"levelo://app?vid=a12d301c-78a9-45d5-9109-54bab81b5d62","ios":"levelo://app?vid=a12d301c-78a9-45d5-9109-54bab81b5d62"},"vehicle_type_id":"4","last_reported":1742321610,"current_range_meters":3600,"station_id":"ce4bgv92rcd13ifvqcr0","pricing_plan_id":"cebpf4jnsgd1na2vs0mg"},{"bike_id":"25ddce3d-4b4f-44b7-b358-87376e66e52b","system_id":"levelo_inurba_marseille","lat":43.30924,"lon":5.40146,"is_reserved":false,"is_disabled":false,"rental_uris":{"android":"levelo://app?vid=25ddce3d-4b4f-44b7-b358-87376e66e52b","ios":"levelo://app?vid=25ddce3d-4b4f-44b7-b358-87376e66e52b"},"vehicle_type_id":"4","last_reported":1742321610,"current_range_meters":3600,"station_id":"ce4bgvp2rcd13ifvqct0","pricing_plan_id":"cebpf4jnsgd1na2vs0mg"},{"bike_id":"7d77b1ba-57a5-4b19-b549-677cbf0192e1","system_id":"levelo_inurba_marseille","lat":43.272103,"lon":5.39188,"is_reserved":false,"is_disabled":false,"rental_uris":{"android":"levelo://app?vid=7d77b1ba-57a5-4b19-b549-677cbf0192e1","ios":"levelo://app?vid=7d77b1ba-57a5-4b19-b549-677cbf0192e1"},"vehicle_type_id":"4","last_reported":1742321610,"current_range_meters":4000,"station_id":"ce4bhgp2rcd13ifvqfe0","pricing_plan_id":"cebpf4jnsgd1na2vs0mg"},{"bike_id":"f77d5cf2-b392-4552-9270-6197ecda1b7a","system_id":"levelo_inurba_marseille","lat":43.30889,"lon":5.3966,"is_reserved":false,"is_disabled":false,"rental_uris":{"android":"levelo://app?vid=f77d5cf2-b392-4552-9270-6197ecda1b7a","ios":"levelo://app?vid=f77d5cf2-b392-4552-9270-6197ecda1b7a"},"vehicle_type_id":"4","last_reported":1742321610,"current_range_meters":4000,"station_id":"ce4bh012rcd13ifvqcv0","pricing_plan_id":"cebpf4jnsgd1na2vs0mg"},{"bike_id":"abe2d1db-a4f4-46d6-be27-9b79e4758c20","system_id":"levelo_inurba_marseille","lat":43.28425,"lon":5.37533,"is_reserved":false,"is_disabled":false,"rental_uris":{"android":"levelo://app?vid=abe2d1db-a4f4-46d6-be27-9b79e4758c20","ios":"levelo://app?vid=abe2d1db-a4f4-46d6-be27-9b79e4758c20"},"vehicle_type_id":"4","last_reported":1742321610,"current_range_meters":4000,"station_id":"ce4bh412rcd13ifvqds0","pricing_plan_id":"cebpf4jnsgd1na2vs0mg"},{"bike_id":"60222d3e-6d9d-4bc3-87d3-864e443534d5","system_id":"levelo_inurba_marseille","lat":43.26076,"lon":5.39394,"is_reserved":false,"is_disabled":false,"rental_uris":{"android":"levelo://app?vid=60222d3e-6d9d-4bc3-87d3-864e443534d5","ios":"levelo://app?vid=60222d3e-6d9d-4bc3-87d3-864e443534d5"},"vehicle_type_id":"4","last_reported":1742321610,"current_range_meters":4000,"station_id":"ce4bhh92rcd13ifvqfj0","pricing_plan_id":"cebpf4jnsgd1na2vs0mg"},{"bike_id":"08d05313-0cca-470a-9c7b-56de3d5b1d8e","system_id":"levelo_inurba_marseille","lat":43.29267,"lon":5.38431,"is_reserved":false,"is_disabled":false,"rental_uris":{"android":"levelo://app?vid=08d05313-0cca-470a-9c7b-56de3d5b1d8e","ios":"levelo://app?vid=08d05313-0cca-470a-9c7b-56de3d5b1d8e"},"vehicle_type_id":"4","last_reported":1742321610,"current_range_meters":3600,"station_id":"ce4bh692rcd13ifvqea0","pricing_plan_id":"cebpf4jnsgd1na2vs0mg"},{"bike_id":"554cbd93-c557-42e3-9081-b4cb8c1a0b8b","system_id":"levelo_inurba_marseille","lat":43.29799,"lon":5.38113,"is_reserved":false,"is_disabled":false,"rental_uris":{"android":"levelo://app?vid=554cbd93-c557-42e3-9081-b4cb8c1a0b8b","ios":"levelo://app?vid=554cbd93-c557-42e3-9081-b4cb8c1a0b8b"},"vehicle_type_id":"4","last_reported":1742321610,"current_range_meters":4000,"station_id":"ce4bgip2rcd13ifvqbb0","pricing_plan_id":"cebpf4jnsgd1na2vs0mg"},{"bike_id":"22ab8636-ad55-45d2-ac4f-612fe308d7c7","system_id":"levelo_inurba_marseille","lat":43.30363,"lon":5.41883,"is_reserved":false,"is_disabled":false,"rental_uris":{"android":"levelo://app?vid=22ab8636-ad55-45d2-ac4f-612fe308d7c7","ios":"levelo://app?vid=22ab8636-ad55-45d2-ac4f-612fe308d7c7"},"vehicle_type_id":"4","last_reported":1742321610,"current_range_meters":4000,"station_id":"ce4bhop2rcd13ifvqh7g","pricing_plan_id":"cebpf4jnsgd1na2vs0mg"},{"bike_id":"be3e31a7-9422-4a4e-8f02-e2907a968d5f","system_id":"levelo_inurba_marseille","lat":43.30461,"lon":5.37901,"is_reserved":false,"is_disabled":false,"rental_uris":{"android":"levelo://app?vid=be3e31a7-9422-4a4e-8f02-e2907a968d5f","ios":"levelo://app?vid=be3e31a7-9422-4a4e-8f02-e2907a968d5f"},"vehicle_type_id":"4","last_reported":1742321610,"current_range_meters":3600,"station_id":"ce4bgup2rcd13ifvqcn0","pricing_plan_id":"cebpf4jnsgd1na2vs0mg"},{"bike_id":"f761a365-a089-4e0e-adb0-787394d8759c","system_id":"levelo_inurba_marseille","lat":43.28571,"lon":5.39495,"is_reserved":false,"is_disabled":false,"rental_uris":{"android":"levelo://app?vid=f761a365-a089-4e0e-adb0-787394d8759c","ios":"levelo://app?vid=f761a365-a089-4e0e-adb0-787394d8759c"},"vehicle_type_id":"4","last_reported":1742321610,"current_range_meters":4400,"station_id":"ce4bh292rcd13ifvqdg0","pricing_plan_id":"cebpf4jnsgd1na2vs0mg"},{"bike_id":"108552e0-aea3-4635-a2c6-f5084ae2b00c","system_id":"levelo_inurba_marseille","lat":43.29219,"lon":5.39538,"is_reserved":false,"is_disabled":false,"rental_uris":{"android":"levelo://app?vid=108552e0-aea3-4635-a2c6-f5084ae2b00c","ios":"levelo://app?vid=108552e0-aea3-4635-a2c6-f5084ae2b00c"},"vehicle_type_id":"4","last_reported":1742321610,"current_range_meters":4400,"station_id":"ce4bh3h2rcd13ifvqdo0","pricing_plan_id":"cebpf4jnsgd1na2vs0mg"},{"bike_id":"dd096d80-def9-405c-a808-16d452fc02f3","system_id":"levelo_inurba_marseille","lat":43.30206,"lon":5.39473,"is_reserved":false,"is_disabled":false,"rental_uris":{"android":"levelo://app?vid=dd096d80-def9-405c-a808-16d452fc02f3","ios":"levelo://app?vid=dd096d80-def9-405c-a808-16d452fc02f3"},"vehicle_type_id":"4","last_reported":1742321610,"current_range_meters":4400,"station_id":"ce4bh0p2rcd13ifvqd70","pricing_plan_id":"cebpf4jnsgd1na2vs0mg"},{"bike_id":"5299b403-b7c5-4a5e-bca5-6102aa117f23","system_id":"levelo_inurba_marseille","lat":43.28663,"lon":5.36347,"is_reserved":false,"is_disabled":false,"rental_uris":{"android":"levelo://app?vid=5299b403-b7c5-4a5e-bca5-6102aa117f23","ios":"levelo://app?vid=5299b403-b7c5-4a5e-bca5-6102aa117f23"},"vehicle_type_id":"4","last_reported":1742321610,"current_range_meters":4400,"station_id":"ce4bhah2rcd13ifvqej0","pricing_plan_id":"cebpf4jnsgd1na2vs0mg"},{"bike_id":"085f5453-b673-4e10-bed9-4077a4ed34d4","system_id":"levelo_inurba_marseille","lat":43.31125,"lon":5.37764,"is_reserved":false,"is_disabled":false,"rental_uris":{"android":"levelo://app?vid=085f5453-b673-4e10-bed9-4077a4ed34d4","ios":"levelo://app?vid=085f5453-b673-4e10-bed9-4077a4ed34d4"},"vehicle_type_id":"4","last_reported":1742321610,"current_range_meters":4400,"station_id":"ce4bgt92rcd13ifvqcg0","pricing_plan_id":"cebpf4jnsgd1na2vs0mg"},{"bike_id":"753137cf-e029-49ac-b3f3-659e95359aaa","system_id":"levelo_inurba_marseille","lat":43.29421,"lon":5.38613,"is_reserved":false,"is_disabled":false,"rental_uris":{"android":"levelo://app?vid=753137cf-e029-49ac-b3f3-659e95359aaa","ios":"levelo://app?vid=753137cf-e029-49ac-b3f3-659e95359aaa"},"vehicle_type_id":"4","last_reported":1742321610,"current_range_meters":4400,"station_id":"ce4bh2h2rcd13ifvqdh0","pricing_plan_id":"cebpf4jnsgd1na2vs0mg"},{"bike_id":"c293dc03-4f1c-4898-bb0b-c50d4575781f","system_id":"levelo_inurba_marseille","lat":43.29276,"lon":5.36852,"is_reserved":false,"is_disabled":false,"rental_uris":{"android":"levelo://app?vid=c293dc03-4f1c-4898-bb0b-c50d4575781f","ios":"levelo://app?vid=c293dc03-4f1c-4898-bb0b-c50d4575781f"},"vehicle_type_id":"4","last_reported":1742321610,"current_range_meters":4800,"station_id":"ce4bhbp2rcd13ifvqesg","pricing_plan_id":"cebpf4jnsgd1na2vs0mg"},{"bike_id":"8510429d-db6f-4ccb-b997-2b861cbd3971","system_id":"levelo_inurba_marseille","lat":43.28722,"lon":5.36088,"is_reserved":false,"is_disabled":false,"rental_uris":{"android":"levelo://app?vid=8510429d-db6f-4ccb-b997-2b861cbd3971","ios":"levelo://app?vid=8510429d-db6f-4ccb-b997-2b861cbd3971"},"vehicle_type_id":"4","last_reported":1742321610,"current_range_meters":4800,"station_id":"cki0cbj6b192h4jlfktg","pricing_plan_id":"cebpf4jnsgd1na2vs0mg"},{"bike_id":"ef0e6bd7-a9fe-4e50-8f54-21a353a3ea79","system_id":"levelo_inurba_marseille","lat":43.28043,"lon":5.36943,"is_reserved":false,"is_disabled":false,"rental_uris":{"android":"levelo://app?vid=ef0e6bd7-a9fe-4e50-8f54-21a353a3ea79","ios":"levelo://app?vid=ef0e6bd7-a9fe-4e50-8f54-21a353a3ea79"},"vehicle_type_id":"4","last_reported":1742321610,"current_range_meters":4800,"station_id":"ce4bha12rcd13ifvqef0","pricing_plan_id":"cebpf4jnsgd1na2vs0mg"},{"bike_id":"6bb109a1-e8bb-4278-bb9e-c8feed927a8a","system_id":"levelo_inurba_marseille","lat":43.29415,"lon":5.38652,"is_reserved":false,"is_disabled":false,"rental_uris":{"android":"levelo://app?vid=6bb109a1-e8bb-4278-bb9e-c8feed927a8a","ios":"levelo://app?vid=6bb109a1-e8bb-4278-bb9e-c8feed927a8a"},"vehicle_type_id":"4","last_reported":1742321610,"current_range_meters":4800,"station_id":"ce4bh2h2rcd13ifvqdh0","pricing_plan_id":"cebpf4jnsgd1na2vs0mg"},{"bike_id":"057c4299-c24d-4a02-8ede-b4bf9523726b","system_id":"levelo_inurba_marseille","lat":43.231414,"lon":5.437241,"is_reserved":false,"is_disabled":true,"rental_uris":{"android":"levelo://app?vid=057c4299-c24d-4a02-8ede-b4bf9523726b","ios":"levelo://app?vid=057c4299-c24d-4a02-8ede-b4bf9523726b"},"vehicle_type_id":"4","last_reported":1742321610,"current_range_meters":4800,"station_id":"ce4bhmp2rcd13ifvqgog","pricing_plan_id":"cebpf4jnsgd1na2vs0mg"},{"bike_id":"fa5f15ab-8994-45e1-84de-31aa4c8b3ced","system_id":"levelo_inurba_marseille","lat":43.23203,"lon":5.35554,"is_reserved":false,"is_disabled":false,"rental_uris":{"android":"levelo://app?vid=fa5f15ab-8994-45e1-84de-31aa4c8b3ced","ios":"levelo://app?vid=fa5f15ab-8994-45e1-84de-31aa4c8b3ced"},"vehicle_type_id":"4","last_reported":1742321610,"current_range_meters":4800,"station_id":"ce4bhu92rcd13ifvqi70","pricing_plan_id":"cebpf4jnsgd1na2vs0mg"},{"bike_id":"8c539c07-583b-48b3-8f00-7ab19ad14c41","system_id":"levelo_inurba_marseille","lat":43.29309,"lon":5.37177,"is_reserved":false,"is_disabled":false,"rental_uris":{"android":"levelo://app?vid=8c539c07-583b-48b3-8f00-7ab19ad14c41","ios":"levelo://app?vid=8c539c07-583b-48b3-8f00-7ab19ad14c41"},"vehicle_type_id":"4","last_reported":1742321610,"current_range_meters":4800,"station_id":"ce4bgh92rcd13ifvqb40","pricing_plan_id":"cebpf4jnsgd1na2vs0mg"},{"bike_id":"22a15108-03a8-4897-9492-f8b3536837e9","system_id":"levelo_inurba_marseille","lat":43.30188,"lon":5.36635,"is_reserved":false,"is_disabled":false,"rental_uris":{"android":"levelo://app?vid=22a15108-03a8-4897-9492-f8b3536837e9","ios":"levelo://app?vid=22a15108-03a8-4897-9492-f8b3536837e9"},"vehicle_type_id":"4","last_reported":1742321610,"current_range_meters":4800,"station_id":"ce4bgrh2rcd13ifvqc8g","pricing_plan_id":"cebpf4jnsgd1na2vs0mg"},{"bike_id":"dc0b330b-e6b8-4d18-890b-b1acc7817ba1","system_id":"levelo_inurba_marseille","lat":43.286131,"lon":5.351066,"is_reserved":false,"is_disabled":false,"rental_uris":{"android":"levelo://app?vid=dc0b330b-e6b8-4d18-890b-b1acc7817ba1","ios":"levelo://app?vid=dc0b330b-e6b8-4d18-890b-b1acc7817ba1"},"vehicle_type_id":"4","last_reported":1742321610,"current_range_meters":4800,"station_id":"ce4bguh2rcd13ifvqcj0","pricing_plan_id":"cebpf4jnsgd1na2vs0mg"},{"bike_id":"d7588390-a8bb-4b0c-9d26-454cb950000a","system_id":"levelo_inurba_marseille","lat":43.3089,"lon":5.37208,"is_reserved":false,"is_disabled":false,"rental_uris":{"android":"levelo://app?vid=d7588390-a8bb-4b0c-9d26-454cb950000a","ios":"levelo://app?vid=d7588390-a8bb-4b0c-9d26-454cb950000a"},"vehicle_type_id":"4","last_reported":1742321610,"current_range_meters":4800,"station_id":"ce4bguh2rcd13ifvqckg","pricing_plan_id":"cebpf4jnsgd1na2vs0mg"},{"bike_id":"bef691aa-c265-4441-bffc-94b72941d75e","system_id":"levelo_inurba_marseille","lat":43.28665,"lon":5.36358,"is_reserved":false,"is_disabled":false,"rental_uris":{"android":"levelo://app?vid=bef691aa-c265-4441-bffc-94b72941d75e","ios":"levelo://app?vid=bef691aa-c265-4441-bffc-94b72941d75e"},"vehicle_type_id":"4","last_reported":1742321610,"current_range_meters":4800,"station_id":"ce4bhah2rcd13ifvqej0","pricing_plan_id":"cebpf4jnsgd1na2vs0mg"},{"bike_id":"1254e7e4-4ed8-4049-bc07-60ddfd8f73fe","system_id":"levelo_inurba_marseille","lat":43.30643,"lon":5.40093,"is_reserved":false,"is_disabled":false,"rental_uris":{"android":"levelo://app?vid=1254e7e4-4ed8-4049-bc07-60ddfd8f73fe","ios":"levelo://app?vid=1254e7e4-4ed8-4049-bc07-60ddfd8f73fe"},"vehicle_type_id":"4","last_reported":1742321610,"current_range_meters":4800,"station_id":"ce4bh112rcd13ifvqda0","pricing_plan_id":"cebpf4jnsgd1na2vs0mg"},{"bike_id":"b9107274-1cbb-456e-8fac-c56eb293d516","system_id":"levelo_inurba_marseille","lat":43.31122,"lon":5.37767,"is_reserved":false,"is_disabled":false,"rental_uris":{"android":"levelo://app?vid=b9107274-1cbb-456e-8fac-c56eb293d516","ios":"levelo://app?vid=b9107274-1cbb-456e-8fac-c56eb293d516"},"vehicle_type_id":"4","last_reported":1742321610,"current_range_meters":5600,"station_id":"ce4bgt92rcd13ifvqcg0","pricing_plan_id":"cebpf4jnsgd1na2vs0mg"},{"bike_id":"b9416fb6-9cc0-4164-b6a9-32098ba209cf","system_id":"levelo_inurba_marseille","lat":43.31119,"lon":5.37767,"is_reserved":false,"is_disabled":false,"rental_uris":{"android":"levelo://app?vid=b9416fb6-9cc0-4164-b6a9-32098ba209cf","ios":"levelo://app?vid=b9416fb6-9cc0-4164-b6a9-32098ba209cf"},"vehicle_type_id":"4","last_reported":1742321610,"current_range_meters":5600,"station_id":"ce4bgt92rcd13ifvqcg0","pricing_plan_id":"cebpf4jnsgd1na2vs0mg"},{"bike_id":"2079be08-eb95-49f2-8410-7fcd1b1ee7ae","system_id":"levelo_inurba_marseille","lat":43.2657,"lon":5.39013,"is_reserved":false,"is_disabled":false,"rental_uris":{"android":"levelo://app?vid=2079be08-eb95-49f2-8410-7fcd1b1ee7ae","ios":"levelo://app?vid=2079be08-eb95-49f2-8410-7fcd1b1ee7ae"},"vehicle_type_id":"4","last_reported":1742321610,"current_range_meters":5600,"station_id":"ce4bhe12rcd13ifvqf30","pricing_plan_id":"cebpf4jnsgd1na2vs0mg"},{"bike_id":"c13edf3e-21a1-42c7-8625-770717cf1eba","system_id":"levelo_inurba_marseille","lat":43.27071,"lon":5.42284,"is_reserved":false,"is_disabled":false,"rental_uris":{"android":"levelo://app?vid=c13edf3e-21a1-42c7-8625-770717cf1eba","ios":"levelo://app?vid=c13edf3e-21a1-42c7-8625-770717cf1eba"},"vehicle_type_id":"4","last_reported":1742321610,"current_range_meters":5600,"station_id":"ce4bhk92rcd13ifvqgb0","pricing_plan_id":"cebpf4jnsgd1na2vs0mg"},{"bike_id":"70cf8ec2-6b42-404d-8c20-978c5f553857","system_id":"levelo_inurba_marseille","lat":43.29047,"lon":5.35913,"is_reserved":false,"is_disabled":false,"rental_uris":{"android":"levelo://app?vid=70cf8ec2-6b42-404d-8c20-978c5f553857","ios":"levelo://app?vid=70cf8ec2-6b42-404d-8c20-978c5f553857"},"vehicle_type_id":"4","last_reported":1742321610,"current_range_meters":4800,"station_id":"ce4bha92rcd13ifvqeg0","pricing_plan_id":"cebpf4jnsgd1na2vs0mg"},{"bike_id":"3654f42b-a616-4dfb-9697-8e89a26b56d8","system_id":"levelo_inurba_marseille","lat":43.24071,"lon":5.37776,"is_reserved":false,"is_disabled":false,"rental_uris":{"android":"levelo://app?vid=3654f42b-a616-4dfb-9697-8e89a26b56d8","ios":"levelo://app?vid=3654f42b-a616-4dfb-9697-8e89a26b56d8"},"vehicle_type_id":"4","last_reported":1742321610,"current_range_meters":5600,"station_id":"ce4bhnp2rcd13ifvqgvg","pricing_plan_id":"cebpf4jnsgd1na2vs0mg"},{"bike_id":"eb37f39b-3138-47e6-8860-39682583bd1f","system_id":"levelo_inurba_marseille","lat":43.32366,"lon":5.38905,"is_reserved":false,"is_disabled":false,"rental_uris":{"android":"levelo://app?vid=eb37f39b-3138-47e6-8860-39682583bd1f","ios":"levelo://app?vid=eb37f39b-3138-47e6-8860-39682583bd1f"},"vehicle_type_id":"4","last_reported":1742321610,"current_range_meters":5600,"station_id":"ce4bhqp2rcd13ifvqhog","pricing_plan_id":"cebpf4jnsgd1na2vs0mg"},{"bike_id":"aa6243f1-f795-4192-a464-6661c18129d3","system_id":"levelo_inurba_marseille","lat":43.31493,"lon":5.37307,"is_reserved":false,"is_disabled":false,"rental_uris":{"android":"levelo://app?vid=aa6243f1-f795-4192-a464-6661c18129d3","ios":"levelo://app?vid=aa6243f1-f795-4192-a464-6661c18129d3"},"vehicle_type_id":"4","last_reported":1742321610,"current_range_meters":5600,"station_id":"ce4bgt12rcd13ifvqcd0","pricing_plan_id":"cebpf4jnsgd1na2vs0mg"},{"bike_id":"7d53deae-64f8-411c-8258-5676d33fedb6","system_id":"levelo_inurba_marseille","lat":43.29515,"lon":5.39402,"is_reserved":false,"is_disabled":false,"rental_uris":{"android":"levelo://app?vid=7d53deae-64f8-411c-8258-5676d33fedb6","ios":"levelo://app?vid=7d53deae-64f8-411c-8258-5676d33fedb6"},"vehicle_type_id":"4","last_reported":1742321610,"current_range_meters":5600,"station_id":"ce4bh292rcd13ifvqdf0","pricing_plan_id":"cebpf4jnsgd1na2vs0mg"},{"bike_id":"9e70116b-1f4e-4bb1-9ec9-8014e813ad89","system_id":"levelo_inurba_marseille","lat":43.27077,"lon":5.42274,"is_reserved":false,"is_disabled":false,"rental_uris":{"android":"levelo://app?vid=9e70116b-1f4e-4bb1-9ec9-8014e813ad89","ios":"levelo://app?vid=9e70116b-1f4e-4bb1-9ec9-8014e813ad89"},"vehicle_type_id":"4","last_reported":1742321610,"current_range_meters":6000,"station_id":"ce4bhk92rcd13ifvqgb0","pricing_plan_id":"cebpf4jnsgd1na2vs0mg"},{"bike_id":"5a097ab1-2e3f-4860-929f-5e3b00691179","system_id":"levelo_inurba_marseille","lat":43.29047,"lon":5.35923,"is_reserved":false,"is_disabled":false,"rental_uris":{"android":"levelo://app?vid=5a097ab1-2e3f-4860-929f-5e3b00691179","ios":"levelo://app?vid=5a097ab1-2e3f-4860-929f-5e3b00691179"},"vehicle_type_id":"4","last_reported":1742321610,"current_range_meters":6000,"station_id":"ce4bha92rcd13ifvqeg0","pricing_plan_id":"cebpf4jnsgd1na2vs0mg"},{"bike_id":"2665cc4b-07ed-4ae6-a66f-2b09983c709d","system_id":"levelo_inurba_marseille","lat":43.33761,"lon":5.37489,"is_reserved":false,"is_disabled":false,"rental_uris":{"android":"levelo://app?vid=2665cc4b-07ed-4ae6-a66f-2b09983c709d","ios":"levelo://app?vid=2665cc4b-07ed-4ae6-a66f-2b09983c709d"},"vehicle_type_id":"4","last_reported":1742321610,"current_range_meters":6000,"station_id":"","pricing_plan_id":"cebpf4jnsgd1na2vs0mg"},{"bike_id":"d2aaccab-2375-4b01-b177-400c90b263c2","system_id":"levelo_inurba_marseille","lat":43.28167,"lon":5.42638,"is_reserved":false,"is_disabled":false,"rental_uris":{"android":"levelo://app?vid=d2aaccab-2375-4b01-b177-400c90b263c2","ios":"levelo://app?vid=d2aaccab-2375-4b01-b177-400c90b263c2"},"vehicle_type_id":"4","last_reported":1742321610,"current_range_meters":6000,"station_id":"ce4bhnh2rcd13ifvqgug","pricing_plan_id":"cebpf4jnsgd1na2vs0mg"},{"bike_id":"9c4685f3-07ec-44f1-876e-e4f7bb01eac7","system_id":"levelo_inurba_marseille","lat":43.32367,"lon":5.38882,"is_reserved":false,"is_disabled":false,"rental_uris":{"android":"levelo://app?vid=9c4685f3-07ec-44f1-876e-e4f7bb01eac7","ios":"levelo://app?vid=9c4685f3-07ec-44f1-876e-e4f7bb01eac7"},"vehicle_type_id":"4","last_reported":1742321610,"current_range_meters":6000,"station_id":"ce4bhqp2rcd13ifvqhog","pricing_plan_id":"cebpf4jnsgd1na2vs0mg"},{"bike_id":"e5baec60-65a0-4d2c-9bdb-30e74b91908c","system_id":"levelo_inurba_marseille","lat":43.30602,"lon":5.37216,"is_reserved":false,"is_disabled":false,"rental_uris":{"android":"levelo://app?vid=e5baec60-65a0-4d2c-9bdb-30e74b91908c","ios":"levelo://app?vid=e5baec60-65a0-4d2c-9bdb-30e74b91908c"},"vehicle_type_id":"4","last_reported":1742321610,"current_range_meters":5600,"station_id":"ce4bgqh2rcd13ifvqc4g","pricing_plan_id":"cebpf4jnsgd1na2vs0mg"},{"bike_id":"92eb74ca-5db0-4730-bf51-f2146a91dc54","system_id":"levelo_inurba_marseille","lat":43.33024,"lon":5.39031,"is_reserved":false,"is_disabled":false,"rental_uris":{"android":"levelo://app?vid=92eb74ca-5db0-4730-bf51-f2146a91dc54","ios":"levelo://app?vid=92eb74ca-5db0-4730-bf51-f2146a91dc54"},"vehicle_type_id":"4","last_reported":1742321610,"current_range_meters":6000,"station_id":"ce4bhr92rcd13ifvqhrg","pricing_plan_id":"cebpf4jnsgd1na2vs0mg"},{"bike_id":"b30be957-4091-4091-9689-3da66932f45e","system_id":"levelo_inurba_marseille","lat":43.28423,"lon":5.34999,"is_reserved":false,"is_disabled":false,"rental_uris":{"android":"levelo://app?vid=b30be957-4091-4091-9689-3da66932f45e","ios":"levelo://app?vid=b30be957-4091-4091-9689-3da66932f45e"},"vehicle_type_id":"4","last_reported":1742321610,"current_range_meters":6000,"station_id":"ce4bhbh2rcd13ifvqepg","pricing_plan_id":"cebpf4jnsgd1na2vs0mg"},{"bike_id":"6d8e8090-a4c7-4966-a3f4-a833922b9e5a","system_id":"levelo_inurba_marseille","lat":43.23188,"lon":5.3555,"is_reserved":false,"is_disabled":false,"rental_uris":{"android":"levelo://app?vid=6d8e8090-a4c7-4966-a3f4-a833922b9e5a","ios":"levelo://app?vid=6d8e8090-a4c7-4966-a3f4-a833922b9e5a"},"vehicle_type_id":"4","last_reported":1742321610,"current_range_meters":6400,"station_id":"ce4bhu92rcd13ifvqi70","pricing_plan_id":"cebpf4jnsgd1na2vs0mg"},{"bike_id":"3db91aa6-845b-4ce3-9a81-55687c0461bc","system_id":"levelo_inurba_marseille","lat":43.25034,"lon":5.38935,"is_reserved":false,"is_disabled":false,"rental_uris":{"android":"levelo://app?vid=3db91aa6-845b-4ce3-9a81-55687c0461bc","ios":"levelo://app?vid=3db91aa6-845b-4ce3-9a81-55687c0461bc"},"vehicle_type_id":"4","last_reported":1742321610,"current_range_meters":6400,"station_id":"ce4bhgp2rcd13ifvqfd0","pricing_plan_id":"cebpf4jnsgd1na2vs0mg"},{"bike_id":"7084addc-ff69-4e46-a36d-7cb12eca2642","system_id":"levelo_inurba_marseille","lat":43.31353,"lon":5.38492,"is_reserved":false,"is_disabled":false,"rental_uris":{"android":"levelo://app?vid=7084addc-ff69-4e46-a36d-7cb12eca2642","ios":"levelo://app?vid=7084addc-ff69-4e46-a36d-7cb12eca2642"},"vehicle_type_id":"4","last_reported":1742321610,"current_range_meters":6400,"station_id":"ce4bgt92rcd13ifvqcf0","pricing_plan_id":"cebpf4jnsgd1na2vs0mg"},{"bike_id":"07524944-3a89-45ea-9024-ac359b4dd760","system_id":"levelo_inurba_marseille","lat":43.33755,"lon":5.39194,"is_reserved":false,"is_disabled":false,"rental_uris":{"android":"levelo://app?vid=07524944-3a89-45ea-9024-ac359b4dd760","ios":"levelo://app?vid=07524944-3a89-45ea-9024-ac359b4dd760"},"vehicle_type_id":"4","last_reported":1742321610,"current_range_meters":6400,"station_id":"ce4bhr92rcd13ifvqhsg","pricing_plan_id":"cebpf4jnsgd1na2vs0mg"},{"bike_id":"4866e4ee-475f-4e41-87be-1fbed5b1da65","system_id":"levelo_inurba_marseille","lat":43.28612,"lon":5.37066,"is_reserved":false,"is_disabled":false,"rental_uris":{"android":"levelo://app?vid=4866e4ee-475f-4e41-87be-1fbed5b1da65","ios":"levelo://app?vid=4866e4ee-475f-4e41-87be-1fbed5b1da65"},"vehicle_type_id":"4","last_reported":1742321610,"current_range_meters":6400,"station_id":"ce4bht12rcd13ifvqi60","pricing_plan_id":"cebpf4jnsgd1na2vs0mg"},{"bike_id":"e1195f49-1a10-4b64-9c85-55d84aa37ad3","system_id":"levelo_inurba_marseille","lat":43.29618,"lon":5.37744,"is_reserved":false,"is_disabled":false,"rental_uris":{"android":"levelo://app?vid=e1195f49-1a10-4b64-9c85-55d84aa37ad3","ios":"levelo://app?vid=e1195f49-1a10-4b64-9c85-55d84aa37ad3"},"vehicle_type_id":"4","last_reported":1742321610,"current_range_meters":6400,"station_id":"ce4bgi92rcd13ifvqb90","pricing_plan_id":"cebpf4jnsgd1na2vs0mg"},{"bike_id":"f143887a-9f0a-443b-88d6-c38aa2bd51f4","system_id":"levelo_inurba_marseille","lat":43.27064,"lon":5.40252,"is_reserved":false,"is_disabled":false,"rental_uris":{"android":"levelo://app?vid=f143887a-9f0a-443b-88d6-c38aa2bd51f4","ios":"levelo://app?vid=f143887a-9f0a-443b-88d6-c38aa2bd51f4"},"vehicle_type_id":"4","last_reported":1742321610,"current_range_meters":6400,"station_id":"ce4bhk92rcd13ifvqgc0","pricing_plan_id":"cebpf4jnsgd1na2vs0mg"},{"bike_id":"8fb3b62a-5e1c-445d-a426-69825f8142b2","system_id":"levelo_inurba_marseille","lat":43.2682,"lon":5.40246,"is_reserved":false,"is_disabled":false,"rental_uris":{"android":"levelo://app?vid=8fb3b62a-5e1c-445d-a426-69825f8142b2","ios":"levelo://app?vid=8fb3b62a-5e1c-445d-a426-69825f8142b2"},"vehicle_type_id":"4","last_reported":1742321610,"current_range_meters":6400,"station_id":"ce501612rcd8frsf0b60","pricing_plan_id":"cebpf4jnsgd1na2vs0mg"},{"bike_id":"bba3f1e7-53d2-4b2f-b476-2831b1f605dd","system_id":"levelo_inurba_marseille","lat":43.28849,"lon":5.35854,"is_reserved":false,"is_disabled":false,"rental_uris":{"android":"levelo://app?vid=bba3f1e7-53d2-4b2f-b476-2831b1f605dd","ios":"levelo://app?vid=bba3f1e7-53d2-4b2f-b476-2831b1f605dd"},"vehicle_type_id":"4","last_reported":1742321610,"current_range_meters":6400,"station_id":"ce4bhb12rcd13ifvqem0","pricing_plan_id":"cebpf4jnsgd1na2vs0mg"},{"bike_id":"a093da0d-a4f9-4cca-ae78-a7e062b85589","system_id":"levelo_inurba_marseille","lat":43.30804,"lon":5.38139,"is_reserved":false,"is_disabled":false,"rental_uris":{"android":"levelo://app?vid=a093da0d-a4f9-4cca-ae78-a7e062b85589","ios":"levelo://app?vid=a093da0d-a4f9-4cca-ae78-a7e062b85589"},"vehicle_type_id":"4","last_reported":1742321610,"current_range_meters":6400,"station_id":"ce4bgt12rcd13ifvqce0","pricing_plan_id":"cebpf4jnsgd1na2vs0mg"},{"bike_id":"55c83ebf-913d-48a1-abee-3e29e6909fd2","system_id":"levelo_inurba_marseille","lat":43.28017,"lon":5.41644,"is_reserved":false,"is_disabled":true,"rental_uris":{"android":"levelo://app?vid=55c83ebf-913d-48a1-abee-3e29e6909fd2","ios":"levelo://app?vid=55c83ebf-913d-48a1-abee-3e29e6909fd2"},"vehicle_type_id":"4","last_reported":1742321610,"current_range_meters":6400,"station_id":"ce4bho12rcd13ifvqh1g","pricing_plan_id":"cebpf4jnsgd1na2vs0mg"},{"bike_id":"8f9567dc-853c-4ccf-a554-74434b70d83b","system_id":"levelo_inurba_marseille","lat":43.30435,"lon":5.38887,"is_reserved":false,"is_disabled":false,"rental_uris":{"android":"levelo://app?vid=8f9567dc-853c-4ccf-a554-74434b70d83b","ios":"levelo://app?vid=8f9567dc-853c-4ccf-a554-74434b70d83b"},"vehicle_type_id":"4","last_reported":1742321610,"current_range_meters":6800,"station_id":"ce4bgk12rcd13ifvqbi0","pricing_plan_id":"cebpf4jnsgd1na2vs0mg"},{"bike_id":"8f2d548c-5865-409d-ad48-f5da0acf6a21","system_id":"levelo_inurba_marseille","lat":43.28939,"lon":5.36628,"is_reserved":false,"is_disabled":false,"rental_uris":{"android":"levelo://app?vid=8f2d548c-5865-409d-ad48-f5da0acf6a21","ios":"levelo://app?vid=8f2d548c-5865-409d-ad48-f5da0acf6a21"},"vehicle_type_id":"4","last_reported":1742321610,"current_range_meters":6800,"station_id":"ce4bhap2rcd13ifvqek0","pricing_plan_id":"cebpf4jnsgd1na2vs0mg"},{"bike_id":"fc0d1064-2993-41fd-addc-89673244d0ce","system_id":"levelo_inurba_marseille","lat":43.30139,"lon":5.38782,"is_reserved":false,"is_disabled":false,"rental_uris":{"android":"levelo://app?vid=fc0d1064-2993-41fd-addc-89673244d0ce","ios":"levelo://app?vid=fc0d1064-2993-41fd-addc-89673244d0ce"},"vehicle_type_id":"4","last_reported":1742321610,"current_range_meters":6400,"station_id":"ce4bghh2rcd13ifvqb60","pricing_plan_id":"cebpf4jnsgd1na2vs0mg"},{"bike_id":"13356ef9-b31a-41e9-9a19-8b443e7db768","system_id":"levelo_inurba_marseille","lat":43.30804,"lon":5.3814,"is_reserved":false,"is_disabled":false,"rental_uris":{"android":"levelo://app?vid=13356ef9-b31a-41e9-9a19-8b443e7db768","ios":"levelo://app?vid=13356ef9-b31a-41e9-9a19-8b443e7db768"},"vehicle_type_id":"4","last_reported":1742321610,"current_range_meters":3200,"station_id":"ce4bgt12rcd13ifvqce0","pricing_plan_id":"cebpf4jnsgd1na2vs0mg"},{"bike_id":"85d064f9-f2eb-4a94-8282-4e6fd051b96e","system_id":"levelo_inurba_marseille","lat":43.30602,"lon":5.37235,"is_reserved":false,"is_disabled":false,"rental_uris":{"android":"levelo://app?vid=85d064f9-f2eb-4a94-8282-4e6fd051b96e","ios":"levelo://app?vid=85d064f9-f2eb-4a94-8282-4e6fd051b96e"},"vehicle_type_id":"4","last_reported":1742321610,"current_range_meters":6800,"station_id":"ce4bgqh2rcd13ifvqc4g","pricing_plan_id":"cebpf4jnsgd1na2vs0mg"},{"bike_id":"35695dd4-791c-4486-b261-10bd7a9e52e9","system_id":"levelo_inurba_marseille","lat":43.26245,"lon":5.40442,"is_reserved":false,"is_disabled":true,"rental_uris":{"android":"levelo://app?vid=35695dd4-791c-4486-b261-10bd7a9e52e9","ios":"levelo://app?vid=35695dd4-791c-4486-b261-10bd7a9e52e9"},"vehicle_type_id":"4","last_reported":1742321610,"current_range_meters":6800,"station_id":"ce4bhmh2rcd13ifvqgmg","pricing_plan_id":"cebpf4jnsgd1na2vs0mg"},{"bike_id":"0d3accb9-853e-4df0-b9d8-4607b8048f46","system_id":"levelo_inurba_marseille","lat":43.24147,"lon":5.3645,"is_reserved":false,"is_disabled":false,"rental_uris":{"android":"levelo://app?vid=0d3accb9-853e-4df0-b9d8-4607b8048f46","ios":"levelo://app?vid=0d3accb9-853e-4df0-b9d8-4607b8048f46"},"vehicle_type_id":"4","last_reported":1742321610,"current_range_meters":6800,"station_id":"cpo36qri1sfpv3e86is0","pricing_plan_id":"cebpf4jnsgd1na2vs0mg"},{"bike_id":"d82e1dad-a187-41ca-993d-da6067a596a4","system_id":"levelo_inurba_marseille","lat":43.29529,"lon":5.39382,"is_reserved":false,"is_disabled":false,"rental_uris":{"android":"levelo://app?vid=d82e1dad-a187-41ca-993d-da6067a596a4","ios":"levelo://app?vid=d82e1dad-a187-41ca-993d-da6067a596a4"},"vehicle_type_id":"4","last_reported":1742321610,"current_range_meters":6800,"station_id":"ce4bh292rcd13ifvqdf0","pricing_plan_id":"cebpf4jnsgd1na2vs0mg"},{"bike_id":"bf53558a-323c-40e3-9c37-ac64ba388e1c","system_id":"levelo_inurba_marseille","lat":43.23962,"lon":5.36635,"is_reserved":false,"is_disabled":false,"rental_uris":{"android":"levelo://app?vid=bf53558a-323c-40e3-9c37-ac64ba388e1c","ios":"levelo://app?vid=bf53558a-323c-40e3-9c37-ac64ba388e1c"},"vehicle_type_id":"4","last_reported":1742321610,"current_range_meters":6800,"station_id":"ce4bhi12rcd13ifvqfp0","pricing_plan_id":"cebpf4jnsgd1na2vs0mg"},{"bike_id":"6368f354-6da7-4884-a394-062f1a963ed6","system_id":"levelo_inurba_marseille","lat":43.29288,"lon":5.42809,"is_reserved":false,"is_disabled":false,"rental_uris":{"android":"levelo://app?vid=6368f354-6da7-4884-a394-062f1a963ed6","ios":"levelo://app?vid=6368f354-6da7-4884-a394-062f1a963ed6"},"vehicle_type_id":"4","last_reported":1742321610,"current_range_meters":6800,"station_id":"","pricing_plan_id":"cebpf4jnsgd1na2vs0mg"},{"bike_id":"4b15bc7d-a048-4e28-9b76-b08ed84d599b","system_id":"levelo_inurba_marseille","lat":43.28611,"lon":5.37066,"is_reserved":false,"is_disabled":false,"rental_uris":{"android":"levelo://app?vid=4b15bc7d-a048-4e28-9b76-b08ed84d599b","ios":"levelo://app?vid=4b15bc7d-a048-4e28-9b76-b08ed84d599b"},"vehicle_type_id":"4","last_reported":1742321610,"current_range_meters":6800,"station_id":"ce4bht12rcd13ifvqi60","pricing_plan_id":"cebpf4jnsgd1na2vs0mg"},{"bike_id":"bf851786-cfd2-4b4a-a4f0-07ea47005cae","system_id":"levelo_inurba_marseille","lat":43.2481,"lon":5.37459,"is_reserved":false,"is_disabled":false,"rental_uris":{"android":"levelo://app?vid=bf851786-cfd2-4b4a-a4f0-07ea47005cae","ios":"levelo://app?vid=bf851786-cfd2-4b4a-a4f0-07ea47005cae"},"vehicle_type_id":"4","last_reported":1742321610,"current_range_meters":7200,"station_id":"ce4bhgh2rcd13ifvqfb0","pricing_plan_id":"cebpf4jnsgd1na2vs0mg"},{"bike_id":"c8a7f1f4-320e-42cb-b440-492b505a23da","system_id":"levelo_inurba_marseille","lat":43.28695,"lon":5.37386,"is_reserved":false,"is_disabled":false,"rental_uris":{"android":"levelo://app?vid=c8a7f1f4-320e-42cb-b440-492b505a23da","ios":"levelo://app?vid=c8a7f1f4-320e-42cb-b440-492b505a23da"},"vehicle_type_id":"4","last_reported":1742321610,"current_range_meters":7200,"station_id":"ce4bh3p2rcd13ifvqdq0","pricing_plan_id":"cebpf4jnsgd1na2vs0mg"},{"bike_id":"2d41b9b9-01b9-4528-b35f-d77c5d6450e6","system_id":"levelo_inurba_marseille","lat":43.31486,"lon":5.37308,"is_reserved":false,"is_disabled":false,"rental_uris":{"android":"levelo://app?vid=2d41b9b9-01b9-4528-b35f-d77c5d6450e6","ios":"levelo://app?vid=2d41b9b9-01b9-4528-b35f-d77c5d6450e6"},"vehicle_type_id":"4","last_reported":1742321610,"current_range_meters":7200,"station_id":"ce4bgt12rcd13ifvqcd0","pricing_plan_id":"cebpf4jnsgd1na2vs0mg"},{"bike_id":"97a1e633-c2b3-487e-8569-9036bf18d175","system_id":"levelo_inurba_marseille","lat":43.24166,"lon":5.36433,"is_reserved":false,"is_disabled":false,"rental_uris":{"android":"levelo://app?vid=97a1e633-c2b3-487e-8569-9036bf18d175","ios":"levelo://app?vid=97a1e633-c2b3-487e-8569-9036bf18d175"},"vehicle_type_id":"4","last_reported":1742321610,"current_range_meters":7200,"station_id":"cpo36qri1sfpv3e86is0","pricing_plan_id":"cebpf4jnsgd1na2vs0mg"},{"bike_id":"87abaf66-9fc5-4cf1-84c5-1f3afd52d3df","system_id":"levelo_inurba_marseille","lat":43.24811,"lon":5.37452,"is_reserved":false,"is_disabled":false,"rental_uris":{"android":"levelo://app?vid=87abaf66-9fc5-4cf1-84c5-1f3afd52d3df","ios":"levelo://app?vid=87abaf66-9fc5-4cf1-84c5-1f3afd52d3df"},"vehicle_type_id":"4","last_reported":1742321610,"current_range_meters":7200,"station_id":"ce4bhgh2rcd13ifvqfb0","pricing_plan_id":"cebpf4jnsgd1na2vs0mg"},{"bike_id":"850b0360-ce17-4442-a2cc-caa4d379de2a","system_id":"levelo_inurba_marseille","lat":43.29168,"lon":5.37157,"is_reserved":false,"is_disabled":false,"rental_uris":{"android":"levelo://app?vid=850b0360-ce17-4442-a2cc-caa4d379de2a","ios":"levelo://app?vid=850b0360-ce17-4442-a2cc-caa4d379de2a"},"vehicle_type_id":"4","last_reported":1742321610,"current_range_meters":6800,"station_id":"ce4bha92rcd13ifvqeh0","pricing_plan_id":"cebpf4jnsgd1na2vs0mg"},{"bike_id":"12814d3c-6d32-4036-adaf-46a469efa8a4","system_id":"levelo_inurba_marseille","lat":43.28618,"lon":5.35107,"is_reserved":false,"is_disabled":false,"rental_uris":{"android":"levelo://app?vid=12814d3c-6d32-4036-adaf-46a469efa8a4","ios":"levelo://app?vid=12814d3c-6d32-4036-adaf-46a469efa8a4"},"vehicle_type_id":"4","last_reported":1742321610,"current_range_meters":7200,"station_id":"ce4bhch2rcd13ifvqeug","pricing_plan_id":"cebpf4jnsgd1na2vs0mg"},{"bike_id":"35cb1776-fa23-4e2a-8e48-57ce60999c69","system_id":"levelo_inurba_marseille","lat":43.33023,"lon":5.39037,"is_reserved":false,"is_disabled":false,"rental_uris":{"android":"levelo://app?vid=35cb1776-fa23-4e2a-8e48-57ce60999c69","ios":"levelo://app?vid=35cb1776-fa23-4e2a-8e48-57ce60999c69"},"vehicle_type_id":"4","last_reported":1742321610,"current_range_meters":7200,"station_id":"ce4bhr92rcd13ifvqhrg","pricing_plan_id":"cebpf4jnsgd1na2vs0mg"},{"bike_id":"2849d626-78ad-4f49-b164-6c5bb31423e3","system_id":"levelo_inurba_marseille","lat":43.29276,"lon":5.40946,"is_reserved":false,"is_disabled":false,"rental_uris":{"android":"levelo://app?vid=2849d626-78ad-4f49-b164-6c5bb31423e3","ios":"levelo://app?vid=2849d626-78ad-4f49-b164-6c5bb31423e3"},"vehicle_type_id":"4","last_reported":1742321610,"current_range_meters":7200,"station_id":"ce4bh192rcd13ifvqdc0","pricing_plan_id":"cebpf4jnsgd1na2vs0mg"},{"bike_id":"ce783614-7346-4789-b986-02e4294dc867","system_id":"levelo_inurba_marseille","lat":43.28669,"lon":5.38664,"is_reserved":false,"is_disabled":false,"rental_uris":{"android":"levelo://app?vid=ce783614-7346-4789-b986-02e4294dc867","ios":"levelo://app?vid=ce783614-7346-4789-b986-02e4294dc867"},"vehicle_type_id":"4","last_reported":1742321610,"current_range_meters":6800,"station_id":"ce4bh492rcd13ifvqdug","pricing_plan_id":"cebpf4jnsgd1na2vs0mg"},{"bike_id":"0472de5d-957f-4ef4-b92e-b685dd3d3c93","system_id":"levelo_inurba_marseille","lat":43.30928,"lon":5.4015,"is_reserved":false,"is_disabled":false,"rental_uris":{"android":"levelo://app?vid=0472de5d-957f-4ef4-b92e-b685dd3d3c93","ios":"levelo://app?vid=0472de5d-957f-4ef4-b92e-b685dd3d3c93"},"vehicle_type_id":"4","last_reported":1742321610,"current_range_meters":7200,"station_id":"ce4bgvp2rcd13ifvqct0","pricing_plan_id":"cebpf4jnsgd1na2vs0mg"},{"bike_id":"10b17d45-81b5-40a2-938b-cc817dd1eaf7","system_id":"levelo_inurba_marseille","lat":43.25017,"lon":5.38905,"is_reserved":false,"is_disabled":true,"rental_uris":{"android":"levelo://app?vid=10b17d45-81b5-40a2-938b-cc817dd1eaf7","ios":"levelo://app?vid=10b17d45-81b5-40a2-938b-cc817dd1eaf7"},"vehicle_type_id":"4","last_reported":1742321610,"current_range_meters":7200,"station_id":"ce4bhgp2rcd13ifvqfd0","pricing_plan_id":"cebpf4jnsgd1na2vs0mg"},{"bike_id":"e89ef192-8bf3-45be-ace5-f26b3cee6557","system_id":"levelo_inurba_marseille","lat":43.28703,"lon":5.40001,"is_reserved":false,"is_disabled":false,"rental_uris":{"android":"levelo://app?vid=e89ef192-8bf3-45be-ace5-f26b3cee6557","ios":"levelo://app?vid=e89ef192-8bf3-45be-ace5-f26b3cee6557"},"vehicle_type_id":"4","last_reported":1742321610,"current_range_meters":7200,"station_id":"ce4bho92rcd13ifvqh3g","pricing_plan_id":"cebpf4jnsgd1na2vs0mg"},{"bike_id":"8a4e1b2e-8fac-480b-a668-ef6a620a9814","system_id":"levelo_inurba_marseille","lat":43.27869,"lon":5.42414,"is_reserved":false,"is_disabled":false,"rental_uris":{"android":"levelo://app?vid=8a4e1b2e-8fac-480b-a668-ef6a620a9814","ios":"levelo://app?vid=8a4e1b2e-8fac-480b-a668-ef6a620a9814"},"vehicle_type_id":"4","last_reported":1742321610,"current_range_meters":7200,"station_id":"","pricing_plan_id":"cebpf4jnsgd1na2vs0mg"},{"bike_id":"8fe7e33b-57fc-439c-ba02-015988635c80","system_id":"levelo_inurba_marseille","lat":43.270669,"lon":5.422797,"is_reserved":false,"is_disabled":true,"rental_uris":{"android":"levelo://app?vid=8fe7e33b-57fc-439c-ba02-015988635c80","ios":"levelo://app?vid=8fe7e33b-57fc-439c-ba02-015988635c80"},"vehicle_type_id":"4","last_reported":1742321610,"current_range_meters":7200,"station_id":"ce4bhk92rcd13ifvqgb0","pricing_plan_id":"cebpf4jnsgd1na2vs0mg"},{"bike_id":"e94b1f20-3e0e-4dcb-9056-1e4af333e85a","system_id":"levelo_inurba_marseille","lat":43.2919,"lon":5.39311,"is_reserved":false,"is_disabled":true,"rental_uris":{"android":"levelo://app?vid=e94b1f20-3e0e-4dcb-9056-1e4af333e85a","ios":"levelo://app?vid=e94b1f20-3e0e-4dcb-9056-1e4af333e85a"},"vehicle_type_id":"4","last_reported":1742321610,"current_range_meters":7200,"station_id":"ce4bh192rcd13ifvqdd0","pricing_plan_id":"cebpf4jnsgd1na2vs0mg"},{"bike_id":"c615b7dd-2094-4974-82b8-2a84922ae42d","system_id":"levelo_inurba_marseille","lat":43.25498,"lon":5.37646,"is_reserved":false,"is_disabled":false,"rental_uris":{"android":"levelo://app?vid=c615b7dd-2094-4974-82b8-2a84922ae42d","ios":"levelo://app?vid=c615b7dd-2094-4974-82b8-2a84922ae42d"},"vehicle_type_id":"4","last_reported":1742321610,"current_range_meters":7200,"station_id":"ce4bhh12rcd13ifvqff0","pricing_plan_id":"cebpf4jnsgd1na2vs0mg"},{"bike_id":"a8e71d4e-767a-4a04-bba8-1507327de963","system_id":"levelo_inurba_marseille","lat":43.30596,"lon":5.3937,"is_reserved":false,"is_disabled":false,"rental_uris":{"android":"levelo://app?vid=a8e71d4e-767a-4a04-bba8-1507327de963","ios":"levelo://app?vid=a8e71d4e-767a-4a04-bba8-1507327de963"},"vehicle_type_id":"4","last_reported":1742321610,"current_range_meters":8000,"station_id":"ce4bh0p2rcd13ifvqd80","pricing_plan_id":"cebpf4jnsgd1na2vs0mg"},{"bike_id":"effa4a25-70e2-4b36-b85f-2dfad7e52e85","system_id":"levelo_inurba_marseille","lat":43.25574,"lon":5.38227,"is_reserved":false,"is_disabled":false,"rental_uris":{"android":"levelo://app?vid=effa4a25-70e2-4b36-b85f-2dfad7e52e85","ios":"levelo://app?vid=effa4a25-70e2-4b36-b85f-2dfad7e52e85"},"vehicle_type_id":"4","last_reported":1742321610,"current_range_meters":8000,"station_id":"ce4bhih2rcd13ifvqfs0","pricing_plan_id":"cebpf4jnsgd1na2vs0mg"},{"bike_id":"52bd4f14-775f-459f-9791-851d088e69cb","system_id":"levelo_inurba_marseille","lat":43.24995,"lon":5.38931,"is_reserved":false,"is_disabled":false,"rental_uris":{"android":"levelo://app?vid=52bd4f14-775f-459f-9791-851d088e69cb","ios":"levelo://app?vid=52bd4f14-775f-459f-9791-851d088e69cb"},"vehicle_type_id":"4","last_reported":1742321610,"current_range_meters":8000,"station_id":"ce4bhgp2rcd13ifvqfd0","pricing_plan_id":"cebpf4jnsgd1na2vs0mg"},{"bike_id":"a31c77d8-4378-47d6-8c3a-a5063f16fc9d","system_id":"levelo_inurba_marseille","lat":43.27806,"lon":5.40735,"is_reserved":false,"is_disabled":false,"rental_uris":{"android":"levelo://app?vid=a31c77d8-4378-47d6-8c3a-a5063f16fc9d","ios":"levelo://app?vid=a31c77d8-4378-47d6-8c3a-a5063f16fc9d"},"vehicle_type_id":"4","last_reported":1742321610,"current_range_meters":8000,"station_id":"ce4bhnh2rcd13ifvqgtg","pricing_plan_id":"cebpf4jnsgd1na2vs0mg"},{"bike_id":"b068b80b-68f1-454f-b4e3-34600bf01529","system_id":"levelo_inurba_marseille","lat":43.30915,"lon":5.40194,"is_reserved":false,"is_disabled":false,"rental_uris":{"android":"levelo://app?vid=b068b80b-68f1-454f-b4e3-34600bf01529","ios":"levelo://app?vid=b068b80b-68f1-454f-b4e3-34600bf01529"},"vehicle_type_id":"4","last_reported":1742321610,"current_range_meters":7200,"station_id":"ce4bgvp2rcd13ifvqct0","pricing_plan_id":"cebpf4jnsgd1na2vs0mg"},{"bike_id":"45e4282e-3b97-4289-ba7d-2711c6b21a05","system_id":"levelo_inurba_marseille","lat":43.29374,"lon":5.37849,"is_reserved":false,"is_disabled":false,"rental_uris":{"android":"levelo://app?vid=45e4282e-3b97-4289-ba7d-2711c6b21a05","ios":"levelo://app?vid=45e4282e-3b97-4289-ba7d-2711c6b21a05"},"vehicle_type_id":"4","last_reported":1742321610,"current_range_meters":8000,"station_id":"ce4bgjh2rcd13ifvqbf0","pricing_plan_id":"cebpf4jnsgd1na2vs0mg"},{"bike_id":"b674f730-9f30-460a-a745-2d093eda8e6b","system_id":"levelo_inurba_marseille","lat":43.298706,"lon":5.39735,"is_reserved":false,"is_disabled":false,"rental_uris":{"android":"levelo://app?vid=b674f730-9f30-460a-a745-2d093eda8e6b","ios":"levelo://app?vid=b674f730-9f30-460a-a745-2d093eda8e6b"},"vehicle_type_id":"4","last_reported":1742321610,"current_range_meters":8000,"station_id":"ce4bh0h2rcd13ifvqd50","pricing_plan_id":"cebpf4jnsgd1na2vs0mg"},{"bike_id":"097eef33-ce3a-40b7-a238-96534bc8f766","system_id":"levelo_inurba_marseille","lat":43.29202,"lon":5.39327,"is_reserved":false,"is_disabled":false,"rental_uris":{"android":"levelo://app?vid=097eef33-ce3a-40b7-a238-96534bc8f766","ios":"levelo://app?vid=097eef33-ce3a-40b7-a238-96534bc8f766"},"vehicle_type_id":"4","last_reported":1742321610,"current_range_meters":7200,"station_id":"ce4bh192rcd13ifvqdd0","pricing_plan_id":"cebpf4jnsgd1na2vs0mg"},{"bike_id":"23d8749b-a588-47a3-966f-08e8d9a5c3dc","system_id":"levelo_inurba_marseille","lat":43.29558,"lon":5.42295,"is_reserved":false,"is_disabled":false,"rental_uris":{"android":"levelo://app?vid=23d8749b-a588-47a3-966f-08e8d9a5c3dc","ios":"levelo://app?vid=23d8749b-a588-47a3-966f-08e8d9a5c3dc"},"vehicle_type_id":"4","last_reported":1742321610,"current_range_meters":7200,"station_id":"ce4bhph2rcd13ifvqhdg","pricing_plan_id":"cebpf4jnsgd1na2vs0mg"},{"bike_id":"2427b947-12c8-4460-97fc-acbdf0aca39d","system_id":"levelo_inurba_marseille","lat":43.31684,"lon":5.37818,"is_reserved":false,"is_disabled":false,"rental_uris":{"android":"levelo://app?vid=2427b947-12c8-4460-97fc-acbdf0aca39d","ios":"levelo://app?vid=2427b947-12c8-4460-97fc-acbdf0aca39d"},"vehicle_type_id":"4","last_reported":1742321610,"current_range_meters":8000,"station_id":"ce4bgth2rcd13ifvqch0","pricing_plan_id":"cebpf4jnsgd1na2vs0mg"},{"bike_id":"08987821-a39e-44ee-a05d-d25886258abb","system_id":"levelo_inurba_marseille","lat":43.2707,"lon":5.42284,"is_reserved":false,"is_disabled":false,"rental_uris":{"android":"levelo://app?vid=08987821-a39e-44ee-a05d-d25886258abb","ios":"levelo://app?vid=08987821-a39e-44ee-a05d-d25886258abb"},"vehicle_type_id":"4","last_reported":1742321610,"current_range_meters":8000,"station_id":"ce4bhk92rcd13ifvqgb0","pricing_plan_id":"cebpf4jnsgd1na2vs0mg"},{"bike_id":"b98eff8b-8bbd-44cf-94d7-71a6341eecc2","system_id":"levelo_inurba_marseille","lat":43.23176,"lon":5.39998,"is_reserved":false,"is_disabled":false,"rental_uris":{"android":"levelo://app?vid=b98eff8b-8bbd-44cf-94d7-71a6341eecc2","ios":"levelo://app?vid=b98eff8b-8bbd-44cf-94d7-71a6341eecc2"},"vehicle_type_id":"4","last_reported":1742321610,"current_range_meters":8400,"station_id":"ce4bhn12rcd13ifvqgqg","pricing_plan_id":"cebpf4jnsgd1na2vs0mg"},{"bike_id":"a3fec295-68aa-470d-940b-bfa62c541ae0","system_id":"levelo_inurba_marseille","lat":43.2657,"lon":5.39026,"is_reserved":false,"is_disabled":false,"rental_uris":{"android":"levelo://app?vid=a3fec295-68aa-470d-940b-bfa62c541ae0","ios":"levelo://app?vid=a3fec295-68aa-470d-940b-bfa62c541ae0"},"vehicle_type_id":"4","last_reported":1742321610,"current_range_meters":8400,"station_id":"ce4bhe12rcd13ifvqf30","pricing_plan_id":"cebpf4jnsgd1na2vs0mg"},{"bike_id":"9c47177a-7452-479f-9af2-f5dddd6db58b","system_id":"levelo_inurba_marseille","lat":43.33025,"lon":5.3904,"is_reserved":false,"is_disabled":false,"rental_uris":{"android":"levelo://app?vid=9c47177a-7452-479f-9af2-f5dddd6db58b","ios":"levelo://app?vid=9c47177a-7452-479f-9af2-f5dddd6db58b"},"vehicle_type_id":"4","last_reported":1742321610,"current_range_meters":8400,"station_id":"ce4bhr92rcd13ifvqhrg","pricing_plan_id":"cebpf4jnsgd1na2vs0mg"},{"bike_id":"8326af80-f1f0-4db3-be24-7b914d93b20f","system_id":"levelo_inurba_marseille","lat":43.28422,"lon":5.34987,"is_reserved":false,"is_disabled":false,"rental_uris":{"android":"levelo://app?vid=8326af80-f1f0-4db3-be24-7b914d93b20f","ios":"levelo://app?vid=8326af80-f1f0-4db3-be24-7b914d93b20f"},"vehicle_type_id":"4","last_reported":1742321610,"current_range_meters":8800,"station_id":"ce4bhbh2rcd13ifvqepg","pricing_plan_id":"cebpf4jnsgd1na2vs0mg"},{"bike_id":"0f3777c0-bb24-4ff9-88a1-0f272a9b5c1e","system_id":"levelo_inurba_marseille","lat":43.30141,"lon":5.39864,"is_reserved":false,"is_disabled":false,"rental_uris":{"android":"levelo://app?vid=0f3777c0-bb24-4ff9-88a1-0f272a9b5c1e","ios":"levelo://app?vid=0f3777c0-bb24-4ff9-88a1-0f272a9b5c1e"},"vehicle_type_id":"4","last_reported":1742321610,"current_range_meters":8400,"station_id":"ce4bh0h2rcd13ifvqd40","pricing_plan_id":"cebpf4jnsgd1na2vs0mg"},{"bike_id":"e22545c2-84cf-42ea-81eb-6b2d2c7957d0","system_id":"levelo_inurba_marseille","lat":43.30328,"lon":5.40429,"is_reserved":false,"is_disabled":false,"rental_uris":{"android":"levelo://app?vid=e22545c2-84cf-42ea-81eb-6b2d2c7957d0","ios":"levelo://app?vid=e22545c2-84cf-42ea-81eb-6b2d2c7957d0"},"vehicle_type_id":"4","last_reported":1742321610,"current_range_meters":8800,"station_id":"ce4bh012rcd13ifvqd10","pricing_plan_id":"cebpf4jnsgd1na2vs0mg"},{"bike_id":"d0ecd06f-b344-485c-8550-9fa5bf448f53","system_id":"levelo_inurba_marseille","lat":43.25817,"lon":5.39471,"is_reserved":false,"is_disabled":false,"rental_uris":{"android":"levelo://app?vid=d0ecd06f-b344-485c-8550-9fa5bf448f53","ios":"levelo://app?vid=d0ecd06f-b344-485c-8550-9fa5bf448f53"},"vehicle_type_id":"4","last_reported":1742321610,"current_range_meters":8800,"station_id":"ce4bhip2rcd13ifvqft0","pricing_plan_id":"cebpf4jnsgd1na2vs0mg"},{"bike_id":"c0b6e5b0-0b6f-45ad-b4d7-33313660711c","system_id":"levelo_inurba_marseille","lat":43.31268,"lon":5.40168,"is_reserved":false,"is_disabled":false,"rental_uris":{"android":"levelo://app?vid=c0b6e5b0-0b6f-45ad-b4d7-33313660711c","ios":"levelo://app?vid=c0b6e5b0-0b6f-45ad-b4d7-33313660711c"},"vehicle_type_id":"4","last_reported":1742321610,"current_range_meters":8800,"station_id":"ce4bh092rcd13ifvqd30","pricing_plan_id":"cebpf4jnsgd1na2vs0mg"},{"bike_id":"5cc7107b-4638-44b7-9016-fb56a8137a82","system_id":"levelo_inurba_marseille","lat":43.33025,"lon":5.39017,"is_reserved":false,"is_disabled":false,"rental_uris":{"android":"levelo://app?vid=5cc7107b-4638-44b7-9016-fb56a8137a82","ios":"levelo://app?vid=5cc7107b-4638-44b7-9016-fb56a8137a82"},"vehicle_type_id":"4","last_reported":1742321610,"current_range_meters":8800,"station_id":"ce4bhr92rcd13ifvqhrg","pricing_plan_id":"cebpf4jnsgd1na2vs0mg"},{"bike_id":"01ec6899-9e70-425a-a91b-c49e5fc36660","system_id":"levelo_inurba_marseille","lat":43.24813,"lon":5.37453,"is_reserved":false,"is_disabled":false,"rental_uris":{"android":"levelo://app?vid=01ec6899-9e70-425a-a91b-c49e5fc36660","ios":"levelo://app?vid=01ec6899-9e70-425a-a91b-c49e5fc36660"},"vehicle_type_id":"4","last_reported":1742321610,"current_range_meters":8800,"station_id":"ce4bhgh2rcd13ifvqfb0","pricing_plan_id":"cebpf4jnsgd1na2vs0mg"},{"bike_id":"15645d94-7469-4019-9aed-16b0915fbe2f","system_id":"levelo_inurba_marseille","lat":43.32845,"lon":5.39139,"is_reserved":false,"is_disabled":false,"rental_uris":{"android":"levelo://app?vid=15645d94-7469-4019-9aed-16b0915fbe2f","ios":"levelo://app?vid=15645d94-7469-4019-9aed-16b0915fbe2f"},"vehicle_type_id":"4","last_reported":1742321610,"current_range_meters":8800,"station_id":"","pricing_plan_id":"cebpf4jnsgd1na2vs0mg"},{"bike_id":"2e1c9b27-bb46-4223-94a6-6d251aad7971","system_id":"levelo_inurba_marseille","lat":43.27907,"lon":5.38009,"is_reserved":false,"is_disabled":false,"rental_uris":{"android":"levelo://app?vid=2e1c9b27-bb46-4223-94a6-6d251aad7971","ios":"levelo://app?vid=2e1c9b27-bb46-4223-94a6-6d251aad7971"},"vehicle_type_id":"4","last_reported":1742321610,"current_range_meters":8800,"station_id":"ce4bhf92rcd13ifvqf50","pricing_plan_id":"cebpf4jnsgd1na2vs0mg"},{"bike_id":"38233fcc-45aa-475d-b774-1f1525a8fb6d","system_id":"levelo_inurba_marseille","lat":43.26066,"lon":5.39379,"is_reserved":false,"is_disabled":false,"rental_uris":{"android":"levelo://app?vid=38233fcc-45aa-475d-b774-1f1525a8fb6d","ios":"levelo://app?vid=38233fcc-45aa-475d-b774-1f1525a8fb6d"},"vehicle_type_id":"4","last_reported":1742321610,"current_range_meters":8800,"station_id":"ce4bhh92rcd13ifvqfj0","pricing_plan_id":"cebpf4jnsgd1na2vs0mg"},{"bike_id":"1981ce48-8878-4e27-bf87-74f776d9050d","system_id":"levelo_inurba_marseille","lat":43.2466,"lon":5.38169,"is_reserved":false,"is_disabled":false,"rental_uris":{"android":"levelo://app?vid=1981ce48-8878-4e27-bf87-74f776d9050d","ios":"levelo://app?vid=1981ce48-8878-4e27-bf87-74f776d9050d"},"vehicle_type_id":"4","last_reported":1742321610,"current_range_meters":8400,"station_id":"ce4bhih2rcd13ifvqfr0","pricing_plan_id":"cebpf4jnsgd1na2vs0mg"},{"bike_id":"8f79f3b7-6513-4def-bb2d-05a7d82b97a5","system_id":"levelo_inurba_marseille","lat":43.24175,"lon":5.36408,"is_reserved":false,"is_disabled":false,"rental_uris":{"android":"levelo://app?vid=8f79f3b7-6513-4def-bb2d-05a7d82b97a5","ios":"levelo://app?vid=8f79f3b7-6513-4def-bb2d-05a7d82b97a5"},"vehicle_type_id":"4","last_reported":1742321610,"current_range_meters":8800,"station_id":"cpo36qri1sfpv3e86is0","pricing_plan_id":"cebpf4jnsgd1na2vs0mg"},{"bike_id":"0b60e72b-d8b1-4266-9b63-b94b87c1ad4b","system_id":"levelo_inurba_marseille","lat":43.2319,"lon":5.39995,"is_reserved":false,"is_disabled":false,"rental_uris":{"android":"levelo://app?vid=0b60e72b-d8b1-4266-9b63-b94b87c1ad4b","ios":"levelo://app?vid=0b60e72b-d8b1-4266-9b63-b94b87c1ad4b"},"vehicle_type_id":"4","last_reported":1742321610,"current_range_meters":9200,"station_id":"ce4bhn12rcd13ifvqgqg","pricing_plan_id":"cebpf4jnsgd1na2vs0mg"},{"bike_id":"07a4ebce-0330-4a0f-b43d-3bf5b684944d","system_id":"levelo_inurba_marseille","lat":43.2815,"lon":5.4264,"is_reserved":false,"is_disabled":false,"rental_uris":{"android":"levelo://app?vid=07a4ebce-0330-4a0f-b43d-3bf5b684944d","ios":"levelo://app?vid=07a4ebce-0330-4a0f-b43d-3bf5b684944d"},"vehicle_type_id":"4","last_reported":1742321610,"current_range_meters":9200,"station_id":"ce4bhnh2rcd13ifvqgug","pricing_plan_id":"cebpf4jnsgd1na2vs0mg"},{"bike_id":"519efbbc-7577-4063-8eac-658ef30e98a3","system_id":"levelo_inurba_marseille","lat":43.25024,"lon":5.38923,"is_reserved":false,"is_disabled":false,"rental_uris":{"android":"levelo://app?vid=519efbbc-7577-4063-8eac-658ef30e98a3","ios":"levelo://app?vid=519efbbc-7577-4063-8eac-658ef30e98a3"},"vehicle_type_id":"4","last_reported":1742321610,"current_range_meters":9200,"station_id":"ce4bhgp2rcd13ifvqfd0","pricing_plan_id":"cebpf4jnsgd1na2vs0mg"},{"bike_id":"adffc0b0-8550-43a2-a64b-d727ff4ea905","system_id":"levelo_inurba_marseille","lat":43.23203,"lon":5.35536,"is_reserved":false,"is_disabled":false,"rental_uris":{"android":"levelo://app?vid=adffc0b0-8550-43a2-a64b-d727ff4ea905","ios":"levelo://app?vid=adffc0b0-8550-43a2-a64b-d727ff4ea905"},"vehicle_type_id":"4","last_reported":1742321610,"current_range_meters":9200,"station_id":"ce4bhu92rcd13ifvqi70","pricing_plan_id":"cebpf4jnsgd1na2vs0mg"},{"bike_id":"253fce13-8607-4f2f-839f-40104be19b05","system_id":"levelo_inurba_marseille","lat":43.23966,"lon":5.36637,"is_reserved":false,"is_disabled":false,"rental_uris":{"android":"levelo://app?vid=253fce13-8607-4f2f-839f-40104be19b05","ios":"levelo://app?vid=253fce13-8607-4f2f-839f-40104be19b05"},"vehicle_type_id":"4","last_reported":1742321610,"current_range_meters":9200,"station_id":"ce4bhi12rcd13ifvqfp0","pricing_plan_id":"cebpf4jnsgd1na2vs0mg"},{"bike_id":"049b5602-ba3f-4a09-ad40-b8c54e6f1cb6","system_id":"levelo_inurba_marseille","lat":43.25004,"lon":5.38917,"is_reserved":false,"is_disabled":true,"rental_uris":{"android":"levelo://app?vid=049b5602-ba3f-4a09-ad40-b8c54e6f1cb6","ios":"levelo://app?vid=049b5602-ba3f-4a09-ad40-b8c54e6f1cb6"},"vehicle_type_id":"4","last_reported":1742321610,"current_range_meters":9200,"station_id":"ce4bhgp2rcd13ifvqfd0","pricing_plan_id":"cebpf4jnsgd1na2vs0mg"},{"bike_id":"e0bef5cc-8d2d-4a8c-ab89-87ff780268ab","system_id":"levelo_inurba_marseille","lat":43.32337,"lon":5.40623,"is_reserved":false,"is_disabled":false,"rental_uris":{"android":"levelo://app?vid=e0bef5cc-8d2d-4a8c-ab89-87ff780268ab","ios":"levelo://app?vid=e0bef5cc-8d2d-4a8c-ab89-87ff780268ab"},"vehicle_type_id":"4","last_reported":1742321610,"current_range_meters":9200,"station_id":"ce4bhq92rcd13ifvqhjg","pricing_plan_id":"cebpf4jnsgd1na2vs0mg"},{"bike_id":"69dba839-4741-44c9-a5ce-37472ca30dff","system_id":"levelo_inurba_marseille","lat":43.28098,"lon":5.37844,"is_reserved":false,"is_disabled":false,"rental_uris":{"android":"levelo://app?vid=69dba839-4741-44c9-a5ce-37472ca30dff","ios":"levelo://app?vid=69dba839-4741-44c9-a5ce-37472ca30dff"},"vehicle_type_id":"4","last_reported":1742321610,"current_range_meters":9200,"station_id":"ce4bha12rcd13ifvqee0","pricing_plan_id":"cebpf4jnsgd1na2vs0mg"},{"bike_id":"c19785bb-e356-4532-854e-800edd048733","system_id":"levelo_inurba_marseille","lat":43.25121,"lon":5.40318,"is_reserved":false,"is_disabled":false,"rental_uris":{"android":"levelo://app?vid=c19785bb-e356-4532-854e-800edd048733","ios":"levelo://app?vid=c19785bb-e356-4532-854e-800edd048733"},"vehicle_type_id":"4","last_reported":1742321610,"current_range_meters":9200,"station_id":"ce4bhlh2rcd13ifvqgig","pricing_plan_id":"cebpf4jnsgd1na2vs0mg"},{"bike_id":"2fc9495d-c829-4229-a4db-5c8674880d7a","system_id":"levelo_inurba_marseille","lat":43.23062,"lon":5.35494,"is_reserved":false,"is_disabled":false,"rental_uris":{"android":"levelo://app?vid=2fc9495d-c829-4229-a4db-5c8674880d7a","ios":"levelo://app?vid=2fc9495d-c829-4229-a4db-5c8674880d7a"},"vehicle_type_id":"4","last_reported":1742321610,"current_range_meters":9200,"station_id":"cpo3342slgdg3j2ifvpg","pricing_plan_id":"cebpf4jnsgd1na2vs0mg"},{"bike_id":"8900a807-95b4-4fa0-b82a-c9c6ab1d32bc","system_id":"levelo_inurba_marseille","lat":43.30603,"lon":5.37237,"is_reserved":false,"is_disabled":false,"rental_uris":{"android":"levelo://app?vid=8900a807-95b4-4fa0-b82a-c9c6ab1d32bc","ios":"levelo://app?vid=8900a807-95b4-4fa0-b82a-c9c6ab1d32bc"},"vehicle_type_id":"4","last_reported":1742321610,"current_range_meters":9200,"station_id":"ce4bgqh2rcd13ifvqc4g","pricing_plan_id":"cebpf4jnsgd1na2vs0mg"},{"bike_id":"244972ac-6b8e-496c-8ff7-a07dcecb25e0","system_id":"levelo_inurba_marseille","lat":43.28074,"lon":5.39658,"is_reserved":false,"is_disabled":false,"rental_uris":{"android":"levelo://app?vid=244972ac-6b8e-496c-8ff7-a07dcecb25e0","ios":"levelo://app?vid=244972ac-6b8e-496c-8ff7-a07dcecb25e0"},"vehicle_type_id":"4","last_reported":1742321610,"current_range_meters":9200,"station_id":"ce4bho12rcd13ifvqh2g","pricing_plan_id":"cebpf4jnsgd1na2vs0mg"},{"bike_id":"2c6f9988-907d-42c3-8600-ee1daa07f546","system_id":"levelo_inurba_marseille","lat":43.30639,"lon":5.40085,"is_reserved":false,"is_disabled":false,"rental_uris":{"android":"levelo://app?vid=2c6f9988-907d-42c3-8600-ee1daa07f546","ios":"levelo://app?vid=2c6f9988-907d-42c3-8600-ee1daa07f546"},"vehicle_type_id":"4","last_reported":1742321610,"current_range_meters":9600,"station_id":"ce4bh112rcd13ifvqda0","pricing_plan_id":"cebpf4jnsgd1na2vs0mg"},{"bike_id":"6ae6f76c-6a01-4d75-9d3f-dfa610803a78","system_id":"levelo_inurba_marseille","lat":43.23053,"lon":5.35501,"is_reserved":false,"is_disabled":false,"rental_uris":{"android":"levelo://app?vid=6ae6f76c-6a01-4d75-9d3f-dfa610803a78","ios":"levelo://app?vid=6ae6f76c-6a01-4d75-9d3f-dfa610803a78"},"vehicle_type_id":"4","last_reported":1742321610,"current_range_meters":9600,"station_id":"cpo3342slgdg3j2ifvpg","pricing_plan_id":"cebpf4jnsgd1na2vs0mg"},{"bike_id":"018c9b38-f869-4e63-a3d6-8ea4864a2567","system_id":"levelo_inurba_marseille","lat":43.30353,"lon":5.41866,"is_reserved":false,"is_disabled":false,"rental_uris":{"android":"levelo://app?vid=018c9b38-f869-4e63-a3d6-8ea4864a2567","ios":"levelo://app?vid=018c9b38-f869-4e63-a3d6-8ea4864a2567"},"vehicle_type_id":"4","last_reported":1742321610,"current_range_meters":9600,"station_id":"ce4bhop2rcd13ifvqh7g","pricing_plan_id":"cebpf4jnsgd1na2vs0mg"},{"bike_id":"bbf5da56-5845-424e-84cd-e22af187a017","system_id":"levelo_inurba_marseille","lat":43.29259,"lon":5.4091,"is_reserved":false,"is_disabled":false,"rental_uris":{"android":"levelo://app?vid=bbf5da56-5845-424e-84cd-e22af187a017","ios":"levelo://app?vid=bbf5da56-5845-424e-84cd-e22af187a017"},"vehicle_type_id":"4","last_reported":1742321610,"current_range_meters":9600,"station_id":"ce4bh192rcd13ifvqdc0","pricing_plan_id":"cebpf4jnsgd1na2vs0mg"},{"bike_id":"f2c9b05d-34bf-48ef-80a2-db7202f8b06a","system_id":"levelo_inurba_marseille","lat":43.27753,"lon":5.38351,"is_reserved":false,"is_disabled":false,"rental_uris":{"android":"levelo://app?vid=f2c9b05d-34bf-48ef-80a2-db7202f8b06a","ios":"levelo://app?vid=f2c9b05d-34bf-48ef-80a2-db7202f8b06a"},"vehicle_type_id":"4","last_reported":1742321610,"current_range_meters":9600,"station_id":"ce4bhh92rcd13ifvqfi0","pricing_plan_id":"cebpf4jnsgd1na2vs0mg"},{"bike_id":"c2249414-bd6a-4233-8cb5-27178d8f4dbc","system_id":"levelo_inurba_marseille","lat":43.3061,"lon":5.37226,"is_reserved":false,"is_disabled":false,"rental_uris":{"android":"levelo://app?vid=c2249414-bd6a-4233-8cb5-27178d8f4dbc","ios":"levelo://app?vid=c2249414-bd6a-4233-8cb5-27178d8f4dbc"},"vehicle_type_id":"4","last_reported":1742321610,"current_range_meters":9600,"station_id":"ce4bgqh2rcd13ifvqc4g","pricing_plan_id":"cebpf4jnsgd1na2vs0mg"},{"bike_id":"b611c071-f0bb-41a2-aa25-420b921bc079","system_id":"levelo_inurba_marseille","lat":43.23077,"lon":5.35509,"is_reserved":false,"is_disabled":false,"rental_uris":{"android":"levelo://app?vid=b611c071-f0bb-41a2-aa25-420b921bc079","ios":"levelo://app?vid=b611c071-f0bb-41a2-aa25-420b921bc079"},"vehicle_type_id":"4","last_reported":1742321610,"current_range_meters":9600,"station_id":"cpo3342slgdg3j2ifvpg","pricing_plan_id":"cebpf4jnsgd1na2vs0mg"},{"bike_id":"f1dcd5b6-294c-4f9f-a5dc-52ba2710eacb","system_id":"levelo_inurba_marseille","lat":43.23191,"lon":5.39977,"is_reserved":false,"is_disabled":false,"rental_uris":{"android":"levelo://app?vid=f1dcd5b6-294c-4f9f-a5dc-52ba2710eacb","ios":"levelo://app?vid=f1dcd5b6-294c-4f9f-a5dc-52ba2710eacb"},"vehicle_type_id":"4","last_reported":1742321610,"current_range_meters":9600,"station_id":"ce4bhn12rcd13ifvqgqg","pricing_plan_id":"cebpf4jnsgd1na2vs0mg"},{"bike_id":"ff2a24dc-d06f-4ad0-875b-37b9079febeb","system_id":"levelo_inurba_marseille","lat":43.25586,"lon":5.38242,"is_reserved":false,"is_disabled":false,"rental_uris":{"android":"levelo://app?vid=ff2a24dc-d06f-4ad0-875b-37b9079febeb","ios":"levelo://app?vid=ff2a24dc-d06f-4ad0-875b-37b9079febeb"},"vehicle_type_id":"4","last_reported":1742321610,"current_range_meters":9600,"station_id":"ce4bhih2rcd13ifvqfs0","pricing_plan_id":"cebpf4jnsgd1na2vs0mg"},{"bike_id":"27c5b1a0-ce9f-493c-80a3-84e6a0375a5d","system_id":"levelo_inurba_marseille","lat":43.29845,"lon":5.36277,"is_reserved":false,"is_disabled":false,"rental_uris":{"android":"levelo://app?vid=27c5b1a0-ce9f-493c-80a3-84e6a0375a5d","ios":"levelo://app?vid=27c5b1a0-ce9f-493c-80a3-84e6a0375a5d"},"vehicle_type_id":"4","last_reported":1742321610,"current_range_meters":9200,"station_id":"ce4bgpp2rcd13ifvqc3g","pricing_plan_id":"cebpf4jnsgd1na2vs0mg"},{"bike_id":"3bff80ec-e94e-42a9-988b-9e0817493bec","system_id":"levelo_inurba_marseille","lat":43.23196,"lon":5.35553,"is_reserved":false,"is_disabled":false,"rental_uris":{"android":"levelo://app?vid=3bff80ec-e94e-42a9-988b-9e0817493bec","ios":"levelo://app?vid=3bff80ec-e94e-42a9-988b-9e0817493bec"},"vehicle_type_id":"4","last_reported":1742321610,"current_range_meters":9600,"station_id":"ce4bhu92rcd13ifvqi70","pricing_plan_id":"cebpf4jnsgd1na2vs0mg"},{"bike_id":"d1069439-00e9-4aad-ad31-ab5b44b63348","system_id":"levelo_inurba_marseille","lat":43.31728,"lon":5.40442,"is_reserved":false,"is_disabled":true,"rental_uris":{"android":"levelo://app?vid=d1069439-00e9-4aad-ad31-ab5b44b63348","ios":"levelo://app?vid=d1069439-00e9-4aad-ad31-ab5b44b63348"},"vehicle_type_id":"4","last_reported":1742321610,"current_range_meters":9600,"station_id":"ce4bh012rcd13ifvqd00","pricing_plan_id":"cebpf4jnsgd1na2vs0mg"},{"bike_id":"14b20c55-e339-4f9e-b700-b09a80b47852","system_id":"levelo_inurba_marseille","lat":43.31227,"lon":5.36843,"is_reserved":false,"is_disabled":false,"rental_uris":{"android":"levelo://app?vid=14b20c55-e339-4f9e-b700-b09a80b47852","ios":"levelo://app?vid=14b20c55-e339-4f9e-b700-b09a80b47852"},"vehicle_type_id":"4","last_reported":1742321610,"current_range_meters":10000,"station_id":"ce4bgl92rcd13ifvqbq0","pricing_plan_id":"cebpf4jnsgd1na2vs0mg"},{"bike_id":"6c772fd3-ef80-4ae7-bf4b-dbbd18690658","system_id":"levelo_inurba_marseille","lat":43.29206,"lon":5.35806,"is_reserved":false,"is_disabled":false,"rental_uris":{"android":"levelo://app?vid=6c772fd3-ef80-4ae7-bf4b-dbbd18690658","ios":"levelo://app?vid=6c772fd3-ef80-4ae7-bf4b-dbbd18690658"},"vehicle_type_id":"4","last_reported":1742321610,"current_range_meters":9600,"station_id":"ce4bhb12rcd13ifvqel0","pricing_plan_id":"cebpf4jnsgd1na2vs0mg"},{"bike_id":"2f1dd16e-9523-4306-bc65-e3f20fdfa0d4","system_id":"levelo_inurba_marseille","lat":43.29204,"lon":5.35893,"is_reserved":false,"is_disabled":false,"rental_uris":{"android":"levelo://app?vid=2f1dd16e-9523-4306-bc65-e3f20fdfa0d4","ios":"levelo://app?vid=2f1dd16e-9523-4306-bc65-e3f20fdfa0d4"},"vehicle_type_id":"4","last_reported":1742321610,"current_range_meters":10000,"station_id":"ce4bhb12rcd13ifvqel0","pricing_plan_id":"cebpf4jnsgd1na2vs0mg"},{"bike_id":"6bb5915a-e85d-4bde-b1ae-01dbd8291519","system_id":"levelo_inurba_marseille","lat":43.28623,"lon":5.35108,"is_reserved":false,"is_disabled":false,"rental_uris":{"android":"levelo://app?vid=6bb5915a-e85d-4bde-b1ae-01dbd8291519","ios":"levelo://app?vid=6bb5915a-e85d-4bde-b1ae-01dbd8291519"},"vehicle_type_id":"4","last_reported":1742321610,"current_range_meters":10000,"station_id":"ce4bhch2rcd13ifvqeug","pricing_plan_id":"cebpf4jnsgd1na2vs0mg"},{"bike_id":"f158cb0f-0380-45cd-a82f-e7d941bda018","system_id":"levelo_inurba_marseille","lat":43.31724,"lon":5.43722,"is_reserved":false,"is_disabled":false,"rental_uris":{"android":"levelo://app?vid=f158cb0f-0380-45cd-a82f-e7d941bda018","ios":"levelo://app?vid=f158cb0f-0380-45cd-a82f-e7d941bda018"},"vehicle_type_id":"4","last_reported":1742321610,"current_range_meters":10000,"station_id":"ce4bhp92rcd13ifvqhcg","pricing_plan_id":"cebpf4jnsgd1na2vs0mg"},{"bike_id":"11dfadd5-87d2-4328-a1c7-9a4d69bca464","system_id":"levelo_inurba_marseille","lat":43.24549,"lon":5.39521,"is_reserved":false,"is_disabled":false,"rental_uris":{"android":"levelo://app?vid=11dfadd5-87d2-4328-a1c7-9a4d69bca464","ios":"levelo://app?vid=11dfadd5-87d2-4328-a1c7-9a4d69bca464"},"vehicle_type_id":"4","last_reported":1742321610,"current_range_meters":9600,"station_id":"ce4bhlp2rcd13ifvqgjg","pricing_plan_id":"cebpf4jnsgd1na2vs0mg"},{"bike_id":"9e9c2495-9473-40c9-b829-bb02ab558426","system_id":"levelo_inurba_marseille","lat":43.27937,"lon":5.41061,"is_reserved":false,"is_disabled":false,"rental_uris":{"android":"levelo://app?vid=9e9c2495-9473-40c9-b829-bb02ab558426","ios":"levelo://app?vid=9e9c2495-9473-40c9-b829-bb02ab558426"},"vehicle_type_id":"4","last_reported":1742321610,"current_range_meters":10000,"station_id":"ce4bhnp2rcd13ifvqh0g","pricing_plan_id":"cebpf4jnsgd1na2vs0mg"},{"bike_id":"61c41159-7a8b-45ee-a18c-926f56b3edec","system_id":"levelo_inurba_marseille","lat":43.25817,"lon":5.3943,"is_reserved":false,"is_disabled":false,"rental_uris":{"android":"levelo://app?vid=61c41159-7a8b-45ee-a18c-926f56b3edec","ios":"levelo://app?vid=61c41159-7a8b-45ee-a18c-926f56b3edec"},"vehicle_type_id":"4","last_reported":1742321610,"current_range_meters":7200,"station_id":"ce4bhip2rcd13ifvqft0","pricing_plan_id":"cebpf4jnsgd1na2vs0mg"},{"bike_id":"d00028dc-9b0d-47df-ad9d-778d21fb21b2","system_id":"levelo_inurba_marseille","lat":43.23193,"lon":5.35563,"is_reserved":false,"is_disabled":false,"rental_uris":{"android":"levelo://app?vid=d00028dc-9b0d-47df-ad9d-778d21fb21b2","ios":"levelo://app?vid=d00028dc-9b0d-47df-ad9d-778d21fb21b2"},"vehicle_type_id":"4","last_reported":1742321610,"current_range_meters":10800,"station_id":"ce4bhu92rcd13ifvqi70","pricing_plan_id":"cebpf4jnsgd1na2vs0mg"},{"bike_id":"6ea9d657-2bb2-4cf2-83ca-3b600a48b990","system_id":"levelo_inurba_marseille","lat":43.30366,"lon":5.41892,"is_reserved":false,"is_disabled":false,"rental_uris":{"android":"levelo://app?vid=6ea9d657-2bb2-4cf2-83ca-3b600a48b990","ios":"levelo://app?vid=6ea9d657-2bb2-4cf2-83ca-3b600a48b990"},"vehicle_type_id":"4","last_reported":1742321610,"current_range_meters":10800,"station_id":"ce4bhop2rcd13ifvqh7g","pricing_plan_id":"cebpf4jnsgd1na2vs0mg"},{"bike_id":"ca1c0a28-8faf-435f-9d8b-370c3a07ff34","system_id":"levelo_inurba_marseille","lat":43.24166,"lon":5.36393,"is_reserved":false,"is_disabled":false,"rental_uris":{"android":"levelo://app?vid=ca1c0a28-8faf-435f-9d8b-370c3a07ff34","ios":"levelo://app?vid=ca1c0a28-8faf-435f-9d8b-370c3a07ff34"},"vehicle_type_id":"4","last_reported":1742321610,"current_range_meters":10800,"station_id":"cpo36qri1sfpv3e86is0","pricing_plan_id":"cebpf4jnsgd1na2vs0mg"},{"bike_id":"539fc8c4-24e6-4af1-852f-0f9aae2257a1","system_id":"levelo_inurba_marseille","lat":43.23185,"lon":5.3557,"is_reserved":false,"is_disabled":false,"rental_uris":{"android":"levelo://app?vid=539fc8c4-24e6-4af1-852f-0f9aae2257a1","ios":"levelo://app?vid=539fc8c4-24e6-4af1-852f-0f9aae2257a1"},"vehicle_type_id":"4","last_reported":1742321610,"current_range_meters":10800,"station_id":"ce4bhu92rcd13ifvqi70","pricing_plan_id":"cebpf4jnsgd1na2vs0mg"},{"bike_id":"5bead0f2-5ada-420f-bea0-acb8d2ad9da4","system_id":"levelo_inurba_marseille","lat":43.23177,"lon":5.39984,"is_reserved":false,"is_disabled":false,"rental_uris":{"android":"levelo://app?vid=5bead0f2-5ada-420f-bea0-acb8d2ad9da4","ios":"levelo://app?vid=5bead0f2-5ada-420f-bea0-acb8d2ad9da4"},"vehicle_type_id":"4","last_reported":1742321610,"current_range_meters":10800,"station_id":"ce4bhn12rcd13ifvqgqg","pricing_plan_id":"cebpf4jnsgd1na2vs0mg"},{"bike_id":"22111304-d253-48de-9ebe-849da3952082","system_id":"levelo_inurba_marseille","lat":43.27901,"lon":5.37974,"is_reserved":false,"is_disabled":false,"rental_uris":{"android":"levelo://app?vid=22111304-d253-48de-9ebe-849da3952082","ios":"levelo://app?vid=22111304-d253-48de-9ebe-849da3952082"},"vehicle_type_id":"4","last_reported":1742321610,"current_range_meters":12400,"station_id":"ce4bhf92rcd13ifvqf50","pricing_plan_id":"cebpf4jnsgd1na2vs0mg"},{"bike_id":"6b162ed9-3599-4156-a34b-2df90433ae5c","system_id":"levelo_inurba_marseille","lat":43.24173,"lon":5.3975,"is_reserved":false,"is_disabled":false,"rental_uris":{"android":"levelo://app?vid=6b162ed9-3599-4156-a34b-2df90433ae5c","ios":"levelo://app?vid=6b162ed9-3599-4156-a34b-2df90433ae5c"},"vehicle_type_id":"4","last_reported":1742321610,"current_range_meters":10800,"station_id":"ce4bhn12rcd13ifvqgpg","pricing_plan_id":"cebpf4jnsgd1na2vs0mg"},{"bike_id":"84615dae-38b9-405b-9632-79c26b91f8e7","system_id":"levelo_inurba_marseille","lat":43.30097,"lon":5.39084,"is_reserved":false,"is_disabled":false,"rental_uris":{"android":"levelo://app?vid=84615dae-38b9-405b-9632-79c26b91f8e7","ios":"levelo://app?vid=84615dae-38b9-405b-9632-79c26b91f8e7"},"vehicle_type_id":"4","last_reported":1742321610,"current_range_meters":10000,"station_id":"ce4bh192rcd13ifvqdb0","pricing_plan_id":"cebpf4jnsgd1na2vs0mg"},{"bike_id":"f1f53c30-eb7d-4de9-8c57-791d54fe0f0d","system_id":"levelo_inurba_marseille","lat":43.31766,"lon":5.39022,"is_reserved":false,"is_disabled":false,"rental_uris":{"android":"levelo://app?vid=f1f53c30-eb7d-4de9-8c57-791d54fe0f0d","ios":"levelo://app?vid=f1f53c30-eb7d-4de9-8c57-791d54fe0f0d"},"vehicle_type_id":"4","last_reported":1742321610,"current_range_meters":10800,"station_id":"ce4bhqp2rcd13ifvqhng","pricing_plan_id":"cebpf4jnsgd1na2vs0mg"},{"bike_id":"7b84b45c-6d86-4c47-a0db-cf44fee1f889","system_id":"levelo_inurba_marseille","lat":43.3021,"lon":5.39475,"is_reserved":false,"is_disabled":false,"rental_uris":{"android":"levelo://app?vid=7b84b45c-6d86-4c47-a0db-cf44fee1f889","ios":"levelo://app?vid=7b84b45c-6d86-4c47-a0db-cf44fee1f889"},"vehicle_type_id":"4","last_reported":1742321610,"current_range_meters":10800,"station_id":"ce4bh0p2rcd13ifvqd70","pricing_plan_id":"cebpf4jnsgd1na2vs0mg"},{"bike_id":"5b27da58-9a0f-42dd-a3fc-c404568e4634","system_id":"levelo_inurba_marseille","lat":43.28156,"lon":5.42637,"is_reserved":false,"is_disabled":false,"rental_uris":{"android":"levelo://app?vid=5b27da58-9a0f-42dd-a3fc-c404568e4634","ios":"levelo://app?vid=5b27da58-9a0f-42dd-a3fc-c404568e4634"},"vehicle_type_id":"4","last_reported":1742321610,"current_range_meters":10800,"station_id":"ce4bhnh2rcd13ifvqgug","pricing_plan_id":"cebpf4jnsgd1na2vs0mg"},{"bike_id":"3c5af9e5-cd58-4891-ac00-b970328bcde5","system_id":"levelo_inurba_marseille","lat":43.32366,"lon":5.38889,"is_reserved":false,"is_disabled":false,"rental_uris":{"android":"levelo://app?vid=3c5af9e5-cd58-4891-ac00-b970328bcde5","ios":"levelo://app?vid=3c5af9e5-cd58-4891-ac00-b970328bcde5"},"vehicle_type_id":"4","last_reported":1742321610,"current_range_meters":10800,"station_id":"ce4bhqp2rcd13ifvqhog","pricing_plan_id":"cebpf4jnsgd1na2vs0mg"},{"bike_id":"5874166f-e24c-46bf-8064-e8cdea288152","system_id":"levelo_inurba_marseille","lat":43.24803,"lon":5.37452,"is_reserved":false,"is_disabled":false,"rental_uris":{"android":"levelo://app?vid=5874166f-e24c-46bf-8064-e8cdea288152","ios":"levelo://app?vid=5874166f-e24c-46bf-8064-e8cdea288152"},"vehicle_type_id":"4","last_reported":1742321610,"current_range_meters":10800,"station_id":"ce4bhgh2rcd13ifvqfb0","pricing_plan_id":"cebpf4jnsgd1na2vs0mg"},{"bike_id":"0cb439ba-c73c-4e00-a10d-d81c8bff11ec","system_id":"levelo_inurba_marseille","lat":43.32494,"lon":5.36565,"is_reserved":false,"is_disabled":false,"rental_uris":{"android":"levelo://app?vid=0cb439ba-c73c-4e00-a10d-d81c8bff11ec","ios":"levelo://app?vid=0cb439ba-c73c-4e00-a10d-d81c8bff11ec"},"vehicle_type_id":"4","last_reported":1742321610,"current_range_meters":11200,"station_id":"ce4bhs12rcd13ifvqhvg","pricing_plan_id":"cebpf4jnsgd1na2vs0mg"},{"bike_id":"82535133-7066-4424-8ed3-03a4af7b8548","system_id":"levelo_inurba_marseille","lat":43.25494,"lon":5.37657,"is_reserved":false,"is_disabled":false,"rental_uris":{"android":"levelo://app?vid=82535133-7066-4424-8ed3-03a4af7b8548","ios":"levelo://app?vid=82535133-7066-4424-8ed3-03a4af7b8548"},"vehicle_type_id":"4","last_reported":1742321610,"current_range_meters":11200,"station_id":"ce4bhh12rcd13ifvqff0","pricing_plan_id":"cebpf4jnsgd1na2vs0mg"},{"bike_id":"3e8169cd-c4c6-4d55-b107-e51cf3584452","system_id":"levelo_inurba_marseille","lat":43.302185,"lon":5.394746,"is_reserved":false,"is_disabled":false,"rental_uris":{"android":"levelo://app?vid=3e8169cd-c4c6-4d55-b107-e51cf3584452","ios":"levelo://app?vid=3e8169cd-c4c6-4d55-b107-e51cf3584452"},"vehicle_type_id":"4","last_reported":1742321610,"current_range_meters":11200,"station_id":"ce4bgih2rcd13ifvqba0","pricing_plan_id":"cebpf4jnsgd1na2vs0mg"},{"bike_id":"cb83bb7b-da1e-4e39-8df9-8da005404b0c","system_id":"levelo_inurba_marseille","lat":43.23061,"lon":5.35491,"is_reserved":false,"is_disabled":false,"rental_uris":{"android":"levelo://app?vid=cb83bb7b-da1e-4e39-8df9-8da005404b0c","ios":"levelo://app?vid=cb83bb7b-da1e-4e39-8df9-8da005404b0c"},"vehicle_type_id":"4","last_reported":1742321610,"current_range_meters":11200,"station_id":"cpo3342slgdg3j2ifvpg","pricing_plan_id":"cebpf4jnsgd1na2vs0mg"},{"bike_id":"20ddbeed-f5d0-422f-8106-ada4d7f3ba09","system_id":"levelo_inurba_marseille","lat":43.23154,"lon":5.43717,"is_reserved":false,"is_disabled":false,"rental_uris":{"android":"levelo://app?vid=20ddbeed-f5d0-422f-8106-ada4d7f3ba09","ios":"levelo://app?vid=20ddbeed-f5d0-422f-8106-ada4d7f3ba09"},"vehicle_type_id":"4","last_reported":1742321610,"current_range_meters":10800,"station_id":"ce4bhmp2rcd13ifvqgog","pricing_plan_id":"cebpf4jnsgd1na2vs0mg"},{"bike_id":"33cee87d-54df-4382-b486-e00c9953097c","system_id":"levelo_inurba_marseille","lat":43.255,"lon":5.37664,"is_reserved":false,"is_disabled":false,"rental_uris":{"android":"levelo://app?vid=33cee87d-54df-4382-b486-e00c9953097c","ios":"levelo://app?vid=33cee87d-54df-4382-b486-e00c9953097c"},"vehicle_type_id":"4","last_reported":1742321610,"current_range_meters":11200,"station_id":"ce4bhh12rcd13ifvqff0","pricing_plan_id":"cebpf4jnsgd1na2vs0mg"},{"bike_id":"ab11fa9b-759f-447f-a4f1-b143e2360775","system_id":"levelo_inurba_marseille","lat":43.31345,"lon":5.39171,"is_reserved":false,"is_disabled":false,"rental_uris":{"android":"levelo://app?vid=ab11fa9b-759f-447f-a4f1-b143e2360775","ios":"levelo://app?vid=ab11fa9b-759f-447f-a4f1-b143e2360775"},"vehicle_type_id":"4","last_reported":1742321610,"current_range_meters":11200,"station_id":"","pricing_plan_id":"cebpf4jnsgd1na2vs0mg"},{"bike_id":"b11b59ba-21d0-426f-b577-70021ea405c3","system_id":"levelo_inurba_marseille","lat":43.2901,"lon":5.35617,"is_reserved":false,"is_disabled":false,"rental_uris":{"android":"levelo://app?vid=b11b59ba-21d0-426f-b577-70021ea405c3","ios":"levelo://app?vid=b11b59ba-21d0-426f-b577-70021ea405c3"},"vehicle_type_id":"4","last_reported":1742321610,"current_range_meters":10800,"station_id":"ce4bhb92rcd13ifvqen0","pricing_plan_id":"cebpf4jnsgd1na2vs0mg"},{"bike_id":"501f7fd9-069d-4c8f-b512-803a0a667daa","system_id":"levelo_inurba_marseille","lat":43.31717,"lon":5.43709,"is_reserved":false,"is_disabled":false,"rental_uris":{"android":"levelo://app?vid=501f7fd9-069d-4c8f-b512-803a0a667daa","ios":"levelo://app?vid=501f7fd9-069d-4c8f-b512-803a0a667daa"},"vehicle_type_id":"4","last_reported":1742321610,"current_range_meters":11200,"station_id":"ce4bhp92rcd13ifvqhcg","pricing_plan_id":"cebpf4jnsgd1na2vs0mg"},{"bike_id":"d9afaf0f-475b-4aad-968a-9883a5aa7c7b","system_id":"levelo_inurba_marseille","lat":43.29447,"lon":5.3864,"is_reserved":false,"is_disabled":false,"rental_uris":{"android":"levelo://app?vid=d9afaf0f-475b-4aad-968a-9883a5aa7c7b","ios":"levelo://app?vid=d9afaf0f-475b-4aad-968a-9883a5aa7c7b"},"vehicle_type_id":"4","last_reported":1742321610,"current_range_meters":11200,"station_id":"ce4bh2h2rcd13ifvqdh0","pricing_plan_id":"cebpf4jnsgd1na2vs0mg"},{"bike_id":"b55ffd89-9582-4c74-af18-e20d3238fc79","system_id":"levelo_inurba_marseille","lat":43.28946,"lon":5.36387,"is_reserved":false,"is_disabled":false,"rental_uris":{"android":"levelo://app?vid=b55ffd89-9582-4c74-af18-e20d3238fc79","ios":"levelo://app?vid=b55ffd89-9582-4c74-af18-e20d3238fc79"},"vehicle_type_id":"4","last_reported":1742321610,"current_range_meters":11200,"station_id":"ce4bhc92rcd13ifvqetg","pricing_plan_id":"cebpf4jnsgd1na2vs0mg"},{"bike_id":"28b58334-fc7e-4158-918e-87bcb312c872","system_id":"levelo_inurba_marseille","lat":43.2792,"lon":5.39596,"is_reserved":false,"is_disabled":false,"rental_uris":{"android":"levelo://app?vid=28b58334-fc7e-4158-918e-87bcb312c872","ios":"levelo://app?vid=28b58334-fc7e-4158-918e-87bcb312c872"},"vehicle_type_id":"4","last_reported":1742321610,"current_range_meters":11200,"station_id":"ce4bhf92rcd13ifvqf40","pricing_plan_id":"cebpf4jnsgd1na2vs0mg"},{"bike_id":"47643e5e-76a5-4454-9b8b-472326fad8da","system_id":"levelo_inurba_marseille","lat":43.26572,"lon":5.39006,"is_reserved":false,"is_disabled":false,"rental_uris":{"android":"levelo://app?vid=47643e5e-76a5-4454-9b8b-472326fad8da","ios":"levelo://app?vid=47643e5e-76a5-4454-9b8b-472326fad8da"},"vehicle_type_id":"4","last_reported":1742321610,"current_range_meters":11200,"station_id":"ce4bhe12rcd13ifvqf30","pricing_plan_id":"cebpf4jnsgd1na2vs0mg"},{"bike_id":"9df5e6e8-beab-44b6-9bcc-74cfa1c79e35","system_id":"levelo_inurba_marseille","lat":43.23974,"lon":5.36612,"is_reserved":false,"is_disabled":false,"rental_uris":{"android":"levelo://app?vid=9df5e6e8-beab-44b6-9bcc-74cfa1c79e35","ios":"levelo://app?vid=9df5e6e8-beab-44b6-9bcc-74cfa1c79e35"},"vehicle_type_id":"4","last_reported":1742321610,"current_range_meters":11200,"station_id":"ce4bhi12rcd13ifvqfp0","pricing_plan_id":"cebpf4jnsgd1na2vs0mg"},{"bike_id":"600cc878-7c2a-4cf4-9af6-86a428b733cc","system_id":"levelo_inurba_marseille","lat":43.30207,"lon":5.39459,"is_reserved":false,"is_disabled":true,"rental_uris":{"android":"levelo://app?vid=600cc878-7c2a-4cf4-9af6-86a428b733cc","ios":"levelo://app?vid=600cc878-7c2a-4cf4-9af6-86a428b733cc"},"vehicle_type_id":"4","last_reported":1742321610,"current_range_meters":11600,"station_id":"ce4bh0p2rcd13ifvqd70","pricing_plan_id":"cebpf4jnsgd1na2vs0mg"},{"bike_id":"08b0ec6b-cf09-4e66-a93f-28dcb9e0ff2a","system_id":"levelo_inurba_marseille","lat":43.29884,"lon":5.38902,"is_reserved":false,"is_disabled":false,"rental_uris":{"android":"levelo://app?vid=08b0ec6b-cf09-4e66-a93f-28dcb9e0ff2a","ios":"levelo://app?vid=08b0ec6b-cf09-4e66-a93f-28dcb9e0ff2a"},"vehicle_type_id":"4","last_reported":1742321610,"current_range_meters":11200,"station_id":"ce4bh392rcd13ifvqdl0","pricing_plan_id":"cebpf4jnsgd1na2vs0mg"},{"bike_id":"3d4e81ea-4395-42b0-b693-465233291743","system_id":"levelo_inurba_marseille","lat":43.2762,"lon":5.36113,"is_reserved":false,"is_disabled":false,"rental_uris":{"android":"levelo://app?vid=3d4e81ea-4395-42b0-b693-465233291743","ios":"levelo://app?vid=3d4e81ea-4395-42b0-b693-465233291743"},"vehicle_type_id":"4","last_reported":1742321610,"current_range_meters":11200,"station_id":"ce4bgj92rcd13ifvqbe0","pricing_plan_id":"cebpf4jnsgd1na2vs0mg"},{"bike_id":"8c0b10ac-273b-40a4-8cef-dbfb644177fc","system_id":"levelo_inurba_marseille","lat":43.23963,"lon":5.36629,"is_reserved":false,"is_disabled":false,"rental_uris":{"android":"levelo://app?vid=8c0b10ac-273b-40a4-8cef-dbfb644177fc","ios":"levelo://app?vid=8c0b10ac-273b-40a4-8cef-dbfb644177fc"},"vehicle_type_id":"4","last_reported":1742321610,"current_range_meters":11200,"station_id":"ce4bhi12rcd13ifvqfp0","pricing_plan_id":"cebpf4jnsgd1na2vs0mg"},{"bike_id":"24a83ae1-94ae-4eb8-9023-42b9ffaaa7d1","system_id":"levelo_inurba_marseille","lat":43.28422,"lon":5.37489,"is_reserved":false,"is_disabled":false,"rental_uris":{"android":"levelo://app?vid=24a83ae1-94ae-4eb8-9023-42b9ffaaa7d1","ios":"levelo://app?vid=24a83ae1-94ae-4eb8-9023-42b9ffaaa7d1"},"vehicle_type_id":"4","last_reported":1742321610,"current_range_meters":11600,"station_id":"ce4bh412rcd13ifvqds0","pricing_plan_id":"cebpf4jnsgd1na2vs0mg"},{"bike_id":"43eefe1f-c55e-4348-b9df-9423f1615355","system_id":"levelo_inurba_marseille","lat":43.28725,"lon":5.37301,"is_reserved":false,"is_disabled":false,"rental_uris":{"android":"levelo://app?vid=43eefe1f-c55e-4348-b9df-9423f1615355","ios":"levelo://app?vid=43eefe1f-c55e-4348-b9df-9423f1615355"},"vehicle_type_id":"4","last_reported":1742321610,"current_range_meters":11600,"station_id":"ce4bh3p2rcd13ifvqdq0","pricing_plan_id":"cebpf4jnsgd1na2vs0mg"},{"bike_id":"cc206591-1ba6-4070-9820-7f27368845cc","system_id":"levelo_inurba_marseille","lat":43.29934,"lon":5.36541,"is_reserved":false,"is_disabled":false,"rental_uris":{"android":"levelo://app?vid=cc206591-1ba6-4070-9820-7f27368845cc","ios":"levelo://app?vid=cc206591-1ba6-4070-9820-7f27368845cc"},"vehicle_type_id":"4","last_reported":1742321610,"current_range_meters":12000,"station_id":"ce4bgm92rcd13ifvqbr0","pricing_plan_id":"cebpf4jnsgd1na2vs0mg"},{"bike_id":"a31e959f-a40f-4381-a693-fb5e70205386","system_id":"levelo_inurba_marseille","lat":43.2694,"lon":5.40249,"is_reserved":false,"is_disabled":false,"rental_uris":{"android":"levelo://app?vid=a31e959f-a40f-4381-a693-fb5e70205386","ios":"levelo://app?vid=a31e959f-a40f-4381-a693-fb5e70205386"},"vehicle_type_id":"4","last_reported":1742321610,"current_range_meters":11600,"station_id":"cjm6bp8fraef2m0cb0m0","pricing_plan_id":"cebpf4jnsgd1na2vs0mg"},{"bike_id":"11bffd4d-691e-479c-be44-e39bfa076b4b","system_id":"levelo_inurba_marseille","lat":43.284821,"lon":5.385582,"is_reserved":false,"is_disabled":false,"rental_uris":{"android":"levelo://app?vid=11bffd4d-691e-479c-be44-e39bfa076b4b","ios":"levelo://app?vid=11bffd4d-691e-479c-be44-e39bfa076b4b"},"vehicle_type_id":"4","last_reported":1742321610,"current_range_meters":12000,"station_id":"ce4bhah2rcd13ifvqei0","pricing_plan_id":"cebpf4jnsgd1na2vs0mg"},{"bike_id":"d26f7b44-8b39-4a1c-8558-cbc26c05bfeb","system_id":"levelo_inurba_marseille","lat":43.29072,"lon":5.35916,"is_reserved":false,"is_disabled":false,"rental_uris":{"android":"levelo://app?vid=d26f7b44-8b39-4a1c-8558-cbc26c05bfeb","ios":"levelo://app?vid=d26f7b44-8b39-4a1c-8558-cbc26c05bfeb"},"vehicle_type_id":"4","last_reported":1742321610,"current_range_meters":12000,"station_id":"ce4bha92rcd13ifvqeg0","pricing_plan_id":"cebpf4jnsgd1na2vs0mg"},{"bike_id":"56d302c9-bfe4-41da-9ba9-2bb212b57489","system_id":"levelo_inurba_marseille","lat":43.29171,"lon":5.37153,"is_reserved":false,"is_disabled":false,"rental_uris":{"android":"levelo://app?vid=56d302c9-bfe4-41da-9ba9-2bb212b57489","ios":"levelo://app?vid=56d302c9-bfe4-41da-9ba9-2bb212b57489"},"vehicle_type_id":"4","last_reported":1742321610,"current_range_meters":12000,"station_id":"ce4bha92rcd13ifvqeh0","pricing_plan_id":"cebpf4jnsgd1na2vs0mg"},{"bike_id":"4b1455e3-a129-4c21-aa44-d1039bebb628","system_id":"levelo_inurba_marseille","lat":43.27797,"lon":5.40726,"is_reserved":false,"is_disabled":false,"rental_uris":{"android":"levelo://app?vid=4b1455e3-a129-4c21-aa44-d1039bebb628","ios":"levelo://app?vid=4b1455e3-a129-4c21-aa44-d1039bebb628"},"vehicle_type_id":"4","last_reported":1742321610,"current_range_meters":12000,"station_id":"ce4bhnh2rcd13ifvqgtg","pricing_plan_id":"cebpf4jnsgd1na2vs0mg"},{"bike_id":"1cd0f74e-19dc-4b7f-8032-6791d57a3859","system_id":"levelo_inurba_marseille","lat":43.29783,"lon":5.39348,"is_reserved":false,"is_disabled":false,"rental_uris":{"android":"levelo://app?vid=1cd0f74e-19dc-4b7f-8032-6791d57a3859","ios":"levelo://app?vid=1cd0f74e-19dc-4b7f-8032-6791d57a3859"},"vehicle_type_id":"4","last_reported":1742321610,"current_range_meters":12000,"station_id":"chh1huq6cuj3fo74tm60","pricing_plan_id":"cebpf4jnsgd1na2vs0mg"},{"bike_id":"e074c228-ee58-4ccb-8a68-6274f1fce5d3","system_id":"levelo_inurba_marseille","lat":43.284785,"lon":5.391034,"is_reserved":false,"is_disabled":false,"rental_uris":{"android":"levelo://app?vid=e074c228-ee58-4ccb-8a68-6274f1fce5d3","ios":"levelo://app?vid=e074c228-ee58-4ccb-8a68-6274f1fce5d3"},"vehicle_type_id":"4","last_reported":1742321610,"current_range_meters":12000,"station_id":"ce4bhoh2rcd13ifvqh5g","pricing_plan_id":"cebpf4jnsgd1na2vs0mg"},{"bike_id":"47470bf8-31da-4cfd-92be-af376d948144","system_id":"levelo_inurba_marseille","lat":43.28717,"lon":5.36088,"is_reserved":false,"is_disabled":false,"rental_uris":{"android":"levelo://app?vid=47470bf8-31da-4cfd-92be-af376d948144","ios":"levelo://app?vid=47470bf8-31da-4cfd-92be-af376d948144"},"vehicle_type_id":"4","last_reported":1742321610,"current_range_meters":12000,"station_id":"cki0cbj6b192h4jlfktg","pricing_plan_id":"cebpf4jnsgd1na2vs0mg"},{"bike_id":"89cb3140-d211-4c4d-97ca-7e01c3c4da90","system_id":"levelo_inurba_marseille","lat":43.23188,"lon":5.35562,"is_reserved":false,"is_disabled":false,"rental_uris":{"android":"levelo://app?vid=89cb3140-d211-4c4d-97ca-7e01c3c4da90","ios":"levelo://app?vid=89cb3140-d211-4c4d-97ca-7e01c3c4da90"},"vehicle_type_id":"4","last_reported":1742321610,"current_range_meters":12000,"station_id":"ce4bhu92rcd13ifvqi70","pricing_plan_id":"cebpf4jnsgd1na2vs0mg"},{"bike_id":"14c9cc49-7e7e-4848-bd87-3eab5cacbc05","system_id":"levelo_inurba_marseille","lat":43.30214,"lon":5.39471,"is_reserved":false,"is_disabled":false,"rental_uris":{"android":"levelo://app?vid=14c9cc49-7e7e-4848-bd87-3eab5cacbc05","ios":"levelo://app?vid=14c9cc49-7e7e-4848-bd87-3eab5cacbc05"},"vehicle_type_id":"4","last_reported":1742321610,"current_range_meters":12000,"station_id":"ce4bh0p2rcd13ifvqd70","pricing_plan_id":"cebpf4jnsgd1na2vs0mg"},{"bike_id":"c2f4da44-a44d-44d2-8be6-51648ee37d7f","system_id":"levelo_inurba_marseille","lat":43.25,"lon":5.38926,"is_reserved":false,"is_disabled":false,"rental_uris":{"android":"levelo://app?vid=c2f4da44-a44d-44d2-8be6-51648ee37d7f","ios":"levelo://app?vid=c2f4da44-a44d-44d2-8be6-51648ee37d7f"},"vehicle_type_id":"4","last_reported":1742321610,"current_range_meters":12000,"station_id":"ce4bhgp2rcd13ifvqfd0","pricing_plan_id":"cebpf4jnsgd1na2vs0mg"},{"bike_id":"cabc56a7-dd90-4978-a4aa-b0149cec9ec6","system_id":"levelo_inurba_marseille","lat":43.25495,"lon":5.37662,"is_reserved":false,"is_disabled":false,"rental_uris":{"android":"levelo://app?vid=cabc56a7-dd90-4978-a4aa-b0149cec9ec6","ios":"levelo://app?vid=cabc56a7-dd90-4978-a4aa-b0149cec9ec6"},"vehicle_type_id":"4","last_reported":1742321610,"current_range_meters":12000,"station_id":"ce4bhh12rcd13ifvqff0","pricing_plan_id":"cebpf4jnsgd1na2vs0mg"},{"bike_id":"871d00f2-2705-421c-9e72-311569860fbb","system_id":"levelo_inurba_marseille","lat":43.33024,"lon":5.39042,"is_reserved":false,"is_disabled":false,"rental_uris":{"android":"levelo://app?vid=871d00f2-2705-421c-9e72-311569860fbb","ios":"levelo://app?vid=871d00f2-2705-421c-9e72-311569860fbb"},"vehicle_type_id":"4","last_reported":1742321610,"current_range_meters":12000,"station_id":"ce4bhr92rcd13ifvqhrg","pricing_plan_id":"cebpf4jnsgd1na2vs0mg"},{"bike_id":"1f4d04b1-8f45-4926-aad8-072dc7b7d942","system_id":"levelo_inurba_marseille","lat":43.28037,"lon":5.36943,"is_reserved":false,"is_disabled":false,"rental_uris":{"android":"levelo://app?vid=1f4d04b1-8f45-4926-aad8-072dc7b7d942","ios":"levelo://app?vid=1f4d04b1-8f45-4926-aad8-072dc7b7d942"},"vehicle_type_id":"4","last_reported":1742321610,"current_range_meters":12400,"station_id":"ce4bha12rcd13ifvqef0","pricing_plan_id":"cebpf4jnsgd1na2vs0mg"},{"bike_id":"b132483d-1d99-4f2a-9ca2-8544144e934f","system_id":"levelo_inurba_marseille","lat":43.32365,"lon":5.38883,"is_reserved":false,"is_disabled":false,"rental_uris":{"android":"levelo://app?vid=b132483d-1d99-4f2a-9ca2-8544144e934f","ios":"levelo://app?vid=b132483d-1d99-4f2a-9ca2-8544144e934f"},"vehicle_type_id":"4","last_reported":1742321610,"current_range_meters":12400,"station_id":"ce4bhqp2rcd13ifvqhog","pricing_plan_id":"cebpf4jnsgd1na2vs0mg"},{"bike_id":"bc264940-2e4b-44da-a81b-e37c9201f095","system_id":"levelo_inurba_marseille","lat":43.29921,"lon":5.36534,"is_reserved":false,"is_disabled":false,"rental_uris":{"android":"levelo://app?vid=bc264940-2e4b-44da-a81b-e37c9201f095","ios":"levelo://app?vid=bc264940-2e4b-44da-a81b-e37c9201f095"},"vehicle_type_id":"4","last_reported":1742321610,"current_range_meters":12400,"station_id":"ce4bgm92rcd13ifvqbr0","pricing_plan_id":"cebpf4jnsgd1na2vs0mg"},{"bike_id":"31ad3fbf-592f-4832-ae99-bcbfb2aade4c","system_id":"levelo_inurba_marseille","lat":43.31121,"lon":5.37768,"is_reserved":false,"is_disabled":false,"rental_uris":{"android":"levelo://app?vid=31ad3fbf-592f-4832-ae99-bcbfb2aade4c","ios":"levelo://app?vid=31ad3fbf-592f-4832-ae99-bcbfb2aade4c"},"vehicle_type_id":"4","last_reported":1742321610,"current_range_meters":12400,"station_id":"ce4bgt92rcd13ifvqcg0","pricing_plan_id":"cebpf4jnsgd1na2vs0mg"},{"bike_id":"6ba0a048-3114-41c9-a0ed-1fb45aaaa765","system_id":"levelo_inurba_marseille","lat":43.26235,"lon":5.40464,"is_reserved":false,"is_disabled":false,"rental_uris":{"android":"levelo://app?vid=6ba0a048-3114-41c9-a0ed-1fb45aaaa765","ios":"levelo://app?vid=6ba0a048-3114-41c9-a0ed-1fb45aaaa765"},"vehicle_type_id":"4","last_reported":1742321610,"current_range_meters":12800,"station_id":"ce4bhmh2rcd13ifvqgmg","pricing_plan_id":"cebpf4jnsgd1na2vs0mg"},{"bike_id":"f142dc05-f5d3-4cbc-afe5-c54cd3d760d6","system_id":"levelo_inurba_marseille","lat":43.28105,"lon":5.39658,"is_reserved":false,"is_disabled":false,"rental_uris":{"android":"levelo://app?vid=f142dc05-f5d3-4cbc-afe5-c54cd3d760d6","ios":"levelo://app?vid=f142dc05-f5d3-4cbc-afe5-c54cd3d760d6"},"vehicle_type_id":"4","last_reported":1742321610,"current_range_meters":12400,"station_id":"ce4bho12rcd13ifvqh2g","pricing_plan_id":"cebpf4jnsgd1na2vs0mg"},{"bike_id":"62f7539b-b047-479e-84e9-11e5c010431d","system_id":"levelo_inurba_marseille","lat":43.30044,"lon":5.39994,"is_reserved":false,"is_disabled":false,"rental_uris":{"android":"levelo://app?vid=62f7539b-b047-479e-84e9-11e5c010431d","ios":"levelo://app?vid=62f7539b-b047-479e-84e9-11e5c010431d"},"vehicle_type_id":"4","last_reported":1742321610,"current_range_meters":12400,"station_id":"","pricing_plan_id":"cebpf4jnsgd1na2vs0mg"},{"bike_id":"7f61d7be-d227-44df-9b33-b8f4965e514f","system_id":"levelo_inurba_marseille","lat":43.23193,"lon":5.35558,"is_reserved":false,"is_disabled":false,"rental_uris":{"android":"levelo://app?vid=7f61d7be-d227-44df-9b33-b8f4965e514f","ios":"levelo://app?vid=7f61d7be-d227-44df-9b33-b8f4965e514f"},"vehicle_type_id":"4","last_reported":1742321610,"current_range_meters":12800,"station_id":"ce4bhu92rcd13ifvqi70","pricing_plan_id":"cebpf4jnsgd1na2vs0mg"},{"bike_id":"cfb83ee5-9f61-4b15-a463-16922ff5559a","system_id":"levelo_inurba_marseille","lat":43.28491,"lon":5.38558,"is_reserved":false,"is_disabled":false,"rental_uris":{"android":"levelo://app?vid=cfb83ee5-9f61-4b15-a463-16922ff5559a","ios":"levelo://app?vid=cfb83ee5-9f61-4b15-a463-16922ff5559a"},"vehicle_type_id":"4","last_reported":1742321610,"current_range_meters":12800,"station_id":"ce4bh8p2rcd13ifvqeb0","pricing_plan_id":"cebpf4jnsgd1na2vs0mg"},{"bike_id":"16ce82f4-7642-4d89-bb15-7d2b1d00ed70","system_id":"levelo_inurba_marseille","lat":43.23961,"lon":5.36635,"is_reserved":false,"is_disabled":false,"rental_uris":{"android":"levelo://app?vid=16ce82f4-7642-4d89-bb15-7d2b1d00ed70","ios":"levelo://app?vid=16ce82f4-7642-4d89-bb15-7d2b1d00ed70"},"vehicle_type_id":"4","last_reported":1742321610,"current_range_meters":12800,"station_id":"ce4bhi12rcd13ifvqfp0","pricing_plan_id":"cebpf4jnsgd1na2vs0mg"},{"bike_id":"2fe2a4d2-35df-465e-ab82-08d766568ad6","system_id":"levelo_inurba_marseille","lat":43.27944,"lon":5.41042,"is_reserved":false,"is_disabled":false,"rental_uris":{"android":"levelo://app?vid=2fe2a4d2-35df-465e-ab82-08d766568ad6","ios":"levelo://app?vid=2fe2a4d2-35df-465e-ab82-08d766568ad6"},"vehicle_type_id":"4","last_reported":1742321610,"current_range_meters":12800,"station_id":"ce4bhnp2rcd13ifvqh0g","pricing_plan_id":"cebpf4jnsgd1na2vs0mg"},