{"last_updated":1767697877,"ttl":60,"version":"2.2","data":{"bikes":[{"bike_id":"58da0769-7e26-4b16-a0a5-d487be77ba6d","system_id":"levelo_inurba_marseille","lat":43.30537,"lon":5.36708,"is_reserved":false,"is_disabled":false,"rental_uris":{"android":"levelo://app?vid=58da0769-7e26-4b16-a0a5-d487be77ba6d","ios":"levelo://app?vid=58da0769-7e26-4b16-a0a5-d487be77ba6d"},"vehicle_type_id":"4","last_reported":1767697878,"current_range_meters":2800,"station_id":"ce4bgrp2rcd13ifvqc9g","pricing_plan_id":"cebpf4jnsgd1na2vs0mg"},{"bike_id":"9dce53d8-141c-4882-b902-9f437f317c94","system_id":"levelo_inurba_marseille","lat":43.26565,"lon":5.40342,"is_reserved":false,"is_disabled":false,"rental_uris":{"android":"levelo://app?vid=9dce53d8-141c-4882-b902-9f437f317c94","ios":"levelo://app?vid=9dce53d8-141c-4882-b902-9f437f317c94"},"vehicle_type_id":"4","last_reported":1767697878,"current_range_meters":2800,"station_id":"ce4bhmp2rcd13ifvqgng","pricing_plan_id":"cebpf4jnsgd1na2vs0mg"},{"bike_id":"972bd070-c735-4135-b8b0-fabca324ac27","system_id":"levelo_inurba_marseille","lat":43.26936,"lon":5.40233,"is_reserved":false,"is_disabled":false,"rental_uris":{"android":"levelo://app?vid=972bd070-c735-4135-b8b0-fabca324ac27","ios":"levelo://app?vid=972bd070-c735-4135-b8b0-fabca324ac27"},"vehicle_type_id":"4","last_reported":1767697878,"current_range_meters":2800,"station_id":"cjm6bp8fraef2m0cb0m0","pricing_plan_id":"cebpf4jnsgd1na2vs0mg"},{"bike_id":"29716140-a9f2-464a-9a75-21d8a6e2e19b","system_id":"levelo_inurba_marseille","lat":43.304788,"lon":5.367206,"is_reserved":false,"is_disabled":false,"rental_uris":{"android":"levelo://app?vid=29716140-a9f2-464a-9a75-21d8a6e2e19b","ios":"levelo://app?vid=29716140-a9f2-464a-9a75-21d8a6e2e19b"},"vehicle_type_id":"4","last_reported":1767697878,"current_range_meters":2800,"station_id":"ce4bgrp2rcd13ifvqc9g","pricing_plan_id":"cebpf4jnsgd1na2vs0mg"},{"bike_id":"b803863f-5ac3-4c63-b045-8d317025a1bf","system_id":"levelo_inurba_marseille","lat":43.299,"lon":5.38004,"is_reserved":false,"is_disabled":false,"rental_uris":{"android":"levelo://app?vid=b803863f-5ac3-4c63-b045-8d317025a1bf","ios":"levelo://app?vid=b803863f-5ac3-4c63-b045-8d317025a1bf"},"vehicle_type_id":"4","last_reported":1767697878,"current_range_meters":2800,"station_id":"","pricing_plan_id":"cebpf4jnsgd1na2vs0mg"},{"bike_id":"7b955b3d-6743-4688-9268-a00334508f3e","system_id":"levelo_inurba_marseille","lat":43.29486,"lon":5.37953,"is_reserved":false,"is_disabled":false,"rental_uris":{"android":"levelo://app?vid=7b955b3d-6743-4688-9268-a00334508f3e","ios":"levelo://app?vid=7b955b3d-6743-4688-9268-a00334508f3e"},"vehicle_type_id":"4","last_reported":1767697878,"current_range_meters":2800,"station_id":"","pricing_plan_id":"cebpf4jnsgd1na2vs0mg"},{"bike_id":"dee0cf66-f1e3-4bdd-8b0b-75e607732949","system_id":"levelo_inurba_marseille","lat":43.25088,"lon":5.395231,"is_reserved":false,"is_disabled":false,"rental_uris":{"android":"levelo://app?vid=dee0cf66-f1e3-4bdd-8b0b-75e607732949","ios":"levelo://app?vid=dee0cf66-f1e3-4bdd-8b0b-75e607732949"},"vehicle_type_id":"4","last_reported":1767697878,"current_range_meters":2800,"station_id":"ce4bhm12rcd13ifvqgkg","pricing_plan_id":"cebpf4jnsgd1na2vs0mg"},{"bike_id":"9635bea0-f844-4d25-9ad9-4fdbf1fc89e1","system_id":"levelo_inurba_marseille","lat":43.30153,"lon":5.38113,"is_reserved":false,"is_disabled":false,"rental_uris":{"android":"levelo://app?vid=9635bea0-f844-4d25-9ad9-4fdbf1fc89e1","ios":"levelo://app?vid=9635bea0-f844-4d25-9ad9-4fdbf1fc89e1"},"vehicle_type_id":"4","last_reported":1767697878,"current_range_meters":2800,"station_id":"ce4bgjp2rcd13ifvqbh0","pricing_plan_id":"cebpf4jnsgd1na2vs0mg"},{"bike_id":"e600f5e1-15cd-43f0-9cd0-de54ecd25135","system_id":"levelo_inurba_marseille","lat":43.24173,"lon":5.39714,"is_reserved":false,"is_disabled":false,"rental_uris":{"android":"levelo://app?vid=e600f5e1-15cd-43f0-9cd0-de54ecd25135","ios":"levelo://app?vid=e600f5e1-15cd-43f0-9cd0-de54ecd25135"},"vehicle_type_id":"4","last_reported":1767697878,"current_range_meters":3200,"station_id":"ce4bhn12rcd13ifvqgpg","pricing_plan_id":"cebpf4jnsgd1na2vs0mg"},{"bike_id":"2e528fe6-fabc-4702-b8bb-1f0c51127554","system_id":"levelo_inurba_marseille","lat":43.28162,"lon":5.42636,"is_reserved":false,"is_disabled":false,"rental_uris":{"android":"levelo://app?vid=2e528fe6-fabc-4702-b8bb-1f0c51127554","ios":"levelo://app?vid=2e528fe6-fabc-4702-b8bb-1f0c51127554"},"vehicle_type_id":"4","last_reported":1767697878,"current_range_meters":3200,"station_id":"ce4bhnh2rcd13ifvqgug","pricing_plan_id":"cebpf4jnsgd1na2vs0mg"},{"bike_id":"4475b542-ba01-401d-a805-cfef4e4f235c","system_id":"levelo_inurba_marseille","lat":43.2964,"lon":5.37711,"is_reserved":false,"is_disabled":false,"rental_uris":{"android":"levelo://app?vid=4475b542-ba01-401d-a805-cfef4e4f235c","ios":"levelo://app?vid=4475b542-ba01-401d-a805-cfef4e4f235c"},"vehicle_type_id":"4","last_reported":1767697878,"current_range_meters":3200,"station_id":"ce4bgi92rcd13ifvqb90","pricing_plan_id":"cebpf4jnsgd1na2vs0mg"},{"bike_id":"155750b7-8e60-45fc-afbb-d277dbb87260","system_id":"levelo_inurba_marseille","lat":43.29026,"lon":5.3864,"is_reserved":false,"is_disabled":false,"rental_uris":{"android":"levelo://app?vid=155750b7-8e60-45fc-afbb-d277dbb87260","ios":"levelo://app?vid=155750b7-8e60-45fc-afbb-d277dbb87260"},"vehicle_type_id":"4","last_reported":1767697878,"current_range_meters":3200,"station_id":"ce4bh4p2rcd13ifvqe0g","pricing_plan_id":"cebpf4jnsgd1na2vs0mg"},{"bike_id":"6ceaaa75-61b0-4608-8a27-a2461ea5d497","system_id":"levelo_inurba_marseille","lat":43.26387,"lon":5.410551,"is_reserved":false,"is_disabled":false,"rental_uris":{"android":"levelo://app?vid=6ceaaa75-61b0-4608-8a27-a2461ea5d497","ios":"levelo://app?vid=6ceaaa75-61b0-4608-8a27-a2461ea5d497"},"vehicle_type_id":"4","last_reported":1767697878,"current_range_meters":3200,"station_id":"","pricing_plan_id":"cebpf4jnsgd1na2vs0mg"},{"bike_id":"a0e8d739-6fac-4b9d-a985-d21edc98266e","system_id":"levelo_inurba_marseille","lat":43.31613,"lon":5.38475,"is_reserved":false,"is_disabled":false,"rental_uris":{"android":"levelo://app?vid=a0e8d739-6fac-4b9d-a985-d21edc98266e","ios":"levelo://app?vid=a0e8d739-6fac-4b9d-a985-d21edc98266e"},"vehicle_type_id":"4","last_reported":1767697878,"current_range_meters":3200,"station_id":"","pricing_plan_id":"cebpf4jnsgd1na2vs0mg"},{"bike_id":"23b82204-86a0-4d21-bf57-3cdf3cfaa1c8","system_id":"levelo_inurba_marseille","lat":43.24388,"lon":5.37073,"is_reserved":false,"is_disabled":false,"rental_uris":{"android":"levelo://app?vid=23b82204-86a0-4d21-bf57-3cdf3cfaa1c8","ios":"levelo://app?vid=23b82204-86a0-4d21-bf57-3cdf3cfaa1c8"},"vehicle_type_id":"4","last_reported":1767697878,"current_range_meters":3200,"station_id":"ce4bhhh2rcd13ifvqfk0","pricing_plan_id":"cebpf4jnsgd1na2vs0mg"},{"bike_id":"e1d57c44-83ef-4528-b4eb-afc27b584417","system_id":"levelo_inurba_marseille","lat":43.27921,"lon":5.39582,"is_reserved":false,"is_disabled":false,"rental_uris":{"android":"levelo://app?vid=e1d57c44-83ef-4528-b4eb-afc27b584417","ios":"levelo://app?vid=e1d57c44-83ef-4528-b4eb-afc27b584417"},"vehicle_type_id":"4","last_reported":1767697878,"current_range_meters":3200,"station_id":"ce4bhf92rcd13ifvqf40","pricing_plan_id":"cebpf4jnsgd1na2vs0mg"},{"bike_id":"f8cc116c-8a47-476a-84ed-1ae454f8faff","system_id":"levelo_inurba_marseille","lat":43.29221,"lon":5.36081,"is_reserved":false,"is_disabled":false,"rental_uris":{"android":"levelo://app?vid=f8cc116c-8a47-476a-84ed-1ae454f8faff","ios":"levelo://app?vid=f8cc116c-8a47-476a-84ed-1ae454f8faff"},"vehicle_type_id":"4","last_reported":1767697878,"current_range_meters":3200,"station_id":"ce4bhbh2rcd13ifvqeqg","pricing_plan_id":"cebpf4jnsgd1na2vs0mg"},{"bike_id":"931bf855-058d-4d1a-b24b-4b90b45762fb","system_id":"levelo_inurba_marseille","lat":43.23965,"lon":5.36615,"is_reserved":false,"is_disabled":false,"rental_uris":{"android":"levelo://app?vid=931bf855-058d-4d1a-b24b-4b90b45762fb","ios":"levelo://app?vid=931bf855-058d-4d1a-b24b-4b90b45762fb"},"vehicle_type_id":"4","last_reported":1767697878,"current_range_meters":3600,"station_id":"ce4bhi12rcd13ifvqfp0","pricing_plan_id":"cebpf4jnsgd1na2vs0mg"},{"bike_id":"1ed18920-86c3-43b1-b9f4-96beaa73ad5a","system_id":"levelo_inurba_marseille","lat":43.30198,"lon":5.36641,"is_reserved":false,"is_disabled":false,"rental_uris":{"android":"levelo://app?vid=1ed18920-86c3-43b1-b9f4-96beaa73ad5a","ios":"levelo://app?vid=1ed18920-86c3-43b1-b9f4-96beaa73ad5a"},"vehicle_type_id":"4","last_reported":1767697878,"current_range_meters":3600,"station_id":"ce4bgrh2rcd13ifvqc8g","pricing_plan_id":"cebpf4jnsgd1na2vs0mg"},{"bike_id":"bf9ac294-030a-4b24-9371-6fae52f905ee","system_id":"levelo_inurba_marseille","lat":43.28775,"lon":5.36425,"is_reserved":false,"is_disabled":false,"rental_uris":{"android":"levelo://app?vid=bf9ac294-030a-4b24-9371-6fae52f905ee","ios":"levelo://app?vid=bf9ac294-030a-4b24-9371-6fae52f905ee"},"vehicle_type_id":"4","last_reported":1767697878,"current_range_meters":3600,"station_id":"","pricing_plan_id":"cebpf4jnsgd1na2vs0mg"},{"bike_id":"2e8e84f6-e40c-4841-aa42-1159f089db20","system_id":"levelo_inurba_marseille","lat":43.28486,"lon":5.38529,"is_reserved":false,"is_disabled":false,"rental_uris":{"android":"levelo://app?vid=2e8e84f6-e40c-4841-aa42-1159f089db20","ios":"levelo://app?vid=2e8e84f6-e40c-4841-aa42-1159f089db20"},"vehicle_type_id":"4","last_reported":1767697878,"current_range_meters":3600,"station_id":"ce4bh8p2rcd13ifvqeb0","pricing_plan_id":"cebpf4jnsgd1na2vs0mg"},{"bike_id":"5b32e82b-506a-48f0-89b1-457762ead484","system_id":"levelo_inurba_marseille","lat":43.293831,"lon":5.378561,"is_reserved":false,"is_disabled":false,"rental_uris":{"android":"levelo://app?vid=5b32e82b-506a-48f0-89b1-457762ead484","ios":"levelo://app?vid=5b32e82b-506a-48f0-89b1-457762ead484"},"vehicle_type_id":"4","last_reported":1767697878,"current_range_meters":3600,"station_id":"ce4bgjh2rcd13ifvqbf0","pricing_plan_id":"cebpf4jnsgd1na2vs0mg"},{"bike_id":"98738c70-885f-4f56-97b9-49a71c197f9a","system_id":"levelo_inurba_marseille","lat":43.2417,"lon":5.36401,"is_reserved":false,"is_disabled":false,"rental_uris":{"android":"levelo://app?vid=98738c70-885f-4f56-97b9-49a71c197f9a","ios":"levelo://app?vid=98738c70-885f-4f56-97b9-49a71c197f9a"},"vehicle_type_id":"4","last_reported":1767697878,"current_range_meters":3600,"station_id":"cpo36qri1sfpv3e86is0","pricing_plan_id":"cebpf4jnsgd1na2vs0mg"},{"bike_id":"00a438d1-2ca2-4b2f-8c1b-6564f55c1efd","system_id":"levelo_inurba_marseille","lat":43.30362,"lon":5.43064,"is_reserved":false,"is_disabled":false,"rental_uris":{"android":"levelo://app?vid=00a438d1-2ca2-4b2f-8c1b-6564f55c1efd","ios":"levelo://app?vid=00a438d1-2ca2-4b2f-8c1b-6564f55c1efd"},"vehicle_type_id":"4","last_reported":1767697878,"current_range_meters":3600,"station_id":"","pricing_plan_id":"cebpf4jnsgd1na2vs0mg"},{"bike_id":"dc3d62ae-8a95-4c51-80ac-37c342aa0304","system_id":"levelo_inurba_marseille","lat":43.29265,"lon":5.38435,"is_reserved":false,"is_disabled":false,"rental_uris":{"android":"levelo://app?vid=dc3d62ae-8a95-4c51-80ac-37c342aa0304","ios":"levelo://app?vid=dc3d62ae-8a95-4c51-80ac-37c342aa0304"},"vehicle_type_id":"4","last_reported":1767697878,"current_range_meters":3600,"station_id":"ce4bh692rcd13ifvqea0","pricing_plan_id":"cebpf4jnsgd1na2vs0mg"},{"bike_id":"e9610580-3979-4024-b702-0412abaec69b","system_id":"levelo_inurba_marseille","lat":43.31289,"lon":5.38078,"is_reserved":false,"is_disabled":false,"rental_uris":{"android":"levelo://app?vid=e9610580-3979-4024-b702-0412abaec69b","ios":"levelo://app?vid=e9610580-3979-4024-b702-0412abaec69b"},"vehicle_type_id":"4","last_reported":1767697878,"current_range_meters":3600,"station_id":"","pricing_plan_id":"cebpf4jnsgd1na2vs0mg"},{"bike_id":"ab879403-7aaa-4924-8e9e-09193a082159","system_id":"levelo_inurba_marseille","lat":43.28472,"lon":5.48411,"is_reserved":false,"is_disabled":false,"rental_uris":{"android":"levelo://app?vid=ab879403-7aaa-4924-8e9e-09193a082159","ios":"levelo://app?vid=ab879403-7aaa-4924-8e9e-09193a082159"},"vehicle_type_id":"4","last_reported":1767697878,"current_range_meters":3600,"station_id":"","pricing_plan_id":"cebpf4jnsgd1na2vs0mg"},{"bike_id":"c2ecf768-acb9-4c04-81ef-4553e1fd49fa","system_id":"levelo_inurba_marseille","lat":43.26935,"lon":5.40272,"is_reserved":false,"is_disabled":false,"rental_uris":{"android":"levelo://app?vid=c2ecf768-acb9-4c04-81ef-4553e1fd49fa","ios":"levelo://app?vid=c2ecf768-acb9-4c04-81ef-4553e1fd49fa"},"vehicle_type_id":"4","last_reported":1767697878,"current_range_meters":3600,"station_id":"cjm6bp8fraef2m0cb0m0","pricing_plan_id":"cebpf4jnsgd1na2vs0mg"},{"bike_id":"2299f6f8-489b-427e-9484-81efc5a9abcb","system_id":"levelo_inurba_marseille","lat":43.23155,"lon":5.43694,"is_reserved":false,"is_disabled":false,"rental_uris":{"android":"levelo://app?vid=2299f6f8-489b-427e-9484-81efc5a9abcb","ios":"levelo://app?vid=2299f6f8-489b-427e-9484-81efc5a9abcb"},"vehicle_type_id":"4","last_reported":1767697878,"current_range_meters":4000,"station_id":"ce4bhmp2rcd13ifvqgog","pricing_plan_id":"cebpf4jnsgd1na2vs0mg"},{"bike_id":"1faa2c1c-623d-4c7b-b6d0-30570519c684","system_id":"levelo_inurba_marseille","lat":43.30532,"lon":5.36706,"is_reserved":false,"is_disabled":false,"rental_uris":{"android":"levelo://app?vid=1faa2c1c-623d-4c7b-b6d0-30570519c684","ios":"levelo://app?vid=1faa2c1c-623d-4c7b-b6d0-30570519c684"},"vehicle_type_id":"4","last_reported":1767697878,"current_range_meters":4000,"station_id":"ce4bgrp2rcd13ifvqc9g","pricing_plan_id":"cebpf4jnsgd1na2vs0mg"},{"bike_id":"a9d496c8-5506-4b4f-a998-1de06b457e15","system_id":"levelo_inurba_marseille","lat":43.31335,"lon":5.36745,"is_reserved":false,"is_disabled":false,"rental_uris":{"android":"levelo://app?vid=a9d496c8-5506-4b4f-a998-1de06b457e15","ios":"levelo://app?vid=a9d496c8-5506-4b4f-a998-1de06b457e15"},"vehicle_type_id":"4","last_reported":1767697878,"current_range_meters":4000,"station_id":"ce4bgr92rcd13ifvqc6g","pricing_plan_id":"cebpf4jnsgd1na2vs0mg"},{"bike_id":"a1b0d5c4-760d-430c-982e-582a9cb03d16","system_id":"levelo_inurba_marseille","lat":43.29003,"lon":5.38125,"is_reserved":false,"is_disabled":false,"rental_uris":{"android":"levelo://app?vid=a1b0d5c4-760d-430c-982e-582a9cb03d16","ios":"levelo://app?vid=a1b0d5c4-760d-430c-982e-582a9cb03d16"},"vehicle_type_id":"4","last_reported":1767697878,"current_range_meters":4000,"station_id":"ce4bh4p2rcd13ifvqe1g","pricing_plan_id":"cebpf4jnsgd1na2vs0mg"},{"bike_id":"269faeda-f958-4c96-a603-702591889c06","system_id":"levelo_inurba_marseille","lat":43.27067,"lon":5.42283,"is_reserved":false,"is_disabled":false,"rental_uris":{"android":"levelo://app?vid=269faeda-f958-4c96-a603-702591889c06","ios":"levelo://app?vid=269faeda-f958-4c96-a603-702591889c06"},"vehicle_type_id":"4","last_reported":1767697878,"current_range_meters":4000,"station_id":"ce4bhk92rcd13ifvqgb0","pricing_plan_id":"cebpf4jnsgd1na2vs0mg"},{"bike_id":"a79f864e-d065-4c7a-833d-cf14f861d8c8","system_id":"levelo_inurba_marseille","lat":43.258238,"lon":5.394445,"is_reserved":false,"is_disabled":false,"rental_uris":{"android":"levelo://app?vid=a79f864e-d065-4c7a-833d-cf14f861d8c8","ios":"levelo://app?vid=a79f864e-d065-4c7a-833d-cf14f861d8c8"},"vehicle_type_id":"4","last_reported":1767697878,"current_range_meters":4000,"station_id":"ce4bhip2rcd13ifvqft0","pricing_plan_id":"cebpf4jnsgd1na2vs0mg"},{"bike_id":"e7cf03a5-1f5f-4868-8ad1-f5e215d0106a","system_id":"levelo_inurba_marseille","lat":43.284815,"lon":5.385511,"is_reserved":false,"is_disabled":false,"rental_uris":{"android":"levelo://app?vid=e7cf03a5-1f5f-4868-8ad1-f5e215d0106a","ios":"levelo://app?vid=e7cf03a5-1f5f-4868-8ad1-f5e215d0106a"},"vehicle_type_id":"4","last_reported":1767697878,"current_range_meters":4000,"station_id":"ce4bh8p2rcd13ifvqeb0","pricing_plan_id":"cebpf4jnsgd1na2vs0mg"},{"bike_id":"027a8973-2875-41b4-bb24-d124d5326ef2","system_id":"levelo_inurba_marseille","lat":43.26954,"lon":5.38647,"is_reserved":false,"is_disabled":false,"rental_uris":{"android":"levelo://app?vid=027a8973-2875-41b4-bb24-d124d5326ef2","ios":"levelo://app?vid=027a8973-2875-41b4-bb24-d124d5326ef2"},"vehicle_type_id":"4","last_reported":1767697878,"current_range_meters":4000,"station_id":"ce4bhh92rcd13ifvqfh0","pricing_plan_id":"cebpf4jnsgd1na2vs0mg"},{"bike_id":"7498afdd-b78f-4b6f-9e85-982912ff31a4","system_id":"levelo_inurba_marseille","lat":43.29321,"lon":5.37451,"is_reserved":false,"is_disabled":false,"rental_uris":{"android":"levelo://app?vid=7498afdd-b78f-4b6f-9e85-982912ff31a4","ios":"levelo://app?vid=7498afdd-b78f-4b6f-9e85-982912ff31a4"},"vehicle_type_id":"4","last_reported":1767697878,"current_range_meters":4000,"station_id":"ce4bgi12rcd13ifvqb70","pricing_plan_id":"cebpf4jnsgd1na2vs0mg"},{"bike_id":"3f4936a1-51a0-4cc0-905d-15676dda0b53","system_id":"levelo_inurba_marseille","lat":43.28856,"lon":5.42524,"is_reserved":false,"is_disabled":false,"rental_uris":{"android":"levelo://app?vid=3f4936a1-51a0-4cc0-905d-15676dda0b53","ios":"levelo://app?vid=3f4936a1-51a0-4cc0-905d-15676dda0b53"},"vehicle_type_id":"4","last_reported":1767697878,"current_range_meters":4400,"station_id":"st_d3b462108ojc7389ooeg","pricing_plan_id":"cebpf4jnsgd1na2vs0mg"},{"bike_id":"ed6b2dd3-9819-4f1b-94df-a7a8812750ca","system_id":"levelo_inurba_marseille","lat":43.24175,"lon":5.39726,"is_reserved":false,"is_disabled":false,"rental_uris":{"android":"levelo://app?vid=ed6b2dd3-9819-4f1b-94df-a7a8812750ca","ios":"levelo://app?vid=ed6b2dd3-9819-4f1b-94df-a7a8812750ca"},"vehicle_type_id":"4","last_reported":1767697878,"current_range_meters":4400,"station_id":"ce4bhn12rcd13ifvqgpg","pricing_plan_id":"cebpf4jnsgd1na2vs0mg"},{"bike_id":"445c0dfb-3931-4cf1-b184-a3eca62d01a2","system_id":"levelo_inurba_marseille","lat":43.29624,"lon":5.37739,"is_reserved":false,"is_disabled":false,"rental_uris":{"android":"levelo://app?vid=445c0dfb-3931-4cf1-b184-a3eca62d01a2","ios":"levelo://app?vid=445c0dfb-3931-4cf1-b184-a3eca62d01a2"},"vehicle_type_id":"4","last_reported":1767697878,"current_range_meters":4400,"station_id":"ce4bgi92rcd13ifvqb90","pricing_plan_id":"cebpf4jnsgd1na2vs0mg"},{"bike_id":"9d382bc4-297f-4c54-a692-f954c87dbd6b","system_id":"levelo_inurba_marseille","lat":43.27807,"lon":5.40699,"is_reserved":false,"is_disabled":false,"rental_uris":{"android":"levelo://app?vid=9d382bc4-297f-4c54-a692-f954c87dbd6b","ios":"levelo://app?vid=9d382bc4-297f-4c54-a692-f954c87dbd6b"},"vehicle_type_id":"4","last_reported":1767697878,"current_range_meters":4400,"station_id":"ce4bhnh2rcd13ifvqgtg","pricing_plan_id":"cebpf4jnsgd1na2vs0mg"},{"bike_id":"f26ff975-07a0-4c80-ba97-925c8b28de6d","system_id":"levelo_inurba_marseille","lat":43.25919,"lon":5.40864,"is_reserved":false,"is_disabled":true,"rental_uris":{"android":"levelo://app?vid=f26ff975-07a0-4c80-ba97-925c8b28de6d","ios":"levelo://app?vid=f26ff975-07a0-4c80-ba97-925c8b28de6d"},"vehicle_type_id":"4","last_reported":1767697878,"current_range_meters":4400,"station_id":"ce4bhm92rcd13ifvqglg","pricing_plan_id":"cebpf4jnsgd1na2vs0mg"},{"bike_id":"17bc629f-7332-48d3-a7ec-087f06179642","system_id":"levelo_inurba_marseille","lat":43.24088,"lon":5.37762,"is_reserved":false,"is_disabled":false,"rental_uris":{"android":"levelo://app?vid=17bc629f-7332-48d3-a7ec-087f06179642","ios":"levelo://app?vid=17bc629f-7332-48d3-a7ec-087f06179642"},"vehicle_type_id":"4","last_reported":1767697878,"current_range_meters":4400,"station_id":"ce4bhnp2rcd13ifvqgvg","pricing_plan_id":"cebpf4jnsgd1na2vs0mg"},{"bike_id":"d6ccf16b-4ef4-4a54-926d-ad2dbfc1dc2c","system_id":"levelo_inurba_marseille","lat":43.2847,"lon":5.48396,"is_reserved":false,"is_disabled":false,"rental_uris":{"android":"levelo://app?vid=d6ccf16b-4ef4-4a54-926d-ad2dbfc1dc2c","ios":"levelo://app?vid=d6ccf16b-4ef4-4a54-926d-ad2dbfc1dc2c"},"vehicle_type_id":"4","last_reported":1767697878,"current_range_meters":4400,"station_id":"","pricing_plan_id":"cebpf4jnsgd1na2vs0mg"},{"bike_id":"4b0eb6bf-8d2a-46a3-875c-0677ddbf0536","system_id":"levelo_inurba_marseille","lat":43.22561,"lon":5.41636,"is_reserved":false,"is_disabled":false,"rental_uris":{"android":"levelo://app?vid=4b0eb6bf-8d2a-46a3-875c-0677ddbf0536","ios":"levelo://app?vid=4b0eb6bf-8d2a-46a3-875c-0677ddbf0536"},"vehicle_type_id":"4","last_reported":1767697878,"current_range_meters":4400,"station_id":"st_d2o4gvlbi1j2169b742g","pricing_plan_id":"cebpf4jnsgd1na2vs0mg"},{"bike_id":"807e5dfc-5355-42d4-a53d-563b6687bcd6","system_id":"levelo_inurba_marseille","lat":43.25811,"lon":5.39448,"is_reserved":false,"is_disabled":false,"rental_uris":{"android":"levelo://app?vid=807e5dfc-5355-42d4-a53d-563b6687bcd6","ios":"levelo://app?vid=807e5dfc-5355-42d4-a53d-563b6687bcd6"},"vehicle_type_id":"4","last_reported":1767697878,"current_range_meters":4400,"station_id":"ce4bhip2rcd13ifvqft0","pricing_plan_id":"cebpf4jnsgd1na2vs0mg"},{"bike_id":"4f878b80-dd0e-49a1-af04-3b2255d509d8","system_id":"levelo_inurba_marseille","lat":43.27041,"lon":5.38317,"is_reserved":false,"is_disabled":false,"rental_uris":{"android":"levelo://app?vid=4f878b80-dd0e-49a1-af04-3b2255d509d8","ios":"levelo://app?vid=4f878b80-dd0e-49a1-af04-3b2255d509d8"},"vehicle_type_id":"4","last_reported":1767697878,"current_range_meters":4800,"station_id":"st_d3n2fo6cfp8s73cte1j0","pricing_plan_id":"cebpf4jnsgd1na2vs0mg"},{"bike_id":"ab47307a-57ce-410d-8cd9-abde76818236","system_id":"levelo_inurba_marseille","lat":43.30516,"lon":5.36714,"is_reserved":false,"is_disabled":false,"rental_uris":{"android":"levelo://app?vid=ab47307a-57ce-410d-8cd9-abde76818236","ios":"levelo://app?vid=ab47307a-57ce-410d-8cd9-abde76818236"},"vehicle_type_id":"4","last_reported":1767697878,"current_range_meters":4800,"station_id":"ce4bgrp2rcd13ifvqc9g","pricing_plan_id":"cebpf4jnsgd1na2vs0mg"},{"bike_id":"868f69bf-a7b0-45d1-8bcf-5a8d8ec63388","system_id":"levelo_inurba_marseille","lat":43.296142,"lon":5.377252,"is_reserved":false,"is_disabled":false,"rental_uris":{"android":"levelo://app?vid=868f69bf-a7b0-45d1-8bcf-5a8d8ec63388","ios":"levelo://app?vid=868f69bf-a7b0-45d1-8bcf-5a8d8ec63388"},"vehicle_type_id":"4","last_reported":1767697878,"current_range_meters":4800,"station_id":"ce4bgi92rcd13ifvqb90","pricing_plan_id":"cebpf4jnsgd1na2vs0mg"},{"bike_id":"fbac0902-f2a3-4124-8e33-1970e7ae1402","system_id":"levelo_inurba_marseille","lat":43.29003,"lon":5.35615,"is_reserved":false,"is_disabled":false,"rental_uris":{"android":"levelo://app?vid=fbac0902-f2a3-4124-8e33-1970e7ae1402","ios":"levelo://app?vid=fbac0902-f2a3-4124-8e33-1970e7ae1402"},"vehicle_type_id":"4","last_reported":1767697878,"current_range_meters":4800,"station_id":"ce4bhb92rcd13ifvqen0","pricing_plan_id":"cebpf4jnsgd1na2vs0mg"},{"bike_id":"238d648a-e098-4396-88de-0b43e9b9c05f","system_id":"levelo_inurba_marseille","lat":43.26706,"lon":5.40234,"is_reserved":false,"is_disabled":false,"rental_uris":{"android":"levelo://app?vid=238d648a-e098-4396-88de-0b43e9b9c05f","ios":"levelo://app?vid=238d648a-e098-4396-88de-0b43e9b9c05f"},"vehicle_type_id":"4","last_reported":1767697878,"current_range_meters":4800,"station_id":"","pricing_plan_id":"cebpf4jnsgd1na2vs0mg"},{"bike_id":"40707d19-1578-4bca-9a90-567e6b76cbbc","system_id":"levelo_inurba_marseille","lat":43.28076,"lon":5.39679,"is_reserved":false,"is_disabled":false,"rental_uris":{"android":"levelo://app?vid=40707d19-1578-4bca-9a90-567e6b76cbbc","ios":"levelo://app?vid=40707d19-1578-4bca-9a90-567e6b76cbbc"},"vehicle_type_id":"4","last_reported":1767697878,"current_range_meters":4800,"station_id":"ce4bho12rcd13ifvqh2g","pricing_plan_id":"cebpf4jnsgd1na2vs0mg"},{"bike_id":"ebb75531-7719-4351-9c5e-1ff8c7592cb4","system_id":"levelo_inurba_marseille","lat":43.29211,"lon":5.36087,"is_reserved":false,"is_disabled":false,"rental_uris":{"android":"levelo://app?vid=ebb75531-7719-4351-9c5e-1ff8c7592cb4","ios":"levelo://app?vid=ebb75531-7719-4351-9c5e-1ff8c7592cb4"},"vehicle_type_id":"4","last_reported":1767697878,"current_range_meters":4800,"station_id":"ce4bhbh2rcd13ifvqeqg","pricing_plan_id":"cebpf4jnsgd1na2vs0mg"},{"bike_id":"78e2864f-f734-48a5-a69c-1ba0ebe24f90","system_id":"levelo_inurba_marseille","lat":43.29761,"lon":5.37782,"is_reserved":false,"is_disabled":false,"rental_uris":{"android":"levelo://app?vid=78e2864f-f734-48a5-a69c-1ba0ebe24f90","ios":"levelo://app?vid=78e2864f-f734-48a5-a69c-1ba0ebe24f90"},"vehicle_type_id":"4","last_reported":1767697878,"current_range_meters":4800,"station_id":"","pricing_plan_id":"cebpf4jnsgd1na2vs0mg"},{"bike_id":"c579c5ce-7a15-4dc8-a202-6ec7ea4354cc","system_id":"levelo_inurba_marseille","lat":43.31047,"lon":5.39377,"is_reserved":false,"is_disabled":false,"rental_uris":{"android":"levelo://app?vid=c579c5ce-7a15-4dc8-a202-6ec7ea4354cc","ios":"levelo://app?vid=c579c5ce-7a15-4dc8-a202-6ec7ea4354cc"},"vehicle_type_id":"4","last_reported":1767697878,"current_range_meters":4800,"station_id":"","pricing_plan_id":"cebpf4jnsgd1na2vs0mg"},{"bike_id":"353e7cf9-caeb-4f66-a929-6ba9791edb43","system_id":"levelo_inurba_marseille","lat":43.32157,"lon":5.36776,"is_reserved":false,"is_disabled":false,"rental_uris":{"android":"levelo://app?vid=353e7cf9-caeb-4f66-a929-6ba9791edb43","ios":"levelo://app?vid=353e7cf9-caeb-4f66-a929-6ba9791edb43"},"vehicle_type_id":"4","last_reported":1767697878,"current_range_meters":4800,"station_id":"ce4bhrh2rcd13ifvqhug","pricing_plan_id":"cebpf4jnsgd1na2vs0mg"},{"bike_id":"cd2a84dd-2416-4ab2-bb23-917dca3d06c0","system_id":"levelo_inurba_marseille","lat":43.25341,"lon":5.421639,"is_reserved":false,"is_disabled":false,"rental_uris":{"android":"levelo://app?vid=cd2a84dd-2416-4ab2-bb23-917dca3d06c0","ios":"levelo://app?vid=cd2a84dd-2416-4ab2-bb23-917dca3d06c0"},"vehicle_type_id":"4","last_reported":1767697878,"current_range_meters":5600,"station_id":"st_d2m65c5bi1j21697t3ng","pricing_plan_id":"cebpf4jnsgd1na2vs0mg"},{"bike_id":"6470287d-a8df-45ef-a85f-2e447246a04d","system_id":"levelo_inurba_marseille","lat":43.3167,"lon":5.40024,"is_reserved":false,"is_disabled":false,"rental_uris":{"android":"levelo://app?vid=6470287d-a8df-45ef-a85f-2e447246a04d","ios":"levelo://app?vid=6470287d-a8df-45ef-a85f-2e447246a04d"},"vehicle_type_id":"4","last_reported":1767697878,"current_range_meters":5600,"station_id":"","pricing_plan_id":"cebpf4jnsgd1na2vs0mg"},{"bike_id":"fcdae6a7-0482-4075-811e-e60135d6319c","system_id":"levelo_inurba_marseille","lat":43.25112,"lon":5.40329,"is_reserved":false,"is_disabled":false,"rental_uris":{"android":"levelo://app?vid=fcdae6a7-0482-4075-811e-e60135d6319c","ios":"levelo://app?vid=fcdae6a7-0482-4075-811e-e60135d6319c"},"vehicle_type_id":"4","last_reported":1767697878,"current_range_meters":5600,"station_id":"ce4bhlh2rcd13ifvqgig","pricing_plan_id":"cebpf4jnsgd1na2vs0mg"},{"bike_id":"69304a06-c31d-4f90-bee5-5152895d3519","system_id":"levelo_inurba_marseille","lat":43.27188,"lon":5.40987,"is_reserved":false,"is_disabled":true,"rental_uris":{"android":"levelo://app?vid=69304a06-c31d-4f90-bee5-5152895d3519","ios":"levelo://app?vid=69304a06-c31d-4f90-bee5-5152895d3519"},"vehicle_type_id":"4","last_reported":1767697878,"current_range_meters":5600,"station_id":"ce4bhl12rcd13ifvqgf0","pricing_plan_id":"cebpf4jnsgd1na2vs0mg"},{"bike_id":"ab9c8640-540b-416a-a58e-06d1055a4d4b","system_id":"levelo_inurba_marseille","lat":43.30557,"lon":5.36671,"is_reserved":false,"is_disabled":false,"rental_uris":{"android":"levelo://app?vid=ab9c8640-540b-416a-a58e-06d1055a4d4b","ios":"levelo://app?vid=ab9c8640-540b-416a-a58e-06d1055a4d4b"},"vehicle_type_id":"4","last_reported":1767697878,"current_range_meters":5600,"station_id":"ce4bgrp2rcd13ifvqc9g","pricing_plan_id":"cebpf4jnsgd1na2vs0mg"},{"bike_id":"91f215fe-a0b7-4449-aae0-f5ea9a48d5cc","system_id":"levelo_inurba_marseille","lat":43.25075,"lon":5.3952,"is_reserved":false,"is_disabled":false,"rental_uris":{"android":"levelo://app?vid=91f215fe-a0b7-4449-aae0-f5ea9a48d5cc","ios":"levelo://app?vid=91f215fe-a0b7-4449-aae0-f5ea9a48d5cc"},"vehicle_type_id":"4","last_reported":1767697878,"current_range_meters":5600,"station_id":"ce4bhm12rcd13ifvqgkg","pricing_plan_id":"cebpf4jnsgd1na2vs0mg"},{"bike_id":"2bdc862a-f3ba-415c-86ee-2784360edb5d","system_id":"levelo_inurba_marseille","lat":43.28941,"lon":5.36422,"is_reserved":false,"is_disabled":false,"rental_uris":{"android":"levelo://app?vid=2bdc862a-f3ba-415c-86ee-2784360edb5d","ios":"levelo://app?vid=2bdc862a-f3ba-415c-86ee-2784360edb5d"},"vehicle_type_id":"4","last_reported":1767697878,"current_range_meters":5600,"station_id":"ce4bhc92rcd13ifvqetg","pricing_plan_id":"cebpf4jnsgd1na2vs0mg"},{"bike_id":"da35753b-543a-44dc-8c12-dc7288bb953e","system_id":"levelo_inurba_marseille","lat":43.31299,"lon":5.3674,"is_reserved":false,"is_disabled":false,"rental_uris":{"android":"levelo://app?vid=da35753b-543a-44dc-8c12-dc7288bb953e","ios":"levelo://app?vid=da35753b-543a-44dc-8c12-dc7288bb953e"},"vehicle_type_id":"4","last_reported":1767697878,"current_range_meters":5600,"station_id":"","pricing_plan_id":"cebpf4jnsgd1na2vs0mg"},{"bike_id":"3c8cd6af-4397-4a6a-a9f4-c097068fb96d","system_id":"levelo_inurba_marseille","lat":43.26306,"lon":5.39812,"is_reserved":false,"is_disabled":false,"rental_uris":{"android":"levelo://app?vid=3c8cd6af-4397-4a6a-a9f4-c097068fb96d","ios":"levelo://app?vid=3c8cd6af-4397-4a6a-a9f4-c097068fb96d"},"vehicle_type_id":"4","last_reported":1767697878,"current_range_meters":5600,"station_id":"","pricing_plan_id":"cebpf4jnsgd1na2vs0mg"},{"bike_id":"524a9ad4-beef-4328-987a-ed7969e656d2","system_id":"levelo_inurba_marseille","lat":43.25921,"lon":5.40907,"is_reserved":false,"is_disabled":false,"rental_uris":{"android":"levelo://app?vid=524a9ad4-beef-4328-987a-ed7969e656d2","ios":"levelo://app?vid=524a9ad4-beef-4328-987a-ed7969e656d2"},"vehicle_type_id":"4","last_reported":1767697878,"current_range_meters":5600,"station_id":"ce4bhm92rcd13ifvqglg","pricing_plan_id":"cebpf4jnsgd1na2vs0mg"},{"bike_id":"44324209-cab0-40f1-9b14-b6d55fb3fe7b","system_id":"levelo_inurba_marseille","lat":43.30087,"lon":5.39096,"is_reserved":false,"is_disabled":true,"rental_uris":{"android":"levelo://app?vid=44324209-cab0-40f1-9b14-b6d55fb3fe7b","ios":"levelo://app?vid=44324209-cab0-40f1-9b14-b6d55fb3fe7b"},"vehicle_type_id":"4","last_reported":1767697878,"current_range_meters":6000,"station_id":"ce4bh192rcd13ifvqdb0","pricing_plan_id":"cebpf4jnsgd1na2vs0mg"},{"bike_id":"44e7a6b0-32f7-43dc-9ef2-3f4cc856431d","system_id":"levelo_inurba_marseille","lat":43.23962,"lon":5.36633,"is_reserved":false,"is_disabled":false,"rental_uris":{"android":"levelo://app?vid=44e7a6b0-32f7-43dc-9ef2-3f4cc856431d","ios":"levelo://app?vid=44e7a6b0-32f7-43dc-9ef2-3f4cc856431d"},"vehicle_type_id":"4","last_reported":1767697878,"current_range_meters":6000,"station_id":"ce4bhi12rcd13ifvqfp0","pricing_plan_id":"cebpf4jnsgd1na2vs0mg"},{"bike_id":"1c4f6686-eca2-4f70-9941-1d212e16a461","system_id":"levelo_inurba_marseille","lat":43.27804,"lon":5.39219,"is_reserved":false,"is_disabled":false,"rental_uris":{"android":"levelo://app?vid=1c4f6686-eca2-4f70-9941-1d212e16a461","ios":"levelo://app?vid=1c4f6686-eca2-4f70-9941-1d212e16a461"},"vehicle_type_id":"4","last_reported":1767697878,"current_range_meters":6000,"station_id":"ce4bhjp2rcd13ifvqga0","pricing_plan_id":"cebpf4jnsgd1na2vs0mg"},{"bike_id":"1af2e362-7fe9-44e8-b51c-b385360caabf","system_id":"levelo_inurba_marseille","lat":43.29277,"lon":5.36844,"is_reserved":false,"is_disabled":false,"rental_uris":{"android":"levelo://app?vid=1af2e362-7fe9-44e8-b51c-b385360caabf","ios":"levelo://app?vid=1af2e362-7fe9-44e8-b51c-b385360caabf"},"vehicle_type_id":"4","last_reported":1767697878,"current_range_meters":6000,"station_id":"ce4bhbp2rcd13ifvqesg","pricing_plan_id":"cebpf4jnsgd1na2vs0mg"},{"bike_id":"70daa543-1773-4fc8-a39b-865bf2d12adc","system_id":"levelo_inurba_marseille","lat":43.29451,"lon":5.37934,"is_reserved":false,"is_disabled":true,"rental_uris":{"android":"levelo://app?vid=70daa543-1773-4fc8-a39b-865bf2d12adc","ios":"levelo://app?vid=70daa543-1773-4fc8-a39b-865bf2d12adc"},"vehicle_type_id":"4","last_reported":1767697878,"current_range_meters":6000,"station_id":"","pricing_plan_id":"cebpf4jnsgd1na2vs0mg"},{"bike_id":"c4cc965a-9ed8-4a3d-af56-95d7d44f8672","system_id":"levelo_inurba_marseille","lat":43.29717,"lon":5.36614,"is_reserved":false,"is_disabled":false,"rental_uris":{"android":"levelo://app?vid=c4cc965a-9ed8-4a3d-af56-95d7d44f8672","ios":"levelo://app?vid=c4cc965a-9ed8-4a3d-af56-95d7d44f8672"},"vehicle_type_id":"4","last_reported":1767697878,"current_range_meters":6000,"station_id":"ce4bgn12rcd13ifvqbt0","pricing_plan_id":"cebpf4jnsgd1na2vs0mg"},{"bike_id":"96c8b000-a442-4907-8ead-78c7e9ac2bcc","system_id":"levelo_inurba_marseille","lat":43.315216,"lon":5.380426,"is_reserved":false,"is_disabled":false,"rental_uris":{"android":"levelo://app?vid=96c8b000-a442-4907-8ead-78c7e9ac2bcc","ios":"levelo://app?vid=96c8b000-a442-4907-8ead-78c7e9ac2bcc"},"vehicle_type_id":"4","last_reported":1767697878,"current_range_meters":6000,"station_id":"ce4bhsp2rcd13ifvqi50","pricing_plan_id":"cebpf4jnsgd1na2vs0mg"},{"bike_id":"9cb6f7b6-d231-4e4c-b752-c02687b48f97","system_id":"levelo_inurba_marseille","lat":43.28878,"lon":5.4252,"is_reserved":false,"is_disabled":false,"rental_uris":{"android":"levelo://app?vid=9cb6f7b6-d231-4e4c-b752-c02687b48f97","ios":"levelo://app?vid=9cb6f7b6-d231-4e4c-b752-c02687b48f97"},"vehicle_type_id":"4","last_reported":1767697878,"current_range_meters":6000,"station_id":"st_d3b462108ojc7389ooeg","pricing_plan_id":"cebpf4jnsgd1na2vs0mg"},{"bike_id":"1d0c1f6a-afc9-438e-b122-35ddf4fabdc4","system_id":"levelo_inurba_marseille","lat":43.29613,"lon":5.37689,"is_reserved":false,"is_disabled":false,"rental_uris":{"android":"levelo://app?vid=1d0c1f6a-afc9-438e-b122-35ddf4fabdc4","ios":"levelo://app?vid=1d0c1f6a-afc9-438e-b122-35ddf4fabdc4"},"vehicle_type_id":"4","last_reported":1767697878,"current_range_meters":6000,"station_id":"ce4bgi92rcd13ifvqb90","pricing_plan_id":"cebpf4jnsgd1na2vs0mg"},{"bike_id":"da31b777-8dd4-4252-95a4-f633d3930cdf","system_id":"levelo_inurba_marseille","lat":43.28001,"lon":5.41662,"is_reserved":false,"is_disabled":false,"rental_uris":{"android":"levelo://app?vid=da31b777-8dd4-4252-95a4-f633d3930cdf","ios":"levelo://app?vid=da31b777-8dd4-4252-95a4-f633d3930cdf"},"vehicle_type_id":"4","last_reported":1767697878,"current_range_meters":6000,"station_id":"ce4bho12rcd13ifvqh1g","pricing_plan_id":"cebpf4jnsgd1na2vs0mg"},{"bike_id":"64cf0efb-83a2-48da-adf6-516927c39a91","system_id":"levelo_inurba_marseille","lat":43.23142,"lon":5.43727,"is_reserved":false,"is_disabled":false,"rental_uris":{"android":"levelo://app?vid=64cf0efb-83a2-48da-adf6-516927c39a91","ios":"levelo://app?vid=64cf0efb-83a2-48da-adf6-516927c39a91"},"vehicle_type_id":"4","last_reported":1767697878,"current_range_meters":6000,"station_id":"ce4bhmp2rcd13ifvqgog","pricing_plan_id":"cebpf4jnsgd1na2vs0mg"},{"bike_id":"416460ab-6200-4cce-9ab7-18b63e82a4df","system_id":"levelo_inurba_marseille","lat":43.3078,"lon":5.38134,"is_reserved":false,"is_disabled":false,"rental_uris":{"android":"levelo://app?vid=416460ab-6200-4cce-9ab7-18b63e82a4df","ios":"levelo://app?vid=416460ab-6200-4cce-9ab7-18b63e82a4df"},"vehicle_type_id":"4","last_reported":1767697878,"current_range_meters":6000,"station_id":"ce4bgt12rcd13ifvqce0","pricing_plan_id":"cebpf4jnsgd1na2vs0mg"},{"bike_id":"9e75e4df-3863-4065-b371-91603a64bae0","system_id":"levelo_inurba_marseille","lat":43.23152,"lon":5.43709,"is_reserved":false,"is_disabled":false,"rental_uris":{"android":"levelo://app?vid=9e75e4df-3863-4065-b371-91603a64bae0","ios":"levelo://app?vid=9e75e4df-3863-4065-b371-91603a64bae0"},"vehicle_type_id":"4","last_reported":1767697878,"current_range_meters":6000,"station_id":"ce4bhmp2rcd13ifvqgog","pricing_plan_id":"cebpf4jnsgd1na2vs0mg"},{"bike_id":"b293846c-6512-4ab5-bcc0-365d91f63879","system_id":"levelo_inurba_marseille","lat":43.23127,"lon":5.43675,"is_reserved":false,"is_disabled":false,"rental_uris":{"android":"levelo://app?vid=b293846c-6512-4ab5-bcc0-365d91f63879","ios":"levelo://app?vid=b293846c-6512-4ab5-bcc0-365d91f63879"},"vehicle_type_id":"4","last_reported":1767697878,"current_range_meters":6000,"station_id":"ce4bhmp2rcd13ifvqgog","pricing_plan_id":"cebpf4jnsgd1na2vs0mg"},{"bike_id":"2c2b33f7-80d5-4af6-8066-8ea96f1838f0","system_id":"levelo_inurba_marseille","lat":43.29189,"lon":5.37914,"is_reserved":false,"is_disabled":false,"rental_uris":{"android":"levelo://app?vid=2c2b33f7-80d5-4af6-8066-8ea96f1838f0","ios":"levelo://app?vid=2c2b33f7-80d5-4af6-8066-8ea96f1838f0"},"vehicle_type_id":"4","last_reported":1767697878,"current_range_meters":6000,"station_id":"","pricing_plan_id":"cebpf4jnsgd1na2vs0mg"},{"bike_id":"976b55e5-eae5-4482-ad40-44c33a136491","system_id":"levelo_inurba_marseille","lat":43.27817,"lon":5.40747,"is_reserved":false,"is_disabled":false,"rental_uris":{"android":"levelo://app?vid=976b55e5-eae5-4482-ad40-44c33a136491","ios":"levelo://app?vid=976b55e5-eae5-4482-ad40-44c33a136491"},"vehicle_type_id":"4","last_reported":1767697878,"current_range_meters":6000,"station_id":"ce4bhnh2rcd13ifvqgtg","pricing_plan_id":"cebpf4jnsgd1na2vs0mg"},{"bike_id":"6c6c2beb-34e7-41f4-806d-300db39ef2db","system_id":"levelo_inurba_marseille","lat":43.24394,"lon":5.37062,"is_reserved":false,"is_disabled":false,"rental_uris":{"android":"levelo://app?vid=6c6c2beb-34e7-41f4-806d-300db39ef2db","ios":"levelo://app?vid=6c6c2beb-34e7-41f4-806d-300db39ef2db"},"vehicle_type_id":"4","last_reported":1767697878,"current_range_meters":6000,"station_id":"ce4bhhh2rcd13ifvqfk0","pricing_plan_id":"cebpf4jnsgd1na2vs0mg"},{"bike_id":"d8fa9719-fb01-4fe9-8222-a88ed0a6f267","system_id":"levelo_inurba_marseille","lat":43.24952,"lon":5.40502,"is_reserved":false,"is_disabled":false,"rental_uris":{"android":"levelo://app?vid=d8fa9719-fb01-4fe9-8222-a88ed0a6f267","ios":"levelo://app?vid=d8fa9719-fb01-4fe9-8222-a88ed0a6f267"},"vehicle_type_id":"4","last_reported":1767697878,"current_range_meters":6000,"station_id":"st_d2ngiaodas8pm72gd1h0","pricing_plan_id":"cebpf4jnsgd1na2vs0mg"},{"bike_id":"083b93d2-b3c9-427c-b766-b080ed5faf54","system_id":"levelo_inurba_marseille","lat":43.291914,"lon":5.357886,"is_reserved":false,"is_disabled":false,"rental_uris":{"android":"levelo://app?vid=083b93d2-b3c9-427c-b766-b080ed5faf54","ios":"levelo://app?vid=083b93d2-b3c9-427c-b766-b080ed5faf54"},"vehicle_type_id":"4","last_reported":1767697878,"current_range_meters":6000,"station_id":"ce4bhb12rcd13ifvqel0","pricing_plan_id":"cebpf4jnsgd1na2vs0mg"},{"bike_id":"b9f7b50d-4eff-4b3c-b608-f2267a320ec1","system_id":"levelo_inurba_marseille","lat":43.28848,"lon":5.42523,"is_reserved":false,"is_disabled":false,"rental_uris":{"android":"levelo://app?vid=b9f7b50d-4eff-4b3c-b608-f2267a320ec1","ios":"levelo://app?vid=b9f7b50d-4eff-4b3c-b608-f2267a320ec1"},"vehicle_type_id":"4","last_reported":1767697878,"current_range_meters":6000,"station_id":"st_d3b462108ojc7389ooeg","pricing_plan_id":"cebpf4jnsgd1na2vs0mg"},{"bike_id":"3f76a618-0c7e-4001-9f1c-7f7adb885a14","system_id":"levelo_inurba_marseille","lat":43.2918,"lon":5.3582,"is_reserved":false,"is_disabled":false,"rental_uris":{"android":"levelo://app?vid=3f76a618-0c7e-4001-9f1c-7f7adb885a14","ios":"levelo://app?vid=3f76a618-0c7e-4001-9f1c-7f7adb885a14"},"vehicle_type_id":"4","last_reported":1767697878,"current_range_meters":6000,"station_id":"ce4bhb12rcd13ifvqel0","pricing_plan_id":"cebpf4jnsgd1na2vs0mg"},{"bike_id":"6ab5dc12-676b-4308-ad4a-bc536aac0b39","system_id":"levelo_inurba_marseille","lat":43.31283,"lon":5.37404,"is_reserved":false,"is_disabled":false,"rental_uris":{"android":"levelo://app?vid=6ab5dc12-676b-4308-ad4a-bc536aac0b39","ios":"levelo://app?vid=6ab5dc12-676b-4308-ad4a-bc536aac0b39"},"vehicle_type_id":"4","last_reported":1767697878,"current_range_meters":6400,"station_id":"","pricing_plan_id":"cebpf4jnsgd1na2vs0mg"},{"bike_id":"662d6bf2-cebb-4666-972d-1dec2318e01b","system_id":"levelo_inurba_marseille","lat":43.271828,"lon":5.409933,"is_reserved":false,"is_disabled":false,"rental_uris":{"android":"levelo://app?vid=662d6bf2-cebb-4666-972d-1dec2318e01b","ios":"levelo://app?vid=662d6bf2-cebb-4666-972d-1dec2318e01b"},"vehicle_type_id":"4","last_reported":1767697878,"current_range_meters":6400,"station_id":"ce4bhl12rcd13ifvqgf0","pricing_plan_id":"cebpf4jnsgd1na2vs0mg"},{"bike_id":"1d1aa57c-101c-4cf2-9f41-6e829b5c2500","system_id":"levelo_inurba_marseille","lat":43.30298,"lon":5.36893,"is_reserved":false,"is_disabled":false,"rental_uris":{"android":"levelo://app?vid=1d1aa57c-101c-4cf2-9f41-6e829b5c2500","ios":"levelo://app?vid=1d1aa57c-101c-4cf2-9f41-6e829b5c2500"},"vehicle_type_id":"4","last_reported":1767697878,"current_range_meters":6400,"station_id":"ce4bgqh2rcd13ifvqc5g","pricing_plan_id":"cebpf4jnsgd1na2vs0mg"},{"bike_id":"9f9b4746-71c5-448b-9590-8fd8371c1599","system_id":"levelo_inurba_marseille","lat":43.22551,"lon":5.41635,"is_reserved":false,"is_disabled":false,"rental_uris":{"android":"levelo://app?vid=9f9b4746-71c5-448b-9590-8fd8371c1599","ios":"levelo://app?vid=9f9b4746-71c5-448b-9590-8fd8371c1599"},"vehicle_type_id":"4","last_reported":1767697878,"current_range_meters":6400,"station_id":"st_d2o4gvlbi1j2169b742g","pricing_plan_id":"cebpf4jnsgd1na2vs0mg"},{"bike_id":"d25c1254-5ba5-4cef-9983-c90b3ec9b80a","system_id":"levelo_inurba_marseille","lat":43.30475,"lon":5.4106,"is_reserved":false,"is_disabled":false,"rental_uris":{"android":"levelo://app?vid=d25c1254-5ba5-4cef-9983-c90b3ec9b80a","ios":"levelo://app?vid=d25c1254-5ba5-4cef-9983-c90b3ec9b80a"},"vehicle_type_id":"4","last_reported":1767697878,"current_range_meters":6400,"station_id":"","pricing_plan_id":"cebpf4jnsgd1na2vs0mg"},{"bike_id":"0f293502-121a-4187-becd-00c74b272d97","system_id":"levelo_inurba_marseille","lat":43.2124,"lon":5.3505,"is_reserved":false,"is_disabled":false,"rental_uris":{"android":"levelo://app?vid=0f293502-121a-4187-becd-00c74b272d97","ios":"levelo://app?vid=0f293502-121a-4187-becd-00c74b272d97"},"vehicle_type_id":"4","last_reported":1767697878,"current_range_meters":6400,"station_id":"st_cvj6sg6p6f1abm77japg","pricing_plan_id":"cebpf4jnsgd1na2vs0mg"},{"bike_id":"864fabb7-31bf-4fd2-9b55-77d1ba804f26","system_id":"levelo_inurba_marseille","lat":43.24468,"lon":5.42544,"is_reserved":false,"is_disabled":false,"rental_uris":{"android":"levelo://app?vid=864fabb7-31bf-4fd2-9b55-77d1ba804f26","ios":"levelo://app?vid=864fabb7-31bf-4fd2-9b55-77d1ba804f26"},"vehicle_type_id":"4","last_reported":1767697878,"current_range_meters":6400,"station_id":"st_d4a3vfp97mjs738cd8kg","pricing_plan_id":"cebpf4jnsgd1na2vs0mg"},{"bike_id":"df7337f7-a443-485f-946c-e99819254d4e","system_id":"levelo_inurba_marseille","lat":43.31055,"lon":5.4013,"is_reserved":false,"is_disabled":false,"rental_uris":{"android":"levelo://app?vid=df7337f7-a443-485f-946c-e99819254d4e","ios":"levelo://app?vid=df7337f7-a443-485f-946c-e99819254d4e"},"vehicle_type_id":"4","last_reported":1767697878,"current_range_meters":6400,"station_id":"","pricing_plan_id":"cebpf4jnsgd1na2vs0mg"},{"bike_id":"0b8f034a-f1c9-4e45-944d-b6dc5686a77e","system_id":"levelo_inurba_marseille","lat":43.31365,"lon":5.36695,"is_reserved":false,"is_disabled":false,"rental_uris":{"android":"levelo://app?vid=0b8f034a-f1c9-4e45-944d-b6dc5686a77e","ios":"levelo://app?vid=0b8f034a-f1c9-4e45-944d-b6dc5686a77e"},"vehicle_type_id":"4","last_reported":1767697878,"current_range_meters":6400,"station_id":"ce4bgr92rcd13ifvqc6g","pricing_plan_id":"cebpf4jnsgd1na2vs0mg"},{"bike_id":"efeb4d43-411b-4a48-8a5d-24f1c2a32317","system_id":"levelo_inurba_marseille","lat":43.26687,"lon":5.38288,"is_reserved":false,"is_disabled":false,"rental_uris":{"android":"levelo://app?vid=efeb4d43-411b-4a48-8a5d-24f1c2a32317","ios":"levelo://app?vid=efeb4d43-411b-4a48-8a5d-24f1c2a32317"},"vehicle_type_id":"4","last_reported":1767697878,"current_range_meters":6400,"station_id":"ce4bhg92rcd13ifvqf90","pricing_plan_id":"cebpf4jnsgd1na2vs0mg"},{"bike_id":"ab9868fa-bd50-4843-b9cf-8d256fc0aa24","system_id":"levelo_inurba_marseille","lat":43.25937,"lon":5.40899,"is_reserved":false,"is_disabled":false,"rental_uris":{"android":"levelo://app?vid=ab9868fa-bd50-4843-b9cf-8d256fc0aa24","ios":"levelo://app?vid=ab9868fa-bd50-4843-b9cf-8d256fc0aa24"},"vehicle_type_id":"4","last_reported":1767697878,"current_range_meters":6400,"station_id":"ce4bhm92rcd13ifvqglg","pricing_plan_id":"cebpf4jnsgd1na2vs0mg"},{"bike_id":"c9b87726-8bf1-4969-9d96-4aed66906683","system_id":"levelo_inurba_marseille","lat":43.25518,"lon":5.37661,"is_reserved":false,"is_disabled":false,"rental_uris":{"android":"levelo://app?vid=c9b87726-8bf1-4969-9d96-4aed66906683","ios":"levelo://app?vid=c9b87726-8bf1-4969-9d96-4aed66906683"},"vehicle_type_id":"4","last_reported":1767697878,"current_range_meters":6400,"station_id":"ce4bhh12rcd13ifvqff0","pricing_plan_id":"cebpf4jnsgd1na2vs0mg"},{"bike_id":"802fe12d-f14a-45a9-ab39-7a7c51870c15","system_id":"levelo_inurba_marseille","lat":43.31706,"lon":5.39854,"is_reserved":false,"is_disabled":false,"rental_uris":{"android":"levelo://app?vid=802fe12d-f14a-45a9-ab39-7a7c51870c15","ios":"levelo://app?vid=802fe12d-f14a-45a9-ab39-7a7c51870c15"},"vehicle_type_id":"4","last_reported":1767697878,"current_range_meters":6400,"station_id":"","pricing_plan_id":"cebpf4jnsgd1na2vs0mg"},{"bike_id":"41f54ea5-6f88-45f1-a241-b51bcaf483a2","system_id":"levelo_inurba_marseille","lat":43.22926,"lon":5.35378,"is_reserved":false,"is_disabled":false,"rental_uris":{"android":"levelo://app?vid=41f54ea5-6f88-45f1-a241-b51bcaf483a2","ios":"levelo://app?vid=41f54ea5-6f88-45f1-a241-b51bcaf483a2"},"vehicle_type_id":"4","last_reported":1767697878,"current_range_meters":6400,"station_id":"cpo3532slgdg3j2ikp40","pricing_plan_id":"cebpf4jnsgd1na2vs0mg"},{"bike_id":"40ef5c73-5486-43cb-8929-d818e25dffa6","system_id":"levelo_inurba_marseille","lat":43.32652,"lon":5.41944,"is_reserved":false,"is_disabled":false,"rental_uris":{"android":"levelo://app?vid=40ef5c73-5486-43cb-8929-d818e25dffa6","ios":"levelo://app?vid=40ef5c73-5486-43cb-8929-d818e25dffa6"},"vehicle_type_id":"4","last_reported":1767697878,"current_range_meters":6400,"station_id":"","pricing_plan_id":"cebpf4jnsgd1na2vs0mg"},{"bike_id":"671729d8-1472-46e6-9234-dc84c6097a13","system_id":"levelo_inurba_marseille","lat":43.24007,"lon":5.40718,"is_reserved":false,"is_disabled":false,"rental_uris":{"android":"levelo://app?vid=671729d8-1472-46e6-9234-dc84c6097a13","ios":"levelo://app?vid=671729d8-1472-46e6-9234-dc84c6097a13"},"vehicle_type_id":"4","last_reported":1767697878,"current_range_meters":6400,"station_id":"","pricing_plan_id":"cebpf4jnsgd1na2vs0mg"},{"bike_id":"341fa175-b404-4e99-a30d-b02f1e1adee4","system_id":"levelo_inurba_marseille","lat":43.24391,"lon":5.37077,"is_reserved":false,"is_disabled":false,"rental_uris":{"android":"levelo://app?vid=341fa175-b404-4e99-a30d-b02f1e1adee4","ios":"levelo://app?vid=341fa175-b404-4e99-a30d-b02f1e1adee4"},"vehicle_type_id":"4","last_reported":1767697878,"current_range_meters":6400,"station_id":"","pricing_plan_id":"cebpf4jnsgd1na2vs0mg"},{"bike_id":"4113d7ee-36c9-4eea-93ca-91a176eab47c","system_id":"levelo_inurba_marseille","lat":43.296837,"lon":5.376892,"is_reserved":false,"is_disabled":false,"rental_uris":{"android":"levelo://app?vid=4113d7ee-36c9-4eea-93ca-91a176eab47c","ios":"levelo://app?vid=4113d7ee-36c9-4eea-93ca-91a176eab47c"},"vehicle_type_id":"4","last_reported":1767697878,"current_range_meters":6400,"station_id":"ce4bgkh2rcd13ifvqbl0","pricing_plan_id":"cebpf4jnsgd1na2vs0mg"},{"bike_id":"8f1dcf1e-ec47-4cfd-9ca8-b695074a8473","system_id":"levelo_inurba_marseille","lat":43.239645,"lon":5.366258,"is_reserved":false,"is_disabled":false,"rental_uris":{"android":"levelo://app?vid=8f1dcf1e-ec47-4cfd-9ca8-b695074a8473","ios":"levelo://app?vid=8f1dcf1e-ec47-4cfd-9ca8-b695074a8473"},"vehicle_type_id":"4","last_reported":1767697878,"current_range_meters":6400,"station_id":"ce4bhi12rcd13ifvqfp0","pricing_plan_id":"cebpf4jnsgd1na2vs0mg"},{"bike_id":"77c6e077-c5cf-4e32-a75b-b4333f5b5292","system_id":"levelo_inurba_marseille","lat":43.31051,"lon":5.37169,"is_reserved":false,"is_disabled":false,"rental_uris":{"android":"levelo://app?vid=77c6e077-c5cf-4e32-a75b-b4333f5b5292","ios":"levelo://app?vid=77c6e077-c5cf-4e32-a75b-b4333f5b5292"},"vehicle_type_id":"4","last_reported":1767697878,"current_range_meters":6400,"station_id":"st_d4kl2rp97mjs73e7tdfg","pricing_plan_id":"cebpf4jnsgd1na2vs0mg"},{"bike_id":"b3d46066-d9af-4077-b1da-7d7459dbf7a5","system_id":"levelo_inurba_marseille","lat":43.29697,"lon":5.37909,"is_reserved":false,"is_disabled":false,"rental_uris":{"android":"levelo://app?vid=b3d46066-d9af-4077-b1da-7d7459dbf7a5","ios":"levelo://app?vid=b3d46066-d9af-4077-b1da-7d7459dbf7a5"},"vehicle_type_id":"4","last_reported":1767697878,"current_range_meters":6800,"station_id":"","pricing_plan_id":"cebpf4jnsgd1na2vs0mg"},{"bike_id":"12c3c7a7-f460-4f98-8ff5-5de83296a8f5","system_id":"levelo_inurba_marseille","lat":43.27803,"lon":5.39237,"is_reserved":false,"is_disabled":false,"rental_uris":{"android":"levelo://app?vid=12c3c7a7-f460-4f98-8ff5-5de83296a8f5","ios":"levelo://app?vid=12c3c7a7-f460-4f98-8ff5-5de83296a8f5"},"vehicle_type_id":"4","last_reported":1767697878,"current_range_meters":6800,"station_id":"ce4bhjp2rcd13ifvqga0","pricing_plan_id":"cebpf4jnsgd1na2vs0mg"},{"bike_id":"78399c66-07bf-4f4a-b2dc-de9b40e72c5f","system_id":"levelo_inurba_marseille","lat":43.23964,"lon":5.36625,"is_reserved":false,"is_disabled":false,"rental_uris":{"android":"levelo://app?vid=78399c66-07bf-4f4a-b2dc-de9b40e72c5f","ios":"levelo://app?vid=78399c66-07bf-4f4a-b2dc-de9b40e72c5f"},"vehicle_type_id":"4","last_reported":1767697878,"current_range_meters":6800,"station_id":"ce4bhi12rcd13ifvqfp0","pricing_plan_id":"cebpf4jnsgd1na2vs0mg"},{"bike_id":"438b5b87-2ead-4a56-9315-220edfc8d6d2","system_id":"levelo_inurba_marseille","lat":43.3117,"lon":5.3685,"is_reserved":false,"is_disabled":false,"rental_uris":{"android":"levelo://app?vid=438b5b87-2ead-4a56-9315-220edfc8d6d2","ios":"levelo://app?vid=438b5b87-2ead-4a56-9315-220edfc8d6d2"},"vehicle_type_id":"4","last_reported":1767697878,"current_range_meters":6800,"station_id":"","pricing_plan_id":"cebpf4jnsgd1na2vs0mg"},{"bike_id":"eda26c9e-1de5-46d8-8133-e4e92339d527","system_id":"levelo_inurba_marseille","lat":43.24386,"lon":5.37107,"is_reserved":false,"is_disabled":false,"rental_uris":{"android":"levelo://app?vid=eda26c9e-1de5-46d8-8133-e4e92339d527","ios":"levelo://app?vid=eda26c9e-1de5-46d8-8133-e4e92339d527"},"vehicle_type_id":"4","last_reported":1767697878,"current_range_meters":6800,"station_id":"ce4bhhh2rcd13ifvqfk0","pricing_plan_id":"cebpf4jnsgd1na2vs0mg"},{"bike_id":"d8c06048-428c-4885-a31f-55edb4b42195","system_id":"levelo_inurba_marseille","lat":43.26208,"lon":5.38842,"is_reserved":false,"is_disabled":false,"rental_uris":{"android":"levelo://app?vid=d8c06048-428c-4885-a31f-55edb4b42195","ios":"levelo://app?vid=d8c06048-428c-4885-a31f-55edb4b42195"},"vehicle_type_id":"4","last_reported":1767697878,"current_range_meters":6800,"station_id":"","pricing_plan_id":"cebpf4jnsgd1na2vs0mg"},{"bike_id":"14494bec-dc0c-470c-b701-ec21574c7266","system_id":"levelo_inurba_marseille","lat":43.2929,"lon":5.37185,"is_reserved":false,"is_disabled":false,"rental_uris":{"android":"levelo://app?vid=14494bec-dc0c-470c-b701-ec21574c7266","ios":"levelo://app?vid=14494bec-dc0c-470c-b701-ec21574c7266"},"vehicle_type_id":"4","last_reported":1767697878,"current_range_meters":6800,"station_id":"ce4bgh92rcd13ifvqb40","pricing_plan_id":"cebpf4jnsgd1na2vs0mg"},{"bike_id":"83f5c9b2-f37e-4635-817a-992d595185c8","system_id":"levelo_inurba_marseille","lat":43.30531,"lon":5.36713,"is_reserved":false,"is_disabled":false,"rental_uris":{"android":"levelo://app?vid=83f5c9b2-f37e-4635-817a-992d595185c8","ios":"levelo://app?vid=83f5c9b2-f37e-4635-817a-992d595185c8"},"vehicle_type_id":"4","last_reported":1767697878,"current_range_meters":6800,"station_id":"ce4bgrp2rcd13ifvqc9g","pricing_plan_id":"cebpf4jnsgd1na2vs0mg"},{"bike_id":"1e73728e-4392-47e2-968e-c94992b57df0","system_id":"levelo_inurba_marseille","lat":43.23191,"lon":5.35568,"is_reserved":false,"is_disabled":false,"rental_uris":{"android":"levelo://app?vid=1e73728e-4392-47e2-968e-c94992b57df0","ios":"levelo://app?vid=1e73728e-4392-47e2-968e-c94992b57df0"},"vehicle_type_id":"4","last_reported":1767697878,"current_range_meters":6800,"station_id":"ce4bhu92rcd13ifvqi70","pricing_plan_id":"cebpf4jnsgd1na2vs0mg"},{"bike_id":"a56d0349-7b3d-4364-8207-77bec6eb100d","system_id":"levelo_inurba_marseille","lat":43.31498,"lon":5.37282,"is_reserved":false,"is_disabled":false,"rental_uris":{"android":"levelo://app?vid=a56d0349-7b3d-4364-8207-77bec6eb100d","ios":"levelo://app?vid=a56d0349-7b3d-4364-8207-77bec6eb100d"},"vehicle_type_id":"4","last_reported":1767697878,"current_range_meters":6800,"station_id":"ce4bgt12rcd13ifvqcd0","pricing_plan_id":"cebpf4jnsgd1na2vs0mg"},{"bike_id":"11a9d746-21f2-472e-a773-79943d206c1e","system_id":"levelo_inurba_marseille","lat":43.29609,"lon":5.37713,"is_reserved":false,"is_disabled":false,"rental_uris":{"android":"levelo://app?vid=11a9d746-21f2-472e-a773-79943d206c1e","ios":"levelo://app?vid=11a9d746-21f2-472e-a773-79943d206c1e"},"vehicle_type_id":"4","last_reported":1767697878,"current_range_meters":6800,"station_id":"ce4bgi92rcd13ifvqb90","pricing_plan_id":"cebpf4jnsgd1na2vs0mg"},{"bike_id":"72c63b8a-a250-46dd-a4ea-3a9e5b90bd07","system_id":"levelo_inurba_marseille","lat":43.29553,"lon":5.37506,"is_reserved":false,"is_disabled":false,"rental_uris":{"android":"levelo://app?vid=72c63b8a-a250-46dd-a4ea-3a9e5b90bd07","ios":"levelo://app?vid=72c63b8a-a250-46dd-a4ea-3a9e5b90bd07"},"vehicle_type_id":"4","last_reported":1767697878,"current_range_meters":6800,"station_id":"ce4bgh92rcd13ifvqb50","pricing_plan_id":"cebpf4jnsgd1na2vs0mg"},{"bike_id":"3615ff67-b2c5-4685-9055-a9d1eecd040b","system_id":"levelo_inurba_marseille","lat":43.26527,"lon":5.39047,"is_reserved":false,"is_disabled":false,"rental_uris":{"android":"levelo://app?vid=3615ff67-b2c5-4685-9055-a9d1eecd040b","ios":"levelo://app?vid=3615ff67-b2c5-4685-9055-a9d1eecd040b"},"vehicle_type_id":"4","last_reported":1767697878,"current_range_meters":6800,"station_id":"ce4bhe12rcd13ifvqf30","pricing_plan_id":"cebpf4jnsgd1na2vs0mg"},{"bike_id":"010687cd-2110-4391-955e-7d5e92b88ccc","system_id":"levelo_inurba_marseille","lat":43.290177,"lon":5.399814,"is_reserved":false,"is_disabled":false,"rental_uris":{"android":"levelo://app?vid=010687cd-2110-4391-955e-7d5e92b88ccc","ios":"levelo://app?vid=010687cd-2110-4391-955e-7d5e92b88ccc"},"vehicle_type_id":"4","last_reported":1767697878,"current_range_meters":6800,"station_id":"ce4bh392rcd13ifvqdm0","pricing_plan_id":"cebpf4jnsgd1na2vs0mg"},{"bike_id":"bcba726c-86cc-4920-9b66-bf7117212d7c","system_id":"levelo_inurba_marseille","lat":43.29762,"lon":5.37782,"is_reserved":false,"is_disabled":false,"rental_uris":{"android":"levelo://app?vid=bcba726c-86cc-4920-9b66-bf7117212d7c","ios":"levelo://app?vid=bcba726c-86cc-4920-9b66-bf7117212d7c"},"vehicle_type_id":"4","last_reported":1767697878,"current_range_meters":6800,"station_id":"","pricing_plan_id":"cebpf4jnsgd1na2vs0mg"},{"bike_id":"87e8b266-b373-4616-baea-2d580c40657d","system_id":"levelo_inurba_marseille","lat":43.31666,"lon":5.3745,"is_reserved":false,"is_disabled":false,"rental_uris":{"android":"levelo://app?vid=87e8b266-b373-4616-baea-2d580c40657d","ios":"levelo://app?vid=87e8b266-b373-4616-baea-2d580c40657d"},"vehicle_type_id":"4","last_reported":1767697878,"current_range_meters":6800,"station_id":"","pricing_plan_id":"cebpf4jnsgd1na2vs0mg"},{"bike_id":"a3c3bf86-3912-4606-91dd-87b0253e9d44","system_id":"levelo_inurba_marseille","lat":43.28214,"lon":5.39054,"is_reserved":false,"is_disabled":false,"rental_uris":{"android":"levelo://app?vid=a3c3bf86-3912-4606-91dd-87b0253e9d44","ios":"levelo://app?vid=a3c3bf86-3912-4606-91dd-87b0253e9d44"},"vehicle_type_id":"4","last_reported":1767697878,"current_range_meters":6800,"station_id":"ce4bhn92rcd13ifvqgsg","pricing_plan_id":"cebpf4jnsgd1na2vs0mg"},{"bike_id":"27fd1dae-9b5f-4946-91a5-7e16675cd4af","system_id":"levelo_inurba_marseille","lat":43.25582,"lon":5.38234,"is_reserved":false,"is_disabled":false,"rental_uris":{"android":"levelo://app?vid=27fd1dae-9b5f-4946-91a5-7e16675cd4af","ios":"levelo://app?vid=27fd1dae-9b5f-4946-91a5-7e16675cd4af"},"vehicle_type_id":"4","last_reported":1767697878,"current_range_meters":6800,"station_id":"ce4bhih2rcd13ifvqfs0","pricing_plan_id":"cebpf4jnsgd1na2vs0mg"},{"bike_id":"dcd17e5a-74df-42d5-bc07-aacf87e896f6","system_id":"levelo_inurba_marseille","lat":43.24065,"lon":5.37721,"is_reserved":false,"is_disabled":false,"rental_uris":{"android":"levelo://app?vid=dcd17e5a-74df-42d5-bc07-aacf87e896f6","ios":"levelo://app?vid=dcd17e5a-74df-42d5-bc07-aacf87e896f6"},"vehicle_type_id":"4","last_reported":1767697878,"current_range_meters":6800,"station_id":"ce4bhnp2rcd13ifvqgvg","pricing_plan_id":"cebpf4jnsgd1na2vs0mg"},{"bike_id":"a56df372-151e-4fe2-8949-dd650d263775","system_id":"levelo_inurba_marseille","lat":43.28309,"lon":5.38929,"is_reserved":false,"is_disabled":false,"rental_uris":{"android":"levelo://app?vid=a56df372-151e-4fe2-8949-dd650d263775","ios":"levelo://app?vid=a56df372-151e-4fe2-8949-dd650d263775"},"vehicle_type_id":"4","last_reported":1767697878,"current_range_meters":6800,"station_id":"","pricing_plan_id":"cebpf4jnsgd1na2vs0mg"},{"bike_id":"307a64ca-f552-49b9-80b0-a69f761f5934","system_id":"levelo_inurba_marseille","lat":43.26376,"lon":5.41081,"is_reserved":false,"is_disabled":false,"rental_uris":{"android":"levelo://app?vid=307a64ca-f552-49b9-80b0-a69f761f5934","ios":"levelo://app?vid=307a64ca-f552-49b9-80b0-a69f761f5934"},"vehicle_type_id":"4","last_reported":1767697878,"current_range_meters":6800,"station_id":"st_d4e5ca6na9uc73bfl5fg","pricing_plan_id":"cebpf4jnsgd1na2vs0mg"},{"bike_id":"21a4785c-a50b-450b-ab37-b6189ff99ee6","system_id":"levelo_inurba_marseille","lat":43.28875,"lon":5.36406,"is_reserved":false,"is_disabled":false,"rental_uris":{"android":"levelo://app?vid=21a4785c-a50b-450b-ab37-b6189ff99ee6","ios":"levelo://app?vid=21a4785c-a50b-450b-ab37-b6189ff99ee6"},"vehicle_type_id":"4","last_reported":1767697878,"current_range_meters":7200,"station_id":"","pricing_plan_id":"cebpf4jnsgd1na2vs0mg"},{"bike_id":"aeaceaee-d425-4cd1-8a1f-fe9063bf8aca","system_id":"levelo_inurba_marseille","lat":43.3018,"lon":5.38092,"is_reserved":false,"is_disabled":false,"rental_uris":{"android":"levelo://app?vid=aeaceaee-d425-4cd1-8a1f-fe9063bf8aca","ios":"levelo://app?vid=aeaceaee-d425-4cd1-8a1f-fe9063bf8aca"},"vehicle_type_id":"4","last_reported":1767697878,"current_range_meters":7200,"station_id":"ce4bgjp2rcd13ifvqbh0","pricing_plan_id":"cebpf4jnsgd1na2vs0mg"},{"bike_id":"5708ece5-55a8-46d7-b581-87436581528b","system_id":"levelo_inurba_marseille","lat":43.27074,"lon":5.42241,"is_reserved":false,"is_disabled":false,"rental_uris":{"android":"levelo://app?vid=5708ece5-55a8-46d7-b581-87436581528b","ios":"levelo://app?vid=5708ece5-55a8-46d7-b581-87436581528b"},"vehicle_type_id":"4","last_reported":1767697878,"current_range_meters":7200,"station_id":"ce4bhk92rcd13ifvqgb0","pricing_plan_id":"cebpf4jnsgd1na2vs0mg"},{"bike_id":"207d484c-8461-4dd2-bcd8-adfebe5bfd4e","system_id":"levelo_inurba_marseille","lat":43.25916,"lon":5.40868,"is_reserved":false,"is_disabled":false,"rental_uris":{"android":"levelo://app?vid=207d484c-8461-4dd2-bcd8-adfebe5bfd4e","ios":"levelo://app?vid=207d484c-8461-4dd2-bcd8-adfebe5bfd4e"},"vehicle_type_id":"4","last_reported":1767697878,"current_range_meters":7200,"station_id":"ce4bhm92rcd13ifvqglg","pricing_plan_id":"cebpf4jnsgd1na2vs0mg"},{"bike_id":"2b1bae36-193a-499b-bb7e-403bbcf0b6b5","system_id":"levelo_inurba_marseille","lat":43.27797,"lon":5.40752,"is_reserved":false,"is_disabled":false,"rental_uris":{"android":"levelo://app?vid=2b1bae36-193a-499b-bb7e-403bbcf0b6b5","ios":"levelo://app?vid=2b1bae36-193a-499b-bb7e-403bbcf0b6b5"},"vehicle_type_id":"4","last_reported":1767697878,"current_range_meters":7200,"station_id":"ce4bhnh2rcd13ifvqgtg","pricing_plan_id":"cebpf4jnsgd1na2vs0mg"},{"bike_id":"e86c54c0-f671-46b3-9822-d8e47a8f4357","system_id":"levelo_inurba_marseille","lat":43.28858,"lon":5.42529,"is_reserved":false,"is_disabled":false,"rental_uris":{"android":"levelo://app?vid=e86c54c0-f671-46b3-9822-d8e47a8f4357","ios":"levelo://app?vid=e86c54c0-f671-46b3-9822-d8e47a8f4357"},"vehicle_type_id":"4","last_reported":1767697878,"current_range_meters":7200,"station_id":"st_d3b462108ojc7389ooeg","pricing_plan_id":"cebpf4jnsgd1na2vs0mg"},{"bike_id":"49e7e4bf-d14c-455f-a285-224ffc1f66f2","system_id":"levelo_inurba_marseille","lat":43.24631,"lon":5.43154,"is_reserved":false,"is_disabled":false,"rental_uris":{"android":"levelo://app?vid=49e7e4bf-d14c-455f-a285-224ffc1f66f2","ios":"levelo://app?vid=49e7e4bf-d14c-455f-a285-224ffc1f66f2"},"vehicle_type_id":"4","last_reported":1767697878,"current_range_meters":7200,"station_id":"st_d2m6c4gdas8pm72e190g","pricing_plan_id":"cebpf4jnsgd1na2vs0mg"},{"bike_id":"5c78052d-8b4f-4e51-8ddb-87be6fb225ca","system_id":"levelo_inurba_marseille","lat":43.231848,"lon":5.35559,"is_reserved":false,"is_disabled":false,"rental_uris":{"android":"levelo://app?vid=5c78052d-8b4f-4e51-8ddb-87be6fb225ca","ios":"levelo://app?vid=5c78052d-8b4f-4e51-8ddb-87be6fb225ca"},"vehicle_type_id":"4","last_reported":1767697878,"current_range_meters":7200,"station_id":"ce4bhu92rcd13ifvqi70","pricing_plan_id":"cebpf4jnsgd1na2vs0mg"},{"bike_id":"8028e0cc-e765-41ec-b4f3-082e3918dbd5","system_id":"levelo_inurba_marseille","lat":43.279458,"lon":5.410431,"is_reserved":false,"is_disabled":false,"rental_uris":{"android":"levelo://app?vid=8028e0cc-e765-41ec-b4f3-082e3918dbd5","ios":"levelo://app?vid=8028e0cc-e765-41ec-b4f3-082e3918dbd5"},"vehicle_type_id":"4","last_reported":1767697878,"current_range_meters":7200,"station_id":"ce4bhnp2rcd13ifvqh0g","pricing_plan_id":"cebpf4jnsgd1na2vs0mg"},{"bike_id":"59c30222-41ab-40da-979f-08c128e275a9","system_id":"levelo_inurba_marseille","lat":43.246261,"lon":5.431403,"is_reserved":false,"is_disabled":false,"rental_uris":{"android":"levelo://app?vid=59c30222-41ab-40da-979f-08c128e275a9","ios":"levelo://app?vid=59c30222-41ab-40da-979f-08c128e275a9"},"vehicle_type_id":"4","last_reported":1767697878,"current_range_meters":7200,"station_id":"st_d2m6c4gdas8pm72e190g","pricing_plan_id":"cebpf4jnsgd1na2vs0mg"},{"bike_id":"af55f621-bfef-4f73-803d-87bce07d8470","system_id":"levelo_inurba_marseille","lat":43.29935,"lon":5.3655,"is_reserved":false,"is_disabled":false,"rental_uris":{"android":"levelo://app?vid=af55f621-bfef-4f73-803d-87bce07d8470","ios":"levelo://app?vid=af55f621-bfef-4f73-803d-87bce07d8470"},"vehicle_type_id":"4","last_reported":1767697878,"current_range_meters":7200,"station_id":"ce4bgm92rcd13ifvqbr0","pricing_plan_id":"cebpf4jnsgd1na2vs0mg"},{"bike_id":"28710909-6836-4051-8df5-ac7ea21a74d1","system_id":"levelo_inurba_marseille","lat":43.31498,"lon":5.38633,"is_reserved":false,"is_disabled":false,"rental_uris":{"android":"levelo://app?vid=28710909-6836-4051-8df5-ac7ea21a74d1","ios":"levelo://app?vid=28710909-6836-4051-8df5-ac7ea21a74d1"},"vehicle_type_id":"4","last_reported":1767697878,"current_range_meters":7200,"station_id":"","pricing_plan_id":"cebpf4jnsgd1na2vs0mg"},{"bike_id":"fb1a0b48-368d-4184-8906-a0902490ada4","system_id":"levelo_inurba_marseille","lat":43.27018,"lon":5.38752,"is_reserved":false,"is_disabled":false,"rental_uris":{"android":"levelo://app?vid=fb1a0b48-368d-4184-8906-a0902490ada4","ios":"levelo://app?vid=fb1a0b48-368d-4184-8906-a0902490ada4"},"vehicle_type_id":"4","last_reported":1767697878,"current_range_meters":7200,"station_id":"","pricing_plan_id":"cebpf4jnsgd1na2vs0mg"},{"bike_id":"a184e25a-1604-4e63-9035-4f507c575ca1","system_id":"levelo_inurba_marseille","lat":43.31382,"lon":5.37191,"is_reserved":false,"is_disabled":false,"rental_uris":{"android":"levelo://app?vid=a184e25a-1604-4e63-9035-4f507c575ca1","ios":"levelo://app?vid=a184e25a-1604-4e63-9035-4f507c575ca1"},"vehicle_type_id":"4","last_reported":1767697878,"current_range_meters":7200,"station_id":"","pricing_plan_id":"cebpf4jnsgd1na2vs0mg"},{"bike_id":"f8fa6138-13d6-49d0-bc3f-4e0461ffcbc5","system_id":"levelo_inurba_marseille","lat":43.29923,"lon":5.38609,"is_reserved":false,"is_disabled":false,"rental_uris":{"android":"levelo://app?vid=f8fa6138-13d6-49d0-bc3f-4e0461ffcbc5","ios":"levelo://app?vid=f8fa6138-13d6-49d0-bc3f-4e0461ffcbc5"},"vehicle_type_id":"4","last_reported":1767697878,"current_range_meters":7200,"station_id":"","pricing_plan_id":"cebpf4jnsgd1na2vs0mg"},{"bike_id":"9265da08-af6b-41f8-a564-a7a5e4a8d66e","system_id":"levelo_inurba_marseille","lat":43.28474,"lon":5.48392,"is_reserved":false,"is_disabled":false,"rental_uris":{"android":"levelo://app?vid=9265da08-af6b-41f8-a564-a7a5e4a8d66e","ios":"levelo://app?vid=9265da08-af6b-41f8-a564-a7a5e4a8d66e"},"vehicle_type_id":"4","last_reported":1767697878,"current_range_meters":7200,"station_id":"","pricing_plan_id":"cebpf4jnsgd1na2vs0mg"},{"bike_id":"89bdef37-344e-49d0-b1fc-07663263d642","system_id":"levelo_inurba_marseille","lat":43.28473,"lon":5.385439,"is_reserved":false,"is_disabled":false,"rental_uris":{"android":"levelo://app?vid=89bdef37-344e-49d0-b1fc-07663263d642","ios":"levelo://app?vid=89bdef37-344e-49d0-b1fc-07663263d642"},"vehicle_type_id":"4","last_reported":1767697878,"current_range_meters":7200,"station_id":"ce4bh8p2rcd13ifvqeb0","pricing_plan_id":"cebpf4jnsgd1na2vs0mg"},{"bike_id":"0b51251b-9805-4326-8779-f19c1e8a8afd","system_id":"levelo_inurba_marseille","lat":43.26196,"lon":5.37457,"is_reserved":false,"is_disabled":false,"rental_uris":{"android":"levelo://app?vid=0b51251b-9805-4326-8779-f19c1e8a8afd","ios":"levelo://app?vid=0b51251b-9805-4326-8779-f19c1e8a8afd"},"vehicle_type_id":"4","last_reported":1767697878,"current_range_meters":7200,"station_id":"ce4bhgp2rcd13ifvqfc0","pricing_plan_id":"cebpf4jnsgd1na2vs0mg"},{"bike_id":"6a1f68a8-4c0d-48e4-8253-89c4ff19b6ce","system_id":"levelo_inurba_marseille","lat":43.284762,"lon":5.484006,"is_reserved":false,"is_disabled":false,"rental_uris":{"android":"levelo://app?vid=6a1f68a8-4c0d-48e4-8253-89c4ff19b6ce","ios":"levelo://app?vid=6a1f68a8-4c0d-48e4-8253-89c4ff19b6ce"},"vehicle_type_id":"4","last_reported":1767697878,"current_range_meters":7200,"station_id":"","pricing_plan_id":"cebpf4jnsgd1na2vs0mg"},{"bike_id":"980e7374-b8d7-4723-b090-e412249f3333","system_id":"levelo_inurba_marseille","lat":43.28401,"lon":5.37534,"is_reserved":false,"is_disabled":false,"rental_uris":{"android":"levelo://app?vid=980e7374-b8d7-4723-b090-e412249f3333","ios":"levelo://app?vid=980e7374-b8d7-4723-b090-e412249f3333"},"vehicle_type_id":"4","last_reported":1767697878,"current_range_meters":7200,"station_id":"ce4bh412rcd13ifvqds0","pricing_plan_id":"cebpf4jnsgd1na2vs0mg"},{"bike_id":"7a5278f5-f061-488d-b2a2-8df4e443d682","system_id":"levelo_inurba_marseille","lat":43.26954,"lon":5.40298,"is_reserved":false,"is_disabled":false,"rental_uris":{"android":"levelo://app?vid=7a5278f5-f061-488d-b2a2-8df4e443d682","ios":"levelo://app?vid=7a5278f5-f061-488d-b2a2-8df4e443d682"},"vehicle_type_id":"4","last_reported":1767697878,"current_range_meters":7200,"station_id":"cjm6bp8fraef2m0cb0m0","pricing_plan_id":"cebpf4jnsgd1na2vs0mg"},{"bike_id":"ad9c57a4-d8a7-41c0-8bf9-21a179390ca8","system_id":"levelo_inurba_marseille","lat":43.28528,"lon":5.4411,"is_reserved":false,"is_disabled":false,"rental_uris":{"android":"levelo://app?vid=ad9c57a4-d8a7-41c0-8bf9-21a179390ca8","ios":"levelo://app?vid=ad9c57a4-d8a7-41c0-8bf9-21a179390ca8"},"vehicle_type_id":"4","last_reported":1767697878,"current_range_meters":7200,"station_id":"st_d3j3df2ikq2c7380ej80","pricing_plan_id":"cebpf4jnsgd1na2vs0mg"},{"bike_id":"0597b508-1261-4db8-9e17-c13a262518a7","system_id":"levelo_inurba_marseille","lat":43.28999,"lon":5.35607,"is_reserved":false,"is_disabled":false,"rental_uris":{"android":"levelo://app?vid=0597b508-1261-4db8-9e17-c13a262518a7","ios":"levelo://app?vid=0597b508-1261-4db8-9e17-c13a262518a7"},"vehicle_type_id":"4","last_reported":1767697878,"current_range_meters":7200,"station_id":"ce4bhb92rcd13ifvqen0","pricing_plan_id":"cebpf4jnsgd1na2vs0mg"},{"bike_id":"f7266f96-97df-4d00-8894-b574c422868e","system_id":"levelo_inurba_marseille","lat":43.2871,"lon":5.36113,"is_reserved":false,"is_disabled":false,"rental_uris":{"android":"levelo://app?vid=f7266f96-97df-4d00-8894-b574c422868e","ios":"levelo://app?vid=f7266f96-97df-4d00-8894-b574c422868e"},"vehicle_type_id":"4","last_reported":1767697878,"current_range_meters":8000,"station_id":"cki0cbj6b192h4jlfktg","pricing_plan_id":"cebpf4jnsgd1na2vs0mg"},{"bike_id":"5bd4b4ff-708b-4f5f-8049-5009ef7974cd","system_id":"levelo_inurba_marseille","lat":43.295838,"lon":5.367475,"is_reserved":false,"is_disabled":true,"rental_uris":{"android":"levelo://app?vid=5bd4b4ff-708b-4f5f-8049-5009ef7974cd","ios":"levelo://app?vid=5bd4b4ff-708b-4f5f-8049-5009ef7974cd"},"vehicle_type_id":"4","last_reported":1767697878,"current_range_meters":8000,"station_id":"ce4bgph2rcd13ifvqc2g","pricing_plan_id":"cebpf4jnsgd1na2vs0mg"},{"bike_id":"d599e143-3cfd-4dd2-ba0d-054f2e412eda","system_id":"levelo_inurba_marseille","lat":43.2827,"lon":5.35073,"is_reserved":false,"is_disabled":false,"rental_uris":{"android":"levelo://app?vid=d599e143-3cfd-4dd2-ba0d-054f2e412eda","ios":"levelo://app?vid=d599e143-3cfd-4dd2-ba0d-054f2e412eda"},"vehicle_type_id":"4","last_reported":1767697878,"current_range_meters":8000,"station_id":"ce4bhbp2rcd13ifvqerg","pricing_plan_id":"cebpf4jnsgd1na2vs0mg"},{"bike_id":"f75b0410-7374-4824-96ab-6b516b680266","system_id":"levelo_inurba_marseille","lat":43.26496,"lon":5.39578,"is_reserved":false,"is_disabled":false,"rental_uris":{"android":"levelo://app?vid=f75b0410-7374-4824-96ab-6b516b680266","ios":"levelo://app?vid=f75b0410-7374-4824-96ab-6b516b680266"},"vehicle_type_id":"4","last_reported":1767697878,"current_range_meters":8000,"station_id":"ce4bhi12rcd13ifvqfq0","pricing_plan_id":"cebpf4jnsgd1na2vs0mg"},{"bike_id":"0af53ae4-3548-4b7a-b3f3-8c7d15acdad3","system_id":"levelo_inurba_marseille","lat":43.26567,"lon":5.39009,"is_reserved":false,"is_disabled":false,"rental_uris":{"android":"levelo://app?vid=0af53ae4-3548-4b7a-b3f3-8c7d15acdad3","ios":"levelo://app?vid=0af53ae4-3548-4b7a-b3f3-8c7d15acdad3"},"vehicle_type_id":"4","last_reported":1767697878,"current_range_meters":8000,"station_id":"ce4bhe12rcd13ifvqf30","pricing_plan_id":"cebpf4jnsgd1na2vs0mg"},{"bike_id":"be75706c-d84a-4279-b5a3-376dba45c6a6","system_id":"levelo_inurba_marseille","lat":43.24751,"lon":5.37502,"is_reserved":false,"is_disabled":false,"rental_uris":{"android":"levelo://app?vid=be75706c-d84a-4279-b5a3-376dba45c6a6","ios":"levelo://app?vid=be75706c-d84a-4279-b5a3-376dba45c6a6"},"vehicle_type_id":"4","last_reported":1767697878,"current_range_meters":8000,"station_id":"","pricing_plan_id":"cebpf4jnsgd1na2vs0mg"},{"bike_id":"9429cadb-a739-4f5f-8c2b-cc91a27439eb","system_id":"levelo_inurba_marseille","lat":43.27696,"lon":5.42069,"is_reserved":false,"is_disabled":false,"rental_uris":{"android":"levelo://app?vid=9429cadb-a739-4f5f-8c2b-cc91a27439eb","ios":"levelo://app?vid=9429cadb-a739-4f5f-8c2b-cc91a27439eb"},"vehicle_type_id":"4","last_reported":1767697878,"current_range_meters":8000,"station_id":"","pricing_plan_id":"cebpf4jnsgd1na2vs0mg"},{"bike_id":"f3cb6086-5e80-4c80-9631-a61f6105ed91","system_id":"levelo_inurba_marseille","lat":43.31343,"lon":5.36742,"is_reserved":false,"is_disabled":false,"rental_uris":{"android":"levelo://app?vid=f3cb6086-5e80-4c80-9631-a61f6105ed91","ios":"levelo://app?vid=f3cb6086-5e80-4c80-9631-a61f6105ed91"},"vehicle_type_id":"4","last_reported":1767697878,"current_range_meters":8000,"station_id":"ce4bgr92rcd13ifvqc6g","pricing_plan_id":"cebpf4jnsgd1na2vs0mg"},{"bike_id":"7e9901e5-0ecb-4064-a195-f0e8bbeeaa5c","system_id":"levelo_inurba_marseille","lat":43.284744,"lon":5.385984,"is_reserved":false,"is_disabled":false,"rental_uris":{"android":"levelo://app?vid=7e9901e5-0ecb-4064-a195-f0e8bbeeaa5c","ios":"levelo://app?vid=7e9901e5-0ecb-4064-a195-f0e8bbeeaa5c"},"vehicle_type_id":"4","last_reported":1767697878,"current_range_meters":8000,"station_id":"ce4bh8p2rcd13ifvqeb0","pricing_plan_id":"cebpf4jnsgd1na2vs0mg"},{"bike_id":"0032ba1d-9238-4223-b1a7-c312da3d013b","system_id":"levelo_inurba_marseille","lat":43.278097,"lon":5.407124,"is_reserved":false,"is_disabled":false,"rental_uris":{"android":"levelo://app?vid=0032ba1d-9238-4223-b1a7-c312da3d013b","ios":"levelo://app?vid=0032ba1d-9238-4223-b1a7-c312da3d013b"},"vehicle_type_id":"4","last_reported":1767697878,"current_range_meters":8000,"station_id":"ce4bhnh2rcd13ifvqgtg","pricing_plan_id":"cebpf4jnsgd1na2vs0mg"},{"bike_id":"9543aad1-f2c5-4f3f-ab6a-e1b8918ce8ce","system_id":"levelo_inurba_marseille","lat":43.29899,"lon":5.38499,"is_reserved":false,"is_disabled":false,"rental_uris":{"android":"levelo://app?vid=9543aad1-f2c5-4f3f-ab6a-e1b8918ce8ce","ios":"levelo://app?vid=9543aad1-f2c5-4f3f-ab6a-e1b8918ce8ce"},"vehicle_type_id":"4","last_reported":1767697878,"current_range_meters":8000,"station_id":"","pricing_plan_id":"cebpf4jnsgd1na2vs0mg"},{"bike_id":"15bf6c3d-bc89-4e44-bfe7-ef27538e093c","system_id":"levelo_inurba_marseille","lat":43.24628,"lon":5.43167,"is_reserved":false,"is_disabled":false,"rental_uris":{"android":"levelo://app?vid=15bf6c3d-bc89-4e44-bfe7-ef27538e093c","ios":"levelo://app?vid=15bf6c3d-bc89-4e44-bfe7-ef27538e093c"},"vehicle_type_id":"4","last_reported":1767697878,"current_range_meters":8000,"station_id":"st_d2m6c4gdas8pm72e190g","pricing_plan_id":"cebpf4jnsgd1na2vs0mg"},{"bike_id":"565f99b7-e9e2-4b44-8331-6450d9ae6732","system_id":"levelo_inurba_marseille","lat":43.32077,"lon":5.36822,"is_reserved":false,"is_disabled":false,"rental_uris":{"android":"levelo://app?vid=565f99b7-e9e2-4b44-8331-6450d9ae6732","ios":"levelo://app?vid=565f99b7-e9e2-4b44-8331-6450d9ae6732"},"vehicle_type_id":"4","last_reported":1767697878,"current_range_meters":8000,"station_id":"ce4bhrh2rcd13ifvqhug","pricing_plan_id":"cebpf4jnsgd1na2vs0mg"},{"bike_id":"969b1719-3fa2-4d7b-b48c-3f3c994a3da7","system_id":"levelo_inurba_marseille","lat":43.29198,"lon":5.39552,"is_reserved":false,"is_disabled":false,"rental_uris":{"android":"levelo://app?vid=969b1719-3fa2-4d7b-b48c-3f3c994a3da7","ios":"levelo://app?vid=969b1719-3fa2-4d7b-b48c-3f3c994a3da7"},"vehicle_type_id":"4","last_reported":1767697878,"current_range_meters":8000,"station_id":"","pricing_plan_id":"cebpf4jnsgd1na2vs0mg"},{"bike_id":"c773f61c-a83f-41d9-bdd4-df8791dcab70","system_id":"levelo_inurba_marseille","lat":43.29794,"lon":5.37762,"is_reserved":false,"is_disabled":false,"rental_uris":{"android":"levelo://app?vid=c773f61c-a83f-41d9-bdd4-df8791dcab70","ios":"levelo://app?vid=c773f61c-a83f-41d9-bdd4-df8791dcab70"},"vehicle_type_id":"4","last_reported":1767697878,"current_range_meters":8000,"station_id":"","pricing_plan_id":"cebpf4jnsgd1na2vs0mg"},{"bike_id":"e35627f3-e8ef-4d4a-9cf6-75aababa9398","system_id":"levelo_inurba_marseille","lat":43.24388,"lon":5.37078,"is_reserved":false,"is_disabled":false,"rental_uris":{"android":"levelo://app?vid=e35627f3-e8ef-4d4a-9cf6-75aababa9398","ios":"levelo://app?vid=e35627f3-e8ef-4d4a-9cf6-75aababa9398"},"vehicle_type_id":"4","last_reported":1767697878,"current_range_meters":8000,"station_id":"ce4bhhh2rcd13ifvqfk0","pricing_plan_id":"cebpf4jnsgd1na2vs0mg"},{"bike_id":"bf0a0489-ec91-406d-a7a0-4b4e36bfc3bb","system_id":"levelo_inurba_marseille","lat":43.229333,"lon":5.353798,"is_reserved":false,"is_disabled":false,"rental_uris":{"android":"levelo://app?vid=bf0a0489-ec91-406d-a7a0-4b4e36bfc3bb","ios":"levelo://app?vid=bf0a0489-ec91-406d-a7a0-4b4e36bfc3bb"},"vehicle_type_id":"4","last_reported":1767697878,"current_range_meters":8000,"station_id":"cpo3532slgdg3j2ikp40","pricing_plan_id":"cebpf4jnsgd1na2vs0mg"},{"bike_id":"79050b2d-51dd-4422-b5f7-33cfc5837f53","system_id":"levelo_inurba_marseille","lat":43.312692,"lon":5.377537,"is_reserved":false,"is_disabled":false,"rental_uris":{"android":"levelo://app?vid=79050b2d-51dd-4422-b5f7-33cfc5837f53","ios":"levelo://app?vid=79050b2d-51dd-4422-b5f7-33cfc5837f53"},"vehicle_type_id":"4","last_reported":1767697878,"current_range_meters":8000,"station_id":"","pricing_plan_id":"cebpf4jnsgd1na2vs0mg"},{"bike_id":"46e9ff29-49e0-4240-b2d3-9dae95342edb","system_id":"levelo_inurba_marseille","lat":43.25784,"lon":5.4107,"is_reserved":false,"is_disabled":false,"rental_uris":{"android":"levelo://app?vid=46e9ff29-49e0-4240-b2d3-9dae95342edb","ios":"levelo://app?vid=46e9ff29-49e0-4240-b2d3-9dae95342edb"},"vehicle_type_id":"4","last_reported":1767697878,"current_range_meters":8000,"station_id":"","pricing_plan_id":"cebpf4jnsgd1na2vs0mg"},{"bike_id":"8015c7a3-ca99-4bed-b795-854d89867176","system_id":"levelo_inurba_marseille","lat":43.300345,"lon":5.373509,"is_reserved":false,"is_disabled":false,"rental_uris":{"android":"levelo://app?vid=8015c7a3-ca99-4bed-b795-854d89867176","ios":"levelo://app?vid=8015c7a3-ca99-4bed-b795-854d89867176"},"vehicle_type_id":"4","last_reported":1767697878,"current_range_meters":8000,"station_id":"","pricing_plan_id":"cebpf4jnsgd1na2vs0mg"},{"bike_id":"999e74f3-d4b2-444d-89bc-239d909db7d5","system_id":"levelo_inurba_marseille","lat":43.30051,"lon":5.36953,"is_reserved":false,"is_disabled":false,"rental_uris":{"android":"levelo://app?vid=999e74f3-d4b2-444d-89bc-239d909db7d5","ios":"levelo://app?vid=999e74f3-d4b2-444d-89bc-239d909db7d5"},"vehicle_type_id":"4","last_reported":1767697878,"current_range_meters":8000,"station_id":"","pricing_plan_id":"cebpf4jnsgd1na2vs0mg"},{"bike_id":"b317fec0-bb47-4cc0-932a-12d8650393aa","system_id":"levelo_inurba_marseille","lat":43.33594,"lon":5.41038,"is_reserved":false,"is_disabled":false,"rental_uris":{"android":"levelo://app?vid=b317fec0-bb47-4cc0-932a-12d8650393aa","ios":"levelo://app?vid=b317fec0-bb47-4cc0-932a-12d8650393aa"},"vehicle_type_id":"4","last_reported":1767697878,"current_range_meters":8000,"station_id":"ce4bhqh2rcd13ifvqhmg","pricing_plan_id":"cebpf4jnsgd1na2vs0mg"},{"bike_id":"a64de1f7-3574-4633-a39c-4e77af724a95","system_id":"levelo_inurba_marseille","lat":43.27184,"lon":5.40999,"is_reserved":false,"is_disabled":false,"rental_uris":{"android":"levelo://app?vid=a64de1f7-3574-4633-a39c-4e77af724a95","ios":"levelo://app?vid=a64de1f7-3574-4633-a39c-4e77af724a95"},"vehicle_type_id":"4","last_reported":1767697878,"current_range_meters":8000,"station_id":"ce4bhl12rcd13ifvqgf0","pricing_plan_id":"cebpf4jnsgd1na2vs0mg"},{"bike_id":"27d9b984-914c-44c6-abe9-2fee68ccfc43","system_id":"levelo_inurba_marseille","lat":43.3316,"lon":5.37706,"is_reserved":false,"is_disabled":false,"rental_uris":{"android":"levelo://app?vid=27d9b984-914c-44c6-abe9-2fee68ccfc43","ios":"levelo://app?vid=27d9b984-914c-44c6-abe9-2fee68ccfc43"},"vehicle_type_id":"4","last_reported":1767697878,"current_range_meters":8000,"station_id":"st_d46cu089ee8s73dldbu0","pricing_plan_id":"cebpf4jnsgd1na2vs0mg"},{"bike_id":"1c443ae8-c486-4898-ba52-b5c1dcdc3e04","system_id":"levelo_inurba_marseille","lat":43.27178,"lon":5.40996,"is_reserved":false,"is_disabled":false,"rental_uris":{"android":"levelo://app?vid=1c443ae8-c486-4898-ba52-b5c1dcdc3e04","ios":"levelo://app?vid=1c443ae8-c486-4898-ba52-b5c1dcdc3e04"},"vehicle_type_id":"4","last_reported":1767697878,"current_range_meters":8000,"station_id":"ce4bhl12rcd13ifvqgf0","pricing_plan_id":"cebpf4jnsgd1na2vs0mg"},{"bike_id":"49d4c477-d82c-4845-ae00-302004d2baeb","system_id":"levelo_inurba_marseille","lat":43.25361,"lon":5.42173,"is_reserved":false,"is_disabled":false,"rental_uris":{"android":"levelo://app?vid=49d4c477-d82c-4845-ae00-302004d2baeb","ios":"levelo://app?vid=49d4c477-d82c-4845-ae00-302004d2baeb"},"vehicle_type_id":"4","last_reported":1767697878,"current_range_meters":8000,"station_id":"st_d2m65c5bi1j21697t3ng","pricing_plan_id":"cebpf4jnsgd1na2vs0mg"},{"bike_id":"e48a82ff-e3e3-4ca8-b537-67fb859dafe3","system_id":"levelo_inurba_marseille","lat":43.28153,"lon":5.42654,"is_reserved":false,"is_disabled":false,"rental_uris":{"android":"levelo://app?vid=e48a82ff-e3e3-4ca8-b537-67fb859dafe3","ios":"levelo://app?vid=e48a82ff-e3e3-4ca8-b537-67fb859dafe3"},"vehicle_type_id":"4","last_reported":1767697878,"current_range_meters":8000,"station_id":"ce4bhnh2rcd13ifvqgug","pricing_plan_id":"cebpf4jnsgd1na2vs0mg"},{"bike_id":"c41cbc53-5ba4-43ab-bd54-1d33e831d692","system_id":"levelo_inurba_marseille","lat":43.27495,"lon":5.42464,"is_reserved":false,"is_disabled":false,"rental_uris":{"android":"levelo://app?vid=c41cbc53-5ba4-43ab-bd54-1d33e831d692","ios":"levelo://app?vid=c41cbc53-5ba4-43ab-bd54-1d33e831d692"},"vehicle_type_id":"4","last_reported":1767697878,"current_range_meters":8000,"station_id":"ce4bhn92rcd13ifvqgrg","pricing_plan_id":"cebpf4jnsgd1na2vs0mg"},{"bike_id":"bb60c7a5-e430-4723-8336-043666a2360d","system_id":"levelo_inurba_marseille","lat":43.27329,"lon":5.39113,"is_reserved":false,"is_disabled":false,"rental_uris":{"android":"levelo://app?vid=bb60c7a5-e430-4723-8336-043666a2360d","ios":"levelo://app?vid=bb60c7a5-e430-4723-8336-043666a2360d"},"vehicle_type_id":"4","last_reported":1767697878,"current_range_meters":8000,"station_id":"ce4bhgp2rcd13ifvqfe0","pricing_plan_id":"cebpf4jnsgd1na2vs0mg"},{"bike_id":"3e4fa50d-95a3-4db4-8f5b-671ee24dc390","system_id":"levelo_inurba_marseille","lat":43.27202,"lon":5.39186,"is_reserved":false,"is_disabled":false,"rental_uris":{"android":"levelo://app?vid=3e4fa50d-95a3-4db4-8f5b-671ee24dc390","ios":"levelo://app?vid=3e4fa50d-95a3-4db4-8f5b-671ee24dc390"},"vehicle_type_id":"4","last_reported":1767697878,"current_range_meters":8000,"station_id":"ce4bhhp2rcd13ifvqfm0","pricing_plan_id":"cebpf4jnsgd1na2vs0mg"},{"bike_id":"e10d2e97-3324-4923-8226-ed68a3a3ab41","system_id":"levelo_inurba_marseille","lat":43.298596,"lon":5.362835,"is_reserved":false,"is_disabled":false,"rental_uris":{"android":"levelo://app?vid=e10d2e97-3324-4923-8226-ed68a3a3ab41","ios":"levelo://app?vid=e10d2e97-3324-4923-8226-ed68a3a3ab41"},"vehicle_type_id":"4","last_reported":1767697878,"current_range_meters":8400,"station_id":"ce4bgpp2rcd13ifvqc3g","pricing_plan_id":"cebpf4jnsgd1na2vs0mg"},{"bike_id":"b0ab1f2d-e0b6-43ff-beee-12b61f19d088","system_id":"levelo_inurba_marseille","lat":43.30132,"lon":5.37422,"is_reserved":false,"is_disabled":false,"rental_uris":{"android":"levelo://app?vid=b0ab1f2d-e0b6-43ff-beee-12b61f19d088","ios":"levelo://app?vid=b0ab1f2d-e0b6-43ff-beee-12b61f19d088"},"vehicle_type_id":"4","last_reported":1767697878,"current_range_meters":8400,"station_id":"ce4bgs92rcd13ifvqcc0","pricing_plan_id":"cebpf4jnsgd1na2vs0mg"},{"bike_id":"552c7302-4e7e-4b7e-a972-e3e8cdef5add","system_id":"levelo_inurba_marseille","lat":43.27941,"lon":5.41022,"is_reserved":false,"is_disabled":false,"rental_uris":{"android":"levelo://app?vid=552c7302-4e7e-4b7e-a972-e3e8cdef5add","ios":"levelo://app?vid=552c7302-4e7e-4b7e-a972-e3e8cdef5add"},"vehicle_type_id":"4","last_reported":1767697878,"current_range_meters":8400,"station_id":"ce4bhnp2rcd13ifvqh0g","pricing_plan_id":"cebpf4jnsgd1na2vs0mg"},{"bike_id":"e9ebb3e3-66e8-49c5-9725-2d758f1b330e","system_id":"levelo_inurba_marseille","lat":43.29545,"lon":5.37522,"is_reserved":false,"is_disabled":false,"rental_uris":{"android":"levelo://app?vid=e9ebb3e3-66e8-49c5-9725-2d758f1b330e","ios":"levelo://app?vid=e9ebb3e3-66e8-49c5-9725-2d758f1b330e"},"vehicle_type_id":"4","last_reported":1767697878,"current_range_meters":8400,"station_id":"ce4bgkp2rcd13ifvqbmg","pricing_plan_id":"cebpf4jnsgd1na2vs0mg"},{"bike_id":"bbfa127a-c4cd-452d-b148-18597fd04b45","system_id":"levelo_inurba_marseille","lat":43.25575,"lon":5.38241,"is_reserved":false,"is_disabled":false,"rental_uris":{"android":"levelo://app?vid=bbfa127a-c4cd-452d-b148-18597fd04b45","ios":"levelo://app?vid=bbfa127a-c4cd-452d-b148-18597fd04b45"},"vehicle_type_id":"4","last_reported":1767697878,"current_range_meters":8400,"station_id":"ce4bhih2rcd13ifvqfs0","pricing_plan_id":"cebpf4jnsgd1na2vs0mg"},{"bike_id":"c12ea4a3-bcf0-4ab0-a612-03910cec9930","system_id":"levelo_inurba_marseille","lat":43.280766,"lon":5.396521,"is_reserved":false,"is_disabled":false,"rental_uris":{"android":"levelo://app?vid=c12ea4a3-bcf0-4ab0-a612-03910cec9930","ios":"levelo://app?vid=c12ea4a3-bcf0-4ab0-a612-03910cec9930"},"vehicle_type_id":"4","last_reported":1767697878,"current_range_meters":8400,"station_id":"ce4bho12rcd13ifvqh2g","pricing_plan_id":"cebpf4jnsgd1na2vs0mg"},{"bike_id":"1cc14a4e-8f2c-4bea-9c25-f855a4eff001","system_id":"levelo_inurba_marseille","lat":43.28628,"lon":5.35096,"is_reserved":false,"is_disabled":false,"rental_uris":{"android":"levelo://app?vid=1cc14a4e-8f2c-4bea-9c25-f855a4eff001","ios":"levelo://app?vid=1cc14a4e-8f2c-4bea-9c25-f855a4eff001"},"vehicle_type_id":"4","last_reported":1767697878,"current_range_meters":8400,"station_id":"ce4bhch2rcd13ifvqeug","pricing_plan_id":"cebpf4jnsgd1na2vs0mg"},{"bike_id":"48bd195f-e255-4287-ab8c-d4db56b26ae3","system_id":"levelo_inurba_marseille","lat":43.31118,"lon":5.38674,"is_reserved":false,"is_disabled":false,"rental_uris":{"android":"levelo://app?vid=48bd195f-e255-4287-ab8c-d4db56b26ae3","ios":"levelo://app?vid=48bd195f-e255-4287-ab8c-d4db56b26ae3"},"vehicle_type_id":"4","last_reported":1767697878,"current_range_meters":8400,"station_id":"","pricing_plan_id":"cebpf4jnsgd1na2vs0mg"},{"bike_id":"59f38118-6a4d-4e62-8844-f6df1659fc07","system_id":"levelo_inurba_marseille","lat":43.29897,"lon":5.43675,"is_reserved":false,"is_disabled":false,"rental_uris":{"android":"levelo://app?vid=59f38118-6a4d-4e62-8844-f6df1659fc07","ios":"levelo://app?vid=59f38118-6a4d-4e62-8844-f6df1659fc07"},"vehicle_type_id":"4","last_reported":1767697878,"current_range_meters":8400,"station_id":"ce4bhpp2rcd13ifvqhfg","pricing_plan_id":"cebpf4jnsgd1na2vs0mg"},{"bike_id":"174e0a88-28ce-484e-8861-adcbe3a929da","system_id":"levelo_inurba_marseille","lat":43.28482,"lon":5.483879,"is_reserved":false,"is_disabled":false,"rental_uris":{"android":"levelo://app?vid=174e0a88-28ce-484e-8861-adcbe3a929da","ios":"levelo://app?vid=174e0a88-28ce-484e-8861-adcbe3a929da"},"vehicle_type_id":"4","last_reported":1767697878,"current_range_meters":8400,"station_id":"st_d3svhcjqgbts73a3dn0g","pricing_plan_id":"cebpf4jnsgd1na2vs0mg"},{"bike_id":"cbbdb88c-7797-41c2-b76b-1fc8d843802d","system_id":"levelo_inurba_marseille","lat":43.29482,"lon":5.43316,"is_reserved":false,"is_disabled":false,"rental_uris":{"android":"levelo://app?vid=cbbdb88c-7797-41c2-b76b-1fc8d843802d","ios":"levelo://app?vid=cbbdb88c-7797-41c2-b76b-1fc8d843802d"},"vehicle_type_id":"4","last_reported":1767697878,"current_range_meters":8400,"station_id":"st_d3j5ugp08ojc73fj9d10","pricing_plan_id":"cebpf4jnsgd1na2vs0mg"},{"bike_id":"b8408ccb-17d0-4ba3-b31e-918a33cf6e7d","system_id":"levelo_inurba_marseille","lat":43.24667,"lon":5.381667,"is_reserved":false,"is_disabled":true,"rental_uris":{"android":"levelo://app?vid=b8408ccb-17d0-4ba3-b31e-918a33cf6e7d","ios":"levelo://app?vid=b8408ccb-17d0-4ba3-b31e-918a33cf6e7d"},"vehicle_type_id":"4","last_reported":1767697878,"current_range_meters":8400,"station_id":"ce4bhih2rcd13ifvqfr0","pricing_plan_id":"cebpf4jnsgd1na2vs0mg"},{"bike_id":"da485c09-58f3-4aa8-b9eb-e5024b97d2e0","system_id":"levelo_inurba_marseille","lat":43.25932,"lon":5.40918,"is_reserved":false,"is_disabled":false,"rental_uris":{"android":"levelo://app?vid=da485c09-58f3-4aa8-b9eb-e5024b97d2e0","ios":"levelo://app?vid=da485c09-58f3-4aa8-b9eb-e5024b97d2e0"},"vehicle_type_id":"4","last_reported":1767697878,"current_range_meters":8400,"station_id":"ce4bhm92rcd13ifvqglg","pricing_plan_id":"cebpf4jnsgd1na2vs0mg"},{"bike_id":"71c53044-c0ca-48e9-968f-ab1ba6524736","system_id":"levelo_inurba_marseille","lat":43.239691,"lon":5.366071,"is_reserved":false,"is_disabled":false,"rental_uris":{"android":"levelo://app?vid=71c53044-c0ca-48e9-968f-ab1ba6524736","ios":"levelo://app?vid=71c53044-c0ca-48e9-968f-ab1ba6524736"},"vehicle_type_id":"4","last_reported":1767697878,"current_range_meters":8400,"station_id":"ce4bhi12rcd13ifvqfp0","pricing_plan_id":"cebpf4jnsgd1na2vs0mg"},{"bike_id":"ea9ca8e8-e6a2-4551-8aab-62d037af9e78","system_id":"levelo_inurba_marseille","lat":43.2449,"lon":5.42553,"is_reserved":false,"is_disabled":false,"rental_uris":{"android":"levelo://app?vid=ea9ca8e8-e6a2-4551-8aab-62d037af9e78","ios":"levelo://app?vid=ea9ca8e8-e6a2-4551-8aab-62d037af9e78"},"vehicle_type_id":"4","last_reported":1767697878,"current_range_meters":8400,"station_id":"st_d4a3vfp97mjs738cd8kg","pricing_plan_id":"cebpf4jnsgd1na2vs0mg"},{"bike_id":"25dbcc45-049f-4343-9bae-ee809280083a","system_id":"levelo_inurba_marseille","lat":43.28365,"lon":5.38499,"is_reserved":false,"is_disabled":false,"rental_uris":{"android":"levelo://app?vid=25dbcc45-049f-4343-9bae-ee809280083a","ios":"levelo://app?vid=25dbcc45-049f-4343-9bae-ee809280083a"},"vehicle_type_id":"4","last_reported":1767697878,"current_range_meters":8400,"station_id":"","pricing_plan_id":"cebpf4jnsgd1na2vs0mg"},{"bike_id":"2b249141-87e2-4eaa-8d21-183c28a1a8bb","system_id":"levelo_inurba_marseille","lat":43.29759,"lon":5.42785,"is_reserved":false,"is_disabled":false,"rental_uris":{"android":"levelo://app?vid=2b249141-87e2-4eaa-8d21-183c28a1a8bb","ios":"levelo://app?vid=2b249141-87e2-4eaa-8d21-183c28a1a8bb"},"vehicle_type_id":"4","last_reported":1767697878,"current_range_meters":8400,"station_id":"st_d3md5207bmas73dh9klg","pricing_plan_id":"cebpf4jnsgd1na2vs0mg"},{"bike_id":"0aad047e-e145-4966-9f7d-ccc03dda2149","system_id":"levelo_inurba_marseille","lat":43.32107,"lon":5.36765,"is_reserved":false,"is_disabled":false,"rental_uris":{"android":"levelo://app?vid=0aad047e-e145-4966-9f7d-ccc03dda2149","ios":"levelo://app?vid=0aad047e-e145-4966-9f7d-ccc03dda2149"},"vehicle_type_id":"4","last_reported":1767697878,"current_range_meters":8400,"station_id":"ce4bhrh2rcd13ifvqhug","pricing_plan_id":"cebpf4jnsgd1na2vs0mg"},{"bike_id":"8d944767-1ef6-43c3-8a98-0f3b9ef41daa","system_id":"levelo_inurba_marseille","lat":43.28404,"lon":5.35015,"is_reserved":false,"is_disabled":false,"rental_uris":{"android":"levelo://app?vid=8d944767-1ef6-43c3-8a98-0f3b9ef41daa","ios":"levelo://app?vid=8d944767-1ef6-43c3-8a98-0f3b9ef41daa"},"vehicle_type_id":"4","last_reported":1767697878,"current_range_meters":8800,"station_id":"ce4bhbh2rcd13ifvqepg","pricing_plan_id":"cebpf4jnsgd1na2vs0mg"},{"bike_id":"997ae0ea-3acb-47e8-812b-a5461f693510","system_id":"levelo_inurba_marseille","lat":43.2794,"lon":5.41038,"is_reserved":false,"is_disabled":false,"rental_uris":{"android":"levelo://app?vid=997ae0ea-3acb-47e8-812b-a5461f693510","ios":"levelo://app?vid=997ae0ea-3acb-47e8-812b-a5461f693510"},"vehicle_type_id":"4","last_reported":1767697878,"current_range_meters":8800,"station_id":"ce4bhnp2rcd13ifvqh0g","pricing_plan_id":"cebpf4jnsgd1na2vs0mg"},{"bike_id":"98dca6e3-26ba-4371-b766-f637ffb9cb2e","system_id":"levelo_inurba_marseille","lat":43.30146,"lon":5.38091,"is_reserved":false,"is_disabled":false,"rental_uris":{"android":"levelo://app?vid=98dca6e3-26ba-4371-b766-f637ffb9cb2e","ios":"levelo://app?vid=98dca6e3-26ba-4371-b766-f637ffb9cb2e"},"vehicle_type_id":"4","last_reported":1767697878,"current_range_meters":8800,"station_id":"ce4bgjp2rcd13ifvqbh0","pricing_plan_id":"cebpf4jnsgd1na2vs0mg"},{"bike_id":"51afda14-939a-47b5-93ab-fadb447682db","system_id":"levelo_inurba_marseille","lat":43.335357,"lon":5.374707,"is_reserved":false,"is_disabled":true,"rental_uris":{"android":"levelo://app?vid=51afda14-939a-47b5-93ab-fadb447682db","ios":"levelo://app?vid=51afda14-939a-47b5-93ab-fadb447682db"},"vehicle_type_id":"4","last_reported":1767697878,"current_range_meters":8800,"station_id":"st_d46tts09ee8s73dlu43g","pricing_plan_id":"cebpf4jnsgd1na2vs0mg"},{"bike_id":"921ef35d-c861-4168-ad49-4406c450f0c5","system_id":"levelo_inurba_marseille","lat":43.28982,"lon":5.37818,"is_reserved":false,"is_disabled":false,"rental_uris":{"android":"levelo://app?vid=921ef35d-c861-4168-ad49-4406c450f0c5","ios":"levelo://app?vid=921ef35d-c861-4168-ad49-4406c450f0c5"},"vehicle_type_id":"4","last_reported":1767697878,"current_range_meters":8800,"station_id":"ce4bh9p2rcd13ifvqed0","pricing_plan_id":"cebpf4jnsgd1na2vs0mg"},{"bike_id":"6a37a502-8a4f-4bc7-83bd-16348e8cf97e","system_id":"levelo_inurba_marseille","lat":43.32094,"lon":5.36774,"is_reserved":false,"is_disabled":false,"rental_uris":{"android":"levelo://app?vid=6a37a502-8a4f-4bc7-83bd-16348e8cf97e","ios":"levelo://app?vid=6a37a502-8a4f-4bc7-83bd-16348e8cf97e"},"vehicle_type_id":"4","last_reported":1767697878,"current_range_meters":8800,"station_id":"ce4bhrh2rcd13ifvqhug","pricing_plan_id":"cebpf4jnsgd1na2vs0mg"},{"bike_id":"4cc62c5b-7b96-458c-93c6-1056b3366a99","system_id":"levelo_inurba_marseille","lat":43.279391,"lon":5.410536,"is_reserved":false,"is_disabled":false,"rental_uris":{"android":"levelo://app?vid=4cc62c5b-7b96-458c-93c6-1056b3366a99","ios":"levelo://app?vid=4cc62c5b-7b96-458c-93c6-1056b3366a99"},"vehicle_type_id":"4","last_reported":1767697878,"current_range_meters":8800,"station_id":"ce4bhnp2rcd13ifvqh0g","pricing_plan_id":"cebpf4jnsgd1na2vs0mg"},{"bike_id":"2af0ce7c-ca3c-4dfe-9ab3-190f23e26597","system_id":"levelo_inurba_marseille","lat":43.238731,"lon":5.365227,"is_reserved":false,"is_disabled":false,"rental_uris":{"android":"levelo://app?vid=2af0ce7c-ca3c-4dfe-9ab3-190f23e26597","ios":"levelo://app?vid=2af0ce7c-ca3c-4dfe-9ab3-190f23e26597"},"vehicle_type_id":"4","last_reported":1767697878,"current_range_meters":8800,"station_id":"","pricing_plan_id":"cebpf4jnsgd1na2vs0mg"},{"bike_id":"1aab9789-bffd-4a51-8860-d68a520871ab","system_id":"levelo_inurba_marseille","lat":43.33555,"lon":5.37463,"is_reserved":false,"is_disabled":true,"rental_uris":{"android":"levelo://app?vid=1aab9789-bffd-4a51-8860-d68a520871ab","ios":"levelo://app?vid=1aab9789-bffd-4a51-8860-d68a520871ab"},"vehicle_type_id":"4","last_reported":1767697878,"current_range_meters":8800,"station_id":"st_d46tts09ee8s73dlu43g","pricing_plan_id":"cebpf4jnsgd1na2vs0mg"},{"bike_id":"a3da1827-148b-41c2-bd04-cbeb3bb21a64","system_id":"levelo_inurba_marseille","lat":43.2794,"lon":5.38731,"is_reserved":false,"is_disabled":false,"rental_uris":{"android":"levelo://app?vid=a3da1827-148b-41c2-bd04-cbeb3bb21a64","ios":"levelo://app?vid=a3da1827-148b-41c2-bd04-cbeb3bb21a64"},"vehicle_type_id":"4","last_reported":1767697878,"current_range_meters":8800,"station_id":"ce4bhg12rcd13ifvqf80","pricing_plan_id":"cebpf4jnsgd1na2vs0mg"},{"bike_id":"cccedf1f-544a-43fc-88c9-0f2af297f59c","system_id":"levelo_inurba_marseille","lat":43.31393,"lon":5.39258,"is_reserved":false,"is_disabled":false,"rental_uris":{"android":"levelo://app?vid=cccedf1f-544a-43fc-88c9-0f2af297f59c","ios":"levelo://app?vid=cccedf1f-544a-43fc-88c9-0f2af297f59c"},"vehicle_type_id":"4","last_reported":1767697878,"current_range_meters":8800,"station_id":"","pricing_plan_id":"cebpf4jnsgd1na2vs0mg"},{"bike_id":"03bb26cc-5abe-463b-b42d-df12dfc80fb1","system_id":"levelo_inurba_marseille","lat":43.27996,"lon":5.40031,"is_reserved":false,"is_disabled":false,"rental_uris":{"android":"levelo://app?vid=03bb26cc-5abe-463b-b42d-df12dfc80fb1","ios":"levelo://app?vid=03bb26cc-5abe-463b-b42d-df12dfc80fb1"},"vehicle_type_id":"4","last_reported":1767697878,"current_range_meters":8800,"station_id":"ce4bho92rcd13ifvqh4g","pricing_plan_id":"cebpf4jnsgd1na2vs0mg"},{"bike_id":"722cbb73-0ec9-4f08-89c7-c23af9aed8be","system_id":"levelo_inurba_marseille","lat":43.30512,"lon":5.36538,"is_reserved":false,"is_disabled":false,"rental_uris":{"android":"levelo://app?vid=722cbb73-0ec9-4f08-89c7-c23af9aed8be","ios":"levelo://app?vid=722cbb73-0ec9-4f08-89c7-c23af9aed8be"},"vehicle_type_id":"4","last_reported":1767697878,"current_range_meters":8800,"station_id":"","pricing_plan_id":"cebpf4jnsgd1na2vs0mg"},{"bike_id":"48d4c45e-d2a8-4c04-8400-ce8bb7d75548","system_id":"levelo_inurba_marseille","lat":43.25939,"lon":5.4091,"is_reserved":false,"is_disabled":false,"rental_uris":{"android":"levelo://app?vid=48d4c45e-d2a8-4c04-8400-ce8bb7d75548","ios":"levelo://app?vid=48d4c45e-d2a8-4c04-8400-ce8bb7d75548"},"vehicle_type_id":"4","last_reported":1767697878,"current_range_meters":8800,"station_id":"ce4bhm92rcd13ifvqglg","pricing_plan_id":"cebpf4jnsgd1na2vs0mg"},{"bike_id":"c68e07a3-b971-404f-9a27-5676e3de454a","system_id":"levelo_inurba_marseille","lat":43.309452,"lon":5.390329,"is_reserved":false,"is_disabled":false,"rental_uris":{"android":"levelo://app?vid=c68e07a3-b971-404f-9a27-5676e3de454a","ios":"levelo://app?vid=c68e07a3-b971-404f-9a27-5676e3de454a"},"vehicle_type_id":"4","last_reported":1767697878,"current_range_meters":8800,"station_id":"","pricing_plan_id":"cebpf4jnsgd1na2vs0mg"},{"bike_id":"3a1a012f-e2cb-489c-8aaa-49659e7dafd1","system_id":"levelo_inurba_marseille","lat":43.292277,"lon":5.360634,"is_reserved":false,"is_disabled":false,"rental_uris":{"android":"levelo://app?vid=3a1a012f-e2cb-489c-8aaa-49659e7dafd1","ios":"levelo://app?vid=3a1a012f-e2cb-489c-8aaa-49659e7dafd1"},"vehicle_type_id":"4","last_reported":1767697878,"current_range_meters":8800,"station_id":"ce4bhbh2rcd13ifvqeqg","pricing_plan_id":"cebpf4jnsgd1na2vs0mg"},{"bike_id":"d2af2eb3-9ddc-491a-9ca6-8130c2050338","system_id":"levelo_inurba_marseille","lat":43.26678,"lon":5.3827,"is_reserved":false,"is_disabled":false,"rental_uris":{"android":"levelo://app?vid=d2af2eb3-9ddc-491a-9ca6-8130c2050338","ios":"levelo://app?vid=d2af2eb3-9ddc-491a-9ca6-8130c2050338"},"vehicle_type_id":"4","last_reported":1767697878,"current_range_meters":8800,"station_id":"ce4bhg92rcd13ifvqf90","pricing_plan_id":"cebpf4jnsgd1na2vs0mg"},{"bike_id":"deb370eb-6d0d-4eb0-bd01-5a69594d18dc","system_id":"levelo_inurba_marseille","lat":43.2406,"lon":5.3775,"is_reserved":false,"is_disabled":false,"rental_uris":{"android":"levelo://app?vid=deb370eb-6d0d-4eb0-bd01-5a69594d18dc","ios":"levelo://app?vid=deb370eb-6d0d-4eb0-bd01-5a69594d18dc"},"vehicle_type_id":"4","last_reported":1767697878,"current_range_meters":8800,"station_id":"ce4bhnp2rcd13ifvqgvg","pricing_plan_id":"cebpf4jnsgd1na2vs0mg"},{"bike_id":"bec6c24a-06be-45cf-9bed-193788bd3b60","system_id":"levelo_inurba_marseille","lat":43.3133,"lon":5.36738,"is_reserved":false,"is_disabled":false,"rental_uris":{"android":"levelo://app?vid=bec6c24a-06be-45cf-9bed-193788bd3b60","ios":"levelo://app?vid=bec6c24a-06be-45cf-9bed-193788bd3b60"},"vehicle_type_id":"4","last_reported":1767697878,"current_range_meters":8800,"station_id":"ce4bgr92rcd13ifvqc6g","pricing_plan_id":"cebpf4jnsgd1na2vs0mg"},{"bike_id":"9b21424a-1587-45e4-bf2a-4284accabf77","system_id":"levelo_inurba_marseille","lat":43.28448,"lon":5.48421,"is_reserved":false,"is_disabled":false,"rental_uris":{"android":"levelo://app?vid=9b21424a-1587-45e4-bf2a-4284accabf77","ios":"levelo://app?vid=9b21424a-1587-45e4-bf2a-4284accabf77"},"vehicle_type_id":"4","last_reported":1767697878,"current_range_meters":8800,"station_id":"","pricing_plan_id":"cebpf4jnsgd1na2vs0mg"},{"bike_id":"0e202c46-7f0e-4006-8a38-b7eb44aa07af","system_id":"levelo_inurba_marseille","lat":43.265,"lon":5.39559,"is_reserved":false,"is_disabled":false,"rental_uris":{"android":"levelo://app?vid=0e202c46-7f0e-4006-8a38-b7eb44aa07af","ios":"levelo://app?vid=0e202c46-7f0e-4006-8a38-b7eb44aa07af"},"vehicle_type_id":"4","last_reported":1767697878,"current_range_meters":9200,"station_id":"ce4bhi12rcd13ifvqfq0","pricing_plan_id":"cebpf4jnsgd1na2vs0mg"},{"bike_id":"6cfe61d6-fc1a-4eb6-bdce-b76472120e6d","system_id":"levelo_inurba_marseille","lat":43.23166,"lon":5.43727,"is_reserved":false,"is_disabled":false,"rental_uris":{"android":"levelo://app?vid=6cfe61d6-fc1a-4eb6-bdce-b76472120e6d","ios":"levelo://app?vid=6cfe61d6-fc1a-4eb6-bdce-b76472120e6d"},"vehicle_type_id":"4","last_reported":1767697878,"current_range_meters":9200,"station_id":"ce4bhmp2rcd13ifvqgog","pricing_plan_id":"cebpf4jnsgd1na2vs0mg"},