{"last_updated":1708247205,"ttl":30,"version":"2.2","data":{"bikes":[{"bike_id":"2fc242d5-7adc-4d67-b8b5-979ee24d78bc","system_id":"levelo_inurba_marseille","lat":43.31341,"lon":5.367098,"is_reserved":false,"is_disabled":false,"rental_uris":{"android":"levelo://app?vid=2fc242d5-7adc-4d67-b8b5-979ee24d78bc","ios":"levelo://app?vid=2fc242d5-7adc-4d67-b8b5-979ee24d78bc"},"vehicle_type_id":"4","last_reported":1708247205,"current_range_meters":28000,"station_id":"ce4bgr92rcd13ifvqc6g","pricing_plan_id":"cebpf4jnsgd1na2vs0mg"},{"bike_id":"4ab58574-8632-4e3f-9bf3-c712b162b900","system_id":"levelo_inurba_marseille","lat":43.31238,"lon":5.36857,"is_reserved":false,"is_disabled":false,"rental_uris":{"android":"levelo://app?vid=4ab58574-8632-4e3f-9bf3-c712b162b900","ios":"levelo://app?vid=4ab58574-8632-4e3f-9bf3-c712b162b900"},"vehicle_type_id":"4","last_reported":1708247205,"current_range_meters":31200,"station_id":"ce4bgl92rcd13ifvqbq0","pricing_plan_id":"cebpf4jnsgd1na2vs0mg"},{"bike_id":"40c0921e-8d02-42e7-8096-6e58d09f932a","system_id":"levelo_inurba_marseille","lat":43.309076,"lon":5.368465,"is_reserved":false,"is_disabled":false,"rental_uris":{"android":"levelo://app?vid=40c0921e-8d02-42e7-8096-6e58d09f932a","ios":"levelo://app?vid=40c0921e-8d02-42e7-8096-6e58d09f932a"},"vehicle_type_id":"4","last_reported":1708247205,"current_range_meters":22800,"station_id":"ce4bgn92rcd13ifvqbvg","pricing_plan_id":"cebpf4jnsgd1na2vs0mg"},{"bike_id":"6a4a8ad8-c066-41df-bfc8-5d50cac13a3c","system_id":"levelo_inurba_marseille","lat":43.309076,"lon":5.368465,"is_reserved":false,"is_disabled":false,"rental_uris":{"android":"levelo://app?vid=6a4a8ad8-c066-41df-bfc8-5d50cac13a3c","ios":"levelo://app?vid=6a4a8ad8-c066-41df-bfc8-5d50cac13a3c"},"vehicle_type_id":"4","last_reported":1708247205,"current_range_meters":26000,"station_id":"ce4bgn92rcd13ifvqbvg","pricing_plan_id":"cebpf4jnsgd1na2vs0mg"},{"bike_id":"9d89642d-87cc-467c-8987-97e2fb96367c","system_id":"levelo_inurba_marseille","lat":43.314811,"lon":5.373103,"is_reserved":false,"is_disabled":false,"rental_uris":{"android":"levelo://app?vid=9d89642d-87cc-467c-8987-97e2fb96367c","ios":"levelo://app?vid=9d89642d-87cc-467c-8987-97e2fb96367c"},"vehicle_type_id":"4","last_reported":1708247205,"current_range_meters":31200,"station_id":"ce4bgt12rcd13ifvqcd0","pricing_plan_id":"cebpf4jnsgd1na2vs0mg"},{"bike_id":"0eee4871-674e-4ad6-99bf-fa6f92b80c0c","system_id":"levelo_inurba_marseille","lat":43.31487,"lon":5.373,"is_reserved":false,"is_disabled":false,"rental_uris":{"android":"levelo://app?vid=0eee4871-674e-4ad6-99bf-fa6f92b80c0c","ios":"levelo://app?vid=0eee4871-674e-4ad6-99bf-fa6f92b80c0c"},"vehicle_type_id":"4","last_reported":1708247205,"current_range_meters":4000,"station_id":"ce4bgt12rcd13ifvqcd0","pricing_plan_id":"cebpf4jnsgd1na2vs0mg"},{"bike_id":"a6a76c2e-a816-4920-8e5b-a469e7a809ac","system_id":"levelo_inurba_marseille","lat":43.314811,"lon":5.373103,"is_reserved":false,"is_disabled":false,"rental_uris":{"android":"levelo://app?vid=a6a76c2e-a816-4920-8e5b-a469e7a809ac","ios":"levelo://app?vid=a6a76c2e-a816-4920-8e5b-a469e7a809ac"},"vehicle_type_id":"4","last_reported":1708247205,"current_range_meters":30000,"station_id":"ce4bgt12rcd13ifvqcd0","pricing_plan_id":"cebpf4jnsgd1na2vs0mg"},{"bike_id":"ff59d9af-d22e-44fc-abd7-8d69dca55ac2","system_id":"levelo_inurba_marseille","lat":43.31483,"lon":5.37304,"is_reserved":false,"is_disabled":false,"rental_uris":{"android":"levelo://app?vid=ff59d9af-d22e-44fc-abd7-8d69dca55ac2","ios":"levelo://app?vid=ff59d9af-d22e-44fc-abd7-8d69dca55ac2"},"vehicle_type_id":"4","last_reported":1708247205,"current_range_meters":0,"station_id":"ce4bgt12rcd13ifvqcd0","pricing_plan_id":"cebpf4jnsgd1na2vs0mg"},{"bike_id":"67b0a4a8-3623-4275-8afc-eff6e765e136","system_id":"levelo_inurba_marseille","lat":43.31492,"lon":5.373,"is_reserved":false,"is_disabled":false,"rental_uris":{"android":"levelo://app?vid=67b0a4a8-3623-4275-8afc-eff6e765e136","ios":"levelo://app?vid=67b0a4a8-3623-4275-8afc-eff6e765e136"},"vehicle_type_id":"4","last_reported":1708247205,"current_range_meters":0,"station_id":"ce4bgt12rcd13ifvqcd0","pricing_plan_id":"cebpf4jnsgd1na2vs0mg"},{"bike_id":"39f3aeff-4a4d-44f9-a4bb-1cbcb2634c1b","system_id":"levelo_inurba_marseille","lat":43.31481,"lon":5.37308,"is_reserved":false,"is_disabled":false,"rental_uris":{"android":"levelo://app?vid=39f3aeff-4a4d-44f9-a4bb-1cbcb2634c1b","ios":"levelo://app?vid=39f3aeff-4a4d-44f9-a4bb-1cbcb2634c1b"},"vehicle_type_id":"4","last_reported":1708247205,"current_range_meters":28000,"station_id":"ce4bgt12rcd13ifvqcd0","pricing_plan_id":"cebpf4jnsgd1na2vs0mg"},{"bike_id":"7b4b2a42-0421-49af-b5b0-6d9380b66497","system_id":"levelo_inurba_marseille","lat":43.3149,"lon":5.37303,"is_reserved":false,"is_disabled":false,"rental_uris":{"android":"levelo://app?vid=7b4b2a42-0421-49af-b5b0-6d9380b66497","ios":"levelo://app?vid=7b4b2a42-0421-49af-b5b0-6d9380b66497"},"vehicle_type_id":"4","last_reported":1708247205,"current_range_meters":4800,"station_id":"ce4bgt12rcd13ifvqcd0","pricing_plan_id":"cebpf4jnsgd1na2vs0mg"},{"bike_id":"dfff29cf-c672-41f6-8058-b9b6db29cc9c","system_id":"levelo_inurba_marseille","lat":43.31486,"lon":5.37306,"is_reserved":false,"is_disabled":false,"rental_uris":{"android":"levelo://app?vid=dfff29cf-c672-41f6-8058-b9b6db29cc9c","ios":"levelo://app?vid=dfff29cf-c672-41f6-8058-b9b6db29cc9c"},"vehicle_type_id":"4","last_reported":1708247205,"current_range_meters":12400,"station_id":"ce4bgt12rcd13ifvqcd0","pricing_plan_id":"cebpf4jnsgd1na2vs0mg"},{"bike_id":"d1a4d71f-901f-424c-9fa4-8e4277e4520f","system_id":"levelo_inurba_marseille","lat":43.314811,"lon":5.373104,"is_reserved":false,"is_disabled":false,"rental_uris":{"android":"levelo://app?vid=d1a4d71f-901f-424c-9fa4-8e4277e4520f","ios":"levelo://app?vid=d1a4d71f-901f-424c-9fa4-8e4277e4520f"},"vehicle_type_id":"4","last_reported":1708247205,"current_range_meters":15200,"station_id":"ce4bgt12rcd13ifvqcd0","pricing_plan_id":"cebpf4jnsgd1na2vs0mg"},{"bike_id":"69f716fc-49e0-42d8-9b96-1cde865d424a","system_id":"levelo_inurba_marseille","lat":43.31492,"lon":5.37304,"is_reserved":false,"is_disabled":false,"rental_uris":{"android":"levelo://app?vid=69f716fc-49e0-42d8-9b96-1cde865d424a","ios":"levelo://app?vid=69f716fc-49e0-42d8-9b96-1cde865d424a"},"vehicle_type_id":"4","last_reported":1708247205,"current_range_meters":11600,"station_id":"ce4bgt12rcd13ifvqcd0","pricing_plan_id":"cebpf4jnsgd1na2vs0mg"},{"bike_id":"98a39b91-2071-4721-a638-8099ddd8e4b1","system_id":"levelo_inurba_marseille","lat":43.314811,"lon":5.373104,"is_reserved":false,"is_disabled":false,"rental_uris":{"android":"levelo://app?vid=98a39b91-2071-4721-a638-8099ddd8e4b1","ios":"levelo://app?vid=98a39b91-2071-4721-a638-8099ddd8e4b1"},"vehicle_type_id":"4","last_reported":1708247205,"current_range_meters":30400,"station_id":"ce4bgt12rcd13ifvqcd0","pricing_plan_id":"cebpf4jnsgd1na2vs0mg"},{"bike_id":"01f36d29-5d5c-4118-b53b-a7a7bb365cc0","system_id":"levelo_inurba_marseille","lat":43.31492,"lon":5.37305,"is_reserved":false,"is_disabled":false,"rental_uris":{"android":"levelo://app?vid=01f36d29-5d5c-4118-b53b-a7a7bb365cc0","ios":"levelo://app?vid=01f36d29-5d5c-4118-b53b-a7a7bb365cc0"},"vehicle_type_id":"4","last_reported":1708247205,"current_range_meters":18000,"station_id":"ce4bgt12rcd13ifvqcd0","pricing_plan_id":"cebpf4jnsgd1na2vs0mg"},{"bike_id":"8015cc05-d254-40c9-b7df-695bad8fa8a7","system_id":"levelo_inurba_marseille","lat":43.31487,"lon":5.37309,"is_reserved":false,"is_disabled":false,"rental_uris":{"android":"levelo://app?vid=8015cc05-d254-40c9-b7df-695bad8fa8a7","ios":"levelo://app?vid=8015cc05-d254-40c9-b7df-695bad8fa8a7"},"vehicle_type_id":"4","last_reported":1708247205,"current_range_meters":10000,"station_id":"ce4bgt12rcd13ifvqcd0","pricing_plan_id":"cebpf4jnsgd1na2vs0mg"},{"bike_id":"a760be62-657f-4868-b0fc-0c9d5682c06e","system_id":"levelo_inurba_marseille","lat":43.314811,"lon":5.373104,"is_reserved":false,"is_disabled":false,"rental_uris":{"android":"levelo://app?vid=a760be62-657f-4868-b0fc-0c9d5682c06e","ios":"levelo://app?vid=a760be62-657f-4868-b0fc-0c9d5682c06e"},"vehicle_type_id":"4","last_reported":1708247205,"current_range_meters":17600,"station_id":"ce4bgt12rcd13ifvqcd0","pricing_plan_id":"cebpf4jnsgd1na2vs0mg"},{"bike_id":"08fa8022-feb4-46a7-9fc5-10381dcad4c4","system_id":"levelo_inurba_marseille","lat":43.314811,"lon":5.373104,"is_reserved":false,"is_disabled":false,"rental_uris":{"android":"levelo://app?vid=08fa8022-feb4-46a7-9fc5-10381dcad4c4","ios":"levelo://app?vid=08fa8022-feb4-46a7-9fc5-10381dcad4c4"},"vehicle_type_id":"4","last_reported":1708247205,"current_range_meters":5600,"station_id":"ce4bgt12rcd13ifvqcd0","pricing_plan_id":"cebpf4jnsgd1na2vs0mg"},{"bike_id":"9f4461e5-b334-4918-9f7c-f0cb2e327c64","system_id":"levelo_inurba_marseille","lat":43.314811,"lon":5.373104,"is_reserved":false,"is_disabled":false,"rental_uris":{"android":"levelo://app?vid=9f4461e5-b334-4918-9f7c-f0cb2e327c64","ios":"levelo://app?vid=9f4461e5-b334-4918-9f7c-f0cb2e327c64"},"vehicle_type_id":"4","last_reported":1708247205,"current_range_meters":2400,"station_id":"ce4bgt12rcd13ifvqcd0","pricing_plan_id":"cebpf4jnsgd1na2vs0mg"},{"bike_id":"f922e274-1e5d-4e92-964a-f072c79113bf","system_id":"levelo_inurba_marseille","lat":43.305368,"lon":5.367343,"is_reserved":false,"is_disabled":false,"rental_uris":{"android":"levelo://app?vid=f922e274-1e5d-4e92-964a-f072c79113bf","ios":"levelo://app?vid=f922e274-1e5d-4e92-964a-f072c79113bf"},"vehicle_type_id":"4","last_reported":1708247205,"current_range_meters":4400,"station_id":"ce4bgrp2rcd13ifvqc9g","pricing_plan_id":"cebpf4jnsgd1na2vs0mg"},{"bike_id":"4eb16f23-af71-4920-866a-a9c47ae575c5","system_id":"levelo_inurba_marseille","lat":43.305368,"lon":5.367343,"is_reserved":false,"is_disabled":false,"rental_uris":{"android":"levelo://app?vid=4eb16f23-af71-4920-866a-a9c47ae575c5","ios":"levelo://app?vid=4eb16f23-af71-4920-866a-a9c47ae575c5"},"vehicle_type_id":"4","last_reported":1708247205,"current_range_meters":19600,"station_id":"ce4bgrp2rcd13ifvqc9g","pricing_plan_id":"cebpf4jnsgd1na2vs0mg"},{"bike_id":"d019b441-80b7-4642-a15f-62d8ae29cc33","system_id":"levelo_inurba_marseille","lat":43.305368,"lon":5.367343,"is_reserved":false,"is_disabled":false,"rental_uris":{"android":"levelo://app?vid=d019b441-80b7-4642-a15f-62d8ae29cc33","ios":"levelo://app?vid=d019b441-80b7-4642-a15f-62d8ae29cc33"},"vehicle_type_id":"4","last_reported":1708247205,"current_range_meters":20800,"station_id":"ce4bgrp2rcd13ifvqc9g","pricing_plan_id":"cebpf4jnsgd1na2vs0mg"},{"bike_id":"a90d3993-98b1-41d6-87c9-33aac45a8138","system_id":"levelo_inurba_marseille","lat":43.305706,"lon":5.365654,"is_reserved":false,"is_disabled":false,"rental_uris":{"android":"levelo://app?vid=a90d3993-98b1-41d6-87c9-33aac45a8138","ios":"levelo://app?vid=a90d3993-98b1-41d6-87c9-33aac45a8138"},"vehicle_type_id":"4","last_reported":1708247205,"current_range_meters":24400,"station_id":"ce4bgs12rcd13ifvqcag","pricing_plan_id":"cebpf4jnsgd1na2vs0mg"},{"bike_id":"dc18e158-9839-40af-b529-3f408901819f","system_id":"levelo_inurba_marseille","lat":43.305706,"lon":5.365654,"is_reserved":false,"is_disabled":false,"rental_uris":{"android":"levelo://app?vid=dc18e158-9839-40af-b529-3f408901819f","ios":"levelo://app?vid=dc18e158-9839-40af-b529-3f408901819f"},"vehicle_type_id":"4","last_reported":1708247205,"current_range_meters":25200,"station_id":"ce4bgs12rcd13ifvqcag","pricing_plan_id":"cebpf4jnsgd1na2vs0mg"},{"bike_id":"77ef9079-3eed-4b49-ab72-1555173e70f6","system_id":"levelo_inurba_marseille","lat":43.305706,"lon":5.365654,"is_reserved":false,"is_disabled":false,"rental_uris":{"android":"levelo://app?vid=77ef9079-3eed-4b49-ab72-1555173e70f6","ios":"levelo://app?vid=77ef9079-3eed-4b49-ab72-1555173e70f6"},"vehicle_type_id":"4","last_reported":1708247205,"current_range_meters":18800,"station_id":"ce4bgs12rcd13ifvqcag","pricing_plan_id":"cebpf4jnsgd1na2vs0mg"},{"bike_id":"b38255d7-242f-4db6-b9d4-bb9a8aee4566","system_id":"levelo_inurba_marseille","lat":43.305368,"lon":5.367343,"is_reserved":false,"is_disabled":false,"rental_uris":{"android":"levelo://app?vid=b38255d7-242f-4db6-b9d4-bb9a8aee4566","ios":"levelo://app?vid=b38255d7-242f-4db6-b9d4-bb9a8aee4566"},"vehicle_type_id":"4","last_reported":1708247205,"current_range_meters":30000,"station_id":"ce4bgrp2rcd13ifvqc9g","pricing_plan_id":"cebpf4jnsgd1na2vs0mg"},{"bike_id":"50c0f233-e166-40b3-8da8-a946ba73a22a","system_id":"levelo_inurba_marseille","lat":43.305368,"lon":5.367343,"is_reserved":false,"is_disabled":false,"rental_uris":{"android":"levelo://app?vid=50c0f233-e166-40b3-8da8-a946ba73a22a","ios":"levelo://app?vid=50c0f233-e166-40b3-8da8-a946ba73a22a"},"vehicle_type_id":"4","last_reported":1708247205,"current_range_meters":28400,"station_id":"ce4bgrp2rcd13ifvqc9g","pricing_plan_id":"cebpf4jnsgd1na2vs0mg"},{"bike_id":"2f8f83d8-9c48-4b0b-98a6-445af5577c3d","system_id":"levelo_inurba_marseille","lat":43.305989,"lon":5.37225,"is_reserved":false,"is_disabled":false,"rental_uris":{"android":"levelo://app?vid=2f8f83d8-9c48-4b0b-98a6-445af5577c3d","ios":"levelo://app?vid=2f8f83d8-9c48-4b0b-98a6-445af5577c3d"},"vehicle_type_id":"4","last_reported":1708247205,"current_range_meters":27600,"station_id":"ce4bgqh2rcd13ifvqc4g","pricing_plan_id":"cebpf4jnsgd1na2vs0mg"},{"bike_id":"f5ecdad4-acd7-45f7-84b8-bcbd35e64185","system_id":"levelo_inurba_marseille","lat":43.305989,"lon":5.37225,"is_reserved":false,"is_disabled":false,"rental_uris":{"android":"levelo://app?vid=f5ecdad4-acd7-45f7-84b8-bcbd35e64185","ios":"levelo://app?vid=f5ecdad4-acd7-45f7-84b8-bcbd35e64185"},"vehicle_type_id":"4","last_reported":1708247205,"current_range_meters":15200,"station_id":"ce4bgqh2rcd13ifvqc4g","pricing_plan_id":"cebpf4jnsgd1na2vs0mg"},{"bike_id":"2b750084-6271-40e2-aeb2-b15fbcab3ed3","system_id":"levelo_inurba_marseille","lat":43.311125,"lon":5.377624,"is_reserved":false,"is_disabled":false,"rental_uris":{"android":"levelo://app?vid=2b750084-6271-40e2-aeb2-b15fbcab3ed3","ios":"levelo://app?vid=2b750084-6271-40e2-aeb2-b15fbcab3ed3"},"vehicle_type_id":"4","last_reported":1708247205,"current_range_meters":28400,"station_id":"ce4bgt92rcd13ifvqcg0","pricing_plan_id":"cebpf4jnsgd1na2vs0mg"},{"bike_id":"a430919c-6b1e-4237-82ca-81ed56dc6de3","system_id":"levelo_inurba_marseille","lat":43.311125,"lon":5.377624,"is_reserved":false,"is_disabled":false,"rental_uris":{"android":"levelo://app?vid=a430919c-6b1e-4237-82ca-81ed56dc6de3","ios":"levelo://app?vid=a430919c-6b1e-4237-82ca-81ed56dc6de3"},"vehicle_type_id":"4","last_reported":1708247205,"current_range_meters":0,"station_id":"ce4bgt92rcd13ifvqcg0","pricing_plan_id":"cebpf4jnsgd1na2vs0mg"},{"bike_id":"cfa1ab6b-5b88-47df-98a2-2583bd6d1002","system_id":"levelo_inurba_marseille","lat":43.311198,"lon":5.377724,"is_reserved":false,"is_disabled":false,"rental_uris":{"android":"levelo://app?vid=cfa1ab6b-5b88-47df-98a2-2583bd6d1002","ios":"levelo://app?vid=cfa1ab6b-5b88-47df-98a2-2583bd6d1002"},"vehicle_type_id":"4","last_reported":1708247205,"current_range_meters":25600,"station_id":"ce4bgt92rcd13ifvqcg0","pricing_plan_id":"cebpf4jnsgd1na2vs0mg"},{"bike_id":"954f3f29-d6b5-49ba-bba3-acab1ac5cba9","system_id":"levelo_inurba_marseille","lat":43.311125,"lon":5.377624,"is_reserved":false,"is_disabled":false,"rental_uris":{"android":"levelo://app?vid=954f3f29-d6b5-49ba-bba3-acab1ac5cba9","ios":"levelo://app?vid=954f3f29-d6b5-49ba-bba3-acab1ac5cba9"},"vehicle_type_id":"4","last_reported":1708247205,"current_range_meters":25600,"station_id":"ce4bgt92rcd13ifvqcg0","pricing_plan_id":"cebpf4jnsgd1na2vs0mg"},{"bike_id":"2dc2d591-7abf-4522-85df-20f335ed7c9b","system_id":"levelo_inurba_marseille","lat":43.31113,"lon":5.37774,"is_reserved":false,"is_disabled":false,"rental_uris":{"android":"levelo://app?vid=2dc2d591-7abf-4522-85df-20f335ed7c9b","ios":"levelo://app?vid=2dc2d591-7abf-4522-85df-20f335ed7c9b"},"vehicle_type_id":"4","last_reported":1708247205,"current_range_meters":30400,"station_id":"ce4bgt92rcd13ifvqcg0","pricing_plan_id":"cebpf4jnsgd1na2vs0mg"},{"bike_id":"ebb3c91b-85d7-4022-90fb-cc8148c12d37","system_id":"levelo_inurba_marseille","lat":43.31117,"lon":5.37777,"is_reserved":false,"is_disabled":false,"rental_uris":{"android":"levelo://app?vid=ebb3c91b-85d7-4022-90fb-cc8148c12d37","ios":"levelo://app?vid=ebb3c91b-85d7-4022-90fb-cc8148c12d37"},"vehicle_type_id":"4","last_reported":1708247205,"current_range_meters":3600,"station_id":"ce4bgt92rcd13ifvqcg0","pricing_plan_id":"cebpf4jnsgd1na2vs0mg"},{"bike_id":"3495bbab-0c30-4f93-b5f2-64f1fdc983ba","system_id":"levelo_inurba_marseille","lat":43.31118,"lon":5.3778,"is_reserved":false,"is_disabled":false,"rental_uris":{"android":"levelo://app?vid=3495bbab-0c30-4f93-b5f2-64f1fdc983ba","ios":"levelo://app?vid=3495bbab-0c30-4f93-b5f2-64f1fdc983ba"},"vehicle_type_id":"4","last_reported":1708247205,"current_range_meters":11600,"station_id":"ce4bgt92rcd13ifvqcg0","pricing_plan_id":"cebpf4jnsgd1na2vs0mg"},{"bike_id":"4e6bbc99-4f3b-493c-baef-bc5b2362ad20","system_id":"levelo_inurba_marseille","lat":43.311194,"lon":5.377826,"is_reserved":false,"is_disabled":false,"rental_uris":{"android":"levelo://app?vid=4e6bbc99-4f3b-493c-baef-bc5b2362ad20","ios":"levelo://app?vid=4e6bbc99-4f3b-493c-baef-bc5b2362ad20"},"vehicle_type_id":"4","last_reported":1708247205,"current_range_meters":28000,"station_id":"ce4bgt92rcd13ifvqcg0","pricing_plan_id":"cebpf4jnsgd1na2vs0mg"},{"bike_id":"6b1941f1-ba8b-4cb9-9f70-6ba89fa48a9f","system_id":"levelo_inurba_marseille","lat":43.30776,"lon":5.37655,"is_reserved":false,"is_disabled":false,"rental_uris":{"android":"levelo://app?vid=6b1941f1-ba8b-4cb9-9f70-6ba89fa48a9f","ios":"levelo://app?vid=6b1941f1-ba8b-4cb9-9f70-6ba89fa48a9f"},"vehicle_type_id":"4","last_reported":1708247205,"current_range_meters":26400,"station_id":"ce4bgv92rcd13ifvqcq0","pricing_plan_id":"cebpf4jnsgd1na2vs0mg"},{"bike_id":"b6579e27-9948-4641-a834-a849228b24af","system_id":"levelo_inurba_marseille","lat":43.317075,"lon":5.377367,"is_reserved":false,"is_disabled":false,"rental_uris":{"android":"levelo://app?vid=b6579e27-9948-4641-a834-a849228b24af","ios":"levelo://app?vid=b6579e27-9948-4641-a834-a849228b24af"},"vehicle_type_id":"4","last_reported":1708247205,"current_range_meters":28800,"station_id":"ce4bgth2rcd13ifvqch0","pricing_plan_id":"cebpf4jnsgd1na2vs0mg"},{"bike_id":"861280bd-1687-45b7-be21-faee3b5865c2","system_id":"levelo_inurba_marseille","lat":43.317075,"lon":5.377367,"is_reserved":false,"is_disabled":false,"rental_uris":{"android":"levelo://app?vid=861280bd-1687-45b7-be21-faee3b5865c2","ios":"levelo://app?vid=861280bd-1687-45b7-be21-faee3b5865c2"},"vehicle_type_id":"4","last_reported":1708247205,"current_range_meters":23200,"station_id":"ce4bgth2rcd13ifvqch0","pricing_plan_id":"cebpf4jnsgd1na2vs0mg"},{"bike_id":"2baf9833-466d-461e-aa23-00f53b896b86","system_id":"levelo_inurba_marseille","lat":43.317075,"lon":5.377367,"is_reserved":false,"is_disabled":false,"rental_uris":{"android":"levelo://app?vid=2baf9833-466d-461e-aa23-00f53b896b86","ios":"levelo://app?vid=2baf9833-466d-461e-aa23-00f53b896b86"},"vehicle_type_id":"4","last_reported":1708247205,"current_range_meters":9200,"station_id":"ce4bgth2rcd13ifvqch0","pricing_plan_id":"cebpf4jnsgd1na2vs0mg"},{"bike_id":"9b49c6fe-9a70-421f-a95e-2225829fdb6d","system_id":"levelo_inurba_marseille","lat":43.30304,"lon":5.368987,"is_reserved":false,"is_disabled":false,"rental_uris":{"android":"levelo://app?vid=9b49c6fe-9a70-421f-a95e-2225829fdb6d","ios":"levelo://app?vid=9b49c6fe-9a70-421f-a95e-2225829fdb6d"},"vehicle_type_id":"4","last_reported":1708247205,"current_range_meters":23600,"station_id":"ce4bgqh2rcd13ifvqc5g","pricing_plan_id":"cebpf4jnsgd1na2vs0mg"},{"bike_id":"6fa326ab-16cd-4d10-a6fe-e8c925472849","system_id":"levelo_inurba_marseille","lat":43.30304,"lon":5.368987,"is_reserved":false,"is_disabled":false,"rental_uris":{"android":"levelo://app?vid=6fa326ab-16cd-4d10-a6fe-e8c925472849","ios":"levelo://app?vid=6fa326ab-16cd-4d10-a6fe-e8c925472849"},"vehicle_type_id":"4","last_reported":1708247205,"current_range_meters":10000,"station_id":"ce4bgqh2rcd13ifvqc5g","pricing_plan_id":"cebpf4jnsgd1na2vs0mg"},{"bike_id":"bdd8ca95-cfb8-4541-9867-c17848173b3b","system_id":"levelo_inurba_marseille","lat":43.315293,"lon":5.380349,"is_reserved":false,"is_disabled":false,"rental_uris":{"android":"levelo://app?vid=bdd8ca95-cfb8-4541-9867-c17848173b3b","ios":"levelo://app?vid=bdd8ca95-cfb8-4541-9867-c17848173b3b"},"vehicle_type_id":"4","last_reported":1708247205,"current_range_meters":22000,"station_id":"ce4bhsp2rcd13ifvqi50","pricing_plan_id":"cebpf4jnsgd1na2vs0mg"},{"bike_id":"e9be2605-fcb5-44db-bd43-584adaeae401","system_id":"levelo_inurba_marseille","lat":43.31538,"lon":5.38028,"is_reserved":false,"is_disabled":false,"rental_uris":{"android":"levelo://app?vid=e9be2605-fcb5-44db-bd43-584adaeae401","ios":"levelo://app?vid=e9be2605-fcb5-44db-bd43-584adaeae401"},"vehicle_type_id":"4","last_reported":1708247205,"current_range_meters":16400,"station_id":"ce4bhsp2rcd13ifvqi50","pricing_plan_id":"cebpf4jnsgd1na2vs0mg"},{"bike_id":"0706b49d-9b48-4de6-a6b3-a043e1af07ed","system_id":"levelo_inurba_marseille","lat":43.308012,"lon":5.381511,"is_reserved":false,"is_disabled":false,"rental_uris":{"android":"levelo://app?vid=0706b49d-9b48-4de6-a6b3-a043e1af07ed","ios":"levelo://app?vid=0706b49d-9b48-4de6-a6b3-a043e1af07ed"},"vehicle_type_id":"4","last_reported":1708247205,"current_range_meters":28800,"station_id":"ce4bgt12rcd13ifvqce0","pricing_plan_id":"cebpf4jnsgd1na2vs0mg"},{"bike_id":"334e7c46-ccba-455d-a625-f961f5e37bb1","system_id":"levelo_inurba_marseille","lat":43.308012,"lon":5.381511,"is_reserved":false,"is_disabled":false,"rental_uris":{"android":"levelo://app?vid=334e7c46-ccba-455d-a625-f961f5e37bb1","ios":"levelo://app?vid=334e7c46-ccba-455d-a625-f961f5e37bb1"},"vehicle_type_id":"4","last_reported":1708247205,"current_range_meters":31200,"station_id":"ce4bgt12rcd13ifvqce0","pricing_plan_id":"cebpf4jnsgd1na2vs0mg"},{"bike_id":"a70581af-b12c-49b4-9240-950a4a2fc3e8","system_id":"levelo_inurba_marseille","lat":43.308012,"lon":5.381511,"is_reserved":false,"is_disabled":false,"rental_uris":{"android":"levelo://app?vid=a70581af-b12c-49b4-9240-950a4a2fc3e8","ios":"levelo://app?vid=a70581af-b12c-49b4-9240-950a4a2fc3e8"},"vehicle_type_id":"4","last_reported":1708247205,"current_range_meters":23200,"station_id":"ce4bgt12rcd13ifvqce0","pricing_plan_id":"cebpf4jnsgd1na2vs0mg"},{"bike_id":"edc0c845-897f-4124-b60c-f2677ca823c0","system_id":"levelo_inurba_marseille","lat":43.308012,"lon":5.381511,"is_reserved":false,"is_disabled":false,"rental_uris":{"android":"levelo://app?vid=edc0c845-897f-4124-b60c-f2677ca823c0","ios":"levelo://app?vid=edc0c845-897f-4124-b60c-f2677ca823c0"},"vehicle_type_id":"4","last_reported":1708247205,"current_range_meters":19200,"station_id":"ce4bgt12rcd13ifvqce0","pricing_plan_id":"cebpf4jnsgd1na2vs0mg"},{"bike_id":"b1a486eb-96d6-4eff-844c-190d8206c01f","system_id":"levelo_inurba_marseille","lat":43.308027,"lon":5.381583,"is_reserved":false,"is_disabled":false,"rental_uris":{"android":"levelo://app?vid=b1a486eb-96d6-4eff-844c-190d8206c01f","ios":"levelo://app?vid=b1a486eb-96d6-4eff-844c-190d8206c01f"},"vehicle_type_id":"4","last_reported":1708247205,"current_range_meters":29600,"station_id":"ce4bgt12rcd13ifvqce0","pricing_plan_id":"cebpf4jnsgd1na2vs0mg"},{"bike_id":"b0147c57-761e-4e59-938e-222c700d0ba7","system_id":"levelo_inurba_marseille","lat":43.304606,"lon":5.379026,"is_reserved":false,"is_disabled":false,"rental_uris":{"android":"levelo://app?vid=b0147c57-761e-4e59-938e-222c700d0ba7","ios":"levelo://app?vid=b0147c57-761e-4e59-938e-222c700d0ba7"},"vehicle_type_id":"4","last_reported":1708247205,"current_range_meters":8000,"station_id":"ce4bgup2rcd13ifvqcn0","pricing_plan_id":"cebpf4jnsgd1na2vs0mg"},{"bike_id":"c360be01-94d5-4d44-a768-3114f3250b37","system_id":"levelo_inurba_marseille","lat":43.302784,"lon":5.377158,"is_reserved":false,"is_disabled":false,"rental_uris":{"android":"levelo://app?vid=c360be01-94d5-4d44-a768-3114f3250b37","ios":"levelo://app?vid=c360be01-94d5-4d44-a768-3114f3250b37"},"vehicle_type_id":"4","last_reported":1708247205,"current_range_meters":31200,"station_id":"ce4bguh2rcd13ifvqcj0","pricing_plan_id":"cebpf4jnsgd1na2vs0mg"},{"bike_id":"4e7f62f5-2dea-4b44-ab5a-8d2d705b487b","system_id":"levelo_inurba_marseille","lat":43.304606,"lon":5.379026,"is_reserved":false,"is_disabled":false,"rental_uris":{"android":"levelo://app?vid=4e7f62f5-2dea-4b44-ab5a-8d2d705b487b","ios":"levelo://app?vid=4e7f62f5-2dea-4b44-ab5a-8d2d705b487b"},"vehicle_type_id":"4","last_reported":1708247205,"current_range_meters":12000,"station_id":"ce4bgup2rcd13ifvqcn0","pricing_plan_id":"cebpf4jnsgd1na2vs0mg"},{"bike_id":"4f3c83c9-52f5-4f9f-a695-e0078c666704","system_id":"levelo_inurba_marseille","lat":43.304606,"lon":5.379026,"is_reserved":false,"is_disabled":false,"rental_uris":{"android":"levelo://app?vid=4f3c83c9-52f5-4f9f-a695-e0078c666704","ios":"levelo://app?vid=4f3c83c9-52f5-4f9f-a695-e0078c666704"},"vehicle_type_id":"4","last_reported":1708247205,"current_range_meters":4000,"station_id":"ce4bgup2rcd13ifvqcn0","pricing_plan_id":"cebpf4jnsgd1na2vs0mg"},{"bike_id":"5a8b3651-7632-4f03-9b34-20ed3840f302","system_id":"levelo_inurba_marseille","lat":43.324771,"lon":5.36557,"is_reserved":false,"is_disabled":false,"rental_uris":{"android":"levelo://app?vid=5a8b3651-7632-4f03-9b34-20ed3840f302","ios":"levelo://app?vid=5a8b3651-7632-4f03-9b34-20ed3840f302"},"vehicle_type_id":"4","last_reported":1708247205,"current_range_meters":12800,"station_id":"ce4bhs12rcd13ifvqhvg","pricing_plan_id":"cebpf4jnsgd1na2vs0mg"},{"bike_id":"66c512bf-acab-4702-ba43-f4af8a53fc57","system_id":"levelo_inurba_marseille","lat":43.324771,"lon":5.36557,"is_reserved":false,"is_disabled":false,"rental_uris":{"android":"levelo://app?vid=66c512bf-acab-4702-ba43-f4af8a53fc57","ios":"levelo://app?vid=66c512bf-acab-4702-ba43-f4af8a53fc57"},"vehicle_type_id":"4","last_reported":1708247205,"current_range_meters":0,"station_id":"ce4bhs12rcd13ifvqhvg","pricing_plan_id":"cebpf4jnsgd1na2vs0mg"},{"bike_id":"63bc16d4-b7f9-4b45-a0c3-b9a2c2b94897","system_id":"levelo_inurba_marseille","lat":43.324771,"lon":5.36557,"is_reserved":false,"is_disabled":false,"rental_uris":{"android":"levelo://app?vid=63bc16d4-b7f9-4b45-a0c3-b9a2c2b94897","ios":"levelo://app?vid=63bc16d4-b7f9-4b45-a0c3-b9a2c2b94897"},"vehicle_type_id":"4","last_reported":1708247205,"current_range_meters":23600,"station_id":"ce4bhs12rcd13ifvqhvg","pricing_plan_id":"cebpf4jnsgd1na2vs0mg"},{"bike_id":"6df69321-e57f-4bee-bb51-cba2b9c09fae","system_id":"levelo_inurba_marseille","lat":43.324771,"lon":5.36557,"is_reserved":false,"is_disabled":false,"rental_uris":{"android":"levelo://app?vid=6df69321-e57f-4bee-bb51-cba2b9c09fae","ios":"levelo://app?vid=6df69321-e57f-4bee-bb51-cba2b9c09fae"},"vehicle_type_id":"4","last_reported":1708247205,"current_range_meters":21200,"station_id":"ce4bhs12rcd13ifvqhvg","pricing_plan_id":"cebpf4jnsgd1na2vs0mg"},{"bike_id":"52c7d0c2-438e-4f7d-9db4-ea70d4682f97","system_id":"levelo_inurba_marseille","lat":43.324771,"lon":5.36557,"is_reserved":false,"is_disabled":false,"rental_uris":{"android":"levelo://app?vid=52c7d0c2-438e-4f7d-9db4-ea70d4682f97","ios":"levelo://app?vid=52c7d0c2-438e-4f7d-9db4-ea70d4682f97"},"vehicle_type_id":"4","last_reported":1708247205,"current_range_meters":8000,"station_id":"ce4bhs12rcd13ifvqhvg","pricing_plan_id":"cebpf4jnsgd1na2vs0mg"},{"bike_id":"9bf95286-ad13-4850-b9e9-c3f7db9e223d","system_id":"levelo_inurba_marseille","lat":43.310804,"lon":5.38359,"is_reserved":false,"is_disabled":false,"rental_uris":{"android":"levelo://app?vid=9bf95286-ad13-4850-b9e9-c3f7db9e223d","ios":"levelo://app?vid=9bf95286-ad13-4850-b9e9-c3f7db9e223d"},"vehicle_type_id":"4","last_reported":1708247205,"current_range_meters":8800,"station_id":"ce4bgv92rcd13ifvqcr0","pricing_plan_id":"cebpf4jnsgd1na2vs0mg"},{"bike_id":"994f42f8-d23e-4ac3-a7a5-bb4c4801e60f","system_id":"levelo_inurba_marseille","lat":43.310804,"lon":5.38359,"is_reserved":false,"is_disabled":false,"rental_uris":{"android":"levelo://app?vid=994f42f8-d23e-4ac3-a7a5-bb4c4801e60f","ios":"levelo://app?vid=994f42f8-d23e-4ac3-a7a5-bb4c4801e60f"},"vehicle_type_id":"4","last_reported":1708247205,"current_range_meters":21600,"station_id":"ce4bgv92rcd13ifvqcr0","pricing_plan_id":"cebpf4jnsgd1na2vs0mg"},{"bike_id":"b3ba3ea3-e995-4a98-8754-3947773fc1ca","system_id":"levelo_inurba_marseille","lat":43.310804,"lon":5.38359,"is_reserved":false,"is_disabled":false,"rental_uris":{"android":"levelo://app?vid=b3ba3ea3-e995-4a98-8754-3947773fc1ca","ios":"levelo://app?vid=b3ba3ea3-e995-4a98-8754-3947773fc1ca"},"vehicle_type_id":"4","last_reported":1708247205,"current_range_meters":16000,"station_id":"ce4bgv92rcd13ifvqcr0","pricing_plan_id":"cebpf4jnsgd1na2vs0mg"},{"bike_id":"f2cb4672-313b-474c-a643-2067151682fe","system_id":"levelo_inurba_marseille","lat":43.310804,"lon":5.38359,"is_reserved":false,"is_disabled":false,"rental_uris":{"android":"levelo://app?vid=f2cb4672-313b-474c-a643-2067151682fe","ios":"levelo://app?vid=f2cb4672-313b-474c-a643-2067151682fe"},"vehicle_type_id":"4","last_reported":1708247205,"current_range_meters":20800,"station_id":"ce4bgv92rcd13ifvqcr0","pricing_plan_id":"cebpf4jnsgd1na2vs0mg"},{"bike_id":"ae6d477f-cfc3-48d6-a4b4-33959153e5fc","system_id":"levelo_inurba_marseille","lat":43.310804,"lon":5.38359,"is_reserved":false,"is_disabled":false,"rental_uris":{"android":"levelo://app?vid=ae6d477f-cfc3-48d6-a4b4-33959153e5fc","ios":"levelo://app?vid=ae6d477f-cfc3-48d6-a4b4-33959153e5fc"},"vehicle_type_id":"4","last_reported":1708247205,"current_range_meters":0,"station_id":"ce4bgv92rcd13ifvqcr0","pricing_plan_id":"cebpf4jnsgd1na2vs0mg"},{"bike_id":"138afc56-0818-4fe3-b774-75066fa1c3a6","system_id":"levelo_inurba_marseille","lat":43.302784,"lon":5.377158,"is_reserved":false,"is_disabled":false,"rental_uris":{"android":"levelo://app?vid=138afc56-0818-4fe3-b774-75066fa1c3a6","ios":"levelo://app?vid=138afc56-0818-4fe3-b774-75066fa1c3a6"},"vehicle_type_id":"4","last_reported":1708247205,"current_range_meters":25200,"station_id":"ce4bguh2rcd13ifvqcj0","pricing_plan_id":"cebpf4jnsgd1na2vs0mg"},{"bike_id":"bdd4add7-5781-485e-814e-0d8183891de5","system_id":"levelo_inurba_marseille","lat":43.302784,"lon":5.377158,"is_reserved":false,"is_disabled":false,"rental_uris":{"android":"levelo://app?vid=bdd4add7-5781-485e-814e-0d8183891de5","ios":"levelo://app?vid=bdd4add7-5781-485e-814e-0d8183891de5"},"vehicle_type_id":"4","last_reported":1708247205,"current_range_meters":24400,"station_id":"ce4bguh2rcd13ifvqcj0","pricing_plan_id":"cebpf4jnsgd1na2vs0mg"},{"bike_id":"05fb6379-9be3-4a0a-8a2c-108def9f0c2b","system_id":"levelo_inurba_marseille","lat":43.302784,"lon":5.377158,"is_reserved":false,"is_disabled":false,"rental_uris":{"android":"levelo://app?vid=05fb6379-9be3-4a0a-8a2c-108def9f0c2b","ios":"levelo://app?vid=05fb6379-9be3-4a0a-8a2c-108def9f0c2b"},"vehicle_type_id":"4","last_reported":1708247205,"current_range_meters":30400,"station_id":"ce4bguh2rcd13ifvqcj0","pricing_plan_id":"cebpf4jnsgd1na2vs0mg"},{"bike_id":"b3ccb71f-46c6-49f4-94b6-a3096d8a2213","system_id":"levelo_inurba_marseille","lat":43.30143,"lon":5.37413,"is_reserved":false,"is_disabled":false,"rental_uris":{"android":"levelo://app?vid=b3ccb71f-46c6-49f4-94b6-a3096d8a2213","ios":"levelo://app?vid=b3ccb71f-46c6-49f4-94b6-a3096d8a2213"},"vehicle_type_id":"4","last_reported":1708247205,"current_range_meters":19200,"station_id":"ce4bgs92rcd13ifvqcc0","pricing_plan_id":"cebpf4jnsgd1na2vs0mg"},{"bike_id":"af0366e2-39a9-4c7e-aaa0-cd772a39a674","system_id":"levelo_inurba_marseille","lat":43.301429,"lon":5.37413,"is_reserved":false,"is_disabled":false,"rental_uris":{"android":"levelo://app?vid=af0366e2-39a9-4c7e-aaa0-cd772a39a674","ios":"levelo://app?vid=af0366e2-39a9-4c7e-aaa0-cd772a39a674"},"vehicle_type_id":"4","last_reported":1708247205,"current_range_meters":22000,"station_id":"ce4bgs92rcd13ifvqcc0","pricing_plan_id":"cebpf4jnsgd1na2vs0mg"},{"bike_id":"11106d7e-3a96-466a-b86c-76e5ef2c8635","system_id":"levelo_inurba_marseille","lat":43.301429,"lon":5.37413,"is_reserved":false,"is_disabled":false,"rental_uris":{"android":"levelo://app?vid=11106d7e-3a96-466a-b86c-76e5ef2c8635","ios":"levelo://app?vid=11106d7e-3a96-466a-b86c-76e5ef2c8635"},"vehicle_type_id":"4","last_reported":1708247205,"current_range_meters":28800,"station_id":"ce4bgs92rcd13ifvqcc0","pricing_plan_id":"cebpf4jnsgd1na2vs0mg"},{"bike_id":"9678ac9c-71cf-4f83-8e81-a16e71a63ec2","system_id":"levelo_inurba_marseille","lat":43.30143,"lon":5.37413,"is_reserved":false,"is_disabled":false,"rental_uris":{"android":"levelo://app?vid=9678ac9c-71cf-4f83-8e81-a16e71a63ec2","ios":"levelo://app?vid=9678ac9c-71cf-4f83-8e81-a16e71a63ec2"},"vehicle_type_id":"4","last_reported":1708247205,"current_range_meters":31600,"station_id":"ce4bgs92rcd13ifvqcc0","pricing_plan_id":"cebpf4jnsgd1na2vs0mg"},{"bike_id":"b966d316-a40f-4dd3-8e43-9f85576511d6","system_id":"levelo_inurba_marseille","lat":43.319935,"lon":5.381699,"is_reserved":false,"is_disabled":false,"rental_uris":{"android":"levelo://app?vid=b966d316-a40f-4dd3-8e43-9f85576511d6","ios":"levelo://app?vid=b966d316-a40f-4dd3-8e43-9f85576511d6"},"vehicle_type_id":"4","last_reported":1708247205,"current_range_meters":2800,"station_id":"ce4bhr12rcd13ifvqhpg","pricing_plan_id":"cebpf4jnsgd1na2vs0mg"},{"bike_id":"53e9dce0-56a0-47f5-8d9b-4ea34e0572a6","system_id":"levelo_inurba_marseille","lat":43.320001,"lon":5.381577,"is_reserved":false,"is_disabled":false,"rental_uris":{"android":"levelo://app?vid=53e9dce0-56a0-47f5-8d9b-4ea34e0572a6","ios":"levelo://app?vid=53e9dce0-56a0-47f5-8d9b-4ea34e0572a6"},"vehicle_type_id":"4","last_reported":1708247205,"current_range_meters":2000,"station_id":"","pricing_plan_id":"cebpf4jnsgd1na2vs0mg"},{"bike_id":"a2d9c813-3ccb-4937-b031-1b6983f8f772","system_id":"levelo_inurba_marseille","lat":43.3136,"lon":5.38504,"is_reserved":false,"is_disabled":false,"rental_uris":{"android":"levelo://app?vid=a2d9c813-3ccb-4937-b031-1b6983f8f772","ios":"levelo://app?vid=a2d9c813-3ccb-4937-b031-1b6983f8f772"},"vehicle_type_id":"4","last_reported":1708247205,"current_range_meters":30800,"station_id":"ce4bgt92rcd13ifvqcf0","pricing_plan_id":"cebpf4jnsgd1na2vs0mg"},{"bike_id":"03994828-7eaa-4ed9-a6b5-29067426a2e7","system_id":"levelo_inurba_marseille","lat":43.299724,"lon":5.371829,"is_reserved":false,"is_disabled":false,"rental_uris":{"android":"levelo://app?vid=03994828-7eaa-4ed9-a6b5-29067426a2e7","ios":"levelo://app?vid=03994828-7eaa-4ed9-a6b5-29067426a2e7"},"vehicle_type_id":"4","last_reported":1708247205,"current_range_meters":25600,"station_id":"ce4bgr92rcd13ifvqc7g","pricing_plan_id":"cebpf4jnsgd1na2vs0mg"},{"bike_id":"551bf7cb-f37d-4b0d-a4b1-2f23752d9b65","system_id":"levelo_inurba_marseille","lat":43.299724,"lon":5.371829,"is_reserved":false,"is_disabled":false,"rental_uris":{"android":"levelo://app?vid=551bf7cb-f37d-4b0d-a4b1-2f23752d9b65","ios":"levelo://app?vid=551bf7cb-f37d-4b0d-a4b1-2f23752d9b65"},"vehicle_type_id":"4","last_reported":1708247205,"current_range_meters":0,"station_id":"ce4bgr92rcd13ifvqc7g","pricing_plan_id":"cebpf4jnsgd1na2vs0mg"},{"bike_id":"2430d049-eb5c-4ee0-bcb6-feaece75a604","system_id":"levelo_inurba_marseille","lat":43.305364,"lon":5.384119,"is_reserved":false,"is_disabled":false,"rental_uris":{"android":"levelo://app?vid=2430d049-eb5c-4ee0-bcb6-feaece75a604","ios":"levelo://app?vid=2430d049-eb5c-4ee0-bcb6-feaece75a604"},"vehicle_type_id":"4","last_reported":1708247205,"current_range_meters":15600,"station_id":"ce4bgg92rcd13ifvqb30","pricing_plan_id":"cebpf4jnsgd1na2vs0mg"},{"bike_id":"9da65b90-fd1e-42d6-9c07-ebe2ede73476","system_id":"levelo_inurba_marseille","lat":43.29923,"lon":5.37457,"is_reserved":false,"is_disabled":false,"rental_uris":{"android":"levelo://app?vid=9da65b90-fd1e-42d6-9c07-ebe2ede73476","ios":"levelo://app?vid=9da65b90-fd1e-42d6-9c07-ebe2ede73476"},"vehicle_type_id":"4","last_reported":1708247205,"current_range_meters":23600,"station_id":"ce4bgjh2rcd13ifvqbg0","pricing_plan_id":"cebpf4jnsgd1na2vs0mg"},{"bike_id":"fe69fb1b-96ab-4ee8-af38-796df9fc8373","system_id":"levelo_inurba_marseille","lat":43.305405,"lon":5.384294,"is_reserved":false,"is_disabled":false,"rental_uris":{"android":"levelo://app?vid=fe69fb1b-96ab-4ee8-af38-796df9fc8373","ios":"levelo://app?vid=fe69fb1b-96ab-4ee8-af38-796df9fc8373"},"vehicle_type_id":"4","last_reported":1708247205,"current_range_meters":31200,"station_id":"ce4bgg92rcd13ifvqb30","pricing_plan_id":"cebpf4jnsgd1na2vs0mg"},{"bike_id":"7ec5e07d-352b-4c26-8a0c-f7ce64180cf8","system_id":"levelo_inurba_marseille","lat":43.305376,"lon":5.384275,"is_reserved":false,"is_disabled":false,"rental_uris":{"android":"levelo://app?vid=7ec5e07d-352b-4c26-8a0c-f7ce64180cf8","ios":"levelo://app?vid=7ec5e07d-352b-4c26-8a0c-f7ce64180cf8"},"vehicle_type_id":"4","last_reported":1708247205,"current_range_meters":22800,"station_id":"ce4bgg92rcd13ifvqb30","pricing_plan_id":"cebpf4jnsgd1na2vs0mg"},{"bike_id":"9082927e-3d29-4513-b5f3-fb1d9107775f","system_id":"levelo_inurba_marseille","lat":43.305364,"lon":5.384119,"is_reserved":false,"is_disabled":false,"rental_uris":{"android":"levelo://app?vid=9082927e-3d29-4513-b5f3-fb1d9107775f","ios":"levelo://app?vid=9082927e-3d29-4513-b5f3-fb1d9107775f"},"vehicle_type_id":"4","last_reported":1708247205,"current_range_meters":27600,"station_id":"ce4bgg92rcd13ifvqb30","pricing_plan_id":"cebpf4jnsgd1na2vs0mg"},{"bike_id":"29a5e929-1a69-46b0-aaac-56b62b0ab09d","system_id":"levelo_inurba_marseille","lat":43.305364,"lon":5.384119,"is_reserved":false,"is_disabled":false,"rental_uris":{"android":"levelo://app?vid=29a5e929-1a69-46b0-aaac-56b62b0ab09d","ios":"levelo://app?vid=29a5e929-1a69-46b0-aaac-56b62b0ab09d"},"vehicle_type_id":"4","last_reported":1708247205,"current_range_meters":30000,"station_id":"ce4bgg92rcd13ifvqb30","pricing_plan_id":"cebpf4jnsgd1na2vs0mg"},{"bike_id":"6c258785-c9bf-44ba-9c7a-100a70258bb2","system_id":"levelo_inurba_marseille","lat":43.305364,"lon":5.384119,"is_reserved":false,"is_disabled":false,"rental_uris":{"android":"levelo://app?vid=6c258785-c9bf-44ba-9c7a-100a70258bb2","ios":"levelo://app?vid=6c258785-c9bf-44ba-9c7a-100a70258bb2"},"vehicle_type_id":"4","last_reported":1708247205,"current_range_meters":30400,"station_id":"ce4bgg92rcd13ifvqb30","pricing_plan_id":"cebpf4jnsgd1na2vs0mg"},{"bike_id":"3df5c069-1d03-4e8f-8919-991af140e940","system_id":"levelo_inurba_marseille","lat":43.3054,"lon":5.38435,"is_reserved":false,"is_disabled":false,"rental_uris":{"android":"levelo://app?vid=3df5c069-1d03-4e8f-8919-991af140e940","ios":"levelo://app?vid=3df5c069-1d03-4e8f-8919-991af140e940"},"vehicle_type_id":"4","last_reported":1708247205,"current_range_meters":30400,"station_id":"ce4bgg92rcd13ifvqb30","pricing_plan_id":"cebpf4jnsgd1na2vs0mg"},{"bike_id":"d4576993-6332-44f6-9899-23c9993332dc","system_id":"levelo_inurba_marseille","lat":43.298433,"lon":5.362774,"is_reserved":false,"is_disabled":false,"rental_uris":{"android":"levelo://app?vid=d4576993-6332-44f6-9899-23c9993332dc","ios":"levelo://app?vid=d4576993-6332-44f6-9899-23c9993332dc"},"vehicle_type_id":"4","last_reported":1708247205,"current_range_meters":30400,"station_id":"ce4bgpp2rcd13ifvqc3g","pricing_plan_id":"cebpf4jnsgd1na2vs0mg"},{"bike_id":"88c61596-6870-4232-955a-fa9f22fbc3fe","system_id":"levelo_inurba_marseille","lat":43.305371,"lon":5.384372,"is_reserved":false,"is_disabled":false,"rental_uris":{"android":"levelo://app?vid=88c61596-6870-4232-955a-fa9f22fbc3fe","ios":"levelo://app?vid=88c61596-6870-4232-955a-fa9f22fbc3fe"},"vehicle_type_id":"4","last_reported":1708247205,"current_range_meters":6400,"station_id":"ce4bgg92rcd13ifvqb30","pricing_plan_id":"cebpf4jnsgd1na2vs0mg"},{"bike_id":"cbe33ed3-8eb8-4bdd-afb9-14a963f8cc0c","system_id":"levelo_inurba_marseille","lat":43.298433,"lon":5.362774,"is_reserved":false,"is_disabled":false,"rental_uris":{"android":"levelo://app?vid=cbe33ed3-8eb8-4bdd-afb9-14a963f8cc0c","ios":"levelo://app?vid=cbe33ed3-8eb8-4bdd-afb9-14a963f8cc0c"},"vehicle_type_id":"4","last_reported":1708247205,"current_range_meters":30000,"station_id":"ce4bgpp2rcd13ifvqc3g","pricing_plan_id":"cebpf4jnsgd1na2vs0mg"},{"bike_id":"1c09c5d4-d4b3-48f2-ae3b-bb5f3d54e3ca","system_id":"levelo_inurba_marseille","lat":43.305398,"lon":5.384443,"is_reserved":false,"is_disabled":false,"rental_uris":{"android":"levelo://app?vid=1c09c5d4-d4b3-48f2-ae3b-bb5f3d54e3ca","ios":"levelo://app?vid=1c09c5d4-d4b3-48f2-ae3b-bb5f3d54e3ca"},"vehicle_type_id":"4","last_reported":1708247205,"current_range_meters":25200,"station_id":"ce4bgg92rcd13ifvqb30","pricing_plan_id":"cebpf4jnsgd1na2vs0mg"},{"bike_id":"be6d88d4-d68a-49ab-b096-9ea0ba750a76","system_id":"levelo_inurba_marseille","lat":43.298433,"lon":5.362774,"is_reserved":false,"is_disabled":false,"rental_uris":{"android":"levelo://app?vid=be6d88d4-d68a-49ab-b096-9ea0ba750a76","ios":"levelo://app?vid=be6d88d4-d68a-49ab-b096-9ea0ba750a76"},"vehicle_type_id":"4","last_reported":1708247205,"current_range_meters":27200,"station_id":"ce4bgpp2rcd13ifvqc3g","pricing_plan_id":"cebpf4jnsgd1na2vs0mg"},{"bike_id":"70fe7047-25f5-4921-82cd-938fed021886","system_id":"levelo_inurba_marseille","lat":43.322872,"lon":5.382756,"is_reserved":false,"is_disabled":false,"rental_uris":{"android":"levelo://app?vid=70fe7047-25f5-4921-82cd-938fed021886","ios":"levelo://app?vid=70fe7047-25f5-4921-82cd-938fed021886"},"vehicle_type_id":"4","last_reported":1708247205,"current_range_meters":20000,"station_id":"ce4bhr12rcd13ifvqhqg","pricing_plan_id":"cebpf4jnsgd1na2vs0mg"},{"bike_id":"410a532b-f4d9-44b0-bece-5fd8115e2fc4","system_id":"levelo_inurba_marseille","lat":43.322872,"lon":5.382756,"is_reserved":false,"is_disabled":false,"rental_uris":{"android":"levelo://app?vid=410a532b-f4d9-44b0-bece-5fd8115e2fc4","ios":"levelo://app?vid=410a532b-f4d9-44b0-bece-5fd8115e2fc4"},"vehicle_type_id":"4","last_reported":1708247205,"current_range_meters":21200,"station_id":"ce4bhr12rcd13ifvqhqg","pricing_plan_id":"cebpf4jnsgd1na2vs0mg"},{"bike_id":"9af28949-3abe-4ee4-a57a-c236655c3362","system_id":"levelo_inurba_marseille","lat":43.322872,"lon":5.382756,"is_reserved":false,"is_disabled":false,"rental_uris":{"android":"levelo://app?vid=9af28949-3abe-4ee4-a57a-c236655c3362","ios":"levelo://app?vid=9af28949-3abe-4ee4-a57a-c236655c3362"},"vehicle_type_id":"4","last_reported":1708247205,"current_range_meters":31200,"station_id":"ce4bhr12rcd13ifvqhqg","pricing_plan_id":"cebpf4jnsgd1na2vs0mg"},{"bike_id":"d0ddd212-f8ad-4506-820e-1327341055d6","system_id":"levelo_inurba_marseille","lat":43.297774,"lon":5.370875,"is_reserved":false,"is_disabled":false,"rental_uris":{"android":"levelo://app?vid=d0ddd212-f8ad-4506-820e-1327341055d6","ios":"levelo://app?vid=d0ddd212-f8ad-4506-820e-1327341055d6"},"vehicle_type_id":"4","last_reported":1708247205,"current_range_meters":27600,"station_id":"ce4bgop2rcd13ifvqc1g","pricing_plan_id":"cebpf4jnsgd1na2vs0mg"},{"bike_id":"1a827012-09b8-464b-93b8-f30d31207867","system_id":"levelo_inurba_marseille","lat":43.322872,"lon":5.382756,"is_reserved":false,"is_disabled":false,"rental_uris":{"android":"levelo://app?vid=1a827012-09b8-464b-93b8-f30d31207867","ios":"levelo://app?vid=1a827012-09b8-464b-93b8-f30d31207867"},"vehicle_type_id":"4","last_reported":1708247205,"current_range_meters":28000,"station_id":"ce4bhr12rcd13ifvqhqg","pricing_plan_id":"cebpf4jnsgd1na2vs0mg"},{"bike_id":"5195dc94-0b55-41c8-9198-580992dd67c5","system_id":"levelo_inurba_marseille","lat":43.328145,"lon":5.36686,"is_reserved":false,"is_disabled":false,"rental_uris":{"android":"levelo://app?vid=5195dc94-0b55-41c8-9198-580992dd67c5","ios":"levelo://app?vid=5195dc94-0b55-41c8-9198-580992dd67c5"},"vehicle_type_id":"4","last_reported":1708247205,"current_range_meters":17600,"station_id":"ce4bhs92rcd13ifvqi0g","pricing_plan_id":"cebpf4jnsgd1na2vs0mg"},{"bike_id":"d166fc8e-23ac-47e2-a19c-22e9c9381843","system_id":"levelo_inurba_marseille","lat":43.328221,"lon":5.366778,"is_reserved":false,"is_disabled":false,"rental_uris":{"android":"levelo://app?vid=d166fc8e-23ac-47e2-a19c-22e9c9381843","ios":"levelo://app?vid=d166fc8e-23ac-47e2-a19c-22e9c9381843"},"vehicle_type_id":"4","last_reported":1708247205,"current_range_meters":29200,"station_id":"ce4bhs92rcd13ifvqi0g","pricing_plan_id":"cebpf4jnsgd1na2vs0mg"},{"bike_id":"55f2d4b0-8802-4bd2-8697-0f012dcc25c1","system_id":"levelo_inurba_marseille","lat":43.32823,"lon":5.36685,"is_reserved":false,"is_disabled":false,"rental_uris":{"android":"levelo://app?vid=55f2d4b0-8802-4bd2-8697-0f012dcc25c1","ios":"levelo://app?vid=55f2d4b0-8802-4bd2-8697-0f012dcc25c1"},"vehicle_type_id":"4","last_reported":1708247205,"current_range_meters":30800,"station_id":"ce4bhs92rcd13ifvqi0g","pricing_plan_id":"cebpf4jnsgd1na2vs0mg"},{"bike_id":"2d896d1d-d2a6-4c07-9563-73bb1db984ce","system_id":"levelo_inurba_marseille","lat":43.328239,"lon":5.366769,"is_reserved":false,"is_disabled":false,"rental_uris":{"android":"levelo://app?vid=2d896d1d-d2a6-4c07-9563-73bb1db984ce","ios":"levelo://app?vid=2d896d1d-d2a6-4c07-9563-73bb1db984ce"},"vehicle_type_id":"4","last_reported":1708247205,"current_range_meters":30400,"station_id":"ce4bhs92rcd13ifvqi0g","pricing_plan_id":"cebpf4jnsgd1na2vs0mg"},{"bike_id":"c63f5776-29a6-4124-856b-96d9c7ed370b","system_id":"levelo_inurba_marseille","lat":43.328243,"lon":5.366805,"is_reserved":false,"is_disabled":false,"rental_uris":{"android":"levelo://app?vid=c63f5776-29a6-4124-856b-96d9c7ed370b","ios":"levelo://app?vid=c63f5776-29a6-4124-856b-96d9c7ed370b"},"vehicle_type_id":"4","last_reported":1708247205,"current_range_meters":22400,"station_id":"ce4bhs92rcd13ifvqi0g","pricing_plan_id":"cebpf4jnsgd1na2vs0mg"},{"bike_id":"45fe6c6c-2569-4aee-9c18-3f3586004f23","system_id":"levelo_inurba_marseille","lat":43.32825,"lon":5.36677,"is_reserved":false,"is_disabled":false,"rental_uris":{"android":"levelo://app?vid=45fe6c6c-2569-4aee-9c18-3f3586004f23","ios":"levelo://app?vid=45fe6c6c-2569-4aee-9c18-3f3586004f23"},"vehicle_type_id":"4","last_reported":1708247205,"current_range_meters":19600,"station_id":"ce4bhs92rcd13ifvqi0g","pricing_plan_id":"cebpf4jnsgd1na2vs0mg"},{"bike_id":"cc924a54-60e4-4421-b12c-5aa0bb659927","system_id":"levelo_inurba_marseille","lat":43.328253,"lon":5.36673,"is_reserved":false,"is_disabled":false,"rental_uris":{"android":"levelo://app?vid=cc924a54-60e4-4421-b12c-5aa0bb659927","ios":"levelo://app?vid=cc924a54-60e4-4421-b12c-5aa0bb659927"},"vehicle_type_id":"4","last_reported":1708247205,"current_range_meters":0,"station_id":"ce4bhs92rcd13ifvqi0g","pricing_plan_id":"cebpf4jnsgd1na2vs0mg"},{"bike_id":"2459963a-9a41-477a-9f46-310730d184fe","system_id":"levelo_inurba_marseille","lat":43.32826,"lon":5.36686,"is_reserved":false,"is_disabled":false,"rental_uris":{"android":"levelo://app?vid=2459963a-9a41-477a-9f46-310730d184fe","ios":"levelo://app?vid=2459963a-9a41-477a-9f46-310730d184fe"},"vehicle_type_id":"4","last_reported":1708247205,"current_range_meters":14800,"station_id":"ce4bhs92rcd13ifvqi0g","pricing_plan_id":"cebpf4jnsgd1na2vs0mg"},{"bike_id":"b354d40e-f748-45df-b8a4-085ee0f39b31","system_id":"levelo_inurba_marseille","lat":43.32826,"lon":5.366817,"is_reserved":false,"is_disabled":false,"rental_uris":{"android":"levelo://app?vid=b354d40e-f748-45df-b8a4-085ee0f39b31","ios":"levelo://app?vid=b354d40e-f748-45df-b8a4-085ee0f39b31"},"vehicle_type_id":"4","last_reported":1708247205,"current_range_meters":8000,"station_id":"ce4bhs92rcd13ifvqi0g","pricing_plan_id":"cebpf4jnsgd1na2vs0mg"},{"bike_id":"d125619a-6ae6-4def-8c67-f1352fae5a27","system_id":"levelo_inurba_marseille","lat":43.328264,"lon":5.36681,"is_reserved":false,"is_disabled":false,"rental_uris":{"android":"levelo://app?vid=d125619a-6ae6-4def-8c67-f1352fae5a27","ios":"levelo://app?vid=d125619a-6ae6-4def-8c67-f1352fae5a27"},"vehicle_type_id":"4","last_reported":1708247205,"current_range_meters":15600,"station_id":"ce4bhs92rcd13ifvqi0g","pricing_plan_id":"cebpf4jnsgd1na2vs0mg"},{"bike_id":"4858fa03-d21d-48b2-a63e-a5500b96c079","system_id":"levelo_inurba_marseille","lat":43.328264,"lon":5.366836,"is_reserved":false,"is_disabled":false,"rental_uris":{"android":"levelo://app?vid=4858fa03-d21d-48b2-a63e-a5500b96c079","ios":"levelo://app?vid=4858fa03-d21d-48b2-a63e-a5500b96c079"},"vehicle_type_id":"4","last_reported":1708247205,"current_range_meters":0,"station_id":"ce4bhs92rcd13ifvqi0g","pricing_plan_id":"cebpf4jnsgd1na2vs0mg"},{"bike_id":"6a4afac0-6bf5-49e1-bc28-a2022e672910","system_id":"levelo_inurba_marseille","lat":43.328275,"lon":5.36681,"is_reserved":false,"is_disabled":false,"rental_uris":{"android":"levelo://app?vid=6a4afac0-6bf5-49e1-bc28-a2022e672910","ios":"levelo://app?vid=6a4afac0-6bf5-49e1-bc28-a2022e672910"},"vehicle_type_id":"4","last_reported":1708247205,"current_range_meters":22800,"station_id":"ce4bhs92rcd13ifvqi0g","pricing_plan_id":"cebpf4jnsgd1na2vs0mg"},{"bike_id":"798e1c77-cdb6-49fb-b2e4-2a646e449b0a","system_id":"levelo_inurba_marseille","lat":43.328371,"lon":5.366909,"is_reserved":false,"is_disabled":false,"rental_uris":{"android":"levelo://app?vid=798e1c77-cdb6-49fb-b2e4-2a646e449b0a","ios":"levelo://app?vid=798e1c77-cdb6-49fb-b2e4-2a646e449b0a"},"vehicle_type_id":"4","last_reported":1708247205,"current_range_meters":2800,"station_id":"ce4bhs92rcd13ifvqi0g","pricing_plan_id":"cebpf4jnsgd1na2vs0mg"},{"bike_id":"3ce3bf05-0e26-4ba4-9a11-4781ff3d0eb6","system_id":"levelo_inurba_marseille","lat":43.328295,"lon":5.366832,"is_reserved":false,"is_disabled":false,"rental_uris":{"android":"levelo://app?vid=3ce3bf05-0e26-4ba4-9a11-4781ff3d0eb6","ios":"levelo://app?vid=3ce3bf05-0e26-4ba4-9a11-4781ff3d0eb6"},"vehicle_type_id":"4","last_reported":1708247205,"current_range_meters":400,"station_id":"ce4bhs92rcd13ifvqi0g","pricing_plan_id":"cebpf4jnsgd1na2vs0mg"},{"bike_id":"fcbb72e3-aeee-4031-b1db-dc05c41736e9","system_id":"levelo_inurba_marseille","lat":43.3283,"lon":5.366897,"is_reserved":false,"is_disabled":false,"rental_uris":{"android":"levelo://app?vid=fcbb72e3-aeee-4031-b1db-dc05c41736e9","ios":"levelo://app?vid=fcbb72e3-aeee-4031-b1db-dc05c41736e9"},"vehicle_type_id":"4","last_reported":1708247205,"current_range_meters":10800,"station_id":"ce4bhs92rcd13ifvqi0g","pricing_plan_id":"cebpf4jnsgd1na2vs0mg"},{"bike_id":"0c35a0a7-ef87-411a-89ed-fbe37a1a4729","system_id":"levelo_inurba_marseille","lat":43.3283,"lon":5.36686,"is_reserved":false,"is_disabled":false,"rental_uris":{"android":"levelo://app?vid=0c35a0a7-ef87-411a-89ed-fbe37a1a4729","ios":"levelo://app?vid=0c35a0a7-ef87-411a-89ed-fbe37a1a4729"},"vehicle_type_id":"4","last_reported":1708247205,"current_range_meters":24000,"station_id":"ce4bhs92rcd13ifvqi0g","pricing_plan_id":"cebpf4jnsgd1na2vs0mg"},{"bike_id":"c9ca704a-95d9-467c-ad5a-5403d53c76ed","system_id":"levelo_inurba_marseille","lat":43.328312,"lon":5.366798,"is_reserved":false,"is_disabled":false,"rental_uris":{"android":"levelo://app?vid=c9ca704a-95d9-467c-ad5a-5403d53c76ed","ios":"levelo://app?vid=c9ca704a-95d9-467c-ad5a-5403d53c76ed"},"vehicle_type_id":"4","last_reported":1708247205,"current_range_meters":4400,"station_id":"ce4bhs92rcd13ifvqi0g","pricing_plan_id":"cebpf4jnsgd1na2vs0mg"},{"bike_id":"b1a6d03f-e2ff-45bb-b890-788276a09a82","system_id":"levelo_inurba_marseille","lat":43.32832,"lon":5.3668,"is_reserved":false,"is_disabled":false,"rental_uris":{"android":"levelo://app?vid=b1a6d03f-e2ff-45bb-b890-788276a09a82","ios":"levelo://app?vid=b1a6d03f-e2ff-45bb-b890-788276a09a82"},"vehicle_type_id":"4","last_reported":1708247205,"current_range_meters":25600,"station_id":"ce4bhs92rcd13ifvqi0g","pricing_plan_id":"cebpf4jnsgd1na2vs0mg"},{"bike_id":"45a7a14e-9b1e-4a1b-ad54-93a32f013a67","system_id":"levelo_inurba_marseille","lat":43.328326,"lon":5.366834,"is_reserved":false,"is_disabled":false,"rental_uris":{"android":"levelo://app?vid=45a7a14e-9b1e-4a1b-ad54-93a32f013a67","ios":"levelo://app?vid=45a7a14e-9b1e-4a1b-ad54-93a32f013a67"},"vehicle_type_id":"4","last_reported":1708247205,"current_range_meters":8800,"station_id":"ce4bhs92rcd13ifvqi0g","pricing_plan_id":"cebpf4jnsgd1na2vs0mg"},{"bike_id":"3833ec15-b081-4b20-84c5-72daf8aa7006","system_id":"levelo_inurba_marseille","lat":43.328334,"lon":5.366795,"is_reserved":false,"is_disabled":false,"rental_uris":{"android":"levelo://app?vid=3833ec15-b081-4b20-84c5-72daf8aa7006","ios":"levelo://app?vid=3833ec15-b081-4b20-84c5-72daf8aa7006"},"vehicle_type_id":"4","last_reported":1708247205,"current_range_meters":18800,"station_id":"ce4bhs92rcd13ifvqi0g","pricing_plan_id":"cebpf4jnsgd1na2vs0mg"},{"bike_id":"d059372d-713e-4306-a0dc-ef5b2b5ad059","system_id":"levelo_inurba_marseille","lat":43.32834,"lon":5.36678,"is_reserved":false,"is_disabled":false,"rental_uris":{"android":"levelo://app?vid=d059372d-713e-4306-a0dc-ef5b2b5ad059","ios":"levelo://app?vid=d059372d-713e-4306-a0dc-ef5b2b5ad059"},"vehicle_type_id":"4","last_reported":1708247205,"current_range_meters":19200,"station_id":"ce4bhs92rcd13ifvqi0g","pricing_plan_id":"cebpf4jnsgd1na2vs0mg"},{"bike_id":"3234212a-42bf-4885-bd3e-4f92118c2d3d","system_id":"levelo_inurba_marseille","lat":43.297163,"lon":5.365866,"is_reserved":false,"is_disabled":false,"rental_uris":{"android":"levelo://app?vid=3234212a-42bf-4885-bd3e-4f92118c2d3d","ios":"levelo://app?vid=3234212a-42bf-4885-bd3e-4f92118c2d3d"},"vehicle_type_id":"4","last_reported":1708247205,"current_range_meters":18800,"station_id":"ce4bgn12rcd13ifvqbt0","pricing_plan_id":"cebpf4jnsgd1na2vs0mg"},{"bike_id":"0f87a32e-2149-4990-8e81-3c71a17fa4ec","system_id":"levelo_inurba_marseille","lat":43.29573,"lon":5.367355,"is_reserved":false,"is_disabled":false,"rental_uris":{"android":"levelo://app?vid=0f87a32e-2149-4990-8e81-3c71a17fa4ec","ios":"levelo://app?vid=0f87a32e-2149-4990-8e81-3c71a17fa4ec"},"vehicle_type_id":"4","last_reported":1708247205,"current_range_meters":25600,"station_id":"ce4bgph2rcd13ifvqc2g","pricing_plan_id":"cebpf4jnsgd1na2vs0mg"},{"bike_id":"26841ab7-9063-4041-bede-ecb7497a46ff","system_id":"levelo_inurba_marseille","lat":43.29618,"lon":5.37148,"is_reserved":false,"is_disabled":false,"rental_uris":{"android":"levelo://app?vid=26841ab7-9063-4041-bede-ecb7497a46ff","ios":"levelo://app?vid=26841ab7-9063-4041-bede-ecb7497a46ff"},"vehicle_type_id":"4","last_reported":1708247205,"current_range_meters":0,"station_id":"ce4bgnh2rcd13ifvqc0g","pricing_plan_id":"cebpf4jnsgd1na2vs0mg"},{"bike_id":"ada32b4b-7677-4e68-8110-1a1a911a9182","system_id":"levelo_inurba_marseille","lat":43.296131,"lon":5.370791,"is_reserved":false,"is_disabled":false,"rental_uris":{"android":"levelo://app?vid=ada32b4b-7677-4e68-8110-1a1a911a9182","ios":"levelo://app?vid=ada32b4b-7677-4e68-8110-1a1a911a9182"},"vehicle_type_id":"4","last_reported":1708247205,"current_range_meters":26400,"station_id":"ce4bgnh2rcd13ifvqc0g","pricing_plan_id":"cebpf4jnsgd1na2vs0mg"},{"bike_id":"aef4b9a3-cdea-4daa-afd5-3309ac235b87","system_id":"levelo_inurba_marseille","lat":43.296131,"lon":5.370791,"is_reserved":false,"is_disabled":false,"rental_uris":{"android":"levelo://app?vid=aef4b9a3-cdea-4daa-afd5-3309ac235b87","ios":"levelo://app?vid=aef4b9a3-cdea-4daa-afd5-3309ac235b87"},"vehicle_type_id":"4","last_reported":1708247205,"current_range_meters":22800,"station_id":"ce4bgnh2rcd13ifvqc0g","pricing_plan_id":"cebpf4jnsgd1na2vs0mg"},{"bike_id":"726a6ad4-9661-41f3-8a53-c7fa2798c560","system_id":"levelo_inurba_marseille","lat":43.296131,"lon":5.370773,"is_reserved":false,"is_disabled":false,"rental_uris":{"android":"levelo://app?vid=726a6ad4-9661-41f3-8a53-c7fa2798c560","ios":"levelo://app?vid=726a6ad4-9661-41f3-8a53-c7fa2798c560"},"vehicle_type_id":"4","last_reported":1708247205,"current_range_meters":30400,"station_id":"ce4bgnh2rcd13ifvqc0g","pricing_plan_id":"cebpf4jnsgd1na2vs0mg"},{"bike_id":"f583de1d-c8bf-457a-a461-26b2779feac6","system_id":"levelo_inurba_marseille","lat":43.296129,"lon":5.370777,"is_reserved":false,"is_disabled":false,"rental_uris":{"android":"levelo://app?vid=f583de1d-c8bf-457a-a461-26b2779feac6","ios":"levelo://app?vid=f583de1d-c8bf-457a-a461-26b2779feac6"},"vehicle_type_id":"4","last_reported":1708247205,"current_range_meters":30400,"station_id":"ce4bgnh2rcd13ifvqc0g","pricing_plan_id":"cebpf4jnsgd1na2vs0mg"},{"bike_id":"a2938778-4c0c-4388-8d83-46ed35628e84","system_id":"levelo_inurba_marseille","lat":43.29573,"lon":5.367355,"is_reserved":false,"is_disabled":false,"rental_uris":{"android":"levelo://app?vid=a2938778-4c0c-4388-8d83-46ed35628e84","ios":"levelo://app?vid=a2938778-4c0c-4388-8d83-46ed35628e84"},"vehicle_type_id":"4","last_reported":1708247205,"current_range_meters":29600,"station_id":"ce4bgph2rcd13ifvqc2g","pricing_plan_id":"cebpf4jnsgd1na2vs0mg"},{"bike_id":"f3f147b5-1070-45d6-ad65-7e7e04157c8f","system_id":"levelo_inurba_marseille","lat":43.296935,"lon":5.376544,"is_reserved":false,"is_disabled":false,"rental_uris":{"android":"levelo://app?vid=f3f147b5-1070-45d6-ad65-7e7e04157c8f","ios":"levelo://app?vid=f3f147b5-1070-45d6-ad65-7e7e04157c8f"},"vehicle_type_id":"4","last_reported":1708247205,"current_range_meters":30800,"station_id":"ce4bgkh2rcd13ifvqbl0","pricing_plan_id":"cebpf4jnsgd1na2vs0mg"},{"bike_id":"71a529fa-e045-41f5-8dc7-5b0790059fd8","system_id":"levelo_inurba_marseille","lat":43.309589,"lon":5.390258,"is_reserved":false,"is_disabled":false,"rental_uris":{"android":"levelo://app?vid=71a529fa-e045-41f5-8dc7-5b0790059fd8","ios":"levelo://app?vid=71a529fa-e045-41f5-8dc7-5b0790059fd8"},"vehicle_type_id":"4","last_reported":1708247205,"current_range_meters":20400,"station_id":"ce4bgup2rcd13ifvqco0","pricing_plan_id":"cebpf4jnsgd1na2vs0mg"},{"bike_id":"9b69330c-63bc-4094-955e-01eab8558053","system_id":"levelo_inurba_marseille","lat":43.309551,"lon":5.390268,"is_reserved":false,"is_disabled":false,"rental_uris":{"android":"levelo://app?vid=9b69330c-63bc-4094-955e-01eab8558053","ios":"levelo://app?vid=9b69330c-63bc-4094-955e-01eab8558053"},"vehicle_type_id":"4","last_reported":1708247205,"current_range_meters":20000,"station_id":"ce4bgup2rcd13ifvqco0","pricing_plan_id":"cebpf4jnsgd1na2vs0mg"},{"bike_id":"999e0914-e38d-45bc-9507-85e273810148","system_id":"levelo_inurba_marseille","lat":43.299028,"lon":5.381509,"is_reserved":false,"is_disabled":false,"rental_uris":{"android":"levelo://app?vid=999e0914-e38d-45bc-9507-85e273810148","ios":"levelo://app?vid=999e0914-e38d-45bc-9507-85e273810148"},"vehicle_type_id":"4","last_reported":1708247205,"current_range_meters":26000,"station_id":"ce4bgj12rcd13ifvqbc0","pricing_plan_id":"cebpf4jnsgd1na2vs0mg"},{"bike_id":"8e1a1e0d-f70e-47a8-b628-da34a152ff29","system_id":"levelo_inurba_marseille","lat":43.309589,"lon":5.390258,"is_reserved":false,"is_disabled":false,"rental_uris":{"android":"levelo://app?vid=8e1a1e0d-f70e-47a8-b628-da34a152ff29","ios":"levelo://app?vid=8e1a1e0d-f70e-47a8-b628-da34a152ff29"},"vehicle_type_id":"4","last_reported":1708247205,"current_range_meters":8400,"station_id":"ce4bgup2rcd13ifvqco0","pricing_plan_id":"cebpf4jnsgd1na2vs0mg"},{"bike_id":"29831ef1-024e-419d-9bc5-7b49a472cdda","system_id":"levelo_inurba_marseille","lat":43.309589,"lon":5.390258,"is_reserved":false,"is_disabled":false,"rental_uris":{"android":"levelo://app?vid=29831ef1-024e-419d-9bc5-7b49a472cdda","ios":"levelo://app?vid=29831ef1-024e-419d-9bc5-7b49a472cdda"},"vehicle_type_id":"4","last_reported":1708247205,"current_range_meters":19200,"station_id":"ce4bgup2rcd13ifvqco0","pricing_plan_id":"cebpf4jnsgd1na2vs0mg"},{"bike_id":"ed87d69f-71e3-4a80-a6a0-6a1355afd957","system_id":"levelo_inurba_marseille","lat":43.31758,"lon":5.39011,"is_reserved":false,"is_disabled":false,"rental_uris":{"android":"levelo://app?vid=ed87d69f-71e3-4a80-a6a0-6a1355afd957","ios":"levelo://app?vid=ed87d69f-71e3-4a80-a6a0-6a1355afd957"},"vehicle_type_id":"4","last_reported":1708247205,"current_range_meters":6800,"station_id":"ce4bhqp2rcd13ifvqhng","pricing_plan_id":"cebpf4jnsgd1na2vs0mg"},{"bike_id":"b3dcb9ba-bf07-48c1-aada-2fbdb761a352","system_id":"levelo_inurba_marseille","lat":43.317557,"lon":5.390173,"is_reserved":false,"is_disabled":false,"rental_uris":{"android":"levelo://app?vid=b3dcb9ba-bf07-48c1-aada-2fbdb761a352","ios":"levelo://app?vid=b3dcb9ba-bf07-48c1-aada-2fbdb761a352"},"vehicle_type_id":"4","last_reported":1708247205,"current_range_meters":31200,"station_id":"ce4bhqp2rcd13ifvqhng","pricing_plan_id":"cebpf4jnsgd1na2vs0mg"},{"bike_id":"285e59d9-f908-4685-8bd6-fcd9b313a0db","system_id":"levelo_inurba_marseille","lat":43.317557,"lon":5.390173,"is_reserved":false,"is_disabled":false,"rental_uris":{"android":"levelo://app?vid=285e59d9-f908-4685-8bd6-fcd9b313a0db","ios":"levelo://app?vid=285e59d9-f908-4685-8bd6-fcd9b313a0db"},"vehicle_type_id":"4","last_reported":1708247205,"current_range_meters":24800,"station_id":"ce4bhqp2rcd13ifvqhng","pricing_plan_id":"cebpf4jnsgd1na2vs0mg"},{"bike_id":"44cbb8e0-0bfc-4f58-8786-f1c9e977d900","system_id":"levelo_inurba_marseille","lat":43.317557,"lon":5.390173,"is_reserved":false,"is_disabled":false,"rental_uris":{"android":"levelo://app?vid=44cbb8e0-0bfc-4f58-8786-f1c9e977d900","ios":"levelo://app?vid=44cbb8e0-0bfc-4f58-8786-f1c9e977d900"},"vehicle_type_id":"4","last_reported":1708247205,"current_range_meters":16400,"station_id":"ce4bhqp2rcd13ifvqhng","pricing_plan_id":"cebpf4jnsgd1na2vs0mg"},{"bike_id":"e71aad95-e785-4fac-9d74-e2b56468f77a","system_id":"levelo_inurba_marseille","lat":43.317557,"lon":5.390173,"is_reserved":false,"is_disabled":false,"rental_uris":{"android":"levelo://app?vid=e71aad95-e785-4fac-9d74-e2b56468f77a","ios":"levelo://app?vid=e71aad95-e785-4fac-9d74-e2b56468f77a"},"vehicle_type_id":"4","last_reported":1708247205,"current_range_meters":30000,"station_id":"ce4bhqp2rcd13ifvqhng","pricing_plan_id":"cebpf4jnsgd1na2vs0mg"},{"bike_id":"97a69081-e40f-4bff-91ab-0552d61a0af4","system_id":"levelo_inurba_marseille","lat":43.309589,"lon":5.390258,"is_reserved":false,"is_disabled":false,"rental_uris":{"android":"levelo://app?vid=97a69081-e40f-4bff-91ab-0552d61a0af4","ios":"levelo://app?vid=97a69081-e40f-4bff-91ab-0552d61a0af4"},"vehicle_type_id":"4","last_reported":1708247205,"current_range_meters":30000,"station_id":"ce4bgup2rcd13ifvqco0","pricing_plan_id":"cebpf4jnsgd1na2vs0mg"},{"bike_id":"71c417ba-5d01-44d6-b2b1-27e959f8f6fb","system_id":"levelo_inurba_marseille","lat":43.317557,"lon":5.390173,"is_reserved":false,"is_disabled":false,"rental_uris":{"android":"levelo://app?vid=71c417ba-5d01-44d6-b2b1-27e959f8f6fb","ios":"levelo://app?vid=71c417ba-5d01-44d6-b2b1-27e959f8f6fb"},"vehicle_type_id":"4","last_reported":1708247205,"current_range_meters":27600,"station_id":"ce4bhqp2rcd13ifvqhng","pricing_plan_id":"cebpf4jnsgd1na2vs0mg"},{"bike_id":"6a304e71-b344-43f1-b195-6cf86194e097","system_id":"levelo_inurba_marseille","lat":43.298037,"lon":5.381066,"is_reserved":false,"is_disabled":false,"rental_uris":{"android":"levelo://app?vid=6a304e71-b344-43f1-b195-6cf86194e097","ios":"levelo://app?vid=6a304e71-b344-43f1-b195-6cf86194e097"},"vehicle_type_id":"4","last_reported":1708247205,"current_range_meters":22800,"station_id":"ce4bgip2rcd13ifvqbb0","pricing_plan_id":"cebpf4jnsgd1na2vs0mg"},{"bike_id":"5aab51ea-08c1-4f1e-926f-2a88d415cca8","system_id":"levelo_inurba_marseille","lat":43.298037,"lon":5.381066,"is_reserved":false,"is_disabled":false,"rental_uris":{"android":"levelo://app?vid=5aab51ea-08c1-4f1e-926f-2a88d415cca8","ios":"levelo://app?vid=5aab51ea-08c1-4f1e-926f-2a88d415cca8"},"vehicle_type_id":"4","last_reported":1708247205,"current_range_meters":16000,"station_id":"ce4bgip2rcd13ifvqbb0","pricing_plan_id":"cebpf4jnsgd1na2vs0mg"},{"bike_id":"fd98f5a2-699c-47b8-99a0-454c8088012d","system_id":"levelo_inurba_marseille","lat":43.298037,"lon":5.381066,"is_reserved":false,"is_disabled":false,"rental_uris":{"android":"levelo://app?vid=fd98f5a2-699c-47b8-99a0-454c8088012d","ios":"levelo://app?vid=fd98f5a2-699c-47b8-99a0-454c8088012d"},"vehicle_type_id":"4","last_reported":1708247205,"current_range_meters":28000,"station_id":"ce4bgip2rcd13ifvqbb0","pricing_plan_id":"cebpf4jnsgd1na2vs0mg"},{"bike_id":"3c7a440e-a3cd-4de5-97d6-a37f45a51cb7","system_id":"levelo_inurba_marseille","lat":43.295748,"lon":5.37522,"is_reserved":false,"is_disabled":false,"rental_uris":{"android":"levelo://app?vid=3c7a440e-a3cd-4de5-97d6-a37f45a51cb7","ios":"levelo://app?vid=3c7a440e-a3cd-4de5-97d6-a37f45a51cb7"},"vehicle_type_id":"4","last_reported":1708247205,"current_range_meters":28400,"station_id":"ce4bgh92rcd13ifvqb50","pricing_plan_id":"cebpf4jnsgd1na2vs0mg"},{"bike_id":"303b56e7-30e4-4bd8-a5bc-9e8e18c0bf47","system_id":"levelo_inurba_marseille","lat":43.304278,"lon":5.388868,"is_reserved":false,"is_disabled":false,"rental_uris":{"android":"levelo://app?vid=303b56e7-30e4-4bd8-a5bc-9e8e18c0bf47","ios":"levelo://app?vid=303b56e7-30e4-4bd8-a5bc-9e8e18c0bf47"},"vehicle_type_id":"4","last_reported":1708247205,"current_range_meters":30000,"station_id":"ce4bgk12rcd13ifvqbi0","pricing_plan_id":"cebpf4jnsgd1na2vs0mg"},{"bike_id":"c632fd25-15fd-47ca-807d-ae0e691cca2d","system_id":"levelo_inurba_marseille","lat":43.304278,"lon":5.388868,"is_reserved":false,"is_disabled":false,"rental_uris":{"android":"levelo://app?vid=c632fd25-15fd-47ca-807d-ae0e691cca2d","ios":"levelo://app?vid=c632fd25-15fd-47ca-807d-ae0e691cca2d"},"vehicle_type_id":"4","last_reported":1708247205,"current_range_meters":17200,"station_id":"ce4bgk12rcd13ifvqbi0","pricing_plan_id":"cebpf4jnsgd1na2vs0mg"},{"bike_id":"8d1b987d-81e5-47e2-8db2-1305c55a909a","system_id":"levelo_inurba_marseille","lat":43.295748,"lon":5.37522,"is_reserved":false,"is_disabled":false,"rental_uris":{"android":"levelo://app?vid=8d1b987d-81e5-47e2-8db2-1305c55a909a","ios":"levelo://app?vid=8d1b987d-81e5-47e2-8db2-1305c55a909a"},"vehicle_type_id":"4","last_reported":1708247205,"current_range_meters":17600,"station_id":"ce4bgh92rcd13ifvqb50","pricing_plan_id":"cebpf4jnsgd1na2vs0mg"},{"bike_id":"648c5291-3dc4-4a96-896a-e6ba3470c007","system_id":"levelo_inurba_marseille","lat":43.297785,"lon":5.381325,"is_reserved":false,"is_disabled":false,"rental_uris":{"android":"levelo://app?vid=648c5291-3dc4-4a96-896a-e6ba3470c007","ios":"levelo://app?vid=648c5291-3dc4-4a96-896a-e6ba3470c007"},"vehicle_type_id":"4","last_reported":1708247205,"current_range_meters":10800,"station_id":"","pricing_plan_id":"cebpf4jnsgd1na2vs0mg"},{"bike_id":"ac1f3fdd-c0ab-4cfc-b480-75b7c899b434","system_id":"levelo_inurba_marseille","lat":43.296277,"lon":5.377108,"is_reserved":false,"is_disabled":false,"rental_uris":{"android":"levelo://app?vid=ac1f3fdd-c0ab-4cfc-b480-75b7c899b434","ios":"levelo://app?vid=ac1f3fdd-c0ab-4cfc-b480-75b7c899b434"},"vehicle_type_id":"4","last_reported":1708247205,"current_range_meters":2000,"station_id":"ce4bgi92rcd13ifvqb90","pricing_plan_id":"cebpf4jnsgd1na2vs0mg"},{"bike_id":"c1edc4a8-db92-41ce-b460-90e3af61313d","system_id":"levelo_inurba_marseille","lat":43.295279,"lon":5.375048,"is_reserved":false,"is_disabled":false,"rental_uris":{"android":"levelo://app?vid=c1edc4a8-db92-41ce-b460-90e3af61313d","ios":"levelo://app?vid=c1edc4a8-db92-41ce-b460-90e3af61313d"},"vehicle_type_id":"4","last_reported":1708247205,"current_range_meters":6000,"station_id":"ce4bgkp2rcd13ifvqbmg","pricing_plan_id":"cebpf4jnsgd1na2vs0mg"},{"bike_id":"4b9c92db-5a52-4143-ae2c-a117e5268c68","system_id":"levelo_inurba_marseille","lat":43.2952,"lon":5.37504,"is_reserved":false,"is_disabled":false,"rental_uris":{"android":"levelo://app?vid=4b9c92db-5a52-4143-ae2c-a117e5268c68","ios":"levelo://app?vid=4b9c92db-5a52-4143-ae2c-a117e5268c68"},"vehicle_type_id":"4","last_reported":1708247205,"current_range_meters":21600,"station_id":"ce4bgkp2rcd13ifvqbmg","pricing_plan_id":"cebpf4jnsgd1na2vs0mg"},{"bike_id":"b2f832fe-1f2c-466b-89b8-cb1fe3a0c23d","system_id":"levelo_inurba_marseille","lat":43.295279,"lon":5.375048,"is_reserved":false,"is_disabled":false,"rental_uris":{"android":"levelo://app?vid=b2f832fe-1f2c-466b-89b8-cb1fe3a0c23d","ios":"levelo://app?vid=b2f832fe-1f2c-466b-89b8-cb1fe3a0c23d"},"vehicle_type_id":"4","last_reported":1708247205,"current_range_meters":4000,"station_id":"ce4bgkp2rcd13ifvqbmg","pricing_plan_id":"cebpf4jnsgd1na2vs0mg"},{"bike_id":"3ccc7b7e-3277-4a9d-8507-bc58b551e413","system_id":"levelo_inurba_marseille","lat":43.295279,"lon":5.375048,"is_reserved":false,"is_disabled":false,"rental_uris":{"android":"levelo://app?vid=3ccc7b7e-3277-4a9d-8507-bc58b551e413","ios":"levelo://app?vid=3ccc7b7e-3277-4a9d-8507-bc58b551e413"},"vehicle_type_id":"4","last_reported":1708247205,"current_range_meters":28400,"station_id":"ce4bgkp2rcd13ifvqbmg","pricing_plan_id":"cebpf4jnsgd1na2vs0mg"},{"bike_id":"aa4e917f-4aa0-43e7-8bef-ba7b21677749","system_id":"levelo_inurba_marseille","lat":43.295279,"lon":5.375048,"is_reserved":false,"is_disabled":false,"rental_uris":{"android":"levelo://app?vid=aa4e917f-4aa0-43e7-8bef-ba7b21677749","ios":"levelo://app?vid=aa4e917f-4aa0-43e7-8bef-ba7b21677749"},"vehicle_type_id":"4","last_reported":1708247205,"current_range_meters":27600,"station_id":"ce4bgkp2rcd13ifvqbmg","pricing_plan_id":"cebpf4jnsgd1na2vs0mg"},{"bike_id":"9d993f1a-927d-4286-879b-ac09dc01bad2","system_id":"levelo_inurba_marseille","lat":43.32367,"lon":5.388836,"is_reserved":false,"is_disabled":false,"rental_uris":{"android":"levelo://app?vid=9d993f1a-927d-4286-879b-ac09dc01bad2","ios":"levelo://app?vid=9d993f1a-927d-4286-879b-ac09dc01bad2"},"vehicle_type_id":"4","last_reported":1708247205,"current_range_meters":800,"station_id":"ce4bhqp2rcd13ifvqhog","pricing_plan_id":"cebpf4jnsgd1na2vs0mg"},{"bike_id":"54047e98-901f-4500-adfe-e783d9ac5520","system_id":"levelo_inurba_marseille","lat":43.323627,"lon":5.38879,"is_reserved":false,"is_disabled":false,"rental_uris":{"android":"levelo://app?vid=54047e98-901f-4500-adfe-e783d9ac5520","ios":"levelo://app?vid=54047e98-901f-4500-adfe-e783d9ac5520"},"vehicle_type_id":"4","last_reported":1708247205,"current_range_meters":30400,"station_id":"ce4bhqp2rcd13ifvqhog","pricing_plan_id":"cebpf4jnsgd1na2vs0mg"},{"bike_id":"13401729-ae07-4edb-ac21-d9d61a6255c0","system_id":"levelo_inurba_marseille","lat":43.32363,"lon":5.38879,"is_reserved":false,"is_disabled":false,"rental_uris":{"android":"levelo://app?vid=13401729-ae07-4edb-ac21-d9d61a6255c0","ios":"levelo://app?vid=13401729-ae07-4edb-ac21-d9d61a6255c0"},"vehicle_type_id":"4","last_reported":1708247205,"current_range_meters":26400,"station_id":"ce4bhqp2rcd13ifvqhog","pricing_plan_id":"cebpf4jnsgd1na2vs0mg"},{"bike_id":"04bef4fc-f501-41bd-9104-a149c6db62aa","system_id":"levelo_inurba_marseille","lat":43.32364,"lon":5.38879,"is_reserved":false,"is_disabled":false,"rental_uris":{"android":"levelo://app?vid=04bef4fc-f501-41bd-9104-a149c6db62aa","ios":"levelo://app?vid=04bef4fc-f501-41bd-9104-a149c6db62aa"},"vehicle_type_id":"4","last_reported":1708247205,"current_range_meters":7200,"station_id":"ce4bhqp2rcd13ifvqhog","pricing_plan_id":"cebpf4jnsgd1na2vs0mg"},{"bike_id":"6af73b7c-3333-47f9-9c52-fb4e2c063bc2","system_id":"levelo_inurba_marseille","lat":43.32367,"lon":5.388836,"is_reserved":false,"is_disabled":false,"rental_uris":{"android":"levelo://app?vid=6af73b7c-3333-47f9-9c52-fb4e2c063bc2","ios":"levelo://app?vid=6af73b7c-3333-47f9-9c52-fb4e2c063bc2"},"vehicle_type_id":"4","last_reported":1708247205,"current_range_meters":7600,"station_id":"ce4bhqp2rcd13ifvqhog","pricing_plan_id":"cebpf4jnsgd1na2vs0mg"},{"bike_id":"0098d705-b974-41dc-a726-5e5b8f8af6cf","system_id":"levelo_inurba_marseille","lat":43.32367,"lon":5.388836,"is_reserved":false,"is_disabled":false,"rental_uris":{"android":"levelo://app?vid=0098d705-b974-41dc-a726-5e5b8f8af6cf","ios":"levelo://app?vid=0098d705-b974-41dc-a726-5e5b8f8af6cf"},"vehicle_type_id":"4","last_reported":1708247205,"current_range_meters":13600,"station_id":"ce4bhqp2rcd13ifvqhog","pricing_plan_id":"cebpf4jnsgd1na2vs0mg"},{"bike_id":"e9fb838e-b288-41f7-8b95-04552e228ee4","system_id":"levelo_inurba_marseille","lat":43.323659,"lon":5.388859,"is_reserved":false,"is_disabled":false,"rental_uris":{"android":"levelo://app?vid=e9fb838e-b288-41f7-8b95-04552e228ee4","ios":"levelo://app?vid=e9fb838e-b288-41f7-8b95-04552e228ee4"},"vehicle_type_id":"4","last_reported":1708247205,"current_range_meters":21200,"station_id":"ce4bhqp2rcd13ifvqhog","pricing_plan_id":"cebpf4jnsgd1na2vs0mg"},{"bike_id":"cf13079a-fab6-41b5-bea9-346ba446f154","system_id":"levelo_inurba_marseille","lat":43.32367,"lon":5.388836,"is_reserved":false,"is_disabled":false,"rental_uris":{"android":"levelo://app?vid=cf13079a-fab6-41b5-bea9-346ba446f154","ios":"levelo://app?vid=cf13079a-fab6-41b5-bea9-346ba446f154"},"vehicle_type_id":"4","last_reported":1708247205,"current_range_meters":27200,"station_id":"ce4bhqp2rcd13ifvqhog","pricing_plan_id":"cebpf4jnsgd1na2vs0mg"},{"bike_id":"85b7d3f5-0fa2-43f3-a410-8e41ce1cabfc","system_id":"levelo_inurba_marseille","lat":43.323652,"lon":5.388884,"is_reserved":false,"is_disabled":false,"rental_uris":{"android":"levelo://app?vid=85b7d3f5-0fa2-43f3-a410-8e41ce1cabfc","ios":"levelo://app?vid=85b7d3f5-0fa2-43f3-a410-8e41ce1cabfc"},"vehicle_type_id":"4","last_reported":1708247205,"current_range_meters":4400,"station_id":"ce4bhqp2rcd13ifvqhog","pricing_plan_id":"cebpf4jnsgd1na2vs0mg"},{"bike_id":"73812b29-d260-48aa-afde-5f5ce2b81b46","system_id":"levelo_inurba_marseille","lat":43.32367,"lon":5.38891,"is_reserved":false,"is_disabled":false,"rental_uris":{"android":"levelo://app?vid=73812b29-d260-48aa-afde-5f5ce2b81b46","ios":"levelo://app?vid=73812b29-d260-48aa-afde-5f5ce2b81b46"},"vehicle_type_id":"4","last_reported":1708247205,"current_range_meters":29200,"station_id":"ce4bhqp2rcd13ifvqhog","pricing_plan_id":"cebpf4jnsgd1na2vs0mg"},{"bike_id":"097fbc68-0e12-4cda-a32c-f9f7e74ee0ed","system_id":"levelo_inurba_marseille","lat":43.323651,"lon":5.388933,"is_reserved":false,"is_disabled":false,"rental_uris":{"android":"levelo://app?vid=097fbc68-0e12-4cda-a32c-f9f7e74ee0ed","ios":"levelo://app?vid=097fbc68-0e12-4cda-a32c-f9f7e74ee0ed"},"vehicle_type_id":"4","last_reported":1708247205,"current_range_meters":2800,"station_id":"ce4bhqp2rcd13ifvqhog","pricing_plan_id":"cebpf4jnsgd1na2vs0mg"},{"bike_id":"9d871f50-0327-4348-a9da-d10b72178825","system_id":"levelo_inurba_marseille","lat":43.32371,"lon":5.38889,"is_reserved":false,"is_disabled":false,"rental_uris":{"android":"levelo://app?vid=9d871f50-0327-4348-a9da-d10b72178825","ios":"levelo://app?vid=9d871f50-0327-4348-a9da-d10b72178825"},"vehicle_type_id":"4","last_reported":1708247205,"current_range_meters":20800,"station_id":"ce4bhqp2rcd13ifvqhog","pricing_plan_id":"cebpf4jnsgd1na2vs0mg"},{"bike_id":"e30b5766-139a-4ca3-8c44-a91808c842c6","system_id":"levelo_inurba_marseille","lat":43.29397,"lon":5.376251,"is_reserved":false,"is_disabled":false,"rental_uris":{"android":"levelo://app?vid=e30b5766-139a-4ca3-8c44-a91808c842c6","ios":"levelo://app?vid=e30b5766-139a-4ca3-8c44-a91808c842c6"},"vehicle_type_id":"4","last_reported":1708247205,"current_range_meters":20000,"station_id":"","pricing_plan_id":"cebpf4jnsgd1na2vs0mg"},{"bike_id":"04d4e729-3860-4938-989f-c128ae0b0ed2","system_id":"levelo_inurba_marseille","lat":43.292749,"lon":5.368402,"is_reserved":false,"is_disabled":false,"rental_uris":{"android":"levelo://app?vid=04d4e729-3860-4938-989f-c128ae0b0ed2","ios":"levelo://app?vid=04d4e729-3860-4938-989f-c128ae0b0ed2"},"vehicle_type_id":"4","last_reported":1708247205,"current_range_meters":13600,"station_id":"ce4bhbp2rcd13ifvqesg","pricing_plan_id":"cebpf4jnsgd1na2vs0mg"},{"bike_id":"3fbf413f-4197-4c05-b8ff-bfbbdc3211f9","system_id":"levelo_inurba_marseille","lat":43.292749,"lon":5.368402,"is_reserved":false,"is_disabled":false,"rental_uris":{"android":"levelo://app?vid=3fbf413f-4197-4c05-b8ff-bfbbdc3211f9","ios":"levelo://app?vid=3fbf413f-4197-4c05-b8ff-bfbbdc3211f9"},"vehicle_type_id":"4","last_reported":1708247205,"current_range_meters":20000,"station_id":"ce4bhbp2rcd13ifvqesg","pricing_plan_id":"cebpf4jnsgd1na2vs0mg"},{"bike_id":"b634a9e9-994e-4049-be5f-276618037f87","system_id":"levelo_inurba_marseille","lat":43.292749,"lon":5.368402,"is_reserved":false,"is_disabled":false,"rental_uris":{"android":"levelo://app?vid=b634a9e9-994e-4049-be5f-276618037f87","ios":"levelo://app?vid=b634a9e9-994e-4049-be5f-276618037f87"},"vehicle_type_id":"4","last_reported":1708247205,"current_range_meters":24800,"station_id":"ce4bhbp2rcd13ifvqesg","pricing_plan_id":"cebpf4jnsgd1na2vs0mg"},{"bike_id":"42118bca-3186-4eb8-b631-f55d999cac80","system_id":"levelo_inurba_marseille","lat":43.292749,"lon":5.368402,"is_reserved":false,"is_disabled":false,"rental_uris":{"android":"levelo://app?vid=42118bca-3186-4eb8-b631-f55d999cac80","ios":"levelo://app?vid=42118bca-3186-4eb8-b631-f55d999cac80"},"vehicle_type_id":"4","last_reported":1708247205,"current_range_meters":28000,"station_id":"ce4bhbp2rcd13ifvqesg","pricing_plan_id":"cebpf4jnsgd1na2vs0mg"},{"bike_id":"a6192bc6-8c79-4a31-ad29-112aa45fbcb5","system_id":"levelo_inurba_marseille","lat":43.292749,"lon":5.368402,"is_reserved":false,"is_disabled":false,"rental_uris":{"android":"levelo://app?vid=a6192bc6-8c79-4a31-ad29-112aa45fbcb5","ios":"levelo://app?vid=a6192bc6-8c79-4a31-ad29-112aa45fbcb5"},"vehicle_type_id":"4","last_reported":1708247205,"current_range_meters":23600,"station_id":"ce4bhbp2rcd13ifvqesg","pricing_plan_id":"cebpf4jnsgd1na2vs0mg"},{"bike_id":"9445e0c0-8c1f-4893-ba73-e9000249e3cc","system_id":"levelo_inurba_marseille","lat":43.292749,"lon":5.368402,"is_reserved":false,"is_disabled":false,"rental_uris":{"android":"levelo://app?vid=9445e0c0-8c1f-4893-ba73-e9000249e3cc","ios":"levelo://app?vid=9445e0c0-8c1f-4893-ba73-e9000249e3cc"},"vehicle_type_id":"4","last_reported":1708247205,"current_range_meters":22800,"station_id":"ce4bhbp2rcd13ifvqesg","pricing_plan_id":"cebpf4jnsgd1na2vs0mg"},{"bike_id":"eaed771c-f874-451d-a0a3-ee2e7a5d7da5","system_id":"levelo_inurba_marseille","lat":43.29272,"lon":5.36826,"is_reserved":false,"is_disabled":false,"rental_uris":{"android":"levelo://app?vid=eaed771c-f874-451d-a0a3-ee2e7a5d7da5","ios":"levelo://app?vid=eaed771c-f874-451d-a0a3-ee2e7a5d7da5"},"vehicle_type_id":"4","last_reported":1708247205,"current_range_meters":30000,"station_id":"ce4bhbp2rcd13ifvqesg","pricing_plan_id":"cebpf4jnsgd1na2vs0mg"},{"bike_id":"88c72ff0-ca18-48f5-9670-174edf6ce6af","system_id":"levelo_inurba_marseille","lat":43.292749,"lon":5.368402,"is_reserved":false,"is_disabled":false,"rental_uris":{"android":"levelo://app?vid=88c72ff0-ca18-48f5-9670-174edf6ce6af","ios":"levelo://app?vid=88c72ff0-ca18-48f5-9670-174edf6ce6af"},"vehicle_type_id":"4","last_reported":1708247205,"current_range_meters":5200,"station_id":"ce4bhbp2rcd13ifvqesg","pricing_plan_id":"cebpf4jnsgd1na2vs0mg"},{"bike_id":"f14a8c42-5a7c-402f-a78c-6e8fec6a8d68","system_id":"levelo_inurba_marseille","lat":43.292749,"lon":5.368402,"is_reserved":false,"is_disabled":false,"rental_uris":{"android":"levelo://app?vid=f14a8c42-5a7c-402f-a78c-6e8fec6a8d68","ios":"levelo://app?vid=f14a8c42-5a7c-402f-a78c-6e8fec6a8d68"},"vehicle_type_id":"4","last_reported":1708247205,"current_range_meters":19600,"station_id":"ce4bhbp2rcd13ifvqesg","pricing_plan_id":"cebpf4jnsgd1na2vs0mg"},{"bike_id":"3c30ed02-b1e8-40e6-be90-471c326d139a","system_id":"levelo_inurba_marseille","lat":43.293009,"lon":5.374584,"is_reserved":false,"is_disabled":false,"rental_uris":{"android":"levelo://app?vid=3c30ed02-b1e8-40e6-be90-471c326d139a","ios":"levelo://app?vid=3c30ed02-b1e8-40e6-be90-471c326d139a"},"vehicle_type_id":"4","last_reported":1708247205,"current_range_meters":30400,"station_id":"ce4bgi12rcd13ifvqb70","pricing_plan_id":"cebpf4jnsgd1na2vs0mg"},{"bike_id":"1f401fb3-d0c2-497b-b9f0-3f9af6569bb2","system_id":"levelo_inurba_marseille","lat":43.305994,"lon":5.393687,"is_reserved":false,"is_disabled":false,"rental_uris":{"android":"levelo://app?vid=1f401fb3-d0c2-497b-b9f0-3f9af6569bb2","ios":"levelo://app?vid=1f401fb3-d0c2-497b-b9f0-3f9af6569bb2"},"vehicle_type_id":"4","last_reported":1708247205,"current_range_meters":24400,"station_id":"ce4bh0p2rcd13ifvqd80","pricing_plan_id":"cebpf4jnsgd1na2vs0mg"},{"bike_id":"207b7166-1c9a-4ec9-8baf-c3fa51a2fcbd","system_id":"levelo_inurba_marseille","lat":43.292311,"lon":5.360731,"is_reserved":false,"is_disabled":false,"rental_uris":{"android":"levelo://app?vid=207b7166-1c9a-4ec9-8baf-c3fa51a2fcbd","ios":"levelo://app?vid=207b7166-1c9a-4ec9-8baf-c3fa51a2fcbd"},"vehicle_type_id":"4","last_reported":1708247205,"current_range_meters":18400,"station_id":"ce4bhbh2rcd13ifvqeqg","pricing_plan_id":"cebpf4jnsgd1na2vs0mg"},{"bike_id":"12e1f748-9f7b-40ca-b93f-382e51ee4628","system_id":"levelo_inurba_marseille","lat":43.29226,"lon":5.36058,"is_reserved":false,"is_disabled":false,"rental_uris":{"android":"levelo://app?vid=12e1f748-9f7b-40ca-b93f-382e51ee4628","ios":"levelo://app?vid=12e1f748-9f7b-40ca-b93f-382e51ee4628"},"vehicle_type_id":"4","last_reported":1708247205,"current_range_meters":10000,"station_id":"ce4bhbh2rcd13ifvqeqg","pricing_plan_id":"cebpf4jnsgd1na2vs0mg"},{"bike_id":"e33178e2-ddca-495d-b188-24b26ea6f4d3","system_id":"levelo_inurba_marseille","lat":43.292311,"lon":5.360731,"is_reserved":false,"is_disabled":false,"rental_uris":{"android":"levelo://app?vid=e33178e2-ddca-495d-b188-24b26ea6f4d3","ios":"levelo://app?vid=e33178e2-ddca-495d-b188-24b26ea6f4d3"},"vehicle_type_id":"4","last_reported":1708247205,"current_range_meters":21200,"station_id":"ce4bhbh2rcd13ifvqeqg","pricing_plan_id":"cebpf4jnsgd1na2vs0mg"},{"bike_id":"e359a2d6-7bbe-4b60-b077-611fd4eb58fc","system_id":"levelo_inurba_marseille","lat":43.29224,"lon":5.36058,"is_reserved":false,"is_disabled":false,"rental_uris":{"android":"levelo://app?vid=e359a2d6-7bbe-4b60-b077-611fd4eb58fc","ios":"levelo://app?vid=e359a2d6-7bbe-4b60-b077-611fd4eb58fc"},"vehicle_type_id":"4","last_reported":1708247205,"current_range_meters":23200,"station_id":"ce4bhbh2rcd13ifvqeqg","pricing_plan_id":"cebpf4jnsgd1na2vs0mg"},{"bike_id":"a3c55cf1-9168-4be5-8584-83dbf4e25ab8","system_id":"levelo_inurba_marseille","lat":43.29226,"lon":5.36044,"is_reserved":false,"is_disabled":false,"rental_uris":{"android":"levelo://app?vid=a3c55cf1-9168-4be5-8584-83dbf4e25ab8","ios":"levelo://app?vid=a3c55cf1-9168-4be5-8584-83dbf4e25ab8"},"vehicle_type_id":"4","last_reported":1708247205,"current_range_meters":28800,"station_id":"ce4bhbh2rcd13ifvqeqg","pricing_plan_id":"cebpf4jnsgd1na2vs0mg"},{"bike_id":"fe9a1e98-9d53-45e9-93d5-be7db90bf488","system_id":"levelo_inurba_marseille","lat":43.292311,"lon":5.360731,"is_reserved":false,"is_disabled":false,"rental_uris":{"android":"levelo://app?vid=fe9a1e98-9d53-45e9-93d5-be7db90bf488","ios":"levelo://app?vid=fe9a1e98-9d53-45e9-93d5-be7db90bf488"},"vehicle_type_id":"4","last_reported":1708247205,"current_range_meters":11200,"station_id":"ce4bhbh2rcd13ifvqeqg","pricing_plan_id":"cebpf4jnsgd1na2vs0mg"},{"bike_id":"408525fa-5c7b-4f95-9e52-4f1e9c77b5b8","system_id":"levelo_inurba_marseille","lat":43.292311,"lon":5.360731,"is_reserved":false,"is_disabled":false,"rental_uris":{"android":"levelo://app?vid=408525fa-5c7b-4f95-9e52-4f1e9c77b5b8","ios":"levelo://app?vid=408525fa-5c7b-4f95-9e52-4f1e9c77b5b8"},"vehicle_type_id":"4","last_reported":1708247205,"current_range_meters":24000,"station_id":"ce4bhbh2rcd13ifvqeqg","pricing_plan_id":"cebpf4jnsgd1na2vs0mg"},{"bike_id":"b2b2458a-6863-4ac0-9c06-0740c645d861","system_id":"levelo_inurba_marseille","lat":43.292311,"lon":5.360731,"is_reserved":false,"is_disabled":false,"rental_uris":{"android":"levelo://app?vid=b2b2458a-6863-4ac0-9c06-0740c645d861","ios":"levelo://app?vid=b2b2458a-6863-4ac0-9c06-0740c645d861"},"vehicle_type_id":"4","last_reported":1708247205,"current_range_meters":27600,"station_id":"ce4bhbh2rcd13ifvqeqg","pricing_plan_id":"cebpf4jnsgd1na2vs0mg"},{"bike_id":"72f4a7c5-27e7-440f-a013-53637db1ba24","system_id":"levelo_inurba_marseille","lat":43.292311,"lon":5.360731,"is_reserved":false,"is_disabled":false,"rental_uris":{"android":"levelo://app?vid=72f4a7c5-27e7-440f-a013-53637db1ba24","ios":"levelo://app?vid=72f4a7c5-27e7-440f-a013-53637db1ba24"},"vehicle_type_id":"4","last_reported":1708247205,"current_range_meters":21600,"station_id":"ce4bhbh2rcd13ifvqeqg","pricing_plan_id":"cebpf4jnsgd1na2vs0mg"},{"bike_id":"b7d6db87-9011-4d51-81fc-f6032498435d","system_id":"levelo_inurba_marseille","lat":43.29218,"lon":5.3605,"is_reserved":false,"is_disabled":false,"rental_uris":{"android":"levelo://app?vid=b7d6db87-9011-4d51-81fc-f6032498435d","ios":"levelo://app?vid=b7d6db87-9011-4d51-81fc-f6032498435d"},"vehicle_type_id":"4","last_reported":1708247205,"current_range_meters":31200,"station_id":"ce4bhbh2rcd13ifvqeqg","pricing_plan_id":"cebpf4jnsgd1na2vs0mg"},{"bike_id":"473276b9-86b0-4058-9bc7-5e1a08a268cc","system_id":"levelo_inurba_marseille","lat":43.298764,"lon":5.388973,"is_reserved":false,"is_disabled":false,"rental_uris":{"android":"levelo://app?vid=473276b9-86b0-4058-9bc7-5e1a08a268cc","ios":"levelo://app?vid=473276b9-86b0-4058-9bc7-5e1a08a268cc"},"vehicle_type_id":"4","last_reported":1708247205,"current_range_meters":22000,"station_id":"ce4bh392rcd13ifvqdl0","pricing_plan_id":"cebpf4jnsgd1na2vs0mg"},{"bike_id":"9bde00a9-bfa2-4066-8075-3fc0c9c729f8","system_id":"levelo_inurba_marseille","lat":43.291675,"lon":5.371583,"is_reserved":false,"is_disabled":false,"rental_uris":{"android":"levelo://app?vid=9bde00a9-bfa2-4066-8075-3fc0c9c729f8","ios":"levelo://app?vid=9bde00a9-bfa2-4066-8075-3fc0c9c729f8"},"vehicle_type_id":"4","last_reported":1708247205,"current_range_meters":1200,"station_id":"ce4bha92rcd13ifvqeh0","pricing_plan_id":"cebpf4jnsgd1na2vs0mg"},{"bike_id":"1255e2b2-11ad-4b1f-bde0-4648f8c25ddb","system_id":"levelo_inurba_marseille","lat":43.308839,"lon":5.396297,"is_reserved":false,"is_disabled":false,"rental_uris":{"android":"levelo://app?vid=1255e2b2-11ad-4b1f-bde0-4648f8c25ddb","ios":"levelo://app?vid=1255e2b2-11ad-4b1f-bde0-4648f8c25ddb"},"vehicle_type_id":"4","last_reported":1708247205,"current_range_meters":31200,"station_id":"ce4bh012rcd13ifvqcv0","pricing_plan_id":"cebpf4jnsgd1na2vs0mg"},{"bike_id":"873bb653-4c15-46c0-8817-0f6ed06f16fa","system_id":"levelo_inurba_marseille","lat":43.29196,"lon":5.35806,"is_reserved":false,"is_disabled":false,"rental_uris":{"android":"levelo://app?vid=873bb653-4c15-46c0-8817-0f6ed06f16fa","ios":"levelo://app?vid=873bb653-4c15-46c0-8817-0f6ed06f16fa"},"vehicle_type_id":"4","last_reported":1708247205,"current_range_meters":24800,"station_id":"ce4bhb12rcd13ifvqel0","pricing_plan_id":"cebpf4jnsgd1na2vs0mg"},{"bike_id":"5fbfb740-9708-4bce-b1cb-b071ba94f1e4","system_id":"levelo_inurba_marseille","lat":43.309038,"lon":5.396546,"is_reserved":false,"is_disabled":false,"rental_uris":{"android":"levelo://app?vid=5fbfb740-9708-4bce-b1cb-b071ba94f1e4","ios":"levelo://app?vid=5fbfb740-9708-4bce-b1cb-b071ba94f1e4"},"vehicle_type_id":"4","last_reported":1708247205,"current_range_meters":30000,"station_id":"ce4bh012rcd13ifvqcv0","pricing_plan_id":"cebpf4jnsgd1na2vs0mg"},{"bike_id":"3405d537-820b-451b-8ffc-e59fe92280f7","system_id":"levelo_inurba_marseille","lat":43.308846,"lon":5.396368,"is_reserved":false,"is_disabled":false,"rental_uris":{"android":"levelo://app?vid=3405d537-820b-451b-8ffc-e59fe92280f7","ios":"levelo://app?vid=3405d537-820b-451b-8ffc-e59fe92280f7"},"vehicle_type_id":"4","last_reported":1708247205,"current_range_meters":27200,"station_id":"ce4bh012rcd13ifvqcv0","pricing_plan_id":"cebpf4jnsgd1na2vs0mg"},{"bike_id":"74acf364-716e-459a-bb6e-fa3c286da536","system_id":"levelo_inurba_marseille","lat":43.291994,"lon":5.357886,"is_reserved":false,"is_disabled":false,"rental_uris":{"android":"levelo://app?vid=74acf364-716e-459a-bb6e-fa3c286da536","ios":"levelo://app?vid=74acf364-716e-459a-bb6e-fa3c286da536"},"vehicle_type_id":"4","last_reported":1708247205,"current_range_meters":28800,"station_id":"ce4bhb12rcd13ifvqel0","pricing_plan_id":"cebpf4jnsgd1na2vs0mg"},{"bike_id":"1a627463-a7bc-44ca-ad7f-68c178fc29ef","system_id":"levelo_inurba_marseille","lat":43.309038,"lon":5.396546,"is_reserved":false,"is_disabled":false,"rental_uris":{"android":"levelo://app?vid=1a627463-a7bc-44ca-ad7f-68c178fc29ef","ios":"levelo://app?vid=1a627463-a7bc-44ca-ad7f-68c178fc29ef"},"vehicle_type_id":"4","last_reported":1708247205,"current_range_meters":25200,"station_id":"ce4bh012rcd13ifvqcv0","pricing_plan_id":"cebpf4jnsgd1na2vs0mg"},{"bike_id":"8850dfd3-b6d1-432f-8902-9645d14bc857","system_id":"levelo_inurba_marseille","lat":43.309047,"lon":5.396551,"is_reserved":false,"is_disabled":false,"rental_uris":{"android":"levelo://app?vid=8850dfd3-b6d1-432f-8902-9645d14bc857","ios":"levelo://app?vid=8850dfd3-b6d1-432f-8902-9645d14bc857"},"vehicle_type_id":"4","last_reported":1708247205,"current_range_meters":31200,"station_id":"ce4bh012rcd13ifvqcv0","pricing_plan_id":"cebpf4jnsgd1na2vs0mg"},{"bike_id":"aef0a5bd-e77c-4e53-8c54-ca45df7f12f9","system_id":"levelo_inurba_marseille","lat":43.29191,"lon":5.3581,"is_reserved":false,"is_disabled":false,"rental_uris":{"android":"levelo://app?vid=aef0a5bd-e77c-4e53-8c54-ca45df7f12f9","ios":"levelo://app?vid=aef0a5bd-e77c-4e53-8c54-ca45df7f12f9"},"vehicle_type_id":"4","last_reported":1708247205,"current_range_meters":30800,"station_id":"ce4bhb12rcd13ifvqel0","pricing_plan_id":"cebpf4jnsgd1na2vs0mg"},{"bike_id":"8888fe1a-fbca-4be0-84c8-71a79426a92c","system_id":"levelo_inurba_marseille","lat":43.309038,"lon":5.396546,"is_reserved":false,"is_disabled":false,"rental_uris":{"android":"levelo://app?vid=8888fe1a-fbca-4be0-84c8-71a79426a92c","ios":"levelo://app?vid=8888fe1a-fbca-4be0-84c8-71a79426a92c"},"vehicle_type_id":"4","last_reported":1708247205,"current_range_meters":22000,"station_id":"ce4bh012rcd13ifvqcv0","pricing_plan_id":"cebpf4jnsgd1na2vs0mg"},{"bike_id":"a9eccd17-5def-4760-9a40-aeb9165b6264","system_id":"levelo_inurba_marseille","lat":43.313291,"lon":5.396838,"is_reserved":false,"is_disabled":false,"rental_uris":{"android":"levelo://app?vid=a9eccd17-5def-4760-9a40-aeb9165b6264","ios":"levelo://app?vid=a9eccd17-5def-4760-9a40-aeb9165b6264"},"vehicle_type_id":"4","last_reported":1708247205,"current_range_meters":25200,"station_id":"ce4bgvp2rcd13ifvqcu0","pricing_plan_id":"cebpf4jnsgd1na2vs0mg"},{"bike_id":"4a063aef-c630-4c90-bb66-dbc9c479a95c","system_id":"levelo_inurba_marseille","lat":43.29189,"lon":5.3581,"is_reserved":false,"is_disabled":false,"rental_uris":{"android":"levelo://app?vid=4a063aef-c630-4c90-bb66-dbc9c479a95c","ios":"levelo://app?vid=4a063aef-c630-4c90-bb66-dbc9c479a95c"},"vehicle_type_id":"4","last_reported":1708247205,"current_range_meters":19600,"station_id":"ce4bhb12rcd13ifvqel0","pricing_plan_id":"cebpf4jnsgd1na2vs0mg"},{"bike_id":"534b163a-728c-4439-8202-134cc7a21079","system_id":"levelo_inurba_marseille","lat":43.313291,"lon":5.396838,"is_reserved":false,"is_disabled":false,"rental_uris":{"android":"levelo://app?vid=534b163a-728c-4439-8202-134cc7a21079","ios":"levelo://app?vid=534b163a-728c-4439-8202-134cc7a21079"},"vehicle_type_id":"4","last_reported":1708247205,"current_range_meters":31600,"station_id":"ce4bgvp2rcd13ifvqcu0","pricing_plan_id":"cebpf4jnsgd1na2vs0mg"},{"bike_id":"2445c1eb-c116-434a-81b1-7afca8fc81bb","system_id":"levelo_inurba_marseille","lat":43.313291,"lon":5.396838,"is_reserved":false,"is_disabled":false,"rental_uris":{"android":"levelo://app?vid=2445c1eb-c116-434a-81b1-7afca8fc81bb","ios":"levelo://app?vid=2445c1eb-c116-434a-81b1-7afca8fc81bb"},"vehicle_type_id":"4","last_reported":1708247205,"current_range_meters":31600,"station_id":"ce4bgvp2rcd13ifvqcu0","pricing_plan_id":"cebpf4jnsgd1na2vs0mg"},{"bike_id":"f7c84679-d9d8-4fd8-b72c-0965555dfc16","system_id":"levelo_inurba_marseille","lat":43.29192,"lon":5.35793,"is_reserved":false,"is_disabled":false,"rental_uris":{"android":"levelo://app?vid=f7c84679-d9d8-4fd8-b72c-0965555dfc16","ios":"levelo://app?vid=f7c84679-d9d8-4fd8-b72c-0965555dfc16"},"vehicle_type_id":"4","last_reported":1708247205,"current_range_meters":14800,"station_id":"ce4bhb12rcd13ifvqel0","pricing_plan_id":"cebpf4jnsgd1na2vs0mg"},{"bike_id":"fe24ee41-687e-4e25-b3c9-d59899051c44","system_id":"levelo_inurba_marseille","lat":43.313291,"lon":5.396838,"is_reserved":false,"is_disabled":false,"rental_uris":{"android":"levelo://app?vid=fe24ee41-687e-4e25-b3c9-d59899051c44","ios":"levelo://app?vid=fe24ee41-687e-4e25-b3c9-d59899051c44"},"vehicle_type_id":"4","last_reported":1708247205,"current_range_meters":31600,"station_id":"ce4bgvp2rcd13ifvqcu0","pricing_plan_id":"cebpf4jnsgd1na2vs0mg"},{"bike_id":"34d38a2d-f994-4c7a-8f0a-a3459d54fe7c","system_id":"levelo_inurba_marseille","lat":43.313291,"lon":5.396838,"is_reserved":false,"is_disabled":false,"rental_uris":{"android":"levelo://app?vid=34d38a2d-f994-4c7a-8f0a-a3459d54fe7c","ios":"levelo://app?vid=34d38a2d-f994-4c7a-8f0a-a3459d54fe7c"},"vehicle_type_id":"4","last_reported":1708247205,"current_range_meters":21200,"station_id":"ce4bgvp2rcd13ifvqcu0","pricing_plan_id":"cebpf4jnsgd1na2vs0mg"},{"bike_id":"585e6b43-0492-4292-9a48-7a759778bdf2","system_id":"levelo_inurba_marseille","lat":43.313291,"lon":5.396838,"is_reserved":false,"is_disabled":false,"rental_uris":{"android":"levelo://app?vid=585e6b43-0492-4292-9a48-7a759778bdf2","ios":"levelo://app?vid=585e6b43-0492-4292-9a48-7a759778bdf2"},"vehicle_type_id":"4","last_reported":1708247205,"current_range_meters":31600,"station_id":"ce4bgvp2rcd13ifvqcu0","pricing_plan_id":"cebpf4jnsgd1na2vs0mg"},{"bike_id":"da68fc17-1e65-4546-8333-e1be470246cd","system_id":"levelo_inurba_marseille","lat":43.313291,"lon":5.396838,"is_reserved":false,"is_disabled":false,"rental_uris":{"android":"levelo://app?vid=da68fc17-1e65-4546-8333-e1be470246cd","ios":"levelo://app?vid=da68fc17-1e65-4546-8333-e1be470246cd"},"vehicle_type_id":"4","last_reported":1708247205,"current_range_meters":30400,"station_id":"ce4bgvp2rcd13ifvqcu0","pricing_plan_id":"cebpf4jnsgd1na2vs0mg"},{"bike_id":"a921319d-0440-418d-9938-e74eabffa621","system_id":"levelo_inurba_marseille","lat":43.313291,"lon":5.396838,"is_reserved":false,"is_disabled":false,"rental_uris":{"android":"levelo://app?vid=a921319d-0440-418d-9938-e74eabffa621","ios":"levelo://app?vid=a921319d-0440-418d-9938-e74eabffa621"},"vehicle_type_id":"4","last_reported":1708247205,"current_range_meters":23600,"station_id":"ce4bgvp2rcd13ifvqcu0","pricing_plan_id":"cebpf4jnsgd1na2vs0mg"},{"bike_id":"1edcaf27-ee65-4fd9-a90f-0d447feddce0","system_id":"levelo_inurba_marseille","lat":43.313291,"lon":5.396838,"is_reserved":false,"is_disabled":false,"rental_uris":{"android":"levelo://app?vid=1edcaf27-ee65-4fd9-a90f-0d447feddce0","ios":"levelo://app?vid=1edcaf27-ee65-4fd9-a90f-0d447feddce0"},"vehicle_type_id":"4","last_reported":1708247205,"current_range_meters":31200,"station_id":"ce4bgvp2rcd13ifvqcu0","pricing_plan_id":"cebpf4jnsgd1na2vs0mg"},{"bike_id":"a046e2dc-cd5e-44f7-aafc-f667346daac4","system_id":"levelo_inurba_marseille","lat":43.313291,"lon":5.396838,"is_reserved":false,"is_disabled":false,"rental_uris":{"android":"levelo://app?vid=a046e2dc-cd5e-44f7-aafc-f667346daac4","ios":"levelo://app?vid=a046e2dc-cd5e-44f7-aafc-f667346daac4"},"vehicle_type_id":"4","last_reported":1708247205,"current_range_meters":31200,"station_id":"ce4bgvp2rcd13ifvqcu0","pricing_plan_id":"cebpf4jnsgd1na2vs0mg"},{"bike_id":"20d4b39c-d82c-42bd-963a-a42920d45413","system_id":"levelo_inurba_marseille","lat":43.313291,"lon":5.396838,"is_reserved":false,"is_disabled":false,"rental_uris":{"android":"levelo://app?vid=20d4b39c-d82c-42bd-963a-a42920d45413","ios":"levelo://app?vid=20d4b39c-d82c-42bd-963a-a42920d45413"},"vehicle_type_id":"4","last_reported":1708247205,"current_range_meters":800,"station_id":"ce4bgvp2rcd13ifvqcu0","pricing_plan_id":"cebpf4jnsgd1na2vs0mg"},{"bike_id":"f87fc4fe-5526-427a-862f-a7dc53df07c4","system_id":"levelo_inurba_marseille","lat":43.29193,"lon":5.357524,"is_reserved":false,"is_disabled":false,"rental_uris":{"android":"levelo://app?vid=f87fc4fe-5526-427a-862f-a7dc53df07c4","ios":"levelo://app?vid=f87fc4fe-5526-427a-862f-a7dc53df07c4"},"vehicle_type_id":"4","last_reported":1708247205,"current_range_meters":10000,"station_id":"ce4bhb12rcd13ifvqel0","pricing_plan_id":"cebpf4jnsgd1na2vs0mg"},{"bike_id":"2e60a3d4-7473-4e4d-b789-c7ab6135865c","system_id":"levelo_inurba_marseille","lat":43.290779,"lon":5.371482,"is_reserved":false,"is_disabled":false,"rental_uris":{"android":"levelo://app?vid=2e60a3d4-7473-4e4d-b789-c7ab6135865c","ios":"levelo://app?vid=2e60a3d4-7473-4e4d-b789-c7ab6135865c"},"vehicle_type_id":"4","last_reported":1708247205,"current_range_meters":25200,"station_id":"ce4bh5p2rcd13ifvqe4g","pricing_plan_id":"cebpf4jnsgd1na2vs0mg"},{"bike_id":"12733984-c941-444e-95fd-e23014587701","system_id":"levelo_inurba_marseille","lat":43.302008,"lon":5.394694,"is_reserved":false,"is_disabled":false,"rental_uris":{"android":"levelo://app?vid=12733984-c941-444e-95fd-e23014587701","ios":"levelo://app?vid=12733984-c941-444e-95fd-e23014587701"},"vehicle_type_id":"4","last_reported":1708247205,"current_range_meters":26800,"station_id":"ce4bh0p2rcd13ifvqd70","pricing_plan_id":"cebpf4jnsgd1na2vs0mg"},{"bike_id":"7ee7f9e0-83db-4b51-aadd-89c60eb9372a","system_id":"levelo_inurba_marseille","lat":43.290624,"lon":5.359245,"is_reserved":false,"is_disabled":false,"rental_uris":{"android":"levelo://app?vid=7ee7f9e0-83db-4b51-aadd-89c60eb9372a","ios":"levelo://app?vid=7ee7f9e0-83db-4b51-aadd-89c60eb9372a"},"vehicle_type_id":"4","last_reported":1708247205,"current_range_meters":27600,"station_id":"ce4bha92rcd13ifvqeg0","pricing_plan_id":"cebpf4jnsgd1na2vs0mg"},{"bike_id":"80b77ace-f012-4e21-8037-39915748a58c","system_id":"levelo_inurba_marseille","lat":43.290631,"lon":5.359244,"is_reserved":false,"is_disabled":false,"rental_uris":{"android":"levelo://app?vid=80b77ace-f012-4e21-8037-39915748a58c","ios":"levelo://app?vid=80b77ace-f012-4e21-8037-39915748a58c"},"vehicle_type_id":"4","last_reported":1708247205,"current_range_meters":31200,"station_id":"ce4bha92rcd13ifvqeg0","pricing_plan_id":"cebpf4jnsgd1na2vs0mg"},{"bike_id":"0c33e412-e652-4157-903d-1a91bc427505","system_id":"levelo_inurba_marseille","lat":43.290631,"lon":5.359244,"is_reserved":false,"is_disabled":false,"rental_uris":{"android":"levelo://app?vid=0c33e412-e652-4157-903d-1a91bc427505","ios":"levelo://app?vid=0c33e412-e652-4157-903d-1a91bc427505"},"vehicle_type_id":"4","last_reported":1708247205,"current_range_meters":31200,"station_id":"ce4bha92rcd13ifvqeg0","pricing_plan_id":"cebpf4jnsgd1na2vs0mg"},{"bike_id":"68c87186-4143-4433-9329-77e69e68ba61","system_id":"levelo_inurba_marseille","lat":43.290631,"lon":5.359244,"is_reserved":false,"is_disabled":false,"rental_uris":{"android":"levelo://app?vid=68c87186-4143-4433-9329-77e69e68ba61","ios":"levelo://app?vid=68c87186-4143-4433-9329-77e69e68ba61"},"vehicle_type_id":"4","last_reported":1708247205,"current_range_meters":19600,"station_id":"ce4bha92rcd13ifvqeg0","pricing_plan_id":"cebpf4jnsgd1na2vs0mg"},{"bike_id":"52335883-8c14-4356-8a92-9060a47b1856","system_id":"levelo_inurba_marseille","lat":43.294153,"lon":5.386305,"is_reserved":false,"is_disabled":false,"rental_uris":{"android":"levelo://app?vid=52335883-8c14-4356-8a92-9060a47b1856","ios":"levelo://app?vid=52335883-8c14-4356-8a92-9060a47b1856"},"vehicle_type_id":"4","last_reported":1708247205,"current_range_meters":8800,"station_id":"ce4bh2h2rcd13ifvqdh0","pricing_plan_id":"cebpf4jnsgd1na2vs0mg"},{"bike_id":"ed4ef91b-5ed0-4356-a389-106d2dd4590f","system_id":"levelo_inurba_marseille","lat":43.289404,"lon":5.366249,"is_reserved":false,"is_disabled":false,"rental_uris":{"android":"levelo://app?vid=ed4ef91b-5ed0-4356-a389-106d2dd4590f","ios":"levelo://app?vid=ed4ef91b-5ed0-4356-a389-106d2dd4590f"},"vehicle_type_id":"4","last_reported":1708247205,"current_range_meters":28800,"station_id":"ce4bhap2rcd13ifvqek0","pricing_plan_id":"cebpf4jnsgd1na2vs0mg"},