{"last_updated":1701525938,"ttl":30,"version":"2.2","data":{"bikes":[{"bike_id":"d98d101b-4684-4dc4-bf86-1ac0afb8ecd0","system_id":"levelo_inurba_marseille","lat":43.314811,"lon":5.373103,"is_reserved":false,"is_disabled":false,"rental_uris":{"android":"levelo://app?vid=d98d101b-4684-4dc4-bf86-1ac0afb8ecd0","ios":"levelo://app?vid=d98d101b-4684-4dc4-bf86-1ac0afb8ecd0"},"vehicle_type_id":"4","last_reported":1701525939,"current_range_meters":18800,"station_id":"ce4bgt12rcd13ifvqcd0","pricing_plan_id":"free"},{"bike_id":"ab1a45bc-5c86-4dc9-86c5-b3cdd9eb5b1a","system_id":"levelo_inurba_marseille","lat":43.31776,"lon":5.36854,"is_reserved":false,"is_disabled":false,"rental_uris":{"android":"levelo://app?vid=ab1a45bc-5c86-4dc9-86c5-b3cdd9eb5b1a","ios":"levelo://app?vid=ab1a45bc-5c86-4dc9-86c5-b3cdd9eb5b1a"},"vehicle_type_id":"4","last_reported":1701525939,"current_range_meters":0,"station_id":"","pricing_plan_id":"free"},{"bike_id":"61ceb168-2f9e-4b9d-9350-81b8fa81205d","system_id":"levelo_inurba_marseille","lat":43.305712,"lon":5.365641,"is_reserved":false,"is_disabled":false,"rental_uris":{"android":"levelo://app?vid=61ceb168-2f9e-4b9d-9350-81b8fa81205d","ios":"levelo://app?vid=61ceb168-2f9e-4b9d-9350-81b8fa81205d"},"vehicle_type_id":"4","last_reported":1701525939,"current_range_meters":18400,"station_id":"ce4bgs12rcd13ifvqcag","pricing_plan_id":"free"},{"bike_id":"8eddffe1-66e4-435c-85b5-8281648f6ccb","system_id":"levelo_inurba_marseille","lat":43.30542,"lon":5.36554,"is_reserved":false,"is_disabled":false,"rental_uris":{"android":"levelo://app?vid=8eddffe1-66e4-435c-85b5-8281648f6ccb","ios":"levelo://app?vid=8eddffe1-66e4-435c-85b5-8281648f6ccb"},"vehicle_type_id":"4","last_reported":1701525939,"current_range_meters":15200,"station_id":"ce4bgs12rcd13ifvqcag","pricing_plan_id":"free"},{"bike_id":"cfd3bb51-5657-4943-be4a-4ca2f802bb01","system_id":"levelo_inurba_marseille","lat":43.308157,"lon":5.376608,"is_reserved":false,"is_disabled":false,"rental_uris":{"android":"levelo://app?vid=cfd3bb51-5657-4943-be4a-4ca2f802bb01","ios":"levelo://app?vid=cfd3bb51-5657-4943-be4a-4ca2f802bb01"},"vehicle_type_id":"4","last_reported":1701525939,"current_range_meters":10800,"station_id":"ce4bgv92rcd13ifvqcq0","pricing_plan_id":"free"},{"bike_id":"f427a2c3-6e4a-446b-ae2f-9be8aa7f4122","system_id":"levelo_inurba_marseille","lat":43.31719,"lon":5.376813,"is_reserved":false,"is_disabled":false,"rental_uris":{"android":"levelo://app?vid=f427a2c3-6e4a-446b-ae2f-9be8aa7f4122","ios":"levelo://app?vid=f427a2c3-6e4a-446b-ae2f-9be8aa7f4122"},"vehicle_type_id":"4","last_reported":1701525939,"current_range_meters":0,"station_id":"","pricing_plan_id":"free"},{"bike_id":"974480aa-b0c4-4948-9fed-08e835a41f9e","system_id":"levelo_inurba_marseille","lat":43.307945,"lon":5.376487,"is_reserved":false,"is_disabled":false,"rental_uris":{"android":"levelo://app?vid=974480aa-b0c4-4948-9fed-08e835a41f9e","ios":"levelo://app?vid=974480aa-b0c4-4948-9fed-08e835a41f9e"},"vehicle_type_id":"4","last_reported":1701525939,"current_range_meters":26800,"station_id":"ce4bgv92rcd13ifvqcq0","pricing_plan_id":"free"},{"bike_id":"e913f328-1e31-4c22-bd87-f809ea246de4","system_id":"levelo_inurba_marseille","lat":43.317168,"lon":5.376883,"is_reserved":false,"is_disabled":false,"rental_uris":{"android":"levelo://app?vid=e913f328-1e31-4c22-bd87-f809ea246de4","ios":"levelo://app?vid=e913f328-1e31-4c22-bd87-f809ea246de4"},"vehicle_type_id":"4","last_reported":1701525939,"current_range_meters":0,"station_id":"","pricing_plan_id":"free"},{"bike_id":"fb6fd937-527b-4585-9058-0dfdc6436ac8","system_id":"levelo_inurba_marseille","lat":43.31351,"lon":5.37909,"is_reserved":false,"is_disabled":false,"rental_uris":{"android":"levelo://app?vid=fb6fd937-527b-4585-9058-0dfdc6436ac8","ios":"levelo://app?vid=fb6fd937-527b-4585-9058-0dfdc6436ac8"},"vehicle_type_id":"4","last_reported":1701525939,"current_range_meters":21600,"station_id":"","pricing_plan_id":"free"},{"bike_id":"f9eaf63c-d8c2-458b-b21e-a8d458fbd6bd","system_id":"levelo_inurba_marseille","lat":43.303046,"lon":5.368981,"is_reserved":false,"is_disabled":false,"rental_uris":{"android":"levelo://app?vid=f9eaf63c-d8c2-458b-b21e-a8d458fbd6bd","ios":"levelo://app?vid=f9eaf63c-d8c2-458b-b21e-a8d458fbd6bd"},"vehicle_type_id":"4","last_reported":1701525939,"current_range_meters":26000,"station_id":"ce4bgqh2rcd13ifvqc5g","pricing_plan_id":"free"},{"bike_id":"d19abd17-be51-442a-9d6f-b9211f1dc2dc","system_id":"levelo_inurba_marseille","lat":43.303046,"lon":5.368981,"is_reserved":false,"is_disabled":false,"rental_uris":{"android":"levelo://app?vid=d19abd17-be51-442a-9d6f-b9211f1dc2dc","ios":"levelo://app?vid=d19abd17-be51-442a-9d6f-b9211f1dc2dc"},"vehicle_type_id":"4","last_reported":1701525939,"current_range_meters":24400,"station_id":"ce4bgqh2rcd13ifvqc5g","pricing_plan_id":"free"},{"bike_id":"ebd5c144-ffe6-468b-8ec6-290fd011ee9c","system_id":"levelo_inurba_marseille","lat":43.303046,"lon":5.368981,"is_reserved":false,"is_disabled":false,"rental_uris":{"android":"levelo://app?vid=ebd5c144-ffe6-468b-8ec6-290fd011ee9c","ios":"levelo://app?vid=ebd5c144-ffe6-468b-8ec6-290fd011ee9c"},"vehicle_type_id":"4","last_reported":1701525939,"current_range_meters":20000,"station_id":"ce4bgqh2rcd13ifvqc5g","pricing_plan_id":"free"},{"bike_id":"ce669172-a6fc-4371-ad3d-f3dc9c207572","system_id":"levelo_inurba_marseille","lat":43.301939,"lon":5.366286,"is_reserved":false,"is_disabled":false,"rental_uris":{"android":"levelo://app?vid=ce669172-a6fc-4371-ad3d-f3dc9c207572","ios":"levelo://app?vid=ce669172-a6fc-4371-ad3d-f3dc9c207572"},"vehicle_type_id":"4","last_reported":1701525939,"current_range_meters":9600,"station_id":"ce4bgrh2rcd13ifvqc8g","pricing_plan_id":"free"},{"bike_id":"1b12f000-94bc-4b13-b7ea-03dbc7f256d6","system_id":"levelo_inurba_marseille","lat":43.304606,"lon":5.379026,"is_reserved":false,"is_disabled":false,"rental_uris":{"android":"levelo://app?vid=1b12f000-94bc-4b13-b7ea-03dbc7f256d6","ios":"levelo://app?vid=1b12f000-94bc-4b13-b7ea-03dbc7f256d6"},"vehicle_type_id":"4","last_reported":1701525939,"current_range_meters":9200,"station_id":"ce4bgup2rcd13ifvqcn0","pricing_plan_id":"free"},{"bike_id":"e56c4c03-d6ac-416d-8380-bbaf7fb49559","system_id":"levelo_inurba_marseille","lat":43.324832,"lon":5.365565,"is_reserved":false,"is_disabled":false,"rental_uris":{"android":"levelo://app?vid=e56c4c03-d6ac-416d-8380-bbaf7fb49559","ios":"levelo://app?vid=e56c4c03-d6ac-416d-8380-bbaf7fb49559"},"vehicle_type_id":"4","last_reported":1701525939,"current_range_meters":2400,"station_id":"ce4bhs12rcd13ifvqhvg","pricing_plan_id":"free"},{"bike_id":"bc8eac31-4b5b-48b3-aa99-5c3fdd18d82e","system_id":"levelo_inurba_marseille","lat":43.324771,"lon":5.36557,"is_reserved":false,"is_disabled":false,"rental_uris":{"android":"levelo://app?vid=bc8eac31-4b5b-48b3-aa99-5c3fdd18d82e","ios":"levelo://app?vid=bc8eac31-4b5b-48b3-aa99-5c3fdd18d82e"},"vehicle_type_id":"4","last_reported":1701525939,"current_range_meters":18400,"station_id":"ce4bhs12rcd13ifvqhvg","pricing_plan_id":"free"},{"bike_id":"1d37a5e4-cba1-449a-87f8-b2b55ce27273","system_id":"levelo_inurba_marseille","lat":43.301429,"lon":5.37413,"is_reserved":false,"is_disabled":false,"rental_uris":{"android":"levelo://app?vid=1d37a5e4-cba1-449a-87f8-b2b55ce27273","ios":"levelo://app?vid=1d37a5e4-cba1-449a-87f8-b2b55ce27273"},"vehicle_type_id":"4","last_reported":1701525939,"current_range_meters":22400,"station_id":"ce4bgs92rcd13ifvqcc0","pricing_plan_id":"free"},{"bike_id":"db75e190-fe29-4a89-8a72-1fc3b9ddec58","system_id":"levelo_inurba_marseille","lat":43.301429,"lon":5.37413,"is_reserved":false,"is_disabled":false,"rental_uris":{"android":"levelo://app?vid=db75e190-fe29-4a89-8a72-1fc3b9ddec58","ios":"levelo://app?vid=db75e190-fe29-4a89-8a72-1fc3b9ddec58"},"vehicle_type_id":"4","last_reported":1701525939,"current_range_meters":11600,"station_id":"ce4bgs92rcd13ifvqcc0","pricing_plan_id":"free"},{"bike_id":"00c8aa47-6963-47d2-8c96-7e0f863f9d7f","system_id":"levelo_inurba_marseille","lat":43.301429,"lon":5.37413,"is_reserved":false,"is_disabled":false,"rental_uris":{"android":"levelo://app?vid=00c8aa47-6963-47d2-8c96-7e0f863f9d7f","ios":"levelo://app?vid=00c8aa47-6963-47d2-8c96-7e0f863f9d7f"},"vehicle_type_id":"4","last_reported":1701525939,"current_range_meters":20000,"station_id":"ce4bgs92rcd13ifvqcc0","pricing_plan_id":"free"},{"bike_id":"372ef6ec-a8dd-4b58-bfc4-c5372961fdd9","system_id":"levelo_inurba_marseille","lat":43.301429,"lon":5.37413,"is_reserved":false,"is_disabled":false,"rental_uris":{"android":"levelo://app?vid=372ef6ec-a8dd-4b58-bfc4-c5372961fdd9","ios":"levelo://app?vid=372ef6ec-a8dd-4b58-bfc4-c5372961fdd9"},"vehicle_type_id":"4","last_reported":1701525939,"current_range_meters":0,"station_id":"ce4bgs92rcd13ifvqcc0","pricing_plan_id":"free"},{"bike_id":"bbe518ed-cb90-4018-9b02-4cd263726c2d","system_id":"levelo_inurba_marseille","lat":43.301429,"lon":5.37413,"is_reserved":false,"is_disabled":false,"rental_uris":{"android":"levelo://app?vid=bbe518ed-cb90-4018-9b02-4cd263726c2d","ios":"levelo://app?vid=bbe518ed-cb90-4018-9b02-4cd263726c2d"},"vehicle_type_id":"4","last_reported":1701525939,"current_range_meters":31200,"station_id":"ce4bgs92rcd13ifvqcc0","pricing_plan_id":"free"},{"bike_id":"c220c9eb-a209-4396-b6c2-45d934af8198","system_id":"levelo_inurba_marseille","lat":43.30143,"lon":5.37413,"is_reserved":false,"is_disabled":false,"rental_uris":{"android":"levelo://app?vid=c220c9eb-a209-4396-b6c2-45d934af8198","ios":"levelo://app?vid=c220c9eb-a209-4396-b6c2-45d934af8198"},"vehicle_type_id":"4","last_reported":1701525939,"current_range_meters":30400,"station_id":"ce4bgs92rcd13ifvqcc0","pricing_plan_id":"free"},{"bike_id":"1ddab5dc-de9c-425e-a05a-c5b23c41989c","system_id":"levelo_inurba_marseille","lat":43.301429,"lon":5.37413,"is_reserved":false,"is_disabled":false,"rental_uris":{"android":"levelo://app?vid=1ddab5dc-de9c-425e-a05a-c5b23c41989c","ios":"levelo://app?vid=1ddab5dc-de9c-425e-a05a-c5b23c41989c"},"vehicle_type_id":"4","last_reported":1701525939,"current_range_meters":9200,"station_id":"ce4bgs92rcd13ifvqcc0","pricing_plan_id":"free"},{"bike_id":"df054eff-e9bc-4d9a-b040-42dceaf55fe6","system_id":"levelo_inurba_marseille","lat":43.301429,"lon":5.37413,"is_reserved":false,"is_disabled":false,"rental_uris":{"android":"levelo://app?vid=df054eff-e9bc-4d9a-b040-42dceaf55fe6","ios":"levelo://app?vid=df054eff-e9bc-4d9a-b040-42dceaf55fe6"},"vehicle_type_id":"4","last_reported":1701525939,"current_range_meters":22800,"station_id":"ce4bgs92rcd13ifvqcc0","pricing_plan_id":"free"},{"bike_id":"2275aca5-3158-4c2c-8022-ca5d2714bc86","system_id":"levelo_inurba_marseille","lat":43.319997,"lon":5.381594,"is_reserved":false,"is_disabled":false,"rental_uris":{"android":"levelo://app?vid=2275aca5-3158-4c2c-8022-ca5d2714bc86","ios":"levelo://app?vid=2275aca5-3158-4c2c-8022-ca5d2714bc86"},"vehicle_type_id":"4","last_reported":1701525939,"current_range_meters":15200,"station_id":"ce4bhr12rcd13ifvqhpg","pricing_plan_id":"free"},{"bike_id":"9fdb7f97-586d-42d2-befd-15216ba2e422","system_id":"levelo_inurba_marseille","lat":43.31183,"lon":5.38523,"is_reserved":false,"is_disabled":false,"rental_uris":{"android":"levelo://app?vid=9fdb7f97-586d-42d2-befd-15216ba2e422","ios":"levelo://app?vid=9fdb7f97-586d-42d2-befd-15216ba2e422"},"vehicle_type_id":"4","last_reported":1701525939,"current_range_meters":1200,"station_id":"","pricing_plan_id":"free"},{"bike_id":"748d12ab-8e09-4ecd-b2d2-cbe0ea9624f6","system_id":"levelo_inurba_marseille","lat":43.29891,"lon":5.36743,"is_reserved":false,"is_disabled":false,"rental_uris":{"android":"levelo://app?vid=748d12ab-8e09-4ecd-b2d2-cbe0ea9624f6","ios":"levelo://app?vid=748d12ab-8e09-4ecd-b2d2-cbe0ea9624f6"},"vehicle_type_id":"4","last_reported":1701525939,"current_range_meters":6000,"station_id":"","pricing_plan_id":"free"},{"bike_id":"599463fe-fa78-482c-b2cb-e94952729694","system_id":"levelo_inurba_marseille","lat":43.305364,"lon":5.384119,"is_reserved":false,"is_disabled":false,"rental_uris":{"android":"levelo://app?vid=599463fe-fa78-482c-b2cb-e94952729694","ios":"levelo://app?vid=599463fe-fa78-482c-b2cb-e94952729694"},"vehicle_type_id":"4","last_reported":1701525939,"current_range_meters":31200,"station_id":"ce4bgg92rcd13ifvqb30","pricing_plan_id":"free"},{"bike_id":"2d19cc9f-7709-4481-afff-3b0bb0fb47da","system_id":"levelo_inurba_marseille","lat":43.305364,"lon":5.384119,"is_reserved":false,"is_disabled":false,"rental_uris":{"android":"levelo://app?vid=2d19cc9f-7709-4481-afff-3b0bb0fb47da","ios":"levelo://app?vid=2d19cc9f-7709-4481-afff-3b0bb0fb47da"},"vehicle_type_id":"4","last_reported":1701525939,"current_range_meters":14000,"station_id":"ce4bgg92rcd13ifvqb30","pricing_plan_id":"free"},{"bike_id":"47128acf-0738-4108-aa23-04448d1f00fa","system_id":"levelo_inurba_marseille","lat":43.298433,"lon":5.362774,"is_reserved":false,"is_disabled":false,"rental_uris":{"android":"levelo://app?vid=47128acf-0738-4108-aa23-04448d1f00fa","ios":"levelo://app?vid=47128acf-0738-4108-aa23-04448d1f00fa"},"vehicle_type_id":"4","last_reported":1701525939,"current_range_meters":21600,"station_id":"ce4bgpp2rcd13ifvqc3g","pricing_plan_id":"free"},{"bike_id":"bd9b3c0c-b6e7-404a-bbf9-c687362057d0","system_id":"levelo_inurba_marseille","lat":43.298433,"lon":5.362774,"is_reserved":false,"is_disabled":false,"rental_uris":{"android":"levelo://app?vid=bd9b3c0c-b6e7-404a-bbf9-c687362057d0","ios":"levelo://app?vid=bd9b3c0c-b6e7-404a-bbf9-c687362057d0"},"vehicle_type_id":"4","last_reported":1701525939,"current_range_meters":21600,"station_id":"ce4bgpp2rcd13ifvqc3g","pricing_plan_id":"free"},{"bike_id":"f4209ce5-da7c-42a2-83b8-1db622885a70","system_id":"levelo_inurba_marseille","lat":43.298433,"lon":5.362774,"is_reserved":false,"is_disabled":false,"rental_uris":{"android":"levelo://app?vid=f4209ce5-da7c-42a2-83b8-1db622885a70","ios":"levelo://app?vid=f4209ce5-da7c-42a2-83b8-1db622885a70"},"vehicle_type_id":"4","last_reported":1701525939,"current_range_meters":22000,"station_id":"ce4bgpp2rcd13ifvqc3g","pricing_plan_id":"free"},{"bike_id":"48c79d96-578d-43e5-b47a-9f7b090d60aa","system_id":"levelo_inurba_marseille","lat":43.29922,"lon":5.37468,"is_reserved":false,"is_disabled":false,"rental_uris":{"android":"levelo://app?vid=48c79d96-578d-43e5-b47a-9f7b090d60aa","ios":"levelo://app?vid=48c79d96-578d-43e5-b47a-9f7b090d60aa"},"vehicle_type_id":"4","last_reported":1701525939,"current_range_meters":23200,"station_id":"ce4bgjh2rcd13ifvqbg0","pricing_plan_id":"free"},{"bike_id":"65ff56fa-8994-4619-8b87-e816a402eb1d","system_id":"levelo_inurba_marseille","lat":43.29922,"lon":5.37469,"is_reserved":false,"is_disabled":false,"rental_uris":{"android":"levelo://app?vid=65ff56fa-8994-4619-8b87-e816a402eb1d","ios":"levelo://app?vid=65ff56fa-8994-4619-8b87-e816a402eb1d"},"vehicle_type_id":"4","last_reported":1701525939,"current_range_meters":26400,"station_id":"ce4bgjh2rcd13ifvqbg0","pricing_plan_id":"free"},{"bike_id":"fed1378a-9f03-4304-a55f-b0fb3d11834b","system_id":"levelo_inurba_marseille","lat":43.29922,"lon":5.374747,"is_reserved":false,"is_disabled":false,"rental_uris":{"android":"levelo://app?vid=fed1378a-9f03-4304-a55f-b0fb3d11834b","ios":"levelo://app?vid=fed1378a-9f03-4304-a55f-b0fb3d11834b"},"vehicle_type_id":"4","last_reported":1701525939,"current_range_meters":10800,"station_id":"ce4bgjh2rcd13ifvqbg0","pricing_plan_id":"free"},{"bike_id":"fa1d12be-748c-4c2f-9027-69dad1092d5f","system_id":"levelo_inurba_marseille","lat":43.29918,"lon":5.37468,"is_reserved":false,"is_disabled":false,"rental_uris":{"android":"levelo://app?vid=fa1d12be-748c-4c2f-9027-69dad1092d5f","ios":"levelo://app?vid=fa1d12be-748c-4c2f-9027-69dad1092d5f"},"vehicle_type_id":"4","last_reported":1701525939,"current_range_meters":18400,"station_id":"ce4bgjh2rcd13ifvqbg0","pricing_plan_id":"free"},{"bike_id":"d51a9c2f-ba7b-4381-8488-ed795d248b41","system_id":"levelo_inurba_marseille","lat":43.298433,"lon":5.362774,"is_reserved":false,"is_disabled":false,"rental_uris":{"android":"levelo://app?vid=d51a9c2f-ba7b-4381-8488-ed795d248b41","ios":"levelo://app?vid=d51a9c2f-ba7b-4381-8488-ed795d248b41"},"vehicle_type_id":"4","last_reported":1701525939,"current_range_meters":9200,"station_id":"ce4bgpp2rcd13ifvqc3g","pricing_plan_id":"free"},{"bike_id":"7e331c80-17c2-4e73-978d-a7f27692319f","system_id":"levelo_inurba_marseille","lat":43.311722,"lon":5.387247,"is_reserved":false,"is_disabled":false,"rental_uris":{"android":"levelo://app?vid=7e331c80-17c2-4e73-978d-a7f27692319f","ios":"levelo://app?vid=7e331c80-17c2-4e73-978d-a7f27692319f"},"vehicle_type_id":"4","last_reported":1701525939,"current_range_meters":5600,"station_id":"ce4bgv12rcd13ifvqcp0","pricing_plan_id":"free"},{"bike_id":"524163ce-b117-494f-8223-a4d19d253717","system_id":"levelo_inurba_marseille","lat":43.299243,"lon":5.37481,"is_reserved":false,"is_disabled":false,"rental_uris":{"android":"levelo://app?vid=524163ce-b117-494f-8223-a4d19d253717","ios":"levelo://app?vid=524163ce-b117-494f-8223-a4d19d253717"},"vehicle_type_id":"4","last_reported":1701525939,"current_range_meters":31200,"station_id":"ce4bgjh2rcd13ifvqbg0","pricing_plan_id":"free"},{"bike_id":"8d7cbc3a-dc89-4ffe-af66-a05dd6e38785","system_id":"levelo_inurba_marseille","lat":43.322872,"lon":5.382756,"is_reserved":false,"is_disabled":false,"rental_uris":{"android":"levelo://app?vid=8d7cbc3a-dc89-4ffe-af66-a05dd6e38785","ios":"levelo://app?vid=8d7cbc3a-dc89-4ffe-af66-a05dd6e38785"},"vehicle_type_id":"4","last_reported":1701525939,"current_range_meters":18800,"station_id":"ce4bhr12rcd13ifvqhqg","pricing_plan_id":"free"},{"bike_id":"77d92d76-a50e-4aee-836a-a31dedabb502","system_id":"levelo_inurba_marseille","lat":43.32825,"lon":5.36692,"is_reserved":false,"is_disabled":false,"rental_uris":{"android":"levelo://app?vid=77d92d76-a50e-4aee-836a-a31dedabb502","ios":"levelo://app?vid=77d92d76-a50e-4aee-836a-a31dedabb502"},"vehicle_type_id":"4","last_reported":1701525939,"current_range_meters":19200,"station_id":"ce4bhs92rcd13ifvqi0g","pricing_plan_id":"free"},{"bike_id":"863e68e6-f678-4404-9035-1f0c001016cb","system_id":"levelo_inurba_marseille","lat":43.32827,"lon":5.36683,"is_reserved":false,"is_disabled":false,"rental_uris":{"android":"levelo://app?vid=863e68e6-f678-4404-9035-1f0c001016cb","ios":"levelo://app?vid=863e68e6-f678-4404-9035-1f0c001016cb"},"vehicle_type_id":"4","last_reported":1701525939,"current_range_meters":16800,"station_id":"ce4bhs92rcd13ifvqi0g","pricing_plan_id":"free"},{"bike_id":"c0284961-478e-4ccd-b43e-321d6e4c5580","system_id":"levelo_inurba_marseille","lat":43.32831,"lon":5.36682,"is_reserved":false,"is_disabled":false,"rental_uris":{"android":"levelo://app?vid=c0284961-478e-4ccd-b43e-321d6e4c5580","ios":"levelo://app?vid=c0284961-478e-4ccd-b43e-321d6e4c5580"},"vehicle_type_id":"4","last_reported":1701525939,"current_range_meters":3200,"station_id":"ce4bhs92rcd13ifvqi0g","pricing_plan_id":"free"},{"bike_id":"3c6eacad-63e8-42f7-9988-09cf64b64dd8","system_id":"levelo_inurba_marseille","lat":43.32832,"lon":5.36678,"is_reserved":false,"is_disabled":false,"rental_uris":{"android":"levelo://app?vid=3c6eacad-63e8-42f7-9988-09cf64b64dd8","ios":"levelo://app?vid=3c6eacad-63e8-42f7-9988-09cf64b64dd8"},"vehicle_type_id":"4","last_reported":1701525939,"current_range_meters":8000,"station_id":"ce4bhs92rcd13ifvqi0g","pricing_plan_id":"free"},{"bike_id":"5c26bdfb-7b7c-43fb-8a01-250128a1a6f8","system_id":"levelo_inurba_marseille","lat":43.32832,"lon":5.36676,"is_reserved":false,"is_disabled":false,"rental_uris":{"android":"levelo://app?vid=5c26bdfb-7b7c-43fb-8a01-250128a1a6f8","ios":"levelo://app?vid=5c26bdfb-7b7c-43fb-8a01-250128a1a6f8"},"vehicle_type_id":"4","last_reported":1701525939,"current_range_meters":20800,"station_id":"ce4bhs92rcd13ifvqi0g","pricing_plan_id":"free"},{"bike_id":"a0b895f4-357b-4642-87f8-355cb28bb594","system_id":"levelo_inurba_marseille","lat":43.296131,"lon":5.370773,"is_reserved":false,"is_disabled":false,"rental_uris":{"android":"levelo://app?vid=a0b895f4-357b-4642-87f8-355cb28bb594","ios":"levelo://app?vid=a0b895f4-357b-4642-87f8-355cb28bb594"},"vehicle_type_id":"4","last_reported":1701525939,"current_range_meters":3200,"station_id":"ce4bgnh2rcd13ifvqc0g","pricing_plan_id":"free"},{"bike_id":"eaa0e7e7-2390-47fa-909b-7b240952cbef","system_id":"levelo_inurba_marseille","lat":43.316593,"lon":5.389517,"is_reserved":false,"is_disabled":false,"rental_uris":{"android":"levelo://app?vid=eaa0e7e7-2390-47fa-909b-7b240952cbef","ios":"levelo://app?vid=eaa0e7e7-2390-47fa-909b-7b240952cbef"},"vehicle_type_id":"4","last_reported":1701525939,"current_range_meters":17200,"station_id":"","pricing_plan_id":"free"},{"bike_id":"11b87014-0473-4499-9048-0ccddc57d338","system_id":"levelo_inurba_marseille","lat":43.296921,"lon":5.376579,"is_reserved":false,"is_disabled":false,"rental_uris":{"android":"levelo://app?vid=11b87014-0473-4499-9048-0ccddc57d338","ios":"levelo://app?vid=11b87014-0473-4499-9048-0ccddc57d338"},"vehicle_type_id":"4","last_reported":1701525939,"current_range_meters":8800,"station_id":"ce4bgkh2rcd13ifvqbl0","pricing_plan_id":"free"},{"bike_id":"8f5f52c5-987b-451f-930a-b118c39fd86f","system_id":"levelo_inurba_marseille","lat":43.296921,"lon":5.376579,"is_reserved":false,"is_disabled":false,"rental_uris":{"android":"levelo://app?vid=8f5f52c5-987b-451f-930a-b118c39fd86f","ios":"levelo://app?vid=8f5f52c5-987b-451f-930a-b118c39fd86f"},"vehicle_type_id":"4","last_reported":1701525939,"current_range_meters":15600,"station_id":"ce4bgkh2rcd13ifvqbl0","pricing_plan_id":"free"},{"bike_id":"dcb7b1d4-302c-4d4f-92f5-69dab5b8215f","system_id":"levelo_inurba_marseille","lat":43.309589,"lon":5.390258,"is_reserved":false,"is_disabled":false,"rental_uris":{"android":"levelo://app?vid=dcb7b1d4-302c-4d4f-92f5-69dab5b8215f","ios":"levelo://app?vid=dcb7b1d4-302c-4d4f-92f5-69dab5b8215f"},"vehicle_type_id":"4","last_reported":1701525939,"current_range_meters":16400,"station_id":"ce4bgup2rcd13ifvqco0","pricing_plan_id":"free"},{"bike_id":"4c629150-aca6-4064-ba2c-7824057ab973","system_id":"levelo_inurba_marseille","lat":43.309589,"lon":5.390258,"is_reserved":false,"is_disabled":false,"rental_uris":{"android":"levelo://app?vid=4c629150-aca6-4064-ba2c-7824057ab973","ios":"levelo://app?vid=4c629150-aca6-4064-ba2c-7824057ab973"},"vehicle_type_id":"4","last_reported":1701525939,"current_range_meters":22000,"station_id":"ce4bgup2rcd13ifvqco0","pricing_plan_id":"free"},{"bike_id":"e3f82383-affe-4692-b448-772f7aa7fda5","system_id":"levelo_inurba_marseille","lat":43.296127,"lon":5.374667,"is_reserved":false,"is_disabled":false,"rental_uris":{"android":"levelo://app?vid=e3f82383-affe-4692-b448-772f7aa7fda5","ios":"levelo://app?vid=e3f82383-affe-4692-b448-772f7aa7fda5"},"vehicle_type_id":"4","last_reported":1701525939,"current_range_meters":0,"station_id":"ce4bgh92rcd13ifvqb50","pricing_plan_id":"free"},{"bike_id":"9fe59cff-0211-4617-88db-f309853fb441","system_id":"levelo_inurba_marseille","lat":43.296173,"lon":5.377023,"is_reserved":false,"is_disabled":false,"rental_uris":{"android":"levelo://app?vid=9fe59cff-0211-4617-88db-f309853fb441","ios":"levelo://app?vid=9fe59cff-0211-4617-88db-f309853fb441"},"vehicle_type_id":"4","last_reported":1701525939,"current_range_meters":0,"station_id":"ce4bgi92rcd13ifvqb90","pricing_plan_id":"free"},{"bike_id":"13ca97e5-82b5-4e06-8d78-e9793b7e594e","system_id":"levelo_inurba_marseille","lat":43.297142,"lon":5.379705,"is_reserved":false,"is_disabled":false,"rental_uris":{"android":"levelo://app?vid=13ca97e5-82b5-4e06-8d78-e9793b7e594e","ios":"levelo://app?vid=13ca97e5-82b5-4e06-8d78-e9793b7e594e"},"vehicle_type_id":"4","last_reported":1701525939,"current_range_meters":19200,"station_id":"","pricing_plan_id":"free"},{"bike_id":"5f77f75f-f750-49ee-b027-04b6f96ef0b5","system_id":"levelo_inurba_marseille","lat":43.295279,"lon":5.375048,"is_reserved":false,"is_disabled":false,"rental_uris":{"android":"levelo://app?vid=5f77f75f-f750-49ee-b027-04b6f96ef0b5","ios":"levelo://app?vid=5f77f75f-f750-49ee-b027-04b6f96ef0b5"},"vehicle_type_id":"4","last_reported":1701525939,"current_range_meters":20400,"station_id":"ce4bgkp2rcd13ifvqbmg","pricing_plan_id":"free"},{"bike_id":"24f85928-f8ec-4069-8604-ca9f5e45ef9a","system_id":"levelo_inurba_marseille","lat":43.295279,"lon":5.375048,"is_reserved":false,"is_disabled":false,"rental_uris":{"android":"levelo://app?vid=24f85928-f8ec-4069-8604-ca9f5e45ef9a","ios":"levelo://app?vid=24f85928-f8ec-4069-8604-ca9f5e45ef9a"},"vehicle_type_id":"4","last_reported":1701525939,"current_range_meters":21600,"station_id":"ce4bgkp2rcd13ifvqbmg","pricing_plan_id":"free"},{"bike_id":"8c2b3919-0764-4be7-b321-4547a296d50b","system_id":"levelo_inurba_marseille","lat":43.295279,"lon":5.375048,"is_reserved":false,"is_disabled":false,"rental_uris":{"android":"levelo://app?vid=8c2b3919-0764-4be7-b321-4547a296d50b","ios":"levelo://app?vid=8c2b3919-0764-4be7-b321-4547a296d50b"},"vehicle_type_id":"4","last_reported":1701525939,"current_range_meters":12000,"station_id":"ce4bgkp2rcd13ifvqbmg","pricing_plan_id":"free"},{"bike_id":"6b827285-c046-4a19-ab34-2da7164639f1","system_id":"levelo_inurba_marseille","lat":43.29601,"lon":5.381084,"is_reserved":false,"is_disabled":false,"rental_uris":{"android":"levelo://app?vid=6b827285-c046-4a19-ab34-2da7164639f1","ios":"levelo://app?vid=6b827285-c046-4a19-ab34-2da7164639f1"},"vehicle_type_id":"4","last_reported":1701525939,"current_range_meters":12800,"station_id":"ce4bgl12rcd13ifvqbo0","pricing_plan_id":"free"},{"bike_id":"39e0b277-b156-4684-893a-50c5306f79d1","system_id":"levelo_inurba_marseille","lat":43.29601,"lon":5.381084,"is_reserved":false,"is_disabled":false,"rental_uris":{"android":"levelo://app?vid=39e0b277-b156-4684-893a-50c5306f79d1","ios":"levelo://app?vid=39e0b277-b156-4684-893a-50c5306f79d1"},"vehicle_type_id":"4","last_reported":1701525939,"current_range_meters":24000,"station_id":"ce4bgl12rcd13ifvqbo0","pricing_plan_id":"free"},{"bike_id":"e1bdea2a-1eb6-4663-a0fa-aa8480c66340","system_id":"levelo_inurba_marseille","lat":43.293249,"lon":5.371578,"is_reserved":false,"is_disabled":false,"rental_uris":{"android":"levelo://app?vid=e1bdea2a-1eb6-4663-a0fa-aa8480c66340","ios":"levelo://app?vid=e1bdea2a-1eb6-4663-a0fa-aa8480c66340"},"vehicle_type_id":"4","last_reported":1701525939,"current_range_meters":0,"station_id":"ce4bgh92rcd13ifvqb40","pricing_plan_id":"free"},{"bike_id":"e169e80d-feeb-4403-9fe9-d81cb7f37e72","system_id":"levelo_inurba_marseille","lat":43.292749,"lon":5.368402,"is_reserved":false,"is_disabled":false,"rental_uris":{"android":"levelo://app?vid=e169e80d-feeb-4403-9fe9-d81cb7f37e72","ios":"levelo://app?vid=e169e80d-feeb-4403-9fe9-d81cb7f37e72"},"vehicle_type_id":"4","last_reported":1701525939,"current_range_meters":0,"station_id":"ce4bhbp2rcd13ifvqesg","pricing_plan_id":"free"},{"bike_id":"b0694478-1aab-495a-b6c2-590c471e9566","system_id":"levelo_inurba_marseille","lat":43.29272,"lon":5.36848,"is_reserved":false,"is_disabled":false,"rental_uris":{"android":"levelo://app?vid=b0694478-1aab-495a-b6c2-590c471e9566","ios":"levelo://app?vid=b0694478-1aab-495a-b6c2-590c471e9566"},"vehicle_type_id":"4","last_reported":1701525939,"current_range_meters":0,"station_id":"ce4bhbp2rcd13ifvqesg","pricing_plan_id":"free"},{"bike_id":"958272a4-62a8-472b-a15d-380e919b5f06","system_id":"levelo_inurba_marseille","lat":43.292749,"lon":5.368402,"is_reserved":false,"is_disabled":false,"rental_uris":{"android":"levelo://app?vid=958272a4-62a8-472b-a15d-380e919b5f06","ios":"levelo://app?vid=958272a4-62a8-472b-a15d-380e919b5f06"},"vehicle_type_id":"4","last_reported":1701525939,"current_range_meters":3600,"station_id":"ce4bhbp2rcd13ifvqesg","pricing_plan_id":"free"},{"bike_id":"d714148c-6408-401f-ba44-b5f5fc4019a0","system_id":"levelo_inurba_marseille","lat":43.293009,"lon":5.374584,"is_reserved":false,"is_disabled":false,"rental_uris":{"android":"levelo://app?vid=d714148c-6408-401f-ba44-b5f5fc4019a0","ios":"levelo://app?vid=d714148c-6408-401f-ba44-b5f5fc4019a0"},"vehicle_type_id":"4","last_reported":1701525939,"current_range_meters":8400,"station_id":"ce4bgi12rcd13ifvqb70","pricing_plan_id":"free"},{"bike_id":"e8489f56-9d16-4868-8d5a-7a26217ed421","system_id":"levelo_inurba_marseille","lat":43.300852,"lon":5.390859,"is_reserved":false,"is_disabled":false,"rental_uris":{"android":"levelo://app?vid=e8489f56-9d16-4868-8d5a-7a26217ed421","ios":"levelo://app?vid=e8489f56-9d16-4868-8d5a-7a26217ed421"},"vehicle_type_id":"4","last_reported":1701525939,"current_range_meters":23200,"station_id":"ce4bh192rcd13ifvqdb0","pricing_plan_id":"free"},{"bike_id":"2c690c4c-b903-49ba-a7c4-baa6f80ec912","system_id":"levelo_inurba_marseille","lat":43.292663,"lon":5.376394,"is_reserved":false,"is_disabled":false,"rental_uris":{"android":"levelo://app?vid=2c690c4c-b903-49ba-a7c4-baa6f80ec912","ios":"levelo://app?vid=2c690c4c-b903-49ba-a7c4-baa6f80ec912"},"vehicle_type_id":"4","last_reported":1701525939,"current_range_meters":14800,"station_id":"ce4bgi12rcd13ifvqb80","pricing_plan_id":"free"},{"bike_id":"660c3d3d-b6b3-4d40-af8c-925e267a9cdf","system_id":"levelo_inurba_marseille","lat":43.309038,"lon":5.396546,"is_reserved":false,"is_disabled":false,"rental_uris":{"android":"levelo://app?vid=660c3d3d-b6b3-4d40-af8c-925e267a9cdf","ios":"levelo://app?vid=660c3d3d-b6b3-4d40-af8c-925e267a9cdf"},"vehicle_type_id":"4","last_reported":1701525939,"current_range_meters":21200,"station_id":"ce4bh012rcd13ifvqcv0","pricing_plan_id":"free"},{"bike_id":"40c529db-87c5-4abb-b1b9-f7064713e596","system_id":"levelo_inurba_marseille","lat":43.302008,"lon":5.394694,"is_reserved":false,"is_disabled":false,"rental_uris":{"android":"levelo://app?vid=40c529db-87c5-4abb-b1b9-f7064713e596","ios":"levelo://app?vid=40c529db-87c5-4abb-b1b9-f7064713e596"},"vehicle_type_id":"4","last_reported":1701525939,"current_range_meters":17600,"station_id":"ce4bh0p2rcd13ifvqd70","pricing_plan_id":"free"},{"bike_id":"4fd03b97-12dd-42b7-8b30-d1d2ee45901a","system_id":"levelo_inurba_marseille","lat":43.290327,"lon":5.375711,"is_reserved":false,"is_disabled":false,"rental_uris":{"android":"levelo://app?vid=4fd03b97-12dd-42b7-8b30-d1d2ee45901a","ios":"levelo://app?vid=4fd03b97-12dd-42b7-8b30-d1d2ee45901a"},"vehicle_type_id":"4","last_reported":1701525939,"current_range_meters":10400,"station_id":"ce4bh692rcd13ifvqe90","pricing_plan_id":"free"},{"bike_id":"9332181a-c7ee-483c-b061-32391a5b5229","system_id":"levelo_inurba_marseille","lat":43.294153,"lon":5.386305,"is_reserved":false,"is_disabled":false,"rental_uris":{"android":"levelo://app?vid=9332181a-c7ee-483c-b061-32391a5b5229","ios":"levelo://app?vid=9332181a-c7ee-483c-b061-32391a5b5229"},"vehicle_type_id":"4","last_reported":1701525939,"current_range_meters":9600,"station_id":"ce4bh2h2rcd13ifvqdh0","pricing_plan_id":"free"},{"bike_id":"87be7130-2244-4d20-9d24-c44894c7be8d","system_id":"levelo_inurba_marseille","lat":43.294153,"lon":5.386305,"is_reserved":false,"is_disabled":false,"rental_uris":{"android":"levelo://app?vid=87be7130-2244-4d20-9d24-c44894c7be8d","ios":"levelo://app?vid=87be7130-2244-4d20-9d24-c44894c7be8d"},"vehicle_type_id":"4","last_reported":1701525939,"current_range_meters":11600,"station_id":"ce4bh2h2rcd13ifvqdh0","pricing_plan_id":"free"},{"bike_id":"3943ac70-109d-4305-bc36-650f1530ed0e","system_id":"levelo_inurba_marseille","lat":43.294153,"lon":5.386305,"is_reserved":false,"is_disabled":false,"rental_uris":{"android":"levelo://app?vid=3943ac70-109d-4305-bc36-650f1530ed0e","ios":"levelo://app?vid=3943ac70-109d-4305-bc36-650f1530ed0e"},"vehicle_type_id":"4","last_reported":1701525939,"current_range_meters":14400,"station_id":"ce4bh2h2rcd13ifvqdh0","pricing_plan_id":"free"},{"bike_id":"f6e0b8d0-cb33-401f-9932-9eb9c1005412","system_id":"levelo_inurba_marseille","lat":43.290327,"lon":5.375711,"is_reserved":false,"is_disabled":false,"rental_uris":{"android":"levelo://app?vid=f6e0b8d0-cb33-401f-9932-9eb9c1005412","ios":"levelo://app?vid=f6e0b8d0-cb33-401f-9932-9eb9c1005412"},"vehicle_type_id":"4","last_reported":1701525939,"current_range_meters":3200,"station_id":"ce4bh692rcd13ifvqe90","pricing_plan_id":"free"},{"bike_id":"71ddf3f4-b7fb-4bb3-b573-ad7fe612b05b","system_id":"levelo_inurba_marseille","lat":43.294153,"lon":5.386305,"is_reserved":false,"is_disabled":false,"rental_uris":{"android":"levelo://app?vid=71ddf3f4-b7fb-4bb3-b573-ad7fe612b05b","ios":"levelo://app?vid=71ddf3f4-b7fb-4bb3-b573-ad7fe612b05b"},"vehicle_type_id":"4","last_reported":1701525939,"current_range_meters":21600,"station_id":"ce4bh2h2rcd13ifvqdh0","pricing_plan_id":"free"},{"bike_id":"401f0f3f-a8eb-4cce-a005-08f4d69d6776","system_id":"levelo_inurba_marseille","lat":43.290104,"lon":5.356111,"is_reserved":false,"is_disabled":false,"rental_uris":{"android":"levelo://app?vid=401f0f3f-a8eb-4cce-a005-08f4d69d6776","ios":"levelo://app?vid=401f0f3f-a8eb-4cce-a005-08f4d69d6776"},"vehicle_type_id":"4","last_reported":1701525939,"current_range_meters":13600,"station_id":"ce4bhb92rcd13ifvqen0","pricing_plan_id":"free"},{"bike_id":"76b526a8-7e76-45b2-8114-932ff888c5c4","system_id":"levelo_inurba_marseille","lat":43.290995,"lon":5.381361,"is_reserved":false,"is_disabled":false,"rental_uris":{"android":"levelo://app?vid=76b526a8-7e76-45b2-8114-932ff888c5c4","ios":"levelo://app?vid=76b526a8-7e76-45b2-8114-932ff888c5c4"},"vehicle_type_id":"4","last_reported":1701525939,"current_range_meters":28800,"station_id":"ce4bh512rcd13ifvqe2g","pricing_plan_id":"free"},{"bike_id":"b38135b0-bb14-4c25-bf29-b49d406cc922","system_id":"levelo_inurba_marseille","lat":43.33056,"lon":5.39058,"is_reserved":false,"is_disabled":false,"rental_uris":{"android":"levelo://app?vid=b38135b0-bb14-4c25-bf29-b49d406cc922","ios":"levelo://app?vid=b38135b0-bb14-4c25-bf29-b49d406cc922"},"vehicle_type_id":"4","last_reported":1701525939,"current_range_meters":800,"station_id":"","pricing_plan_id":"free"},{"bike_id":"8c5cda77-c340-4270-bbe5-a35de3a71a65","system_id":"levelo_inurba_marseille","lat":43.305714,"lon":5.365633,"is_reserved":false,"is_disabled":false,"rental_uris":{"android":"levelo://app?vid=8c5cda77-c340-4270-bbe5-a35de3a71a65","ios":"levelo://app?vid=8c5cda77-c340-4270-bbe5-a35de3a71a65"},"vehicle_type_id":"4","last_reported":1701525939,"current_range_meters":19200,"station_id":"ce4bgs12rcd13ifvqcag","pricing_plan_id":"free"},{"bike_id":"e43b0f4e-12d8-497f-876f-4d15c7f48a0a","system_id":"levelo_inurba_marseille","lat":43.312609,"lon":5.401662,"is_reserved":false,"is_disabled":false,"rental_uris":{"android":"levelo://app?vid=e43b0f4e-12d8-497f-876f-4d15c7f48a0a","ios":"levelo://app?vid=e43b0f4e-12d8-497f-876f-4d15c7f48a0a"},"vehicle_type_id":"4","last_reported":1701525939,"current_range_meters":28800,"station_id":"ce4bh092rcd13ifvqd30","pricing_plan_id":"free"},{"bike_id":"5ee830a4-21de-41db-b2c1-269c4d7c09cd","system_id":"levelo_inurba_marseille","lat":43.306412,"lon":5.401035,"is_reserved":false,"is_disabled":false,"rental_uris":{"android":"levelo://app?vid=5ee830a4-21de-41db-b2c1-269c4d7c09cd","ios":"levelo://app?vid=5ee830a4-21de-41db-b2c1-269c4d7c09cd"},"vehicle_type_id":"4","last_reported":1701525939,"current_range_meters":22800,"station_id":"ce4bh112rcd13ifvqda0","pricing_plan_id":"free"},{"bike_id":"226b23f0-fb76-46cb-875a-b2077402d184","system_id":"levelo_inurba_marseille","lat":43.306412,"lon":5.401035,"is_reserved":false,"is_disabled":false,"rental_uris":{"android":"levelo://app?vid=226b23f0-fb76-46cb-875a-b2077402d184","ios":"levelo://app?vid=226b23f0-fb76-46cb-875a-b2077402d184"},"vehicle_type_id":"4","last_reported":1701525939,"current_range_meters":0,"station_id":"ce4bh112rcd13ifvqda0","pricing_plan_id":"free"},{"bike_id":"401ea956-e768-4d18-8f4a-bff1f7cfbffe","system_id":"levelo_inurba_marseille","lat":43.33779,"lon":5.37429,"is_reserved":false,"is_disabled":false,"rental_uris":{"android":"levelo://app?vid=401ea956-e768-4d18-8f4a-bff1f7cfbffe","ios":"levelo://app?vid=401ea956-e768-4d18-8f4a-bff1f7cfbffe"},"vehicle_type_id":"4","last_reported":1701525939,"current_range_meters":28800,"station_id":"","pricing_plan_id":"free"},{"bike_id":"39eb6925-80c3-4219-a3d1-78bdf3cd6b6d","system_id":"levelo_inurba_marseille","lat":43.286591,"lon":5.363346,"is_reserved":false,"is_disabled":false,"rental_uris":{"android":"levelo://app?vid=39eb6925-80c3-4219-a3d1-78bdf3cd6b6d","ios":"levelo://app?vid=39eb6925-80c3-4219-a3d1-78bdf3cd6b6d"},"vehicle_type_id":"4","last_reported":1701525939,"current_range_meters":12800,"station_id":"ce4bhah2rcd13ifvqej0","pricing_plan_id":"free"},{"bike_id":"ab8fe4a3-71b0-4b9c-a69b-4a965918d787","system_id":"levelo_inurba_marseille","lat":43.295196,"lon":5.39397,"is_reserved":false,"is_disabled":false,"rental_uris":{"android":"levelo://app?vid=ab8fe4a3-71b0-4b9c-a69b-4a965918d787","ios":"levelo://app?vid=ab8fe4a3-71b0-4b9c-a69b-4a965918d787"},"vehicle_type_id":"4","last_reported":1701525939,"current_range_meters":14800,"station_id":"ce4bh292rcd13ifvqdf0","pricing_plan_id":"free"},{"bike_id":"9f573ef3-aed3-4750-9371-89a4fd5b8413","system_id":"levelo_inurba_marseille","lat":43.295196,"lon":5.39397,"is_reserved":false,"is_disabled":false,"rental_uris":{"android":"levelo://app?vid=9f573ef3-aed3-4750-9371-89a4fd5b8413","ios":"levelo://app?vid=9f573ef3-aed3-4750-9371-89a4fd5b8413"},"vehicle_type_id":"4","last_reported":1701525939,"current_range_meters":4400,"station_id":"ce4bh292rcd13ifvqdf0","pricing_plan_id":"free"},{"bike_id":"89e5cf36-f975-44aa-965a-2f8100886e03","system_id":"levelo_inurba_marseille","lat":43.2952,"lon":5.394083,"is_reserved":false,"is_disabled":false,"rental_uris":{"android":"levelo://app?vid=89e5cf36-f975-44aa-965a-2f8100886e03","ios":"levelo://app?vid=89e5cf36-f975-44aa-965a-2f8100886e03"},"vehicle_type_id":"4","last_reported":1701525939,"current_range_meters":0,"station_id":"ce4bh292rcd13ifvqdf0","pricing_plan_id":"free"},{"bike_id":"c4ff77af-0c70-4c3f-9d63-648a6113f22e","system_id":"levelo_inurba_marseille","lat":43.302759,"lon":5.400793,"is_reserved":false,"is_disabled":false,"rental_uris":{"android":"levelo://app?vid=c4ff77af-0c70-4c3f-9d63-648a6113f22e","ios":"levelo://app?vid=c4ff77af-0c70-4c3f-9d63-648a6113f22e"},"vehicle_type_id":"4","last_reported":1701525939,"current_range_meters":16400,"station_id":"ce4bgvh2rcd13ifvqcs0","pricing_plan_id":"free"},{"bike_id":"d250f203-8cba-47c4-9cad-1eb042fef1b5","system_id":"levelo_inurba_marseille","lat":43.289207,"lon":5.384027,"is_reserved":false,"is_disabled":false,"rental_uris":{"android":"levelo://app?vid=d250f203-8cba-47c4-9cad-1eb042fef1b5","ios":"levelo://app?vid=d250f203-8cba-47c4-9cad-1eb042fef1b5"},"vehicle_type_id":"4","last_reported":1701525939,"current_range_meters":15200,"station_id":"ce4bh612rcd13ifvqe6g","pricing_plan_id":"free"},{"bike_id":"cd12e1d3-f37b-439f-a83c-fc27e6650bcd","system_id":"levelo_inurba_marseille","lat":43.2902,"lon":5.38643,"is_reserved":false,"is_disabled":false,"rental_uris":{"android":"levelo://app?vid=cd12e1d3-f37b-439f-a83c-fc27e6650bcd","ios":"levelo://app?vid=cd12e1d3-f37b-439f-a83c-fc27e6650bcd"},"vehicle_type_id":"4","last_reported":1701525939,"current_range_meters":0,"station_id":"ce4bh4p2rcd13ifvqe0g","pricing_plan_id":"free"},{"bike_id":"74590cbd-4eac-4089-b3fd-dfc3194e5cb6","system_id":"levelo_inurba_marseille","lat":43.286039,"lon":5.370679,"is_reserved":false,"is_disabled":false,"rental_uris":{"android":"levelo://app?vid=74590cbd-4eac-4089-b3fd-dfc3194e5cb6","ios":"levelo://app?vid=74590cbd-4eac-4089-b3fd-dfc3194e5cb6"},"vehicle_type_id":"4","last_reported":1701525939,"current_range_meters":15600,"station_id":"ce4bht12rcd13ifvqi60","pricing_plan_id":"free"},{"bike_id":"abdf7621-70da-4425-b07a-0e4b2eaaefd9","system_id":"levelo_inurba_marseille","lat":43.28608,"lon":5.37072,"is_reserved":false,"is_disabled":false,"rental_uris":{"android":"levelo://app?vid=abdf7621-70da-4425-b07a-0e4b2eaaefd9","ios":"levelo://app?vid=abdf7621-70da-4425-b07a-0e4b2eaaefd9"},"vehicle_type_id":"4","last_reported":1701525939,"current_range_meters":4400,"station_id":"ce4bht12rcd13ifvqi60","pricing_plan_id":"free"},{"bike_id":"0d5d7ab8-9ae7-432f-9189-bf46aad59761","system_id":"levelo_inurba_marseille","lat":43.319179,"lon":5.407725,"is_reserved":false,"is_disabled":false,"rental_uris":{"android":"levelo://app?vid=0d5d7ab8-9ae7-432f-9189-bf46aad59761","ios":"levelo://app?vid=0d5d7ab8-9ae7-432f-9189-bf46aad59761"},"vehicle_type_id":"4","last_reported":1701525939,"current_range_meters":31200,"station_id":"ce4bhq12rcd13ifvqhig","pricing_plan_id":"free"},{"bike_id":"f99fc4d8-709b-4cee-a32c-2cdd6f1e8b1e","system_id":"levelo_inurba_marseille","lat":43.33749,"lon":5.39111,"is_reserved":false,"is_disabled":false,"rental_uris":{"android":"levelo://app?vid=f99fc4d8-709b-4cee-a32c-2cdd6f1e8b1e","ios":"levelo://app?vid=f99fc4d8-709b-4cee-a32c-2cdd6f1e8b1e"},"vehicle_type_id":"4","last_reported":1701525939,"current_range_meters":26000,"station_id":"","pricing_plan_id":"free"},{"bike_id":"4714f7cd-5ff4-41d0-870b-3e9261538b58","system_id":"levelo_inurba_marseille","lat":43.323464,"lon":5.406297,"is_reserved":false,"is_disabled":false,"rental_uris":{"android":"levelo://app?vid=4714f7cd-5ff4-41d0-870b-3e9261538b58","ios":"levelo://app?vid=4714f7cd-5ff4-41d0-870b-3e9261538b58"},"vehicle_type_id":"4","last_reported":1701525939,"current_range_meters":26800,"station_id":"ce4bhq92rcd13ifvqhjg","pricing_plan_id":"free"},{"bike_id":"4092b413-a8f0-49fd-8cc3-69bf3f509a40","system_id":"levelo_inurba_marseille","lat":43.32337,"lon":5.40622,"is_reserved":false,"is_disabled":false,"rental_uris":{"android":"levelo://app?vid=4092b413-a8f0-49fd-8cc3-69bf3f509a40","ios":"levelo://app?vid=4092b413-a8f0-49fd-8cc3-69bf3f509a40"},"vehicle_type_id":"4","last_reported":1701525939,"current_range_meters":10000,"station_id":"ce4bhq92rcd13ifvqhjg","pricing_plan_id":"free"},{"bike_id":"093500d2-cae3-48ff-973c-a811040a0a84","system_id":"levelo_inurba_marseille","lat":43.33717,"lon":5.391857,"is_reserved":false,"is_disabled":false,"rental_uris":{"android":"levelo://app?vid=093500d2-cae3-48ff-973c-a811040a0a84","ios":"levelo://app?vid=093500d2-cae3-48ff-973c-a811040a0a84"},"vehicle_type_id":"4","last_reported":1701525939,"current_range_meters":21600,"station_id":"ce4bhr92rcd13ifvqhsg","pricing_plan_id":"free"},{"bike_id":"e5a50bc2-d426-4d68-92c1-c1f63055eec9","system_id":"levelo_inurba_marseille","lat":43.29795,"lon":5.404086,"is_reserved":false,"is_disabled":false,"rental_uris":{"android":"levelo://app?vid=e5a50bc2-d426-4d68-92c1-c1f63055eec9","ios":"levelo://app?vid=e5a50bc2-d426-4d68-92c1-c1f63055eec9"},"vehicle_type_id":"4","last_reported":1701525939,"current_range_meters":24800,"station_id":"ce4bh112rcd13ifvqd90","pricing_plan_id":"free"},{"bike_id":"e4b38a2d-3dcc-41cf-910a-62d4845d7c85","system_id":"levelo_inurba_marseille","lat":43.28424,"lon":5.3498,"is_reserved":false,"is_disabled":false,"rental_uris":{"android":"levelo://app?vid=e4b38a2d-3dcc-41cf-910a-62d4845d7c85","ios":"levelo://app?vid=e4b38a2d-3dcc-41cf-910a-62d4845d7c85"},"vehicle_type_id":"4","last_reported":1701525939,"current_range_meters":23200,"station_id":"ce4bhbh2rcd13ifvqepg","pricing_plan_id":"free"},{"bike_id":"c98f7136-0fa2-4d68-bf67-53828eb2380c","system_id":"levelo_inurba_marseille","lat":43.28421,"lon":5.34989,"is_reserved":false,"is_disabled":false,"rental_uris":{"android":"levelo://app?vid=c98f7136-0fa2-4d68-bf67-53828eb2380c","ios":"levelo://app?vid=c98f7136-0fa2-4d68-bf67-53828eb2380c"},"vehicle_type_id":"4","last_reported":1701525939,"current_range_meters":7600,"station_id":"ce4bhbh2rcd13ifvqepg","pricing_plan_id":"free"},{"bike_id":"a511c602-861f-4791-b8b9-3a1b7893f1ee","system_id":"levelo_inurba_marseille","lat":43.28422,"lon":5.34979,"is_reserved":false,"is_disabled":false,"rental_uris":{"android":"levelo://app?vid=a511c602-861f-4791-b8b9-3a1b7893f1ee","ios":"levelo://app?vid=a511c602-861f-4791-b8b9-3a1b7893f1ee"},"vehicle_type_id":"4","last_reported":1701525939,"current_range_meters":17600,"station_id":"ce4bhbh2rcd13ifvqepg","pricing_plan_id":"free"},{"bike_id":"edb9212c-83d0-475d-8300-d27a5817857b","system_id":"levelo_inurba_marseille","lat":43.2842,"lon":5.34979,"is_reserved":false,"is_disabled":false,"rental_uris":{"android":"levelo://app?vid=edb9212c-83d0-475d-8300-d27a5817857b","ios":"levelo://app?vid=edb9212c-83d0-475d-8300-d27a5817857b"},"vehicle_type_id":"4","last_reported":1701525939,"current_range_meters":4000,"station_id":"ce4bhbh2rcd13ifvqepg","pricing_plan_id":"free"},{"bike_id":"2aff3572-f80b-40f7-98f4-e5c14d5b8615","system_id":"levelo_inurba_marseille","lat":43.284217,"lon":5.349697,"is_reserved":false,"is_disabled":false,"rental_uris":{"android":"levelo://app?vid=2aff3572-f80b-40f7-98f4-e5c14d5b8615","ios":"levelo://app?vid=2aff3572-f80b-40f7-98f4-e5c14d5b8615"},"vehicle_type_id":"4","last_reported":1701525939,"current_range_meters":23600,"station_id":"ce4bhbh2rcd13ifvqepg","pricing_plan_id":"free"},{"bike_id":"8c62b4d1-27b0-42c2-8968-4fe5d3727a6f","system_id":"levelo_inurba_marseille","lat":43.283502,"lon":5.386471,"is_reserved":false,"is_disabled":false,"rental_uris":{"android":"levelo://app?vid=8c62b4d1-27b0-42c2-8968-4fe5d3727a6f","ios":"levelo://app?vid=8c62b4d1-27b0-42c2-8968-4fe5d3727a6f"},"vehicle_type_id":"4","last_reported":1701525939,"current_range_meters":4400,"station_id":"ce4bh492rcd13ifvqdvg","pricing_plan_id":"free"},{"bike_id":"4fb7871b-7789-4073-a6c2-2f681ee94c69","system_id":"levelo_inurba_marseille","lat":43.283502,"lon":5.386471,"is_reserved":false,"is_disabled":false,"rental_uris":{"android":"levelo://app?vid=4fb7871b-7789-4073-a6c2-2f681ee94c69","ios":"levelo://app?vid=4fb7871b-7789-4073-a6c2-2f681ee94c69"},"vehicle_type_id":"4","last_reported":1701525939,"current_range_meters":26000,"station_id":"ce4bh492rcd13ifvqdvg","pricing_plan_id":"free"},{"bike_id":"40c12ec5-c828-4eb3-91e7-c11d37f092ee","system_id":"levelo_inurba_marseille","lat":43.281044,"lon":5.378308,"is_reserved":false,"is_disabled":false,"rental_uris":{"android":"levelo://app?vid=40c12ec5-c828-4eb3-91e7-c11d37f092ee","ios":"levelo://app?vid=40c12ec5-c828-4eb3-91e7-c11d37f092ee"},"vehicle_type_id":"4","last_reported":1701525939,"current_range_meters":29200,"station_id":"ce4bha12rcd13ifvqee0","pricing_plan_id":"free"},{"bike_id":"e03e5e64-6eaa-4f97-9645-2797ae018339","system_id":"levelo_inurba_marseille","lat":43.284462,"lon":5.392121,"is_reserved":false,"is_disabled":false,"rental_uris":{"android":"levelo://app?vid=e03e5e64-6eaa-4f97-9645-2797ae018339","ios":"levelo://app?vid=e03e5e64-6eaa-4f97-9645-2797ae018339"},"vehicle_type_id":"4","last_reported":1701525939,"current_range_meters":8800,"station_id":"ce4bhoh2rcd13ifvqh5g","pricing_plan_id":"free"},{"bike_id":"84b9469e-662f-49ed-9119-09b74453ef70","system_id":"levelo_inurba_marseille","lat":43.29467,"lon":5.40717,"is_reserved":false,"is_disabled":false,"rental_uris":{"android":"levelo://app?vid=84b9469e-662f-49ed-9119-09b74453ef70","ios":"levelo://app?vid=84b9469e-662f-49ed-9119-09b74453ef70"},"vehicle_type_id":"4","last_reported":1701525939,"current_range_meters":22400,"station_id":"","pricing_plan_id":"free"},{"bike_id":"25702977-93ad-402a-ba93-cf20ff119736","system_id":"levelo_inurba_marseille","lat":43.304188,"lon":5.412904,"is_reserved":false,"is_disabled":false,"rental_uris":{"android":"levelo://app?vid=25702977-93ad-402a-ba93-cf20ff119736","ios":"levelo://app?vid=25702977-93ad-402a-ba93-cf20ff119736"},"vehicle_type_id":"4","last_reported":1701525939,"current_range_meters":22400,"station_id":"ce4bhop2rcd13ifvqh8g","pricing_plan_id":"free"},{"bike_id":"ef7c1c99-8c93-4d84-b84e-d286814fa0a6","system_id":"levelo_inurba_marseille","lat":43.279087,"lon":5.380114,"is_reserved":false,"is_disabled":false,"rental_uris":{"android":"levelo://app?vid=ef7c1c99-8c93-4d84-b84e-d286814fa0a6","ios":"levelo://app?vid=ef7c1c99-8c93-4d84-b84e-d286814fa0a6"},"vehicle_type_id":"4","last_reported":1701525939,"current_range_meters":24000,"station_id":"ce4bhf92rcd13ifvqf50","pricing_plan_id":"free"},{"bike_id":"50e49625-7903-4759-92f0-d2ab2d777088","system_id":"levelo_inurba_marseille","lat":43.299577,"lon":5.413277,"is_reserved":false,"is_disabled":false,"rental_uris":{"android":"levelo://app?vid=50e49625-7903-4759-92f0-d2ab2d777088","ios":"levelo://app?vid=50e49625-7903-4759-92f0-d2ab2d777088"},"vehicle_type_id":"4","last_reported":1701525939,"current_range_meters":26000,"station_id":"ce4bhp12rcd13ifvqh9g","pricing_plan_id":"free"},{"bike_id":"ab8af3f0-4195-4d12-81c4-9fded5a4e13e","system_id":"levelo_inurba_marseille","lat":43.279742,"lon":5.38744,"is_reserved":false,"is_disabled":false,"rental_uris":{"android":"levelo://app?vid=ab8af3f0-4195-4d12-81c4-9fded5a4e13e","ios":"levelo://app?vid=ab8af3f0-4195-4d12-81c4-9fded5a4e13e"},"vehicle_type_id":"4","last_reported":1701525939,"current_range_meters":29600,"station_id":"ce4bhg12rcd13ifvqf80","pricing_plan_id":"free"},{"bike_id":"fa8a77c4-9bfd-4cb9-a043-a8b0884583a1","system_id":"levelo_inurba_marseille","lat":43.279742,"lon":5.38744,"is_reserved":false,"is_disabled":false,"rental_uris":{"android":"levelo://app?vid=fa8a77c4-9bfd-4cb9-a043-a8b0884583a1","ios":"levelo://app?vid=fa8a77c4-9bfd-4cb9-a043-a8b0884583a1"},"vehicle_type_id":"4","last_reported":1701525939,"current_range_meters":26400,"station_id":"ce4bhg12rcd13ifvqf80","pricing_plan_id":"free"},{"bike_id":"79bef162-5c7c-4d39-b39b-7e934257755a","system_id":"levelo_inurba_marseille","lat":43.3254,"lon":5.41436,"is_reserved":false,"is_disabled":false,"rental_uris":{"android":"levelo://app?vid=79bef162-5c7c-4d39-b39b-7e934257755a","ios":"levelo://app?vid=79bef162-5c7c-4d39-b39b-7e934257755a"},"vehicle_type_id":"4","last_reported":1701525939,"current_range_meters":2400,"station_id":"ce4bhq12rcd13ifvqhhg","pricing_plan_id":"free"},{"bike_id":"662d7ac0-b60c-4589-b775-59c466096683","system_id":"levelo_inurba_marseille","lat":43.325233,"lon":5.414318,"is_reserved":false,"is_disabled":false,"rental_uris":{"android":"levelo://app?vid=662d7ac0-b60c-4589-b775-59c466096683","ios":"levelo://app?vid=662d7ac0-b60c-4589-b775-59c466096683"},"vehicle_type_id":"4","last_reported":1701525939,"current_range_meters":31200,"station_id":"ce4bhq12rcd13ifvqhhg","pricing_plan_id":"free"},{"bike_id":"451e5711-912b-4e6f-ba92-14f20d0093e3","system_id":"levelo_inurba_marseille","lat":43.33518,"lon":5.4076,"is_reserved":false,"is_disabled":false,"rental_uris":{"android":"levelo://app?vid=451e5711-912b-4e6f-ba92-14f20d0093e3","ios":"levelo://app?vid=451e5711-912b-4e6f-ba92-14f20d0093e3"},"vehicle_type_id":"4","last_reported":1701525939,"current_range_meters":20400,"station_id":"","pricing_plan_id":"free"},{"bike_id":"bcdb50df-13be-4393-adc8-1a79a4e56c43","system_id":"levelo_inurba_marseille","lat":43.28619,"lon":5.40406,"is_reserved":false,"is_disabled":false,"rental_uris":{"android":"levelo://app?vid=bcdb50df-13be-4393-adc8-1a79a4e56c43","ios":"levelo://app?vid=bcdb50df-13be-4393-adc8-1a79a4e56c43"},"vehicle_type_id":"4","last_reported":1701525939,"current_range_meters":0,"station_id":"","pricing_plan_id":"free"},{"bike_id":"752df9af-6368-443e-9bb6-fec7b7e9f4b7","system_id":"levelo_inurba_marseille","lat":43.280784,"lon":5.396622,"is_reserved":false,"is_disabled":false,"rental_uris":{"android":"levelo://app?vid=752df9af-6368-443e-9bb6-fec7b7e9f4b7","ios":"levelo://app?vid=752df9af-6368-443e-9bb6-fec7b7e9f4b7"},"vehicle_type_id":"4","last_reported":1701525939,"current_range_meters":30400,"station_id":"ce4bho12rcd13ifvqh2g","pricing_plan_id":"free"},{"bike_id":"b36e1e7d-17ff-4ed8-9477-0e956c5d2754","system_id":"levelo_inurba_marseille","lat":43.303837,"lon":5.418724,"is_reserved":false,"is_disabled":false,"rental_uris":{"android":"levelo://app?vid=b36e1e7d-17ff-4ed8-9477-0e956c5d2754","ios":"levelo://app?vid=b36e1e7d-17ff-4ed8-9477-0e956c5d2754"},"vehicle_type_id":"4","last_reported":1701525939,"current_range_meters":30800,"station_id":"ce4bhop2rcd13ifvqh7g","pricing_plan_id":"free"},{"bike_id":"c0869cc4-7e08-4244-afe3-405c3437fc3f","system_id":"levelo_inurba_marseille","lat":43.278401,"lon":5.392152,"is_reserved":false,"is_disabled":false,"rental_uris":{"android":"levelo://app?vid=c0869cc4-7e08-4244-afe3-405c3437fc3f","ios":"levelo://app?vid=c0869cc4-7e08-4244-afe3-405c3437fc3f"},"vehicle_type_id":"4","last_reported":1701525939,"current_range_meters":27200,"station_id":"ce4bhjp2rcd13ifvqga0","pricing_plan_id":"free"},{"bike_id":"6b9a9acd-8c91-4055-8490-a304cd7c83dc","system_id":"levelo_inurba_marseille","lat":43.336134,"lon":5.410341,"is_reserved":false,"is_disabled":false,"rental_uris":{"android":"levelo://app?vid=6b9a9acd-8c91-4055-8490-a304cd7c83dc","ios":"levelo://app?vid=6b9a9acd-8c91-4055-8490-a304cd7c83dc"},"vehicle_type_id":"4","last_reported":1701525939,"current_range_meters":21600,"station_id":"ce4bhqh2rcd13ifvqhmg","pricing_plan_id":"free"},{"bike_id":"05c93acc-cbc3-4fbd-86d2-caaf547ca249","system_id":"levelo_inurba_marseille","lat":43.273613,"lon":5.362705,"is_reserved":false,"is_disabled":false,"rental_uris":{"android":"levelo://app?vid=05c93acc-cbc3-4fbd-86d2-caaf547ca249","ios":"levelo://app?vid=05c93acc-cbc3-4fbd-86d2-caaf547ca249"},"vehicle_type_id":"4","last_reported":1701525939,"current_range_meters":12400,"station_id":"ce4bhbh2rcd13ifvqeo0","pricing_plan_id":"free"},{"bike_id":"fcb6bee6-49f8-46af-ade1-f763061572f7","system_id":"levelo_inurba_marseille","lat":43.33612,"lon":5.410321,"is_reserved":false,"is_disabled":false,"rental_uris":{"android":"levelo://app?vid=fcb6bee6-49f8-46af-ade1-f763061572f7","ios":"levelo://app?vid=fcb6bee6-49f8-46af-ade1-f763061572f7"},"vehicle_type_id":"4","last_reported":1701525939,"current_range_meters":27600,"station_id":"ce4bhqh2rcd13ifvqhmg","pricing_plan_id":"free"},{"bike_id":"031638a0-bfc0-4060-8e2b-d5c6505097a4","system_id":"levelo_inurba_marseille","lat":43.336073,"lon":5.41034,"is_reserved":false,"is_disabled":false,"rental_uris":{"android":"levelo://app?vid=031638a0-bfc0-4060-8e2b-d5c6505097a4","ios":"levelo://app?vid=031638a0-bfc0-4060-8e2b-d5c6505097a4"},"vehicle_type_id":"4","last_reported":1701525939,"current_range_meters":7600,"station_id":"ce4bhqh2rcd13ifvqhmg","pricing_plan_id":"free"},{"bike_id":"4f44e41c-5d5f-40b0-808d-6fe2cbe6b56b","system_id":"levelo_inurba_marseille","lat":43.33612,"lon":5.410321,"is_reserved":false,"is_disabled":false,"rental_uris":{"android":"levelo://app?vid=4f44e41c-5d5f-40b0-808d-6fe2cbe6b56b","ios":"levelo://app?vid=4f44e41c-5d5f-40b0-808d-6fe2cbe6b56b"},"vehicle_type_id":"4","last_reported":1701525939,"current_range_meters":26400,"station_id":"ce4bhqh2rcd13ifvqhmg","pricing_plan_id":"free"},{"bike_id":"1d2ef61d-c4af-44ae-8a40-ab0d8b92853a","system_id":"levelo_inurba_marseille","lat":43.275625,"lon":5.384392,"is_reserved":false,"is_disabled":false,"rental_uris":{"android":"levelo://app?vid=1d2ef61d-c4af-44ae-8a40-ab0d8b92853a","ios":"levelo://app?vid=1d2ef61d-c4af-44ae-8a40-ab0d8b92853a"},"vehicle_type_id":"4","last_reported":1701525939,"current_range_meters":5200,"station_id":"ce4bhh92rcd13ifvqfi0","pricing_plan_id":"free"},{"bike_id":"18c85ec6-acb8-4dd4-83b7-4c78c32bc897","system_id":"levelo_inurba_marseille","lat":43.279742,"lon":5.38744,"is_reserved":false,"is_disabled":false,"rental_uris":{"android":"levelo://app?vid=18c85ec6-acb8-4dd4-83b7-4c78c32bc897","ios":"levelo://app?vid=18c85ec6-acb8-4dd4-83b7-4c78c32bc897"},"vehicle_type_id":"4","last_reported":1701525939,"current_range_meters":10800,"station_id":"ce4bhg12rcd13ifvqf80","pricing_plan_id":"free"},{"bike_id":"50415618-e0c7-4c83-af76-e7d428c4b51d","system_id":"levelo_inurba_marseille","lat":43.279952,"lon":5.400085,"is_reserved":false,"is_disabled":false,"rental_uris":{"android":"levelo://app?vid=50415618-e0c7-4c83-af76-e7d428c4b51d","ios":"levelo://app?vid=50415618-e0c7-4c83-af76-e7d428c4b51d"},"vehicle_type_id":"4","last_reported":1701525939,"current_range_meters":31200,"station_id":"ce4bho92rcd13ifvqh4g","pricing_plan_id":"free"},{"bike_id":"894f6494-585b-4b1b-a39f-39b137cf17d0","system_id":"levelo_inurba_marseille","lat":43.310785,"lon":5.424305,"is_reserved":false,"is_disabled":false,"rental_uris":{"android":"levelo://app?vid=894f6494-585b-4b1b-a39f-39b137cf17d0","ios":"levelo://app?vid=894f6494-585b-4b1b-a39f-39b137cf17d0"},"vehicle_type_id":"4","last_reported":1701525939,"current_range_meters":9600,"station_id":"ce4bhp92rcd13ifvqhag","pricing_plan_id":"free"},{"bike_id":"c7ea9c33-fa43-40ec-83a0-1f2b111bd1ba","system_id":"levelo_inurba_marseille","lat":43.340804,"lon":5.410219,"is_reserved":false,"is_disabled":false,"rental_uris":{"android":"levelo://app?vid=c7ea9c33-fa43-40ec-83a0-1f2b111bd1ba","ios":"levelo://app?vid=c7ea9c33-fa43-40ec-83a0-1f2b111bd1ba"},"vehicle_type_id":"4","last_reported":1701525939,"current_range_meters":23200,"station_id":"ce4bhqh2rcd13ifvqhlg","pricing_plan_id":"free"},{"bike_id":"a3527c32-1fa7-4ebe-9b65-a997c7b104de","system_id":"levelo_inurba_marseille","lat":43.30415,"lon":5.42538,"is_reserved":false,"is_disabled":false,"rental_uris":{"android":"levelo://app?vid=a3527c32-1fa7-4ebe-9b65-a997c7b104de","ios":"levelo://app?vid=a3527c32-1fa7-4ebe-9b65-a997c7b104de"},"vehicle_type_id":"4","last_reported":1701525939,"current_range_meters":14400,"station_id":"ce4bhoh2rcd13ifvqh6g","pricing_plan_id":"free"},{"bike_id":"ceafb40a-f653-49c2-9496-bde372a5f440","system_id":"levelo_inurba_marseille","lat":43.30415,"lon":5.42543,"is_reserved":false,"is_disabled":false,"rental_uris":{"android":"levelo://app?vid=ceafb40a-f653-49c2-9496-bde372a5f440","ios":"levelo://app?vid=ceafb40a-f653-49c2-9496-bde372a5f440"},"vehicle_type_id":"4","last_reported":1701525939,"current_range_meters":10000,"station_id":"ce4bhoh2rcd13ifvqh6g","pricing_plan_id":"free"},{"bike_id":"c44a0174-07b3-4c74-85c5-d1b6d5258c1b","system_id":"levelo_inurba_marseille","lat":43.30417,"lon":5.42544,"is_reserved":false,"is_disabled":false,"rental_uris":{"android":"levelo://app?vid=c44a0174-07b3-4c74-85c5-d1b6d5258c1b","ios":"levelo://app?vid=c44a0174-07b3-4c74-85c5-d1b6d5258c1b"},"vehicle_type_id":"4","last_reported":1701525939,"current_range_meters":28800,"station_id":"ce4bhoh2rcd13ifvqh6g","pricing_plan_id":"free"},{"bike_id":"5516b9d3-e989-45d3-9504-193f30ffb70b","system_id":"levelo_inurba_marseille","lat":43.30412,"lon":5.42548,"is_reserved":false,"is_disabled":false,"rental_uris":{"android":"levelo://app?vid=5516b9d3-e989-45d3-9504-193f30ffb70b","ios":"levelo://app?vid=5516b9d3-e989-45d3-9504-193f30ffb70b"},"vehicle_type_id":"4","last_reported":1701525939,"current_range_meters":20400,"station_id":"ce4bhoh2rcd13ifvqh6g","pricing_plan_id":"free"},{"bike_id":"f383420e-abd3-45b2-8b63-841e6c074a1a","system_id":"levelo_inurba_marseille","lat":43.3041,"lon":5.42548,"is_reserved":false,"is_disabled":false,"rental_uris":{"android":"levelo://app?vid=f383420e-abd3-45b2-8b63-841e6c074a1a","ios":"levelo://app?vid=f383420e-abd3-45b2-8b63-841e6c074a1a"},"vehicle_type_id":"4","last_reported":1701525939,"current_range_meters":30000,"station_id":"ce4bhoh2rcd13ifvqh6g","pricing_plan_id":"free"},{"bike_id":"ac66a036-a10d-4f8c-83e4-715d71e292f8","system_id":"levelo_inurba_marseille","lat":43.295523,"lon":5.422926,"is_reserved":false,"is_disabled":false,"rental_uris":{"android":"levelo://app?vid=ac66a036-a10d-4f8c-83e4-715d71e292f8","ios":"levelo://app?vid=ac66a036-a10d-4f8c-83e4-715d71e292f8"},"vehicle_type_id":"4","last_reported":1701525939,"current_range_meters":12000,"station_id":"ce4bhph2rcd13ifvqhdg","pricing_plan_id":"free"},{"bike_id":"67e94a1d-9ab3-41f5-bf89-44fd6a30dd5b","system_id":"levelo_inurba_marseille","lat":43.2794,"lon":5.41057,"is_reserved":false,"is_disabled":false,"rental_uris":{"android":"levelo://app?vid=67e94a1d-9ab3-41f5-bf89-44fd6a30dd5b","ios":"levelo://app?vid=67e94a1d-9ab3-41f5-bf89-44fd6a30dd5b"},"vehicle_type_id":"4","last_reported":1701525939,"current_range_meters":14800,"station_id":"ce4bhnp2rcd13ifvqh0g","pricing_plan_id":"free"},{"bike_id":"1e47b582-221d-4c3a-ac5e-f9dd929554dd","system_id":"levelo_inurba_marseille","lat":43.269319,"lon":5.389397,"is_reserved":false,"is_disabled":false,"rental_uris":{"android":"levelo://app?vid=1e47b582-221d-4c3a-ac5e-f9dd929554dd","ios":"levelo://app?vid=1e47b582-221d-4c3a-ac5e-f9dd929554dd"},"vehicle_type_id":"4","last_reported":1701525939,"current_range_meters":23600,"station_id":"ce4bhhh2rcd13ifvqfl0","pricing_plan_id":"free"},{"bike_id":"387853d0-37d7-4156-9ba4-242f38259cdd","system_id":"levelo_inurba_marseille","lat":43.26681,"lon":5.382694,"is_reserved":false,"is_disabled":false,"rental_uris":{"android":"levelo://app?vid=387853d0-37d7-4156-9ba4-242f38259cdd","ios":"levelo://app?vid=387853d0-37d7-4156-9ba4-242f38259cdd"},"vehicle_type_id":"4","last_reported":1701525939,"current_range_meters":28800,"station_id":"ce4bhg92rcd13ifvqf90","pricing_plan_id":"free"},{"bike_id":"ae4a7be3-1c0c-442c-b333-14b664fb4461","system_id":"levelo_inurba_marseille","lat":43.26554,"lon":5.37289,"is_reserved":false,"is_disabled":false,"rental_uris":{"android":"levelo://app?vid=ae4a7be3-1c0c-442c-b333-14b664fb4461","ios":"levelo://app?vid=ae4a7be3-1c0c-442c-b333-14b664fb4461"},"vehicle_type_id":"4","last_reported":1701525939,"current_range_meters":13200,"station_id":"ce4bhg12rcd13ifvqf70","pricing_plan_id":"free"},{"bike_id":"5952278b-69c3-4633-95ee-a526938b3aa5","system_id":"levelo_inurba_marseille","lat":43.265714,"lon":5.372891,"is_reserved":false,"is_disabled":false,"rental_uris":{"android":"levelo://app?vid=5952278b-69c3-4633-95ee-a526938b3aa5","ios":"levelo://app?vid=5952278b-69c3-4633-95ee-a526938b3aa5"},"vehicle_type_id":"4","last_reported":1701525939,"current_range_meters":0,"station_id":"ce4bhg12rcd13ifvqf70","pricing_plan_id":"free"},{"bike_id":"d9175236-9f7c-4bda-bedb-be7f9f0fb796","system_id":"levelo_inurba_marseille","lat":43.265714,"lon":5.372891,"is_reserved":false,"is_disabled":false,"rental_uris":{"android":"levelo://app?vid=d9175236-9f7c-4bda-bedb-be7f9f0fb796","ios":"levelo://app?vid=d9175236-9f7c-4bda-bedb-be7f9f0fb796"},"vehicle_type_id":"4","last_reported":1701525939,"current_range_meters":28400,"station_id":"ce4bhg12rcd13ifvqf70","pricing_plan_id":"free"},{"bike_id":"8817ce8b-c423-40b6-afe1-f37daeb3d4a3","system_id":"levelo_inurba_marseille","lat":43.267966,"lon":5.393976,"is_reserved":false,"is_disabled":false,"rental_uris":{"android":"levelo://app?vid=8817ce8b-c423-40b6-afe1-f37daeb3d4a3","ios":"levelo://app?vid=8817ce8b-c423-40b6-afe1-f37daeb3d4a3"},"vehicle_type_id":"4","last_reported":1701525939,"current_range_meters":23200,"station_id":"ce4bhh12rcd13ifvqfg0","pricing_plan_id":"free"},{"bike_id":"8ec3d607-adad-4e1e-8a9a-8b0f27d5132b","system_id":"levelo_inurba_marseille","lat":43.265569,"lon":5.390047,"is_reserved":false,"is_disabled":false,"rental_uris":{"android":"levelo://app?vid=8ec3d607-adad-4e1e-8a9a-8b0f27d5132b","ios":"levelo://app?vid=8ec3d607-adad-4e1e-8a9a-8b0f27d5132b"},"vehicle_type_id":"4","last_reported":1701525939,"current_range_meters":7200,"station_id":"ce4bhe12rcd13ifvqf30","pricing_plan_id":"free"},{"bike_id":"84f48b36-541e-4a37-a0db-25e765b76349","system_id":"levelo_inurba_marseille","lat":43.26944,"lon":5.4025,"is_reserved":false,"is_disabled":false,"rental_uris":{"android":"levelo://app?vid=84f48b36-541e-4a37-a0db-25e765b76349","ios":"levelo://app?vid=84f48b36-541e-4a37-a0db-25e765b76349"},"vehicle_type_id":"4","last_reported":1701525939,"current_range_meters":800,"station_id":"cjm6bp8fraef2m0cb0m0","pricing_plan_id":"free"},{"bike_id":"5c9a14ae-fa9a-4db1-82cc-fe7731a82340","system_id":"levelo_inurba_marseille","lat":43.26943,"lon":5.402585,"is_reserved":false,"is_disabled":false,"rental_uris":{"android":"levelo://app?vid=5c9a14ae-fa9a-4db1-82cc-fe7731a82340","ios":"levelo://app?vid=5c9a14ae-fa9a-4db1-82cc-fe7731a82340"},"vehicle_type_id":"4","last_reported":1701525939,"current_range_meters":17600,"station_id":"cjm6bp8fraef2m0cb0m0","pricing_plan_id":"free"},{"bike_id":"066156c1-8cc3-4e1a-a354-6ca2d18fb055","system_id":"levelo_inurba_marseille","lat":43.269388,"lon":5.402553,"is_reserved":false,"is_disabled":false,"rental_uris":{"android":"levelo://app?vid=066156c1-8cc3-4e1a-a354-6ca2d18fb055","ios":"levelo://app?vid=066156c1-8cc3-4e1a-a354-6ca2d18fb055"},"vehicle_type_id":"4","last_reported":1701525939,"current_range_meters":10800,"station_id":"cjm6bp8fraef2m0cb0m0","pricing_plan_id":"free"},{"bike_id":"237bb99d-fece-43f1-9f85-62d271b67d3c","system_id":"levelo_inurba_marseille","lat":43.2618,"lon":5.37447,"is_reserved":false,"is_disabled":false,"rental_uris":{"android":"levelo://app?vid=237bb99d-fece-43f1-9f85-62d271b67d3c","ios":"levelo://app?vid=237bb99d-fece-43f1-9f85-62d271b67d3c"},"vehicle_type_id":"4","last_reported":1701525939,"current_range_meters":1600,"station_id":"ce4bhgp2rcd13ifvqfc0","pricing_plan_id":"free"},{"bike_id":"acca046d-39ec-43dd-b10b-674497889484","system_id":"levelo_inurba_marseille","lat":43.26202,"lon":5.379299,"is_reserved":false,"is_disabled":false,"rental_uris":{"android":"levelo://app?vid=acca046d-39ec-43dd-b10b-674497889484","ios":"levelo://app?vid=acca046d-39ec-43dd-b10b-674497889484"},"vehicle_type_id":"4","last_reported":1701525939,"current_range_meters":26400,"station_id":"ce4bhjp2rcd13ifvqg90","pricing_plan_id":"free"},{"bike_id":"526aff28-e3f4-4f1f-a9e1-4cf3ccc38032","system_id":"levelo_inurba_marseille","lat":43.262012,"lon":5.379307,"is_reserved":false,"is_disabled":false,"rental_uris":{"android":"levelo://app?vid=526aff28-e3f4-4f1f-a9e1-4cf3ccc38032","ios":"levelo://app?vid=526aff28-e3f4-4f1f-a9e1-4cf3ccc38032"},"vehicle_type_id":"4","last_reported":1701525939,"current_range_meters":22400,"station_id":"ce4bhjp2rcd13ifvqg90","pricing_plan_id":"free"},{"bike_id":"568a609c-e57e-403d-a6bb-5581afbde3dc","system_id":"levelo_inurba_marseille","lat":43.26803,"lon":5.40269,"is_reserved":false,"is_disabled":false,"rental_uris":{"android":"levelo://app?vid=568a609c-e57e-403d-a6bb-5581afbde3dc","ios":"levelo://app?vid=568a609c-e57e-403d-a6bb-5581afbde3dc"},"vehicle_type_id":"4","last_reported":1701525939,"current_range_meters":22400,"station_id":"ce501612rcd8frsf0b60","pricing_plan_id":"free"},{"bike_id":"c2dd282d-0d51-4a90-8ac7-2cd2ec3e0b8d","system_id":"levelo_inurba_marseille","lat":43.260219,"lon":5.37546,"is_reserved":false,"is_disabled":false,"rental_uris":{"android":"levelo://app?vid=c2dd282d-0d51-4a90-8ac7-2cd2ec3e0b8d","ios":"levelo://app?vid=c2dd282d-0d51-4a90-8ac7-2cd2ec3e0b8d"},"vehicle_type_id":"4","last_reported":1701525939,"current_range_meters":27200,"station_id":"ce4bhgh2rcd13ifvqfa0","pricing_plan_id":"free"},{"bike_id":"57be7325-91f7-429b-b54f-97c3ee29166e","system_id":"levelo_inurba_marseille","lat":43.260219,"lon":5.37546,"is_reserved":false,"is_disabled":false,"rental_uris":{"android":"levelo://app?vid=57be7325-91f7-429b-b54f-97c3ee29166e","ios":"levelo://app?vid=57be7325-91f7-429b-b54f-97c3ee29166e"},"vehicle_type_id":"4","last_reported":1701525939,"current_range_meters":19600,"station_id":"ce4bhgh2rcd13ifvqfa0","pricing_plan_id":"free"},{"bike_id":"888c3ff8-34c8-4001-a130-1dcf49bb0c14","system_id":"levelo_inurba_marseille","lat":43.28151,"lon":5.426315,"is_reserved":false,"is_disabled":false,"rental_uris":{"android":"levelo://app?vid=888c3ff8-34c8-4001-a130-1dcf49bb0c14","ios":"levelo://app?vid=888c3ff8-34c8-4001-a130-1dcf49bb0c14"},"vehicle_type_id":"4","last_reported":1701525939,"current_range_meters":30000,"station_id":"ce4bhnh2rcd13ifvqgug","pricing_plan_id":"free"},{"bike_id":"81f4f34a-8d36-4c09-961e-e42c57ef3483","system_id":"levelo_inurba_marseille","lat":43.2815,"lon":5.4265,"is_reserved":false,"is_disabled":false,"rental_uris":{"android":"levelo://app?vid=81f4f34a-8d36-4c09-961e-e42c57ef3483","ios":"levelo://app?vid=81f4f34a-8d36-4c09-961e-e42c57ef3483"},"vehicle_type_id":"4","last_reported":1701525939,"current_range_meters":0,"station_id":"ce4bhnh2rcd13ifvqgug","pricing_plan_id":"free"},{"bike_id":"f7e6f8a5-7397-4fae-84c9-fc8068586f9c","system_id":"levelo_inurba_marseille","lat":43.25582,"lon":5.3824,"is_reserved":false,"is_disabled":false,"rental_uris":{"android":"levelo://app?vid=f7e6f8a5-7397-4fae-84c9-fc8068586f9c","ios":"levelo://app?vid=f7e6f8a5-7397-4fae-84c9-fc8068586f9c"},"vehicle_type_id":"4","last_reported":1701525939,"current_range_meters":14800,"station_id":"ce4bhih2rcd13ifvqfs0","pricing_plan_id":"free"},{"bike_id":"15b537c5-61c6-4f88-9b6d-0e9c4aed49e7","system_id":"levelo_inurba_marseille","lat":43.25823,"lon":5.3943,"is_reserved":false,"is_disabled":false,"rental_uris":{"android":"levelo://app?vid=15b537c5-61c6-4f88-9b6d-0e9c4aed49e7","ios":"levelo://app?vid=15b537c5-61c6-4f88-9b6d-0e9c4aed49e7"},"vehicle_type_id":"4","last_reported":1701525939,"current_range_meters":2400,"station_id":"ce4bhip2rcd13ifvqft0","pricing_plan_id":"free"},{"bike_id":"c63909bc-d555-4424-bbc9-fc872f975310","system_id":"levelo_inurba_marseille","lat":43.25578,"lon":5.38233,"is_reserved":false,"is_disabled":false,"rental_uris":{"android":"levelo://app?vid=c63909bc-d555-4424-bbc9-fc872f975310","ios":"levelo://app?vid=c63909bc-d555-4424-bbc9-fc872f975310"},"vehicle_type_id":"4","last_reported":1701525939,"current_range_meters":1600,"station_id":"ce4bhih2rcd13ifvqfs0","pricing_plan_id":"free"},{"bike_id":"d01b9210-a558-41f1-a5e2-b5036b39ef3d","system_id":"levelo_inurba_marseille","lat":43.254947,"lon":5.376454,"is_reserved":false,"is_disabled":false,"rental_uris":{"android":"levelo://app?vid=d01b9210-a558-41f1-a5e2-b5036b39ef3d","ios":"levelo://app?vid=d01b9210-a558-41f1-a5e2-b5036b39ef3d"},"vehicle_type_id":"4","last_reported":1701525939,"current_range_meters":28400,"station_id":"ce4bhh12rcd13ifvqff0","pricing_plan_id":"free"},{"bike_id":"ca76985d-aabc-419e-866f-960fc295ceac","system_id":"levelo_inurba_marseille","lat":43.258658,"lon":5.398935,"is_reserved":false,"is_disabled":false,"rental_uris":{"android":"levelo://app?vid=ca76985d-aabc-419e-866f-960fc295ceac","ios":"levelo://app?vid=ca76985d-aabc-419e-866f-960fc295ceac"},"vehicle_type_id":"4","last_reported":1701525939,"current_range_meters":14000,"station_id":"ce4bhl92rcd13ifvqghg","pricing_plan_id":"free"},{"bike_id":"b48e31f8-4164-495a-93bf-72f1962f795e","system_id":"levelo_inurba_marseille","lat":43.258658,"lon":5.398935,"is_reserved":false,"is_disabled":false,"rental_uris":{"android":"levelo://app?vid=b48e31f8-4164-495a-93bf-72f1962f795e","ios":"levelo://app?vid=b48e31f8-4164-495a-93bf-72f1962f795e"},"vehicle_type_id":"4","last_reported":1701525939,"current_range_meters":31200,"station_id":"ce4bhl92rcd13ifvqghg","pricing_plan_id":"free"},{"bike_id":"de524314-473f-4256-a66e-3c484ba127bb","system_id":"levelo_inurba_marseille","lat":43.258658,"lon":5.398935,"is_reserved":false,"is_disabled":false,"rental_uris":{"android":"levelo://app?vid=de524314-473f-4256-a66e-3c484ba127bb","ios":"levelo://app?vid=de524314-473f-4256-a66e-3c484ba127bb"},"vehicle_type_id":"4","last_reported":1701525939,"current_range_meters":20800,"station_id":"ce4bhl92rcd13ifvqghg","pricing_plan_id":"free"},{"bike_id":"bdc72d7c-9d46-4016-8a92-851cd50823f9","system_id":"levelo_inurba_marseille","lat":43.259009,"lon":5.40929,"is_reserved":false,"is_disabled":false,"rental_uris":{"android":"levelo://app?vid=bdc72d7c-9d46-4016-8a92-851cd50823f9","ios":"levelo://app?vid=bdc72d7c-9d46-4016-8a92-851cd50823f9"},"vehicle_type_id":"4","last_reported":1701525939,"current_range_meters":28400,"station_id":"ce4bhm92rcd13ifvqglg","pricing_plan_id":"free"},{"bike_id":"b01b3ad7-b886-41aa-b08c-cadf9941b5ec","system_id":"levelo_inurba_marseille","lat":43.257079,"lon":5.411051,"is_reserved":false,"is_disabled":false,"rental_uris":{"android":"levelo://app?vid=b01b3ad7-b886-41aa-b08c-cadf9941b5ec","ios":"levelo://app?vid=b01b3ad7-b886-41aa-b08c-cadf9941b5ec"},"vehicle_type_id":"4","last_reported":1701525939,"current_range_meters":26400,"station_id":"ce4bhkp2rcd13ifvqgd0","pricing_plan_id":"free"},{"bike_id":"c2c54c96-8911-41ce-9741-6ecbcb115f60","system_id":"levelo_inurba_marseille","lat":43.250009,"lon":5.389195,"is_reserved":false,"is_disabled":false,"rental_uris":{"android":"levelo://app?vid=c2c54c96-8911-41ce-9741-6ecbcb115f60","ios":"levelo://app?vid=c2c54c96-8911-41ce-9741-6ecbcb115f60"},"vehicle_type_id":"4","last_reported":1701525939,"current_range_meters":27600,"station_id":"ce4bhgp2rcd13ifvqfd0","pricing_plan_id":"free"},{"bike_id":"21880e12-98f7-4d38-abb0-00192718ead3","system_id":"levelo_inurba_marseille","lat":43.24805,"lon":5.374563,"is_reserved":false,"is_disabled":false,"rental_uris":{"android":"levelo://app?vid=21880e12-98f7-4d38-abb0-00192718ead3","ios":"levelo://app?vid=21880e12-98f7-4d38-abb0-00192718ead3"},"vehicle_type_id":"4","last_reported":1701525939,"current_range_meters":4000,"station_id":"ce4bhgh2rcd13ifvqfb0","pricing_plan_id":"free"},{"bike_id":"fa8f7765-9059-457c-b19b-027db98bc40b","system_id":"levelo_inurba_marseille","lat":43.24801,"lon":5.37456,"is_reserved":false,"is_disabled":false,"rental_uris":{"android":"levelo://app?vid=fa8f7765-9059-457c-b19b-027db98bc40b","ios":"levelo://app?vid=fa8f7765-9059-457c-b19b-027db98bc40b"},"vehicle_type_id":"4","last_reported":1701525939,"current_range_meters":1600,"station_id":"ce4bhgh2rcd13ifvqfb0","pricing_plan_id":"free"},{"bike_id":"d53c3682-70bc-4675-ab09-c3fdc1de8af4","system_id":"levelo_inurba_marseille","lat":43.250966,"lon":5.395186,"is_reserved":false,"is_disabled":false,"rental_uris":{"android":"levelo://app?vid=d53c3682-70bc-4675-ab09-c3fdc1de8af4","ios":"levelo://app?vid=d53c3682-70bc-4675-ab09-c3fdc1de8af4"},"vehicle_type_id":"4","last_reported":1701525939,"current_range_meters":30000,"station_id":"ce4bhm12rcd13ifvqgkg","pricing_plan_id":"free"},{"bike_id":"e50f5a9f-e8f7-492d-a05c-2e59f38d20a4","system_id":"levelo_inurba_marseille","lat":43.24693,"lon":5.382096,"is_reserved":false,"is_disabled":false,"rental_uris":{"android":"levelo://app?vid=e50f5a9f-e8f7-492d-a05c-2e59f38d20a4","ios":"levelo://app?vid=e50f5a9f-e8f7-492d-a05c-2e59f38d20a4"},"vehicle_type_id":"4","last_reported":1701525939,"current_range_meters":24800,"station_id":"ce4bhih2rcd13ifvqfr0","pricing_plan_id":"free"},{"bike_id":"2d710bef-7e6f-4c37-a5f7-cc1368e47b93","system_id":"levelo_inurba_marseille","lat":43.25102,"lon":5.403214,"is_reserved":false,"is_disabled":false,"rental_uris":{"android":"levelo://app?vid=2d710bef-7e6f-4c37-a5f7-cc1368e47b93","ios":"levelo://app?vid=2d710bef-7e6f-4c37-a5f7-cc1368e47b93"},"vehicle_type_id":"4","last_reported":1701525939,"current_range_meters":23200,"station_id":"ce4bhlh2rcd13ifvqgig","pricing_plan_id":"free"},{"bike_id":"f395a6c3-db11-42c7-a380-1f5e2e0b08d5","system_id":"levelo_inurba_marseille","lat":43.25113,"lon":5.40319,"is_reserved":false,"is_disabled":false,"rental_uris":{"android":"levelo://app?vid=f395a6c3-db11-42c7-a380-1f5e2e0b08d5","ios":"levelo://app?vid=f395a6c3-db11-42c7-a380-1f5e2e0b08d5"},"vehicle_type_id":"4","last_reported":1701525939,"current_range_meters":14400,"station_id":"ce4bhlh2rcd13ifvqgig","pricing_plan_id":"free"},{"bike_id":"2788dd36-54d5-4ba4-8eed-09cd2447257e","system_id":"levelo_inurba_marseille","lat":43.25103,"lon":5.4032,"is_reserved":false,"is_disabled":false,"rental_uris":{"android":"levelo://app?vid=2788dd36-54d5-4ba4-8eed-09cd2447257e","ios":"levelo://app?vid=2788dd36-54d5-4ba4-8eed-09cd2447257e"},"vehicle_type_id":"4","last_reported":1701525939,"current_range_meters":14800,"station_id":"ce4bhlh2rcd13ifvqgig","pricing_plan_id":"free"},{"bike_id":"bff08cdb-adb9-42f1-a1d8-d220c80d630b","system_id":"levelo_inurba_marseille","lat":43.243884,"lon":5.370736,"is_reserved":false,"is_disabled":false,"rental_uris":{"android":"levelo://app?vid=bff08cdb-adb9-42f1-a1d8-d220c80d630b","ios":"levelo://app?vid=bff08cdb-adb9-42f1-a1d8-d220c80d630b"},"vehicle_type_id":"4","last_reported":1701525939,"current_range_meters":17200,"station_id":"ce4bhhh2rcd13ifvqfk0","pricing_plan_id":"free"},{"bike_id":"69f1bff5-758b-4ced-b763-896e81f472be","system_id":"levelo_inurba_marseille","lat":43.243884,"lon":5.370736,"is_reserved":false,"is_disabled":false,"rental_uris":{"android":"levelo://app?vid=69f1bff5-758b-4ced-b763-896e81f472be","ios":"levelo://app?vid=69f1bff5-758b-4ced-b763-896e81f472be"},"vehicle_type_id":"4","last_reported":1701525939,"current_range_meters":31600,"station_id":"ce4bhhh2rcd13ifvqfk0","pricing_plan_id":"free"},{"bike_id":"0c00f1f7-91b0-4c50-948b-6ce70c0f8465","system_id":"levelo_inurba_marseille","lat":43.243884,"lon":5.370736,"is_reserved":false,"is_disabled":false,"rental_uris":{"android":"levelo://app?vid=0c00f1f7-91b0-4c50-948b-6ce70c0f8465","ios":"levelo://app?vid=0c00f1f7-91b0-4c50-948b-6ce70c0f8465"},"vehicle_type_id":"4","last_reported":1701525939,"current_range_meters":30400,"station_id":"ce4bhhh2rcd13ifvqfk0","pricing_plan_id":"free"},{"bike_id":"6c8cb8f2-78a6-4550-afbc-0685fd23a735","system_id":"levelo_inurba_marseille","lat":43.243884,"lon":5.370736,"is_reserved":false,"is_disabled":false,"rental_uris":{"android":"levelo://app?vid=6c8cb8f2-78a6-4550-afbc-0685fd23a735","ios":"levelo://app?vid=6c8cb8f2-78a6-4550-afbc-0685fd23a735"},"vehicle_type_id":"4","last_reported":1701525939,"current_range_meters":25200,"station_id":"ce4bhhh2rcd13ifvqfk0","pricing_plan_id":"free"},{"bike_id":"b3b91b8c-0c60-4e42-9479-46ef4ec69636","system_id":"levelo_inurba_marseille","lat":43.243884,"lon":5.370737,"is_reserved":false,"is_disabled":false,"rental_uris":{"android":"levelo://app?vid=b3b91b8c-0c60-4e42-9479-46ef4ec69636","ios":"levelo://app?vid=b3b91b8c-0c60-4e42-9479-46ef4ec69636"},"vehicle_type_id":"4","last_reported":1701525939,"current_range_meters":23600,"station_id":"ce4bhhh2rcd13ifvqfk0","pricing_plan_id":"free"},{"bike_id":"141ed1e9-d94d-4d8e-84fa-441e8154f4ea","system_id":"levelo_inurba_marseille","lat":43.239588,"lon":5.366238,"is_reserved":false,"is_disabled":false,"rental_uris":{"android":"levelo://app?vid=141ed1e9-d94d-4d8e-84fa-441e8154f4ea","ios":"levelo://app?vid=141ed1e9-d94d-4d8e-84fa-441e8154f4ea"},"vehicle_type_id":"4","last_reported":1701525939,"current_range_meters":9600,"station_id":"ce4bhi12rcd13ifvqfp0","pricing_plan_id":"free"},{"bike_id":"b101f295-ac85-402a-8afe-c635c176f114","system_id":"levelo_inurba_marseille","lat":43.28527,"lon":5.46058,"is_reserved":false,"is_disabled":false,"rental_uris":{"android":"levelo://app?vid=b101f295-ac85-402a-8afe-c635c176f114","ios":"levelo://app?vid=b101f295-ac85-402a-8afe-c635c176f114"},"vehicle_type_id":"4","last_reported":1701525939,"current_range_meters":23600,"station_id":"","pricing_plan_id":"free"},{"bike_id":"4bb7783e-3418-44df-bf36-eb9259dc4a55","system_id":"levelo_inurba_marseille","lat":43.241782,"lon":5.397261,"is_reserved":false,"is_disabled":false,"rental_uris":{"android":"levelo://app?vid=4bb7783e-3418-44df-bf36-eb9259dc4a55","ios":"levelo://app?vid=4bb7783e-3418-44df-bf36-eb9259dc4a55"},"vehicle_type_id":"4","last_reported":1701525939,"current_range_meters":26000,"station_id":"ce4bhn12rcd13ifvqgpg","pricing_plan_id":"free"},{"bike_id":"6382809b-45d0-4ad2-8be7-697249f82077","system_id":"levelo_inurba_marseille","lat":43.231919,"lon":5.355532,"is_reserved":false,"is_disabled":false,"rental_uris":{"android":"levelo://app?vid=6382809b-45d0-4ad2-8be7-697249f82077","ios":"levelo://app?vid=6382809b-45d0-4ad2-8be7-697249f82077"},"vehicle_type_id":"4","last_reported":1701525939,"current_range_meters":31200,"station_id":"ce4bhu92rcd13ifvqi70","pricing_plan_id":"free"},{"bike_id":"6462fbc5-ceb8-47e3-b56d-fc1e69bef19f","system_id":"levelo_inurba_marseille","lat":43.231919,"lon":5.355532,"is_reserved":false,"is_disabled":false,"rental_uris":{"android":"levelo://app?vid=6462fbc5-ceb8-47e3-b56d-fc1e69bef19f","ios":"levelo://app?vid=6462fbc5-ceb8-47e3-b56d-fc1e69bef19f"},"vehicle_type_id":"4","last_reported":1701525939,"current_range_meters":29600,"station_id":"ce4bhu92rcd13ifvqi70","pricing_plan_id":"free"},{"bike_id":"cf3102c4-88e0-4a41-86b7-69a76932d3e6","system_id":"levelo_inurba_marseille","lat":43.231923,"lon":5.355545,"is_reserved":false,"is_disabled":false,"rental_uris":{"android":"levelo://app?vid=cf3102c4-88e0-4a41-86b7-69a76932d3e6","ios":"levelo://app?vid=cf3102c4-88e0-4a41-86b7-69a76932d3e6"},"vehicle_type_id":"4","last_reported":1701525939,"current_range_meters":31200,"station_id":"ce4bhu92rcd13ifvqi70","pricing_plan_id":"free"},{"bike_id":"2b04708e-eed8-4471-916a-9fdeea01eec7","system_id":"levelo_inurba_marseille","lat":43.231923,"lon":5.355545,"is_reserved":false,"is_disabled":false,"rental_uris":{"android":"levelo://app?vid=2b04708e-eed8-4471-916a-9fdeea01eec7","ios":"levelo://app?vid=2b04708e-eed8-4471-916a-9fdeea01eec7"},"vehicle_type_id":"4","last_reported":1701525939,"current_range_meters":14000,"station_id":"ce4bhu92rcd13ifvqi70","pricing_plan_id":"free"},{"bike_id":"b8f295a9-10f8-4746-b4a0-4491480d1fc4","system_id":"levelo_inurba_marseille","lat":43.231919,"lon":5.355532,"is_reserved":false,"is_disabled":false,"rental_uris":{"android":"levelo://app?vid=b8f295a9-10f8-4746-b4a0-4491480d1fc4","ios":"levelo://app?vid=b8f295a9-10f8-4746-b4a0-4491480d1fc4"},"vehicle_type_id":"4","last_reported":1701525939,"current_range_meters":24400,"station_id":"ce4bhu92rcd13ifvqi70","pricing_plan_id":"free"},{"bike_id":"4f881ca9-583e-4854-aaf3-254fdf1b0ff8","system_id":"levelo_inurba_marseille","lat":43.231923,"lon":5.355545,"is_reserved":false,"is_disabled":false,"rental_uris":{"android":"levelo://app?vid=4f881ca9-583e-4854-aaf3-254fdf1b0ff8","ios":"levelo://app?vid=4f881ca9-583e-4854-aaf3-254fdf1b0ff8"},"vehicle_type_id":"4","last_reported":1701525939,"current_range_meters":0,"station_id":"ce4bhu92rcd13ifvqi70","pricing_plan_id":"free"},{"bike_id":"9e01ee59-41e6-425c-ae1f-3e33312fefcd","system_id":"levelo_inurba_marseille","lat":43.231923,"lon":5.355545,"is_reserved":false,"is_disabled":false,"rental_uris":{"android":"levelo://app?vid=9e01ee59-41e6-425c-ae1f-3e33312fefcd","ios":"levelo://app?vid=9e01ee59-41e6-425c-ae1f-3e33312fefcd"},"vehicle_type_id":"4","last_reported":1701525939,"current_range_meters":20800,"station_id":"ce4bhu92rcd13ifvqi70","pricing_plan_id":"free"},{"bike_id":"177a82e2-68da-4975-a68b-b32649f3d1f2","system_id":"levelo_inurba_marseille","lat":43.231923,"lon":5.355545,"is_reserved":false,"is_disabled":false,"rental_uris":{"android":"levelo://app?vid=177a82e2-68da-4975-a68b-b32649f3d1f2","ios":"levelo://app?vid=177a82e2-68da-4975-a68b-b32649f3d1f2"},"vehicle_type_id":"4","last_reported":1701525939,"current_range_meters":14000,"station_id":"ce4bhu92rcd13ifvqi70","pricing_plan_id":"free"},{"bike_id":"88cf855f-bb31-40e0-8afc-686df3c193ab","system_id":"levelo_inurba_marseille","lat":43.231794,"lon":5.400052,"is_reserved":false,"is_disabled":false,"rental_uris":{"android":"levelo://app?vid=88cf855f-bb31-40e0-8afc-686df3c193ab","ios":"levelo://app?vid=88cf855f-bb31-40e0-8afc-686df3c193ab"},"vehicle_type_id":"4","last_reported":1701525939,"current_range_meters":28800,"station_id":"ce4bhn12rcd13ifvqgqg","pricing_plan_id":"free"},{"bike_id":"a926f4bb-1e59-4822-80ea-1d5ff6f2a5c5","system_id":"levelo_inurba_marseille","lat":43.23196,"lon":5.3998,"is_reserved":false,"is_disabled":false,"rental_uris":{"android":"levelo://app?vid=a926f4bb-1e59-4822-80ea-1d5ff6f2a5c5","ios":"levelo://app?vid=a926f4bb-1e59-4822-80ea-1d5ff6f2a5c5"},"vehicle_type_id":"4","last_reported":1701525939,"current_range_meters":18800,"station_id":"ce4bhn12rcd13ifvqgqg","pricing_plan_id":"free"},{"bike_id":"27852c29-47dc-4826-817e-c88bd3a0386e","system_id":"levelo_inurba_marseille","lat":43.231949,"lon":5.39976,"is_reserved":false,"is_disabled":false,"rental_uris":{"android":"levelo://app?vid=27852c29-47dc-4826-817e-c88bd3a0386e","ios":"levelo://app?vid=27852c29-47dc-4826-817e-c88bd3a0386e"},"vehicle_type_id":"4","last_reported":1701525939,"current_range_meters":22400,"station_id":"ce4bhn12rcd13ifvqgqg","pricing_plan_id":"free"},{"bike_id":"22bd98e3-c33f-4c44-ae2b-f96729d36f4f","system_id":"levelo_inurba_marseille","lat":43.231793,"lon":5.400044,"is_reserved":false,"is_disabled":false,"rental_uris":{"android":"levelo://app?vid=22bd98e3-c33f-4c44-ae2b-f96729d36f4f","ios":"levelo://app?vid=22bd98e3-c33f-4c44-ae2b-f96729d36f4f"},"vehicle_type_id":"4","last_reported":1701525939,"current_range_meters":30400,"station_id":"ce4bhn12rcd13ifvqgqg","pricing_plan_id":"free"},{"bike_id":"d0b35396-6769-42d4-8160-8b44cb829902","system_id":"levelo_inurba_marseille","lat":43.23193,"lon":5.39983,"is_reserved":false,"is_disabled":false,"rental_uris":{"android":"levelo://app?vid=d0b35396-6769-42d4-8160-8b44cb829902","ios":"levelo://app?vid=d0b35396-6769-42d4-8160-8b44cb829902"},"vehicle_type_id":"4","last_reported":1701525939,"current_range_meters":31200,"station_id":"ce4bhn12rcd13ifvqgqg","pricing_plan_id":"free"},{"bike_id":"6bd9f065-50d9-4657-9ca0-a006f413d305","system_id":"levelo_inurba_marseille","lat":43.231794,"lon":5.400052,"is_reserved":false,"is_disabled":false,"rental_uris":{"android":"levelo://app?vid=6bd9f065-50d9-4657-9ca0-a006f413d305","ios":"levelo://app?vid=6bd9f065-50d9-4657-9ca0-a006f413d305"},"vehicle_type_id":"4","last_reported":1701525939,"current_range_meters":31200,"station_id":"ce4bhn12rcd13ifvqgqg","pricing_plan_id":"free"},{"bike_id":"77b1a551-da7f-429a-980e-bfc6767a5958","system_id":"levelo_inurba_marseille","lat":43.231794,"lon":5.400052,"is_reserved":false,"is_disabled":false,"rental_uris":{"android":"levelo://app?vid=77b1a551-da7f-429a-980e-bfc6767a5958","ios":"levelo://app?vid=77b1a551-da7f-429a-980e-bfc6767a5958"},"vehicle_type_id":"4","last_reported":1701525939,"current_range_meters":31200,"station_id":"ce4bhn12rcd13ifvqgqg","pricing_plan_id":"free"},{"bike_id":"4971a817-c21b-4382-b171-1e3133ca51bb","system_id":"levelo_inurba_marseille","lat":43.23189,"lon":5.3999,"is_reserved":false,"is_disabled":false,"rental_uris":{"android":"levelo://app?vid=4971a817-c21b-4382-b171-1e3133ca51bb","ios":"levelo://app?vid=4971a817-c21b-4382-b171-1e3133ca51bb"},"vehicle_type_id":"4","last_reported":1701525939,"current_range_meters":22000,"station_id":"ce4bhn12rcd13ifvqgqg","pricing_plan_id":"free"},{"bike_id":"8a513cfb-2a22-4eaf-90eb-23484384c4e8","system_id":"levelo_inurba_marseille","lat":43.23188,"lon":5.39987,"is_reserved":false,"is_disabled":false,"rental_uris":{"android":"levelo://app?vid=8a513cfb-2a22-4eaf-90eb-23484384c4e8","ios":"levelo://app?vid=8a513cfb-2a22-4eaf-90eb-23484384c4e8"},"vehicle_type_id":"4","last_reported":1701525939,"current_range_meters":6800,"station_id":"ce4bhn12rcd13ifvqgqg","pricing_plan_id":"free"},{"bike_id":"6c2dc1c9-372c-445d-814a-4d69ce499bdb","system_id":"levelo_inurba_marseille","lat":43.231793,"lon":5.400044,"is_reserved":false,"is_disabled":false,"rental_uris":{"android":"levelo://app?vid=6c2dc1c9-372c-445d-814a-4d69ce499bdb","ios":"levelo://app?vid=6c2dc1c9-372c-445d-814a-4d69ce499bdb"},"vehicle_type_id":"4","last_reported":1701525939,"current_range_meters":400,"station_id":"ce4bhn12rcd13ifvqgqg","pricing_plan_id":"free"},{"bike_id":"83862a0a-d647-45eb-9884-693fce6366ab","system_id":"levelo_inurba_marseille","lat":43.231868,"lon":5.399916,"is_reserved":false,"is_disabled":false,"rental_uris":{"android":"levelo://app?vid=83862a0a-d647-45eb-9884-693fce6366ab","ios":"levelo://app?vid=83862a0a-d647-45eb-9884-693fce6366ab"},"vehicle_type_id":"4","last_reported":1701525939,"current_range_meters":18800,"station_id":"ce4bhn12rcd13ifvqgqg","pricing_plan_id":"free"},{"bike_id":"457c552c-8af5-4b7b-9f6b-8c901265a623","system_id":"levelo_inurba_marseille","lat":43.23179,"lon":5.399893,"is_reserved":false,"is_disabled":false,"rental_uris":{"android":"levelo://app?vid=457c552c-8af5-4b7b-9f6b-8c901265a623","ios":"levelo://app?vid=457c552c-8af5-4b7b-9f6b-8c901265a623"},"vehicle_type_id":"4","last_reported":1701525939,"current_range_meters":31200,"station_id":"ce4bhn12rcd13ifvqgqg","pricing_plan_id":"free"},{"bike_id":"71f20082-da83-4544-9fba-0b380be1c3df","system_id":"levelo_inurba_marseille","lat":43.231562,"lon":5.436933,"is_reserved":false,"is_disabled":false,"rental_uris":{"android":"levelo://app?vid=71f20082-da83-4544-9fba-0b380be1c3df","ios":"levelo://app?vid=71f20082-da83-4544-9fba-0b380be1c3df"},"vehicle_type_id":"4","last_reported":1701525939,"current_range_meters":11200,"station_id":"ce4bhmp2rcd13ifvqgog","pricing_plan_id":"free"},{"bike_id":"f50c292b-cc74-4220-88ff-ce7e4d6e67ca","system_id":"levelo_inurba_marseille","lat":43.231562,"lon":5.436933,"is_reserved":false,"is_disabled":false,"rental_uris":{"android":"levelo://app?vid=f50c292b-cc74-4220-88ff-ce7e4d6e67ca","ios":"levelo://app?vid=f50c292b-cc74-4220-88ff-ce7e4d6e67ca"},"vehicle_type_id":"4","last_reported":1701525939,"current_range_meters":21600,"station_id":"ce4bhmp2rcd13ifvqgog","pricing_plan_id":"free"},{"bike_id":"ea0b6868-3337-42dd-a4b5-9db45260014a","system_id":"levelo_inurba_marseille","lat":43.231562,"lon":5.436933,"is_reserved":false,"is_disabled":false,"rental_uris":{"android":"levelo://app?vid=ea0b6868-3337-42dd-a4b5-9db45260014a","ios":"levelo://app?vid=ea0b6868-3337-42dd-a4b5-9db45260014a"},"vehicle_type_id":"4","last_reported":1701525939,"current_range_meters":24800,"station_id":"ce4bhmp2rcd13ifvqgog","pricing_plan_id":"free"}]}}