{"last_updated":1746828580,"ttl":60,"version":"2.2","data":{"bikes":[{"bike_id":"9201f1dd-73be-4956-8d40-7998c37fbb86","system_id":"levelo_inurba_marseille","lat":43.275,"lon":5.42454,"is_reserved":false,"is_disabled":false,"rental_uris":{"android":"levelo://app?vid=9201f1dd-73be-4956-8d40-7998c37fbb86","ios":"levelo://app?vid=9201f1dd-73be-4956-8d40-7998c37fbb86"},"vehicle_type_id":"4","last_reported":1746828580,"current_range_meters":2800,"station_id":"ce4bhn92rcd13ifvqgrg","pricing_plan_id":"cebpf4jnsgd1na2vs0mg"},{"bike_id":"70fbb347-9150-487a-bc43-a6f4ea6a66b9","system_id":"levelo_inurba_marseille","lat":43.30963,"lon":5.39035,"is_reserved":false,"is_disabled":true,"rental_uris":{"android":"levelo://app?vid=70fbb347-9150-487a-bc43-a6f4ea6a66b9","ios":"levelo://app?vid=70fbb347-9150-487a-bc43-a6f4ea6a66b9"},"vehicle_type_id":"4","last_reported":1746828580,"current_range_meters":2800,"station_id":"ce4bgup2rcd13ifvqco0","pricing_plan_id":"cebpf4jnsgd1na2vs0mg"},{"bike_id":"88a3726c-3269-4211-8311-1b0025b09269","system_id":"levelo_inurba_marseille","lat":43.29254,"lon":5.38327,"is_reserved":false,"is_disabled":false,"rental_uris":{"android":"levelo://app?vid=88a3726c-3269-4211-8311-1b0025b09269","ios":"levelo://app?vid=88a3726c-3269-4211-8311-1b0025b09269"},"vehicle_type_id":"4","last_reported":1746828580,"current_range_meters":3200,"station_id":"","pricing_plan_id":"cebpf4jnsgd1na2vs0mg"},{"bike_id":"25a96692-2520-4afa-9aa1-9349c25bb692","system_id":"levelo_inurba_marseille","lat":43.305457,"lon":5.365287,"is_reserved":false,"is_disabled":true,"rental_uris":{"android":"levelo://app?vid=25a96692-2520-4afa-9aa1-9349c25bb692","ios":"levelo://app?vid=25a96692-2520-4afa-9aa1-9349c25bb692"},"vehicle_type_id":"4","last_reported":1746828580,"current_range_meters":4000,"station_id":"ce4bgs12rcd13ifvqcag","pricing_plan_id":"cebpf4jnsgd1na2vs0mg"},{"bike_id":"1e3c7f59-fcfc-433c-8689-9dfe9bf305d6","system_id":"levelo_inurba_marseille","lat":43.29521,"lon":5.405405,"is_reserved":false,"is_disabled":false,"rental_uris":{"android":"levelo://app?vid=1e3c7f59-fcfc-433c-8689-9dfe9bf305d6","ios":"levelo://app?vid=1e3c7f59-fcfc-433c-8689-9dfe9bf305d6"},"vehicle_type_id":"4","last_reported":1746828580,"current_range_meters":4400,"station_id":"","pricing_plan_id":"cebpf4jnsgd1na2vs0mg"},{"bike_id":"3c6d0c37-471a-4ce7-b166-52edc6a87b8b","system_id":"levelo_inurba_marseille","lat":43.262286,"lon":5.404517,"is_reserved":false,"is_disabled":true,"rental_uris":{"android":"levelo://app?vid=3c6d0c37-471a-4ce7-b166-52edc6a87b8b","ios":"levelo://app?vid=3c6d0c37-471a-4ce7-b166-52edc6a87b8b"},"vehicle_type_id":"4","last_reported":1746828580,"current_range_meters":4400,"station_id":"ce4bhmh2rcd13ifvqgmg","pricing_plan_id":"cebpf4jnsgd1na2vs0mg"},{"bike_id":"6a2c1acf-101b-4edd-841f-702b2c1d451d","system_id":"levelo_inurba_marseille","lat":43.27838,"lon":5.39213,"is_reserved":false,"is_disabled":false,"rental_uris":{"android":"levelo://app?vid=6a2c1acf-101b-4edd-841f-702b2c1d451d","ios":"levelo://app?vid=6a2c1acf-101b-4edd-841f-702b2c1d451d"},"vehicle_type_id":"4","last_reported":1746828580,"current_range_meters":4800,"station_id":"ce4bhjp2rcd13ifvqga0","pricing_plan_id":"cebpf4jnsgd1na2vs0mg"},{"bike_id":"eb06ca2e-0fdd-4398-95ca-a30833e73080","system_id":"levelo_inurba_marseille","lat":43.30946,"lon":5.39025,"is_reserved":false,"is_disabled":false,"rental_uris":{"android":"levelo://app?vid=eb06ca2e-0fdd-4398-95ca-a30833e73080","ios":"levelo://app?vid=eb06ca2e-0fdd-4398-95ca-a30833e73080"},"vehicle_type_id":"4","last_reported":1746828580,"current_range_meters":5600,"station_id":"ce4bgup2rcd13ifvqco0","pricing_plan_id":"cebpf4jnsgd1na2vs0mg"},{"bike_id":"dce24418-2aec-47dd-9bc8-5d7f1d3bf6af","system_id":"levelo_inurba_marseille","lat":43.24562,"lon":5.3954,"is_reserved":false,"is_disabled":false,"rental_uris":{"android":"levelo://app?vid=dce24418-2aec-47dd-9bc8-5d7f1d3bf6af","ios":"levelo://app?vid=dce24418-2aec-47dd-9bc8-5d7f1d3bf6af"},"vehicle_type_id":"4","last_reported":1746828580,"current_range_meters":6000,"station_id":"ce4bhlp2rcd13ifvqgjg","pricing_plan_id":"cebpf4jnsgd1na2vs0mg"},{"bike_id":"31a2d2c8-f240-4ce3-9c3c-76d38878780b","system_id":"levelo_inurba_marseille","lat":43.307136,"lon":5.373733,"is_reserved":false,"is_disabled":false,"rental_uris":{"android":"levelo://app?vid=31a2d2c8-f240-4ce3-9c3c-76d38878780b","ios":"levelo://app?vid=31a2d2c8-f240-4ce3-9c3c-76d38878780b"},"vehicle_type_id":"4","last_reported":1746828580,"current_range_meters":6000,"station_id":"","pricing_plan_id":"cebpf4jnsgd1na2vs0mg"},{"bike_id":"ce891d78-268d-4657-895e-e7d14c9c13da","system_id":"levelo_inurba_marseille","lat":43.25586,"lon":5.38238,"is_reserved":false,"is_disabled":false,"rental_uris":{"android":"levelo://app?vid=ce891d78-268d-4657-895e-e7d14c9c13da","ios":"levelo://app?vid=ce891d78-268d-4657-895e-e7d14c9c13da"},"vehicle_type_id":"4","last_reported":1746828580,"current_range_meters":6400,"station_id":"ce4bhih2rcd13ifvqfs0","pricing_plan_id":"cebpf4jnsgd1na2vs0mg"},{"bike_id":"dd1b1ff0-ba6c-4744-a9f2-7be34f5a933e","system_id":"levelo_inurba_marseille","lat":43.279211,"lon":5.41045,"is_reserved":false,"is_disabled":false,"rental_uris":{"android":"levelo://app?vid=dd1b1ff0-ba6c-4744-a9f2-7be34f5a933e","ios":"levelo://app?vid=dd1b1ff0-ba6c-4744-a9f2-7be34f5a933e"},"vehicle_type_id":"4","last_reported":1746828580,"current_range_meters":6800,"station_id":"ce4bhnp2rcd13ifvqh0g","pricing_plan_id":"cebpf4jnsgd1na2vs0mg"},{"bike_id":"f76d0e06-a922-41bb-9df5-d0a5c7d3f9fc","system_id":"levelo_inurba_marseille","lat":43.289298,"lon":5.383918,"is_reserved":false,"is_disabled":true,"rental_uris":{"android":"levelo://app?vid=f76d0e06-a922-41bb-9df5-d0a5c7d3f9fc","ios":"levelo://app?vid=f76d0e06-a922-41bb-9df5-d0a5c7d3f9fc"},"vehicle_type_id":"4","last_reported":1746828580,"current_range_meters":6800,"station_id":"ce4bh612rcd13ifvqe6g","pricing_plan_id":"cebpf4jnsgd1na2vs0mg"},{"bike_id":"f673a50d-776a-4d4f-8bc2-0f75017ffb52","system_id":"levelo_inurba_marseille","lat":43.284499,"lon":5.358347,"is_reserved":false,"is_disabled":false,"rental_uris":{"android":"levelo://app?vid=f673a50d-776a-4d4f-8bc2-0f75017ffb52","ios":"levelo://app?vid=f673a50d-776a-4d4f-8bc2-0f75017ffb52"},"vehicle_type_id":"4","last_reported":1746828580,"current_range_meters":6800,"station_id":"ce4bhah2rcd13ifvqei0","pricing_plan_id":"cebpf4jnsgd1na2vs0mg"},{"bike_id":"4b1bd83b-e9cc-4710-a43f-0517c267f1bc","system_id":"levelo_inurba_marseille","lat":43.31713,"lon":5.43706,"is_reserved":false,"is_disabled":false,"rental_uris":{"android":"levelo://app?vid=4b1bd83b-e9cc-4710-a43f-0517c267f1bc","ios":"levelo://app?vid=4b1bd83b-e9cc-4710-a43f-0517c267f1bc"},"vehicle_type_id":"4","last_reported":1746828580,"current_range_meters":7200,"station_id":"ce4bhp92rcd13ifvqhcg","pricing_plan_id":"cebpf4jnsgd1na2vs0mg"},{"bike_id":"ba32ee3a-6a49-437c-90fb-7756461a61f4","system_id":"levelo_inurba_marseille","lat":43.24167,"lon":5.36396,"is_reserved":false,"is_disabled":false,"rental_uris":{"android":"levelo://app?vid=ba32ee3a-6a49-437c-90fb-7756461a61f4","ios":"levelo://app?vid=ba32ee3a-6a49-437c-90fb-7756461a61f4"},"vehicle_type_id":"4","last_reported":1746828580,"current_range_meters":7200,"station_id":"cpo36qri1sfpv3e86is0","pricing_plan_id":"cebpf4jnsgd1na2vs0mg"},{"bike_id":"283c096d-9775-40df-9ef5-3ff56b9146cb","system_id":"levelo_inurba_marseille","lat":43.22915,"lon":5.35377,"is_reserved":false,"is_disabled":true,"rental_uris":{"android":"levelo://app?vid=283c096d-9775-40df-9ef5-3ff56b9146cb","ios":"levelo://app?vid=283c096d-9775-40df-9ef5-3ff56b9146cb"},"vehicle_type_id":"4","last_reported":1746828580,"current_range_meters":7200,"station_id":"cpo3532slgdg3j2ikp40","pricing_plan_id":"cebpf4jnsgd1na2vs0mg"},{"bike_id":"0392f39f-088d-4253-b9da-36e5380ed4b2","system_id":"levelo_inurba_marseille","lat":43.23194,"lon":5.35557,"is_reserved":false,"is_disabled":false,"rental_uris":{"android":"levelo://app?vid=0392f39f-088d-4253-b9da-36e5380ed4b2","ios":"levelo://app?vid=0392f39f-088d-4253-b9da-36e5380ed4b2"},"vehicle_type_id":"4","last_reported":1746828580,"current_range_meters":7200,"station_id":"ce4bhu92rcd13ifvqi70","pricing_plan_id":"cebpf4jnsgd1na2vs0mg"},{"bike_id":"bd5bc949-5971-48ea-a220-62c2ca37ac74","system_id":"levelo_inurba_marseille","lat":43.30379,"lon":5.4249,"is_reserved":false,"is_disabled":false,"rental_uris":{"android":"levelo://app?vid=bd5bc949-5971-48ea-a220-62c2ca37ac74","ios":"levelo://app?vid=bd5bc949-5971-48ea-a220-62c2ca37ac74"},"vehicle_type_id":"4","last_reported":1746828580,"current_range_meters":7200,"station_id":"ce4bhoh2rcd13ifvqh6g","pricing_plan_id":"cebpf4jnsgd1na2vs0mg"},{"bike_id":"41b1a32b-2cab-4ffc-b477-33d19a4dd033","system_id":"levelo_inurba_marseille","lat":43.245473,"lon":5.39523,"is_reserved":false,"is_disabled":false,"rental_uris":{"android":"levelo://app?vid=41b1a32b-2cab-4ffc-b477-33d19a4dd033","ios":"levelo://app?vid=41b1a32b-2cab-4ffc-b477-33d19a4dd033"},"vehicle_type_id":"4","last_reported":1746828580,"current_range_meters":8000,"station_id":"ce4bhlp2rcd13ifvqgjg","pricing_plan_id":"cebpf4jnsgd1na2vs0mg"},{"bike_id":"caf9033d-5f00-49c3-b1ee-1328b62008dc","system_id":"levelo_inurba_marseille","lat":43.33583,"lon":5.42818,"is_reserved":false,"is_disabled":false,"rental_uris":{"android":"levelo://app?vid=caf9033d-5f00-49c3-b1ee-1328b62008dc","ios":"levelo://app?vid=caf9033d-5f00-49c3-b1ee-1328b62008dc"},"vehicle_type_id":"4","last_reported":1746828580,"current_range_meters":8000,"station_id":"","pricing_plan_id":"cebpf4jnsgd1na2vs0mg"},{"bike_id":"5361b7bd-f821-47d5-a565-a2d0aaaaa25e","system_id":"levelo_inurba_marseille","lat":43.30648,"lon":5.40099,"is_reserved":false,"is_disabled":false,"rental_uris":{"android":"levelo://app?vid=5361b7bd-f821-47d5-a565-a2d0aaaaa25e","ios":"levelo://app?vid=5361b7bd-f821-47d5-a565-a2d0aaaaa25e"},"vehicle_type_id":"4","last_reported":1746828580,"current_range_meters":7200,"station_id":"ce4bh112rcd13ifvqda0","pricing_plan_id":"cebpf4jnsgd1na2vs0mg"},{"bike_id":"730113d7-e72b-4423-a22e-1832e56b04d0","system_id":"levelo_inurba_marseille","lat":43.29413,"lon":5.38707,"is_reserved":false,"is_disabled":true,"rental_uris":{"android":"levelo://app?vid=730113d7-e72b-4423-a22e-1832e56b04d0","ios":"levelo://app?vid=730113d7-e72b-4423-a22e-1832e56b04d0"},"vehicle_type_id":"4","last_reported":1746828580,"current_range_meters":8400,"station_id":"","pricing_plan_id":"cebpf4jnsgd1na2vs0mg"},{"bike_id":"5ef9c87e-d345-4f11-b0b5-68191ebd1ab6","system_id":"levelo_inurba_marseille","lat":43.24547,"lon":5.39509,"is_reserved":false,"is_disabled":false,"rental_uris":{"android":"levelo://app?vid=5ef9c87e-d345-4f11-b0b5-68191ebd1ab6","ios":"levelo://app?vid=5ef9c87e-d345-4f11-b0b5-68191ebd1ab6"},"vehicle_type_id":"4","last_reported":1746828580,"current_range_meters":8400,"station_id":"ce4bhlp2rcd13ifvqgjg","pricing_plan_id":"cebpf4jnsgd1na2vs0mg"},{"bike_id":"e20e0068-893d-4a4c-b2c6-5f5010d72890","system_id":"levelo_inurba_marseille","lat":43.317535,"lon":5.390082,"is_reserved":false,"is_disabled":false,"rental_uris":{"android":"levelo://app?vid=e20e0068-893d-4a4c-b2c6-5f5010d72890","ios":"levelo://app?vid=e20e0068-893d-4a4c-b2c6-5f5010d72890"},"vehicle_type_id":"4","last_reported":1746828580,"current_range_meters":6400,"station_id":"ce4bhqp2rcd13ifvqhng","pricing_plan_id":"cebpf4jnsgd1na2vs0mg"},{"bike_id":"c885d7fb-f38c-4d2a-b65f-ee0dd56d91f3","system_id":"levelo_inurba_marseille","lat":43.31367,"lon":5.38504,"is_reserved":false,"is_disabled":false,"rental_uris":{"android":"levelo://app?vid=c885d7fb-f38c-4d2a-b65f-ee0dd56d91f3","ios":"levelo://app?vid=c885d7fb-f38c-4d2a-b65f-ee0dd56d91f3"},"vehicle_type_id":"4","last_reported":1746828580,"current_range_meters":8400,"station_id":"ce4bgt92rcd13ifvqcf0","pricing_plan_id":"cebpf4jnsgd1na2vs0mg"},{"bike_id":"50154d1e-2cad-47a9-b4a7-369a6be4ce33","system_id":"levelo_inurba_marseille","lat":43.2885,"lon":5.39299,"is_reserved":false,"is_disabled":false,"rental_uris":{"android":"levelo://app?vid=50154d1e-2cad-47a9-b4a7-369a6be4ce33","ios":"levelo://app?vid=50154d1e-2cad-47a9-b4a7-369a6be4ce33"},"vehicle_type_id":"4","last_reported":1746828580,"current_range_meters":8400,"station_id":"ce4bh2p2rcd13ifvqdi0","pricing_plan_id":"cebpf4jnsgd1na2vs0mg"},{"bike_id":"a9eddaf6-7ba0-4dac-b67c-ef101994295e","system_id":"levelo_inurba_marseille","lat":43.29048,"lon":5.39935,"is_reserved":false,"is_disabled":false,"rental_uris":{"android":"levelo://app?vid=a9eddaf6-7ba0-4dac-b67c-ef101994295e","ios":"levelo://app?vid=a9eddaf6-7ba0-4dac-b67c-ef101994295e"},"vehicle_type_id":"4","last_reported":1746828580,"current_range_meters":8400,"station_id":"ce4bh392rcd13ifvqdm0","pricing_plan_id":"cebpf4jnsgd1na2vs0mg"},{"bike_id":"025297fa-319c-4b3c-bfc9-76013a2734fc","system_id":"levelo_inurba_marseille","lat":43.25595,"lon":5.38232,"is_reserved":false,"is_disabled":false,"rental_uris":{"android":"levelo://app?vid=025297fa-319c-4b3c-bfc9-76013a2734fc","ios":"levelo://app?vid=025297fa-319c-4b3c-bfc9-76013a2734fc"},"vehicle_type_id":"4","last_reported":1746828580,"current_range_meters":8800,"station_id":"ce4bhih2rcd13ifvqfs0","pricing_plan_id":"cebpf4jnsgd1na2vs0mg"},{"bike_id":"a5035683-e922-4659-b77f-9b07031bc84e","system_id":"levelo_inurba_marseille","lat":43.21753,"lon":5.34592,"is_reserved":false,"is_disabled":true,"rental_uris":{"android":"levelo://app?vid=a5035683-e922-4659-b77f-9b07031bc84e","ios":"levelo://app?vid=a5035683-e922-4659-b77f-9b07031bc84e"},"vehicle_type_id":"4","last_reported":1746828580,"current_range_meters":8800,"station_id":"st_cvj6r9ubvosntc0bgbag","pricing_plan_id":"cebpf4jnsgd1na2vs0mg"},{"bike_id":"ce972654-4647-4640-9be3-f6d267f881ec","system_id":"levelo_inurba_marseille","lat":43.27625,"lon":5.36104,"is_reserved":false,"is_disabled":false,"rental_uris":{"android":"levelo://app?vid=ce972654-4647-4640-9be3-f6d267f881ec","ios":"levelo://app?vid=ce972654-4647-4640-9be3-f6d267f881ec"},"vehicle_type_id":"4","last_reported":1746828580,"current_range_meters":8800,"station_id":"ce4bgj92rcd13ifvqbe0","pricing_plan_id":"cebpf4jnsgd1na2vs0mg"},{"bike_id":"ac67dd66-7261-42fc-b194-79c9696c6e53","system_id":"levelo_inurba_marseille","lat":43.27913,"lon":5.3958,"is_reserved":false,"is_disabled":false,"rental_uris":{"android":"levelo://app?vid=ac67dd66-7261-42fc-b194-79c9696c6e53","ios":"levelo://app?vid=ac67dd66-7261-42fc-b194-79c9696c6e53"},"vehicle_type_id":"4","last_reported":1746828580,"current_range_meters":8800,"station_id":"ce4bhf92rcd13ifvqf40","pricing_plan_id":"cebpf4jnsgd1na2vs0mg"},{"bike_id":"791cf852-cc2a-4381-a46c-d7afe4ceb6de","system_id":"levelo_inurba_marseille","lat":43.28975,"lon":5.35593,"is_reserved":false,"is_disabled":true,"rental_uris":{"android":"levelo://app?vid=791cf852-cc2a-4381-a46c-d7afe4ceb6de","ios":"levelo://app?vid=791cf852-cc2a-4381-a46c-d7afe4ceb6de"},"vehicle_type_id":"4","last_reported":1746828580,"current_range_meters":9200,"station_id":"ce4bhb92rcd13ifvqen0","pricing_plan_id":"cebpf4jnsgd1na2vs0mg"},{"bike_id":"956de5c9-7ccd-4263-89c5-a7575e0fb034","system_id":"levelo_inurba_marseille","lat":43.308,"lon":5.38151,"is_reserved":false,"is_disabled":false,"rental_uris":{"android":"levelo://app?vid=956de5c9-7ccd-4263-89c5-a7575e0fb034","ios":"levelo://app?vid=956de5c9-7ccd-4263-89c5-a7575e0fb034"},"vehicle_type_id":"4","last_reported":1746828580,"current_range_meters":8800,"station_id":"ce4bgt12rcd13ifvqce0","pricing_plan_id":"cebpf4jnsgd1na2vs0mg"},{"bike_id":"58319066-8688-4017-ad1b-c917092237ab","system_id":"levelo_inurba_marseille","lat":43.31888,"lon":5.40738,"is_reserved":false,"is_disabled":false,"rental_uris":{"android":"levelo://app?vid=58319066-8688-4017-ad1b-c917092237ab","ios":"levelo://app?vid=58319066-8688-4017-ad1b-c917092237ab"},"vehicle_type_id":"4","last_reported":1746828580,"current_range_meters":8800,"station_id":"ce4bhq12rcd13ifvqhig","pricing_plan_id":"cebpf4jnsgd1na2vs0mg"},{"bike_id":"b0c54ead-2c9a-4d45-904a-5e1b9abf7338","system_id":"levelo_inurba_marseille","lat":43.27992,"lon":5.43938,"is_reserved":false,"is_disabled":false,"rental_uris":{"android":"levelo://app?vid=b0c54ead-2c9a-4d45-904a-5e1b9abf7338","ios":"levelo://app?vid=b0c54ead-2c9a-4d45-904a-5e1b9abf7338"},"vehicle_type_id":"4","last_reported":1746828580,"current_range_meters":9200,"station_id":"","pricing_plan_id":"cebpf4jnsgd1na2vs0mg"},{"bike_id":"60e86d06-6f1c-4a25-a372-e4abb0cd6b3c","system_id":"levelo_inurba_marseille","lat":43.24074,"lon":5.37762,"is_reserved":false,"is_disabled":false,"rental_uris":{"android":"levelo://app?vid=60e86d06-6f1c-4a25-a372-e4abb0cd6b3c","ios":"levelo://app?vid=60e86d06-6f1c-4a25-a372-e4abb0cd6b3c"},"vehicle_type_id":"4","last_reported":1746828580,"current_range_meters":16800,"station_id":"ce4bhnp2rcd13ifvqgvg","pricing_plan_id":"cebpf4jnsgd1na2vs0mg"},{"bike_id":"f8bd5ba1-0844-4c6d-9b78-f958f1313745","system_id":"levelo_inurba_marseille","lat":43.29369,"lon":5.42834,"is_reserved":false,"is_disabled":false,"rental_uris":{"android":"levelo://app?vid=f8bd5ba1-0844-4c6d-9b78-f958f1313745","ios":"levelo://app?vid=f8bd5ba1-0844-4c6d-9b78-f958f1313745"},"vehicle_type_id":"4","last_reported":1746828580,"current_range_meters":9600,"station_id":"","pricing_plan_id":"cebpf4jnsgd1na2vs0mg"},{"bike_id":"3c7670ff-3628-42b4-8ea8-664d4fa357dd","system_id":"levelo_inurba_marseille","lat":43.2801,"lon":5.41661,"is_reserved":false,"is_disabled":false,"rental_uris":{"android":"levelo://app?vid=3c7670ff-3628-42b4-8ea8-664d4fa357dd","ios":"levelo://app?vid=3c7670ff-3628-42b4-8ea8-664d4fa357dd"},"vehicle_type_id":"4","last_reported":1746828580,"current_range_meters":9600,"station_id":"ce4bho12rcd13ifvqh1g","pricing_plan_id":"cebpf4jnsgd1na2vs0mg"},{"bike_id":"750853c3-5c7a-41ac-b4b9-21d83e878f6f","system_id":"levelo_inurba_marseille","lat":43.2768,"lon":5.41983,"is_reserved":false,"is_disabled":false,"rental_uris":{"android":"levelo://app?vid=750853c3-5c7a-41ac-b4b9-21d83e878f6f","ios":"levelo://app?vid=750853c3-5c7a-41ac-b4b9-21d83e878f6f"},"vehicle_type_id":"4","last_reported":1746828580,"current_range_meters":10000,"station_id":"","pricing_plan_id":"cebpf4jnsgd1na2vs0mg"},{"bike_id":"25853bdb-c4c4-484f-8797-cad762c04051","system_id":"levelo_inurba_marseille","lat":43.30637,"lon":5.40093,"is_reserved":false,"is_disabled":false,"rental_uris":{"android":"levelo://app?vid=25853bdb-c4c4-484f-8797-cad762c04051","ios":"levelo://app?vid=25853bdb-c4c4-484f-8797-cad762c04051"},"vehicle_type_id":"4","last_reported":1746828580,"current_range_meters":10000,"station_id":"ce4bh112rcd13ifvqda0","pricing_plan_id":"cebpf4jnsgd1na2vs0mg"},{"bike_id":"bdca530c-bd0d-472f-a06b-e690e9f2d295","system_id":"levelo_inurba_marseille","lat":43.30789,"lon":5.38166,"is_reserved":false,"is_disabled":false,"rental_uris":{"android":"levelo://app?vid=bdca530c-bd0d-472f-a06b-e690e9f2d295","ios":"levelo://app?vid=bdca530c-bd0d-472f-a06b-e690e9f2d295"},"vehicle_type_id":"4","last_reported":1746828580,"current_range_meters":10000,"station_id":"ce4bgt12rcd13ifvqce0","pricing_plan_id":"cebpf4jnsgd1na2vs0mg"},{"bike_id":"ea7dd22b-f0cf-4f8f-a49f-73a60cc00e17","system_id":"levelo_inurba_marseille","lat":43.30354,"lon":5.41886,"is_reserved":false,"is_disabled":false,"rental_uris":{"android":"levelo://app?vid=ea7dd22b-f0cf-4f8f-a49f-73a60cc00e17","ios":"levelo://app?vid=ea7dd22b-f0cf-4f8f-a49f-73a60cc00e17"},"vehicle_type_id":"4","last_reported":1746828580,"current_range_meters":10000,"station_id":"ce4bhop2rcd13ifvqh7g","pricing_plan_id":"cebpf4jnsgd1na2vs0mg"},{"bike_id":"0f6cf203-018f-4c9d-815f-955803b8d64f","system_id":"levelo_inurba_marseille","lat":43.23149,"lon":5.43703,"is_reserved":false,"is_disabled":false,"rental_uris":{"android":"levelo://app?vid=0f6cf203-018f-4c9d-815f-955803b8d64f","ios":"levelo://app?vid=0f6cf203-018f-4c9d-815f-955803b8d64f"},"vehicle_type_id":"4","last_reported":1746828580,"current_range_meters":10000,"station_id":"ce4bhmp2rcd13ifvqgog","pricing_plan_id":"cebpf4jnsgd1na2vs0mg"},{"bike_id":"8cb987f9-049d-46ae-9b26-cc9ab0572bed","system_id":"levelo_inurba_marseille","lat":43.27822,"lon":5.40697,"is_reserved":false,"is_disabled":true,"rental_uris":{"android":"levelo://app?vid=8cb987f9-049d-46ae-9b26-cc9ab0572bed","ios":"levelo://app?vid=8cb987f9-049d-46ae-9b26-cc9ab0572bed"},"vehicle_type_id":"4","last_reported":1746828580,"current_range_meters":10000,"station_id":"ce4bhnh2rcd13ifvqgtg","pricing_plan_id":"cebpf4jnsgd1na2vs0mg"},{"bike_id":"9cb56601-d547-4065-8776-c68a4c56cba5","system_id":"levelo_inurba_marseille","lat":43.292607,"lon":5.3845,"is_reserved":false,"is_disabled":false,"rental_uris":{"android":"levelo://app?vid=9cb56601-d547-4065-8776-c68a4c56cba5","ios":"levelo://app?vid=9cb56601-d547-4065-8776-c68a4c56cba5"},"vehicle_type_id":"4","last_reported":1746828580,"current_range_meters":10800,"station_id":"ce4bh692rcd13ifvqea0","pricing_plan_id":"cebpf4jnsgd1na2vs0mg"},{"bike_id":"044478cb-8194-4092-b984-4fc9c042ef68","system_id":"levelo_inurba_marseille","lat":43.28775,"lon":5.46494,"is_reserved":false,"is_disabled":false,"rental_uris":{"android":"levelo://app?vid=044478cb-8194-4092-b984-4fc9c042ef68","ios":"levelo://app?vid=044478cb-8194-4092-b984-4fc9c042ef68"},"vehicle_type_id":"4","last_reported":1746828580,"current_range_meters":10800,"station_id":"","pricing_plan_id":"cebpf4jnsgd1na2vs0mg"},{"bike_id":"7193e617-879c-4a85-b057-53ad70884327","system_id":"levelo_inurba_marseille","lat":43.30538,"lon":5.38426,"is_reserved":false,"is_disabled":false,"rental_uris":{"android":"levelo://app?vid=7193e617-879c-4a85-b057-53ad70884327","ios":"levelo://app?vid=7193e617-879c-4a85-b057-53ad70884327"},"vehicle_type_id":"4","last_reported":1746828580,"current_range_meters":11200,"station_id":"ce4bgg92rcd13ifvqb30","pricing_plan_id":"cebpf4jnsgd1na2vs0mg"},{"bike_id":"eea55eaf-fd1e-4663-bf90-5a9fa76f1cf6","system_id":"levelo_inurba_marseille","lat":43.27524,"lon":5.395502,"is_reserved":false,"is_disabled":false,"rental_uris":{"android":"levelo://app?vid=eea55eaf-fd1e-4663-bf90-5a9fa76f1cf6","ios":"levelo://app?vid=eea55eaf-fd1e-4663-bf90-5a9fa76f1cf6"},"vehicle_type_id":"4","last_reported":1746828580,"current_range_meters":11200,"station_id":"ce4bhdp2rcd13ifvqf20","pricing_plan_id":"cebpf4jnsgd1na2vs0mg"},{"bike_id":"1771c0e2-1fe6-49ff-8a23-2166fe76f883","system_id":"levelo_inurba_marseille","lat":43.231885,"lon":5.399763,"is_reserved":false,"is_disabled":false,"rental_uris":{"android":"levelo://app?vid=1771c0e2-1fe6-49ff-8a23-2166fe76f883","ios":"levelo://app?vid=1771c0e2-1fe6-49ff-8a23-2166fe76f883"},"vehicle_type_id":"4","last_reported":1746828580,"current_range_meters":11200,"station_id":"ce4bhn12rcd13ifvqgqg","pricing_plan_id":"cebpf4jnsgd1na2vs0mg"},{"bike_id":"2d9cf84f-80e6-4273-bdb7-a817d129565a","system_id":"levelo_inurba_marseille","lat":43.2807,"lon":5.39637,"is_reserved":false,"is_disabled":false,"rental_uris":{"android":"levelo://app?vid=2d9cf84f-80e6-4273-bdb7-a817d129565a","ios":"levelo://app?vid=2d9cf84f-80e6-4273-bdb7-a817d129565a"},"vehicle_type_id":"4","last_reported":1746828580,"current_range_meters":11600,"station_id":"ce4bho12rcd13ifvqh2g","pricing_plan_id":"cebpf4jnsgd1na2vs0mg"},{"bike_id":"71e65232-4982-4737-b994-a0a493133c1b","system_id":"levelo_inurba_marseille","lat":43.2953,"lon":5.39399,"is_reserved":false,"is_disabled":false,"rental_uris":{"android":"levelo://app?vid=71e65232-4982-4737-b994-a0a493133c1b","ios":"levelo://app?vid=71e65232-4982-4737-b994-a0a493133c1b"},"vehicle_type_id":"4","last_reported":1746828580,"current_range_meters":11600,"station_id":"ce4bh292rcd13ifvqdf0","pricing_plan_id":"cebpf4jnsgd1na2vs0mg"},{"bike_id":"c23795ea-7683-4dec-afd8-7fe5848041e3","system_id":"levelo_inurba_marseille","lat":43.24168,"lon":5.3974,"is_reserved":false,"is_disabled":false,"rental_uris":{"android":"levelo://app?vid=c23795ea-7683-4dec-afd8-7fe5848041e3","ios":"levelo://app?vid=c23795ea-7683-4dec-afd8-7fe5848041e3"},"vehicle_type_id":"4","last_reported":1746828580,"current_range_meters":11600,"station_id":"ce4bhn12rcd13ifvqgpg","pricing_plan_id":"cebpf4jnsgd1na2vs0mg"},{"bike_id":"79c8d684-a425-4aab-8ca4-59e521e72013","system_id":"levelo_inurba_marseille","lat":43.24803,"lon":5.3744,"is_reserved":false,"is_disabled":false,"rental_uris":{"android":"levelo://app?vid=79c8d684-a425-4aab-8ca4-59e521e72013","ios":"levelo://app?vid=79c8d684-a425-4aab-8ca4-59e521e72013"},"vehicle_type_id":"4","last_reported":1746828580,"current_range_meters":12000,"station_id":"ce4bhgh2rcd13ifvqfb0","pricing_plan_id":"cebpf4jnsgd1na2vs0mg"},{"bike_id":"b2a959ec-17c8-4bae-aaad-98c205d94272","system_id":"levelo_inurba_marseille","lat":43.290247,"lon":5.381304,"is_reserved":false,"is_disabled":false,"rental_uris":{"android":"levelo://app?vid=b2a959ec-17c8-4bae-aaad-98c205d94272","ios":"levelo://app?vid=b2a959ec-17c8-4bae-aaad-98c205d94272"},"vehicle_type_id":"4","last_reported":1746828580,"current_range_meters":12000,"station_id":"ce4bh4p2rcd13ifvqe1g","pricing_plan_id":"cebpf4jnsgd1na2vs0mg"},{"bike_id":"fa17d631-a65c-44a8-be27-ba0c3b209e6d","system_id":"levelo_inurba_marseille","lat":43.30813,"lon":5.38158,"is_reserved":false,"is_disabled":false,"rental_uris":{"android":"levelo://app?vid=fa17d631-a65c-44a8-be27-ba0c3b209e6d","ios":"levelo://app?vid=fa17d631-a65c-44a8-be27-ba0c3b209e6d"},"vehicle_type_id":"4","last_reported":1746828580,"current_range_meters":12000,"station_id":"ce4bgt12rcd13ifvqce0","pricing_plan_id":"cebpf4jnsgd1na2vs0mg"},{"bike_id":"86b478b2-1cf2-4e07-8a5c-76710e912a41","system_id":"levelo_inurba_marseille","lat":43.29123,"lon":5.36694,"is_reserved":false,"is_disabled":false,"rental_uris":{"android":"levelo://app?vid=86b478b2-1cf2-4e07-8a5c-76710e912a41","ios":"levelo://app?vid=86b478b2-1cf2-4e07-8a5c-76710e912a41"},"vehicle_type_id":"4","last_reported":1746828580,"current_range_meters":12000,"station_id":"","pricing_plan_id":"cebpf4jnsgd1na2vs0mg"},{"bike_id":"688d7c08-3b6e-415c-8990-b857e2498ae0","system_id":"levelo_inurba_marseille","lat":43.303728,"lon":5.424786,"is_reserved":false,"is_disabled":false,"rental_uris":{"android":"levelo://app?vid=688d7c08-3b6e-415c-8990-b857e2498ae0","ios":"levelo://app?vid=688d7c08-3b6e-415c-8990-b857e2498ae0"},"vehicle_type_id":"4","last_reported":1746828580,"current_range_meters":12400,"station_id":"ce4bhoh2rcd13ifvqh6g","pricing_plan_id":"cebpf4jnsgd1na2vs0mg"},{"bike_id":"597beefa-8311-4d68-b0f3-88cd0a14dd08","system_id":"levelo_inurba_marseille","lat":43.27559,"lon":5.39554,"is_reserved":false,"is_disabled":false,"rental_uris":{"android":"levelo://app?vid=597beefa-8311-4d68-b0f3-88cd0a14dd08","ios":"levelo://app?vid=597beefa-8311-4d68-b0f3-88cd0a14dd08"},"vehicle_type_id":"4","last_reported":1746828580,"current_range_meters":12400,"station_id":"","pricing_plan_id":"cebpf4jnsgd1na2vs0mg"},{"bike_id":"5070bbf2-ec6f-43e9-a0b5-d1e484a904f0","system_id":"levelo_inurba_marseille","lat":43.2655,"lon":5.372924,"is_reserved":false,"is_disabled":true,"rental_uris":{"android":"levelo://app?vid=5070bbf2-ec6f-43e9-a0b5-d1e484a904f0","ios":"levelo://app?vid=5070bbf2-ec6f-43e9-a0b5-d1e484a904f0"},"vehicle_type_id":"4","last_reported":1746828580,"current_range_meters":12400,"station_id":"ce4bhg12rcd13ifvqf70","pricing_plan_id":"cebpf4jnsgd1na2vs0mg"},{"bike_id":"dabc5299-686c-437f-b1fe-4c4dcec4a3bc","system_id":"levelo_inurba_marseille","lat":43.24066,"lon":5.37761,"is_reserved":false,"is_disabled":false,"rental_uris":{"android":"levelo://app?vid=dabc5299-686c-437f-b1fe-4c4dcec4a3bc","ios":"levelo://app?vid=dabc5299-686c-437f-b1fe-4c4dcec4a3bc"},"vehicle_type_id":"4","last_reported":1746828580,"current_range_meters":12800,"station_id":"ce4bhnp2rcd13ifvqgvg","pricing_plan_id":"cebpf4jnsgd1na2vs0mg"},{"bike_id":"9319b99d-2325-4f39-8ac2-f7bd744620e2","system_id":"levelo_inurba_marseille","lat":43.27623,"lon":5.36115,"is_reserved":false,"is_disabled":false,"rental_uris":{"android":"levelo://app?vid=9319b99d-2325-4f39-8ac2-f7bd744620e2","ios":"levelo://app?vid=9319b99d-2325-4f39-8ac2-f7bd744620e2"},"vehicle_type_id":"4","last_reported":1746828580,"current_range_meters":12800,"station_id":"ce4bgj92rcd13ifvqbe0","pricing_plan_id":"cebpf4jnsgd1na2vs0mg"},{"bike_id":"38422613-5297-41fa-8e34-3c6cd191aba3","system_id":"levelo_inurba_marseille","lat":43.27427,"lon":5.39407,"is_reserved":false,"is_disabled":false,"rental_uris":{"android":"levelo://app?vid=38422613-5297-41fa-8e34-3c6cd191aba3","ios":"levelo://app?vid=38422613-5297-41fa-8e34-3c6cd191aba3"},"vehicle_type_id":"4","last_reported":1746828580,"current_range_meters":12800,"station_id":"ce4bhdp2rcd13ifvqf20","pricing_plan_id":"cebpf4jnsgd1na2vs0mg"},{"bike_id":"f62b06c8-9c5f-415b-9650-144cf9e0f9b6","system_id":"levelo_inurba_marseille","lat":43.30773,"lon":5.3765,"is_reserved":false,"is_disabled":false,"rental_uris":{"android":"levelo://app?vid=f62b06c8-9c5f-415b-9650-144cf9e0f9b6","ios":"levelo://app?vid=f62b06c8-9c5f-415b-9650-144cf9e0f9b6"},"vehicle_type_id":"4","last_reported":1746828580,"current_range_meters":12800,"station_id":"ce4bgv92rcd13ifvqcq0","pricing_plan_id":"cebpf4jnsgd1na2vs0mg"},{"bike_id":"d388abd5-c0e6-48dd-a7fc-1d6206199050","system_id":"levelo_inurba_marseille","lat":43.341173,"lon":5.360611,"is_reserved":false,"is_disabled":false,"rental_uris":{"android":"levelo://app?vid=d388abd5-c0e6-48dd-a7fc-1d6206199050","ios":"levelo://app?vid=d388abd5-c0e6-48dd-a7fc-1d6206199050"},"vehicle_type_id":"4","last_reported":1746828580,"current_range_meters":12800,"station_id":"","pricing_plan_id":"cebpf4jnsgd1na2vs0mg"},{"bike_id":"1745bdb6-c7db-49d1-af32-c80f487167fa","system_id":"levelo_inurba_marseille","lat":43.31377,"lon":5.38489,"is_reserved":false,"is_disabled":false,"rental_uris":{"android":"levelo://app?vid=1745bdb6-c7db-49d1-af32-c80f487167fa","ios":"levelo://app?vid=1745bdb6-c7db-49d1-af32-c80f487167fa"},"vehicle_type_id":"4","last_reported":1746828580,"current_range_meters":12800,"station_id":"ce4bgt92rcd13ifvqcf0","pricing_plan_id":"cebpf4jnsgd1na2vs0mg"},{"bike_id":"2bcd659a-611c-43e2-89ef-f7e699246180","system_id":"levelo_inurba_marseille","lat":43.302458,"lon":5.400504,"is_reserved":false,"is_disabled":true,"rental_uris":{"android":"levelo://app?vid=2bcd659a-611c-43e2-89ef-f7e699246180","ios":"levelo://app?vid=2bcd659a-611c-43e2-89ef-f7e699246180"},"vehicle_type_id":"4","last_reported":1746828580,"current_range_meters":13600,"station_id":"ce4bgvh2rcd13ifvqcs0","pricing_plan_id":"cebpf4jnsgd1na2vs0mg"},{"bike_id":"7e590e5d-404b-4435-bc05-637e48f2b61f","system_id":"levelo_inurba_marseille","lat":43.24391,"lon":5.37061,"is_reserved":false,"is_disabled":false,"rental_uris":{"android":"levelo://app?vid=7e590e5d-404b-4435-bc05-637e48f2b61f","ios":"levelo://app?vid=7e590e5d-404b-4435-bc05-637e48f2b61f"},"vehicle_type_id":"4","last_reported":1746828580,"current_range_meters":13600,"station_id":"ce4bhhh2rcd13ifvqfk0","pricing_plan_id":"cebpf4jnsgd1na2vs0mg"},{"bike_id":"cf235328-7357-4821-ab08-7742ea23095c","system_id":"levelo_inurba_marseille","lat":43.23192,"lon":5.35554,"is_reserved":false,"is_disabled":false,"rental_uris":{"android":"levelo://app?vid=cf235328-7357-4821-ab08-7742ea23095c","ios":"levelo://app?vid=cf235328-7357-4821-ab08-7742ea23095c"},"vehicle_type_id":"4","last_reported":1746828580,"current_range_meters":12800,"station_id":"ce4bhu92rcd13ifvqi70","pricing_plan_id":"cebpf4jnsgd1na2vs0mg"},{"bike_id":"09e1dc14-26ac-446e-add0-27edb09cfb56","system_id":"levelo_inurba_marseille","lat":43.29277,"lon":5.36848,"is_reserved":false,"is_disabled":false,"rental_uris":{"android":"levelo://app?vid=09e1dc14-26ac-446e-add0-27edb09cfb56","ios":"levelo://app?vid=09e1dc14-26ac-446e-add0-27edb09cfb56"},"vehicle_type_id":"4","last_reported":1746828580,"current_range_meters":13600,"station_id":"","pricing_plan_id":"cebpf4jnsgd1na2vs0mg"},{"bike_id":"a46bfd17-5eb7-47c2-90ec-a875dbd162dd","system_id":"levelo_inurba_marseille","lat":43.2894,"lon":5.36639,"is_reserved":false,"is_disabled":false,"rental_uris":{"android":"levelo://app?vid=a46bfd17-5eb7-47c2-90ec-a875dbd162dd","ios":"levelo://app?vid=a46bfd17-5eb7-47c2-90ec-a875dbd162dd"},"vehicle_type_id":"4","last_reported":1746828580,"current_range_meters":13600,"station_id":"ce4bhap2rcd13ifvqek0","pricing_plan_id":"cebpf4jnsgd1na2vs0mg"},{"bike_id":"cfb33b76-ff38-465f-96b4-8908aeb6f4a0","system_id":"levelo_inurba_marseille","lat":43.27378,"lon":5.36244,"is_reserved":false,"is_disabled":false,"rental_uris":{"android":"levelo://app?vid=cfb33b76-ff38-465f-96b4-8908aeb6f4a0","ios":"levelo://app?vid=cfb33b76-ff38-465f-96b4-8908aeb6f4a0"},"vehicle_type_id":"4","last_reported":1746828580,"current_range_meters":13600,"station_id":"ce4bhbh2rcd13ifvqeo0","pricing_plan_id":"cebpf4jnsgd1na2vs0mg"},{"bike_id":"29b99ee3-82b0-4cb0-a9d6-8993ba8fcb2f","system_id":"levelo_inurba_marseille","lat":43.24661,"lon":5.3888,"is_reserved":false,"is_disabled":false,"rental_uris":{"android":"levelo://app?vid=29b99ee3-82b0-4cb0-a9d6-8993ba8fcb2f","ios":"levelo://app?vid=29b99ee3-82b0-4cb0-a9d6-8993ba8fcb2f"},"vehicle_type_id":"4","last_reported":1746828580,"current_range_meters":14000,"station_id":"ce4bhg12rcd13ifvqf60","pricing_plan_id":"cebpf4jnsgd1na2vs0mg"},{"bike_id":"e8b19a50-de97-403d-b007-87df1774c65b","system_id":"levelo_inurba_marseille","lat":43.273008,"lon":5.390846,"is_reserved":false,"is_disabled":false,"rental_uris":{"android":"levelo://app?vid=e8b19a50-de97-403d-b007-87df1774c65b","ios":"levelo://app?vid=e8b19a50-de97-403d-b007-87df1774c65b"},"vehicle_type_id":"4","last_reported":1746828580,"current_range_meters":13600,"station_id":"","pricing_plan_id":"cebpf4jnsgd1na2vs0mg"},{"bike_id":"2eef2304-4430-4eed-86c4-4474a05eccc4","system_id":"levelo_inurba_marseille","lat":43.2319,"lon":5.35555,"is_reserved":false,"is_disabled":false,"rental_uris":{"android":"levelo://app?vid=2eef2304-4430-4eed-86c4-4474a05eccc4","ios":"levelo://app?vid=2eef2304-4430-4eed-86c4-4474a05eccc4"},"vehicle_type_id":"4","last_reported":1746828580,"current_range_meters":13600,"station_id":"ce4bhu92rcd13ifvqi70","pricing_plan_id":"cebpf4jnsgd1na2vs0mg"},{"bike_id":"425a71c2-3497-48ea-abb4-541b2f2a7c98","system_id":"levelo_inurba_marseille","lat":43.24663,"lon":5.38156,"is_reserved":false,"is_disabled":false,"rental_uris":{"android":"levelo://app?vid=425a71c2-3497-48ea-abb4-541b2f2a7c98","ios":"levelo://app?vid=425a71c2-3497-48ea-abb4-541b2f2a7c98"},"vehicle_type_id":"4","last_reported":1746828580,"current_range_meters":14000,"station_id":"ce4bhih2rcd13ifvqfr0","pricing_plan_id":"cebpf4jnsgd1na2vs0mg"},{"bike_id":"4a8e30fc-5789-42ab-8bde-f9c49f2dc59c","system_id":"levelo_inurba_marseille","lat":43.30537,"lon":5.36529,"is_reserved":false,"is_disabled":false,"rental_uris":{"android":"levelo://app?vid=4a8e30fc-5789-42ab-8bde-f9c49f2dc59c","ios":"levelo://app?vid=4a8e30fc-5789-42ab-8bde-f9c49f2dc59c"},"vehicle_type_id":"4","last_reported":1746828580,"current_range_meters":14000,"station_id":"ce4bgs12rcd13ifvqcag","pricing_plan_id":"cebpf4jnsgd1na2vs0mg"},{"bike_id":"133a7fda-01de-42d7-b0e2-2faf9d52a1c9","system_id":"levelo_inurba_marseille","lat":43.28703,"lon":5.39991,"is_reserved":false,"is_disabled":false,"rental_uris":{"android":"levelo://app?vid=133a7fda-01de-42d7-b0e2-2faf9d52a1c9","ios":"levelo://app?vid=133a7fda-01de-42d7-b0e2-2faf9d52a1c9"},"vehicle_type_id":"4","last_reported":1746828580,"current_range_meters":14400,"station_id":"ce4bho92rcd13ifvqh3g","pricing_plan_id":"cebpf4jnsgd1na2vs0mg"},{"bike_id":"07706b67-b620-4568-a023-bbf642e12123","system_id":"levelo_inurba_marseille","lat":43.2835,"lon":5.38104,"is_reserved":false,"is_disabled":false,"rental_uris":{"android":"levelo://app?vid=07706b67-b620-4568-a023-bbf642e12123","ios":"levelo://app?vid=07706b67-b620-4568-a023-bbf642e12123"},"vehicle_type_id":"4","last_reported":1746828580,"current_range_meters":14400,"station_id":"ce4bh412rcd13ifvqdr0","pricing_plan_id":"cebpf4jnsgd1na2vs0mg"},{"bike_id":"d7249eae-29c4-4a9e-a74b-db5cd1305032","system_id":"levelo_inurba_marseille","lat":43.30912,"lon":5.3685,"is_reserved":false,"is_disabled":false,"rental_uris":{"android":"levelo://app?vid=d7249eae-29c4-4a9e-a74b-db5cd1305032","ios":"levelo://app?vid=d7249eae-29c4-4a9e-a74b-db5cd1305032"},"vehicle_type_id":"4","last_reported":1746828580,"current_range_meters":14400,"station_id":"ce4bgn92rcd13ifvqbvg","pricing_plan_id":"cebpf4jnsgd1na2vs0mg"},{"bike_id":"f1c7a456-d705-477a-b1e6-88d53834d2f1","system_id":"levelo_inurba_marseille","lat":43.31723,"lon":5.43701,"is_reserved":false,"is_disabled":true,"rental_uris":{"android":"levelo://app?vid=f1c7a456-d705-477a-b1e6-88d53834d2f1","ios":"levelo://app?vid=f1c7a456-d705-477a-b1e6-88d53834d2f1"},"vehicle_type_id":"4","last_reported":1746828580,"current_range_meters":14800,"station_id":"ce4bhp92rcd13ifvqhcg","pricing_plan_id":"cebpf4jnsgd1na2vs0mg"},{"bike_id":"35a8516b-240a-4df8-a3a1-35d4da354b60","system_id":"levelo_inurba_marseille","lat":43.23959,"lon":5.36627,"is_reserved":false,"is_disabled":false,"rental_uris":{"android":"levelo://app?vid=35a8516b-240a-4df8-a3a1-35d4da354b60","ios":"levelo://app?vid=35a8516b-240a-4df8-a3a1-35d4da354b60"},"vehicle_type_id":"4","last_reported":1746828580,"current_range_meters":14800,"station_id":"ce4bhi12rcd13ifvqfp0","pricing_plan_id":"cebpf4jnsgd1na2vs0mg"},{"bike_id":"08c04ff9-e615-4d87-ba3e-6b0e2342cce5","system_id":"levelo_inurba_marseille","lat":43.29629,"lon":5.36722,"is_reserved":false,"is_disabled":true,"rental_uris":{"android":"levelo://app?vid=08c04ff9-e615-4d87-ba3e-6b0e2342cce5","ios":"levelo://app?vid=08c04ff9-e615-4d87-ba3e-6b0e2342cce5"},"vehicle_type_id":"4","last_reported":1746828580,"current_range_meters":14800,"station_id":"","pricing_plan_id":"cebpf4jnsgd1na2vs0mg"},{"bike_id":"c5bf6457-7a00-4d62-9165-cd5ce63d9661","system_id":"levelo_inurba_marseille","lat":43.24393,"lon":5.37057,"is_reserved":false,"is_disabled":false,"rental_uris":{"android":"levelo://app?vid=c5bf6457-7a00-4d62-9165-cd5ce63d9661","ios":"levelo://app?vid=c5bf6457-7a00-4d62-9165-cd5ce63d9661"},"vehicle_type_id":"4","last_reported":1746828580,"current_range_meters":15200,"station_id":"ce4bhhh2rcd13ifvqfk0","pricing_plan_id":"cebpf4jnsgd1na2vs0mg"},{"bike_id":"234ffcd8-f045-4df7-83e6-86c58ae27918","system_id":"levelo_inurba_marseille","lat":43.29542,"lon":5.37507,"is_reserved":false,"is_disabled":false,"rental_uris":{"android":"levelo://app?vid=234ffcd8-f045-4df7-83e6-86c58ae27918","ios":"levelo://app?vid=234ffcd8-f045-4df7-83e6-86c58ae27918"},"vehicle_type_id":"4","last_reported":1746828580,"current_range_meters":15200,"station_id":"ce4bgkp2rcd13ifvqbmg","pricing_plan_id":"cebpf4jnsgd1na2vs0mg"},{"bike_id":"b84350da-64e8-4748-82fe-55f9084a3c6a","system_id":"levelo_inurba_marseille","lat":43.30462,"lon":5.37903,"is_reserved":false,"is_disabled":false,"rental_uris":{"android":"levelo://app?vid=b84350da-64e8-4748-82fe-55f9084a3c6a","ios":"levelo://app?vid=b84350da-64e8-4748-82fe-55f9084a3c6a"},"vehicle_type_id":"4","last_reported":1746828580,"current_range_meters":15200,"station_id":"ce4bgup2rcd13ifvqcn0","pricing_plan_id":"cebpf4jnsgd1na2vs0mg"},{"bike_id":"cf6bc856-5840-4cc7-87f8-ebcb25a380e4","system_id":"levelo_inurba_marseille","lat":43.25589,"lon":5.38232,"is_reserved":false,"is_disabled":false,"rental_uris":{"android":"levelo://app?vid=cf6bc856-5840-4cc7-87f8-ebcb25a380e4","ios":"levelo://app?vid=cf6bc856-5840-4cc7-87f8-ebcb25a380e4"},"vehicle_type_id":"4","last_reported":1746828580,"current_range_meters":16000,"station_id":"ce4bhih2rcd13ifvqfs0","pricing_plan_id":"cebpf4jnsgd1na2vs0mg"},{"bike_id":"6a592c79-90d3-4c3a-8d32-667e71e7b710","system_id":"levelo_inurba_marseille","lat":43.31687,"lon":5.40475,"is_reserved":false,"is_disabled":false,"rental_uris":{"android":"levelo://app?vid=6a592c79-90d3-4c3a-8d32-667e71e7b710","ios":"levelo://app?vid=6a592c79-90d3-4c3a-8d32-667e71e7b710"},"vehicle_type_id":"4","last_reported":1746828580,"current_range_meters":16000,"station_id":"ce4bh012rcd13ifvqd00","pricing_plan_id":"cebpf4jnsgd1na2vs0mg"},{"bike_id":"9a919805-a5a4-497f-a929-c9e08814771d","system_id":"levelo_inurba_marseille","lat":43.27998,"lon":5.41663,"is_reserved":false,"is_disabled":true,"rental_uris":{"android":"levelo://app?vid=9a919805-a5a4-497f-a929-c9e08814771d","ios":"levelo://app?vid=9a919805-a5a4-497f-a929-c9e08814771d"},"vehicle_type_id":"4","last_reported":1746828580,"current_range_meters":16000,"station_id":"ce4bho12rcd13ifvqh1g","pricing_plan_id":"cebpf4jnsgd1na2vs0mg"},{"bike_id":"d58e2bca-9cc6-4497-82e6-997f2f8b2940","system_id":"levelo_inurba_marseille","lat":43.24676,"lon":5.38156,"is_reserved":false,"is_disabled":false,"rental_uris":{"android":"levelo://app?vid=d58e2bca-9cc6-4497-82e6-997f2f8b2940","ios":"levelo://app?vid=d58e2bca-9cc6-4497-82e6-997f2f8b2940"},"vehicle_type_id":"4","last_reported":1746828580,"current_range_meters":16000,"station_id":"ce4bhih2rcd13ifvqfr0","pricing_plan_id":"cebpf4jnsgd1na2vs0mg"},{"bike_id":"168f826e-1c62-47a9-a8b5-8c2228dbddb8","system_id":"levelo_inurba_marseille","lat":43.30286,"lon":5.38939,"is_reserved":false,"is_disabled":true,"rental_uris":{"android":"levelo://app?vid=168f826e-1c62-47a9-a8b5-8c2228dbddb8","ios":"levelo://app?vid=168f826e-1c62-47a9-a8b5-8c2228dbddb8"},"vehicle_type_id":"4","last_reported":1746828580,"current_range_meters":16000,"station_id":"","pricing_plan_id":"cebpf4jnsgd1na2vs0mg"},{"bike_id":"4394d8dc-144c-4ff9-9bac-443ce52989f7","system_id":"levelo_inurba_marseille","lat":43.24811,"lon":5.37451,"is_reserved":false,"is_disabled":false,"rental_uris":{"android":"levelo://app?vid=4394d8dc-144c-4ff9-9bac-443ce52989f7","ios":"levelo://app?vid=4394d8dc-144c-4ff9-9bac-443ce52989f7"},"vehicle_type_id":"4","last_reported":1746828580,"current_range_meters":16000,"station_id":"ce4bhgh2rcd13ifvqfb0","pricing_plan_id":"cebpf4jnsgd1na2vs0mg"},{"bike_id":"bb9dd4d9-ef7c-411c-9ce2-6f0d8890189a","system_id":"levelo_inurba_marseille","lat":43.24153,"lon":5.36405,"is_reserved":false,"is_disabled":false,"rental_uris":{"android":"levelo://app?vid=bb9dd4d9-ef7c-411c-9ce2-6f0d8890189a","ios":"levelo://app?vid=bb9dd4d9-ef7c-411c-9ce2-6f0d8890189a"},"vehicle_type_id":"4","last_reported":1746828580,"current_range_meters":16400,"station_id":"cpo36qri1sfpv3e86is0","pricing_plan_id":"cebpf4jnsgd1na2vs0mg"},{"bike_id":"13a7a66a-2de9-4c43-8bc1-c323c6bc7e4a","system_id":"levelo_inurba_marseille","lat":43.30802,"lon":5.38155,"is_reserved":false,"is_disabled":false,"rental_uris":{"android":"levelo://app?vid=13a7a66a-2de9-4c43-8bc1-c323c6bc7e4a","ios":"levelo://app?vid=13a7a66a-2de9-4c43-8bc1-c323c6bc7e4a"},"vehicle_type_id":"4","last_reported":1746828580,"current_range_meters":16400,"station_id":"ce4bgt12rcd13ifvqce0","pricing_plan_id":"cebpf4jnsgd1na2vs0mg"},{"bike_id":"26c4cd85-b375-4132-8f53-93656adb5365","system_id":"levelo_inurba_marseille","lat":43.29265,"lon":5.38434,"is_reserved":false,"is_disabled":true,"rental_uris":{"android":"levelo://app?vid=26c4cd85-b375-4132-8f53-93656adb5365","ios":"levelo://app?vid=26c4cd85-b375-4132-8f53-93656adb5365"},"vehicle_type_id":"4","last_reported":1746828580,"current_range_meters":16400,"station_id":"ce4bh692rcd13ifvqea0","pricing_plan_id":"cebpf4jnsgd1na2vs0mg"},{"bike_id":"336ce01c-9295-4699-af38-b6ec4f52b90a","system_id":"levelo_inurba_marseille","lat":43.24813,"lon":5.37454,"is_reserved":false,"is_disabled":false,"rental_uris":{"android":"levelo://app?vid=336ce01c-9295-4699-af38-b6ec4f52b90a","ios":"levelo://app?vid=336ce01c-9295-4699-af38-b6ec4f52b90a"},"vehicle_type_id":"4","last_reported":1746828580,"current_range_meters":16400,"station_id":"ce4bhgh2rcd13ifvqfb0","pricing_plan_id":"cebpf4jnsgd1na2vs0mg"},{"bike_id":"34fb3a5b-cc5c-48bc-9ccd-5e13c4a43395","system_id":"levelo_inurba_marseille","lat":43.32574,"lon":5.39108,"is_reserved":false,"is_disabled":false,"rental_uris":{"android":"levelo://app?vid=34fb3a5b-cc5c-48bc-9ccd-5e13c4a43395","ios":"levelo://app?vid=34fb3a5b-cc5c-48bc-9ccd-5e13c4a43395"},"vehicle_type_id":"4","last_reported":1746828580,"current_range_meters":16400,"station_id":"","pricing_plan_id":"cebpf4jnsgd1na2vs0mg"},{"bike_id":"98cfe22b-40e2-47d9-9417-af992af33c88","system_id":"levelo_inurba_marseille","lat":43.28478,"lon":5.3588,"is_reserved":false,"is_disabled":true,"rental_uris":{"android":"levelo://app?vid=98cfe22b-40e2-47d9-9417-af992af33c88","ios":"levelo://app?vid=98cfe22b-40e2-47d9-9417-af992af33c88"},"vehicle_type_id":"4","last_reported":1746828580,"current_range_meters":16800,"station_id":"ce4bhah2rcd13ifvqei0","pricing_plan_id":"cebpf4jnsgd1na2vs0mg"},{"bike_id":"d9976382-1fce-4c25-8408-b45f488c59eb","system_id":"levelo_inurba_marseille","lat":43.31359,"lon":5.38495,"is_reserved":false,"is_disabled":false,"rental_uris":{"android":"levelo://app?vid=d9976382-1fce-4c25-8408-b45f488c59eb","ios":"levelo://app?vid=d9976382-1fce-4c25-8408-b45f488c59eb"},"vehicle_type_id":"4","last_reported":1746828580,"current_range_meters":16800,"station_id":"ce4bgt92rcd13ifvqcf0","pricing_plan_id":"cebpf4jnsgd1na2vs0mg"},{"bike_id":"55fada9f-9015-4dd1-bfb4-be767a27b242","system_id":"levelo_inurba_marseille","lat":43.27918,"lon":5.39579,"is_reserved":false,"is_disabled":true,"rental_uris":{"android":"levelo://app?vid=55fada9f-9015-4dd1-bfb4-be767a27b242","ios":"levelo://app?vid=55fada9f-9015-4dd1-bfb4-be767a27b242"},"vehicle_type_id":"4","last_reported":1746828580,"current_range_meters":16800,"station_id":"ce4bhf92rcd13ifvqf40","pricing_plan_id":"cebpf4jnsgd1na2vs0mg"},{"bike_id":"8dfe763f-2b56-4348-b766-788076babf15","system_id":"levelo_inurba_marseille","lat":43.30764,"lon":5.37681,"is_reserved":false,"is_disabled":false,"rental_uris":{"android":"levelo://app?vid=8dfe763f-2b56-4348-b766-788076babf15","ios":"levelo://app?vid=8dfe763f-2b56-4348-b766-788076babf15"},"vehicle_type_id":"4","last_reported":1746828580,"current_range_meters":17200,"station_id":"ce4bgv92rcd13ifvqcq0","pricing_plan_id":"cebpf4jnsgd1na2vs0mg"},{"bike_id":"5bee1775-528f-49e6-9c3e-19f7744c053e","system_id":"levelo_inurba_marseille","lat":43.27984,"lon":5.4166,"is_reserved":false,"is_disabled":false,"rental_uris":{"android":"levelo://app?vid=5bee1775-528f-49e6-9c3e-19f7744c053e","ios":"levelo://app?vid=5bee1775-528f-49e6-9c3e-19f7744c053e"},"vehicle_type_id":"4","last_reported":1746828580,"current_range_meters":17200,"station_id":"ce4bho12rcd13ifvqh1g","pricing_plan_id":"cebpf4jnsgd1na2vs0mg"},{"bike_id":"2755eced-ac56-405a-a7fa-c7c95f85519e","system_id":"levelo_inurba_marseille","lat":43.29274,"lon":5.38439,"is_reserved":false,"is_disabled":false,"rental_uris":{"android":"levelo://app?vid=2755eced-ac56-405a-a7fa-c7c95f85519e","ios":"levelo://app?vid=2755eced-ac56-405a-a7fa-c7c95f85519e"},"vehicle_type_id":"4","last_reported":1746828580,"current_range_meters":17200,"station_id":"ce4bh692rcd13ifvqea0","pricing_plan_id":"cebpf4jnsgd1na2vs0mg"},{"bike_id":"545e5687-b7df-4883-81be-75a8925d5f91","system_id":"levelo_inurba_marseille","lat":43.337444,"lon":5.374475,"is_reserved":false,"is_disabled":false,"rental_uris":{"android":"levelo://app?vid=545e5687-b7df-4883-81be-75a8925d5f91","ios":"levelo://app?vid=545e5687-b7df-4883-81be-75a8925d5f91"},"vehicle_type_id":"4","last_reported":1746828580,"current_range_meters":17200,"station_id":"","pricing_plan_id":"cebpf4jnsgd1na2vs0mg"},{"bike_id":"6b02c14e-bdde-4cc9-8460-44fbe1ee127c","system_id":"levelo_inurba_marseille","lat":43.27068,"lon":5.42277,"is_reserved":false,"is_disabled":false,"rental_uris":{"android":"levelo://app?vid=6b02c14e-bdde-4cc9-8460-44fbe1ee127c","ios":"levelo://app?vid=6b02c14e-bdde-4cc9-8460-44fbe1ee127c"},"vehicle_type_id":"4","last_reported":1746828580,"current_range_meters":16800,"station_id":"ce4bhk92rcd13ifvqgb0","pricing_plan_id":"cebpf4jnsgd1na2vs0mg"},{"bike_id":"94cd8564-a06e-4cc5-88d9-996fbf8639fe","system_id":"levelo_inurba_marseille","lat":43.217528,"lon":5.345991,"is_reserved":false,"is_disabled":true,"rental_uris":{"android":"levelo://app?vid=94cd8564-a06e-4cc5-88d9-996fbf8639fe","ios":"levelo://app?vid=94cd8564-a06e-4cc5-88d9-996fbf8639fe"},"vehicle_type_id":"4","last_reported":1746828580,"current_range_meters":17600,"station_id":"st_cvj6r9ubvosntc0bgbag","pricing_plan_id":"cebpf4jnsgd1na2vs0mg"},{"bike_id":"fc2577e7-1497-425b-9d4f-ab8d7dc843c6","system_id":"levelo_inurba_marseille","lat":43.33771,"lon":5.37485,"is_reserved":false,"is_disabled":false,"rental_uris":{"android":"levelo://app?vid=fc2577e7-1497-425b-9d4f-ab8d7dc843c6","ios":"levelo://app?vid=fc2577e7-1497-425b-9d4f-ab8d7dc843c6"},"vehicle_type_id":"4","last_reported":1746828580,"current_range_meters":17600,"station_id":"","pricing_plan_id":"cebpf4jnsgd1na2vs0mg"},{"bike_id":"5de3c60a-78e7-44ea-8f3c-4bc886b662a3","system_id":"levelo_inurba_marseille","lat":43.25087,"lon":5.3952,"is_reserved":false,"is_disabled":false,"rental_uris":{"android":"levelo://app?vid=5de3c60a-78e7-44ea-8f3c-4bc886b662a3","ios":"levelo://app?vid=5de3c60a-78e7-44ea-8f3c-4bc886b662a3"},"vehicle_type_id":"4","last_reported":1746828580,"current_range_meters":17600,"station_id":"ce4bhm12rcd13ifvqgkg","pricing_plan_id":"cebpf4jnsgd1na2vs0mg"},{"bike_id":"988217a7-40cc-4175-99a8-3abc98dd942c","system_id":"levelo_inurba_marseille","lat":43.24089,"lon":5.37754,"is_reserved":false,"is_disabled":false,"rental_uris":{"android":"levelo://app?vid=988217a7-40cc-4175-99a8-3abc98dd942c","ios":"levelo://app?vid=988217a7-40cc-4175-99a8-3abc98dd942c"},"vehicle_type_id":"4","last_reported":1746828580,"current_range_meters":17600,"station_id":"ce4bhnp2rcd13ifvqgvg","pricing_plan_id":"cebpf4jnsgd1na2vs0mg"},{"bike_id":"292f2826-222e-4a4a-a795-c1b7d0094712","system_id":"levelo_inurba_marseille","lat":43.30085,"lon":5.39079,"is_reserved":false,"is_disabled":false,"rental_uris":{"android":"levelo://app?vid=292f2826-222e-4a4a-a795-c1b7d0094712","ios":"levelo://app?vid=292f2826-222e-4a4a-a795-c1b7d0094712"},"vehicle_type_id":"4","last_reported":1746828580,"current_range_meters":17200,"station_id":"ce4bh192rcd13ifvqdb0","pricing_plan_id":"cebpf4jnsgd1na2vs0mg"},{"bike_id":"8b922ca6-4c4c-4cce-b120-dfd10f864eda","system_id":"levelo_inurba_marseille","lat":43.29588,"lon":5.38084,"is_reserved":false,"is_disabled":true,"rental_uris":{"android":"levelo://app?vid=8b922ca6-4c4c-4cce-b120-dfd10f864eda","ios":"levelo://app?vid=8b922ca6-4c4c-4cce-b120-dfd10f864eda"},"vehicle_type_id":"4","last_reported":1746828580,"current_range_meters":17600,"station_id":"ce4bgl12rcd13ifvqbo0","pricing_plan_id":"cebpf4jnsgd1na2vs0mg"},{"bike_id":"66d39f5f-1aac-423b-9ea7-bf9c1b0e5079","system_id":"levelo_inurba_marseille","lat":43.27531,"lon":5.41129,"is_reserved":false,"is_disabled":false,"rental_uris":{"android":"levelo://app?vid=66d39f5f-1aac-423b-9ea7-bf9c1b0e5079","ios":"levelo://app?vid=66d39f5f-1aac-423b-9ea7-bf9c1b0e5079"},"vehicle_type_id":"4","last_reported":1746828580,"current_range_meters":17600,"station_id":"","pricing_plan_id":"cebpf4jnsgd1na2vs0mg"},{"bike_id":"540b073a-9228-4696-a942-43defe045e24","system_id":"levelo_inurba_marseille","lat":43.2987,"lon":5.39727,"is_reserved":false,"is_disabled":false,"rental_uris":{"android":"levelo://app?vid=540b073a-9228-4696-a942-43defe045e24","ios":"levelo://app?vid=540b073a-9228-4696-a942-43defe045e24"},"vehicle_type_id":"4","last_reported":1746828580,"current_range_meters":18000,"station_id":"ce4bh0h2rcd13ifvqd50","pricing_plan_id":"cebpf4jnsgd1na2vs0mg"},{"bike_id":"25bd9db4-b151-496c-ba5d-8dcff47fadbf","system_id":"levelo_inurba_marseille","lat":43.319656,"lon":5.370946,"is_reserved":false,"is_disabled":false,"rental_uris":{"android":"levelo://app?vid=25bd9db4-b151-496c-ba5d-8dcff47fadbf","ios":"levelo://app?vid=25bd9db4-b151-496c-ba5d-8dcff47fadbf"},"vehicle_type_id":"4","last_reported":1746828580,"current_range_meters":18000,"station_id":"","pricing_plan_id":"cebpf4jnsgd1na2vs0mg"},{"bike_id":"b9adf51f-6113-4e7a-9aab-e48b10640df4","system_id":"levelo_inurba_marseille","lat":43.24403,"lon":5.37054,"is_reserved":false,"is_disabled":false,"rental_uris":{"android":"levelo://app?vid=b9adf51f-6113-4e7a-9aab-e48b10640df4","ios":"levelo://app?vid=b9adf51f-6113-4e7a-9aab-e48b10640df4"},"vehicle_type_id":"4","last_reported":1746828580,"current_range_meters":18000,"station_id":"ce4bhhh2rcd13ifvqfk0","pricing_plan_id":"cebpf4jnsgd1na2vs0mg"},{"bike_id":"f2e35cfe-9aae-459b-ad4c-f528956e50af","system_id":"levelo_inurba_marseille","lat":43.23189,"lon":5.3555,"is_reserved":false,"is_disabled":false,"rental_uris":{"android":"levelo://app?vid=f2e35cfe-9aae-459b-ad4c-f528956e50af","ios":"levelo://app?vid=f2e35cfe-9aae-459b-ad4c-f528956e50af"},"vehicle_type_id":"4","last_reported":1746828580,"current_range_meters":17600,"station_id":"ce4bhu92rcd13ifvqi70","pricing_plan_id":"cebpf4jnsgd1na2vs0mg"},{"bike_id":"8af4b88d-091f-4883-a950-3e14de86d879","system_id":"levelo_inurba_marseille","lat":43.31694,"lon":5.40453,"is_reserved":false,"is_disabled":false,"rental_uris":{"android":"levelo://app?vid=8af4b88d-091f-4883-a950-3e14de86d879","ios":"levelo://app?vid=8af4b88d-091f-4883-a950-3e14de86d879"},"vehicle_type_id":"4","last_reported":1746828580,"current_range_meters":18000,"station_id":"ce4bh012rcd13ifvqd00","pricing_plan_id":"cebpf4jnsgd1na2vs0mg"},{"bike_id":"c1d24017-c482-4630-adf8-75ab84e4b056","system_id":"levelo_inurba_marseille","lat":43.30417,"lon":5.41287,"is_reserved":false,"is_disabled":false,"rental_uris":{"android":"levelo://app?vid=c1d24017-c482-4630-adf8-75ab84e4b056","ios":"levelo://app?vid=c1d24017-c482-4630-adf8-75ab84e4b056"},"vehicle_type_id":"4","last_reported":1746828580,"current_range_meters":18000,"station_id":"ce4bhop2rcd13ifvqh8g","pricing_plan_id":"cebpf4jnsgd1na2vs0mg"},{"bike_id":"14b71386-3c19-4513-8fbd-bce69f05d5fd","system_id":"levelo_inurba_marseille","lat":43.31368,"lon":5.38488,"is_reserved":false,"is_disabled":false,"rental_uris":{"android":"levelo://app?vid=14b71386-3c19-4513-8fbd-bce69f05d5fd","ios":"levelo://app?vid=14b71386-3c19-4513-8fbd-bce69f05d5fd"},"vehicle_type_id":"4","last_reported":1746828580,"current_range_meters":18800,"station_id":"ce4bgt92rcd13ifvqcf0","pricing_plan_id":"cebpf4jnsgd1na2vs0mg"},{"bike_id":"796ef36e-55a7-4cb9-844d-596a7e2f3fa6","system_id":"levelo_inurba_marseille","lat":43.28378,"lon":5.36467,"is_reserved":false,"is_disabled":false,"rental_uris":{"android":"levelo://app?vid=796ef36e-55a7-4cb9-844d-596a7e2f3fa6","ios":"levelo://app?vid=796ef36e-55a7-4cb9-844d-596a7e2f3fa6"},"vehicle_type_id":"4","last_reported":1746828580,"current_range_meters":18800,"station_id":"","pricing_plan_id":"cebpf4jnsgd1na2vs0mg"},{"bike_id":"abdd754f-13ee-47ea-bee0-58f8fa169388","system_id":"levelo_inurba_marseille","lat":43.280372,"lon":5.369405,"is_reserved":false,"is_disabled":false,"rental_uris":{"android":"levelo://app?vid=abdd754f-13ee-47ea-bee0-58f8fa169388","ios":"levelo://app?vid=abdd754f-13ee-47ea-bee0-58f8fa169388"},"vehicle_type_id":"4","last_reported":1746828580,"current_range_meters":19200,"station_id":"","pricing_plan_id":"cebpf4jnsgd1na2vs0mg"},{"bike_id":"a1121b36-b5cd-4dda-96ef-13a3dfaa55e1","system_id":"levelo_inurba_marseille","lat":43.301401,"lon":5.387791,"is_reserved":false,"is_disabled":false,"rental_uris":{"android":"levelo://app?vid=a1121b36-b5cd-4dda-96ef-13a3dfaa55e1","ios":"levelo://app?vid=a1121b36-b5cd-4dda-96ef-13a3dfaa55e1"},"vehicle_type_id":"4","last_reported":1746828580,"current_range_meters":19200,"station_id":"","pricing_plan_id":"cebpf4jnsgd1na2vs0mg"},{"bike_id":"462336e2-a4e8-4882-be35-4ed6969a7cd6","system_id":"levelo_inurba_marseille","lat":43.299405,"lon":5.386393,"is_reserved":false,"is_disabled":false,"rental_uris":{"android":"levelo://app?vid=462336e2-a4e8-4882-be35-4ed6969a7cd6","ios":"levelo://app?vid=462336e2-a4e8-4882-be35-4ed6969a7cd6"},"vehicle_type_id":"4","last_reported":1746828580,"current_range_meters":19200,"station_id":"","pricing_plan_id":"cebpf4jnsgd1na2vs0mg"},{"bike_id":"9c9da47e-7b2c-4714-8414-a3fb2390d50b","system_id":"levelo_inurba_marseille","lat":43.28348,"lon":5.38104,"is_reserved":false,"is_disabled":false,"rental_uris":{"android":"levelo://app?vid=9c9da47e-7b2c-4714-8414-a3fb2390d50b","ios":"levelo://app?vid=9c9da47e-7b2c-4714-8414-a3fb2390d50b"},"vehicle_type_id":"4","last_reported":1746828580,"current_range_meters":19200,"station_id":"ce4bh412rcd13ifvqdr0","pricing_plan_id":"cebpf4jnsgd1na2vs0mg"},{"bike_id":"611984cb-882a-46b7-8fab-e6350303c611","system_id":"levelo_inurba_marseille","lat":43.24166,"lon":5.36389,"is_reserved":false,"is_disabled":false,"rental_uris":{"android":"levelo://app?vid=611984cb-882a-46b7-8fab-e6350303c611","ios":"levelo://app?vid=611984cb-882a-46b7-8fab-e6350303c611"},"vehicle_type_id":"4","last_reported":1746828580,"current_range_meters":19200,"station_id":"cpo36qri1sfpv3e86is0","pricing_plan_id":"cebpf4jnsgd1na2vs0mg"},{"bike_id":"50f5e02d-7e3d-4bd6-8a5e-360e84f51370","system_id":"levelo_inurba_marseille","lat":43.25122,"lon":5.40304,"is_reserved":false,"is_disabled":false,"rental_uris":{"android":"levelo://app?vid=50f5e02d-7e3d-4bd6-8a5e-360e84f51370","ios":"levelo://app?vid=50f5e02d-7e3d-4bd6-8a5e-360e84f51370"},"vehicle_type_id":"4","last_reported":1746828580,"current_range_meters":19200,"station_id":"ce4bhlh2rcd13ifvqgig","pricing_plan_id":"cebpf4jnsgd1na2vs0mg"},{"bike_id":"c6cc47fb-718e-4857-aa0a-d66569eef1fa","system_id":"levelo_inurba_marseille","lat":43.27626,"lon":5.36112,"is_reserved":false,"is_disabled":false,"rental_uris":{"android":"levelo://app?vid=c6cc47fb-718e-4857-aa0a-d66569eef1fa","ios":"levelo://app?vid=c6cc47fb-718e-4857-aa0a-d66569eef1fa"},"vehicle_type_id":"4","last_reported":1746828580,"current_range_meters":18800,"station_id":"ce4bgj92rcd13ifvqbe0","pricing_plan_id":"cebpf4jnsgd1na2vs0mg"},{"bike_id":"f34a79fb-9a2a-4d46-9bae-b3621d640434","system_id":"levelo_inurba_marseille","lat":43.310776,"lon":5.424308,"is_reserved":false,"is_disabled":true,"rental_uris":{"android":"levelo://app?vid=f34a79fb-9a2a-4d46-9bae-b3621d640434","ios":"levelo://app?vid=f34a79fb-9a2a-4d46-9bae-b3621d640434"},"vehicle_type_id":"4","last_reported":1746828580,"current_range_meters":19200,"station_id":"ce4bhp92rcd13ifvqhag","pricing_plan_id":"cebpf4jnsgd1na2vs0mg"},{"bike_id":"c2528238-7350-4ea7-b653-5931b64a705c","system_id":"levelo_inurba_marseille","lat":43.28452,"lon":5.35895,"is_reserved":false,"is_disabled":false,"rental_uris":{"android":"levelo://app?vid=c2528238-7350-4ea7-b653-5931b64a705c","ios":"levelo://app?vid=c2528238-7350-4ea7-b653-5931b64a705c"},"vehicle_type_id":"4","last_reported":1746828580,"current_range_meters":19200,"station_id":"ce4bhah2rcd13ifvqei0","pricing_plan_id":"cebpf4jnsgd1na2vs0mg"},{"bike_id":"c945a78b-184d-40bb-9e70-8cbfc115a24f","system_id":"levelo_inurba_marseille","lat":43.27919,"lon":5.39577,"is_reserved":false,"is_disabled":false,"rental_uris":{"android":"levelo://app?vid=c945a78b-184d-40bb-9e70-8cbfc115a24f","ios":"levelo://app?vid=c945a78b-184d-40bb-9e70-8cbfc115a24f"},"vehicle_type_id":"4","last_reported":1746828580,"current_range_meters":19200,"station_id":"ce4bhf92rcd13ifvqf40","pricing_plan_id":"cebpf4jnsgd1na2vs0mg"},{"bike_id":"b370d7bc-4088-4d8c-93da-20c058d91ad5","system_id":"levelo_inurba_marseille","lat":43.30652,"lon":5.40096,"is_reserved":false,"is_disabled":false,"rental_uris":{"android":"levelo://app?vid=b370d7bc-4088-4d8c-93da-20c058d91ad5","ios":"levelo://app?vid=b370d7bc-4088-4d8c-93da-20c058d91ad5"},"vehicle_type_id":"4","last_reported":1746828580,"current_range_meters":19200,"station_id":"ce4bh112rcd13ifvqda0","pricing_plan_id":"cebpf4jnsgd1na2vs0mg"},{"bike_id":"cfc2931a-9be8-43a1-81ad-07ac8d70a281","system_id":"levelo_inurba_marseille","lat":43.29533,"lon":5.394,"is_reserved":false,"is_disabled":false,"rental_uris":{"android":"levelo://app?vid=cfc2931a-9be8-43a1-81ad-07ac8d70a281","ios":"levelo://app?vid=cfc2931a-9be8-43a1-81ad-07ac8d70a281"},"vehicle_type_id":"4","last_reported":1746828580,"current_range_meters":19200,"station_id":"ce4bh292rcd13ifvqdf0","pricing_plan_id":"cebpf4jnsgd1na2vs0mg"},{"bike_id":"5cab8d09-0439-4dcf-8b6c-b4bfbff12d0b","system_id":"levelo_inurba_marseille","lat":43.31998,"lon":5.38143,"is_reserved":false,"is_disabled":true,"rental_uris":{"android":"levelo://app?vid=5cab8d09-0439-4dcf-8b6c-b4bfbff12d0b","ios":"levelo://app?vid=5cab8d09-0439-4dcf-8b6c-b4bfbff12d0b"},"vehicle_type_id":"4","last_reported":1746828580,"current_range_meters":19600,"station_id":"ce4bhr12rcd13ifvqhpg","pricing_plan_id":"cebpf4jnsgd1na2vs0mg"},{"bike_id":"d47fe63d-a5ad-44f7-b856-31f7db8d6fd5","system_id":"levelo_inurba_marseille","lat":43.29888,"lon":5.43648,"is_reserved":false,"is_disabled":false,"rental_uris":{"android":"levelo://app?vid=d47fe63d-a5ad-44f7-b856-31f7db8d6fd5","ios":"levelo://app?vid=d47fe63d-a5ad-44f7-b856-31f7db8d6fd5"},"vehicle_type_id":"4","last_reported":1746828580,"current_range_meters":19200,"station_id":"ce4bhpp2rcd13ifvqhfg","pricing_plan_id":"cebpf4jnsgd1na2vs0mg"},{"bike_id":"5c49bf40-6f8e-4b2f-bc5c-824b35e0090d","system_id":"levelo_inurba_marseille","lat":43.29447,"lon":5.39743,"is_reserved":false,"is_disabled":false,"rental_uris":{"android":"levelo://app?vid=5c49bf40-6f8e-4b2f-bc5c-824b35e0090d","ios":"levelo://app?vid=5c49bf40-6f8e-4b2f-bc5c-824b35e0090d"},"vehicle_type_id":"4","last_reported":1746828580,"current_range_meters":19200,"station_id":"ce4bh3h2rcd13ifvqdo0","pricing_plan_id":"cebpf4jnsgd1na2vs0mg"},{"bike_id":"7d7c9ad2-a27b-4682-a342-bd426a5f70e1","system_id":"levelo_inurba_marseille","lat":43.28705,"lon":5.39979,"is_reserved":false,"is_disabled":false,"rental_uris":{"android":"levelo://app?vid=7d7c9ad2-a27b-4682-a342-bd426a5f70e1","ios":"levelo://app?vid=7d7c9ad2-a27b-4682-a342-bd426a5f70e1"},"vehicle_type_id":"4","last_reported":1746828580,"current_range_meters":19200,"station_id":"ce4bho92rcd13ifvqh3g","pricing_plan_id":"cebpf4jnsgd1na2vs0mg"},{"bike_id":"971e8964-f5fa-4560-932b-c14bfa11569b","system_id":"levelo_inurba_marseille","lat":43.241833,"lon":5.397604,"is_reserved":false,"is_disabled":false,"rental_uris":{"android":"levelo://app?vid=971e8964-f5fa-4560-932b-c14bfa11569b","ios":"levelo://app?vid=971e8964-f5fa-4560-932b-c14bfa11569b"},"vehicle_type_id":"4","last_reported":1746828580,"current_range_meters":19600,"station_id":"ce4bhlp2rcd13ifvqgjg","pricing_plan_id":"cebpf4jnsgd1na2vs0mg"},{"bike_id":"e5f9e08b-c7e4-484f-8cb5-f829be2d4c56","system_id":"levelo_inurba_marseille","lat":43.29719,"lon":5.38383,"is_reserved":false,"is_disabled":false,"rental_uris":{"android":"levelo://app?vid=e5f9e08b-c7e4-484f-8cb5-f829be2d4c56","ios":"levelo://app?vid=e5f9e08b-c7e4-484f-8cb5-f829be2d4c56"},"vehicle_type_id":"4","last_reported":1746828580,"current_range_meters":19600,"station_id":"","pricing_plan_id":"cebpf4jnsgd1na2vs0mg"},{"bike_id":"eb2ce52b-29be-4c82-b32c-90086c844fc1","system_id":"levelo_inurba_marseille","lat":43.313498,"lon":5.384866,"is_reserved":false,"is_disabled":false,"rental_uris":{"android":"levelo://app?vid=eb2ce52b-29be-4c82-b32c-90086c844fc1","ios":"levelo://app?vid=eb2ce52b-29be-4c82-b32c-90086c844fc1"},"vehicle_type_id":"4","last_reported":1746828580,"current_range_meters":19600,"station_id":"ce4bgt92rcd13ifvqcf0","pricing_plan_id":"cebpf4jnsgd1na2vs0mg"},{"bike_id":"11bac9a6-0e04-4c68-9615-f13539342864","system_id":"levelo_inurba_marseille","lat":43.21227,"lon":5.35041,"is_reserved":false,"is_disabled":false,"rental_uris":{"android":"levelo://app?vid=11bac9a6-0e04-4c68-9615-f13539342864","ios":"levelo://app?vid=11bac9a6-0e04-4c68-9615-f13539342864"},"vehicle_type_id":"4","last_reported":1746828580,"current_range_meters":20000,"station_id":"","pricing_plan_id":"cebpf4jnsgd1na2vs0mg"},{"bike_id":"1eee94a5-e10d-4f9f-8262-b514c57aa896","system_id":"levelo_inurba_marseille","lat":43.280726,"lon":5.396594,"is_reserved":false,"is_disabled":false,"rental_uris":{"android":"levelo://app?vid=1eee94a5-e10d-4f9f-8262-b514c57aa896","ios":"levelo://app?vid=1eee94a5-e10d-4f9f-8262-b514c57aa896"},"vehicle_type_id":"4","last_reported":1746828580,"current_range_meters":20000,"station_id":"ce4bho12rcd13ifvqh2g","pricing_plan_id":"cebpf4jnsgd1na2vs0mg"},{"bike_id":"b69e23ef-e890-4919-b009-27c64fb00cf8","system_id":"levelo_inurba_marseille","lat":43.30784,"lon":5.37639,"is_reserved":false,"is_disabled":false,"rental_uris":{"android":"levelo://app?vid=b69e23ef-e890-4919-b009-27c64fb00cf8","ios":"levelo://app?vid=b69e23ef-e890-4919-b009-27c64fb00cf8"},"vehicle_type_id":"4","last_reported":1746828580,"current_range_meters":19600,"station_id":"ce4bgv92rcd13ifvqcq0","pricing_plan_id":"cebpf4jnsgd1na2vs0mg"},{"bike_id":"0fb6b147-e9a8-4345-a220-93d47a47a517","system_id":"levelo_inurba_marseille","lat":43.22935,"lon":5.35378,"is_reserved":false,"is_disabled":false,"rental_uris":{"android":"levelo://app?vid=0fb6b147-e9a8-4345-a220-93d47a47a517","ios":"levelo://app?vid=0fb6b147-e9a8-4345-a220-93d47a47a517"},"vehicle_type_id":"4","last_reported":1746828580,"current_range_meters":20000,"station_id":"cpo3532slgdg3j2ikp40","pricing_plan_id":"cebpf4jnsgd1na2vs0mg"},{"bike_id":"ccc31889-11d7-419a-b5d6-55b9a24a9f83","system_id":"levelo_inurba_marseille","lat":43.28405,"lon":5.37511,"is_reserved":false,"is_disabled":false,"rental_uris":{"android":"levelo://app?vid=ccc31889-11d7-419a-b5d6-55b9a24a9f83","ios":"levelo://app?vid=ccc31889-11d7-419a-b5d6-55b9a24a9f83"},"vehicle_type_id":"4","last_reported":1746828580,"current_range_meters":23200,"station_id":"ce4bh412rcd13ifvqds0","pricing_plan_id":"cebpf4jnsgd1na2vs0mg"},{"bike_id":"b36cb683-ad29-415e-9e01-33e17d955da6","system_id":"levelo_inurba_marseille","lat":43.296025,"lon":5.381001,"is_reserved":false,"is_disabled":false,"rental_uris":{"android":"levelo://app?vid=b36cb683-ad29-415e-9e01-33e17d955da6","ios":"levelo://app?vid=b36cb683-ad29-415e-9e01-33e17d955da6"},"vehicle_type_id":"4","last_reported":1746828580,"current_range_meters":20000,"station_id":"","pricing_plan_id":"cebpf4jnsgd1na2vs0mg"},{"bike_id":"fafc54e7-80d4-4bec-ab8a-c43ff95a1fa5","system_id":"levelo_inurba_marseille","lat":43.31493,"lon":5.37309,"is_reserved":false,"is_disabled":false,"rental_uris":{"android":"levelo://app?vid=fafc54e7-80d4-4bec-ab8a-c43ff95a1fa5","ios":"levelo://app?vid=fafc54e7-80d4-4bec-ab8a-c43ff95a1fa5"},"vehicle_type_id":"4","last_reported":1746828580,"current_range_meters":20000,"station_id":"ce4bgt12rcd13ifvqcd0","pricing_plan_id":"cebpf4jnsgd1na2vs0mg"},{"bike_id":"d415e7e2-f909-4c4f-94d7-56d33e682e41","system_id":"levelo_inurba_marseille","lat":43.24368,"lon":5.37039,"is_reserved":false,"is_disabled":true,"rental_uris":{"android":"levelo://app?vid=d415e7e2-f909-4c4f-94d7-56d33e682e41","ios":"levelo://app?vid=d415e7e2-f909-4c4f-94d7-56d33e682e41"},"vehicle_type_id":"4","last_reported":1746828580,"current_range_meters":20000,"station_id":"ce4bhhh2rcd13ifvqfk0","pricing_plan_id":"cebpf4jnsgd1na2vs0mg"},{"bike_id":"f44042ec-2f55-46a8-ac37-47677a64d341","system_id":"levelo_inurba_marseille","lat":43.3005,"lon":5.38474,"is_reserved":false,"is_disabled":false,"rental_uris":{"android":"levelo://app?vid=f44042ec-2f55-46a8-ac37-47677a64d341","ios":"levelo://app?vid=f44042ec-2f55-46a8-ac37-47677a64d341"},"vehicle_type_id":"4","last_reported":1746828580,"current_range_meters":20400,"station_id":"","pricing_plan_id":"cebpf4jnsgd1na2vs0mg"},{"bike_id":"a04abe7e-b462-4918-91dc-8fde571ab7c9","system_id":"levelo_inurba_marseille","lat":43.30608,"lon":5.37205,"is_reserved":false,"is_disabled":false,"rental_uris":{"android":"levelo://app?vid=a04abe7e-b462-4918-91dc-8fde571ab7c9","ios":"levelo://app?vid=a04abe7e-b462-4918-91dc-8fde571ab7c9"},"vehicle_type_id":"4","last_reported":1746828580,"current_range_meters":20400,"station_id":"ce4bgqh2rcd13ifvqc4g","pricing_plan_id":"cebpf4jnsgd1na2vs0mg"},{"bike_id":"63c52170-046e-4640-bcac-7efe36817223","system_id":"levelo_inurba_marseille","lat":43.31366,"lon":5.38496,"is_reserved":false,"is_disabled":false,"rental_uris":{"android":"levelo://app?vid=63c52170-046e-4640-bcac-7efe36817223","ios":"levelo://app?vid=63c52170-046e-4640-bcac-7efe36817223"},"vehicle_type_id":"4","last_reported":1746828580,"current_range_meters":20400,"station_id":"ce4bgt92rcd13ifvqcf0","pricing_plan_id":"cebpf4jnsgd1na2vs0mg"},{"bike_id":"adad1c39-0cfd-4e36-9a00-8017416df03c","system_id":"levelo_inurba_marseille","lat":43.34047,"lon":5.37475,"is_reserved":false,"is_disabled":false,"rental_uris":{"android":"levelo://app?vid=adad1c39-0cfd-4e36-9a00-8017416df03c","ios":"levelo://app?vid=adad1c39-0cfd-4e36-9a00-8017416df03c"},"vehicle_type_id":"4","last_reported":1746828580,"current_range_meters":20400,"station_id":"","pricing_plan_id":"cebpf4jnsgd1na2vs0mg"},{"bike_id":"65e531d0-f577-42a8-9508-f41845a285ed","system_id":"levelo_inurba_marseille","lat":43.30803,"lon":5.38147,"is_reserved":false,"is_disabled":false,"rental_uris":{"android":"levelo://app?vid=65e531d0-f577-42a8-9508-f41845a285ed","ios":"levelo://app?vid=65e531d0-f577-42a8-9508-f41845a285ed"},"vehicle_type_id":"4","last_reported":1746828580,"current_range_meters":20400,"station_id":"ce4bgt12rcd13ifvqce0","pricing_plan_id":"cebpf4jnsgd1na2vs0mg"},{"bike_id":"5a883977-11ff-4b88-bad5-77d05aa7f612","system_id":"levelo_inurba_marseille","lat":43.29513,"lon":5.39402,"is_reserved":false,"is_disabled":false,"rental_uris":{"android":"levelo://app?vid=5a883977-11ff-4b88-bad5-77d05aa7f612","ios":"levelo://app?vid=5a883977-11ff-4b88-bad5-77d05aa7f612"},"vehicle_type_id":"4","last_reported":1746828580,"current_range_meters":20400,"station_id":"ce4bh292rcd13ifvqdf0","pricing_plan_id":"cebpf4jnsgd1na2vs0mg"},{"bike_id":"b59ae723-7cd7-4abf-a2ff-04175dd95524","system_id":"levelo_inurba_marseille","lat":43.25879,"lon":5.39898,"is_reserved":false,"is_disabled":false,"rental_uris":{"android":"levelo://app?vid=b59ae723-7cd7-4abf-a2ff-04175dd95524","ios":"levelo://app?vid=b59ae723-7cd7-4abf-a2ff-04175dd95524"},"vehicle_type_id":"4","last_reported":1746828580,"current_range_meters":20400,"station_id":"ce4bhl92rcd13ifvqghg","pricing_plan_id":"cebpf4jnsgd1na2vs0mg"},{"bike_id":"7193779c-7172-41cf-88d2-473da004116d","system_id":"levelo_inurba_marseille","lat":43.28006,"lon":5.40005,"is_reserved":false,"is_disabled":false,"rental_uris":{"android":"levelo://app?vid=7193779c-7172-41cf-88d2-473da004116d","ios":"levelo://app?vid=7193779c-7172-41cf-88d2-473da004116d"},"vehicle_type_id":"4","last_reported":1746828580,"current_range_meters":20800,"station_id":"ce4bho92rcd13ifvqh4g","pricing_plan_id":"cebpf4jnsgd1na2vs0mg"},{"bike_id":"78338fb4-8675-4dce-9397-70f7541b18f0","system_id":"levelo_inurba_marseille","lat":43.30807,"lon":5.38209,"is_reserved":false,"is_disabled":false,"rental_uris":{"android":"levelo://app?vid=78338fb4-8675-4dce-9397-70f7541b18f0","ios":"levelo://app?vid=78338fb4-8675-4dce-9397-70f7541b18f0"},"vehicle_type_id":"4","last_reported":1746828580,"current_range_meters":20800,"station_id":"ce4bgt12rcd13ifvqce0","pricing_plan_id":"cebpf4jnsgd1na2vs0mg"},{"bike_id":"f89a5ae7-eaa1-448b-804a-6f84be8ba3d3","system_id":"levelo_inurba_marseille","lat":43.29029,"lon":5.39974,"is_reserved":false,"is_disabled":false,"rental_uris":{"android":"levelo://app?vid=f89a5ae7-eaa1-448b-804a-6f84be8ba3d3","ios":"levelo://app?vid=f89a5ae7-eaa1-448b-804a-6f84be8ba3d3"},"vehicle_type_id":"4","last_reported":1746828580,"current_range_meters":20800,"station_id":"ce4bh392rcd13ifvqdm0","pricing_plan_id":"cebpf4jnsgd1na2vs0mg"},{"bike_id":"1778fef2-e049-4058-aad1-b328e3cb255e","system_id":"levelo_inurba_marseille","lat":43.27833,"lon":5.39213,"is_reserved":false,"is_disabled":false,"rental_uris":{"android":"levelo://app?vid=1778fef2-e049-4058-aad1-b328e3cb255e","ios":"levelo://app?vid=1778fef2-e049-4058-aad1-b328e3cb255e"},"vehicle_type_id":"4","last_reported":1746828580,"current_range_meters":20800,"station_id":"ce4bhjp2rcd13ifvqga0","pricing_plan_id":"cebpf4jnsgd1na2vs0mg"},{"bike_id":"23475b81-e040-4398-a523-be51826fec60","system_id":"levelo_inurba_marseille","lat":43.316988,"lon":5.377537,"is_reserved":false,"is_disabled":false,"rental_uris":{"android":"levelo://app?vid=23475b81-e040-4398-a523-be51826fec60","ios":"levelo://app?vid=23475b81-e040-4398-a523-be51826fec60"},"vehicle_type_id":"4","last_reported":1746828580,"current_range_meters":20800,"station_id":"ce4bgth2rcd13ifvqch0","pricing_plan_id":"cebpf4jnsgd1na2vs0mg"},{"bike_id":"aa5e9c02-a34d-496c-9f26-67857006c81d","system_id":"levelo_inurba_marseille","lat":43.3118,"lon":5.38711,"is_reserved":false,"is_disabled":false,"rental_uris":{"android":"levelo://app?vid=aa5e9c02-a34d-496c-9f26-67857006c81d","ios":"levelo://app?vid=aa5e9c02-a34d-496c-9f26-67857006c81d"},"vehicle_type_id":"4","last_reported":1746828580,"current_range_meters":21600,"station_id":"ce4bgv12rcd13ifvqcp0","pricing_plan_id":"cebpf4jnsgd1na2vs0mg"},{"bike_id":"1fc00dbb-fc6e-4e8f-a09d-16a53b350d47","system_id":"levelo_inurba_marseille","lat":43.28666,"lon":5.36355,"is_reserved":false,"is_disabled":false,"rental_uris":{"android":"levelo://app?vid=1fc00dbb-fc6e-4e8f-a09d-16a53b350d47","ios":"levelo://app?vid=1fc00dbb-fc6e-4e8f-a09d-16a53b350d47"},"vehicle_type_id":"4","last_reported":1746828580,"current_range_meters":21600,"station_id":"ce4bhah2rcd13ifvqej0","pricing_plan_id":"cebpf4jnsgd1na2vs0mg"},{"bike_id":"9ebf93cd-c418-4d32-a21b-c1f274a15f1c","system_id":"levelo_inurba_marseille","lat":43.297142,"lon":5.365887,"is_reserved":false,"is_disabled":false,"rental_uris":{"android":"levelo://app?vid=9ebf93cd-c418-4d32-a21b-c1f274a15f1c","ios":"levelo://app?vid=9ebf93cd-c418-4d32-a21b-c1f274a15f1c"},"vehicle_type_id":"4","last_reported":1746828580,"current_range_meters":21600,"station_id":"ce4bgn12rcd13ifvqbt0","pricing_plan_id":"cebpf4jnsgd1na2vs0mg"},{"bike_id":"571b9789-5b73-471d-9758-2e0031482b99","system_id":"levelo_inurba_marseille","lat":43.29039,"lon":5.37569,"is_reserved":false,"is_disabled":false,"rental_uris":{"android":"levelo://app?vid=571b9789-5b73-471d-9758-2e0031482b99","ios":"levelo://app?vid=571b9789-5b73-471d-9758-2e0031482b99"},"vehicle_type_id":"4","last_reported":1746828580,"current_range_meters":21600,"station_id":"ce4bh692rcd13ifvqe90","pricing_plan_id":"cebpf4jnsgd1na2vs0mg"},{"bike_id":"a783564d-79c3-402c-a475-e8418e91c3a2","system_id":"levelo_inurba_marseille","lat":43.29338,"lon":5.37117,"is_reserved":false,"is_disabled":false,"rental_uris":{"android":"levelo://app?vid=a783564d-79c3-402c-a475-e8418e91c3a2","ios":"levelo://app?vid=a783564d-79c3-402c-a475-e8418e91c3a2"},"vehicle_type_id":"4","last_reported":1746828580,"current_range_meters":21600,"station_id":"","pricing_plan_id":"cebpf4jnsgd1na2vs0mg"},{"bike_id":"0179f8ea-7051-4db2-83c5-d73944e41552","system_id":"levelo_inurba_marseille","lat":43.23978,"lon":5.36616,"is_reserved":false,"is_disabled":false,"rental_uris":{"android":"levelo://app?vid=0179f8ea-7051-4db2-83c5-d73944e41552","ios":"levelo://app?vid=0179f8ea-7051-4db2-83c5-d73944e41552"},"vehicle_type_id":"4","last_reported":1746828580,"current_range_meters":22000,"station_id":"ce4bhi12rcd13ifvqfp0","pricing_plan_id":"cebpf4jnsgd1na2vs0mg"},{"bike_id":"97a3dea7-11c4-4da4-bc90-22422b73a232","system_id":"levelo_inurba_marseille","lat":43.27897,"lon":5.38012,"is_reserved":false,"is_disabled":false,"rental_uris":{"android":"levelo://app?vid=97a3dea7-11c4-4da4-bc90-22422b73a232","ios":"levelo://app?vid=97a3dea7-11c4-4da4-bc90-22422b73a232"},"vehicle_type_id":"4","last_reported":1746828580,"current_range_meters":22000,"station_id":"ce4bhf92rcd13ifvqf50","pricing_plan_id":"cebpf4jnsgd1na2vs0mg"},{"bike_id":"ec5abc48-3e5b-41b5-82b2-9c1fb422223c","system_id":"levelo_inurba_marseille","lat":43.29704,"lon":5.36618,"is_reserved":false,"is_disabled":false,"rental_uris":{"android":"levelo://app?vid=ec5abc48-3e5b-41b5-82b2-9c1fb422223c","ios":"levelo://app?vid=ec5abc48-3e5b-41b5-82b2-9c1fb422223c"},"vehicle_type_id":"4","last_reported":1746828580,"current_range_meters":21600,"station_id":"ce4bgn12rcd13ifvqbt0","pricing_plan_id":"cebpf4jnsgd1na2vs0mg"},{"bike_id":"09b101ce-e6ce-4d7c-baf7-c59732cb1e81","system_id":"levelo_inurba_marseille","lat":43.32342,"lon":5.40622,"is_reserved":false,"is_disabled":false,"rental_uris":{"android":"levelo://app?vid=09b101ce-e6ce-4d7c-baf7-c59732cb1e81","ios":"levelo://app?vid=09b101ce-e6ce-4d7c-baf7-c59732cb1e81"},"vehicle_type_id":"4","last_reported":1746828580,"current_range_meters":22400,"station_id":"ce4bhq92rcd13ifvqhjg","pricing_plan_id":"cebpf4jnsgd1na2vs0mg"},{"bike_id":"d440d672-19c3-4c38-ad81-3eb7d4a1946f","system_id":"levelo_inurba_marseille","lat":43.29706,"lon":5.36614,"is_reserved":false,"is_disabled":false,"rental_uris":{"android":"levelo://app?vid=d440d672-19c3-4c38-ad81-3eb7d4a1946f","ios":"levelo://app?vid=d440d672-19c3-4c38-ad81-3eb7d4a1946f"},"vehicle_type_id":"4","last_reported":1746828580,"current_range_meters":22400,"station_id":"ce4bgn12rcd13ifvqbt0","pricing_plan_id":"cebpf4jnsgd1na2vs0mg"},{"bike_id":"1d855545-418d-4a40-98ec-f2afdb4fe226","system_id":"levelo_inurba_marseille","lat":43.28105,"lon":5.37841,"is_reserved":false,"is_disabled":false,"rental_uris":{"android":"levelo://app?vid=1d855545-418d-4a40-98ec-f2afdb4fe226","ios":"levelo://app?vid=1d855545-418d-4a40-98ec-f2afdb4fe226"},"vehicle_type_id":"4","last_reported":1746828580,"current_range_meters":22800,"station_id":"ce4bha12rcd13ifvqee0","pricing_plan_id":"cebpf4jnsgd1na2vs0mg"},{"bike_id":"4847d81f-d50e-4609-8983-6082c307ddc0","system_id":"levelo_inurba_marseille","lat":43.31706,"lon":5.437,"is_reserved":false,"is_disabled":false,"rental_uris":{"android":"levelo://app?vid=4847d81f-d50e-4609-8983-6082c307ddc0","ios":"levelo://app?vid=4847d81f-d50e-4609-8983-6082c307ddc0"},"vehicle_type_id":"4","last_reported":1746828580,"current_range_meters":22800,"station_id":"ce4bhp92rcd13ifvqhcg","pricing_plan_id":"cebpf4jnsgd1na2vs0mg"},{"bike_id":"a12160bc-8b88-4749-8f92-02776561c143","system_id":"levelo_inurba_marseille","lat":43.2926,"lon":5.3844,"is_reserved":false,"is_disabled":false,"rental_uris":{"android":"levelo://app?vid=a12160bc-8b88-4749-8f92-02776561c143","ios":"levelo://app?vid=a12160bc-8b88-4749-8f92-02776561c143"},"vehicle_type_id":"4","last_reported":1746828580,"current_range_meters":22800,"station_id":"ce4bh692rcd13ifvqea0","pricing_plan_id":"cebpf4jnsgd1na2vs0mg"},{"bike_id":"30d032a9-1fb6-4043-9a18-982f18073f8a","system_id":"levelo_inurba_marseille","lat":43.23965,"lon":5.36631,"is_reserved":false,"is_disabled":false,"rental_uris":{"android":"levelo://app?vid=30d032a9-1fb6-4043-9a18-982f18073f8a","ios":"levelo://app?vid=30d032a9-1fb6-4043-9a18-982f18073f8a"},"vehicle_type_id":"4","last_reported":1746828580,"current_range_meters":22800,"station_id":"ce4bhi12rcd13ifvqfp0","pricing_plan_id":"cebpf4jnsgd1na2vs0mg"},{"bike_id":"ce47b29d-26e7-4416-8fd7-0ee6d32a740b","system_id":"levelo_inurba_marseille","lat":43.29269,"lon":5.38438,"is_reserved":false,"is_disabled":false,"rental_uris":{"android":"levelo://app?vid=ce47b29d-26e7-4416-8fd7-0ee6d32a740b","ios":"levelo://app?vid=ce47b29d-26e7-4416-8fd7-0ee6d32a740b"},"vehicle_type_id":"4","last_reported":1746828580,"current_range_meters":22800,"station_id":"ce4bh692rcd13ifvqea0","pricing_plan_id":"cebpf4jnsgd1na2vs0mg"},{"bike_id":"f52c819d-ca4b-4640-b458-b877db1bf990","system_id":"levelo_inurba_marseille","lat":43.29867,"lon":5.41014,"is_reserved":false,"is_disabled":false,"rental_uris":{"android":"levelo://app?vid=f52c819d-ca4b-4640-b458-b877db1bf990","ios":"levelo://app?vid=f52c819d-ca4b-4640-b458-b877db1bf990"},"vehicle_type_id":"4","last_reported":1746828580,"current_range_meters":23200,"station_id":"","pricing_plan_id":"cebpf4jnsgd1na2vs0mg"},{"bike_id":"64753928-f998-4224-bb81-d32fce4b1021","system_id":"levelo_inurba_marseille","lat":43.31359,"lon":5.3849,"is_reserved":false,"is_disabled":false,"rental_uris":{"android":"levelo://app?vid=64753928-f998-4224-bb81-d32fce4b1021","ios":"levelo://app?vid=64753928-f998-4224-bb81-d32fce4b1021"},"vehicle_type_id":"4","last_reported":1746828580,"current_range_meters":23200,"station_id":"ce4bgt92rcd13ifvqcf0","pricing_plan_id":"cebpf4jnsgd1na2vs0mg"},{"bike_id":"51f9a216-41a1-4861-9774-60fc44178d23","system_id":"levelo_inurba_marseille","lat":43.29539,"lon":5.38517,"is_reserved":false,"is_disabled":false,"rental_uris":{"android":"levelo://app?vid=51f9a216-41a1-4861-9774-60fc44178d23","ios":"levelo://app?vid=51f9a216-41a1-4861-9774-60fc44178d23"},"vehicle_type_id":"4","last_reported":1746828580,"current_range_meters":23200,"station_id":"ce4bgih2rcd13ifvqba0","pricing_plan_id":"cebpf4jnsgd1na2vs0mg"},{"bike_id":"7ef9c380-74be-455d-a6e8-d8f5bf01ceee","system_id":"levelo_inurba_marseille","lat":43.31073,"lon":5.38358,"is_reserved":false,"is_disabled":false,"rental_uris":{"android":"levelo://app?vid=7ef9c380-74be-455d-a6e8-d8f5bf01ceee","ios":"levelo://app?vid=7ef9c380-74be-455d-a6e8-d8f5bf01ceee"},"vehicle_type_id":"4","last_reported":1746828580,"current_range_meters":23200,"station_id":"ce4bgv92rcd13ifvqcr0","pricing_plan_id":"cebpf4jnsgd1na2vs0mg"},{"bike_id":"73ded412-1ade-4c78-acbe-a9afd038932d","system_id":"levelo_inurba_marseille","lat":43.241646,"lon":5.363956,"is_reserved":false,"is_disabled":false,"rental_uris":{"android":"levelo://app?vid=73ded412-1ade-4c78-acbe-a9afd038932d","ios":"levelo://app?vid=73ded412-1ade-4c78-acbe-a9afd038932d"},"vehicle_type_id":"4","last_reported":1746828580,"current_range_meters":23200,"station_id":"cpo36qri1sfpv3e86is0","pricing_plan_id":"cebpf4jnsgd1na2vs0mg"},{"bike_id":"eeae9a2f-bc9a-4394-bca2-cff4e58e46b3","system_id":"levelo_inurba_marseille","lat":43.29587,"lon":5.38106,"is_reserved":false,"is_disabled":true,"rental_uris":{"android":"levelo://app?vid=eeae9a2f-bc9a-4394-bca2-cff4e58e46b3","ios":"levelo://app?vid=eeae9a2f-bc9a-4394-bca2-cff4e58e46b3"},"vehicle_type_id":"4","last_reported":1746828580,"current_range_meters":23200,"station_id":"ce4bgl12rcd13ifvqbo0","pricing_plan_id":"cebpf4jnsgd1na2vs0mg"},{"bike_id":"4c70f5a9-5898-420d-816a-c0f2759aaef3","system_id":"levelo_inurba_marseille","lat":43.28707,"lon":5.37912,"is_reserved":false,"is_disabled":false,"rental_uris":{"android":"levelo://app?vid=4c70f5a9-5898-420d-816a-c0f2759aaef3","ios":"levelo://app?vid=4c70f5a9-5898-420d-816a-c0f2759aaef3"},"vehicle_type_id":"4","last_reported":1746828580,"current_range_meters":23200,"station_id":"ce4bh9p2rcd13ifvqec0","pricing_plan_id":"cebpf4jnsgd1na2vs0mg"},{"bike_id":"2fc3cf4e-73e4-43db-9d5e-d3d4b8da6f2a","system_id":"levelo_inurba_marseille","lat":43.275706,"lon":5.384066,"is_reserved":false,"is_disabled":false,"rental_uris":{"android":"levelo://app?vid=2fc3cf4e-73e4-43db-9d5e-d3d4b8da6f2a","ios":"levelo://app?vid=2fc3cf4e-73e4-43db-9d5e-d3d4b8da6f2a"},"vehicle_type_id":"4","last_reported":1746828580,"current_range_meters":23200,"station_id":"ce4bhh92rcd13ifvqfi0","pricing_plan_id":"cebpf4jnsgd1na2vs0mg"},{"bike_id":"e70612c8-456c-4f01-b45d-dddb892f503e","system_id":"levelo_inurba_marseille","lat":43.28102,"lon":5.37831,"is_reserved":false,"is_disabled":false,"rental_uris":{"android":"levelo://app?vid=e70612c8-456c-4f01-b45d-dddb892f503e","ios":"levelo://app?vid=e70612c8-456c-4f01-b45d-dddb892f503e"},"vehicle_type_id":"4","last_reported":1746828580,"current_range_meters":23200,"station_id":"ce4bha12rcd13ifvqee0","pricing_plan_id":"cebpf4jnsgd1na2vs0mg"},{"bike_id":"4e7ef0b6-1a93-4053-a286-9b84ce9ea953","system_id":"levelo_inurba_marseille","lat":43.29261,"lon":5.38449,"is_reserved":false,"is_disabled":false,"rental_uris":{"android":"levelo://app?vid=4e7ef0b6-1a93-4053-a286-9b84ce9ea953","ios":"levelo://app?vid=4e7ef0b6-1a93-4053-a286-9b84ce9ea953"},"vehicle_type_id":"4","last_reported":1746828580,"current_range_meters":24000,"station_id":"ce4bh692rcd13ifvqea0","pricing_plan_id":"cebpf4jnsgd1na2vs0mg"},{"bike_id":"830ca2f3-14a2-40d4-b14d-f14634d8ac66","system_id":"levelo_inurba_marseille","lat":43.3172,"lon":5.43691,"is_reserved":false,"is_disabled":true,"rental_uris":{"android":"levelo://app?vid=830ca2f3-14a2-40d4-b14d-f14634d8ac66","ios":"levelo://app?vid=830ca2f3-14a2-40d4-b14d-f14634d8ac66"},"vehicle_type_id":"4","last_reported":1746828580,"current_range_meters":24000,"station_id":"ce4bhp92rcd13ifvqhcg","pricing_plan_id":"cebpf4jnsgd1na2vs0mg"},{"bike_id":"74cd5433-f0e5-40bd-8bcd-c0f140b43f68","system_id":"levelo_inurba_marseille","lat":43.26676,"lon":5.38264,"is_reserved":false,"is_disabled":false,"rental_uris":{"android":"levelo://app?vid=74cd5433-f0e5-40bd-8bcd-c0f140b43f68","ios":"levelo://app?vid=74cd5433-f0e5-40bd-8bcd-c0f140b43f68"},"vehicle_type_id":"4","last_reported":1746828580,"current_range_meters":24000,"station_id":"ce4bhg92rcd13ifvqf90","pricing_plan_id":"cebpf4jnsgd1na2vs0mg"},{"bike_id":"35acdf18-4688-4fbc-9b69-407331d78b5a","system_id":"levelo_inurba_marseille","lat":43.292615,"lon":5.38437,"is_reserved":false,"is_disabled":false,"rental_uris":{"android":"levelo://app?vid=35acdf18-4688-4fbc-9b69-407331d78b5a","ios":"levelo://app?vid=35acdf18-4688-4fbc-9b69-407331d78b5a"},"vehicle_type_id":"4","last_reported":1746828580,"current_range_meters":24000,"station_id":"ce4bh692rcd13ifvqea0","pricing_plan_id":"cebpf4jnsgd1na2vs0mg"},{"bike_id":"9ba0e669-4874-47a8-8f1c-eacf136664d6","system_id":"levelo_inurba_marseille","lat":43.31774,"lon":5.38982,"is_reserved":false,"is_disabled":false,"rental_uris":{"android":"levelo://app?vid=9ba0e669-4874-47a8-8f1c-eacf136664d6","ios":"levelo://app?vid=9ba0e669-4874-47a8-8f1c-eacf136664d6"},"vehicle_type_id":"4","last_reported":1746828580,"current_range_meters":24000,"station_id":"ce4bhqp2rcd13ifvqhng","pricing_plan_id":"cebpf4jnsgd1na2vs0mg"},{"bike_id":"ce808109-3a33-42b9-94bd-9d2185c0cbf5","system_id":"levelo_inurba_marseille","lat":43.28417,"lon":5.37501,"is_reserved":false,"is_disabled":false,"rental_uris":{"android":"levelo://app?vid=ce808109-3a33-42b9-94bd-9d2185c0cbf5","ios":"levelo://app?vid=ce808109-3a33-42b9-94bd-9d2185c0cbf5"},"vehicle_type_id":"4","last_reported":1746828580,"current_range_meters":24400,"station_id":"ce4bh412rcd13ifvqds0","pricing_plan_id":"cebpf4jnsgd1na2vs0mg"},{"bike_id":"48ed43fb-4ad0-4001-acee-f6ea4523cfc5","system_id":"levelo_inurba_marseille","lat":43.286242,"lon":5.476948,"is_reserved":false,"is_disabled":false,"rental_uris":{"android":"levelo://app?vid=48ed43fb-4ad0-4001-acee-f6ea4523cfc5","ios":"levelo://app?vid=48ed43fb-4ad0-4001-acee-f6ea4523cfc5"},"vehicle_type_id":"4","last_reported":1746828580,"current_range_meters":24400,"station_id":"","pricing_plan_id":"cebpf4jnsgd1na2vs0mg"},{"bike_id":"cbf01264-a3c0-45b4-a8f6-46ca7a246cfb","system_id":"levelo_inurba_marseille","lat":43.297216,"lon":5.365913,"is_reserved":false,"is_disabled":false,"rental_uris":{"android":"levelo://app?vid=cbf01264-a3c0-45b4-a8f6-46ca7a246cfb","ios":"levelo://app?vid=cbf01264-a3c0-45b4-a8f6-46ca7a246cfb"},"vehicle_type_id":"4","last_reported":1746828580,"current_range_meters":24400,"station_id":"ce4bgn12rcd13ifvqbt0","pricing_plan_id":"cebpf4jnsgd1na2vs0mg"},{"bike_id":"4629799c-f1b4-4fe2-81f4-6cae2e77c918","system_id":"levelo_inurba_marseille","lat":43.28709,"lon":5.37933,"is_reserved":false,"is_disabled":false,"rental_uris":{"android":"levelo://app?vid=4629799c-f1b4-4fe2-81f4-6cae2e77c918","ios":"levelo://app?vid=4629799c-f1b4-4fe2-81f4-6cae2e77c918"},"vehicle_type_id":"4","last_reported":1746828580,"current_range_meters":24400,"station_id":"ce4bh9p2rcd13ifvqec0","pricing_plan_id":"cebpf4jnsgd1na2vs0mg"},{"bike_id":"8836a1a3-8c5d-4a51-84c1-995eedc0e08f","system_id":"levelo_inurba_marseille","lat":43.24391,"lon":5.37061,"is_reserved":false,"is_disabled":false,"rental_uris":{"android":"levelo://app?vid=8836a1a3-8c5d-4a51-84c1-995eedc0e08f","ios":"levelo://app?vid=8836a1a3-8c5d-4a51-84c1-995eedc0e08f"},"vehicle_type_id":"4","last_reported":1746828580,"current_range_meters":24400,"station_id":"ce4bhhh2rcd13ifvqfk0","pricing_plan_id":"cebpf4jnsgd1na2vs0mg"},{"bike_id":"8fda7305-5141-4f84-92bd-428484e39574","system_id":"levelo_inurba_marseille","lat":43.24391,"lon":5.37062,"is_reserved":false,"is_disabled":false,"rental_uris":{"android":"levelo://app?vid=8fda7305-5141-4f84-92bd-428484e39574","ios":"levelo://app?vid=8fda7305-5141-4f84-92bd-428484e39574"},"vehicle_type_id":"4","last_reported":1746828580,"current_range_meters":24400,"station_id":"ce4bhhh2rcd13ifvqfk0","pricing_plan_id":"cebpf4jnsgd1na2vs0mg"},{"bike_id":"02bac07a-9186-49eb-a666-f70d86d99978","system_id":"levelo_inurba_marseille","lat":43.211913,"lon":5.350856,"is_reserved":false,"is_disabled":false,"rental_uris":{"android":"levelo://app?vid=02bac07a-9186-49eb-a666-f70d86d99978","ios":"levelo://app?vid=02bac07a-9186-49eb-a666-f70d86d99978"},"vehicle_type_id":"4","last_reported":1746828580,"current_range_meters":24400,"station_id":"st_cvj6sg6p6f1abm77japg","pricing_plan_id":"cebpf4jnsgd1na2vs0mg"},{"bike_id":"dea91c64-8cd5-448b-a552-a026a3701963","system_id":"levelo_inurba_marseille","lat":43.29246,"lon":5.37601,"is_reserved":false,"is_disabled":false,"rental_uris":{"android":"levelo://app?vid=dea91c64-8cd5-448b-a552-a026a3701963","ios":"levelo://app?vid=dea91c64-8cd5-448b-a552-a026a3701963"},"vehicle_type_id":"4","last_reported":1746828580,"current_range_meters":24400,"station_id":"ce4bgi12rcd13ifvqb80","pricing_plan_id":"cebpf4jnsgd1na2vs0mg"},{"bike_id":"4a7daf22-7d20-4473-9189-f63e44977c69","system_id":"levelo_inurba_marseille","lat":43.2838,"lon":5.38621,"is_reserved":false,"is_disabled":false,"rental_uris":{"android":"levelo://app?vid=4a7daf22-7d20-4473-9189-f63e44977c69","ios":"levelo://app?vid=4a7daf22-7d20-4473-9189-f63e44977c69"},"vehicle_type_id":"4","last_reported":1746828580,"current_range_meters":24400,"station_id":"ce4bh492rcd13ifvqdvg","pricing_plan_id":"cebpf4jnsgd1na2vs0mg"},{"bike_id":"628c9361-3d68-4678-b48b-1aeec419f7df","system_id":"levelo_inurba_marseille","lat":43.31362,"lon":5.38492,"is_reserved":false,"is_disabled":false,"rental_uris":{"android":"levelo://app?vid=628c9361-3d68-4678-b48b-1aeec419f7df","ios":"levelo://app?vid=628c9361-3d68-4678-b48b-1aeec419f7df"},"vehicle_type_id":"4","last_reported":1746828580,"current_range_meters":24800,"station_id":"ce4bgt92rcd13ifvqcf0","pricing_plan_id":"cebpf4jnsgd1na2vs0mg"},{"bike_id":"ffc4eb35-4972-46b9-9b5c-ebdb2e301dde","system_id":"levelo_inurba_marseille","lat":43.30887,"lon":5.39651,"is_reserved":false,"is_disabled":false,"rental_uris":{"android":"levelo://app?vid=ffc4eb35-4972-46b9-9b5c-ebdb2e301dde","ios":"levelo://app?vid=ffc4eb35-4972-46b9-9b5c-ebdb2e301dde"},"vehicle_type_id":"4","last_reported":1746828580,"current_range_meters":24400,"station_id":"ce4bh012rcd13ifvqcv0","pricing_plan_id":"cebpf4jnsgd1na2vs0mg"},{"bike_id":"c82eb7c9-adf4-4548-9b31-745b743ede6e","system_id":"levelo_inurba_marseille","lat":43.32381,"lon":5.38873,"is_reserved":false,"is_disabled":false,"rental_uris":{"android":"levelo://app?vid=c82eb7c9-adf4-4548-9b31-745b743ede6e","ios":"levelo://app?vid=c82eb7c9-adf4-4548-9b31-745b743ede6e"},"vehicle_type_id":"4","last_reported":1746828580,"current_range_meters":24800,"station_id":"ce4bhqp2rcd13ifvqhog","pricing_plan_id":"cebpf4jnsgd1na2vs0mg"},{"bike_id":"690b583a-aa04-44c9-9168-06d2901bbf66","system_id":"levelo_inurba_marseille","lat":43.29637,"lon":5.40596,"is_reserved":false,"is_disabled":false,"rental_uris":{"android":"levelo://app?vid=690b583a-aa04-44c9-9168-06d2901bbf66","ios":"levelo://app?vid=690b583a-aa04-44c9-9168-06d2901bbf66"},"vehicle_type_id":"4","last_reported":1746828580,"current_range_meters":24800,"station_id":"ce4bh0h2rcd13ifvqd60","pricing_plan_id":"cebpf4jnsgd1na2vs0mg"},{"bike_id":"b8ea2ad5-fdd3-4164-89a1-16dee4a82bf0","system_id":"levelo_inurba_marseille","lat":43.31705,"lon":5.37772,"is_reserved":false,"is_disabled":false,"rental_uris":{"android":"levelo://app?vid=b8ea2ad5-fdd3-4164-89a1-16dee4a82bf0","ios":"levelo://app?vid=b8ea2ad5-fdd3-4164-89a1-16dee4a82bf0"},"vehicle_type_id":"4","last_reported":1746828580,"current_range_meters":24800,"station_id":"ce4bgth2rcd13ifvqch0","pricing_plan_id":"cebpf4jnsgd1na2vs0mg"},{"bike_id":"a10e6ba4-7aa1-41c8-88ba-8579c25d57b4","system_id":"levelo_inurba_marseille","lat":43.31366,"lon":5.38497,"is_reserved":false,"is_disabled":false,"rental_uris":{"android":"levelo://app?vid=a10e6ba4-7aa1-41c8-88ba-8579c25d57b4","ios":"levelo://app?vid=a10e6ba4-7aa1-41c8-88ba-8579c25d57b4"},"vehicle_type_id":"4","last_reported":1746828580,"current_range_meters":24800,"station_id":"ce4bgt92rcd13ifvqcf0","pricing_plan_id":"cebpf4jnsgd1na2vs0mg"},{"bike_id":"351ef218-24e5-4670-825d-fc1ac5cd3c19","system_id":"levelo_inurba_marseille","lat":43.31508,"lon":5.37296,"is_reserved":false,"is_disabled":false,"rental_uris":{"android":"levelo://app?vid=351ef218-24e5-4670-825d-fc1ac5cd3c19","ios":"levelo://app?vid=351ef218-24e5-4670-825d-fc1ac5cd3c19"},"vehicle_type_id":"4","last_reported":1746828580,"current_range_meters":24800,"station_id":"ce4bgt12rcd13ifvqcd0","pricing_plan_id":"cebpf4jnsgd1na2vs0mg"},{"bike_id":"e5ff4d68-c353-4adb-8ad5-24e4073bfbe2","system_id":"levelo_inurba_marseille","lat":43.29253,"lon":5.4091,"is_reserved":false,"is_disabled":false,"rental_uris":{"android":"levelo://app?vid=e5ff4d68-c353-4adb-8ad5-24e4073bfbe2","ios":"levelo://app?vid=e5ff4d68-c353-4adb-8ad5-24e4073bfbe2"},"vehicle_type_id":"4","last_reported":1746828580,"current_range_meters":24800,"station_id":"ce4bh192rcd13ifvqdc0","pricing_plan_id":"cebpf4jnsgd1na2vs0mg"},{"bike_id":"bc3bf4a5-5643-43d7-b747-535971cb56ca","system_id":"levelo_inurba_marseille","lat":43.30931,"lon":5.40137,"is_reserved":false,"is_disabled":false,"rental_uris":{"android":"levelo://app?vid=bc3bf4a5-5643-43d7-b747-535971cb56ca","ios":"levelo://app?vid=bc3bf4a5-5643-43d7-b747-535971cb56ca"},"vehicle_type_id":"4","last_reported":1746828580,"current_range_meters":25200,"station_id":"ce4bgvp2rcd13ifvqct0","pricing_plan_id":"cebpf4jnsgd1na2vs0mg"},{"bike_id":"cb360625-bf99-4647-86fd-aa2204d2019f","system_id":"levelo_inurba_marseille","lat":43.24385,"lon":5.37048,"is_reserved":false,"is_disabled":false,"rental_uris":{"android":"levelo://app?vid=cb360625-bf99-4647-86fd-aa2204d2019f","ios":"levelo://app?vid=cb360625-bf99-4647-86fd-aa2204d2019f"},"vehicle_type_id":"4","last_reported":1746828580,"current_range_meters":25200,"station_id":"ce4bhhh2rcd13ifvqfk0","pricing_plan_id":"cebpf4jnsgd1na2vs0mg"},{"bike_id":"152b04ea-c6dd-4115-9290-ddd4779b0e48","system_id":"levelo_inurba_marseille","lat":43.27314,"lon":5.39073,"is_reserved":false,"is_disabled":false,"rental_uris":{"android":"levelo://app?vid=152b04ea-c6dd-4115-9290-ddd4779b0e48","ios":"levelo://app?vid=152b04ea-c6dd-4115-9290-ddd4779b0e48"},"vehicle_type_id":"4","last_reported":1746828580,"current_range_meters":24800,"station_id":"ce4bhgp2rcd13ifvqfe0","pricing_plan_id":"cebpf4jnsgd1na2vs0mg"},{"bike_id":"23da8155-6dda-439c-a15e-a8021246f18b","system_id":"levelo_inurba_marseille","lat":43.24808,"lon":5.37456,"is_reserved":false,"is_disabled":false,"rental_uris":{"android":"levelo://app?vid=23da8155-6dda-439c-a15e-a8021246f18b","ios":"levelo://app?vid=23da8155-6dda-439c-a15e-a8021246f18b"},"vehicle_type_id":"4","last_reported":1746828580,"current_range_meters":25200,"station_id":"ce4bhgh2rcd13ifvqfb0","pricing_plan_id":"cebpf4jnsgd1na2vs0mg"},{"bike_id":"185c4417-1e27-491b-96af-bfd201c0289e","system_id":"levelo_inurba_marseille","lat":43.32249,"lon":5.39227,"is_reserved":false,"is_disabled":false,"rental_uris":{"android":"levelo://app?vid=185c4417-1e27-491b-96af-bfd201c0289e","ios":"levelo://app?vid=185c4417-1e27-491b-96af-bfd201c0289e"},"vehicle_type_id":"4","last_reported":1746828580,"current_range_meters":25200,"station_id":"","pricing_plan_id":"cebpf4jnsgd1na2vs0mg"},{"bike_id":"cf9adcf7-26b2-43df-a132-309a6c43c4bc","system_id":"levelo_inurba_marseille","lat":43.24811,"lon":5.3745,"is_reserved":false,"is_disabled":false,"rental_uris":{"android":"levelo://app?vid=cf9adcf7-26b2-43df-a132-309a6c43c4bc","ios":"levelo://app?vid=cf9adcf7-26b2-43df-a132-309a6c43c4bc"},"vehicle_type_id":"4","last_reported":1746828580,"current_range_meters":25200,"station_id":"ce4bhgh2rcd13ifvqfb0","pricing_plan_id":"cebpf4jnsgd1na2vs0mg"},{"bike_id":"21233236-2456-414e-ba2f-9d04b5682a71","system_id":"levelo_inurba_marseille","lat":43.23967,"lon":5.36629,"is_reserved":false,"is_disabled":false,"rental_uris":{"android":"levelo://app?vid=21233236-2456-414e-ba2f-9d04b5682a71","ios":"levelo://app?vid=21233236-2456-414e-ba2f-9d04b5682a71"},"vehicle_type_id":"4","last_reported":1746828580,"current_range_meters":25200,"station_id":"ce4bhi12rcd13ifvqfp0","pricing_plan_id":"cebpf4jnsgd1na2vs0mg"},{"bike_id":"4c2bd6d2-5c16-4174-989d-da02dac7ffca","system_id":"levelo_inurba_marseille","lat":43.27379,"lon":5.36253,"is_reserved":false,"is_disabled":false,"rental_uris":{"android":"levelo://app?vid=4c2bd6d2-5c16-4174-989d-da02dac7ffca","ios":"levelo://app?vid=4c2bd6d2-5c16-4174-989d-da02dac7ffca"},"vehicle_type_id":"4","last_reported":1746828580,"current_range_meters":24800,"station_id":"ce4bhbh2rcd13ifvqeo0","pricing_plan_id":"cebpf4jnsgd1na2vs0mg"},{"bike_id":"37733380-909a-4cd2-9eb0-0b16569a89f4","system_id":"levelo_inurba_marseille","lat":43.294423,"lon":5.397607,"is_reserved":false,"is_disabled":true,"rental_uris":{"android":"levelo://app?vid=37733380-909a-4cd2-9eb0-0b16569a89f4","ios":"levelo://app?vid=37733380-909a-4cd2-9eb0-0b16569a89f4"},"vehicle_type_id":"4","last_reported":1746828580,"current_range_meters":25200,"station_id":"ce4bh3h2rcd13ifvqdo0","pricing_plan_id":"cebpf4jnsgd1na2vs0mg"},{"bike_id":"4c983f63-468e-4361-a7cd-3129b596357a","system_id":"levelo_inurba_marseille","lat":43.30809,"lon":5.38155,"is_reserved":false,"is_disabled":false,"rental_uris":{"android":"levelo://app?vid=4c983f63-468e-4361-a7cd-3129b596357a","ios":"levelo://app?vid=4c983f63-468e-4361-a7cd-3129b596357a"},"vehicle_type_id":"4","last_reported":1746828580,"current_range_meters":25200,"station_id":"ce4bgt12rcd13ifvqce0","pricing_plan_id":"cebpf4jnsgd1na2vs0mg"},{"bike_id":"a8c3e555-d0a1-4687-9add-b2f9678be02e","system_id":"levelo_inurba_marseille","lat":43.31183,"lon":5.40762,"is_reserved":false,"is_disabled":false,"rental_uris":{"android":"levelo://app?vid=a8c3e555-d0a1-4687-9add-b2f9678be02e","ios":"levelo://app?vid=a8c3e555-d0a1-4687-9add-b2f9678be02e"},"vehicle_type_id":"4","last_reported":1746828580,"current_range_meters":25600,"station_id":"","pricing_plan_id":"cebpf4jnsgd1na2vs0mg"},{"bike_id":"28cdeca5-6903-4c91-bce2-491f70daf2d0","system_id":"levelo_inurba_marseille","lat":43.22933,"lon":5.35379,"is_reserved":false,"is_disabled":false,"rental_uris":{"android":"levelo://app?vid=28cdeca5-6903-4c91-bce2-491f70daf2d0","ios":"levelo://app?vid=28cdeca5-6903-4c91-bce2-491f70daf2d0"},"vehicle_type_id":"4","last_reported":1746828580,"current_range_meters":25600,"station_id":"cpo3532slgdg3j2ikp40","pricing_plan_id":"cebpf4jnsgd1na2vs0mg"},{"bike_id":"037886a8-765c-46b3-92c4-24a3df712eed","system_id":"levelo_inurba_marseille","lat":43.29272,"lon":5.38443,"is_reserved":false,"is_disabled":false,"rental_uris":{"android":"levelo://app?vid=037886a8-765c-46b3-92c4-24a3df712eed","ios":"levelo://app?vid=037886a8-765c-46b3-92c4-24a3df712eed"},"vehicle_type_id":"4","last_reported":1746828580,"current_range_meters":25600,"station_id":"ce4bh692rcd13ifvqea0","pricing_plan_id":"cebpf4jnsgd1na2vs0mg"},{"bike_id":"85bb6706-184e-4c20-b189-fb44e57e0531","system_id":"levelo_inurba_marseille","lat":43.316931,"lon":5.404711,"is_reserved":false,"is_disabled":false,"rental_uris":{"android":"levelo://app?vid=85bb6706-184e-4c20-b189-fb44e57e0531","ios":"levelo://app?vid=85bb6706-184e-4c20-b189-fb44e57e0531"},"vehicle_type_id":"4","last_reported":1746828580,"current_range_meters":26000,"station_id":"ce4bh012rcd13ifvqd00","pricing_plan_id":"cebpf4jnsgd1na2vs0mg"},{"bike_id":"2271fa04-395c-466a-8b4d-caf101604191","system_id":"levelo_inurba_marseille","lat":43.3089,"lon":5.37193,"is_reserved":false,"is_disabled":false,"rental_uris":{"android":"levelo://app?vid=2271fa04-395c-466a-8b4d-caf101604191","ios":"levelo://app?vid=2271fa04-395c-466a-8b4d-caf101604191"},"vehicle_type_id":"4","last_reported":1746828580,"current_range_meters":25600,"station_id":"ce4bguh2rcd13ifvqckg","pricing_plan_id":"cebpf4jnsgd1na2vs0mg"},