{"last_updated":1727514473,"ttl":60,"version":"2.2","data":{"bikes":[{"bike_id":"20d1ff8d-32f2-4072-9d5b-b28a28cc68af","system_id":"levelo_inurba_marseille","lat":43.29924,"lon":5.38117,"is_reserved":false,"is_disabled":false,"rental_uris":{"android":"levelo://app?vid=20d1ff8d-32f2-4072-9d5b-b28a28cc68af","ios":"levelo://app?vid=20d1ff8d-32f2-4072-9d5b-b28a28cc68af"},"vehicle_type_id":"4","last_reported":1727514473,"current_range_meters":38800,"station_id":"ce4bgj12rcd13ifvqbc0","pricing_plan_id":"cebpf4jnsgd1na2vs0mg"},{"bike_id":"f2602725-d633-43ab-bd38-fb1227eda7aa","system_id":"levelo_inurba_marseille","lat":43.29842,"lon":5.36263,"is_reserved":false,"is_disabled":false,"rental_uris":{"android":"levelo://app?vid=f2602725-d633-43ab-bd38-fb1227eda7aa","ios":"levelo://app?vid=f2602725-d633-43ab-bd38-fb1227eda7aa"},"vehicle_type_id":"4","last_reported":1727514473,"current_range_meters":38800,"station_id":"ce4bgpp2rcd13ifvqc3g","pricing_plan_id":"cebpf4jnsgd1na2vs0mg"},{"bike_id":"846f789c-bcad-47ce-b7b4-e257566b119c","system_id":"levelo_inurba_marseille","lat":43.27917,"lon":5.39578,"is_reserved":false,"is_disabled":false,"rental_uris":{"android":"levelo://app?vid=846f789c-bcad-47ce-b7b4-e257566b119c","ios":"levelo://app?vid=846f789c-bcad-47ce-b7b4-e257566b119c"},"vehicle_type_id":"4","last_reported":1727514473,"current_range_meters":20800,"station_id":"ce4bhf92rcd13ifvqf40","pricing_plan_id":"cebpf4jnsgd1na2vs0mg"},{"bike_id":"e7081ef8-8a32-46a8-a293-c48ce527862e","system_id":"levelo_inurba_marseille","lat":43.34502,"lon":5.41626,"is_reserved":false,"is_disabled":false,"rental_uris":{"android":"levelo://app?vid=e7081ef8-8a32-46a8-a293-c48ce527862e","ios":"levelo://app?vid=e7081ef8-8a32-46a8-a293-c48ce527862e"},"vehicle_type_id":"4","last_reported":1727514473,"current_range_meters":6000,"station_id":"","pricing_plan_id":"cebpf4jnsgd1na2vs0mg"},{"bike_id":"a29d41d5-e7bc-4d60-8ced-60cf76942003","system_id":"levelo_inurba_marseille","lat":43.24659,"lon":5.38159,"is_reserved":false,"is_disabled":false,"rental_uris":{"android":"levelo://app?vid=a29d41d5-e7bc-4d60-8ced-60cf76942003","ios":"levelo://app?vid=a29d41d5-e7bc-4d60-8ced-60cf76942003"},"vehicle_type_id":"4","last_reported":1727514473,"current_range_meters":30400,"station_id":"ce4bhih2rcd13ifvqfr0","pricing_plan_id":"cebpf4jnsgd1na2vs0mg"},{"bike_id":"7d2b8ae5-a311-441c-8299-d845eab1a890","system_id":"levelo_inurba_marseille","lat":43.29532,"lon":5.38544,"is_reserved":false,"is_disabled":false,"rental_uris":{"android":"levelo://app?vid=7d2b8ae5-a311-441c-8299-d845eab1a890","ios":"levelo://app?vid=7d2b8ae5-a311-441c-8299-d845eab1a890"},"vehicle_type_id":"4","last_reported":1727514473,"current_range_meters":8800,"station_id":"ce4bgih2rcd13ifvqba0","pricing_plan_id":"cebpf4jnsgd1na2vs0mg"},{"bike_id":"c1de1038-82e5-4f5c-9ce7-6a81edc3cc9f","system_id":"levelo_inurba_marseille","lat":43.31711,"lon":5.377453,"is_reserved":false,"is_disabled":false,"rental_uris":{"android":"levelo://app?vid=c1de1038-82e5-4f5c-9ce7-6a81edc3cc9f","ios":"levelo://app?vid=c1de1038-82e5-4f5c-9ce7-6a81edc3cc9f"},"vehicle_type_id":"4","last_reported":1727514473,"current_range_meters":2000,"station_id":"ce4bgth2rcd13ifvqch0","pricing_plan_id":"cebpf4jnsgd1na2vs0mg"},{"bike_id":"065bacd5-9929-4380-91c4-587ad3f90b3f","system_id":"levelo_inurba_marseille","lat":43.312749,"lon":5.40164,"is_reserved":false,"is_disabled":false,"rental_uris":{"android":"levelo://app?vid=065bacd5-9929-4380-91c4-587ad3f90b3f","ios":"levelo://app?vid=065bacd5-9929-4380-91c4-587ad3f90b3f"},"vehicle_type_id":"4","last_reported":1727514473,"current_range_meters":39200,"station_id":"ce4bh092rcd13ifvqd30","pricing_plan_id":"cebpf4jnsgd1na2vs0mg"},{"bike_id":"c42bda2a-576f-4405-9ceb-4d1e065cf644","system_id":"levelo_inurba_marseille","lat":43.27951,"lon":5.41049,"is_reserved":false,"is_disabled":false,"rental_uris":{"android":"levelo://app?vid=c42bda2a-576f-4405-9ceb-4d1e065cf644","ios":"levelo://app?vid=c42bda2a-576f-4405-9ceb-4d1e065cf644"},"vehicle_type_id":"4","last_reported":1727514473,"current_range_meters":38000,"station_id":"ce4bhnp2rcd13ifvqh0g","pricing_plan_id":"cebpf4jnsgd1na2vs0mg"},{"bike_id":"8c27e7d2-a853-4d94-a561-d02e9ff09cc7","system_id":"levelo_inurba_marseille","lat":43.29958,"lon":5.41317,"is_reserved":false,"is_disabled":false,"rental_uris":{"android":"levelo://app?vid=8c27e7d2-a853-4d94-a561-d02e9ff09cc7","ios":"levelo://app?vid=8c27e7d2-a853-4d94-a561-d02e9ff09cc7"},"vehicle_type_id":"4","last_reported":1727514473,"current_range_meters":33600,"station_id":"ce4bhp12rcd13ifvqh9g","pricing_plan_id":"cebpf4jnsgd1na2vs0mg"},{"bike_id":"4ee75cd2-2c69-4667-9e6e-c7a2e6ef1a89","system_id":"levelo_inurba_marseille","lat":43.33771,"lon":5.37462,"is_reserved":false,"is_disabled":false,"rental_uris":{"android":"levelo://app?vid=4ee75cd2-2c69-4667-9e6e-c7a2e6ef1a89","ios":"levelo://app?vid=4ee75cd2-2c69-4667-9e6e-c7a2e6ef1a89"},"vehicle_type_id":"4","last_reported":1727514473,"current_range_meters":26000,"station_id":"","pricing_plan_id":"cebpf4jnsgd1na2vs0mg"},{"bike_id":"02c6d3d8-077a-4c1a-ae87-92ce1ff0942b","system_id":"levelo_inurba_marseille","lat":43.23191,"lon":5.39987,"is_reserved":false,"is_disabled":false,"rental_uris":{"android":"levelo://app?vid=02c6d3d8-077a-4c1a-ae87-92ce1ff0942b","ios":"levelo://app?vid=02c6d3d8-077a-4c1a-ae87-92ce1ff0942b"},"vehicle_type_id":"4","last_reported":1727514473,"current_range_meters":22800,"station_id":"ce4bhn12rcd13ifvqgqg","pricing_plan_id":"cebpf4jnsgd1na2vs0mg"},{"bike_id":"86ab9e15-2330-4229-871b-cd4aa2f273d2","system_id":"levelo_inurba_marseille","lat":43.32818,"lon":5.40552,"is_reserved":false,"is_disabled":false,"rental_uris":{"android":"levelo://app?vid=86ab9e15-2330-4229-871b-cd4aa2f273d2","ios":"levelo://app?vid=86ab9e15-2330-4229-871b-cd4aa2f273d2"},"vehicle_type_id":"4","last_reported":1727514473,"current_range_meters":3200,"station_id":"","pricing_plan_id":"cebpf4jnsgd1na2vs0mg"},{"bike_id":"a4a2f0c3-49a8-4928-8430-9d7576a0a2ee","system_id":"levelo_inurba_marseille","lat":43.27499,"lon":5.42452,"is_reserved":false,"is_disabled":false,"rental_uris":{"android":"levelo://app?vid=a4a2f0c3-49a8-4928-8430-9d7576a0a2ee","ios":"levelo://app?vid=a4a2f0c3-49a8-4928-8430-9d7576a0a2ee"},"vehicle_type_id":"4","last_reported":1727514473,"current_range_meters":24800,"station_id":"ce4bhn92rcd13ifvqgrg","pricing_plan_id":"cebpf4jnsgd1na2vs0mg"},{"bike_id":"fd95b7d0-9465-4ced-a887-157866b5f796","system_id":"levelo_inurba_marseille","lat":43.28077,"lon":5.39654,"is_reserved":false,"is_disabled":false,"rental_uris":{"android":"levelo://app?vid=fd95b7d0-9465-4ced-a887-157866b5f796","ios":"levelo://app?vid=fd95b7d0-9465-4ced-a887-157866b5f796"},"vehicle_type_id":"4","last_reported":1727514473,"current_range_meters":38800,"station_id":"ce4bho12rcd13ifvqh2g","pricing_plan_id":"cebpf4jnsgd1na2vs0mg"},{"bike_id":"9b75a29d-f1a9-4fde-909a-755a96ab8371","system_id":"levelo_inurba_marseille","lat":43.28271,"lon":5.35083,"is_reserved":false,"is_disabled":false,"rental_uris":{"android":"levelo://app?vid=9b75a29d-f1a9-4fde-909a-755a96ab8371","ios":"levelo://app?vid=9b75a29d-f1a9-4fde-909a-755a96ab8371"},"vehicle_type_id":"4","last_reported":1727514473,"current_range_meters":38800,"station_id":"ce4bhbp2rcd13ifvqerg","pricing_plan_id":"cebpf4jnsgd1na2vs0mg"},{"bike_id":"547e2159-7a4b-4c55-aede-f3c45615a7fa","system_id":"levelo_inurba_marseille","lat":43.23153,"lon":5.43708,"is_reserved":false,"is_disabled":false,"rental_uris":{"android":"levelo://app?vid=547e2159-7a4b-4c55-aede-f3c45615a7fa","ios":"levelo://app?vid=547e2159-7a4b-4c55-aede-f3c45615a7fa"},"vehicle_type_id":"4","last_reported":1727514473,"current_range_meters":36800,"station_id":"ce4bhmp2rcd13ifvqgog","pricing_plan_id":"cebpf4jnsgd1na2vs0mg"},{"bike_id":"545c1e80-750c-4fa3-afa3-2d3cc0461c24","system_id":"levelo_inurba_marseille","lat":43.29419,"lon":5.38619,"is_reserved":false,"is_disabled":false,"rental_uris":{"android":"levelo://app?vid=545c1e80-750c-4fa3-afa3-2d3cc0461c24","ios":"levelo://app?vid=545c1e80-750c-4fa3-afa3-2d3cc0461c24"},"vehicle_type_id":"4","last_reported":1727514473,"current_range_meters":8400,"station_id":"ce4bh2h2rcd13ifvqdh0","pricing_plan_id":"cebpf4jnsgd1na2vs0mg"},{"bike_id":"c543638b-66db-4ba8-9e27-219e9fef5c8a","system_id":"levelo_inurba_marseille","lat":43.27842,"lon":5.39217,"is_reserved":false,"is_disabled":false,"rental_uris":{"android":"levelo://app?vid=c543638b-66db-4ba8-9e27-219e9fef5c8a","ios":"levelo://app?vid=c543638b-66db-4ba8-9e27-219e9fef5c8a"},"vehicle_type_id":"4","last_reported":1727514473,"current_range_meters":4400,"station_id":"ce4bhjp2rcd13ifvqga0","pricing_plan_id":"cebpf4jnsgd1na2vs0mg"},{"bike_id":"83ab67e9-9683-40ac-9b80-c07390469159","system_id":"levelo_inurba_marseille","lat":43.22926,"lon":5.35385,"is_reserved":false,"is_disabled":false,"rental_uris":{"android":"levelo://app?vid=83ab67e9-9683-40ac-9b80-c07390469159","ios":"levelo://app?vid=83ab67e9-9683-40ac-9b80-c07390469159"},"vehicle_type_id":"4","last_reported":1727514473,"current_range_meters":38000,"station_id":"cpo3532slgdg3j2ikp40","pricing_plan_id":"cebpf4jnsgd1na2vs0mg"},{"bike_id":"1b893d04-61f0-4747-8a4f-ae4e1314d15d","system_id":"levelo_inurba_marseille","lat":43.25088,"lon":5.39524,"is_reserved":false,"is_disabled":false,"rental_uris":{"android":"levelo://app?vid=1b893d04-61f0-4747-8a4f-ae4e1314d15d","ios":"levelo://app?vid=1b893d04-61f0-4747-8a4f-ae4e1314d15d"},"vehicle_type_id":"4","last_reported":1727514473,"current_range_meters":9200,"station_id":"ce4bhm12rcd13ifvqgkg","pricing_plan_id":"cebpf4jnsgd1na2vs0mg"},{"bike_id":"73d4b1b9-8fa7-45c3-b819-17c2aa182b44","system_id":"levelo_inurba_marseille","lat":43.29565,"lon":5.42292,"is_reserved":false,"is_disabled":false,"rental_uris":{"android":"levelo://app?vid=73d4b1b9-8fa7-45c3-b819-17c2aa182b44","ios":"levelo://app?vid=73d4b1b9-8fa7-45c3-b819-17c2aa182b44"},"vehicle_type_id":"4","last_reported":1727514473,"current_range_meters":10800,"station_id":"ce4bhph2rcd13ifvqhdg","pricing_plan_id":"cebpf4jnsgd1na2vs0mg"},{"bike_id":"8524a85f-8427-4a60-91b5-869fad39ff42","system_id":"levelo_inurba_marseille","lat":43.25,"lon":5.38926,"is_reserved":false,"is_disabled":false,"rental_uris":{"android":"levelo://app?vid=8524a85f-8427-4a60-91b5-869fad39ff42","ios":"levelo://app?vid=8524a85f-8427-4a60-91b5-869fad39ff42"},"vehicle_type_id":"4","last_reported":1727514473,"current_range_meters":38000,"station_id":"ce4bhgp2rcd13ifvqfd0","pricing_plan_id":"cebpf4jnsgd1na2vs0mg"},{"bike_id":"3dcb4d19-9f2a-4c72-b340-cfe0fcbad6e1","system_id":"levelo_inurba_marseille","lat":43.2583,"lon":5.39425,"is_reserved":false,"is_disabled":false,"rental_uris":{"android":"levelo://app?vid=3dcb4d19-9f2a-4c72-b340-cfe0fcbad6e1","ios":"levelo://app?vid=3dcb4d19-9f2a-4c72-b340-cfe0fcbad6e1"},"vehicle_type_id":"4","last_reported":1727514473,"current_range_meters":38000,"station_id":"ce4bhip2rcd13ifvqft0","pricing_plan_id":"cebpf4jnsgd1na2vs0mg"},{"bike_id":"6fb54eef-1b79-4c8c-956c-b78c5752a631","system_id":"levelo_inurba_marseille","lat":43.25827,"lon":5.39441,"is_reserved":false,"is_disabled":false,"rental_uris":{"android":"levelo://app?vid=6fb54eef-1b79-4c8c-956c-b78c5752a631","ios":"levelo://app?vid=6fb54eef-1b79-4c8c-956c-b78c5752a631"},"vehicle_type_id":"4","last_reported":1727514473,"current_range_meters":7200,"station_id":"ce4bhip2rcd13ifvqft0","pricing_plan_id":"cebpf4jnsgd1na2vs0mg"},{"bike_id":"0abfa85f-e51b-42a4-82e2-778eb183e74e","system_id":"levelo_inurba_marseille","lat":43.31529,"lon":5.38043,"is_reserved":false,"is_disabled":false,"rental_uris":{"android":"levelo://app?vid=0abfa85f-e51b-42a4-82e2-778eb183e74e","ios":"levelo://app?vid=0abfa85f-e51b-42a4-82e2-778eb183e74e"},"vehicle_type_id":"4","last_reported":1727514473,"current_range_meters":37600,"station_id":"ce4bhsp2rcd13ifvqi50","pricing_plan_id":"cebpf4jnsgd1na2vs0mg"},{"bike_id":"cd0ff3e3-3daa-42bc-9697-566bcaf7ff3a","system_id":"levelo_inurba_marseille","lat":43.33023,"lon":5.39038,"is_reserved":false,"is_disabled":false,"rental_uris":{"android":"levelo://app?vid=cd0ff3e3-3daa-42bc-9697-566bcaf7ff3a","ios":"levelo://app?vid=cd0ff3e3-3daa-42bc-9697-566bcaf7ff3a"},"vehicle_type_id":"4","last_reported":1727514473,"current_range_meters":38800,"station_id":"ce4bhr92rcd13ifvqhrg","pricing_plan_id":"cebpf4jnsgd1na2vs0mg"},{"bike_id":"970ed6c2-2feb-4ccd-944e-1bcd46f61bb3","system_id":"levelo_inurba_marseille","lat":43.28154,"lon":5.42638,"is_reserved":false,"is_disabled":false,"rental_uris":{"android":"levelo://app?vid=970ed6c2-2feb-4ccd-944e-1bcd46f61bb3","ios":"levelo://app?vid=970ed6c2-2feb-4ccd-944e-1bcd46f61bb3"},"vehicle_type_id":"4","last_reported":1727514473,"current_range_meters":38400,"station_id":"ce4bhnh2rcd13ifvqgug","pricing_plan_id":"cebpf4jnsgd1na2vs0mg"},{"bike_id":"7fab7451-a6e0-472b-81ac-3e5565e130d8","system_id":"levelo_inurba_marseille","lat":43.33752,"lon":5.37361,"is_reserved":false,"is_disabled":false,"rental_uris":{"android":"levelo://app?vid=7fab7451-a6e0-472b-81ac-3e5565e130d8","ios":"levelo://app?vid=7fab7451-a6e0-472b-81ac-3e5565e130d8"},"vehicle_type_id":"4","last_reported":1727514473,"current_range_meters":23200,"station_id":"","pricing_plan_id":"cebpf4jnsgd1na2vs0mg"},{"bike_id":"ccb0399a-af8d-4a08-a739-b071793d1a1b","system_id":"levelo_inurba_marseille","lat":43.31712,"lon":5.43704,"is_reserved":false,"is_disabled":false,"rental_uris":{"android":"levelo://app?vid=ccb0399a-af8d-4a08-a739-b071793d1a1b","ios":"levelo://app?vid=ccb0399a-af8d-4a08-a739-b071793d1a1b"},"vehicle_type_id":"4","last_reported":1727514473,"current_range_meters":22000,"station_id":"ce4bhp92rcd13ifvqhcg","pricing_plan_id":"cebpf4jnsgd1na2vs0mg"},{"bike_id":"06e383df-1197-449f-9df1-e723e6e5b745","system_id":"levelo_inurba_marseille","lat":43.23935,"lon":5.38277,"is_reserved":false,"is_disabled":false,"rental_uris":{"android":"levelo://app?vid=06e383df-1197-449f-9df1-e723e6e5b745","ios":"levelo://app?vid=06e383df-1197-449f-9df1-e723e6e5b745"},"vehicle_type_id":"4","last_reported":1727514473,"current_range_meters":8800,"station_id":"","pricing_plan_id":"cebpf4jnsgd1na2vs0mg"},{"bike_id":"e19c2211-331c-42ae-b78a-4ecc2a7133fe","system_id":"levelo_inurba_marseille","lat":43.24668,"lon":5.38157,"is_reserved":false,"is_disabled":false,"rental_uris":{"android":"levelo://app?vid=e19c2211-331c-42ae-b78a-4ecc2a7133fe","ios":"levelo://app?vid=e19c2211-331c-42ae-b78a-4ecc2a7133fe"},"vehicle_type_id":"4","last_reported":1727514473,"current_range_meters":39200,"station_id":"ce4bhih2rcd13ifvqfr0","pricing_plan_id":"cebpf4jnsgd1na2vs0mg"},{"bike_id":"6309b35e-70a6-4cf6-828d-1c3546ae70b2","system_id":"levelo_inurba_marseille","lat":43.29866,"lon":5.39728,"is_reserved":false,"is_disabled":false,"rental_uris":{"android":"levelo://app?vid=6309b35e-70a6-4cf6-828d-1c3546ae70b2","ios":"levelo://app?vid=6309b35e-70a6-4cf6-828d-1c3546ae70b2"},"vehicle_type_id":"4","last_reported":1727514473,"current_range_meters":35600,"station_id":"ce4bh0h2rcd13ifvqd50","pricing_plan_id":"cebpf4jnsgd1na2vs0mg"},{"bike_id":"53d3d543-4809-4f9c-a6c1-ced8bbb46e3b","system_id":"levelo_inurba_marseille","lat":43.24386,"lon":5.3705,"is_reserved":false,"is_disabled":false,"rental_uris":{"android":"levelo://app?vid=53d3d543-4809-4f9c-a6c1-ced8bbb46e3b","ios":"levelo://app?vid=53d3d543-4809-4f9c-a6c1-ced8bbb46e3b"},"vehicle_type_id":"4","last_reported":1727514473,"current_range_meters":39200,"station_id":"ce4bhhh2rcd13ifvqfk0","pricing_plan_id":"cebpf4jnsgd1na2vs0mg"},{"bike_id":"a00340c3-2a87-4b48-a268-ec041e1a44ab","system_id":"levelo_inurba_marseille","lat":43.337444,"lon":5.374475,"is_reserved":false,"is_disabled":false,"rental_uris":{"android":"levelo://app?vid=a00340c3-2a87-4b48-a268-ec041e1a44ab","ios":"levelo://app?vid=a00340c3-2a87-4b48-a268-ec041e1a44ab"},"vehicle_type_id":"4","last_reported":1727514473,"current_range_meters":12400,"station_id":"","pricing_plan_id":"cebpf4jnsgd1na2vs0mg"},{"bike_id":"85bea604-ee1a-4e44-ab64-edd92269dade","system_id":"levelo_inurba_marseille","lat":43.30154,"lon":5.38083,"is_reserved":false,"is_disabled":false,"rental_uris":{"android":"levelo://app?vid=85bea604-ee1a-4e44-ab64-edd92269dade","ios":"levelo://app?vid=85bea604-ee1a-4e44-ab64-edd92269dade"},"vehicle_type_id":"4","last_reported":1727514473,"current_range_meters":28400,"station_id":"ce4bgjp2rcd13ifvqbh0","pricing_plan_id":"cebpf4jnsgd1na2vs0mg"},{"bike_id":"d068d157-381d-413c-84d5-85045142d6df","system_id":"levelo_inurba_marseille","lat":43.24389,"lon":5.37057,"is_reserved":false,"is_disabled":false,"rental_uris":{"android":"levelo://app?vid=d068d157-381d-413c-84d5-85045142d6df","ios":"levelo://app?vid=d068d157-381d-413c-84d5-85045142d6df"},"vehicle_type_id":"4","last_reported":1727514473,"current_range_meters":38800,"station_id":"ce4bhhh2rcd13ifvqfk0","pricing_plan_id":"cebpf4jnsgd1na2vs0mg"},{"bike_id":"88c252b6-34e7-4889-9529-1e33eadcc1d0","system_id":"levelo_inurba_marseille","lat":43.27207,"lon":5.39178,"is_reserved":false,"is_disabled":false,"rental_uris":{"android":"levelo://app?vid=88c252b6-34e7-4889-9529-1e33eadcc1d0","ios":"levelo://app?vid=88c252b6-34e7-4889-9529-1e33eadcc1d0"},"vehicle_type_id":"4","last_reported":1727514473,"current_range_meters":36000,"station_id":"ce4bhhp2rcd13ifvqfm0","pricing_plan_id":"cebpf4jnsgd1na2vs0mg"},{"bike_id":"c57a2ddb-485c-41e1-b706-a97926a72245","system_id":"levelo_inurba_marseille","lat":43.30777,"lon":5.37654,"is_reserved":false,"is_disabled":false,"rental_uris":{"android":"levelo://app?vid=c57a2ddb-485c-41e1-b706-a97926a72245","ios":"levelo://app?vid=c57a2ddb-485c-41e1-b706-a97926a72245"},"vehicle_type_id":"4","last_reported":1727514473,"current_range_meters":18800,"station_id":"ce4bgv92rcd13ifvqcq0","pricing_plan_id":"cebpf4jnsgd1na2vs0mg"},{"bike_id":"8fe46ecc-1e67-4f19-8b8d-10a6acd8bd0b","system_id":"levelo_inurba_marseille","lat":43.26006,"lon":5.38677,"is_reserved":false,"is_disabled":false,"rental_uris":{"android":"levelo://app?vid=8fe46ecc-1e67-4f19-8b8d-10a6acd8bd0b","ios":"levelo://app?vid=8fe46ecc-1e67-4f19-8b8d-10a6acd8bd0b"},"vehicle_type_id":"4","last_reported":1727514473,"current_range_meters":9200,"station_id":"","pricing_plan_id":"cebpf4jnsgd1na2vs0mg"},{"bike_id":"4612683e-52cf-4e9f-91f5-e5e168d94f98","system_id":"levelo_inurba_marseille","lat":43.293651,"lon":5.378571,"is_reserved":false,"is_disabled":false,"rental_uris":{"android":"levelo://app?vid=4612683e-52cf-4e9f-91f5-e5e168d94f98","ios":"levelo://app?vid=4612683e-52cf-4e9f-91f5-e5e168d94f98"},"vehicle_type_id":"4","last_reported":1727514473,"current_range_meters":33200,"station_id":"ce4bgv12rcd13ifvqcp0","pricing_plan_id":"cebpf4jnsgd1na2vs0mg"},{"bike_id":"c647fa25-4515-48cf-86a6-88783cd9d0e0","system_id":"levelo_inurba_marseille","lat":43.2928,"lon":5.40121,"is_reserved":false,"is_disabled":false,"rental_uris":{"android":"levelo://app?vid=c647fa25-4515-48cf-86a6-88783cd9d0e0","ios":"levelo://app?vid=c647fa25-4515-48cf-86a6-88783cd9d0e0"},"vehicle_type_id":"4","last_reported":1727514473,"current_range_meters":9200,"station_id":"ce4bh312rcd13ifvqdk0","pricing_plan_id":"cebpf4jnsgd1na2vs0mg"},{"bike_id":"09b742ea-02bc-4db4-8d45-c508b251e235","system_id":"levelo_inurba_marseille","lat":43.24546,"lon":5.39526,"is_reserved":false,"is_disabled":false,"rental_uris":{"android":"levelo://app?vid=09b742ea-02bc-4db4-8d45-c508b251e235","ios":"levelo://app?vid=09b742ea-02bc-4db4-8d45-c508b251e235"},"vehicle_type_id":"4","last_reported":1727514473,"current_range_meters":34000,"station_id":"ce4bhlp2rcd13ifvqgjg","pricing_plan_id":"cebpf4jnsgd1na2vs0mg"},{"bike_id":"d5265bda-67b4-48e9-9336-88e78a5ccea2","system_id":"levelo_inurba_marseille","lat":43.30539,"lon":5.36557,"is_reserved":false,"is_disabled":false,"rental_uris":{"android":"levelo://app?vid=d5265bda-67b4-48e9-9336-88e78a5ccea2","ios":"levelo://app?vid=d5265bda-67b4-48e9-9336-88e78a5ccea2"},"vehicle_type_id":"4","last_reported":1727514473,"current_range_meters":38800,"station_id":"ce4bgs12rcd13ifvqcag","pricing_plan_id":"cebpf4jnsgd1na2vs0mg"},{"bike_id":"afe5fcf5-fe1a-4d30-bfcd-4452c0d39cee","system_id":"levelo_inurba_marseille","lat":43.30149,"lon":5.38095,"is_reserved":false,"is_disabled":false,"rental_uris":{"android":"levelo://app?vid=afe5fcf5-fe1a-4d30-bfcd-4452c0d39cee","ios":"levelo://app?vid=afe5fcf5-fe1a-4d30-bfcd-4452c0d39cee"},"vehicle_type_id":"4","last_reported":1727514473,"current_range_meters":34800,"station_id":"ce4bgjp2rcd13ifvqbh0","pricing_plan_id":"cebpf4jnsgd1na2vs0mg"},{"bike_id":"18fe706d-5d4f-4216-9f71-d22fcd36a025","system_id":"levelo_inurba_marseille","lat":43.29296,"lon":5.37469,"is_reserved":false,"is_disabled":false,"rental_uris":{"android":"levelo://app?vid=18fe706d-5d4f-4216-9f71-d22fcd36a025","ios":"levelo://app?vid=18fe706d-5d4f-4216-9f71-d22fcd36a025"},"vehicle_type_id":"4","last_reported":1727514473,"current_range_meters":25200,"station_id":"ce4bgi12rcd13ifvqb70","pricing_plan_id":"cebpf4jnsgd1na2vs0mg"},{"bike_id":"6bc18573-095d-4d45-9e94-08d4635b8346","system_id":"levelo_inurba_marseille","lat":43.29527,"lon":5.3855,"is_reserved":false,"is_disabled":false,"rental_uris":{"android":"levelo://app?vid=6bc18573-095d-4d45-9e94-08d4635b8346","ios":"levelo://app?vid=6bc18573-095d-4d45-9e94-08d4635b8346"},"vehicle_type_id":"4","last_reported":1727514473,"current_range_meters":37600,"station_id":"ce4bgih2rcd13ifvqba0","pricing_plan_id":"cebpf4jnsgd1na2vs0mg"},{"bike_id":"e70a85af-042c-45b9-b461-16d315ee70d5","system_id":"levelo_inurba_marseille","lat":43.30566,"lon":5.3655,"is_reserved":false,"is_disabled":false,"rental_uris":{"android":"levelo://app?vid=e70a85af-042c-45b9-b461-16d315ee70d5","ios":"levelo://app?vid=e70a85af-042c-45b9-b461-16d315ee70d5"},"vehicle_type_id":"4","last_reported":1727514473,"current_range_meters":38800,"station_id":"","pricing_plan_id":"cebpf4jnsgd1na2vs0mg"},{"bike_id":"93b592c1-3637-4418-88f1-149375efabc7","system_id":"levelo_inurba_marseille","lat":43.30776,"lon":5.37657,"is_reserved":false,"is_disabled":false,"rental_uris":{"android":"levelo://app?vid=93b592c1-3637-4418-88f1-149375efabc7","ios":"levelo://app?vid=93b592c1-3637-4418-88f1-149375efabc7"},"vehicle_type_id":"4","last_reported":1727514473,"current_range_meters":34800,"station_id":"ce4bgv92rcd13ifvqcq0","pricing_plan_id":"cebpf4jnsgd1na2vs0mg"},{"bike_id":"6d2e0c7d-9a37-4e2b-8600-8680c8c9fb26","system_id":"levelo_inurba_marseille","lat":43.323364,"lon":5.406224,"is_reserved":false,"is_disabled":false,"rental_uris":{"android":"levelo://app?vid=6d2e0c7d-9a37-4e2b-8600-8680c8c9fb26","ios":"levelo://app?vid=6d2e0c7d-9a37-4e2b-8600-8680c8c9fb26"},"vehicle_type_id":"4","last_reported":1727514473,"current_range_meters":36000,"station_id":"ce4bhq92rcd13ifvqhjg","pricing_plan_id":"cebpf4jnsgd1na2vs0mg"},{"bike_id":"34210d1e-5120-452f-8bf4-0caac563929f","system_id":"levelo_inurba_marseille","lat":43.23192,"lon":5.39982,"is_reserved":false,"is_disabled":false,"rental_uris":{"android":"levelo://app?vid=34210d1e-5120-452f-8bf4-0caac563929f","ios":"levelo://app?vid=34210d1e-5120-452f-8bf4-0caac563929f"},"vehicle_type_id":"4","last_reported":1727514473,"current_range_meters":22000,"station_id":"ce4bhn12rcd13ifvqgqg","pricing_plan_id":"cebpf4jnsgd1na2vs0mg"},{"bike_id":"afd22b8f-da9e-49bd-b9c5-edbc00a92e9f","system_id":"levelo_inurba_marseille","lat":43.32658,"lon":5.40999,"is_reserved":false,"is_disabled":false,"rental_uris":{"android":"levelo://app?vid=afd22b8f-da9e-49bd-b9c5-edbc00a92e9f","ios":"levelo://app?vid=afd22b8f-da9e-49bd-b9c5-edbc00a92e9f"},"vehicle_type_id":"4","last_reported":1727514473,"current_range_meters":38800,"station_id":"ce4bhpp2rcd13ifvqhgg","pricing_plan_id":"cebpf4jnsgd1na2vs0mg"},{"bike_id":"869403bb-4fcc-4f66-8ec3-05c3e0e700b7","system_id":"levelo_inurba_marseille","lat":43.27428,"lon":5.39414,"is_reserved":false,"is_disabled":false,"rental_uris":{"android":"levelo://app?vid=869403bb-4fcc-4f66-8ec3-05c3e0e700b7","ios":"levelo://app?vid=869403bb-4fcc-4f66-8ec3-05c3e0e700b7"},"vehicle_type_id":"4","last_reported":1727514473,"current_range_meters":39200,"station_id":"ce4bhdp2rcd13ifvqf20","pricing_plan_id":"cebpf4jnsgd1na2vs0mg"},{"bike_id":"c7662f29-d977-460a-81ef-ae899ee53108","system_id":"levelo_inurba_marseille","lat":43.24549,"lon":5.39522,"is_reserved":false,"is_disabled":false,"rental_uris":{"android":"levelo://app?vid=c7662f29-d977-460a-81ef-ae899ee53108","ios":"levelo://app?vid=c7662f29-d977-460a-81ef-ae899ee53108"},"vehicle_type_id":"4","last_reported":1727514473,"current_range_meters":15200,"station_id":"ce4bhlp2rcd13ifvqgjg","pricing_plan_id":"cebpf4jnsgd1na2vs0mg"},{"bike_id":"2cbc9e6c-88f8-4917-a839-56ca300cece2","system_id":"levelo_inurba_marseille","lat":43.28612,"lon":5.37063,"is_reserved":false,"is_disabled":false,"rental_uris":{"android":"levelo://app?vid=2cbc9e6c-88f8-4917-a839-56ca300cece2","ios":"levelo://app?vid=2cbc9e6c-88f8-4917-a839-56ca300cece2"},"vehicle_type_id":"4","last_reported":1727514473,"current_range_meters":25200,"station_id":"ce4bht12rcd13ifvqi60","pricing_plan_id":"cebpf4jnsgd1na2vs0mg"},{"bike_id":"69ff64b2-90b6-40c6-96cc-57e6441f6bb9","system_id":"levelo_inurba_marseille","lat":43.29027,"lon":5.3998,"is_reserved":false,"is_disabled":false,"rental_uris":{"android":"levelo://app?vid=69ff64b2-90b6-40c6-96cc-57e6441f6bb9","ios":"levelo://app?vid=69ff64b2-90b6-40c6-96cc-57e6441f6bb9"},"vehicle_type_id":"4","last_reported":1727514473,"current_range_meters":39200,"station_id":"ce4bh392rcd13ifvqdm0","pricing_plan_id":"cebpf4jnsgd1na2vs0mg"},{"bike_id":"29fffc0f-5ee1-49fd-b093-b8286cc6dbdb","system_id":"levelo_inurba_marseille","lat":43.27814,"lon":5.40699,"is_reserved":false,"is_disabled":false,"rental_uris":{"android":"levelo://app?vid=29fffc0f-5ee1-49fd-b093-b8286cc6dbdb","ios":"levelo://app?vid=29fffc0f-5ee1-49fd-b093-b8286cc6dbdb"},"vehicle_type_id":"4","last_reported":1727514473,"current_range_meters":18800,"station_id":"ce4bhnh2rcd13ifvqgtg","pricing_plan_id":"cebpf4jnsgd1na2vs0mg"},{"bike_id":"cf2a99f0-171d-46e2-b5f9-b8e518581e33","system_id":"levelo_inurba_marseille","lat":43.23956,"lon":5.36635,"is_reserved":false,"is_disabled":false,"rental_uris":{"android":"levelo://app?vid=cf2a99f0-171d-46e2-b5f9-b8e518581e33","ios":"levelo://app?vid=cf2a99f0-171d-46e2-b5f9-b8e518581e33"},"vehicle_type_id":"4","last_reported":1727514473,"current_range_meters":38000,"station_id":"ce4bhi12rcd13ifvqfp0","pricing_plan_id":"cebpf4jnsgd1na2vs0mg"},{"bike_id":"92209333-4c80-4a5b-b959-847caf979aca","system_id":"levelo_inurba_marseille","lat":43.24642,"lon":5.38902,"is_reserved":false,"is_disabled":false,"rental_uris":{"android":"levelo://app?vid=92209333-4c80-4a5b-b959-847caf979aca","ios":"levelo://app?vid=92209333-4c80-4a5b-b959-847caf979aca"},"vehicle_type_id":"4","last_reported":1727514473,"current_range_meters":25200,"station_id":"ce4bhg12rcd13ifvqf60","pricing_plan_id":"cebpf4jnsgd1na2vs0mg"},{"bike_id":"65c8a0f3-336f-4dd0-b350-9a977bec0976","system_id":"levelo_inurba_marseille","lat":43.27953,"lon":5.4104,"is_reserved":false,"is_disabled":false,"rental_uris":{"android":"levelo://app?vid=65c8a0f3-336f-4dd0-b350-9a977bec0976","ios":"levelo://app?vid=65c8a0f3-336f-4dd0-b350-9a977bec0976"},"vehicle_type_id":"4","last_reported":1727514473,"current_range_meters":26000,"station_id":"ce4bhnp2rcd13ifvqh0g","pricing_plan_id":"cebpf4jnsgd1na2vs0mg"},{"bike_id":"05a65473-4528-4866-bef5-6a81102143b3","system_id":"levelo_inurba_marseille","lat":43.27915,"lon":5.39576,"is_reserved":false,"is_disabled":false,"rental_uris":{"android":"levelo://app?vid=05a65473-4528-4866-bef5-6a81102143b3","ios":"levelo://app?vid=05a65473-4528-4866-bef5-6a81102143b3"},"vehicle_type_id":"4","last_reported":1727514473,"current_range_meters":37600,"station_id":"ce4bhf92rcd13ifvqf40","pricing_plan_id":"cebpf4jnsgd1na2vs0mg"},{"bike_id":"4a51023c-f66d-404d-bcc8-1b489e6ee0bf","system_id":"levelo_inurba_marseille","lat":43.29966,"lon":5.37175,"is_reserved":false,"is_disabled":false,"rental_uris":{"android":"levelo://app?vid=4a51023c-f66d-404d-bcc8-1b489e6ee0bf","ios":"levelo://app?vid=4a51023c-f66d-404d-bcc8-1b489e6ee0bf"},"vehicle_type_id":"4","last_reported":1727514473,"current_range_meters":34800,"station_id":"ce4bgr92rcd13ifvqc7g","pricing_plan_id":"cebpf4jnsgd1na2vs0mg"},{"bike_id":"e173e9bf-3b91-451c-8346-16cb54836af9","system_id":"levelo_inurba_marseille","lat":43.24389,"lon":5.37055,"is_reserved":false,"is_disabled":false,"rental_uris":{"android":"levelo://app?vid=e173e9bf-3b91-451c-8346-16cb54836af9","ios":"levelo://app?vid=e173e9bf-3b91-451c-8346-16cb54836af9"},"vehicle_type_id":"4","last_reported":1727514473,"current_range_meters":38800,"station_id":"ce4bhhh2rcd13ifvqfk0","pricing_plan_id":"cebpf4jnsgd1na2vs0mg"},{"bike_id":"7db2ebac-ef38-4479-ab04-6dcff883ed81","system_id":"levelo_inurba_marseille","lat":43.28943,"lon":5.39626,"is_reserved":false,"is_disabled":false,"rental_uris":{"android":"levelo://app?vid=7db2ebac-ef38-4479-ab04-6dcff883ed81","ios":"levelo://app?vid=7db2ebac-ef38-4479-ab04-6dcff883ed81"},"vehicle_type_id":"4","last_reported":1727514473,"current_range_meters":30000,"station_id":"ce4bh3h2rcd13ifvqdn0","pricing_plan_id":"cebpf4jnsgd1na2vs0mg"},{"bike_id":"97c5a533-6d25-4531-aa6e-05e4055822e4","system_id":"levelo_inurba_marseille","lat":43.30283,"lon":5.37711,"is_reserved":false,"is_disabled":false,"rental_uris":{"android":"levelo://app?vid=97c5a533-6d25-4531-aa6e-05e4055822e4","ios":"levelo://app?vid=97c5a533-6d25-4531-aa6e-05e4055822e4"},"vehicle_type_id":"4","last_reported":1727514473,"current_range_meters":36400,"station_id":"ce4bguh2rcd13ifvqcj0","pricing_plan_id":"cebpf4jnsgd1na2vs0mg"},{"bike_id":"66090a2d-c8e8-444b-97ee-580cb870764a","system_id":"levelo_inurba_marseille","lat":43.27316,"lon":5.39108,"is_reserved":false,"is_disabled":false,"rental_uris":{"android":"levelo://app?vid=66090a2d-c8e8-444b-97ee-580cb870764a","ios":"levelo://app?vid=66090a2d-c8e8-444b-97ee-580cb870764a"},"vehicle_type_id":"4","last_reported":1727514473,"current_range_meters":8000,"station_id":"ce4bhgp2rcd13ifvqfe0","pricing_plan_id":"cebpf4jnsgd1na2vs0mg"},{"bike_id":"0b55a54a-cb93-429c-895c-43a1c40cd808","system_id":"levelo_inurba_marseille","lat":43.29279,"lon":5.36843,"is_reserved":false,"is_disabled":false,"rental_uris":{"android":"levelo://app?vid=0b55a54a-cb93-429c-895c-43a1c40cd808","ios":"levelo://app?vid=0b55a54a-cb93-429c-895c-43a1c40cd808"},"vehicle_type_id":"4","last_reported":1727514473,"current_range_meters":38800,"station_id":"ce4bhbp2rcd13ifvqesg","pricing_plan_id":"cebpf4jnsgd1na2vs0mg"},{"bike_id":"2136dc8f-b3dd-481b-af5c-ffa324e4a411","system_id":"levelo_inurba_marseille","lat":43.22945,"lon":5.40011,"is_reserved":false,"is_disabled":false,"rental_uris":{"android":"levelo://app?vid=2136dc8f-b3dd-481b-af5c-ffa324e4a411","ios":"levelo://app?vid=2136dc8f-b3dd-481b-af5c-ffa324e4a411"},"vehicle_type_id":"4","last_reported":1727514473,"current_range_meters":31200,"station_id":"","pricing_plan_id":"cebpf4jnsgd1na2vs0mg"},{"bike_id":"b9e2b4aa-28ee-4efe-8026-e893fe34ba55","system_id":"levelo_inurba_marseille","lat":43.29566,"lon":5.37512,"is_reserved":false,"is_disabled":false,"rental_uris":{"android":"levelo://app?vid=b9e2b4aa-28ee-4efe-8026-e893fe34ba55","ios":"levelo://app?vid=b9e2b4aa-28ee-4efe-8026-e893fe34ba55"},"vehicle_type_id":"4","last_reported":1727514473,"current_range_meters":26000,"station_id":"ce4bgh92rcd13ifvqb50","pricing_plan_id":"cebpf4jnsgd1na2vs0mg"},{"bike_id":"8a19f08f-601d-4a90-90ab-d6794d3e22c8","system_id":"levelo_inurba_marseille","lat":43.26208,"lon":5.37444,"is_reserved":false,"is_disabled":false,"rental_uris":{"android":"levelo://app?vid=8a19f08f-601d-4a90-90ab-d6794d3e22c8","ios":"levelo://app?vid=8a19f08f-601d-4a90-90ab-d6794d3e22c8"},"vehicle_type_id":"4","last_reported":1727514473,"current_range_meters":33200,"station_id":"ce4bhgp2rcd13ifvqfc0","pricing_plan_id":"cebpf4jnsgd1na2vs0mg"},{"bike_id":"57d61420-1e54-4995-9d97-bffacb4e70f1","system_id":"levelo_inurba_marseille","lat":43.30159,"lon":5.38089,"is_reserved":false,"is_disabled":false,"rental_uris":{"android":"levelo://app?vid=57d61420-1e54-4995-9d97-bffacb4e70f1","ios":"levelo://app?vid=57d61420-1e54-4995-9d97-bffacb4e70f1"},"vehicle_type_id":"4","last_reported":1727514473,"current_range_meters":5600,"station_id":"ce4bgjp2rcd13ifvqbh0","pricing_plan_id":"cebpf4jnsgd1na2vs0mg"},{"bike_id":"e79808f3-7dc6-4dc9-9a42-6d9400cc6ef1","system_id":"levelo_inurba_marseille","lat":43.28272,"lon":5.35084,"is_reserved":false,"is_disabled":false,"rental_uris":{"android":"levelo://app?vid=e79808f3-7dc6-4dc9-9a42-6d9400cc6ef1","ios":"levelo://app?vid=e79808f3-7dc6-4dc9-9a42-6d9400cc6ef1"},"vehicle_type_id":"4","last_reported":1727514473,"current_range_meters":38800,"station_id":"ce4bhbp2rcd13ifvqerg","pricing_plan_id":"cebpf4jnsgd1na2vs0mg"},{"bike_id":"2be45d0f-192d-4276-b1f2-10835caf5586","system_id":"levelo_inurba_marseille","lat":43.29708,"lon":5.37703,"is_reserved":false,"is_disabled":false,"rental_uris":{"android":"levelo://app?vid=2be45d0f-192d-4276-b1f2-10835caf5586","ios":"levelo://app?vid=2be45d0f-192d-4276-b1f2-10835caf5586"},"vehicle_type_id":"4","last_reported":1727514473,"current_range_meters":6800,"station_id":"ce4bgkh2rcd13ifvqbl0","pricing_plan_id":"cebpf4jnsgd1na2vs0mg"},{"bike_id":"3553d125-bbcc-49a7-9de7-4e852c3b7709","system_id":"levelo_inurba_marseille","lat":43.29606,"lon":5.37721,"is_reserved":false,"is_disabled":false,"rental_uris":{"android":"levelo://app?vid=3553d125-bbcc-49a7-9de7-4e852c3b7709","ios":"levelo://app?vid=3553d125-bbcc-49a7-9de7-4e852c3b7709"},"vehicle_type_id":"4","last_reported":1727514473,"current_range_meters":39200,"station_id":"ce4bgi92rcd13ifvqb90","pricing_plan_id":"cebpf4jnsgd1na2vs0mg"},{"bike_id":"8bfa74d4-6034-476a-ae50-61f9c2cde2cb","system_id":"levelo_inurba_marseille","lat":43.26192,"lon":5.37447,"is_reserved":false,"is_disabled":false,"rental_uris":{"android":"levelo://app?vid=8bfa74d4-6034-476a-ae50-61f9c2cde2cb","ios":"levelo://app?vid=8bfa74d4-6034-476a-ae50-61f9c2cde2cb"},"vehicle_type_id":"4","last_reported":1727514473,"current_range_meters":32800,"station_id":"ce4bhgp2rcd13ifvqfc0","pricing_plan_id":"cebpf4jnsgd1na2vs0mg"},{"bike_id":"027ec904-758b-4151-8256-dde109f50a82","system_id":"levelo_inurba_marseille","lat":43.31761,"lon":5.39021,"is_reserved":false,"is_disabled":false,"rental_uris":{"android":"levelo://app?vid=027ec904-758b-4151-8256-dde109f50a82","ios":"levelo://app?vid=027ec904-758b-4151-8256-dde109f50a82"},"vehicle_type_id":"4","last_reported":1727514473,"current_range_meters":38800,"station_id":"ce4bhqp2rcd13ifvqhng","pricing_plan_id":"cebpf4jnsgd1na2vs0mg"},{"bike_id":"2ae6ccef-710d-4c66-9e4e-d025d2e134a8","system_id":"levelo_inurba_marseille","lat":43.29568,"lon":5.37499,"is_reserved":false,"is_disabled":false,"rental_uris":{"android":"levelo://app?vid=2ae6ccef-710d-4c66-9e4e-d025d2e134a8","ios":"levelo://app?vid=2ae6ccef-710d-4c66-9e4e-d025d2e134a8"},"vehicle_type_id":"4","last_reported":1727514473,"current_range_meters":28400,"station_id":"ce4bgh92rcd13ifvqb50","pricing_plan_id":"cebpf4jnsgd1na2vs0mg"},{"bike_id":"b70d563e-77a3-43e2-b086-d3e8a2a875f9","system_id":"levelo_inurba_marseille","lat":43.31526,"lon":5.38038,"is_reserved":false,"is_disabled":false,"rental_uris":{"android":"levelo://app?vid=b70d563e-77a3-43e2-b086-d3e8a2a875f9","ios":"levelo://app?vid=b70d563e-77a3-43e2-b086-d3e8a2a875f9"},"vehicle_type_id":"4","last_reported":1727514473,"current_range_meters":17600,"station_id":"ce4bhsp2rcd13ifvqi50","pricing_plan_id":"cebpf4jnsgd1na2vs0mg"},{"bike_id":"8bc2963e-f24d-4af4-8d3d-ee0a94762b5c","system_id":"levelo_inurba_marseille","lat":43.25005,"lon":5.38932,"is_reserved":false,"is_disabled":false,"rental_uris":{"android":"levelo://app?vid=8bc2963e-f24d-4af4-8d3d-ee0a94762b5c","ios":"levelo://app?vid=8bc2963e-f24d-4af4-8d3d-ee0a94762b5c"},"vehicle_type_id":"4","last_reported":1727514473,"current_range_meters":20800,"station_id":"ce4bhgp2rcd13ifvqfd0","pricing_plan_id":"cebpf4jnsgd1na2vs0mg"},{"bike_id":"8f7b2d28-1b4b-4179-8dd5-892a567a6607","system_id":"levelo_inurba_marseille","lat":43.29721,"lon":5.36613,"is_reserved":false,"is_disabled":false,"rental_uris":{"android":"levelo://app?vid=8f7b2d28-1b4b-4179-8dd5-892a567a6607","ios":"levelo://app?vid=8f7b2d28-1b4b-4179-8dd5-892a567a6607"},"vehicle_type_id":"4","last_reported":1727514473,"current_range_meters":22400,"station_id":"ce4bgn12rcd13ifvqbt0","pricing_plan_id":"cebpf4jnsgd1na2vs0mg"},{"bike_id":"eff2c651-e9a8-469c-8795-5b38221d419e","system_id":"levelo_inurba_marseille","lat":43.294901,"lon":5.373928,"is_reserved":false,"is_disabled":false,"rental_uris":{"android":"levelo://app?vid=eff2c651-e9a8-469c-8795-5b38221d419e","ios":"levelo://app?vid=eff2c651-e9a8-469c-8795-5b38221d419e"},"vehicle_type_id":"4","last_reported":1727514473,"current_range_meters":10800,"station_id":"ce4bh2p2rcd13ifvqdi0","pricing_plan_id":"cebpf4jnsgd1na2vs0mg"},{"bike_id":"de8323f9-d012-4d9c-b01c-767c8be9d592","system_id":"levelo_inurba_marseille","lat":43.26553,"lon":5.37303,"is_reserved":false,"is_disabled":false,"rental_uris":{"android":"levelo://app?vid=de8323f9-d012-4d9c-b01c-767c8be9d592","ios":"levelo://app?vid=de8323f9-d012-4d9c-b01c-767c8be9d592"},"vehicle_type_id":"4","last_reported":1727514473,"current_range_meters":38800,"station_id":"ce4bhg12rcd13ifvqf70","pricing_plan_id":"cebpf4jnsgd1na2vs0mg"},{"bike_id":"eb10e224-cb08-4e8d-acee-722e2d2ab298","system_id":"levelo_inurba_marseille","lat":43.2594,"lon":5.409,"is_reserved":false,"is_disabled":false,"rental_uris":{"android":"levelo://app?vid=eb10e224-cb08-4e8d-acee-722e2d2ab298","ios":"levelo://app?vid=eb10e224-cb08-4e8d-acee-722e2d2ab298"},"vehicle_type_id":"4","last_reported":1727514473,"current_range_meters":26000,"station_id":"ce4bhm92rcd13ifvqglg","pricing_plan_id":"cebpf4jnsgd1na2vs0mg"},{"bike_id":"6e78a766-453a-4ea8-8bee-a90dfcc35c27","system_id":"levelo_inurba_marseille","lat":43.2894,"lon":5.39633,"is_reserved":false,"is_disabled":false,"rental_uris":{"android":"levelo://app?vid=6e78a766-453a-4ea8-8bee-a90dfcc35c27","ios":"levelo://app?vid=6e78a766-453a-4ea8-8bee-a90dfcc35c27"},"vehicle_type_id":"4","last_reported":1727514473,"current_range_meters":26800,"station_id":"ce4bh3h2rcd13ifvqdn0","pricing_plan_id":"cebpf4jnsgd1na2vs0mg"},{"bike_id":"bdc5b691-ffc7-4073-a2da-fd841a386d5b","system_id":"levelo_inurba_marseille","lat":43.29281,"lon":5.36851,"is_reserved":false,"is_disabled":false,"rental_uris":{"android":"levelo://app?vid=bdc5b691-ffc7-4073-a2da-fd841a386d5b","ios":"levelo://app?vid=bdc5b691-ffc7-4073-a2da-fd841a386d5b"},"vehicle_type_id":"4","last_reported":1727514473,"current_range_meters":38400,"station_id":"ce4bhbp2rcd13ifvqesg","pricing_plan_id":"cebpf4jnsgd1na2vs0mg"},{"bike_id":"bf15cf37-3a4c-4635-b28c-358f55c15bae","system_id":"levelo_inurba_marseille","lat":43.33739,"lon":5.37468,"is_reserved":false,"is_disabled":false,"rental_uris":{"android":"levelo://app?vid=bf15cf37-3a4c-4635-b28c-358f55c15bae","ios":"levelo://app?vid=bf15cf37-3a4c-4635-b28c-358f55c15bae"},"vehicle_type_id":"4","last_reported":1727514473,"current_range_meters":25600,"station_id":"","pricing_plan_id":"cebpf4jnsgd1na2vs0mg"},{"bike_id":"20202039-bf6e-49f7-abf4-48e3a3787af5","system_id":"levelo_inurba_marseille","lat":43.27952,"lon":5.41052,"is_reserved":false,"is_disabled":false,"rental_uris":{"android":"levelo://app?vid=20202039-bf6e-49f7-abf4-48e3a3787af5","ios":"levelo://app?vid=20202039-bf6e-49f7-abf4-48e3a3787af5"},"vehicle_type_id":"4","last_reported":1727514473,"current_range_meters":36800,"station_id":"ce4bhnp2rcd13ifvqh0g","pricing_plan_id":"cebpf4jnsgd1na2vs0mg"},{"bike_id":"cd2327c7-af60-4af9-9eff-465722c02c8b","system_id":"levelo_inurba_marseille","lat":43.33619,"lon":5.4103,"is_reserved":false,"is_disabled":false,"rental_uris":{"android":"levelo://app?vid=cd2327c7-af60-4af9-9eff-465722c02c8b","ios":"levelo://app?vid=cd2327c7-af60-4af9-9eff-465722c02c8b"},"vehicle_type_id":"4","last_reported":1727514473,"current_range_meters":9200,"station_id":"ce4bhqh2rcd13ifvqhmg","pricing_plan_id":"cebpf4jnsgd1na2vs0mg"},{"bike_id":"61cb752b-dddf-4aff-bcd9-93be3f08e329","system_id":"levelo_inurba_marseille","lat":43.30271,"lon":5.39808,"is_reserved":false,"is_disabled":false,"rental_uris":{"android":"levelo://app?vid=61cb752b-dddf-4aff-bcd9-93be3f08e329","ios":"levelo://app?vid=61cb752b-dddf-4aff-bcd9-93be3f08e329"},"vehicle_type_id":"4","last_reported":1727514473,"current_range_meters":30800,"station_id":"ce4bgs12rcd13ifvqcag","pricing_plan_id":"cebpf4jnsgd1na2vs0mg"},{"bike_id":"18f4be4d-ea10-4ba9-8b8f-8f36b3fce747","system_id":"levelo_inurba_marseille","lat":43.29992,"lon":5.36589,"is_reserved":false,"is_disabled":false,"rental_uris":{"android":"levelo://app?vid=18f4be4d-ea10-4ba9-8b8f-8f36b3fce747","ios":"levelo://app?vid=18f4be4d-ea10-4ba9-8b8f-8f36b3fce747"},"vehicle_type_id":"4","last_reported":1727514473,"current_range_meters":38800,"station_id":"ce4bgm92rcd13ifvqbr0","pricing_plan_id":"cebpf4jnsgd1na2vs0mg"},{"bike_id":"6aa95821-8b44-42f3-9d07-8b4a4001e2b1","system_id":"levelo_inurba_marseille","lat":43.23951,"lon":5.3664,"is_reserved":false,"is_disabled":false,"rental_uris":{"android":"levelo://app?vid=6aa95821-8b44-42f3-9d07-8b4a4001e2b1","ios":"levelo://app?vid=6aa95821-8b44-42f3-9d07-8b4a4001e2b1"},"vehicle_type_id":"4","last_reported":1727514473,"current_range_meters":34800,"station_id":"ce4bhi12rcd13ifvqfp0","pricing_plan_id":"cebpf4jnsgd1na2vs0mg"},{"bike_id":"51870931-c5a1-4480-846a-13af532df7a7","system_id":"levelo_inurba_marseille","lat":43.31758,"lon":5.39016,"is_reserved":false,"is_disabled":false,"rental_uris":{"android":"levelo://app?vid=51870931-c5a1-4480-846a-13af532df7a7","ios":"levelo://app?vid=51870931-c5a1-4480-846a-13af532df7a7"},"vehicle_type_id":"4","last_reported":1727514473,"current_range_meters":29600,"station_id":"ce4bhqp2rcd13ifvqhng","pricing_plan_id":"cebpf4jnsgd1na2vs0mg"},{"bike_id":"a63d4449-4f5a-4f1c-9a3c-27c8d74bd2a3","system_id":"levelo_inurba_marseille","lat":43.2439,"lon":5.37066,"is_reserved":false,"is_disabled":false,"rental_uris":{"android":"levelo://app?vid=a63d4449-4f5a-4f1c-9a3c-27c8d74bd2a3","ios":"levelo://app?vid=a63d4449-4f5a-4f1c-9a3c-27c8d74bd2a3"},"vehicle_type_id":"4","last_reported":1727514473,"current_range_meters":16800,"station_id":"ce4bhhh2rcd13ifvqfk0","pricing_plan_id":"cebpf4jnsgd1na2vs0mg"},{"bike_id":"9a77de7b-6d93-4db3-8257-b3216a7d8e95","system_id":"levelo_inurba_marseille","lat":43.29971,"lon":5.37172,"is_reserved":false,"is_disabled":false,"rental_uris":{"android":"levelo://app?vid=9a77de7b-6d93-4db3-8257-b3216a7d8e95","ios":"levelo://app?vid=9a77de7b-6d93-4db3-8257-b3216a7d8e95"},"vehicle_type_id":"4","last_reported":1727514473,"current_range_meters":38400,"station_id":"ce4bgr92rcd13ifvqc7g","pricing_plan_id":"cebpf4jnsgd1na2vs0mg"},{"bike_id":"6b525450-4099-4e0b-bd11-2a201e3d7d9e","system_id":"levelo_inurba_marseille","lat":43.2918,"lon":5.37144,"is_reserved":false,"is_disabled":false,"rental_uris":{"android":"levelo://app?vid=6b525450-4099-4e0b-bd11-2a201e3d7d9e","ios":"levelo://app?vid=6b525450-4099-4e0b-bd11-2a201e3d7d9e"},"vehicle_type_id":"4","last_reported":1727514473,"current_range_meters":4800,"station_id":"ce4bha92rcd13ifvqeh0","pricing_plan_id":"cebpf4jnsgd1na2vs0mg"},{"bike_id":"c50cd3e1-e55a-4a1a-a5f0-4436fbb2d08d","system_id":"levelo_inurba_marseille","lat":43.25002,"lon":5.38925,"is_reserved":false,"is_disabled":false,"rental_uris":{"android":"levelo://app?vid=c50cd3e1-e55a-4a1a-a5f0-4436fbb2d08d","ios":"levelo://app?vid=c50cd3e1-e55a-4a1a-a5f0-4436fbb2d08d"},"vehicle_type_id":"4","last_reported":1727514473,"current_range_meters":20800,"station_id":"ce4bhgp2rcd13ifvqfd0","pricing_plan_id":"cebpf4jnsgd1na2vs0mg"},{"bike_id":"e895f606-93a4-4817-b09b-899a21507665","system_id":"levelo_inurba_marseille","lat":43.28418,"lon":5.349829,"is_reserved":false,"is_disabled":false,"rental_uris":{"android":"levelo://app?vid=e895f606-93a4-4817-b09b-899a21507665","ios":"levelo://app?vid=e895f606-93a4-4817-b09b-899a21507665"},"vehicle_type_id":"4","last_reported":1727514473,"current_range_meters":36000,"station_id":"ce4bhbh2rcd13ifvqepg","pricing_plan_id":"cebpf4jnsgd1na2vs0mg"},{"bike_id":"cff8d981-82e5-4fe5-8732-59ac9c29f5d1","system_id":"levelo_inurba_marseille","lat":43.30786,"lon":5.37652,"is_reserved":false,"is_disabled":false,"rental_uris":{"android":"levelo://app?vid=cff8d981-82e5-4fe5-8732-59ac9c29f5d1","ios":"levelo://app?vid=cff8d981-82e5-4fe5-8732-59ac9c29f5d1"},"vehicle_type_id":"4","last_reported":1727514473,"current_range_meters":36000,"station_id":"ce4bgv92rcd13ifvqcq0","pricing_plan_id":"cebpf4jnsgd1na2vs0mg"},{"bike_id":"e8881021-06cd-42da-8a98-2ef3e9aefc43","system_id":"levelo_inurba_marseille","lat":43.27499,"lon":5.42457,"is_reserved":false,"is_disabled":false,"rental_uris":{"android":"levelo://app?vid=e8881021-06cd-42da-8a98-2ef3e9aefc43","ios":"levelo://app?vid=e8881021-06cd-42da-8a98-2ef3e9aefc43"},"vehicle_type_id":"4","last_reported":1727514473,"current_range_meters":29600,"station_id":"ce4bhn92rcd13ifvqgrg","pricing_plan_id":"cebpf4jnsgd1na2vs0mg"},{"bike_id":"58decdb1-33db-447c-b9de-133e2d5bbeb7","system_id":"levelo_inurba_marseille","lat":43.29021,"lon":5.38652,"is_reserved":false,"is_disabled":false,"rental_uris":{"android":"levelo://app?vid=58decdb1-33db-447c-b9de-133e2d5bbeb7","ios":"levelo://app?vid=58decdb1-33db-447c-b9de-133e2d5bbeb7"},"vehicle_type_id":"4","last_reported":1727514473,"current_range_meters":30800,"station_id":"ce4bh4p2rcd13ifvqe0g","pricing_plan_id":"cebpf4jnsgd1na2vs0mg"},{"bike_id":"bf4babc3-d8e1-4008-9a0f-c8606ba7f89d","system_id":"levelo_inurba_marseille","lat":43.26196,"lon":5.3745,"is_reserved":false,"is_disabled":false,"rental_uris":{"android":"levelo://app?vid=bf4babc3-d8e1-4008-9a0f-c8606ba7f89d","ios":"levelo://app?vid=bf4babc3-d8e1-4008-9a0f-c8606ba7f89d"},"vehicle_type_id":"4","last_reported":1727514473,"current_range_meters":38800,"station_id":"ce4bhgp2rcd13ifvqfc0","pricing_plan_id":"cebpf4jnsgd1na2vs0mg"},{"bike_id":"b420a558-0442-4340-a39c-af9bdd3ffb2a","system_id":"levelo_inurba_marseille","lat":43.30152,"lon":5.38075,"is_reserved":false,"is_disabled":false,"rental_uris":{"android":"levelo://app?vid=b420a558-0442-4340-a39c-af9bdd3ffb2a","ios":"levelo://app?vid=b420a558-0442-4340-a39c-af9bdd3ffb2a"},"vehicle_type_id":"4","last_reported":1727514473,"current_range_meters":26800,"station_id":"ce4bgjp2rcd13ifvqbh0","pricing_plan_id":"cebpf4jnsgd1na2vs0mg"},{"bike_id":"677c653e-87a0-47a5-9b05-44cc6e138cca","system_id":"levelo_inurba_marseille","lat":43.28077,"lon":5.39653,"is_reserved":false,"is_disabled":false,"rental_uris":{"android":"levelo://app?vid=677c653e-87a0-47a5-9b05-44cc6e138cca","ios":"levelo://app?vid=677c653e-87a0-47a5-9b05-44cc6e138cca"},"vehicle_type_id":"4","last_reported":1727514473,"current_range_meters":28000,"station_id":"ce4bho12rcd13ifvqh2g","pricing_plan_id":"cebpf4jnsgd1na2vs0mg"},{"bike_id":"ed8c0c2a-49b2-4987-a9ba-4dd1ce890fe6","system_id":"levelo_inurba_marseille","lat":43.29725,"lon":5.3768,"is_reserved":false,"is_disabled":false,"rental_uris":{"android":"levelo://app?vid=ed8c0c2a-49b2-4987-a9ba-4dd1ce890fe6","ios":"levelo://app?vid=ed8c0c2a-49b2-4987-a9ba-4dd1ce890fe6"},"vehicle_type_id":"4","last_reported":1727514473,"current_range_meters":38400,"station_id":"ce4bgkh2rcd13ifvqbl0","pricing_plan_id":"cebpf4jnsgd1na2vs0mg"},{"bike_id":"24999d36-0b09-447a-ba6c-cc08fb1d6494","system_id":"levelo_inurba_marseille","lat":43.26191,"lon":5.37455,"is_reserved":false,"is_disabled":false,"rental_uris":{"android":"levelo://app?vid=24999d36-0b09-447a-ba6c-cc08fb1d6494","ios":"levelo://app?vid=24999d36-0b09-447a-ba6c-cc08fb1d6494"},"vehicle_type_id":"4","last_reported":1727514473,"current_range_meters":38800,"station_id":"ce4bhgp2rcd13ifvqfc0","pricing_plan_id":"cebpf4jnsgd1na2vs0mg"},{"bike_id":"e9461f55-7e42-465e-ba90-31c941943249","system_id":"levelo_inurba_marseille","lat":43.30786,"lon":5.37648,"is_reserved":false,"is_disabled":false,"rental_uris":{"android":"levelo://app?vid=e9461f55-7e42-465e-ba90-31c941943249","ios":"levelo://app?vid=e9461f55-7e42-465e-ba90-31c941943249"},"vehicle_type_id":"4","last_reported":1727514473,"current_range_meters":38800,"station_id":"ce4bgv92rcd13ifvqcq0","pricing_plan_id":"cebpf4jnsgd1na2vs0mg"},{"bike_id":"40ded41a-a5e5-4436-9fab-4701faa67d9f","system_id":"levelo_inurba_marseille","lat":43.2958,"lon":5.36735,"is_reserved":false,"is_disabled":false,"rental_uris":{"android":"levelo://app?vid=40ded41a-a5e5-4436-9fab-4701faa67d9f","ios":"levelo://app?vid=40ded41a-a5e5-4436-9fab-4701faa67d9f"},"vehicle_type_id":"4","last_reported":1727514473,"current_range_meters":37600,"station_id":"ce4bgph2rcd13ifvqc2g","pricing_plan_id":"cebpf4jnsgd1na2vs0mg"},{"bike_id":"4bec3a7d-69b5-4087-96f4-4e0bbed86a87","system_id":"levelo_inurba_marseille","lat":43.31279,"lon":5.40177,"is_reserved":false,"is_disabled":false,"rental_uris":{"android":"levelo://app?vid=4bec3a7d-69b5-4087-96f4-4e0bbed86a87","ios":"levelo://app?vid=4bec3a7d-69b5-4087-96f4-4e0bbed86a87"},"vehicle_type_id":"4","last_reported":1727514473,"current_range_meters":25200,"station_id":"ce4bh092rcd13ifvqd30","pricing_plan_id":"cebpf4jnsgd1na2vs0mg"},{"bike_id":"6bbe7017-d8c4-4797-9de4-8c9de6239e13","system_id":"levelo_inurba_marseille","lat":43.25004,"lon":5.38924,"is_reserved":false,"is_disabled":false,"rental_uris":{"android":"levelo://app?vid=6bbe7017-d8c4-4797-9de4-8c9de6239e13","ios":"levelo://app?vid=6bbe7017-d8c4-4797-9de4-8c9de6239e13"},"vehicle_type_id":"4","last_reported":1727514473,"current_range_meters":35600,"station_id":"ce4bhgp2rcd13ifvqfd0","pricing_plan_id":"cebpf4jnsgd1na2vs0mg"},{"bike_id":"7ed6f110-8042-4b99-8d26-80b0b283f72c","system_id":"levelo_inurba_marseille","lat":43.24068,"lon":5.37755,"is_reserved":false,"is_disabled":false,"rental_uris":{"android":"levelo://app?vid=7ed6f110-8042-4b99-8d26-80b0b283f72c","ios":"levelo://app?vid=7ed6f110-8042-4b99-8d26-80b0b283f72c"},"vehicle_type_id":"4","last_reported":1727514473,"current_range_meters":7200,"station_id":"ce4bhnp2rcd13ifvqgvg","pricing_plan_id":"cebpf4jnsgd1na2vs0mg"},{"bike_id":"3b170ecf-4bbb-421f-886d-94818fba1de8","system_id":"levelo_inurba_marseille","lat":43.28488,"lon":5.40029,"is_reserved":false,"is_disabled":false,"rental_uris":{"android":"levelo://app?vid=3b170ecf-4bbb-421f-886d-94818fba1de8","ios":"levelo://app?vid=3b170ecf-4bbb-421f-886d-94818fba1de8"},"vehicle_type_id":"4","last_reported":1727514473,"current_range_meters":37600,"station_id":"ce4bh2h2rcd13ifvqdh0","pricing_plan_id":"cebpf4jnsgd1na2vs0mg"},{"bike_id":"8a3cc4d7-a6a5-4dce-bf4f-4122979d6517","system_id":"levelo_inurba_marseille","lat":43.298828,"lon":5.371293,"is_reserved":false,"is_disabled":false,"rental_uris":{"android":"levelo://app?vid=8a3cc4d7-a6a5-4dce-bf4f-4122979d6517","ios":"levelo://app?vid=8a3cc4d7-a6a5-4dce-bf4f-4122979d6517"},"vehicle_type_id":"4","last_reported":1727514473,"current_range_meters":34000,"station_id":"ce4bgop2rcd13ifvqc1g","pricing_plan_id":"cebpf4jnsgd1na2vs0mg"},{"bike_id":"207ffe99-f2e2-4d11-a577-0100f424763e","system_id":"levelo_inurba_marseille","lat":43.32043,"lon":5.41558,"is_reserved":false,"is_disabled":false,"rental_uris":{"android":"levelo://app?vid=207ffe99-f2e2-4d11-a577-0100f424763e","ios":"levelo://app?vid=207ffe99-f2e2-4d11-a577-0100f424763e"},"vehicle_type_id":"4","last_reported":1727514473,"current_range_meters":21600,"station_id":"ce4bhq92rcd13ifvqhkg","pricing_plan_id":"cebpf4jnsgd1na2vs0mg"},{"bike_id":"e8ad6dbc-a9a7-4665-a699-9483e7733501","system_id":"levelo_inurba_marseille","lat":43.29099,"lon":5.38137,"is_reserved":false,"is_disabled":false,"rental_uris":{"android":"levelo://app?vid=e8ad6dbc-a9a7-4665-a699-9483e7733501","ios":"levelo://app?vid=e8ad6dbc-a9a7-4665-a699-9483e7733501"},"vehicle_type_id":"4","last_reported":1727514473,"current_range_meters":18800,"station_id":"ce4bh512rcd13ifvqe2g","pricing_plan_id":"cebpf4jnsgd1na2vs0mg"},{"bike_id":"a6910674-848e-4a61-aff2-e7f1f99ff2dd","system_id":"levelo_inurba_marseille","lat":43.29881,"lon":5.3973,"is_reserved":false,"is_disabled":false,"rental_uris":{"android":"levelo://app?vid=a6910674-848e-4a61-aff2-e7f1f99ff2dd","ios":"levelo://app?vid=a6910674-848e-4a61-aff2-e7f1f99ff2dd"},"vehicle_type_id":"4","last_reported":1727514473,"current_range_meters":28000,"station_id":"ce4bh0h2rcd13ifvqd50","pricing_plan_id":"cebpf4jnsgd1na2vs0mg"},{"bike_id":"af23f7c2-e06e-4ac0-8403-3bf26719996a","system_id":"levelo_inurba_marseille","lat":43.30125,"lon":5.39865,"is_reserved":false,"is_disabled":false,"rental_uris":{"android":"levelo://app?vid=af23f7c2-e06e-4ac0-8403-3bf26719996a","ios":"levelo://app?vid=af23f7c2-e06e-4ac0-8403-3bf26719996a"},"vehicle_type_id":"4","last_reported":1727514473,"current_range_meters":18800,"station_id":"ce4bh0h2rcd13ifvqd40","pricing_plan_id":"cebpf4jnsgd1na2vs0mg"},{"bike_id":"d39210b3-a40b-4413-9d2a-e861998a3aad","system_id":"levelo_inurba_marseille","lat":43.25822,"lon":5.39428,"is_reserved":false,"is_disabled":false,"rental_uris":{"android":"levelo://app?vid=d39210b3-a40b-4413-9d2a-e861998a3aad","ios":"levelo://app?vid=d39210b3-a40b-4413-9d2a-e861998a3aad"},"vehicle_type_id":"4","last_reported":1727514473,"current_range_meters":38800,"station_id":"ce4bhip2rcd13ifvqft0","pricing_plan_id":"cebpf4jnsgd1na2vs0mg"},{"bike_id":"4915f018-35a4-41ab-8f17-b1de5745ad2a","system_id":"levelo_inurba_marseille","lat":43.31889,"lon":5.40724,"is_reserved":false,"is_disabled":false,"rental_uris":{"android":"levelo://app?vid=4915f018-35a4-41ab-8f17-b1de5745ad2a","ios":"levelo://app?vid=4915f018-35a4-41ab-8f17-b1de5745ad2a"},"vehicle_type_id":"4","last_reported":1727514473,"current_range_meters":14800,"station_id":"ce4bhq12rcd13ifvqhig","pricing_plan_id":"cebpf4jnsgd1na2vs0mg"},{"bike_id":"27dd2217-59df-4be1-b2c3-392ea7c13d9d","system_id":"levelo_inurba_marseille","lat":43.2621,"lon":5.37442,"is_reserved":false,"is_disabled":false,"rental_uris":{"android":"levelo://app?vid=27dd2217-59df-4be1-b2c3-392ea7c13d9d","ios":"levelo://app?vid=27dd2217-59df-4be1-b2c3-392ea7c13d9d"},"vehicle_type_id":"4","last_reported":1727514473,"current_range_meters":36000,"station_id":"ce4bhgp2rcd13ifvqfc0","pricing_plan_id":"cebpf4jnsgd1na2vs0mg"},{"bike_id":"eb40660b-9cba-4839-95b5-e1a88988e1c0","system_id":"levelo_inurba_marseille","lat":43.29845,"lon":5.3627,"is_reserved":false,"is_disabled":false,"rental_uris":{"android":"levelo://app?vid=eb40660b-9cba-4839-95b5-e1a88988e1c0","ios":"levelo://app?vid=eb40660b-9cba-4839-95b5-e1a88988e1c0"},"vehicle_type_id":"4","last_reported":1727514473,"current_range_meters":40000,"station_id":"ce4bgpp2rcd13ifvqc3g","pricing_plan_id":"cebpf4jnsgd1na2vs0mg"},{"bike_id":"28fd6afa-8ab7-494a-b25a-1a23b319519f","system_id":"levelo_inurba_marseille","lat":43.3171,"lon":5.43708,"is_reserved":false,"is_disabled":false,"rental_uris":{"android":"levelo://app?vid=28fd6afa-8ab7-494a-b25a-1a23b319519f","ios":"levelo://app?vid=28fd6afa-8ab7-494a-b25a-1a23b319519f"},"vehicle_type_id":"4","last_reported":1727514473,"current_range_meters":38000,"station_id":"ce4bhp92rcd13ifvqhcg","pricing_plan_id":"cebpf4jnsgd1na2vs0mg"},{"bike_id":"cf728546-b453-4bbe-a199-05de8a38e92b","system_id":"levelo_inurba_marseille","lat":43.29851,"lon":5.36287,"is_reserved":false,"is_disabled":false,"rental_uris":{"android":"levelo://app?vid=cf728546-b453-4bbe-a199-05de8a38e92b","ios":"levelo://app?vid=cf728546-b453-4bbe-a199-05de8a38e92b"},"vehicle_type_id":"4","last_reported":1727514473,"current_range_meters":12000,"station_id":"ce4bgpp2rcd13ifvqc3g","pricing_plan_id":"cebpf4jnsgd1na2vs0mg"},{"bike_id":"e54f1bc4-656e-411e-8442-6b354ae97519","system_id":"levelo_inurba_marseille","lat":43.29526,"lon":5.39045,"is_reserved":false,"is_disabled":false,"rental_uris":{"android":"levelo://app?vid=e54f1bc4-656e-411e-8442-6b354ae97519","ios":"levelo://app?vid=e54f1bc4-656e-411e-8442-6b354ae97519"},"vehicle_type_id":"4","last_reported":1727514473,"current_range_meters":32800,"station_id":"ce4bh3p2rcd13ifvqdp0","pricing_plan_id":"cebpf4jnsgd1na2vs0mg"},{"bike_id":"03e8b385-e3e3-4831-b70e-8615ef15136c","system_id":"levelo_inurba_marseille","lat":43.32343,"lon":5.40615,"is_reserved":false,"is_disabled":false,"rental_uris":{"android":"levelo://app?vid=03e8b385-e3e3-4831-b70e-8615ef15136c","ios":"levelo://app?vid=03e8b385-e3e3-4831-b70e-8615ef15136c"},"vehicle_type_id":"4","last_reported":1727514473,"current_range_meters":18000,"station_id":"ce4bhq92rcd13ifvqhjg","pricing_plan_id":"cebpf4jnsgd1na2vs0mg"},{"bike_id":"31d9581d-789e-483b-ab43-a3d81f0839cd","system_id":"levelo_inurba_marseille","lat":43.23153,"lon":5.43697,"is_reserved":false,"is_disabled":false,"rental_uris":{"android":"levelo://app?vid=31d9581d-789e-483b-ab43-a3d81f0839cd","ios":"levelo://app?vid=31d9581d-789e-483b-ab43-a3d81f0839cd"},"vehicle_type_id":"4","last_reported":1727514473,"current_range_meters":16400,"station_id":"ce4bhmp2rcd13ifvqgog","pricing_plan_id":"cebpf4jnsgd1na2vs0mg"},{"bike_id":"a634c515-8f19-41fe-866c-07fe4daabdab","system_id":"levelo_inurba_marseille","lat":43.286657,"lon":5.386663,"is_reserved":false,"is_disabled":false,"rental_uris":{"android":"levelo://app?vid=a634c515-8f19-41fe-866c-07fe4daabdab","ios":"levelo://app?vid=a634c515-8f19-41fe-866c-07fe4daabdab"},"vehicle_type_id":"4","last_reported":1727514473,"current_range_meters":27200,"station_id":"ce4bhdp2rcd13ifvqf20","pricing_plan_id":"cebpf4jnsgd1na2vs0mg"},{"bike_id":"eeac406d-c796-47e9-bcb1-35f89dd3acf4","system_id":"levelo_inurba_marseille","lat":43.29313,"lon":5.37188,"is_reserved":false,"is_disabled":false,"rental_uris":{"android":"levelo://app?vid=eeac406d-c796-47e9-bcb1-35f89dd3acf4","ios":"levelo://app?vid=eeac406d-c796-47e9-bcb1-35f89dd3acf4"},"vehicle_type_id":"4","last_reported":1727514473,"current_range_meters":24800,"station_id":"ce4bgh92rcd13ifvqb40","pricing_plan_id":"cebpf4jnsgd1na2vs0mg"},{"bike_id":"6fe9b253-8db4-4d00-8fc6-9475baced5dc","system_id":"levelo_inurba_marseille","lat":43.29525,"lon":5.37518,"is_reserved":false,"is_disabled":false,"rental_uris":{"android":"levelo://app?vid=6fe9b253-8db4-4d00-8fc6-9475baced5dc","ios":"levelo://app?vid=6fe9b253-8db4-4d00-8fc6-9475baced5dc"},"vehicle_type_id":"4","last_reported":1727514473,"current_range_meters":36000,"station_id":"ce4bgkp2rcd13ifvqbmg","pricing_plan_id":"cebpf4jnsgd1na2vs0mg"},{"bike_id":"2765eaf6-7ca6-4241-a191-b4d7fef45c56","system_id":"levelo_inurba_marseille","lat":43.32038,"lon":5.41564,"is_reserved":false,"is_disabled":false,"rental_uris":{"android":"levelo://app?vid=2765eaf6-7ca6-4241-a191-b4d7fef45c56","ios":"levelo://app?vid=2765eaf6-7ca6-4241-a191-b4d7fef45c56"},"vehicle_type_id":"4","last_reported":1727514473,"current_range_meters":35200,"station_id":"ce4bhq92rcd13ifvqhkg","pricing_plan_id":"cebpf4jnsgd1na2vs0mg"},{"bike_id":"8aafcc38-52e6-4c9b-b7e2-481c9db22dac","system_id":"levelo_inurba_marseille","lat":43.26198,"lon":5.3793,"is_reserved":false,"is_disabled":false,"rental_uris":{"android":"levelo://app?vid=8aafcc38-52e6-4c9b-b7e2-481c9db22dac","ios":"levelo://app?vid=8aafcc38-52e6-4c9b-b7e2-481c9db22dac"},"vehicle_type_id":"4","last_reported":1727514473,"current_range_meters":39200,"station_id":"ce4bhjp2rcd13ifvqg90","pricing_plan_id":"cebpf4jnsgd1na2vs0mg"},{"bike_id":"ceda1303-8e1d-4d6f-8792-80ce6a3025d5","system_id":"levelo_inurba_marseille","lat":43.31715,"lon":5.43707,"is_reserved":false,"is_disabled":false,"rental_uris":{"android":"levelo://app?vid=ceda1303-8e1d-4d6f-8792-80ce6a3025d5","ios":"levelo://app?vid=ceda1303-8e1d-4d6f-8792-80ce6a3025d5"},"vehicle_type_id":"4","last_reported":1727514473,"current_range_meters":7200,"station_id":"ce4bhp92rcd13ifvqhcg","pricing_plan_id":"cebpf4jnsgd1na2vs0mg"},{"bike_id":"61e10d90-1bb9-4c62-abe7-5b2652018e77","system_id":"levelo_inurba_marseille","lat":43.30311,"lon":5.36895,"is_reserved":false,"is_disabled":false,"rental_uris":{"android":"levelo://app?vid=61e10d90-1bb9-4c62-abe7-5b2652018e77","ios":"levelo://app?vid=61e10d90-1bb9-4c62-abe7-5b2652018e77"},"vehicle_type_id":"4","last_reported":1727514473,"current_range_meters":37600,"station_id":"ce4bgqh2rcd13ifvqc5g","pricing_plan_id":"cebpf4jnsgd1na2vs0mg"},{"bike_id":"a4ca1863-2f71-4d4b-be76-b1ae7f2aa440","system_id":"levelo_inurba_marseille","lat":43.29372,"lon":5.37859,"is_reserved":false,"is_disabled":false,"rental_uris":{"android":"levelo://app?vid=a4ca1863-2f71-4d4b-be76-b1ae7f2aa440","ios":"levelo://app?vid=a4ca1863-2f71-4d4b-be76-b1ae7f2aa440"},"vehicle_type_id":"4","last_reported":1727514473,"current_range_meters":400,"station_id":"ce4bgjh2rcd13ifvqbf0","pricing_plan_id":"cebpf4jnsgd1na2vs0mg"},{"bike_id":"403999e6-396e-4ef4-99d3-c76a06c6f1a0","system_id":"levelo_inurba_marseille","lat":43.25496,"lon":5.37646,"is_reserved":false,"is_disabled":false,"rental_uris":{"android":"levelo://app?vid=403999e6-396e-4ef4-99d3-c76a06c6f1a0","ios":"levelo://app?vid=403999e6-396e-4ef4-99d3-c76a06c6f1a0"},"vehicle_type_id":"4","last_reported":1727514473,"current_range_meters":17200,"station_id":"ce4bhh12rcd13ifvqff0","pricing_plan_id":"cebpf4jnsgd1na2vs0mg"},{"bike_id":"a4ab644b-cbfb-4cb1-9455-b1f9da480836","system_id":"levelo_inurba_marseille","lat":43.27493,"lon":5.42468,"is_reserved":false,"is_disabled":false,"rental_uris":{"android":"levelo://app?vid=a4ab644b-cbfb-4cb1-9455-b1f9da480836","ios":"levelo://app?vid=a4ab644b-cbfb-4cb1-9455-b1f9da480836"},"vehicle_type_id":"4","last_reported":1727514473,"current_range_meters":27600,"station_id":"ce4bhn92rcd13ifvqgrg","pricing_plan_id":"cebpf4jnsgd1na2vs0mg"},{"bike_id":"15e6551d-1ba0-44bc-8a42-810234e472bf","system_id":"levelo_inurba_marseille","lat":43.31361,"lon":5.38504,"is_reserved":false,"is_disabled":false,"rental_uris":{"android":"levelo://app?vid=15e6551d-1ba0-44bc-8a42-810234e472bf","ios":"levelo://app?vid=15e6551d-1ba0-44bc-8a42-810234e472bf"},"vehicle_type_id":"4","last_reported":1727514473,"current_range_meters":32000,"station_id":"ce4bgt92rcd13ifvqcf0","pricing_plan_id":"cebpf4jnsgd1na2vs0mg"},{"bike_id":"c049a602-ba08-44c1-a4f9-1cbd185f086f","system_id":"levelo_inurba_marseille","lat":43.22933,"lon":5.35375,"is_reserved":false,"is_disabled":false,"rental_uris":{"android":"levelo://app?vid=c049a602-ba08-44c1-a4f9-1cbd185f086f","ios":"levelo://app?vid=c049a602-ba08-44c1-a4f9-1cbd185f086f"},"vehicle_type_id":"4","last_reported":1727514473,"current_range_meters":6400,"station_id":"cpo3532slgdg3j2ikp40","pricing_plan_id":"cebpf4jnsgd1na2vs0mg"},{"bike_id":"2617c06e-e17f-43d0-bd86-b5a25b7cd217","system_id":"levelo_inurba_marseille","lat":43.294739,"lon":5.38606,"is_reserved":false,"is_disabled":false,"rental_uris":{"android":"levelo://app?vid=2617c06e-e17f-43d0-bd86-b5a25b7cd217","ios":"levelo://app?vid=2617c06e-e17f-43d0-bd86-b5a25b7cd217"},"vehicle_type_id":"4","last_reported":1727514473,"current_range_meters":8400,"station_id":"ce4bhdp2rcd13ifvqf20","pricing_plan_id":"cebpf4jnsgd1na2vs0mg"},{"bike_id":"ad6c407f-3d2e-42de-99b9-6c42ddce3103","system_id":"levelo_inurba_marseille","lat":43.29528,"lon":5.38545,"is_reserved":false,"is_disabled":false,"rental_uris":{"android":"levelo://app?vid=ad6c407f-3d2e-42de-99b9-6c42ddce3103","ios":"levelo://app?vid=ad6c407f-3d2e-42de-99b9-6c42ddce3103"},"vehicle_type_id":"4","last_reported":1727514473,"current_range_meters":38800,"station_id":"ce4bgih2rcd13ifvqba0","pricing_plan_id":"cebpf4jnsgd1na2vs0mg"},{"bike_id":"04b6177d-c575-4b6e-8490-63c3c4fcb2fb","system_id":"levelo_inurba_marseille","lat":43.29851,"lon":5.36287,"is_reserved":false,"is_disabled":false,"rental_uris":{"android":"levelo://app?vid=04b6177d-c575-4b6e-8490-63c3c4fcb2fb","ios":"levelo://app?vid=04b6177d-c575-4b6e-8490-63c3c4fcb2fb"},"vehicle_type_id":"4","last_reported":1727514473,"current_range_meters":25600,"station_id":"ce4bgpp2rcd13ifvqc3g","pricing_plan_id":"cebpf4jnsgd1na2vs0mg"},{"bike_id":"eab435e6-b89d-4cdf-aa0e-050a5dab33ea","system_id":"levelo_inurba_marseille","lat":43.27951,"lon":5.41038,"is_reserved":false,"is_disabled":false,"rental_uris":{"android":"levelo://app?vid=eab435e6-b89d-4cdf-aa0e-050a5dab33ea","ios":"levelo://app?vid=eab435e6-b89d-4cdf-aa0e-050a5dab33ea"},"vehicle_type_id":"4","last_reported":1727514473,"current_range_meters":37600,"station_id":"ce4bhnp2rcd13ifvqh0g","pricing_plan_id":"cebpf4jnsgd1na2vs0mg"},{"bike_id":"652c3354-7fab-47d5-9b50-2d7a4e96974b","system_id":"levelo_inurba_marseille","lat":43.274974,"lon":5.424546,"is_reserved":false,"is_disabled":false,"rental_uris":{"android":"levelo://app?vid=652c3354-7fab-47d5-9b50-2d7a4e96974b","ios":"levelo://app?vid=652c3354-7fab-47d5-9b50-2d7a4e96974b"},"vehicle_type_id":"4","last_reported":1727514473,"current_range_meters":32000,"station_id":"ce4bhn92rcd13ifvqgrg","pricing_plan_id":"cebpf4jnsgd1na2vs0mg"},{"bike_id":"0263d4a7-eef3-4f78-b7c0-7cfbfa9deb4c","system_id":"levelo_inurba_marseille","lat":43.26789,"lon":5.39413,"is_reserved":false,"is_disabled":false,"rental_uris":{"android":"levelo://app?vid=0263d4a7-eef3-4f78-b7c0-7cfbfa9deb4c","ios":"levelo://app?vid=0263d4a7-eef3-4f78-b7c0-7cfbfa9deb4c"},"vehicle_type_id":"4","last_reported":1727514473,"current_range_meters":37600,"station_id":"ce4bhh12rcd13ifvqfg0","pricing_plan_id":"cebpf4jnsgd1na2vs0mg"},{"bike_id":"237be906-f998-4448-9588-92ef953a4d82","system_id":"levelo_inurba_marseille","lat":43.24151,"lon":5.36388,"is_reserved":false,"is_disabled":false,"rental_uris":{"android":"levelo://app?vid=237be906-f998-4448-9588-92ef953a4d82","ios":"levelo://app?vid=237be906-f998-4448-9588-92ef953a4d82"},"vehicle_type_id":"4","last_reported":1727514473,"current_range_meters":30800,"station_id":"cpo36qri1sfpv3e86is0","pricing_plan_id":"cebpf4jnsgd1na2vs0mg"},{"bike_id":"8ce4806c-bb9d-4fca-8f7a-c7ad41f52108","system_id":"levelo_inurba_marseille","lat":43.30149,"lon":5.38078,"is_reserved":false,"is_disabled":false,"rental_uris":{"android":"levelo://app?vid=8ce4806c-bb9d-4fca-8f7a-c7ad41f52108","ios":"levelo://app?vid=8ce4806c-bb9d-4fca-8f7a-c7ad41f52108"},"vehicle_type_id":"4","last_reported":1727514473,"current_range_meters":19200,"station_id":"ce4bgjp2rcd13ifvqbh0","pricing_plan_id":"cebpf4jnsgd1na2vs0mg"},{"bike_id":"cf75b762-b246-4899-a58b-3f89c40bd654","system_id":"levelo_inurba_marseille","lat":43.25106,"lon":5.40324,"is_reserved":false,"is_disabled":false,"rental_uris":{"android":"levelo://app?vid=cf75b762-b246-4899-a58b-3f89c40bd654","ios":"levelo://app?vid=cf75b762-b246-4899-a58b-3f89c40bd654"},"vehicle_type_id":"4","last_reported":1727514473,"current_range_meters":24400,"station_id":"ce4bhlh2rcd13ifvqgig","pricing_plan_id":"cebpf4jnsgd1na2vs0mg"},{"bike_id":"9d50c512-c568-4d6b-929d-0715f29d2268","system_id":"levelo_inurba_marseille","lat":43.29793,"lon":5.38108,"is_reserved":false,"is_disabled":false,"rental_uris":{"android":"levelo://app?vid=9d50c512-c568-4d6b-929d-0715f29d2268","ios":"levelo://app?vid=9d50c512-c568-4d6b-929d-0715f29d2268"},"vehicle_type_id":"4","last_reported":1727514473,"current_range_meters":18000,"station_id":"ce4bgip2rcd13ifvqbb0","pricing_plan_id":"cebpf4jnsgd1na2vs0mg"},{"bike_id":"c6b9ea73-bd61-4c9b-abe4-22a8da63c7a9","system_id":"levelo_inurba_marseille","lat":43.26202,"lon":5.37932,"is_reserved":false,"is_disabled":false,"rental_uris":{"android":"levelo://app?vid=c6b9ea73-bd61-4c9b-abe4-22a8da63c7a9","ios":"levelo://app?vid=c6b9ea73-bd61-4c9b-abe4-22a8da63c7a9"},"vehicle_type_id":"4","last_reported":1727514473,"current_range_meters":24800,"station_id":"ce4bhjp2rcd13ifvqg90","pricing_plan_id":"cebpf4jnsgd1na2vs0mg"},{"bike_id":"e9776310-b20e-4114-a6b6-30f9f0cfe653","system_id":"levelo_inurba_marseille","lat":43.26033,"lon":5.37554,"is_reserved":false,"is_disabled":false,"rental_uris":{"android":"levelo://app?vid=e9776310-b20e-4114-a6b6-30f9f0cfe653","ios":"levelo://app?vid=e9776310-b20e-4114-a6b6-30f9f0cfe653"},"vehicle_type_id":"4","last_reported":1727514473,"current_range_meters":38400,"station_id":"ce4bhgh2rcd13ifvqfa0","pricing_plan_id":"cebpf4jnsgd1na2vs0mg"},{"bike_id":"d9b76706-e826-4a7c-aebc-5d53252d4306","system_id":"levelo_inurba_marseille","lat":43.24083,"lon":5.37753,"is_reserved":false,"is_disabled":false,"rental_uris":{"android":"levelo://app?vid=d9b76706-e826-4a7c-aebc-5d53252d4306","ios":"levelo://app?vid=d9b76706-e826-4a7c-aebc-5d53252d4306"},"vehicle_type_id":"4","last_reported":1727514473,"current_range_meters":14400,"station_id":"ce4bhnp2rcd13ifvqgvg","pricing_plan_id":"cebpf4jnsgd1na2vs0mg"},{"bike_id":"bf4fc7ff-491d-4646-9f33-041ca30fa86b","system_id":"levelo_inurba_marseille","lat":43.29274,"lon":5.38435,"is_reserved":false,"is_disabled":false,"rental_uris":{"android":"levelo://app?vid=bf4fc7ff-491d-4646-9f33-041ca30fa86b","ios":"levelo://app?vid=bf4fc7ff-491d-4646-9f33-041ca30fa86b"},"vehicle_type_id":"4","last_reported":1727514473,"current_range_meters":36000,"station_id":"ce4bh692rcd13ifvqea0","pricing_plan_id":"cebpf4jnsgd1na2vs0mg"},{"bike_id":"0701cf2a-674c-4c9d-af1e-6650acbaaf74","system_id":"levelo_inurba_marseille","lat":43.2838,"lon":5.37309,"is_reserved":false,"is_disabled":false,"rental_uris":{"android":"levelo://app?vid=0701cf2a-674c-4c9d-af1e-6650acbaaf74","ios":"levelo://app?vid=0701cf2a-674c-4c9d-af1e-6650acbaaf74"},"vehicle_type_id":"4","last_reported":1727514473,"current_range_meters":16800,"station_id":"","pricing_plan_id":"cebpf4jnsgd1na2vs0mg"},{"bike_id":"ea164bf3-2888-4fbb-b022-bd6ff776ad99","system_id":"levelo_inurba_marseille","lat":43.27913,"lon":5.38018,"is_reserved":false,"is_disabled":false,"rental_uris":{"android":"levelo://app?vid=ea164bf3-2888-4fbb-b022-bd6ff776ad99","ios":"levelo://app?vid=ea164bf3-2888-4fbb-b022-bd6ff776ad99"},"vehicle_type_id":"4","last_reported":1727514473,"current_range_meters":39200,"station_id":"ce4bhf92rcd13ifvqf50","pricing_plan_id":"cebpf4jnsgd1na2vs0mg"},{"bike_id":"51104fc6-b77a-48d1-a0f1-aacaf150d85f","system_id":"levelo_inurba_marseille","lat":43.30429,"lon":5.39737,"is_reserved":false,"is_disabled":false,"rental_uris":{"android":"levelo://app?vid=51104fc6-b77a-48d1-a0f1-aacaf150d85f","ios":"levelo://app?vid=51104fc6-b77a-48d1-a0f1-aacaf150d85f"},"vehicle_type_id":"4","last_reported":1727514473,"current_range_meters":36800,"station_id":"ce4bh092rcd13ifvqd20","pricing_plan_id":"cebpf4jnsgd1na2vs0mg"},{"bike_id":"100c3c1c-7ac0-48b4-897a-a6912b8a558c","system_id":"levelo_inurba_marseille","lat":43.29037,"lon":5.39961,"is_reserved":false,"is_disabled":false,"rental_uris":{"android":"levelo://app?vid=100c3c1c-7ac0-48b4-897a-a6912b8a558c","ios":"levelo://app?vid=100c3c1c-7ac0-48b4-897a-a6912b8a558c"},"vehicle_type_id":"4","last_reported":1727514473,"current_range_meters":33600,"station_id":"ce4bh392rcd13ifvqdm0","pricing_plan_id":"cebpf4jnsgd1na2vs0mg"},{"bike_id":"1ca4f1af-3072-47d7-855f-d05c4b7f45a5","system_id":"levelo_inurba_marseille","lat":43.28275,"lon":5.35096,"is_reserved":false,"is_disabled":false,"rental_uris":{"android":"levelo://app?vid=1ca4f1af-3072-47d7-855f-d05c4b7f45a5","ios":"levelo://app?vid=1ca4f1af-3072-47d7-855f-d05c4b7f45a5"},"vehicle_type_id":"4","last_reported":1727514473,"current_range_meters":30800,"station_id":"ce4bhbp2rcd13ifvqerg","pricing_plan_id":"cebpf4jnsgd1na2vs0mg"},{"bike_id":"b349d53e-13b5-4a3a-b01d-f05b3776c31f","system_id":"levelo_inurba_marseille","lat":43.291098,"lon":5.381916,"is_reserved":false,"is_disabled":false,"rental_uris":{"android":"levelo://app?vid=b349d53e-13b5-4a3a-b01d-f05b3776c31f","ios":"levelo://app?vid=b349d53e-13b5-4a3a-b01d-f05b3776c31f"},"vehicle_type_id":"4","last_reported":1727514473,"current_range_meters":28800,"station_id":"ce4bhb92rcd13ifvqen0","pricing_plan_id":"cebpf4jnsgd1na2vs0mg"},{"bike_id":"085672ad-9875-4e85-b5fa-2a817517ba2a","system_id":"levelo_inurba_marseille","lat":43.29282,"lon":5.40123,"is_reserved":false,"is_disabled":false,"rental_uris":{"android":"levelo://app?vid=085672ad-9875-4e85-b5fa-2a817517ba2a","ios":"levelo://app?vid=085672ad-9875-4e85-b5fa-2a817517ba2a"},"vehicle_type_id":"4","last_reported":1727514473,"current_range_meters":38800,"station_id":"ce4bh312rcd13ifvqdk0","pricing_plan_id":"cebpf4jnsgd1na2vs0mg"},{"bike_id":"a6903808-354a-4aed-8af8-b4a5f29db99f","system_id":"levelo_inurba_marseille","lat":43.27955,"lon":5.41046,"is_reserved":false,"is_disabled":false,"rental_uris":{"android":"levelo://app?vid=a6903808-354a-4aed-8af8-b4a5f29db99f","ios":"levelo://app?vid=a6903808-354a-4aed-8af8-b4a5f29db99f"},"vehicle_type_id":"4","last_reported":1727514473,"current_range_meters":18000,"station_id":"ce4bhnp2rcd13ifvqh0g","pricing_plan_id":"cebpf4jnsgd1na2vs0mg"},{"bike_id":"2969bdbb-042e-46e5-981e-947736358a43","system_id":"levelo_inurba_marseille","lat":43.29522,"lon":5.37484,"is_reserved":false,"is_disabled":false,"rental_uris":{"android":"levelo://app?vid=2969bdbb-042e-46e5-981e-947736358a43","ios":"levelo://app?vid=2969bdbb-042e-46e5-981e-947736358a43"},"vehicle_type_id":"4","last_reported":1727514473,"current_range_meters":22800,"station_id":"ce4bgkp2rcd13ifvqbmg","pricing_plan_id":"cebpf4jnsgd1na2vs0mg"},{"bike_id":"6cdca13d-24d1-4302-912a-54d18c748242","system_id":"levelo_inurba_marseille","lat":43.31083,"lon":5.40132,"is_reserved":false,"is_disabled":false,"rental_uris":{"android":"levelo://app?vid=6cdca13d-24d1-4302-912a-54d18c748242","ios":"levelo://app?vid=6cdca13d-24d1-4302-912a-54d18c748242"},"vehicle_type_id":"4","last_reported":1727514473,"current_range_meters":10000,"station_id":"","pricing_plan_id":"cebpf4jnsgd1na2vs0mg"},{"bike_id":"cf3a4ee4-c9d3-4ea3-ae0b-b5b4c90d13af","system_id":"levelo_inurba_marseille","lat":43.2985,"lon":5.36286,"is_reserved":false,"is_disabled":false,"rental_uris":{"android":"levelo://app?vid=cf3a4ee4-c9d3-4ea3-ae0b-b5b4c90d13af","ios":"levelo://app?vid=cf3a4ee4-c9d3-4ea3-ae0b-b5b4c90d13af"},"vehicle_type_id":"4","last_reported":1727514473,"current_range_meters":16400,"station_id":"ce4bgpp2rcd13ifvqc3g","pricing_plan_id":"cebpf4jnsgd1na2vs0mg"},{"bike_id":"093c990c-4ffd-449c-ac18-aeecffb3b446","system_id":"levelo_inurba_marseille","lat":43.30934,"lon":5.40143,"is_reserved":false,"is_disabled":false,"rental_uris":{"android":"levelo://app?vid=093c990c-4ffd-449c-ac18-aeecffb3b446","ios":"levelo://app?vid=093c990c-4ffd-449c-ac18-aeecffb3b446"},"vehicle_type_id":"4","last_reported":1727514473,"current_range_meters":33600,"station_id":"ce4bgvp2rcd13ifvqct0","pricing_plan_id":"cebpf4jnsgd1na2vs0mg"},{"bike_id":"80772028-8c3e-4d06-b5a5-47d20bb2da13","system_id":"levelo_inurba_marseille","lat":43.30157,"lon":5.38085,"is_reserved":false,"is_disabled":false,"rental_uris":{"android":"levelo://app?vid=80772028-8c3e-4d06-b5a5-47d20bb2da13","ios":"levelo://app?vid=80772028-8c3e-4d06-b5a5-47d20bb2da13"},"vehicle_type_id":"4","last_reported":1727514473,"current_range_meters":36400,"station_id":"ce4bgjp2rcd13ifvqbh0","pricing_plan_id":"cebpf4jnsgd1na2vs0mg"},{"bike_id":"a16081e8-2054-468c-b28b-66edf0bf67ff","system_id":"levelo_inurba_marseille","lat":43.29067,"lon":5.37157,"is_reserved":false,"is_disabled":false,"rental_uris":{"android":"levelo://app?vid=a16081e8-2054-468c-b28b-66edf0bf67ff","ios":"levelo://app?vid=a16081e8-2054-468c-b28b-66edf0bf67ff"},"vehicle_type_id":"4","last_reported":1727514473,"current_range_meters":7200,"station_id":"ce4bh5p2rcd13ifvqe4g","pricing_plan_id":"cebpf4jnsgd1na2vs0mg"},{"bike_id":"7f31b7c3-4a3b-43de-afc0-d4cf26796b63","system_id":"levelo_inurba_marseille","lat":43.27951,"lon":5.41048,"is_reserved":false,"is_disabled":false,"rental_uris":{"android":"levelo://app?vid=7f31b7c3-4a3b-43de-afc0-d4cf26796b63","ios":"levelo://app?vid=7f31b7c3-4a3b-43de-afc0-d4cf26796b63"},"vehicle_type_id":"4","last_reported":1727514473,"current_range_meters":33600,"station_id":"ce4bhnp2rcd13ifvqh0g","pricing_plan_id":"cebpf4jnsgd1na2vs0mg"},{"bike_id":"da2e7afb-45a7-4193-9960-716c0aa1657b","system_id":"levelo_inurba_marseille","lat":43.32292,"lon":5.38278,"is_reserved":false,"is_disabled":false,"rental_uris":{"android":"levelo://app?vid=da2e7afb-45a7-4193-9960-716c0aa1657b","ios":"levelo://app?vid=da2e7afb-45a7-4193-9960-716c0aa1657b"},"vehicle_type_id":"4","last_reported":1727514473,"current_range_meters":37600,"station_id":"ce4bhr12rcd13ifvqhqg","pricing_plan_id":"cebpf4jnsgd1na2vs0mg"},{"bike_id":"b64089c7-13ae-46ba-b29e-4e00e75820e1","system_id":"levelo_inurba_marseille","lat":43.30161,"lon":5.38078,"is_reserved":false,"is_disabled":false,"rental_uris":{"android":"levelo://app?vid=b64089c7-13ae-46ba-b29e-4e00e75820e1","ios":"levelo://app?vid=b64089c7-13ae-46ba-b29e-4e00e75820e1"},"vehicle_type_id":"4","last_reported":1727514473,"current_range_meters":37600,"station_id":"ce4bgjp2rcd13ifvqbh0","pricing_plan_id":"cebpf4jnsgd1na2vs0mg"},{"bike_id":"d151f664-7832-4381-b6dd-7d7b186a5d22","system_id":"levelo_inurba_marseille","lat":43.24075,"lon":5.37755,"is_reserved":false,"is_disabled":false,"rental_uris":{"android":"levelo://app?vid=d151f664-7832-4381-b6dd-7d7b186a5d22","ios":"levelo://app?vid=d151f664-7832-4381-b6dd-7d7b186a5d22"},"vehicle_type_id":"4","last_reported":1727514473,"current_range_meters":26800,"station_id":"ce4bhnp2rcd13ifvqgvg","pricing_plan_id":"cebpf4jnsgd1na2vs0mg"},{"bike_id":"007a75d5-0ad5-4811-897a-6d5e1a071c56","system_id":"levelo_inurba_marseille","lat":43.26206,"lon":5.37445,"is_reserved":false,"is_disabled":false,"rental_uris":{"android":"levelo://app?vid=007a75d5-0ad5-4811-897a-6d5e1a071c56","ios":"levelo://app?vid=007a75d5-0ad5-4811-897a-6d5e1a071c56"},"vehicle_type_id":"4","last_reported":1727514473,"current_range_meters":12800,"station_id":"ce4bhgp2rcd13ifvqfc0","pricing_plan_id":"cebpf4jnsgd1na2vs0mg"},{"bike_id":"dbab5e16-0de9-4389-932d-06a62d667144","system_id":"levelo_inurba_marseille","lat":43.25833,"lon":5.39417,"is_reserved":false,"is_disabled":false,"rental_uris":{"android":"levelo://app?vid=dbab5e16-0de9-4389-932d-06a62d667144","ios":"levelo://app?vid=dbab5e16-0de9-4389-932d-06a62d667144"},"vehicle_type_id":"4","last_reported":1727514473,"current_range_meters":37600,"station_id":"ce4bhip2rcd13ifvqft0","pricing_plan_id":"cebpf4jnsgd1na2vs0mg"},{"bike_id":"ce22f827-0fe6-48b9-9032-92712ad8ee01","system_id":"levelo_inurba_marseille","lat":43.30786,"lon":5.37659,"is_reserved":false,"is_disabled":false,"rental_uris":{"android":"levelo://app?vid=ce22f827-0fe6-48b9-9032-92712ad8ee01","ios":"levelo://app?vid=ce22f827-0fe6-48b9-9032-92712ad8ee01"},"vehicle_type_id":"4","last_reported":1727514473,"current_range_meters":27600,"station_id":"ce4bgv92rcd13ifvqcq0","pricing_plan_id":"cebpf4jnsgd1na2vs0mg"},{"bike_id":"b9cd4885-6618-49ae-b6e3-10480ada383c","system_id":"levelo_inurba_marseille","lat":43.28282,"lon":5.35091,"is_reserved":false,"is_disabled":false,"rental_uris":{"android":"levelo://app?vid=b9cd4885-6618-49ae-b6e3-10480ada383c","ios":"levelo://app?vid=b9cd4885-6618-49ae-b6e3-10480ada383c"},"vehicle_type_id":"4","last_reported":1727514473,"current_range_meters":39200,"station_id":"ce4bhbp2rcd13ifvqerg","pricing_plan_id":"cebpf4jnsgd1na2vs0mg"},{"bike_id":"2873df81-5c2b-4460-b599-b4b53a9bf0f4","system_id":"levelo_inurba_marseille","lat":43.29072,"lon":5.37173,"is_reserved":false,"is_disabled":false,"rental_uris":{"android":"levelo://app?vid=2873df81-5c2b-4460-b599-b4b53a9bf0f4","ios":"levelo://app?vid=2873df81-5c2b-4460-b599-b4b53a9bf0f4"},"vehicle_type_id":"4","last_reported":1727514473,"current_range_meters":14400,"station_id":"ce4bh5p2rcd13ifvqe4g","pricing_plan_id":"cebpf4jnsgd1na2vs0mg"},{"bike_id":"3407da71-e9f5-4375-9956-506983640a2f","system_id":"levelo_inurba_marseille","lat":43.28984,"lon":5.37587,"is_reserved":false,"is_disabled":false,"rental_uris":{"android":"levelo://app?vid=3407da71-e9f5-4375-9956-506983640a2f","ios":"levelo://app?vid=3407da71-e9f5-4375-9956-506983640a2f"},"vehicle_type_id":"4","last_reported":1727514473,"current_range_meters":29600,"station_id":"","pricing_plan_id":"cebpf4jnsgd1na2vs0mg"},{"bike_id":"997c5dee-6023-4ccb-8a77-bb0dc221f9f4","system_id":"levelo_inurba_marseille","lat":43.30909,"lon":5.36849,"is_reserved":false,"is_disabled":false,"rental_uris":{"android":"levelo://app?vid=997c5dee-6023-4ccb-8a77-bb0dc221f9f4","ios":"levelo://app?vid=997c5dee-6023-4ccb-8a77-bb0dc221f9f4"},"vehicle_type_id":"4","last_reported":1727514473,"current_range_meters":28400,"station_id":"ce4bgn92rcd13ifvqbvg","pricing_plan_id":"cebpf4jnsgd1na2vs0mg"},{"bike_id":"fdb7b1d4-a38d-4e99-834f-3997cd04cd13","system_id":"levelo_inurba_marseille","lat":43.26055,"lon":5.39398,"is_reserved":false,"is_disabled":false,"rental_uris":{"android":"levelo://app?vid=fdb7b1d4-a38d-4e99-834f-3997cd04cd13","ios":"levelo://app?vid=fdb7b1d4-a38d-4e99-834f-3997cd04cd13"},"vehicle_type_id":"4","last_reported":1727514473,"current_range_meters":37600,"station_id":"ce4bhh92rcd13ifvqfj0","pricing_plan_id":"cebpf4jnsgd1na2vs0mg"},{"bike_id":"77f22560-948c-43c4-9d8b-49947d08654a","system_id":"levelo_inurba_marseille","lat":43.26211,"lon":5.37939,"is_reserved":false,"is_disabled":false,"rental_uris":{"android":"levelo://app?vid=77f22560-948c-43c4-9d8b-49947d08654a","ios":"levelo://app?vid=77f22560-948c-43c4-9d8b-49947d08654a"},"vehicle_type_id":"4","last_reported":1727514473,"current_range_meters":20000,"station_id":"ce4bhjp2rcd13ifvqg90","pricing_plan_id":"cebpf4jnsgd1na2vs0mg"},{"bike_id":"a7bee9ae-54ab-4a82-bdc5-9f85919258dd","system_id":"levelo_inurba_marseille","lat":43.25507,"lon":5.3766,"is_reserved":false,"is_disabled":false,"rental_uris":{"android":"levelo://app?vid=a7bee9ae-54ab-4a82-bdc5-9f85919258dd","ios":"levelo://app?vid=a7bee9ae-54ab-4a82-bdc5-9f85919258dd"},"vehicle_type_id":"4","last_reported":1727514473,"current_range_meters":36000,"station_id":"ce4bhh12rcd13ifvqff0","pricing_plan_id":"cebpf4jnsgd1na2vs0mg"},{"bike_id":"e3ee7d5b-bd0b-4d4d-a3e6-11e8cd23caf2","system_id":"levelo_inurba_marseille","lat":43.28155,"lon":5.42636,"is_reserved":false,"is_disabled":false,"rental_uris":{"android":"levelo://app?vid=e3ee7d5b-bd0b-4d4d-a3e6-11e8cd23caf2","ios":"levelo://app?vid=e3ee7d5b-bd0b-4d4d-a3e6-11e8cd23caf2"},"vehicle_type_id":"4","last_reported":1727514473,"current_range_meters":34000,"station_id":"ce4bhnh2rcd13ifvqgug","pricing_plan_id":"cebpf4jnsgd1na2vs0mg"},{"bike_id":"65768cd7-63c4-42bd-95bb-2f7bc170252f","system_id":"levelo_inurba_marseille","lat":43.29845,"lon":5.36275,"is_reserved":false,"is_disabled":false,"rental_uris":{"android":"levelo://app?vid=65768cd7-63c4-42bd-95bb-2f7bc170252f","ios":"levelo://app?vid=65768cd7-63c4-42bd-95bb-2f7bc170252f"},"vehicle_type_id":"4","last_reported":1727514473,"current_range_meters":36000,"station_id":"ce4bgpp2rcd13ifvqc3g","pricing_plan_id":"cebpf4jnsgd1na2vs0mg"},{"bike_id":"b25975a2-4789-471d-bf7d-ec59dfff3ec3","system_id":"levelo_inurba_marseille","lat":43.2953,"lon":5.3749,"is_reserved":false,"is_disabled":false,"rental_uris":{"android":"levelo://app?vid=b25975a2-4789-471d-bf7d-ec59dfff3ec3","ios":"levelo://app?vid=b25975a2-4789-471d-bf7d-ec59dfff3ec3"},"vehicle_type_id":"4","last_reported":1727514473,"current_range_meters":18800,"station_id":"ce4bgkp2rcd13ifvqbmg","pricing_plan_id":"cebpf4jnsgd1na2vs0mg"},{"bike_id":"da3d8f0d-0f47-455d-bf44-fb306bfeadf4","system_id":"levelo_inurba_marseille","lat":43.30148,"lon":5.38081,"is_reserved":false,"is_disabled":false,"rental_uris":{"android":"levelo://app?vid=da3d8f0d-0f47-455d-bf44-fb306bfeadf4","ios":"levelo://app?vid=da3d8f0d-0f47-455d-bf44-fb306bfeadf4"},"vehicle_type_id":"4","last_reported":1727514473,"current_range_meters":27200,"station_id":"ce4bgjp2rcd13ifvqbh0","pricing_plan_id":"cebpf4jnsgd1na2vs0mg"},{"bike_id":"9bc57d13-f321-4dd6-ab39-d1ee59c87977","system_id":"levelo_inurba_marseille","lat":43.26945,"lon":5.40248,"is_reserved":false,"is_disabled":false,"rental_uris":{"android":"levelo://app?vid=9bc57d13-f321-4dd6-ab39-d1ee59c87977","ios":"levelo://app?vid=9bc57d13-f321-4dd6-ab39-d1ee59c87977"},"vehicle_type_id":"4","last_reported":1727514473,"current_range_meters":17200,"station_id":"cjm6bp8fraef2m0cb0m0","pricing_plan_id":"cebpf4jnsgd1na2vs0mg"},{"bike_id":"8e5fede3-7239-45a3-a1db-b817eeb8879f","system_id":"levelo_inurba_marseille","lat":43.29878,"lon":5.39734,"is_reserved":false,"is_disabled":false,"rental_uris":{"android":"levelo://app?vid=8e5fede3-7239-45a3-a1db-b817eeb8879f","ios":"levelo://app?vid=8e5fede3-7239-45a3-a1db-b817eeb8879f"},"vehicle_type_id":"4","last_reported":1727514473,"current_range_meters":38400,"station_id":"ce4bh0h2rcd13ifvqd50","pricing_plan_id":"cebpf4jnsgd1na2vs0mg"},{"bike_id":"9f9ae517-fbc3-4c21-a58e-882cc1dece10","system_id":"levelo_inurba_marseille","lat":43.30549,"lon":5.36542,"is_reserved":false,"is_disabled":false,"rental_uris":{"android":"levelo://app?vid=9f9ae517-fbc3-4c21-a58e-882cc1dece10","ios":"levelo://app?vid=9f9ae517-fbc3-4c21-a58e-882cc1dece10"},"vehicle_type_id":"4","last_reported":1727514473,"current_range_meters":8800,"station_id":"ce4bgs12rcd13ifvqcag","pricing_plan_id":"cebpf4jnsgd1na2vs0mg"},{"bike_id":"01626eb4-90d2-4ed0-9747-19e193190dcb","system_id":"levelo_inurba_marseille","lat":43.29035,"lon":5.38652,"is_reserved":false,"is_disabled":false,"rental_uris":{"android":"levelo://app?vid=01626eb4-90d2-4ed0-9747-19e193190dcb","ios":"levelo://app?vid=01626eb4-90d2-4ed0-9747-19e193190dcb"},"vehicle_type_id":"4","last_reported":1727514473,"current_range_meters":14800,"station_id":"ce4bh4p2rcd13ifvqe0g","pricing_plan_id":"cebpf4jnsgd1na2vs0mg"},{"bike_id":"0c3f0369-7cdf-4cba-a0db-09435ab8c8da","system_id":"levelo_inurba_marseille","lat":43.23191,"lon":5.39991,"is_reserved":false,"is_disabled":false,"rental_uris":{"android":"levelo://app?vid=0c3f0369-7cdf-4cba-a0db-09435ab8c8da","ios":"levelo://app?vid=0c3f0369-7cdf-4cba-a0db-09435ab8c8da"},"vehicle_type_id":"4","last_reported":1727514473,"current_range_meters":32000,"station_id":"ce4bhn12rcd13ifvqgqg","pricing_plan_id":"cebpf4jnsgd1na2vs0mg"},{"bike_id":"deb7980f-58a8-4033-8835-655c6a4e78f7","system_id":"levelo_inurba_marseille","lat":43.27566,"lon":5.3844,"is_reserved":false,"is_disabled":false,"rental_uris":{"android":"levelo://app?vid=deb7980f-58a8-4033-8835-655c6a4e78f7","ios":"levelo://app?vid=deb7980f-58a8-4033-8835-655c6a4e78f7"},"vehicle_type_id":"4","last_reported":1727514473,"current_range_meters":28000,"station_id":"ce4bhh92rcd13ifvqfi0","pricing_plan_id":"cebpf4jnsgd1na2vs0mg"},{"bike_id":"5bbd2505-51dc-451e-8388-5c62e078114a","system_id":"levelo_inurba_marseille","lat":43.24179,"lon":5.39734,"is_reserved":false,"is_disabled":false,"rental_uris":{"android":"levelo://app?vid=5bbd2505-51dc-451e-8388-5c62e078114a","ios":"levelo://app?vid=5bbd2505-51dc-451e-8388-5c62e078114a"},"vehicle_type_id":"4","last_reported":1727514473,"current_range_meters":39200,"station_id":"ce4bhn12rcd13ifvqgpg","pricing_plan_id":"cebpf4jnsgd1na2vs0mg"},{"bike_id":"eec8b1e8-f483-4262-84c9-be3860d96cba","system_id":"levelo_inurba_marseille","lat":43.29279,"lon":5.40131,"is_reserved":false,"is_disabled":false,"rental_uris":{"android":"levelo://app?vid=eec8b1e8-f483-4262-84c9-be3860d96cba","ios":"levelo://app?vid=eec8b1e8-f483-4262-84c9-be3860d96cba"},"vehicle_type_id":"4","last_reported":1727514473,"current_range_meters":39200,"station_id":"ce4bh312rcd13ifvqdk0","pricing_plan_id":"cebpf4jnsgd1na2vs0mg"},{"bike_id":"06981e52-06f2-48c7-8865-e14ca565f9df","system_id":"levelo_inurba_marseille","lat":43.29703,"lon":5.37693,"is_reserved":false,"is_disabled":false,"rental_uris":{"android":"levelo://app?vid=06981e52-06f2-48c7-8865-e14ca565f9df","ios":"levelo://app?vid=06981e52-06f2-48c7-8865-e14ca565f9df"},"vehicle_type_id":"4","last_reported":1727514473,"current_range_meters":38800,"station_id":"ce4bgkh2rcd13ifvqbl0","pricing_plan_id":"cebpf4jnsgd1na2vs0mg"},{"bike_id":"bc20af5c-be7b-4c51-b09b-2e170ca1b5b9","system_id":"levelo_inurba_marseille","lat":43.25487,"lon":5.37647,"is_reserved":false,"is_disabled":false,"rental_uris":{"android":"levelo://app?vid=bc20af5c-be7b-4c51-b09b-2e170ca1b5b9","ios":"levelo://app?vid=bc20af5c-be7b-4c51-b09b-2e170ca1b5b9"},"vehicle_type_id":"4","last_reported":1727514473,"current_range_meters":38000,"station_id":"ce4bhh12rcd13ifvqff0","pricing_plan_id":"cebpf4jnsgd1na2vs0mg"},{"bike_id":"03af8350-a5f2-42f1-9a40-a313e4daf477","system_id":"levelo_inurba_marseille","lat":43.23188,"lon":5.39983,"is_reserved":false,"is_disabled":false,"rental_uris":{"android":"levelo://app?vid=03af8350-a5f2-42f1-9a40-a313e4daf477","ios":"levelo://app?vid=03af8350-a5f2-42f1-9a40-a313e4daf477"},"vehicle_type_id":"4","last_reported":1727514473,"current_range_meters":9200,"station_id":"ce4bhn12rcd13ifvqgqg","pricing_plan_id":"cebpf4jnsgd1na2vs0mg"},{"bike_id":"242970b0-1372-463d-8314-94d3c92d90a4","system_id":"levelo_inurba_marseille","lat":43.26209,"lon":5.37443,"is_reserved":false,"is_disabled":false,"rental_uris":{"android":"levelo://app?vid=242970b0-1372-463d-8314-94d3c92d90a4","ios":"levelo://app?vid=242970b0-1372-463d-8314-94d3c92d90a4"},"vehicle_type_id":"4","last_reported":1727514473,"current_range_meters":33600,"station_id":"ce4bhgp2rcd13ifvqfc0","pricing_plan_id":"cebpf4jnsgd1na2vs0mg"},{"bike_id":"d8e32f1c-4c32-4777-922d-4d90b15b71c7","system_id":"levelo_inurba_marseille","lat":43.30863,"lon":5.3685,"is_reserved":false,"is_disabled":false,"rental_uris":{"android":"levelo://app?vid=d8e32f1c-4c32-4777-922d-4d90b15b71c7","ios":"levelo://app?vid=d8e32f1c-4c32-4777-922d-4d90b15b71c7"},"vehicle_type_id":"4","last_reported":1727514473,"current_range_meters":10800,"station_id":"ce4bgn92rcd13ifvqbvg","pricing_plan_id":"cebpf4jnsgd1na2vs0mg"},{"bike_id":"06f62eff-144c-42e8-9cda-03a811e02320","system_id":"levelo_inurba_marseille","lat":43.27488,"lon":5.42457,"is_reserved":false,"is_disabled":false,"rental_uris":{"android":"levelo://app?vid=06f62eff-144c-42e8-9cda-03a811e02320","ios":"levelo://app?vid=06f62eff-144c-42e8-9cda-03a811e02320"},"vehicle_type_id":"4","last_reported":1727514473,"current_range_meters":35600,"station_id":"ce4bhn92rcd13ifvqgrg","pricing_plan_id":"cebpf4jnsgd1na2vs0mg"},{"bike_id":"b470945e-f45c-4291-ac95-d7061c9aab44","system_id":"levelo_inurba_marseille","lat":43.27376,"lon":5.41214,"is_reserved":false,"is_disabled":false,"rental_uris":{"android":"levelo://app?vid=b470945e-f45c-4291-ac95-d7061c9aab44","ios":"levelo://app?vid=b470945e-f45c-4291-ac95-d7061c9aab44"},"vehicle_type_id":"4","last_reported":1727514473,"current_range_meters":28800,"station_id":"","pricing_plan_id":"cebpf4jnsgd1na2vs0mg"},{"bike_id":"0f60be85-82c7-481b-b668-1bdf5c6a8816","system_id":"levelo_inurba_marseille","lat":43.2954,"lon":5.38553,"is_reserved":false,"is_disabled":false,"rental_uris":{"android":"levelo://app?vid=0f60be85-82c7-481b-b668-1bdf5c6a8816","ios":"levelo://app?vid=0f60be85-82c7-481b-b668-1bdf5c6a8816"},"vehicle_type_id":"4","last_reported":1727514473,"current_range_meters":38800,"station_id":"ce4bgih2rcd13ifvqba0","pricing_plan_id":"cebpf4jnsgd1na2vs0mg"},{"bike_id":"7b094b27-c226-4735-ad93-a86b2a5de02d","system_id":"levelo_inurba_marseille","lat":43.26686,"lon":5.38276,"is_reserved":false,"is_disabled":false,"rental_uris":{"android":"levelo://app?vid=7b094b27-c226-4735-ad93-a86b2a5de02d","ios":"levelo://app?vid=7b094b27-c226-4735-ad93-a86b2a5de02d"},"vehicle_type_id":"4","last_reported":1727514473,"current_range_meters":38000,"station_id":"ce4bhg92rcd13ifvqf90","pricing_plan_id":"cebpf4jnsgd1na2vs0mg"},{"bike_id":"b6193e94-c93a-43a4-a4e8-8cb0195103ca","system_id":"levelo_inurba_marseille","lat":43.27996,"lon":5.40027,"is_reserved":false,"is_disabled":false,"rental_uris":{"android":"levelo://app?vid=b6193e94-c93a-43a4-a4e8-8cb0195103ca","ios":"levelo://app?vid=b6193e94-c93a-43a4-a4e8-8cb0195103ca"},"vehicle_type_id":"4","last_reported":1727514473,"current_range_meters":38800,"station_id":"ce4bho92rcd13ifvqh4g","pricing_plan_id":"cebpf4jnsgd1na2vs0mg"},{"bike_id":"23718270-4e74-46b6-8713-922dcb881082","system_id":"levelo_inurba_marseille","lat":43.3046,"lon":5.37901,"is_reserved":false,"is_disabled":false,"rental_uris":{"android":"levelo://app?vid=23718270-4e74-46b6-8713-922dcb881082","ios":"levelo://app?vid=23718270-4e74-46b6-8713-922dcb881082"},"vehicle_type_id":"4","last_reported":1727514473,"current_range_meters":30400,"station_id":"ce4bgup2rcd13ifvqcn0","pricing_plan_id":"cebpf4jnsgd1na2vs0mg"},{"bike_id":"1a20ea9f-ac93-42d3-aa28-127e314df036","system_id":"levelo_inurba_marseille","lat":43.26945,"lon":5.38628,"is_reserved":false,"is_disabled":false,"rental_uris":{"android":"levelo://app?vid=1a20ea9f-ac93-42d3-aa28-127e314df036","ios":"levelo://app?vid=1a20ea9f-ac93-42d3-aa28-127e314df036"},"vehicle_type_id":"4","last_reported":1727514473,"current_range_meters":37600,"station_id":"ce4bhh92rcd13ifvqfh0","pricing_plan_id":"cebpf4jnsgd1na2vs0mg"},{"bike_id":"10845277-4983-4995-af45-2b1c53021f50","system_id":"levelo_inurba_marseille","lat":43.24076,"lon":5.37756,"is_reserved":false,"is_disabled":false,"rental_uris":{"android":"levelo://app?vid=10845277-4983-4995-af45-2b1c53021f50","ios":"levelo://app?vid=10845277-4983-4995-af45-2b1c53021f50"},"vehicle_type_id":"4","last_reported":1727514473,"current_range_meters":24000,"station_id":"ce4bhnp2rcd13ifvqgvg","pricing_plan_id":"cebpf4jnsgd1na2vs0mg"},{"bike_id":"e4361fa2-90d9-45ff-9d8a-e7b112f4e011","system_id":"levelo_inurba_marseille","lat":43.28517,"lon":5.39128,"is_reserved":false,"is_disabled":false,"rental_uris":{"android":"levelo://app?vid=e4361fa2-90d9-45ff-9d8a-e7b112f4e011","ios":"levelo://app?vid=e4361fa2-90d9-45ff-9d8a-e7b112f4e011"},"vehicle_type_id":"4","last_reported":1727514473,"current_range_meters":34000,"station_id":"ce4bh3p2rcd13ifvqdp0","pricing_plan_id":"cebpf4jnsgd1na2vs0mg"},{"bike_id":"5047cb4d-ca91-46aa-bdab-25b28ad12de4","system_id":"levelo_inurba_marseille","lat":43.24661,"lon":5.38162,"is_reserved":false,"is_disabled":false,"rental_uris":{"android":"levelo://app?vid=5047cb4d-ca91-46aa-bdab-25b28ad12de4","ios":"levelo://app?vid=5047cb4d-ca91-46aa-bdab-25b28ad12de4"},"vehicle_type_id":"4","last_reported":1727514473,"current_range_meters":6800,"station_id":"ce4bhih2rcd13ifvqfr0","pricing_plan_id":"cebpf4jnsgd1na2vs0mg"},{"bike_id":"623f0d9e-00ec-42fc-ad5c-64dbf135db7b","system_id":"levelo_inurba_marseille","lat":43.323425,"lon":5.406286,"is_reserved":false,"is_disabled":false,"rental_uris":{"android":"levelo://app?vid=623f0d9e-00ec-42fc-ad5c-64dbf135db7b","ios":"levelo://app?vid=623f0d9e-00ec-42fc-ad5c-64dbf135db7b"},"vehicle_type_id":"4","last_reported":1727514473,"current_range_meters":25600,"station_id":"ce4bhq92rcd13ifvqhjg","pricing_plan_id":"cebpf4jnsgd1na2vs0mg"},{"bike_id":"cab45fd0-efbe-42f4-815f-9d32eba24a97","system_id":"levelo_inurba_marseille","lat":43.279449,"lon":5.410468,"is_reserved":false,"is_disabled":false,"rental_uris":{"android":"levelo://app?vid=cab45fd0-efbe-42f4-815f-9d32eba24a97","ios":"levelo://app?vid=cab45fd0-efbe-42f4-815f-9d32eba24a97"},"vehicle_type_id":"4","last_reported":1727514473,"current_range_meters":20000,"station_id":"ce4bhnp2rcd13ifvqh0g","pricing_plan_id":"cebpf4jnsgd1na2vs0mg"},{"bike_id":"6eff8d2d-61fa-4715-9388-b30a052d3e98","system_id":"levelo_inurba_marseille","lat":43.337444,"lon":5.374475,"is_reserved":false,"is_disabled":false,"rental_uris":{"android":"levelo://app?vid=6eff8d2d-61fa-4715-9388-b30a052d3e98","ios":"levelo://app?vid=6eff8d2d-61fa-4715-9388-b30a052d3e98"},"vehicle_type_id":"4","last_reported":1727514473,"current_range_meters":33200,"station_id":"","pricing_plan_id":"cebpf4jnsgd1na2vs0mg"},{"bike_id":"637ea54b-676e-4687-a372-f778f0655b85","system_id":"levelo_inurba_marseille","lat":43.27215,"lon":5.40101,"is_reserved":false,"is_disabled":false,"rental_uris":{"android":"levelo://app?vid=637ea54b-676e-4687-a372-f778f0655b85","ios":"levelo://app?vid=637ea54b-676e-4687-a372-f778f0655b85"},"vehicle_type_id":"4","last_reported":1727514473,"current_range_meters":26000,"station_id":"","pricing_plan_id":"cebpf4jnsgd1na2vs0mg"},{"bike_id":"a8b08d5f-10d8-4548-a24c-e33055436ce3","system_id":"levelo_inurba_marseille","lat":43.2668,"lon":5.38271,"is_reserved":false,"is_disabled":false,"rental_uris":{"android":"levelo://app?vid=a8b08d5f-10d8-4548-a24c-e33055436ce3","ios":"levelo://app?vid=a8b08d5f-10d8-4548-a24c-e33055436ce3"},"vehicle_type_id":"4","last_reported":1727514473,"current_range_meters":6400,"station_id":"ce4bhg92rcd13ifvqf90","pricing_plan_id":"cebpf4jnsgd1na2vs0mg"},{"bike_id":"25618a0e-5591-403a-9635-beac43ad2c22","system_id":"levelo_inurba_marseille","lat":43.29281,"lon":5.40119,"is_reserved":false,"is_disabled":false,"rental_uris":{"android":"levelo://app?vid=25618a0e-5591-403a-9635-beac43ad2c22","ios":"levelo://app?vid=25618a0e-5591-403a-9635-beac43ad2c22"},"vehicle_type_id":"4","last_reported":1727514473,"current_range_meters":40000,"station_id":"ce4bh312rcd13ifvqdk0","pricing_plan_id":"cebpf4jnsgd1na2vs0mg"},{"bike_id":"673d5b5b-e106-4fb1-b7cb-2f325237fa79","system_id":"levelo_inurba_marseille","lat":43.30497,"lon":5.40173,"is_reserved":false,"is_disabled":false,"rental_uris":{"android":"levelo://app?vid=673d5b5b-e106-4fb1-b7cb-2f325237fa79","ios":"levelo://app?vid=673d5b5b-e106-4fb1-b7cb-2f325237fa79"},"vehicle_type_id":"4","last_reported":1727514473,"current_range_meters":36800,"station_id":"ce4bh012rcd13ifvqd00","pricing_plan_id":"cebpf4jnsgd1na2vs0mg"},{"bike_id":"f96e549b-7187-4b0d-8400-ab9432f6394b","system_id":"levelo_inurba_marseille","lat":43.29573,"lon":5.3752,"is_reserved":false,"is_disabled":false,"rental_uris":{"android":"levelo://app?vid=f96e549b-7187-4b0d-8400-ab9432f6394b","ios":"levelo://app?vid=f96e549b-7187-4b0d-8400-ab9432f6394b"},"vehicle_type_id":"4","last_reported":1727514473,"current_range_meters":32000,"station_id":"ce4bgh92rcd13ifvqb50","pricing_plan_id":"cebpf4jnsgd1na2vs0mg"},{"bike_id":"4689a1b2-178c-4bc4-a21b-3674d27ba085","system_id":"levelo_inurba_marseille","lat":43.29978,"lon":5.38499,"is_reserved":false,"is_disabled":false,"rental_uris":{"android":"levelo://app?vid=4689a1b2-178c-4bc4-a21b-3674d27ba085","ios":"levelo://app?vid=4689a1b2-178c-4bc4-a21b-3674d27ba085"},"vehicle_type_id":"4","last_reported":1727514473,"current_range_meters":39200,"station_id":"ce4bgj92rcd13ifvqbd0","pricing_plan_id":"cebpf4jnsgd1na2vs0mg"},{"bike_id":"49103c36-092f-43a6-a665-96ac4218adb8","system_id":"levelo_inurba_marseille","lat":43.3229,"lon":5.38271,"is_reserved":false,"is_disabled":false,"rental_uris":{"android":"levelo://app?vid=49103c36-092f-43a6-a665-96ac4218adb8","ios":"levelo://app?vid=49103c36-092f-43a6-a665-96ac4218adb8"},"vehicle_type_id":"4","last_reported":1727514473,"current_range_meters":38800,"station_id":"ce4bhr12rcd13ifvqhqg","pricing_plan_id":"cebpf4jnsgd1na2vs0mg"},{"bike_id":"08b2c029-544d-42d4-99bd-4ccc61970a99","system_id":"levelo_inurba_marseille","lat":43.26555,"lon":5.37282,"is_reserved":false,"is_disabled":false,"rental_uris":{"android":"levelo://app?vid=08b2c029-544d-42d4-99bd-4ccc61970a99","ios":"levelo://app?vid=08b2c029-544d-42d4-99bd-4ccc61970a99"},"vehicle_type_id":"4","last_reported":1727514473,"current_range_meters":38800,"station_id":"ce4bhg12rcd13ifvqf70","pricing_plan_id":"cebpf4jnsgd1na2vs0mg"},{"bike_id":"ee50b04c-1e19-4059-b07d-92bbfd271b23","system_id":"levelo_inurba_marseille","lat":43.30432,"lon":5.39735,"is_reserved":false,"is_disabled":false,"rental_uris":{"android":"levelo://app?vid=ee50b04c-1e19-4059-b07d-92bbfd271b23","ios":"levelo://app?vid=ee50b04c-1e19-4059-b07d-92bbfd271b23"},"vehicle_type_id":"4","last_reported":1727514473,"current_range_meters":39200,"station_id":"ce4bh092rcd13ifvqd20","pricing_plan_id":"cebpf4jnsgd1na2vs0mg"},{"bike_id":"377870ec-e0cb-4250-ab04-1b1e0974c09c","system_id":"levelo_inurba_marseille","lat":43.29417,"lon":5.38625,"is_reserved":false,"is_disabled":false,"rental_uris":{"android":"levelo://app?vid=377870ec-e0cb-4250-ab04-1b1e0974c09c","ios":"levelo://app?vid=377870ec-e0cb-4250-ab04-1b1e0974c09c"},"vehicle_type_id":"4","last_reported":1727514473,"current_range_meters":20800,"station_id":"ce4bh2h2rcd13ifvqdh0","pricing_plan_id":"cebpf4jnsgd1na2vs0mg"},