{"last_updated":1745853036,"ttl":60,"version":"2.2","data":{"bikes":[{"bike_id":"42aeb989-8dbd-4946-a0ad-619b3926ca2c","system_id":"levelo_inurba_marseille","lat":43.262,"lon":5.37931,"is_reserved":false,"is_disabled":false,"rental_uris":{"android":"levelo://app?vid=42aeb989-8dbd-4946-a0ad-619b3926ca2c","ios":"levelo://app?vid=42aeb989-8dbd-4946-a0ad-619b3926ca2c"},"vehicle_type_id":"4","last_reported":1745853036,"current_range_meters":2800,"station_id":"ce4bhjp2rcd13ifvqg90","pricing_plan_id":"cebpf4jnsgd1na2vs0mg"},{"bike_id":"07f8cc29-b86f-4696-ac39-20f0f7e0a392","system_id":"levelo_inurba_marseille","lat":43.23362,"lon":5.36056,"is_reserved":false,"is_disabled":false,"rental_uris":{"android":"levelo://app?vid=07f8cc29-b86f-4696-ac39-20f0f7e0a392","ios":"levelo://app?vid=07f8cc29-b86f-4696-ac39-20f0f7e0a392"},"vehicle_type_id":"4","last_reported":1745853036,"current_range_meters":2800,"station_id":"","pricing_plan_id":"cebpf4jnsgd1na2vs0mg"},{"bike_id":"b1e29414-20f2-4ae7-b421-08b2d1b3dcf3","system_id":"levelo_inurba_marseille","lat":43.26565,"lon":5.39014,"is_reserved":false,"is_disabled":false,"rental_uris":{"android":"levelo://app?vid=b1e29414-20f2-4ae7-b421-08b2d1b3dcf3","ios":"levelo://app?vid=b1e29414-20f2-4ae7-b421-08b2d1b3dcf3"},"vehicle_type_id":"4","last_reported":1745853036,"current_range_meters":3600,"station_id":"ce4bhe12rcd13ifvqf30","pricing_plan_id":"cebpf4jnsgd1na2vs0mg"},{"bike_id":"9cc20de6-2cd5-4e99-a7b3-b440f1159cec","system_id":"levelo_inurba_marseille","lat":43.28034,"lon":5.391357,"is_reserved":false,"is_disabled":false,"rental_uris":{"android":"levelo://app?vid=9cc20de6-2cd5-4e99-a7b3-b440f1159cec","ios":"levelo://app?vid=9cc20de6-2cd5-4e99-a7b3-b440f1159cec"},"vehicle_type_id":"4","last_reported":1745853036,"current_range_meters":3600,"station_id":"","pricing_plan_id":"cebpf4jnsgd1na2vs0mg"},{"bike_id":"6be51c9c-104a-4fd5-9a9b-95b4e06ce1c8","system_id":"levelo_inurba_marseille","lat":43.28671,"lon":5.38661,"is_reserved":false,"is_disabled":false,"rental_uris":{"android":"levelo://app?vid=6be51c9c-104a-4fd5-9a9b-95b4e06ce1c8","ios":"levelo://app?vid=6be51c9c-104a-4fd5-9a9b-95b4e06ce1c8"},"vehicle_type_id":"4","last_reported":1745853036,"current_range_meters":3600,"station_id":"ce4bh492rcd13ifvqdug","pricing_plan_id":"cebpf4jnsgd1na2vs0mg"},{"bike_id":"624bd49d-fcf9-497d-ba0c-00a1ee0cade8","system_id":"levelo_inurba_marseille","lat":43.29568,"lon":5.37524,"is_reserved":false,"is_disabled":false,"rental_uris":{"android":"levelo://app?vid=624bd49d-fcf9-497d-ba0c-00a1ee0cade8","ios":"levelo://app?vid=624bd49d-fcf9-497d-ba0c-00a1ee0cade8"},"vehicle_type_id":"4","last_reported":1745853036,"current_range_meters":4000,"station_id":"ce4bgh92rcd13ifvqb50","pricing_plan_id":"cebpf4jnsgd1na2vs0mg"},{"bike_id":"a9cff6b4-85e7-4617-95b1-eed47183b644","system_id":"levelo_inurba_marseille","lat":43.280078,"lon":5.400125,"is_reserved":false,"is_disabled":false,"rental_uris":{"android":"levelo://app?vid=a9cff6b4-85e7-4617-95b1-eed47183b644","ios":"levelo://app?vid=a9cff6b4-85e7-4617-95b1-eed47183b644"},"vehicle_type_id":"4","last_reported":1745853036,"current_range_meters":4400,"station_id":"","pricing_plan_id":"cebpf4jnsgd1na2vs0mg"},{"bike_id":"8c126201-3488-4062-b0a5-4c3858b7f3f6","system_id":"levelo_inurba_marseille","lat":43.298845,"lon":5.397488,"is_reserved":false,"is_disabled":false,"rental_uris":{"android":"levelo://app?vid=8c126201-3488-4062-b0a5-4c3858b7f3f6","ios":"levelo://app?vid=8c126201-3488-4062-b0a5-4c3858b7f3f6"},"vehicle_type_id":"4","last_reported":1745853036,"current_range_meters":4400,"station_id":"ce4bh0h2rcd13ifvqd50","pricing_plan_id":"cebpf4jnsgd1na2vs0mg"},{"bike_id":"74677f28-3596-4c5b-98de-ba4120a70f9d","system_id":"levelo_inurba_marseille","lat":43.25618,"lon":5.41214,"is_reserved":false,"is_disabled":false,"rental_uris":{"android":"levelo://app?vid=74677f28-3596-4c5b-98de-ba4120a70f9d","ios":"levelo://app?vid=74677f28-3596-4c5b-98de-ba4120a70f9d"},"vehicle_type_id":"4","last_reported":1745853036,"current_range_meters":4400,"station_id":"","pricing_plan_id":"cebpf4jnsgd1na2vs0mg"},{"bike_id":"e7a4c702-c2a2-4c69-8f49-505a39811057","system_id":"levelo_inurba_marseille","lat":43.29006,"lon":5.35607,"is_reserved":false,"is_disabled":false,"rental_uris":{"android":"levelo://app?vid=e7a4c702-c2a2-4c69-8f49-505a39811057","ios":"levelo://app?vid=e7a4c702-c2a2-4c69-8f49-505a39811057"},"vehicle_type_id":"4","last_reported":1745853036,"current_range_meters":4800,"station_id":"ce4bhb92rcd13ifvqen0","pricing_plan_id":"cebpf4jnsgd1na2vs0mg"},{"bike_id":"da06a074-8b8f-4e5a-8013-ce625afa9679","system_id":"levelo_inurba_marseille","lat":43.30904,"lon":5.37173,"is_reserved":false,"is_disabled":false,"rental_uris":{"android":"levelo://app?vid=da06a074-8b8f-4e5a-8013-ce625afa9679","ios":"levelo://app?vid=da06a074-8b8f-4e5a-8013-ce625afa9679"},"vehicle_type_id":"4","last_reported":1745853036,"current_range_meters":4800,"station_id":"ce4bguh2rcd13ifvqckg","pricing_plan_id":"cebpf4jnsgd1na2vs0mg"},{"bike_id":"f1529403-19f1-442a-9fb6-8a1ad7a919d3","system_id":"levelo_inurba_marseille","lat":43.26565,"lon":5.39012,"is_reserved":false,"is_disabled":false,"rental_uris":{"android":"levelo://app?vid=f1529403-19f1-442a-9fb6-8a1ad7a919d3","ios":"levelo://app?vid=f1529403-19f1-442a-9fb6-8a1ad7a919d3"},"vehicle_type_id":"4","last_reported":1745853036,"current_range_meters":4800,"station_id":"ce4bhe12rcd13ifvqf30","pricing_plan_id":"cebpf4jnsgd1na2vs0mg"},{"bike_id":"68cffb00-3af6-42e8-add8-d1599b952d4a","system_id":"levelo_inurba_marseille","lat":43.29631,"lon":5.40589,"is_reserved":false,"is_disabled":false,"rental_uris":{"android":"levelo://app?vid=68cffb00-3af6-42e8-add8-d1599b952d4a","ios":"levelo://app?vid=68cffb00-3af6-42e8-add8-d1599b952d4a"},"vehicle_type_id":"4","last_reported":1745853036,"current_range_meters":4800,"station_id":"ce4bh0h2rcd13ifvqd60","pricing_plan_id":"cebpf4jnsgd1na2vs0mg"},{"bike_id":"c8a11820-228e-42ff-a6e7-a00c0b6c297d","system_id":"levelo_inurba_marseille","lat":43.27316,"lon":5.39104,"is_reserved":false,"is_disabled":false,"rental_uris":{"android":"levelo://app?vid=c8a11820-228e-42ff-a6e7-a00c0b6c297d","ios":"levelo://app?vid=c8a11820-228e-42ff-a6e7-a00c0b6c297d"},"vehicle_type_id":"4","last_reported":1745853036,"current_range_meters":4800,"station_id":"ce4bhgp2rcd13ifvqfe0","pricing_plan_id":"cebpf4jnsgd1na2vs0mg"},{"bike_id":"87f123c4-0adc-4ba8-8649-74e2c508ef05","system_id":"levelo_inurba_marseille","lat":43.265553,"lon":5.372848,"is_reserved":false,"is_disabled":false,"rental_uris":{"android":"levelo://app?vid=87f123c4-0adc-4ba8-8649-74e2c508ef05","ios":"levelo://app?vid=87f123c4-0adc-4ba8-8649-74e2c508ef05"},"vehicle_type_id":"4","last_reported":1745853036,"current_range_meters":5600,"station_id":"ce4bhg12rcd13ifvqf70","pricing_plan_id":"cebpf4jnsgd1na2vs0mg"},{"bike_id":"c1ef8637-261d-43fc-9edb-f4efca755f41","system_id":"levelo_inurba_marseille","lat":43.27172,"lon":5.40992,"is_reserved":false,"is_disabled":false,"rental_uris":{"android":"levelo://app?vid=c1ef8637-261d-43fc-9edb-f4efca755f41","ios":"levelo://app?vid=c1ef8637-261d-43fc-9edb-f4efca755f41"},"vehicle_type_id":"4","last_reported":1745853036,"current_range_meters":5600,"station_id":"ce4bhl12rcd13ifvqgf0","pricing_plan_id":"cebpf4jnsgd1na2vs0mg"},{"bike_id":"c664e7df-8b88-4cad-9786-ebe659d32cf0","system_id":"levelo_inurba_marseille","lat":43.30139,"lon":5.3879,"is_reserved":false,"is_disabled":false,"rental_uris":{"android":"levelo://app?vid=c664e7df-8b88-4cad-9786-ebe659d32cf0","ios":"levelo://app?vid=c664e7df-8b88-4cad-9786-ebe659d32cf0"},"vehicle_type_id":"4","last_reported":1745853036,"current_range_meters":11200,"station_id":"ce4bghh2rcd13ifvqb60","pricing_plan_id":"cebpf4jnsgd1na2vs0mg"},{"bike_id":"8d38b2b6-0732-40bb-ac18-2e6bde0b1452","system_id":"levelo_inurba_marseille","lat":43.317993,"lon":5.373663,"is_reserved":false,"is_disabled":false,"rental_uris":{"android":"levelo://app?vid=8d38b2b6-0732-40bb-ac18-2e6bde0b1452","ios":"levelo://app?vid=8d38b2b6-0732-40bb-ac18-2e6bde0b1452"},"vehicle_type_id":"4","last_reported":1745853036,"current_range_meters":6000,"station_id":"","pricing_plan_id":"cebpf4jnsgd1na2vs0mg"},{"bike_id":"78b9bb88-3a00-4760-8a43-e68743ab22f2","system_id":"levelo_inurba_marseille","lat":43.30297,"lon":5.36776,"is_reserved":false,"is_disabled":false,"rental_uris":{"android":"levelo://app?vid=78b9bb88-3a00-4760-8a43-e68743ab22f2","ios":"levelo://app?vid=78b9bb88-3a00-4760-8a43-e68743ab22f2"},"vehicle_type_id":"4","last_reported":1745853036,"current_range_meters":6000,"station_id":"","pricing_plan_id":"cebpf4jnsgd1na2vs0mg"},{"bike_id":"00628094-24ba-4c98-a09f-6d8c14f61eaf","system_id":"levelo_inurba_marseille","lat":43.26574,"lon":5.39037,"is_reserved":false,"is_disabled":false,"rental_uris":{"android":"levelo://app?vid=00628094-24ba-4c98-a09f-6d8c14f61eaf","ios":"levelo://app?vid=00628094-24ba-4c98-a09f-6d8c14f61eaf"},"vehicle_type_id":"4","last_reported":1745853036,"current_range_meters":6400,"station_id":"ce4bhe12rcd13ifvqf30","pricing_plan_id":"cebpf4jnsgd1na2vs0mg"},{"bike_id":"8933bea6-80f9-4ecb-a544-061c36e9805e","system_id":"levelo_inurba_marseille","lat":43.24127,"lon":5.36451,"is_reserved":false,"is_disabled":false,"rental_uris":{"android":"levelo://app?vid=8933bea6-80f9-4ecb-a544-061c36e9805e","ios":"levelo://app?vid=8933bea6-80f9-4ecb-a544-061c36e9805e"},"vehicle_type_id":"4","last_reported":1745853036,"current_range_meters":6400,"station_id":"cpo36qri1sfpv3e86is0","pricing_plan_id":"cebpf4jnsgd1na2vs0mg"},{"bike_id":"3a7fbf0e-e190-46d1-bcf2-bda8452b0783","system_id":"levelo_inurba_marseille","lat":43.308902,"lon":5.396548,"is_reserved":false,"is_disabled":false,"rental_uris":{"android":"levelo://app?vid=3a7fbf0e-e190-46d1-bcf2-bda8452b0783","ios":"levelo://app?vid=3a7fbf0e-e190-46d1-bcf2-bda8452b0783"},"vehicle_type_id":"4","last_reported":1745853036,"current_range_meters":6400,"station_id":"ce4bh012rcd13ifvqcv0","pricing_plan_id":"cebpf4jnsgd1na2vs0mg"},{"bike_id":"538d312b-631b-4879-9fb8-2c897793408d","system_id":"levelo_inurba_marseille","lat":43.29194,"lon":5.39333,"is_reserved":false,"is_disabled":false,"rental_uris":{"android":"levelo://app?vid=538d312b-631b-4879-9fb8-2c897793408d","ios":"levelo://app?vid=538d312b-631b-4879-9fb8-2c897793408d"},"vehicle_type_id":"4","last_reported":1745853036,"current_range_meters":6000,"station_id":"ce4bh192rcd13ifvqdd0","pricing_plan_id":"cebpf4jnsgd1na2vs0mg"},{"bike_id":"ef5a622e-aa0a-4359-b3fd-ef466748c455","system_id":"levelo_inurba_marseille","lat":43.23196,"lon":5.35571,"is_reserved":false,"is_disabled":false,"rental_uris":{"android":"levelo://app?vid=ef5a622e-aa0a-4359-b3fd-ef466748c455","ios":"levelo://app?vid=ef5a622e-aa0a-4359-b3fd-ef466748c455"},"vehicle_type_id":"4","last_reported":1745853036,"current_range_meters":6400,"station_id":"ce4bhu92rcd13ifvqi70","pricing_plan_id":"cebpf4jnsgd1na2vs0mg"},{"bike_id":"f604607f-a1e2-4bbd-b747-450760093aca","system_id":"levelo_inurba_marseille","lat":43.29901,"lon":5.43651,"is_reserved":false,"is_disabled":false,"rental_uris":{"android":"levelo://app?vid=f604607f-a1e2-4bbd-b747-450760093aca","ios":"levelo://app?vid=f604607f-a1e2-4bbd-b747-450760093aca"},"vehicle_type_id":"4","last_reported":1745853036,"current_range_meters":6800,"station_id":"ce4bhpp2rcd13ifvqhfg","pricing_plan_id":"cebpf4jnsgd1na2vs0mg"},{"bike_id":"892b24c4-5a49-4b06-af2f-373188dbd9fa","system_id":"levelo_inurba_marseille","lat":43.30355,"lon":5.41879,"is_reserved":false,"is_disabled":false,"rental_uris":{"android":"levelo://app?vid=892b24c4-5a49-4b06-af2f-373188dbd9fa","ios":"levelo://app?vid=892b24c4-5a49-4b06-af2f-373188dbd9fa"},"vehicle_type_id":"4","last_reported":1745853036,"current_range_meters":6400,"station_id":"ce4bhop2rcd13ifvqh7g","pricing_plan_id":"cebpf4jnsgd1na2vs0mg"},{"bike_id":"c31cbb86-a389-463d-8135-3343839fa11c","system_id":"levelo_inurba_marseille","lat":43.29004,"lon":5.35613,"is_reserved":false,"is_disabled":false,"rental_uris":{"android":"levelo://app?vid=c31cbb86-a389-463d-8135-3343839fa11c","ios":"levelo://app?vid=c31cbb86-a389-463d-8135-3343839fa11c"},"vehicle_type_id":"4","last_reported":1745853036,"current_range_meters":6400,"station_id":"ce4bhb92rcd13ifvqen0","pricing_plan_id":"cebpf4jnsgd1na2vs0mg"},{"bike_id":"edab3ba8-182b-4e6b-943c-9c43d9986cf6","system_id":"levelo_inurba_marseille","lat":43.2828,"lon":5.35077,"is_reserved":false,"is_disabled":false,"rental_uris":{"android":"levelo://app?vid=edab3ba8-182b-4e6b-943c-9c43d9986cf6","ios":"levelo://app?vid=edab3ba8-182b-4e6b-943c-9c43d9986cf6"},"vehicle_type_id":"4","last_reported":1745853036,"current_range_meters":6800,"station_id":"ce4bhbp2rcd13ifvqerg","pricing_plan_id":"cebpf4jnsgd1na2vs0mg"},{"bike_id":"97c9ce3c-31a8-4d06-aed1-e9fa911524e2","system_id":"levelo_inurba_marseille","lat":43.28674,"lon":5.38711,"is_reserved":false,"is_disabled":false,"rental_uris":{"android":"levelo://app?vid=97c9ce3c-31a8-4d06-aed1-e9fa911524e2","ios":"levelo://app?vid=97c9ce3c-31a8-4d06-aed1-e9fa911524e2"},"vehicle_type_id":"4","last_reported":1745853036,"current_range_meters":6800,"station_id":"","pricing_plan_id":"cebpf4jnsgd1na2vs0mg"},{"bike_id":"8ae79fb7-0582-444e-8dab-1d22e31e0f2e","system_id":"levelo_inurba_marseille","lat":43.23955,"lon":5.36639,"is_reserved":false,"is_disabled":false,"rental_uris":{"android":"levelo://app?vid=8ae79fb7-0582-444e-8dab-1d22e31e0f2e","ios":"levelo://app?vid=8ae79fb7-0582-444e-8dab-1d22e31e0f2e"},"vehicle_type_id":"4","last_reported":1745853036,"current_range_meters":7200,"station_id":"ce4bhi12rcd13ifvqfp0","pricing_plan_id":"cebpf4jnsgd1na2vs0mg"},{"bike_id":"a1637ac2-c258-4c04-a53e-307f3bb9c592","system_id":"levelo_inurba_marseille","lat":43.29964,"lon":5.38503,"is_reserved":false,"is_disabled":false,"rental_uris":{"android":"levelo://app?vid=a1637ac2-c258-4c04-a53e-307f3bb9c592","ios":"levelo://app?vid=a1637ac2-c258-4c04-a53e-307f3bb9c592"},"vehicle_type_id":"4","last_reported":1745853036,"current_range_meters":7200,"station_id":"ce4bgj92rcd13ifvqbd0","pricing_plan_id":"cebpf4jnsgd1na2vs0mg"},{"bike_id":"ab1a3356-5be9-405a-9924-da7c313b5d85","system_id":"levelo_inurba_marseille","lat":43.26565,"lon":5.37322,"is_reserved":false,"is_disabled":false,"rental_uris":{"android":"levelo://app?vid=ab1a3356-5be9-405a-9924-da7c313b5d85","ios":"levelo://app?vid=ab1a3356-5be9-405a-9924-da7c313b5d85"},"vehicle_type_id":"4","last_reported":1745853036,"current_range_meters":7200,"station_id":"ce4bhg12rcd13ifvqf70","pricing_plan_id":"cebpf4jnsgd1na2vs0mg"},{"bike_id":"3394a198-809c-43b2-a9bb-295ee110157d","system_id":"levelo_inurba_marseille","lat":43.29523,"lon":5.36287,"is_reserved":false,"is_disabled":false,"rental_uris":{"android":"levelo://app?vid=3394a198-809c-43b2-a9bb-295ee110157d","ios":"levelo://app?vid=3394a198-809c-43b2-a9bb-295ee110157d"},"vehicle_type_id":"4","last_reported":1745853036,"current_range_meters":7200,"station_id":"","pricing_plan_id":"cebpf4jnsgd1na2vs0mg"},{"bike_id":"8270fbc8-aff0-4fb7-8381-305c00e052fb","system_id":"levelo_inurba_marseille","lat":43.27573,"lon":5.38418,"is_reserved":false,"is_disabled":false,"rental_uris":{"android":"levelo://app?vid=8270fbc8-aff0-4fb7-8381-305c00e052fb","ios":"levelo://app?vid=8270fbc8-aff0-4fb7-8381-305c00e052fb"},"vehicle_type_id":"4","last_reported":1745853036,"current_range_meters":6800,"station_id":"ce4bhh92rcd13ifvqfi0","pricing_plan_id":"cebpf4jnsgd1na2vs0mg"},{"bike_id":"650d7a9e-2a85-4346-862d-6eec5b96e7b5","system_id":"levelo_inurba_marseille","lat":43.25018,"lon":5.389118,"is_reserved":false,"is_disabled":false,"rental_uris":{"android":"levelo://app?vid=650d7a9e-2a85-4346-862d-6eec5b96e7b5","ios":"levelo://app?vid=650d7a9e-2a85-4346-862d-6eec5b96e7b5"},"vehicle_type_id":"4","last_reported":1745853036,"current_range_meters":7200,"station_id":"ce4bhgp2rcd13ifvqfd0","pricing_plan_id":"cebpf4jnsgd1na2vs0mg"},{"bike_id":"dc51509f-082d-45d1-a823-8a36c8816ad6","system_id":"levelo_inurba_marseille","lat":43.2804,"lon":5.36949,"is_reserved":false,"is_disabled":false,"rental_uris":{"android":"levelo://app?vid=dc51509f-082d-45d1-a823-8a36c8816ad6","ios":"levelo://app?vid=dc51509f-082d-45d1-a823-8a36c8816ad6"},"vehicle_type_id":"4","last_reported":1745853036,"current_range_meters":7200,"station_id":"ce4bha12rcd13ifvqef0","pricing_plan_id":"cebpf4jnsgd1na2vs0mg"},{"bike_id":"d32a2487-52a7-46e1-9e90-bcf1549fc080","system_id":"levelo_inurba_marseille","lat":43.2997,"lon":5.38494,"is_reserved":false,"is_disabled":false,"rental_uris":{"android":"levelo://app?vid=d32a2487-52a7-46e1-9e90-bcf1549fc080","ios":"levelo://app?vid=d32a2487-52a7-46e1-9e90-bcf1549fc080"},"vehicle_type_id":"4","last_reported":1745853036,"current_range_meters":7200,"station_id":"ce4bgj92rcd13ifvqbd0","pricing_plan_id":"cebpf4jnsgd1na2vs0mg"},{"bike_id":"955f4aa4-20ee-4c2e-91f7-7017dacec613","system_id":"levelo_inurba_marseille","lat":43.29269,"lon":5.37619,"is_reserved":false,"is_disabled":false,"rental_uris":{"android":"levelo://app?vid=955f4aa4-20ee-4c2e-91f7-7017dacec613","ios":"levelo://app?vid=955f4aa4-20ee-4c2e-91f7-7017dacec613"},"vehicle_type_id":"4","last_reported":1745853036,"current_range_meters":8000,"station_id":"ce4bgi12rcd13ifvqb80","pricing_plan_id":"cebpf4jnsgd1na2vs0mg"},{"bike_id":"3b9b35d7-1b57-4491-b34c-02f424976cb3","system_id":"levelo_inurba_marseille","lat":43.3081,"lon":5.38156,"is_reserved":false,"is_disabled":false,"rental_uris":{"android":"levelo://app?vid=3b9b35d7-1b57-4491-b34c-02f424976cb3","ios":"levelo://app?vid=3b9b35d7-1b57-4491-b34c-02f424976cb3"},"vehicle_type_id":"4","last_reported":1745853036,"current_range_meters":8000,"station_id":"ce4bgt12rcd13ifvqce0","pricing_plan_id":"cebpf4jnsgd1na2vs0mg"},{"bike_id":"042143d1-ca57-4a9f-85d4-5f27e5cd2f6e","system_id":"levelo_inurba_marseille","lat":43.326628,"lon":5.409902,"is_reserved":false,"is_disabled":false,"rental_uris":{"android":"levelo://app?vid=042143d1-ca57-4a9f-85d4-5f27e5cd2f6e","ios":"levelo://app?vid=042143d1-ca57-4a9f-85d4-5f27e5cd2f6e"},"vehicle_type_id":"4","last_reported":1745853036,"current_range_meters":8400,"station_id":"ce4bhpp2rcd13ifvqhgg","pricing_plan_id":"cebpf4jnsgd1na2vs0mg"},{"bike_id":"e9b1cb6d-65d4-4702-97aa-9d0191ec34c9","system_id":"levelo_inurba_marseille","lat":43.30612,"lon":5.39376,"is_reserved":false,"is_disabled":false,"rental_uris":{"android":"levelo://app?vid=e9b1cb6d-65d4-4702-97aa-9d0191ec34c9","ios":"levelo://app?vid=e9b1cb6d-65d4-4702-97aa-9d0191ec34c9"},"vehicle_type_id":"4","last_reported":1745853036,"current_range_meters":8400,"station_id":"ce4bh0p2rcd13ifvqd80","pricing_plan_id":"cebpf4jnsgd1na2vs0mg"},{"bike_id":"19a0c4e3-77b1-4876-ba05-b0cd57fdc313","system_id":"levelo_inurba_marseille","lat":43.30785,"lon":5.37261,"is_reserved":false,"is_disabled":false,"rental_uris":{"android":"levelo://app?vid=19a0c4e3-77b1-4876-ba05-b0cd57fdc313","ios":"levelo://app?vid=19a0c4e3-77b1-4876-ba05-b0cd57fdc313"},"vehicle_type_id":"4","last_reported":1745853036,"current_range_meters":8400,"station_id":"","pricing_plan_id":"cebpf4jnsgd1na2vs0mg"},{"bike_id":"58d81c7f-df27-43c6-bfbc-6cb2cca9b50f","system_id":"levelo_inurba_marseille","lat":43.30281,"lon":5.37687,"is_reserved":false,"is_disabled":false,"rental_uris":{"android":"levelo://app?vid=58d81c7f-df27-43c6-bfbc-6cb2cca9b50f","ios":"levelo://app?vid=58d81c7f-df27-43c6-bfbc-6cb2cca9b50f"},"vehicle_type_id":"4","last_reported":1745853036,"current_range_meters":9200,"station_id":"ce4bguh2rcd13ifvqcj0","pricing_plan_id":"cebpf4jnsgd1na2vs0mg"},{"bike_id":"a4c8a335-745b-4d95-97e0-7bac3cb18549","system_id":"levelo_inurba_marseille","lat":43.28123,"lon":5.39866,"is_reserved":false,"is_disabled":false,"rental_uris":{"android":"levelo://app?vid=a4c8a335-745b-4d95-97e0-7bac3cb18549","ios":"levelo://app?vid=a4c8a335-745b-4d95-97e0-7bac3cb18549"},"vehicle_type_id":"4","last_reported":1745853036,"current_range_meters":8400,"station_id":"","pricing_plan_id":"cebpf4jnsgd1na2vs0mg"},{"bike_id":"1db14274-463d-4180-bece-00dba6656848","system_id":"levelo_inurba_marseille","lat":43.2396,"lon":5.36624,"is_reserved":false,"is_disabled":false,"rental_uris":{"android":"levelo://app?vid=1db14274-463d-4180-bece-00dba6656848","ios":"levelo://app?vid=1db14274-463d-4180-bece-00dba6656848"},"vehicle_type_id":"4","last_reported":1745853036,"current_range_meters":8400,"station_id":"ce4bhi12rcd13ifvqfp0","pricing_plan_id":"cebpf4jnsgd1na2vs0mg"},{"bike_id":"3d538b06-5854-471f-905c-c980728dc216","system_id":"levelo_inurba_marseille","lat":43.2893,"lon":5.38395,"is_reserved":false,"is_disabled":false,"rental_uris":{"android":"levelo://app?vid=3d538b06-5854-471f-905c-c980728dc216","ios":"levelo://app?vid=3d538b06-5854-471f-905c-c980728dc216"},"vehicle_type_id":"4","last_reported":1745853036,"current_range_meters":10000,"station_id":"ce4bh612rcd13ifvqe6g","pricing_plan_id":"cebpf4jnsgd1na2vs0mg"},{"bike_id":"51c1adc9-7cd7-4ffb-971e-7b36309eb47d","system_id":"levelo_inurba_marseille","lat":43.31032,"lon":5.36702,"is_reserved":false,"is_disabled":false,"rental_uris":{"android":"levelo://app?vid=51c1adc9-7cd7-4ffb-971e-7b36309eb47d","ios":"levelo://app?vid=51c1adc9-7cd7-4ffb-971e-7b36309eb47d"},"vehicle_type_id":"4","last_reported":1745853036,"current_range_meters":8400,"station_id":"","pricing_plan_id":"cebpf4jnsgd1na2vs0mg"},{"bike_id":"0e3ae45b-89dd-4aad-973a-0083e04fb265","system_id":"levelo_inurba_marseille","lat":43.30341,"lon":5.40459,"is_reserved":false,"is_disabled":false,"rental_uris":{"android":"levelo://app?vid=0e3ae45b-89dd-4aad-973a-0083e04fb265","ios":"levelo://app?vid=0e3ae45b-89dd-4aad-973a-0083e04fb265"},"vehicle_type_id":"4","last_reported":1745853036,"current_range_meters":8800,"station_id":"ce4bh012rcd13ifvqd10","pricing_plan_id":"cebpf4jnsgd1na2vs0mg"},{"bike_id":"79d3debb-10ee-4ced-b64a-6ce50ac96f00","system_id":"levelo_inurba_marseille","lat":43.282634,"lon":5.35053,"is_reserved":false,"is_disabled":false,"rental_uris":{"android":"levelo://app?vid=79d3debb-10ee-4ced-b64a-6ce50ac96f00","ios":"levelo://app?vid=79d3debb-10ee-4ced-b64a-6ce50ac96f00"},"vehicle_type_id":"4","last_reported":1745853036,"current_range_meters":5600,"station_id":"ce4bhbp2rcd13ifvqerg","pricing_plan_id":"cebpf4jnsgd1na2vs0mg"},{"bike_id":"3a3dd3c8-3ad9-4bfa-94d5-8a1bbcdea78f","system_id":"levelo_inurba_marseille","lat":43.29795,"lon":5.38087,"is_reserved":false,"is_disabled":false,"rental_uris":{"android":"levelo://app?vid=3a3dd3c8-3ad9-4bfa-94d5-8a1bbcdea78f","ios":"levelo://app?vid=3a3dd3c8-3ad9-4bfa-94d5-8a1bbcdea78f"},"vehicle_type_id":"4","last_reported":1745853036,"current_range_meters":8800,"station_id":"ce4bgip2rcd13ifvqbb0","pricing_plan_id":"cebpf4jnsgd1na2vs0mg"},{"bike_id":"70c03b89-45bd-4510-a677-e293b59fe06a","system_id":"levelo_inurba_marseille","lat":43.28106,"lon":5.37832,"is_reserved":false,"is_disabled":false,"rental_uris":{"android":"levelo://app?vid=70c03b89-45bd-4510-a677-e293b59fe06a","ios":"levelo://app?vid=70c03b89-45bd-4510-a677-e293b59fe06a"},"vehicle_type_id":"4","last_reported":1745853036,"current_range_meters":11600,"station_id":"ce4bha12rcd13ifvqee0","pricing_plan_id":"cebpf4jnsgd1na2vs0mg"},{"bike_id":"a573eca4-6967-4093-8005-74b63a444bcf","system_id":"levelo_inurba_marseille","lat":43.30538,"lon":5.36543,"is_reserved":false,"is_disabled":false,"rental_uris":{"android":"levelo://app?vid=a573eca4-6967-4093-8005-74b63a444bcf","ios":"levelo://app?vid=a573eca4-6967-4093-8005-74b63a444bcf"},"vehicle_type_id":"4","last_reported":1745853036,"current_range_meters":8800,"station_id":"ce4bgs12rcd13ifvqcag","pricing_plan_id":"cebpf4jnsgd1na2vs0mg"},{"bike_id":"679a1104-bb2f-4313-81ae-490e909d7dd6","system_id":"levelo_inurba_marseille","lat":43.29587,"lon":5.37685,"is_reserved":false,"is_disabled":true,"rental_uris":{"android":"levelo://app?vid=679a1104-bb2f-4313-81ae-490e909d7dd6","ios":"levelo://app?vid=679a1104-bb2f-4313-81ae-490e909d7dd6"},"vehicle_type_id":"4","last_reported":1745853036,"current_range_meters":9200,"station_id":"","pricing_plan_id":"cebpf4jnsgd1na2vs0mg"},{"bike_id":"7f983f56-51c4-4e7b-9718-9347f2b476b0","system_id":"levelo_inurba_marseille","lat":43.32486,"lon":5.36574,"is_reserved":false,"is_disabled":false,"rental_uris":{"android":"levelo://app?vid=7f983f56-51c4-4e7b-9718-9347f2b476b0","ios":"levelo://app?vid=7f983f56-51c4-4e7b-9718-9347f2b476b0"},"vehicle_type_id":"4","last_reported":1745853036,"current_range_meters":9200,"station_id":"","pricing_plan_id":"cebpf4jnsgd1na2vs0mg"},{"bike_id":"af4f0c69-e62d-4155-b1d1-a67b45271ae1","system_id":"levelo_inurba_marseille","lat":43.24728,"lon":5.41181,"is_reserved":false,"is_disabled":false,"rental_uris":{"android":"levelo://app?vid=af4f0c69-e62d-4155-b1d1-a67b45271ae1","ios":"levelo://app?vid=af4f0c69-e62d-4155-b1d1-a67b45271ae1"},"vehicle_type_id":"4","last_reported":1745853036,"current_range_meters":9600,"station_id":"","pricing_plan_id":"cebpf4jnsgd1na2vs0mg"},{"bike_id":"a6c80b0c-536c-4a45-884f-2e1d125500ab","system_id":"levelo_inurba_marseille","lat":43.22543,"lon":5.34786,"is_reserved":false,"is_disabled":false,"rental_uris":{"android":"levelo://app?vid=a6c80b0c-536c-4a45-884f-2e1d125500ab","ios":"levelo://app?vid=a6c80b0c-536c-4a45-884f-2e1d125500ab"},"vehicle_type_id":"4","last_reported":1745853036,"current_range_meters":9600,"station_id":"","pricing_plan_id":"cebpf4jnsgd1na2vs0mg"},{"bike_id":"0cfd3519-1ec4-426d-b9ec-fb08b12d7f74","system_id":"levelo_inurba_marseille","lat":43.298915,"lon":5.388289,"is_reserved":false,"is_disabled":false,"rental_uris":{"android":"levelo://app?vid=0cfd3519-1ec4-426d-b9ec-fb08b12d7f74","ios":"levelo://app?vid=0cfd3519-1ec4-426d-b9ec-fb08b12d7f74"},"vehicle_type_id":"4","last_reported":1745853036,"current_range_meters":9600,"station_id":"ce4bh392rcd13ifvqdl0","pricing_plan_id":"cebpf4jnsgd1na2vs0mg"},{"bike_id":"6d222f81-74f7-4b89-a381-0a8c1243d57d","system_id":"levelo_inurba_marseille","lat":43.25875,"lon":5.39892,"is_reserved":false,"is_disabled":false,"rental_uris":{"android":"levelo://app?vid=6d222f81-74f7-4b89-a381-0a8c1243d57d","ios":"levelo://app?vid=6d222f81-74f7-4b89-a381-0a8c1243d57d"},"vehicle_type_id":"4","last_reported":1745853036,"current_range_meters":9600,"station_id":"ce4bhl92rcd13ifvqghg","pricing_plan_id":"cebpf4jnsgd1na2vs0mg"},{"bike_id":"57a41005-dba4-4995-a65d-3cc07a95ba9a","system_id":"levelo_inurba_marseille","lat":43.30211,"lon":5.3946,"is_reserved":false,"is_disabled":true,"rental_uris":{"android":"levelo://app?vid=57a41005-dba4-4995-a65d-3cc07a95ba9a","ios":"levelo://app?vid=57a41005-dba4-4995-a65d-3cc07a95ba9a"},"vehicle_type_id":"4","last_reported":1745853036,"current_range_meters":9600,"station_id":"ce4bh0p2rcd13ifvqd70","pricing_plan_id":"cebpf4jnsgd1na2vs0mg"},{"bike_id":"eb0c9ffa-69d2-4d83-9bbb-f1bc6521619a","system_id":"levelo_inurba_marseille","lat":43.29031,"lon":5.38653,"is_reserved":false,"is_disabled":false,"rental_uris":{"android":"levelo://app?vid=eb0c9ffa-69d2-4d83-9bbb-f1bc6521619a","ios":"levelo://app?vid=eb0c9ffa-69d2-4d83-9bbb-f1bc6521619a"},"vehicle_type_id":"4","last_reported":1745853036,"current_range_meters":9600,"station_id":"ce4bh4p2rcd13ifvqe0g","pricing_plan_id":"cebpf4jnsgd1na2vs0mg"},{"bike_id":"f58363cd-78b1-47c0-96c8-f41929e2225c","system_id":"levelo_inurba_marseille","lat":43.2872,"lon":5.37941,"is_reserved":false,"is_disabled":false,"rental_uris":{"android":"levelo://app?vid=f58363cd-78b1-47c0-96c8-f41929e2225c","ios":"levelo://app?vid=f58363cd-78b1-47c0-96c8-f41929e2225c"},"vehicle_type_id":"4","last_reported":1745853036,"current_range_meters":9600,"station_id":"ce4bh9p2rcd13ifvqec0","pricing_plan_id":"cebpf4jnsgd1na2vs0mg"},{"bike_id":"12dc72c9-ecee-4db8-8e89-8376f886dd0d","system_id":"levelo_inurba_marseille","lat":43.27922,"lon":5.39578,"is_reserved":false,"is_disabled":false,"rental_uris":{"android":"levelo://app?vid=12dc72c9-ecee-4db8-8e89-8376f886dd0d","ios":"levelo://app?vid=12dc72c9-ecee-4db8-8e89-8376f886dd0d"},"vehicle_type_id":"4","last_reported":1745853036,"current_range_meters":10000,"station_id":"ce4bhf92rcd13ifvqf40","pricing_plan_id":"cebpf4jnsgd1na2vs0mg"},{"bike_id":"f58e7d68-5ba2-4ff6-8fac-5b8a0a8ddd2c","system_id":"levelo_inurba_marseille","lat":43.225041,"lon":5.347826,"is_reserved":false,"is_disabled":false,"rental_uris":{"android":"levelo://app?vid=f58e7d68-5ba2-4ff6-8fac-5b8a0a8ddd2c","ios":"levelo://app?vid=f58e7d68-5ba2-4ff6-8fac-5b8a0a8ddd2c"},"vehicle_type_id":"4","last_reported":1745853036,"current_range_meters":10000,"station_id":"st_cvj5dfep6f1abm77gieg","pricing_plan_id":"cebpf4jnsgd1na2vs0mg"},{"bike_id":"4ed5222a-dcf9-4ee8-9034-66d4515f631e","system_id":"levelo_inurba_marseille","lat":43.225053,"lon":5.347834,"is_reserved":false,"is_disabled":false,"rental_uris":{"android":"levelo://app?vid=4ed5222a-dcf9-4ee8-9034-66d4515f631e","ios":"levelo://app?vid=4ed5222a-dcf9-4ee8-9034-66d4515f631e"},"vehicle_type_id":"4","last_reported":1745853036,"current_range_meters":10000,"station_id":"st_cvj5dfep6f1abm77gieg","pricing_plan_id":"cebpf4jnsgd1na2vs0mg"},{"bike_id":"d99beb95-24da-48b9-8811-7efc1c0bc981","system_id":"levelo_inurba_marseille","lat":43.225029,"lon":5.347839,"is_reserved":false,"is_disabled":false,"rental_uris":{"android":"levelo://app?vid=d99beb95-24da-48b9-8811-7efc1c0bc981","ios":"levelo://app?vid=d99beb95-24da-48b9-8811-7efc1c0bc981"},"vehicle_type_id":"4","last_reported":1745853036,"current_range_meters":10000,"station_id":"","pricing_plan_id":"cebpf4jnsgd1na2vs0mg"},{"bike_id":"8d6426dd-5fcf-42bc-ae8a-366dc918d617","system_id":"levelo_inurba_marseille","lat":43.281019,"lon":5.378396,"is_reserved":false,"is_disabled":false,"rental_uris":{"android":"levelo://app?vid=8d6426dd-5fcf-42bc-ae8a-366dc918d617","ios":"levelo://app?vid=8d6426dd-5fcf-42bc-ae8a-366dc918d617"},"vehicle_type_id":"4","last_reported":1745853036,"current_range_meters":10000,"station_id":"ce4bha12rcd13ifvqee0","pricing_plan_id":"cebpf4jnsgd1na2vs0mg"},{"bike_id":"eaad0dae-f822-4f56-b344-bebf1a2d319f","system_id":"levelo_inurba_marseille","lat":43.2606,"lon":5.39396,"is_reserved":false,"is_disabled":false,"rental_uris":{"android":"levelo://app?vid=eaad0dae-f822-4f56-b344-bebf1a2d319f","ios":"levelo://app?vid=eaad0dae-f822-4f56-b344-bebf1a2d319f"},"vehicle_type_id":"4","last_reported":1745853036,"current_range_meters":10800,"station_id":"ce4bhh92rcd13ifvqfj0","pricing_plan_id":"cebpf4jnsgd1na2vs0mg"},{"bike_id":"e1841c30-944d-4385-9363-1460cea6368a","system_id":"levelo_inurba_marseille","lat":43.27841,"lon":5.39211,"is_reserved":false,"is_disabled":false,"rental_uris":{"android":"levelo://app?vid=e1841c30-944d-4385-9363-1460cea6368a","ios":"levelo://app?vid=e1841c30-944d-4385-9363-1460cea6368a"},"vehicle_type_id":"4","last_reported":1745853036,"current_range_meters":10000,"station_id":"ce4bhjp2rcd13ifvqga0","pricing_plan_id":"cebpf4jnsgd1na2vs0mg"},{"bike_id":"0c47a9de-a8a8-4f84-abf3-8c1d2e90c545","system_id":"levelo_inurba_marseille","lat":43.29536,"lon":5.38544,"is_reserved":false,"is_disabled":false,"rental_uris":{"android":"levelo://app?vid=0c47a9de-a8a8-4f84-abf3-8c1d2e90c545","ios":"levelo://app?vid=0c47a9de-a8a8-4f84-abf3-8c1d2e90c545"},"vehicle_type_id":"4","last_reported":1745853036,"current_range_meters":10800,"station_id":"ce4bgih2rcd13ifvqba0","pricing_plan_id":"cebpf4jnsgd1na2vs0mg"},{"bike_id":"6269a9ca-f4f3-4106-8cff-2b7df03796c2","system_id":"levelo_inurba_marseille","lat":43.23198,"lon":5.35556,"is_reserved":false,"is_disabled":false,"rental_uris":{"android":"levelo://app?vid=6269a9ca-f4f3-4106-8cff-2b7df03796c2","ios":"levelo://app?vid=6269a9ca-f4f3-4106-8cff-2b7df03796c2"},"vehicle_type_id":"4","last_reported":1745853036,"current_range_meters":10800,"station_id":"ce4bhu92rcd13ifvqi70","pricing_plan_id":"cebpf4jnsgd1na2vs0mg"},{"bike_id":"dcef9f33-b61e-4643-a8cb-48f4a975148c","system_id":"levelo_inurba_marseille","lat":43.29555,"lon":5.42289,"is_reserved":false,"is_disabled":false,"rental_uris":{"android":"levelo://app?vid=dcef9f33-b61e-4643-a8cb-48f4a975148c","ios":"levelo://app?vid=dcef9f33-b61e-4643-a8cb-48f4a975148c"},"vehicle_type_id":"4","last_reported":1745853036,"current_range_meters":10800,"station_id":"ce4bhph2rcd13ifvqhdg","pricing_plan_id":"cebpf4jnsgd1na2vs0mg"},{"bike_id":"ee5e44d6-7272-4445-abef-27c3856674b6","system_id":"levelo_inurba_marseille","lat":43.2784,"lon":5.39214,"is_reserved":false,"is_disabled":false,"rental_uris":{"android":"levelo://app?vid=ee5e44d6-7272-4445-abef-27c3856674b6","ios":"levelo://app?vid=ee5e44d6-7272-4445-abef-27c3856674b6"},"vehicle_type_id":"4","last_reported":1745853036,"current_range_meters":10800,"station_id":"ce4bhjp2rcd13ifvqga0","pricing_plan_id":"cebpf4jnsgd1na2vs0mg"},{"bike_id":"bea1c834-4eef-47f9-a9ad-b3410d2c8489","system_id":"levelo_inurba_marseille","lat":43.2929,"lon":5.37465,"is_reserved":false,"is_disabled":false,"rental_uris":{"android":"levelo://app?vid=bea1c834-4eef-47f9-a9ad-b3410d2c8489","ios":"levelo://app?vid=bea1c834-4eef-47f9-a9ad-b3410d2c8489"},"vehicle_type_id":"4","last_reported":1745853036,"current_range_meters":10800,"station_id":"ce4bgi12rcd13ifvqb70","pricing_plan_id":"cebpf4jnsgd1na2vs0mg"},{"bike_id":"05145c84-b9e3-47c2-91f6-efba0dd3a65c","system_id":"levelo_inurba_marseille","lat":43.25014,"lon":5.3892,"is_reserved":false,"is_disabled":true,"rental_uris":{"android":"levelo://app?vid=05145c84-b9e3-47c2-91f6-efba0dd3a65c","ios":"levelo://app?vid=05145c84-b9e3-47c2-91f6-efba0dd3a65c"},"vehicle_type_id":"4","last_reported":1745853036,"current_range_meters":10800,"station_id":"ce4bhgp2rcd13ifvqfd0","pricing_plan_id":"cebpf4jnsgd1na2vs0mg"},{"bike_id":"e1389173-74c8-4654-b2b9-880a5823ec3b","system_id":"levelo_inurba_marseille","lat":43.2175,"lon":5.34598,"is_reserved":false,"is_disabled":false,"rental_uris":{"android":"levelo://app?vid=e1389173-74c8-4654-b2b9-880a5823ec3b","ios":"levelo://app?vid=e1389173-74c8-4654-b2b9-880a5823ec3b"},"vehicle_type_id":"4","last_reported":1745853036,"current_range_meters":10800,"station_id":"st_cvj6r9ubvosntc0bgbag","pricing_plan_id":"cebpf4jnsgd1na2vs0mg"},{"bike_id":"748dc265-2824-4c8a-9092-d9224448fe6d","system_id":"levelo_inurba_marseille","lat":43.313721,"lon":5.366949,"is_reserved":false,"is_disabled":false,"rental_uris":{"android":"levelo://app?vid=748dc265-2824-4c8a-9092-d9224448fe6d","ios":"levelo://app?vid=748dc265-2824-4c8a-9092-d9224448fe6d"},"vehicle_type_id":"4","last_reported":1745853036,"current_range_meters":11200,"station_id":"ce4bgr92rcd13ifvqc6g","pricing_plan_id":"cebpf4jnsgd1na2vs0mg"},{"bike_id":"dfebd44c-c46a-4b25-b482-ce75bbeabdbd","system_id":"levelo_inurba_marseille","lat":43.23179,"lon":5.39966,"is_reserved":false,"is_disabled":false,"rental_uris":{"android":"levelo://app?vid=dfebd44c-c46a-4b25-b482-ce75bbeabdbd","ios":"levelo://app?vid=dfebd44c-c46a-4b25-b482-ce75bbeabdbd"},"vehicle_type_id":"4","last_reported":1745853036,"current_range_meters":11200,"station_id":"ce4bhn12rcd13ifvqgqg","pricing_plan_id":"cebpf4jnsgd1na2vs0mg"},{"bike_id":"69a8281e-3965-4a25-a33a-f92b491bdb0a","system_id":"levelo_inurba_marseille","lat":43.29711,"lon":5.37693,"is_reserved":false,"is_disabled":false,"rental_uris":{"android":"levelo://app?vid=69a8281e-3965-4a25-a33a-f92b491bdb0a","ios":"levelo://app?vid=69a8281e-3965-4a25-a33a-f92b491bdb0a"},"vehicle_type_id":"4","last_reported":1745853036,"current_range_meters":10000,"station_id":"ce4bgkh2rcd13ifvqbl0","pricing_plan_id":"cebpf4jnsgd1na2vs0mg"},{"bike_id":"45a551a3-8652-4572-9ac6-23821025bb64","system_id":"levelo_inurba_marseille","lat":43.27832,"lon":5.39206,"is_reserved":false,"is_disabled":false,"rental_uris":{"android":"levelo://app?vid=45a551a3-8652-4572-9ac6-23821025bb64","ios":"levelo://app?vid=45a551a3-8652-4572-9ac6-23821025bb64"},"vehicle_type_id":"4","last_reported":1745853036,"current_range_meters":11200,"station_id":"ce4bhjp2rcd13ifvqga0","pricing_plan_id":"cebpf4jnsgd1na2vs0mg"},{"bike_id":"2406a6f8-68ba-4312-84f6-48aaadd5034b","system_id":"levelo_inurba_marseille","lat":43.225043,"lon":5.347836,"is_reserved":false,"is_disabled":false,"rental_uris":{"android":"levelo://app?vid=2406a6f8-68ba-4312-84f6-48aaadd5034b","ios":"levelo://app?vid=2406a6f8-68ba-4312-84f6-48aaadd5034b"},"vehicle_type_id":"4","last_reported":1745853036,"current_range_meters":11600,"station_id":"st_cvj5dfep6f1abm77gieg","pricing_plan_id":"cebpf4jnsgd1na2vs0mg"},{"bike_id":"2aa23f20-1a1d-4566-85b2-71f806f8c784","system_id":"levelo_inurba_marseille","lat":43.27059,"lon":5.40256,"is_reserved":false,"is_disabled":false,"rental_uris":{"android":"levelo://app?vid=2aa23f20-1a1d-4566-85b2-71f806f8c784","ios":"levelo://app?vid=2aa23f20-1a1d-4566-85b2-71f806f8c784"},"vehicle_type_id":"4","last_reported":1745853036,"current_range_meters":11600,"station_id":"ce4bhk92rcd13ifvqgc0","pricing_plan_id":"cebpf4jnsgd1na2vs0mg"},{"bike_id":"dbbf4ff0-b24e-4fd7-807e-dc8172feaddb","system_id":"levelo_inurba_marseille","lat":43.2738,"lon":5.36262,"is_reserved":false,"is_disabled":false,"rental_uris":{"android":"levelo://app?vid=dbbf4ff0-b24e-4fd7-807e-dc8172feaddb","ios":"levelo://app?vid=dbbf4ff0-b24e-4fd7-807e-dc8172feaddb"},"vehicle_type_id":"4","last_reported":1745853036,"current_range_meters":11600,"station_id":"ce4bhbh2rcd13ifvqeo0","pricing_plan_id":"cebpf4jnsgd1na2vs0mg"},{"bike_id":"a24579b9-b03e-46e5-8943-3e4caa2dbfed","system_id":"levelo_inurba_marseille","lat":43.29789,"lon":5.39337,"is_reserved":false,"is_disabled":false,"rental_uris":{"android":"levelo://app?vid=a24579b9-b03e-46e5-8943-3e4caa2dbfed","ios":"levelo://app?vid=a24579b9-b03e-46e5-8943-3e4caa2dbfed"},"vehicle_type_id":"4","last_reported":1745853036,"current_range_meters":11600,"station_id":"chh1huq6cuj3fo74tm60","pricing_plan_id":"cebpf4jnsgd1na2vs0mg"},{"bike_id":"a726451d-99e2-4c36-8136-a93acce74f0f","system_id":"levelo_inurba_marseille","lat":43.27371,"lon":5.36261,"is_reserved":false,"is_disabled":false,"rental_uris":{"android":"levelo://app?vid=a726451d-99e2-4c36-8136-a93acce74f0f","ios":"levelo://app?vid=a726451d-99e2-4c36-8136-a93acce74f0f"},"vehicle_type_id":"4","last_reported":1745853036,"current_range_meters":11600,"station_id":"ce4bhbh2rcd13ifvqeo0","pricing_plan_id":"cebpf4jnsgd1na2vs0mg"},{"bike_id":"29a529f8-42d2-4af5-9f68-5632920aa58d","system_id":"levelo_inurba_marseille","lat":43.301529,"lon":5.380806,"is_reserved":false,"is_disabled":true,"rental_uris":{"android":"levelo://app?vid=29a529f8-42d2-4af5-9f68-5632920aa58d","ios":"levelo://app?vid=29a529f8-42d2-4af5-9f68-5632920aa58d"},"vehicle_type_id":"4","last_reported":1745853036,"current_range_meters":12000,"station_id":"ce4bgjp2rcd13ifvqbh0","pricing_plan_id":"cebpf4jnsgd1na2vs0mg"},{"bike_id":"af1e84fe-00f7-48f7-af26-2a4d8279b69b","system_id":"levelo_inurba_marseille","lat":43.24168,"lon":5.36391,"is_reserved":false,"is_disabled":false,"rental_uris":{"android":"levelo://app?vid=af1e84fe-00f7-48f7-af26-2a4d8279b69b","ios":"levelo://app?vid=af1e84fe-00f7-48f7-af26-2a4d8279b69b"},"vehicle_type_id":"4","last_reported":1745853036,"current_range_meters":12000,"station_id":"cpo36qri1sfpv3e86is0","pricing_plan_id":"cebpf4jnsgd1na2vs0mg"},{"bike_id":"e5b4b90d-e268-4de2-98f4-f6d0513f8801","system_id":"levelo_inurba_marseille","lat":43.26568,"lon":5.42202,"is_reserved":false,"is_disabled":false,"rental_uris":{"android":"levelo://app?vid=e5b4b90d-e268-4de2-98f4-f6d0513f8801","ios":"levelo://app?vid=e5b4b90d-e268-4de2-98f4-f6d0513f8801"},"vehicle_type_id":"4","last_reported":1745853036,"current_range_meters":12000,"station_id":"","pricing_plan_id":"cebpf4jnsgd1na2vs0mg"},{"bike_id":"847bb772-d080-49f1-a303-ed00d64fd8ff","system_id":"levelo_inurba_marseille","lat":43.26781,"lon":5.39423,"is_reserved":false,"is_disabled":false,"rental_uris":{"android":"levelo://app?vid=847bb772-d080-49f1-a303-ed00d64fd8ff","ios":"levelo://app?vid=847bb772-d080-49f1-a303-ed00d64fd8ff"},"vehicle_type_id":"4","last_reported":1745853036,"current_range_meters":12000,"station_id":"ce4bhh12rcd13ifvqfg0","pricing_plan_id":"cebpf4jnsgd1na2vs0mg"},{"bike_id":"14df7e60-dc78-459e-9c20-e882617bd539","system_id":"levelo_inurba_marseille","lat":43.28461,"lon":5.35888,"is_reserved":false,"is_disabled":false,"rental_uris":{"android":"levelo://app?vid=14df7e60-dc78-459e-9c20-e882617bd539","ios":"levelo://app?vid=14df7e60-dc78-459e-9c20-e882617bd539"},"vehicle_type_id":"4","last_reported":1745853036,"current_range_meters":12000,"station_id":"ce4bhah2rcd13ifvqei0","pricing_plan_id":"cebpf4jnsgd1na2vs0mg"},{"bike_id":"d50e9629-1665-4b2b-83e4-2d9993aa7a8e","system_id":"levelo_inurba_marseille","lat":43.29262,"lon":5.38442,"is_reserved":false,"is_disabled":false,"rental_uris":{"android":"levelo://app?vid=d50e9629-1665-4b2b-83e4-2d9993aa7a8e","ios":"levelo://app?vid=d50e9629-1665-4b2b-83e4-2d9993aa7a8e"},"vehicle_type_id":"4","last_reported":1745853036,"current_range_meters":12400,"station_id":"ce4bh692rcd13ifvqea0","pricing_plan_id":"cebpf4jnsgd1na2vs0mg"},{"bike_id":"88365add-ff0a-4bfc-979e-71234c3ae200","system_id":"levelo_inurba_marseille","lat":43.29267,"lon":5.38436,"is_reserved":false,"is_disabled":false,"rental_uris":{"android":"levelo://app?vid=88365add-ff0a-4bfc-979e-71234c3ae200","ios":"levelo://app?vid=88365add-ff0a-4bfc-979e-71234c3ae200"},"vehicle_type_id":"4","last_reported":1745853036,"current_range_meters":9600,"station_id":"ce4bh692rcd13ifvqea0","pricing_plan_id":"cebpf4jnsgd1na2vs0mg"},{"bike_id":"fe8d1c7e-1e73-43f4-aa39-3acf033e4382","system_id":"levelo_inurba_marseille","lat":43.2836,"lon":5.38629,"is_reserved":false,"is_disabled":false,"rental_uris":{"android":"levelo://app?vid=fe8d1c7e-1e73-43f4-aa39-3acf033e4382","ios":"levelo://app?vid=fe8d1c7e-1e73-43f4-aa39-3acf033e4382"},"vehicle_type_id":"4","last_reported":1745853036,"current_range_meters":12400,"station_id":"ce4bh492rcd13ifvqdvg","pricing_plan_id":"cebpf4jnsgd1na2vs0mg"},{"bike_id":"855d3366-a7e3-4ffe-a2c4-1b0e4609ce26","system_id":"levelo_inurba_marseille","lat":43.27952,"lon":5.4105,"is_reserved":false,"is_disabled":false,"rental_uris":{"android":"levelo://app?vid=855d3366-a7e3-4ffe-a2c4-1b0e4609ce26","ios":"levelo://app?vid=855d3366-a7e3-4ffe-a2c4-1b0e4609ce26"},"vehicle_type_id":"4","last_reported":1745853036,"current_range_meters":12400,"station_id":"ce4bhnp2rcd13ifvqh0g","pricing_plan_id":"cebpf4jnsgd1na2vs0mg"},{"bike_id":"86c0598b-4818-471f-9a8b-081ecdc96572","system_id":"levelo_inurba_marseille","lat":43.2559,"lon":5.38257,"is_reserved":false,"is_disabled":false,"rental_uris":{"android":"levelo://app?vid=86c0598b-4818-471f-9a8b-081ecdc96572","ios":"levelo://app?vid=86c0598b-4818-471f-9a8b-081ecdc96572"},"vehicle_type_id":"4","last_reported":1745853036,"current_range_meters":12800,"station_id":"ce4bhih2rcd13ifvqfs0","pricing_plan_id":"cebpf4jnsgd1na2vs0mg"},{"bike_id":"6b437d6c-e347-4180-b500-1328132bc19e","system_id":"levelo_inurba_marseille","lat":43.29307,"lon":5.37462,"is_reserved":false,"is_disabled":false,"rental_uris":{"android":"levelo://app?vid=6b437d6c-e347-4180-b500-1328132bc19e","ios":"levelo://app?vid=6b437d6c-e347-4180-b500-1328132bc19e"},"vehicle_type_id":"4","last_reported":1745853036,"current_range_meters":13600,"station_id":"ce4bgi12rcd13ifvqb70","pricing_plan_id":"cebpf4jnsgd1na2vs0mg"},{"bike_id":"4a059a2d-b3a6-4e0b-9fd3-b714abc8d3bb","system_id":"levelo_inurba_marseille","lat":43.31995,"lon":5.38163,"is_reserved":false,"is_disabled":true,"rental_uris":{"android":"levelo://app?vid=4a059a2d-b3a6-4e0b-9fd3-b714abc8d3bb","ios":"levelo://app?vid=4a059a2d-b3a6-4e0b-9fd3-b714abc8d3bb"},"vehicle_type_id":"4","last_reported":1745853036,"current_range_meters":12800,"station_id":"ce4bhr12rcd13ifvqhpg","pricing_plan_id":"cebpf4jnsgd1na2vs0mg"},{"bike_id":"5e2454f1-e121-41a3-a99a-56c134375d2f","system_id":"levelo_inurba_marseille","lat":43.24804,"lon":5.37452,"is_reserved":false,"is_disabled":false,"rental_uris":{"android":"levelo://app?vid=5e2454f1-e121-41a3-a99a-56c134375d2f","ios":"levelo://app?vid=5e2454f1-e121-41a3-a99a-56c134375d2f"},"vehicle_type_id":"4","last_reported":1745853036,"current_range_meters":12800,"station_id":"ce4bhgh2rcd13ifvqfb0","pricing_plan_id":"cebpf4jnsgd1na2vs0mg"},{"bike_id":"e8df415e-9f13-4057-ab63-e0b2a1231d78","system_id":"levelo_inurba_marseille","lat":43.28848,"lon":5.35874,"is_reserved":false,"is_disabled":false,"rental_uris":{"android":"levelo://app?vid=e8df415e-9f13-4057-ab63-e0b2a1231d78","ios":"levelo://app?vid=e8df415e-9f13-4057-ab63-e0b2a1231d78"},"vehicle_type_id":"4","last_reported":1745853036,"current_range_meters":12800,"station_id":"ce4bhb12rcd13ifvqem0","pricing_plan_id":"cebpf4jnsgd1na2vs0mg"},{"bike_id":"f8527f98-9dba-4767-9c49-2ee5632fd2af","system_id":"levelo_inurba_marseille","lat":43.27833,"lon":5.40716,"is_reserved":false,"is_disabled":true,"rental_uris":{"android":"levelo://app?vid=f8527f98-9dba-4767-9c49-2ee5632fd2af","ios":"levelo://app?vid=f8527f98-9dba-4767-9c49-2ee5632fd2af"},"vehicle_type_id":"4","last_reported":1745853036,"current_range_meters":12800,"station_id":"ce4bhnh2rcd13ifvqgtg","pricing_plan_id":"cebpf4jnsgd1na2vs0mg"},{"bike_id":"a265a47f-5855-4b1c-b255-4b5d38df3cf9","system_id":"levelo_inurba_marseille","lat":43.29802,"lon":5.40401,"is_reserved":false,"is_disabled":false,"rental_uris":{"android":"levelo://app?vid=a265a47f-5855-4b1c-b255-4b5d38df3cf9","ios":"levelo://app?vid=a265a47f-5855-4b1c-b255-4b5d38df3cf9"},"vehicle_type_id":"4","last_reported":1745853036,"current_range_meters":9600,"station_id":"ce4bh112rcd13ifvqd90","pricing_plan_id":"cebpf4jnsgd1na2vs0mg"},{"bike_id":"6a40a497-5da3-4797-9a29-3687169b0edb","system_id":"levelo_inurba_marseille","lat":43.2175,"lon":5.346007,"is_reserved":false,"is_disabled":false,"rental_uris":{"android":"levelo://app?vid=6a40a497-5da3-4797-9a29-3687169b0edb","ios":"levelo://app?vid=6a40a497-5da3-4797-9a29-3687169b0edb"},"vehicle_type_id":"4","last_reported":1745853036,"current_range_meters":13600,"station_id":"st_cvj6r9ubvosntc0bgbag","pricing_plan_id":"cebpf4jnsgd1na2vs0mg"},{"bike_id":"c4a718d2-e9db-42b1-8109-4e99f75fac81","system_id":"levelo_inurba_marseille","lat":43.23206,"lon":5.35543,"is_reserved":false,"is_disabled":false,"rental_uris":{"android":"levelo://app?vid=c4a718d2-e9db-42b1-8109-4e99f75fac81","ios":"levelo://app?vid=c4a718d2-e9db-42b1-8109-4e99f75fac81"},"vehicle_type_id":"4","last_reported":1745853036,"current_range_meters":13600,"station_id":"ce4bhu92rcd13ifvqi70","pricing_plan_id":"cebpf4jnsgd1na2vs0mg"},{"bike_id":"ab4612c3-85f5-4cb4-9ce2-46373d9c1c69","system_id":"levelo_inurba_marseille","lat":43.25799,"lon":5.38585,"is_reserved":false,"is_disabled":false,"rental_uris":{"android":"levelo://app?vid=ab4612c3-85f5-4cb4-9ce2-46373d9c1c69","ios":"levelo://app?vid=ab4612c3-85f5-4cb4-9ce2-46373d9c1c69"},"vehicle_type_id":"4","last_reported":1745853036,"current_range_meters":13600,"station_id":"","pricing_plan_id":"cebpf4jnsgd1na2vs0mg"},{"bike_id":"f4e7471c-d017-42f8-96d8-46fefacb6311","system_id":"levelo_inurba_marseille","lat":43.27062,"lon":5.40256,"is_reserved":false,"is_disabled":false,"rental_uris":{"android":"levelo://app?vid=f4e7471c-d017-42f8-96d8-46fefacb6311","ios":"levelo://app?vid=f4e7471c-d017-42f8-96d8-46fefacb6311"},"vehicle_type_id":"4","last_reported":1745853036,"current_range_meters":13600,"station_id":"ce4bhk92rcd13ifvqgc0","pricing_plan_id":"cebpf4jnsgd1na2vs0mg"},{"bike_id":"26dba49e-bfef-43ba-a4a9-e01bbade0e20","system_id":"levelo_inurba_marseille","lat":43.30896,"lon":5.37207,"is_reserved":false,"is_disabled":false,"rental_uris":{"android":"levelo://app?vid=26dba49e-bfef-43ba-a4a9-e01bbade0e20","ios":"levelo://app?vid=26dba49e-bfef-43ba-a4a9-e01bbade0e20"},"vehicle_type_id":"4","last_reported":1745853036,"current_range_meters":14000,"station_id":"ce4bguh2rcd13ifvqckg","pricing_plan_id":"cebpf4jnsgd1na2vs0mg"},{"bike_id":"572ce216-f93e-4aec-8c22-1971f7953449","system_id":"levelo_inurba_marseille","lat":43.30925,"lon":5.4014,"is_reserved":false,"is_disabled":false,"rental_uris":{"android":"levelo://app?vid=572ce216-f93e-4aec-8c22-1971f7953449","ios":"levelo://app?vid=572ce216-f93e-4aec-8c22-1971f7953449"},"vehicle_type_id":"4","last_reported":1745853036,"current_range_meters":13600,"station_id":"ce4bgvp2rcd13ifvqct0","pricing_plan_id":"cebpf4jnsgd1na2vs0mg"},{"bike_id":"ae3a4891-4496-499e-99e9-1b618e898ef6","system_id":"levelo_inurba_marseille","lat":43.28035,"lon":5.3695,"is_reserved":false,"is_disabled":false,"rental_uris":{"android":"levelo://app?vid=ae3a4891-4496-499e-99e9-1b618e898ef6","ios":"levelo://app?vid=ae3a4891-4496-499e-99e9-1b618e898ef6"},"vehicle_type_id":"4","last_reported":1745853036,"current_range_meters":14000,"station_id":"ce4bha12rcd13ifvqef0","pricing_plan_id":"cebpf4jnsgd1na2vs0mg"},{"bike_id":"ad3c41ef-2b77-4461-8051-8dde8178d6c6","system_id":"levelo_inurba_marseille","lat":43.27814,"lon":5.40711,"is_reserved":false,"is_disabled":false,"rental_uris":{"android":"levelo://app?vid=ad3c41ef-2b77-4461-8051-8dde8178d6c6","ios":"levelo://app?vid=ad3c41ef-2b77-4461-8051-8dde8178d6c6"},"vehicle_type_id":"4","last_reported":1745853036,"current_range_meters":14000,"station_id":"ce4bhnh2rcd13ifvqgtg","pricing_plan_id":"cebpf4jnsgd1na2vs0mg"},{"bike_id":"a273dd95-99e2-4bb8-bee8-19cb9b13f516","system_id":"levelo_inurba_marseille","lat":43.299,"lon":5.43654,"is_reserved":false,"is_disabled":false,"rental_uris":{"android":"levelo://app?vid=a273dd95-99e2-4bb8-bee8-19cb9b13f516","ios":"levelo://app?vid=a273dd95-99e2-4bb8-bee8-19cb9b13f516"},"vehicle_type_id":"4","last_reported":1745853036,"current_range_meters":14400,"station_id":"ce4bhpp2rcd13ifvqhfg","pricing_plan_id":"cebpf4jnsgd1na2vs0mg"},{"bike_id":"de0a46fb-bf00-4a63-a578-08e31ab52cf0","system_id":"levelo_inurba_marseille","lat":43.21749,"lon":5.34601,"is_reserved":false,"is_disabled":false,"rental_uris":{"android":"levelo://app?vid=de0a46fb-bf00-4a63-a578-08e31ab52cf0","ios":"levelo://app?vid=de0a46fb-bf00-4a63-a578-08e31ab52cf0"},"vehicle_type_id":"4","last_reported":1745853036,"current_range_meters":14400,"station_id":"st_cvj6r9ubvosntc0bgbag","pricing_plan_id":"cebpf4jnsgd1na2vs0mg"},{"bike_id":"f4f881fd-27dc-49f0-82bb-5d7446a62eeb","system_id":"levelo_inurba_marseille","lat":43.2926,"lon":5.38438,"is_reserved":false,"is_disabled":false,"rental_uris":{"android":"levelo://app?vid=f4f881fd-27dc-49f0-82bb-5d7446a62eeb","ios":"levelo://app?vid=f4f881fd-27dc-49f0-82bb-5d7446a62eeb"},"vehicle_type_id":"4","last_reported":1745853036,"current_range_meters":14400,"station_id":"ce4bh692rcd13ifvqea0","pricing_plan_id":"cebpf4jnsgd1na2vs0mg"},{"bike_id":"6b88ae52-4470-4609-9540-2ec7e9358c2c","system_id":"levelo_inurba_marseille","lat":43.23959,"lon":5.36636,"is_reserved":false,"is_disabled":false,"rental_uris":{"android":"levelo://app?vid=6b88ae52-4470-4609-9540-2ec7e9358c2c","ios":"levelo://app?vid=6b88ae52-4470-4609-9540-2ec7e9358c2c"},"vehicle_type_id":"4","last_reported":1745853036,"current_range_meters":15200,"station_id":"ce4bhi12rcd13ifvqfp0","pricing_plan_id":"cebpf4jnsgd1na2vs0mg"},{"bike_id":"d58e03bb-19b9-469a-bcd7-0c3ce91d40b5","system_id":"levelo_inurba_marseille","lat":43.21343,"lon":5.34963,"is_reserved":false,"is_disabled":false,"rental_uris":{"android":"levelo://app?vid=d58e03bb-19b9-469a-bcd7-0c3ce91d40b5","ios":"levelo://app?vid=d58e03bb-19b9-469a-bcd7-0c3ce91d40b5"},"vehicle_type_id":"4","last_reported":1745853036,"current_range_meters":15200,"station_id":"","pricing_plan_id":"cebpf4jnsgd1na2vs0mg"},{"bike_id":"28894e81-ede6-4351-84e3-e6b48081a345","system_id":"levelo_inurba_marseille","lat":43.33456,"lon":5.40009,"is_reserved":false,"is_disabled":false,"rental_uris":{"android":"levelo://app?vid=28894e81-ede6-4351-84e3-e6b48081a345","ios":"levelo://app?vid=28894e81-ede6-4351-84e3-e6b48081a345"},"vehicle_type_id":"4","last_reported":1745853036,"current_range_meters":16000,"station_id":"","pricing_plan_id":"cebpf4jnsgd1na2vs0mg"},{"bike_id":"64b4a0f6-eb4e-4a58-a49c-c2fdffc72cda","system_id":"levelo_inurba_marseille","lat":43.275628,"lon":5.384301,"is_reserved":false,"is_disabled":true,"rental_uris":{"android":"levelo://app?vid=64b4a0f6-eb4e-4a58-a49c-c2fdffc72cda","ios":"levelo://app?vid=64b4a0f6-eb4e-4a58-a49c-c2fdffc72cda"},"vehicle_type_id":"4","last_reported":1745853036,"current_range_meters":16000,"station_id":"ce4bhh92rcd13ifvqfi0","pricing_plan_id":"cebpf4jnsgd1na2vs0mg"},{"bike_id":"258ed202-f650-4587-a08a-5de3782f5c65","system_id":"levelo_inurba_marseille","lat":43.28487,"lon":5.38416,"is_reserved":false,"is_disabled":false,"rental_uris":{"android":"levelo://app?vid=258ed202-f650-4587-a08a-5de3782f5c65","ios":"levelo://app?vid=258ed202-f650-4587-a08a-5de3782f5c65"},"vehicle_type_id":"4","last_reported":1745853036,"current_range_meters":16000,"station_id":"ce4bh512rcd13ifvqe3g","pricing_plan_id":"cebpf4jnsgd1na2vs0mg"},{"bike_id":"29cc6b36-65a2-4157-a9c9-013bddb90a4e","system_id":"levelo_inurba_marseille","lat":43.31359,"lon":5.367099,"is_reserved":false,"is_disabled":false,"rental_uris":{"android":"levelo://app?vid=29cc6b36-65a2-4157-a9c9-013bddb90a4e","ios":"levelo://app?vid=29cc6b36-65a2-4157-a9c9-013bddb90a4e"},"vehicle_type_id":"4","last_reported":1745853036,"current_range_meters":16000,"station_id":"ce4bgr92rcd13ifvqc6g","pricing_plan_id":"cebpf4jnsgd1na2vs0mg"},{"bike_id":"4e9dabf5-6326-46b5-baa7-93f961065ca1","system_id":"levelo_inurba_marseille","lat":43.29608,"lon":5.38104,"is_reserved":false,"is_disabled":false,"rental_uris":{"android":"levelo://app?vid=4e9dabf5-6326-46b5-baa7-93f961065ca1","ios":"levelo://app?vid=4e9dabf5-6326-46b5-baa7-93f961065ca1"},"vehicle_type_id":"4","last_reported":1745853036,"current_range_meters":16000,"station_id":"ce4bgl12rcd13ifvqbo0","pricing_plan_id":"cebpf4jnsgd1na2vs0mg"},{"bike_id":"045db907-8281-46fc-8ded-f9793ddf3b93","system_id":"levelo_inurba_marseille","lat":43.29265,"lon":5.37631,"is_reserved":false,"is_disabled":false,"rental_uris":{"android":"levelo://app?vid=045db907-8281-46fc-8ded-f9793ddf3b93","ios":"levelo://app?vid=045db907-8281-46fc-8ded-f9793ddf3b93"},"vehicle_type_id":"4","last_reported":1745853036,"current_range_meters":16000,"station_id":"ce4bgi12rcd13ifvqb80","pricing_plan_id":"cebpf4jnsgd1na2vs0mg"},{"bike_id":"b3d7cca2-7d35-4030-8d40-4a8257616573","system_id":"levelo_inurba_marseille","lat":43.22504,"lon":5.347839,"is_reserved":false,"is_disabled":false,"rental_uris":{"android":"levelo://app?vid=b3d7cca2-7d35-4030-8d40-4a8257616573","ios":"levelo://app?vid=b3d7cca2-7d35-4030-8d40-4a8257616573"},"vehicle_type_id":"4","last_reported":1745853036,"current_range_meters":16400,"station_id":"","pricing_plan_id":"cebpf4jnsgd1na2vs0mg"},{"bike_id":"637fdb1b-c241-4129-9386-adf25beb23a9","system_id":"levelo_inurba_marseille","lat":43.27054,"lon":5.4026,"is_reserved":false,"is_disabled":false,"rental_uris":{"android":"levelo://app?vid=637fdb1b-c241-4129-9386-adf25beb23a9","ios":"levelo://app?vid=637fdb1b-c241-4129-9386-adf25beb23a9"},"vehicle_type_id":"4","last_reported":1745853036,"current_range_meters":16400,"station_id":"ce4bhk92rcd13ifvqgc0","pricing_plan_id":"cebpf4jnsgd1na2vs0mg"},{"bike_id":"3f699378-14c3-4038-b229-c78cac354c86","system_id":"levelo_inurba_marseille","lat":43.28607,"lon":5.37065,"is_reserved":false,"is_disabled":false,"rental_uris":{"android":"levelo://app?vid=3f699378-14c3-4038-b229-c78cac354c86","ios":"levelo://app?vid=3f699378-14c3-4038-b229-c78cac354c86"},"vehicle_type_id":"4","last_reported":1745853036,"current_range_meters":16400,"station_id":"ce4bht12rcd13ifvqi60","pricing_plan_id":"cebpf4jnsgd1na2vs0mg"},{"bike_id":"1c71dd62-5c1a-42e0-8da7-81eceebfb73e","system_id":"levelo_inurba_marseille","lat":43.21186,"lon":5.35064,"is_reserved":false,"is_disabled":false,"rental_uris":{"android":"levelo://app?vid=1c71dd62-5c1a-42e0-8da7-81eceebfb73e","ios":"levelo://app?vid=1c71dd62-5c1a-42e0-8da7-81eceebfb73e"},"vehicle_type_id":"4","last_reported":1745853036,"current_range_meters":16400,"station_id":"st_cvj6sg6p6f1abm77japg","pricing_plan_id":"cebpf4jnsgd1na2vs0mg"},{"bike_id":"f0e24a0b-f115-489e-870e-fe73f8dfd365","system_id":"levelo_inurba_marseille","lat":43.29885,"lon":5.38906,"is_reserved":false,"is_disabled":false,"rental_uris":{"android":"levelo://app?vid=f0e24a0b-f115-489e-870e-fe73f8dfd365","ios":"levelo://app?vid=f0e24a0b-f115-489e-870e-fe73f8dfd365"},"vehicle_type_id":"4","last_reported":1745853036,"current_range_meters":16000,"station_id":"ce4bh392rcd13ifvqdl0","pricing_plan_id":"cebpf4jnsgd1na2vs0mg"},{"bike_id":"a834a79b-269b-4bde-ab24-91531761647f","system_id":"levelo_inurba_marseille","lat":43.299596,"lon":5.413274,"is_reserved":false,"is_disabled":false,"rental_uris":{"android":"levelo://app?vid=a834a79b-269b-4bde-ab24-91531761647f","ios":"levelo://app?vid=a834a79b-269b-4bde-ab24-91531761647f"},"vehicle_type_id":"4","last_reported":1745853036,"current_range_meters":16400,"station_id":"ce4bhp12rcd13ifvqh9g","pricing_plan_id":"cebpf4jnsgd1na2vs0mg"},{"bike_id":"4e2ccc51-f5b0-45bf-b956-50631000a234","system_id":"levelo_inurba_marseille","lat":43.29369,"lon":5.37843,"is_reserved":false,"is_disabled":false,"rental_uris":{"android":"levelo://app?vid=4e2ccc51-f5b0-45bf-b956-50631000a234","ios":"levelo://app?vid=4e2ccc51-f5b0-45bf-b956-50631000a234"},"vehicle_type_id":"4","last_reported":1745853036,"current_range_meters":16400,"station_id":"ce4bgjh2rcd13ifvqbf0","pricing_plan_id":"cebpf4jnsgd1na2vs0mg"},{"bike_id":"21593dc3-ecb8-439c-a6ea-0152ff70354e","system_id":"levelo_inurba_marseille","lat":43.2989,"lon":5.43663,"is_reserved":false,"is_disabled":false,"rental_uris":{"android":"levelo://app?vid=21593dc3-ecb8-439c-a6ea-0152ff70354e","ios":"levelo://app?vid=21593dc3-ecb8-439c-a6ea-0152ff70354e"},"vehicle_type_id":"4","last_reported":1745853036,"current_range_meters":16800,"station_id":"ce4bhpp2rcd13ifvqhfg","pricing_plan_id":"cebpf4jnsgd1na2vs0mg"},{"bike_id":"a5748a7d-8fa5-49fb-a536-97811014cf5d","system_id":"levelo_inurba_marseille","lat":43.29262,"lon":5.38434,"is_reserved":false,"is_disabled":false,"rental_uris":{"android":"levelo://app?vid=a5748a7d-8fa5-49fb-a536-97811014cf5d","ios":"levelo://app?vid=a5748a7d-8fa5-49fb-a536-97811014cf5d"},"vehicle_type_id":"4","last_reported":1745853036,"current_range_meters":18000,"station_id":"ce4bh692rcd13ifvqea0","pricing_plan_id":"cebpf4jnsgd1na2vs0mg"},{"bike_id":"a640b5aa-9396-4827-8f57-dd7ffd2f1a84","system_id":"levelo_inurba_marseille","lat":43.29789,"lon":5.38103,"is_reserved":false,"is_disabled":true,"rental_uris":{"android":"levelo://app?vid=a640b5aa-9396-4827-8f57-dd7ffd2f1a84","ios":"levelo://app?vid=a640b5aa-9396-4827-8f57-dd7ffd2f1a84"},"vehicle_type_id":"4","last_reported":1745853036,"current_range_meters":16800,"station_id":"ce4bgip2rcd13ifvqbb0","pricing_plan_id":"cebpf4jnsgd1na2vs0mg"},{"bike_id":"923f8501-7d40-44db-85bf-a51b2ea797ac","system_id":"levelo_inurba_marseille","lat":43.2696,"lon":5.40297,"is_reserved":false,"is_disabled":true,"rental_uris":{"android":"levelo://app?vid=923f8501-7d40-44db-85bf-a51b2ea797ac","ios":"levelo://app?vid=923f8501-7d40-44db-85bf-a51b2ea797ac"},"vehicle_type_id":"4","last_reported":1745853036,"current_range_meters":16800,"station_id":"cjm6bp8fraef2m0cb0m0","pricing_plan_id":"cebpf4jnsgd1na2vs0mg"},{"bike_id":"662a98ad-036e-4a6c-91e0-b8807264cf0a","system_id":"levelo_inurba_marseille","lat":43.29278,"lon":5.36853,"is_reserved":false,"is_disabled":false,"rental_uris":{"android":"levelo://app?vid=662a98ad-036e-4a6c-91e0-b8807264cf0a","ios":"levelo://app?vid=662a98ad-036e-4a6c-91e0-b8807264cf0a"},"vehicle_type_id":"4","last_reported":1745853036,"current_range_meters":16800,"station_id":"ce4bhbp2rcd13ifvqesg","pricing_plan_id":"cebpf4jnsgd1na2vs0mg"},{"bike_id":"1264c7be-6485-4025-afa3-c1ade9d2a1f0","system_id":"levelo_inurba_marseille","lat":43.268669,"lon":5.403794,"is_reserved":false,"is_disabled":false,"rental_uris":{"android":"levelo://app?vid=1264c7be-6485-4025-afa3-c1ade9d2a1f0","ios":"levelo://app?vid=1264c7be-6485-4025-afa3-c1ade9d2a1f0"},"vehicle_type_id":"4","last_reported":1745853036,"current_range_meters":16400,"station_id":"ce4bhl12rcd13ifvqgf0","pricing_plan_id":"cebpf4jnsgd1na2vs0mg"},{"bike_id":"2ccd92b7-bce5-4146-a5d8-7a6b2892dd0c","system_id":"levelo_inurba_marseille","lat":43.27373,"lon":5.36259,"is_reserved":false,"is_disabled":false,"rental_uris":{"android":"levelo://app?vid=2ccd92b7-bce5-4146-a5d8-7a6b2892dd0c","ios":"levelo://app?vid=2ccd92b7-bce5-4146-a5d8-7a6b2892dd0c"},"vehicle_type_id":"4","last_reported":1745853036,"current_range_meters":18000,"station_id":"ce4bhbh2rcd13ifvqeo0","pricing_plan_id":"cebpf4jnsgd1na2vs0mg"},{"bike_id":"5d12ee4a-52f1-4f1a-af38-ad7a19a5a489","system_id":"levelo_inurba_marseille","lat":43.305439,"lon":5.365325,"is_reserved":false,"is_disabled":true,"rental_uris":{"android":"levelo://app?vid=5d12ee4a-52f1-4f1a-af38-ad7a19a5a489","ios":"levelo://app?vid=5d12ee4a-52f1-4f1a-af38-ad7a19a5a489"},"vehicle_type_id":"4","last_reported":1745853036,"current_range_meters":17200,"station_id":"ce4bgs12rcd13ifvqcag","pricing_plan_id":"cebpf4jnsgd1na2vs0mg"},{"bike_id":"509bf682-f720-44e1-aea5-469ea6860155","system_id":"levelo_inurba_marseille","lat":43.28718,"lon":5.37959,"is_reserved":false,"is_disabled":false,"rental_uris":{"android":"levelo://app?vid=509bf682-f720-44e1-aea5-469ea6860155","ios":"levelo://app?vid=509bf682-f720-44e1-aea5-469ea6860155"},"vehicle_type_id":"4","last_reported":1745853036,"current_range_meters":17200,"station_id":"ce4bh9p2rcd13ifvqec0","pricing_plan_id":"cebpf4jnsgd1na2vs0mg"},{"bike_id":"888538ce-4dc3-4f2e-8404-8ea4d633e1aa","system_id":"levelo_inurba_marseille","lat":43.26187,"lon":5.37442,"is_reserved":false,"is_disabled":true,"rental_uris":{"android":"levelo://app?vid=888538ce-4dc3-4f2e-8404-8ea4d633e1aa","ios":"levelo://app?vid=888538ce-4dc3-4f2e-8404-8ea4d633e1aa"},"vehicle_type_id":"4","last_reported":1745853036,"current_range_meters":17200,"station_id":"ce4bhgp2rcd13ifvqfc0","pricing_plan_id":"cebpf4jnsgd1na2vs0mg"},{"bike_id":"ce01b172-daea-42c0-9086-ca73d28752e4","system_id":"levelo_inurba_marseille","lat":43.30287,"lon":5.37691,"is_reserved":false,"is_disabled":false,"rental_uris":{"android":"levelo://app?vid=ce01b172-daea-42c0-9086-ca73d28752e4","ios":"levelo://app?vid=ce01b172-daea-42c0-9086-ca73d28752e4"},"vehicle_type_id":"4","last_reported":1745853036,"current_range_meters":18000,"station_id":"ce4bguh2rcd13ifvqcj0","pricing_plan_id":"cebpf4jnsgd1na2vs0mg"},{"bike_id":"489415b8-9254-45c1-b00c-e7554d56755c","system_id":"levelo_inurba_marseille","lat":43.245224,"lon":5.412153,"is_reserved":false,"is_disabled":false,"rental_uris":{"android":"levelo://app?vid=489415b8-9254-45c1-b00c-e7554d56755c","ios":"levelo://app?vid=489415b8-9254-45c1-b00c-e7554d56755c"},"vehicle_type_id":"4","last_reported":1745853036,"current_range_meters":17600,"station_id":"","pricing_plan_id":"cebpf4jnsgd1na2vs0mg"},{"bike_id":"0b824f63-ca49-429d-aeba-29c8eb5b0254","system_id":"levelo_inurba_marseille","lat":43.28423,"lon":5.34987,"is_reserved":false,"is_disabled":false,"rental_uris":{"android":"levelo://app?vid=0b824f63-ca49-429d-aeba-29c8eb5b0254","ios":"levelo://app?vid=0b824f63-ca49-429d-aeba-29c8eb5b0254"},"vehicle_type_id":"4","last_reported":1745853036,"current_range_meters":17600,"station_id":"ce4bhbh2rcd13ifvqepg","pricing_plan_id":"cebpf4jnsgd1na2vs0mg"},{"bike_id":"7a534b29-d196-4a12-8617-e6015128d069","system_id":"levelo_inurba_marseille","lat":43.2175,"lon":5.346,"is_reserved":false,"is_disabled":false,"rental_uris":{"android":"levelo://app?vid=7a534b29-d196-4a12-8617-e6015128d069","ios":"levelo://app?vid=7a534b29-d196-4a12-8617-e6015128d069"},"vehicle_type_id":"4","last_reported":1745853036,"current_range_meters":17600,"station_id":"st_cvj6r9ubvosntc0bgbag","pricing_plan_id":"cebpf4jnsgd1na2vs0mg"},{"bike_id":"e9411c77-e170-4940-aade-51daca013937","system_id":"levelo_inurba_marseille","lat":43.29033,"lon":5.38651,"is_reserved":false,"is_disabled":false,"rental_uris":{"android":"levelo://app?vid=e9411c77-e170-4940-aade-51daca013937","ios":"levelo://app?vid=e9411c77-e170-4940-aade-51daca013937"},"vehicle_type_id":"4","last_reported":1745853036,"current_range_meters":17600,"station_id":"ce4bh4p2rcd13ifvqe0g","pricing_plan_id":"cebpf4jnsgd1na2vs0mg"},{"bike_id":"e2ac210c-743b-43fa-a7d7-258cb180aaab","system_id":"levelo_inurba_marseille","lat":43.28431,"lon":5.3498,"is_reserved":false,"is_disabled":false,"rental_uris":{"android":"levelo://app?vid=e2ac210c-743b-43fa-a7d7-258cb180aaab","ios":"levelo://app?vid=e2ac210c-743b-43fa-a7d7-258cb180aaab"},"vehicle_type_id":"4","last_reported":1745853036,"current_range_meters":17600,"station_id":"ce4bhbh2rcd13ifvqepg","pricing_plan_id":"cebpf4jnsgd1na2vs0mg"},{"bike_id":"69eab5e9-eb1d-46be-a01d-c81f5554a6c0","system_id":"levelo_inurba_marseille","lat":43.21753,"lon":5.34599,"is_reserved":false,"is_disabled":false,"rental_uris":{"android":"levelo://app?vid=69eab5e9-eb1d-46be-a01d-c81f5554a6c0","ios":"levelo://app?vid=69eab5e9-eb1d-46be-a01d-c81f5554a6c0"},"vehicle_type_id":"4","last_reported":1745853036,"current_range_meters":18000,"station_id":"st_cvj6r9ubvosntc0bgbag","pricing_plan_id":"cebpf4jnsgd1na2vs0mg"},{"bike_id":"efcc6a68-c772-4aa7-8df9-3b06d25863e9","system_id":"levelo_inurba_marseille","lat":43.28609,"lon":5.37066,"is_reserved":false,"is_disabled":false,"rental_uris":{"android":"levelo://app?vid=efcc6a68-c772-4aa7-8df9-3b06d25863e9","ios":"levelo://app?vid=efcc6a68-c772-4aa7-8df9-3b06d25863e9"},"vehicle_type_id":"4","last_reported":1745853036,"current_range_meters":18000,"station_id":"ce4bht12rcd13ifvqi60","pricing_plan_id":"cebpf4jnsgd1na2vs0mg"},{"bike_id":"03cc8b26-ab7b-4a0d-a550-6096845f1cc7","system_id":"levelo_inurba_marseille","lat":43.27623,"lon":5.36103,"is_reserved":false,"is_disabled":false,"rental_uris":{"android":"levelo://app?vid=03cc8b26-ab7b-4a0d-a550-6096845f1cc7","ios":"levelo://app?vid=03cc8b26-ab7b-4a0d-a550-6096845f1cc7"},"vehicle_type_id":"4","last_reported":1745853036,"current_range_meters":18000,"station_id":"ce4bgj92rcd13ifvqbe0","pricing_plan_id":"cebpf4jnsgd1na2vs0mg"},{"bike_id":"b884b63e-9d50-4a11-ba7b-1c94fc6556a5","system_id":"levelo_inurba_marseille","lat":43.30307,"lon":5.36877,"is_reserved":false,"is_disabled":false,"rental_uris":{"android":"levelo://app?vid=b884b63e-9d50-4a11-ba7b-1c94fc6556a5","ios":"levelo://app?vid=b884b63e-9d50-4a11-ba7b-1c94fc6556a5"},"vehicle_type_id":"4","last_reported":1745853036,"current_range_meters":18000,"station_id":"ce4bgqh2rcd13ifvqc5g","pricing_plan_id":"cebpf4jnsgd1na2vs0mg"},{"bike_id":"29838295-b7a7-4550-a64c-42e70de59d5a","system_id":"levelo_inurba_marseille","lat":43.29889,"lon":5.38906,"is_reserved":false,"is_disabled":false,"rental_uris":{"android":"levelo://app?vid=29838295-b7a7-4550-a64c-42e70de59d5a","ios":"levelo://app?vid=29838295-b7a7-4550-a64c-42e70de59d5a"},"vehicle_type_id":"4","last_reported":1745853036,"current_range_meters":18000,"station_id":"ce4bh392rcd13ifvqdl0","pricing_plan_id":"cebpf4jnsgd1na2vs0mg"},{"bike_id":"29430062-1c6e-446d-bd61-da91e10fcb49","system_id":"levelo_inurba_marseille","lat":43.2836,"lon":5.38644,"is_reserved":false,"is_disabled":false,"rental_uris":{"android":"levelo://app?vid=29430062-1c6e-446d-bd61-da91e10fcb49","ios":"levelo://app?vid=29430062-1c6e-446d-bd61-da91e10fcb49"},"vehicle_type_id":"4","last_reported":1745853036,"current_range_meters":18000,"station_id":"ce4bh492rcd13ifvqdvg","pricing_plan_id":"cebpf4jnsgd1na2vs0mg"},{"bike_id":"518493f9-fddf-4022-94a1-0f16c4390faf","system_id":"levelo_inurba_marseille","lat":43.30898,"lon":5.37193,"is_reserved":false,"is_disabled":false,"rental_uris":{"android":"levelo://app?vid=518493f9-fddf-4022-94a1-0f16c4390faf","ios":"levelo://app?vid=518493f9-fddf-4022-94a1-0f16c4390faf"},"vehicle_type_id":"4","last_reported":1745853036,"current_range_meters":18000,"station_id":"ce4bguh2rcd13ifvqckg","pricing_plan_id":"cebpf4jnsgd1na2vs0mg"},{"bike_id":"70fbc956-14ce-4f94-8c06-1dcde704840a","system_id":"levelo_inurba_marseille","lat":43.27681,"lon":5.38925,"is_reserved":false,"is_disabled":true,"rental_uris":{"android":"levelo://app?vid=70fbc956-14ce-4f94-8c06-1dcde704840a","ios":"levelo://app?vid=70fbc956-14ce-4f94-8c06-1dcde704840a"},"vehicle_type_id":"4","last_reported":1745853036,"current_range_meters":18800,"station_id":"ce4bhi12rcd13ifvqfo0","pricing_plan_id":"cebpf4jnsgd1na2vs0mg"},{"bike_id":"36dcd603-7a8b-44e1-b245-fe2474dc49b4","system_id":"levelo_inurba_marseille","lat":43.29417,"lon":5.38622,"is_reserved":false,"is_disabled":false,"rental_uris":{"android":"levelo://app?vid=36dcd603-7a8b-44e1-b245-fe2474dc49b4","ios":"levelo://app?vid=36dcd603-7a8b-44e1-b245-fe2474dc49b4"},"vehicle_type_id":"4","last_reported":1745853036,"current_range_meters":16800,"station_id":"ce4bh2h2rcd13ifvqdh0","pricing_plan_id":"cebpf4jnsgd1na2vs0mg"},{"bike_id":"1265278e-77c2-4bb2-87c2-90e2bf3e57b0","system_id":"levelo_inurba_marseille","lat":43.255,"lon":5.37647,"is_reserved":false,"is_disabled":false,"rental_uris":{"android":"levelo://app?vid=1265278e-77c2-4bb2-87c2-90e2bf3e57b0","ios":"levelo://app?vid=1265278e-77c2-4bb2-87c2-90e2bf3e57b0"},"vehicle_type_id":"4","last_reported":1745853036,"current_range_meters":18800,"station_id":"ce4bhh12rcd13ifvqff0","pricing_plan_id":"cebpf4jnsgd1na2vs0mg"},{"bike_id":"aebc02e0-eb21-42d5-b6cb-b73e0a12e313","system_id":"levelo_inurba_marseille","lat":43.29796,"lon":5.38122,"is_reserved":false,"is_disabled":false,"rental_uris":{"android":"levelo://app?vid=aebc02e0-eb21-42d5-b6cb-b73e0a12e313","ios":"levelo://app?vid=aebc02e0-eb21-42d5-b6cb-b73e0a12e313"},"vehicle_type_id":"4","last_reported":1745853036,"current_range_meters":18800,"station_id":"ce4bgip2rcd13ifvqbb0","pricing_plan_id":"cebpf4jnsgd1na2vs0mg"},{"bike_id":"615f3168-6d12-42f6-a6eb-548e9303bcaf","system_id":"levelo_inurba_marseille","lat":43.26551,"lon":5.37285,"is_reserved":false,"is_disabled":false,"rental_uris":{"android":"levelo://app?vid=615f3168-6d12-42f6-a6eb-548e9303bcaf","ios":"levelo://app?vid=615f3168-6d12-42f6-a6eb-548e9303bcaf"},"vehicle_type_id":"4","last_reported":1745853036,"current_range_meters":18800,"station_id":"ce4bhg12rcd13ifvqf70","pricing_plan_id":"cebpf4jnsgd1na2vs0mg"},{"bike_id":"3801613f-6a0b-4349-a142-3176b4e2e604","system_id":"levelo_inurba_marseille","lat":43.27177,"lon":5.40987,"is_reserved":false,"is_disabled":false,"rental_uris":{"android":"levelo://app?vid=3801613f-6a0b-4349-a142-3176b4e2e604","ios":"levelo://app?vid=3801613f-6a0b-4349-a142-3176b4e2e604"},"vehicle_type_id":"4","last_reported":1745853036,"current_range_meters":18800,"station_id":"ce4bhl12rcd13ifvqgf0","pricing_plan_id":"cebpf4jnsgd1na2vs0mg"},{"bike_id":"a990f424-b727-4c59-a50a-2df309014924","system_id":"levelo_inurba_marseille","lat":43.32115,"lon":5.36811,"is_reserved":false,"is_disabled":false,"rental_uris":{"android":"levelo://app?vid=a990f424-b727-4c59-a50a-2df309014924","ios":"levelo://app?vid=a990f424-b727-4c59-a50a-2df309014924"},"vehicle_type_id":"4","last_reported":1745853036,"current_range_meters":18800,"station_id":"ce4bhrh2rcd13ifvqhug","pricing_plan_id":"cebpf4jnsgd1na2vs0mg"},{"bike_id":"7a606858-c276-4eeb-b2b1-6db27b5668c7","system_id":"levelo_inurba_marseille","lat":43.29258,"lon":5.37616,"is_reserved":false,"is_disabled":false,"rental_uris":{"android":"levelo://app?vid=7a606858-c276-4eeb-b2b1-6db27b5668c7","ios":"levelo://app?vid=7a606858-c276-4eeb-b2b1-6db27b5668c7"},"vehicle_type_id":"4","last_reported":1745853036,"current_range_meters":19200,"station_id":"ce4bgi12rcd13ifvqb80","pricing_plan_id":"cebpf4jnsgd1na2vs0mg"},{"bike_id":"22a650e2-af69-41e5-9501-328ced12ea90","system_id":"levelo_inurba_marseille","lat":43.2766,"lon":5.42192,"is_reserved":false,"is_disabled":false,"rental_uris":{"android":"levelo://app?vid=22a650e2-af69-41e5-9501-328ced12ea90","ios":"levelo://app?vid=22a650e2-af69-41e5-9501-328ced12ea90"},"vehicle_type_id":"4","last_reported":1745853036,"current_range_meters":19200,"station_id":"","pricing_plan_id":"cebpf4jnsgd1na2vs0mg"},{"bike_id":"182f51ba-c40c-489e-bf83-bcba4a7afa89","system_id":"levelo_inurba_marseille","lat":43.22934,"lon":5.3538,"is_reserved":false,"is_disabled":false,"rental_uris":{"android":"levelo://app?vid=182f51ba-c40c-489e-bf83-bcba4a7afa89","ios":"levelo://app?vid=182f51ba-c40c-489e-bf83-bcba4a7afa89"},"vehicle_type_id":"4","last_reported":1745853036,"current_range_meters":19200,"station_id":"cpo3532slgdg3j2ikp40","pricing_plan_id":"cebpf4jnsgd1na2vs0mg"},{"bike_id":"e03aa7d0-45db-42e6-811a-92a069b87ce5","system_id":"levelo_inurba_marseille","lat":43.282641,"lon":5.350545,"is_reserved":false,"is_disabled":false,"rental_uris":{"android":"levelo://app?vid=e03aa7d0-45db-42e6-811a-92a069b87ce5","ios":"levelo://app?vid=e03aa7d0-45db-42e6-811a-92a069b87ce5"},"vehicle_type_id":"4","last_reported":1745853036,"current_range_meters":18000,"station_id":"ce4bhbp2rcd13ifvqerg","pricing_plan_id":"cebpf4jnsgd1na2vs0mg"},{"bike_id":"ab566342-f92c-435a-a238-04939b89345b","system_id":"levelo_inurba_marseille","lat":43.29593,"lon":5.38091,"is_reserved":false,"is_disabled":true,"rental_uris":{"android":"levelo://app?vid=ab566342-f92c-435a-a238-04939b89345b","ios":"levelo://app?vid=ab566342-f92c-435a-a238-04939b89345b"},"vehicle_type_id":"4","last_reported":1745853036,"current_range_meters":19200,"station_id":"ce4bgl12rcd13ifvqbo0","pricing_plan_id":"cebpf4jnsgd1na2vs0mg"},{"bike_id":"b3d16239-8841-4ab6-9846-2a9d8d4cec90","system_id":"levelo_inurba_marseille","lat":43.32367,"lon":5.3888,"is_reserved":false,"is_disabled":false,"rental_uris":{"android":"levelo://app?vid=b3d16239-8841-4ab6-9846-2a9d8d4cec90","ios":"levelo://app?vid=b3d16239-8841-4ab6-9846-2a9d8d4cec90"},"vehicle_type_id":"4","last_reported":1745853036,"current_range_meters":19200,"station_id":"ce4bhqp2rcd13ifvqhog","pricing_plan_id":"cebpf4jnsgd1na2vs0mg"},{"bike_id":"ad8235ed-92b1-4e2a-8b8f-a3df84e861f7","system_id":"levelo_inurba_marseille","lat":43.2826,"lon":5.35068,"is_reserved":false,"is_disabled":false,"rental_uris":{"android":"levelo://app?vid=ad8235ed-92b1-4e2a-8b8f-a3df84e861f7","ios":"levelo://app?vid=ad8235ed-92b1-4e2a-8b8f-a3df84e861f7"},"vehicle_type_id":"4","last_reported":1745853036,"current_range_meters":19200,"station_id":"ce4bhbp2rcd13ifvqerg","pricing_plan_id":"cebpf4jnsgd1na2vs0mg"},{"bike_id":"83a74104-74ff-4aba-99ce-6edca7f2389e","system_id":"levelo_inurba_marseille","lat":43.28724,"lon":5.37942,"is_reserved":false,"is_disabled":false,"rental_uris":{"android":"levelo://app?vid=83a74104-74ff-4aba-99ce-6edca7f2389e","ios":"levelo://app?vid=83a74104-74ff-4aba-99ce-6edca7f2389e"},"vehicle_type_id":"4","last_reported":1745853036,"current_range_meters":17600,"station_id":"ce4bh9p2rcd13ifvqec0","pricing_plan_id":"cebpf4jnsgd1na2vs0mg"},{"bike_id":"08ddfc39-448b-4616-ad7d-429159c2d0ef","system_id":"levelo_inurba_marseille","lat":43.28938,"lon":5.36642,"is_reserved":false,"is_disabled":false,"rental_uris":{"android":"levelo://app?vid=08ddfc39-448b-4616-ad7d-429159c2d0ef","ios":"levelo://app?vid=08ddfc39-448b-4616-ad7d-429159c2d0ef"},"vehicle_type_id":"4","last_reported":1745853036,"current_range_meters":20000,"station_id":"ce4bhap2rcd13ifvqek0","pricing_plan_id":"cebpf4jnsgd1na2vs0mg"},{"bike_id":"490950e8-66ab-4d85-adcf-938ca98d9424","system_id":"levelo_inurba_marseille","lat":43.2721,"lon":5.39177,"is_reserved":false,"is_disabled":false,"rental_uris":{"android":"levelo://app?vid=490950e8-66ab-4d85-adcf-938ca98d9424","ios":"levelo://app?vid=490950e8-66ab-4d85-adcf-938ca98d9424"},"vehicle_type_id":"4","last_reported":1745853036,"current_range_meters":20400,"station_id":"ce4bhhp2rcd13ifvqfm0","pricing_plan_id":"cebpf4jnsgd1na2vs0mg"},{"bike_id":"4266bd1e-cb49-4cb3-b9dd-9385faea4f25","system_id":"levelo_inurba_marseille","lat":43.250725,"lon":5.395149,"is_reserved":false,"is_disabled":false,"rental_uris":{"android":"levelo://app?vid=4266bd1e-cb49-4cb3-b9dd-9385faea4f25","ios":"levelo://app?vid=4266bd1e-cb49-4cb3-b9dd-9385faea4f25"},"vehicle_type_id":"4","last_reported":1745853036,"current_range_meters":20400,"station_id":"ce4bhm12rcd13ifvqgkg","pricing_plan_id":"cebpf4jnsgd1na2vs0mg"},{"bike_id":"be9d2c4f-cc97-41e6-afea-058728c5bbb7","system_id":"levelo_inurba_marseille","lat":43.27819,"lon":5.40715,"is_reserved":false,"is_disabled":false,"rental_uris":{"android":"levelo://app?vid=be9d2c4f-cc97-41e6-afea-058728c5bbb7","ios":"levelo://app?vid=be9d2c4f-cc97-41e6-afea-058728c5bbb7"},"vehicle_type_id":"4","last_reported":1745853036,"current_range_meters":19600,"station_id":"ce4bhnh2rcd13ifvqgtg","pricing_plan_id":"cebpf4jnsgd1na2vs0mg"},{"bike_id":"9812df0a-cc9b-431f-a715-cb3929413866","system_id":"levelo_inurba_marseille","lat":43.27617,"lon":5.36102,"is_reserved":false,"is_disabled":false,"rental_uris":{"android":"levelo://app?vid=9812df0a-cc9b-431f-a715-cb3929413866","ios":"levelo://app?vid=9812df0a-cc9b-431f-a715-cb3929413866"},"vehicle_type_id":"4","last_reported":1745853036,"current_range_meters":18800,"station_id":"ce4bgj92rcd13ifvqbe0","pricing_plan_id":"cebpf4jnsgd1na2vs0mg"},{"bike_id":"4af51217-75a6-4c5f-a87f-075edc6510b0","system_id":"levelo_inurba_marseille","lat":43.24207,"lon":5.39722,"is_reserved":false,"is_disabled":false,"rental_uris":{"android":"levelo://app?vid=4af51217-75a6-4c5f-a87f-075edc6510b0","ios":"levelo://app?vid=4af51217-75a6-4c5f-a87f-075edc6510b0"},"vehicle_type_id":"4","last_reported":1745853036,"current_range_meters":20000,"station_id":"ce4bhn12rcd13ifvqgpg","pricing_plan_id":"cebpf4jnsgd1na2vs0mg"},{"bike_id":"fe91386c-5c8b-4e97-8441-1312e6455598","system_id":"levelo_inurba_marseille","lat":43.27375,"lon":5.36254,"is_reserved":false,"is_disabled":false,"rental_uris":{"android":"levelo://app?vid=fe91386c-5c8b-4e97-8441-1312e6455598","ios":"levelo://app?vid=fe91386c-5c8b-4e97-8441-1312e6455598"},"vehicle_type_id":"4","last_reported":1745853036,"current_range_meters":20000,"station_id":"ce4bhbh2rcd13ifvqeo0","pricing_plan_id":"cebpf4jnsgd1na2vs0mg"},{"bike_id":"ed32b3d4-d8f4-40e4-b254-824ac1affbb9","system_id":"levelo_inurba_marseille","lat":43.31088,"lon":5.42427,"is_reserved":false,"is_disabled":false,"rental_uris":{"android":"levelo://app?vid=ed32b3d4-d8f4-40e4-b254-824ac1affbb9","ios":"levelo://app?vid=ed32b3d4-d8f4-40e4-b254-824ac1affbb9"},"vehicle_type_id":"4","last_reported":1745853036,"current_range_meters":20000,"station_id":"ce4bhp92rcd13ifvqhag","pricing_plan_id":"cebpf4jnsgd1na2vs0mg"},{"bike_id":"fab163e7-578d-4cb4-81a1-300fdeffeca9","system_id":"levelo_inurba_marseille","lat":43.27057,"lon":5.40254,"is_reserved":false,"is_disabled":false,"rental_uris":{"android":"levelo://app?vid=fab163e7-578d-4cb4-81a1-300fdeffeca9","ios":"levelo://app?vid=fab163e7-578d-4cb4-81a1-300fdeffeca9"},"vehicle_type_id":"4","last_reported":1745853036,"current_range_meters":20400,"station_id":"ce4bhk92rcd13ifvqgc0","pricing_plan_id":"cebpf4jnsgd1na2vs0mg"},{"bike_id":"9048a988-1cb8-4aa3-ab23-aeb571c1efe3","system_id":"levelo_inurba_marseille","lat":43.24161,"lon":5.36409,"is_reserved":false,"is_disabled":false,"rental_uris":{"android":"levelo://app?vid=9048a988-1cb8-4aa3-ab23-aeb571c1efe3","ios":"levelo://app?vid=9048a988-1cb8-4aa3-ab23-aeb571c1efe3"},"vehicle_type_id":"4","last_reported":1745853036,"current_range_meters":20400,"station_id":"cpo36qri1sfpv3e86is0","pricing_plan_id":"cebpf4jnsgd1na2vs0mg"},{"bike_id":"3e0d3145-f350-4129-8668-7b372d91604a","system_id":"levelo_inurba_marseille","lat":43.2942,"lon":5.38625,"is_reserved":false,"is_disabled":false,"rental_uris":{"android":"levelo://app?vid=3e0d3145-f350-4129-8668-7b372d91604a","ios":"levelo://app?vid=3e0d3145-f350-4129-8668-7b372d91604a"},"vehicle_type_id":"4","last_reported":1745853036,"current_range_meters":20400,"station_id":"ce4bh2h2rcd13ifvqdh0","pricing_plan_id":"cebpf4jnsgd1na2vs0mg"},{"bike_id":"b360c9ed-5f46-4be4-af11-9c26f3d3a5a2","system_id":"levelo_inurba_marseille","lat":43.26557,"lon":5.37283,"is_reserved":false,"is_disabled":false,"rental_uris":{"android":"levelo://app?vid=b360c9ed-5f46-4be4-af11-9c26f3d3a5a2","ios":"levelo://app?vid=b360c9ed-5f46-4be4-af11-9c26f3d3a5a2"},"vehicle_type_id":"4","last_reported":1745853036,"current_range_meters":20400,"station_id":"ce4bhg12rcd13ifvqf70","pricing_plan_id":"cebpf4jnsgd1na2vs0mg"},{"bike_id":"0e8490ac-e5a5-44bc-a533-9ed65a5f3960","system_id":"levelo_inurba_marseille","lat":43.30892,"lon":5.39656,"is_reserved":false,"is_disabled":false,"rental_uris":{"android":"levelo://app?vid=0e8490ac-e5a5-44bc-a533-9ed65a5f3960","ios":"levelo://app?vid=0e8490ac-e5a5-44bc-a533-9ed65a5f3960"},"vehicle_type_id":"4","last_reported":1745853036,"current_range_meters":20400,"station_id":"ce4bh012rcd13ifvqcv0","pricing_plan_id":"cebpf4jnsgd1na2vs0mg"},{"bike_id":"61144dfe-675f-4e9a-9e34-e211c9859fc4","system_id":"levelo_inurba_marseille","lat":43.25094,"lon":5.39515,"is_reserved":false,"is_disabled":false,"rental_uris":{"android":"levelo://app?vid=61144dfe-675f-4e9a-9e34-e211c9859fc4","ios":"levelo://app?vid=61144dfe-675f-4e9a-9e34-e211c9859fc4"},"vehicle_type_id":"4","last_reported":1745853036,"current_range_meters":20400,"station_id":"ce4bhm12rcd13ifvqgkg","pricing_plan_id":"cebpf4jnsgd1na2vs0mg"},{"bike_id":"1d60617e-65e1-4b39-9090-9628604246c1","system_id":"levelo_inurba_marseille","lat":43.28465,"lon":5.35891,"is_reserved":false,"is_disabled":false,"rental_uris":{"android":"levelo://app?vid=1d60617e-65e1-4b39-9090-9628604246c1","ios":"levelo://app?vid=1d60617e-65e1-4b39-9090-9628604246c1"},"vehicle_type_id":"4","last_reported":1745853036,"current_range_meters":20400,"station_id":"ce4bhah2rcd13ifvqei0","pricing_plan_id":"cebpf4jnsgd1na2vs0mg"},{"bike_id":"f9744ed7-ae4a-483c-9cb0-c8fc8a61705d","system_id":"levelo_inurba_marseille","lat":43.23196,"lon":5.35556,"is_reserved":false,"is_disabled":false,"rental_uris":{"android":"levelo://app?vid=f9744ed7-ae4a-483c-9cb0-c8fc8a61705d","ios":"levelo://app?vid=f9744ed7-ae4a-483c-9cb0-c8fc8a61705d"},"vehicle_type_id":"4","last_reported":1745853036,"current_range_meters":20800,"station_id":"ce4bhu92rcd13ifvqi70","pricing_plan_id":"cebpf4jnsgd1na2vs0mg"},{"bike_id":"4cca90e8-3503-453d-acc9-ec024f35b52f","system_id":"levelo_inurba_marseille","lat":43.293,"lon":5.37453,"is_reserved":false,"is_disabled":false,"rental_uris":{"android":"levelo://app?vid=4cca90e8-3503-453d-acc9-ec024f35b52f","ios":"levelo://app?vid=4cca90e8-3503-453d-acc9-ec024f35b52f"},"vehicle_type_id":"4","last_reported":1745853036,"current_range_meters":20800,"station_id":"ce4bgi12rcd13ifvqb70","pricing_plan_id":"cebpf4jnsgd1na2vs0mg"},{"bike_id":"5748582e-74bf-4623-9d94-be00fb117a4d","system_id":"levelo_inurba_marseille","lat":43.292537,"lon":5.409115,"is_reserved":false,"is_disabled":false,"rental_uris":{"android":"levelo://app?vid=5748582e-74bf-4623-9d94-be00fb117a4d","ios":"levelo://app?vid=5748582e-74bf-4623-9d94-be00fb117a4d"},"vehicle_type_id":"4","last_reported":1745853036,"current_range_meters":20800,"station_id":"ce4bh192rcd13ifvqdc0","pricing_plan_id":"cebpf4jnsgd1na2vs0mg"},{"bike_id":"038cbd46-60bb-44b9-9748-10931a54397b","system_id":"levelo_inurba_marseille","lat":43.29512,"lon":5.37509,"is_reserved":false,"is_disabled":false,"rental_uris":{"android":"levelo://app?vid=038cbd46-60bb-44b9-9748-10931a54397b","ios":"levelo://app?vid=038cbd46-60bb-44b9-9748-10931a54397b"},"vehicle_type_id":"4","last_reported":1745853036,"current_range_meters":20800,"station_id":"ce4bgkp2rcd13ifvqbmg","pricing_plan_id":"cebpf4jnsgd1na2vs0mg"},{"bike_id":"50b5da2f-3a79-425d-9a03-6248036b4ea9","system_id":"levelo_inurba_marseille","lat":43.25098,"lon":5.39551,"is_reserved":false,"is_disabled":false,"rental_uris":{"android":"levelo://app?vid=50b5da2f-3a79-425d-9a03-6248036b4ea9","ios":"levelo://app?vid=50b5da2f-3a79-425d-9a03-6248036b4ea9"},"vehicle_type_id":"4","last_reported":1745853036,"current_range_meters":20800,"station_id":"ce4bhm12rcd13ifvqgkg","pricing_plan_id":"cebpf4jnsgd1na2vs0mg"},{"bike_id":"302c8625-8efe-41b1-8ebf-a4d31535b5ad","system_id":"levelo_inurba_marseille","lat":43.28613,"lon":5.35101,"is_reserved":false,"is_disabled":false,"rental_uris":{"android":"levelo://app?vid=302c8625-8efe-41b1-8ebf-a4d31535b5ad","ios":"levelo://app?vid=302c8625-8efe-41b1-8ebf-a4d31535b5ad"},"vehicle_type_id":"4","last_reported":1745853036,"current_range_meters":20800,"station_id":"ce4bhch2rcd13ifvqeug","pricing_plan_id":"cebpf4jnsgd1na2vs0mg"},{"bike_id":"7a8d15eb-1465-4403-81e3-25d14a728ffe","system_id":"levelo_inurba_marseille","lat":43.27834,"lon":5.39205,"is_reserved":false,"is_disabled":false,"rental_uris":{"android":"levelo://app?vid=7a8d15eb-1465-4403-81e3-25d14a728ffe","ios":"levelo://app?vid=7a8d15eb-1465-4403-81e3-25d14a728ffe"},"vehicle_type_id":"4","last_reported":1745853036,"current_range_meters":20800,"station_id":"ce4bhjp2rcd13ifvqga0","pricing_plan_id":"cebpf4jnsgd1na2vs0mg"},{"bike_id":"bae2b822-f0ac-4bf1-8006-589f7eaa600d","system_id":"levelo_inurba_marseille","lat":43.21751,"lon":5.34601,"is_reserved":false,"is_disabled":false,"rental_uris":{"android":"levelo://app?vid=bae2b822-f0ac-4bf1-8006-589f7eaa600d","ios":"levelo://app?vid=bae2b822-f0ac-4bf1-8006-589f7eaa600d"},"vehicle_type_id":"4","last_reported":1745853036,"current_range_meters":20800,"station_id":"st_cvj6r9ubvosntc0bgbag","pricing_plan_id":"cebpf4jnsgd1na2vs0mg"},{"bike_id":"676a0791-b82b-4ed2-a9ed-eb90db3c56b4","system_id":"levelo_inurba_marseille","lat":43.278356,"lon":5.399361,"is_reserved":false,"is_disabled":false,"rental_uris":{"android":"levelo://app?vid=676a0791-b82b-4ed2-a9ed-eb90db3c56b4","ios":"levelo://app?vid=676a0791-b82b-4ed2-a9ed-eb90db3c56b4"},"vehicle_type_id":"4","last_reported":1745853036,"current_range_meters":20800,"station_id":"ce4bho92rcd13ifvqh4g","pricing_plan_id":"cebpf4jnsgd1na2vs0mg"},{"bike_id":"5741880a-6536-46de-a04e-0855b82bbf6c","system_id":"levelo_inurba_marseille","lat":43.28101,"lon":5.37844,"is_reserved":false,"is_disabled":false,"rental_uris":{"android":"levelo://app?vid=5741880a-6536-46de-a04e-0855b82bbf6c","ios":"levelo://app?vid=5741880a-6536-46de-a04e-0855b82bbf6c"},"vehicle_type_id":"4","last_reported":1745853036,"current_range_meters":21600,"station_id":"ce4bha12rcd13ifvqee0","pricing_plan_id":"cebpf4jnsgd1na2vs0mg"},{"bike_id":"3fbeeb44-8613-4e55-82da-882899edc716","system_id":"levelo_inurba_marseille","lat":43.28267,"lon":5.35063,"is_reserved":false,"is_disabled":false,"rental_uris":{"android":"levelo://app?vid=3fbeeb44-8613-4e55-82da-882899edc716","ios":"levelo://app?vid=3fbeeb44-8613-4e55-82da-882899edc716"},"vehicle_type_id":"4","last_reported":1745853036,"current_range_meters":20400,"station_id":"ce4bhbp2rcd13ifvqerg","pricing_plan_id":"cebpf4jnsgd1na2vs0mg"},{"bike_id":"c8cb842d-6f92-4f9a-a60c-c8c6a8ae91e0","system_id":"levelo_inurba_marseille","lat":43.33133,"lon":5.38657,"is_reserved":false,"is_disabled":false,"rental_uris":{"android":"levelo://app?vid=c8cb842d-6f92-4f9a-a60c-c8c6a8ae91e0","ios":"levelo://app?vid=c8cb842d-6f92-4f9a-a60c-c8c6a8ae91e0"},"vehicle_type_id":"4","last_reported":1745853036,"current_range_meters":21600,"station_id":"","pricing_plan_id":"cebpf4jnsgd1na2vs0mg"},{"bike_id":"ab80c94e-76ef-45a7-9e3f-3b927f4a29d0","system_id":"levelo_inurba_marseille","lat":43.29522,"lon":5.39397,"is_reserved":false,"is_disabled":false,"rental_uris":{"android":"levelo://app?vid=ab80c94e-76ef-45a7-9e3f-3b927f4a29d0","ios":"levelo://app?vid=ab80c94e-76ef-45a7-9e3f-3b927f4a29d0"},"vehicle_type_id":"4","last_reported":1745853036,"current_range_meters":20400,"station_id":"ce4bh292rcd13ifvqdf0","pricing_plan_id":"cebpf4jnsgd1na2vs0mg"},{"bike_id":"2773cfc0-05d3-405d-90e6-35b48932d041","system_id":"levelo_inurba_marseille","lat":43.24392,"lon":5.3706,"is_reserved":false,"is_disabled":false,"rental_uris":{"android":"levelo://app?vid=2773cfc0-05d3-405d-90e6-35b48932d041","ios":"levelo://app?vid=2773cfc0-05d3-405d-90e6-35b48932d041"},"vehicle_type_id":"4","last_reported":1745853036,"current_range_meters":22000,"station_id":"ce4bhhh2rcd13ifvqfk0","pricing_plan_id":"cebpf4jnsgd1na2vs0mg"},{"bike_id":"839418d8-36f1-40af-b2d0-ef5b6fb79366","system_id":"levelo_inurba_marseille","lat":43.29264,"lon":5.38434,"is_reserved":false,"is_disabled":false,"rental_uris":{"android":"levelo://app?vid=839418d8-36f1-40af-b2d0-ef5b6fb79366","ios":"levelo://app?vid=839418d8-36f1-40af-b2d0-ef5b6fb79366"},"vehicle_type_id":"4","last_reported":1745853036,"current_range_meters":22000,"station_id":"ce4bh692rcd13ifvqea0","pricing_plan_id":"cebpf4jnsgd1na2vs0mg"},{"bike_id":"84031cf5-4667-4ad9-8933-3e6874af7286","system_id":"levelo_inurba_marseille","lat":43.31221,"lon":5.36849,"is_reserved":false,"is_disabled":false,"rental_uris":{"android":"levelo://app?vid=84031cf5-4667-4ad9-8933-3e6874af7286","ios":"levelo://app?vid=84031cf5-4667-4ad9-8933-3e6874af7286"},"vehicle_type_id":"4","last_reported":1745853036,"current_range_meters":22000,"station_id":"ce4bgl92rcd13ifvqbq0","pricing_plan_id":"cebpf4jnsgd1na2vs0mg"},{"bike_id":"3ea922b3-990b-48c6-8eef-81931d0c21ee","system_id":"levelo_inurba_marseille","lat":43.327089,"lon":5.392532,"is_reserved":false,"is_disabled":false,"rental_uris":{"android":"levelo://app?vid=3ea922b3-990b-48c6-8eef-81931d0c21ee","ios":"levelo://app?vid=3ea922b3-990b-48c6-8eef-81931d0c21ee"},"vehicle_type_id":"4","last_reported":1745853036,"current_range_meters":22400,"station_id":"","pricing_plan_id":"cebpf4jnsgd1na2vs0mg"},{"bike_id":"27acbd15-1acb-44c3-8d9a-4a125fc28f9a","system_id":"levelo_inurba_marseille","lat":43.30338,"lon":5.40424,"is_reserved":false,"is_disabled":false,"rental_uris":{"android":"levelo://app?vid=27acbd15-1acb-44c3-8d9a-4a125fc28f9a","ios":"levelo://app?vid=27acbd15-1acb-44c3-8d9a-4a125fc28f9a"},"vehicle_type_id":"4","last_reported":1745853036,"current_range_meters":22400,"station_id":"ce4bh012rcd13ifvqd10","pricing_plan_id":"cebpf4jnsgd1na2vs0mg"},{"bike_id":"80c51f6c-e7f7-417e-bcba-123d082adfb5","system_id":"levelo_inurba_marseille","lat":43.29017,"lon":5.38135,"is_reserved":false,"is_disabled":false,"rental_uris":{"android":"levelo://app?vid=80c51f6c-e7f7-417e-bcba-123d082adfb5","ios":"levelo://app?vid=80c51f6c-e7f7-417e-bcba-123d082adfb5"},"vehicle_type_id":"4","last_reported":1745853036,"current_range_meters":22800,"station_id":"ce4bh4p2rcd13ifvqe1g","pricing_plan_id":"cebpf4jnsgd1na2vs0mg"},{"bike_id":"49797a07-8a51-4dfc-857e-6d28e3ae8c84","system_id":"levelo_inurba_marseille","lat":43.2792,"lon":5.39578,"is_reserved":false,"is_disabled":false,"rental_uris":{"android":"levelo://app?vid=49797a07-8a51-4dfc-857e-6d28e3ae8c84","ios":"levelo://app?vid=49797a07-8a51-4dfc-857e-6d28e3ae8c84"},"vehicle_type_id":"4","last_reported":1745853036,"current_range_meters":22400,"station_id":"ce4bhf92rcd13ifvqf40","pricing_plan_id":"cebpf4jnsgd1na2vs0mg"},{"bike_id":"41694d40-bc41-4a42-a6dc-227445dfccaa","system_id":"levelo_inurba_marseille","lat":43.29375,"lon":5.37838,"is_reserved":false,"is_disabled":false,"rental_uris":{"android":"levelo://app?vid=41694d40-bc41-4a42-a6dc-227445dfccaa","ios":"levelo://app?vid=41694d40-bc41-4a42-a6dc-227445dfccaa"},"vehicle_type_id":"4","last_reported":1745853036,"current_range_meters":22000,"station_id":"ce4bgjh2rcd13ifvqbf0","pricing_plan_id":"cebpf4jnsgd1na2vs0mg"},{"bike_id":"2bd0a4ba-5753-41f1-9143-3212e1db7074","system_id":"levelo_inurba_marseille","lat":43.30181,"lon":5.36609,"is_reserved":false,"is_disabled":false,"rental_uris":{"android":"levelo://app?vid=2bd0a4ba-5753-41f1-9143-3212e1db7074","ios":"levelo://app?vid=2bd0a4ba-5753-41f1-9143-3212e1db7074"},"vehicle_type_id":"4","last_reported":1745853036,"current_range_meters":22000,"station_id":"ce4bgrh2rcd13ifvqc8g","pricing_plan_id":"cebpf4jnsgd1na2vs0mg"},{"bike_id":"50d63fcd-15cd-41df-979d-84be6002d029","system_id":"levelo_inurba_marseille","lat":43.31367,"lon":5.38482,"is_reserved":false,"is_disabled":false,"rental_uris":{"android":"levelo://app?vid=50d63fcd-15cd-41df-979d-84be6002d029","ios":"levelo://app?vid=50d63fcd-15cd-41df-979d-84be6002d029"},"vehicle_type_id":"4","last_reported":1745853036,"current_range_meters":22000,"station_id":"ce4bgt92rcd13ifvqcf0","pricing_plan_id":"cebpf4jnsgd1na2vs0mg"},{"bike_id":"6fdafa90-89d2-4665-830b-9083761a1998","system_id":"levelo_inurba_marseille","lat":43.25111,"lon":5.40322,"is_reserved":false,"is_disabled":false,"rental_uris":{"android":"levelo://app?vid=6fdafa90-89d2-4665-830b-9083761a1998","ios":"levelo://app?vid=6fdafa90-89d2-4665-830b-9083761a1998"},"vehicle_type_id":"4","last_reported":1745853036,"current_range_meters":22800,"station_id":"ce4bhlh2rcd13ifvqgig","pricing_plan_id":"cebpf4jnsgd1na2vs0mg"},{"bike_id":"6657cce1-091b-44d5-82b2-9b78d83a1adb","system_id":"levelo_inurba_marseille","lat":43.30192,"lon":5.39793,"is_reserved":false,"is_disabled":false,"rental_uris":{"android":"levelo://app?vid=6657cce1-091b-44d5-82b2-9b78d83a1adb","ios":"levelo://app?vid=6657cce1-091b-44d5-82b2-9b78d83a1adb"},"vehicle_type_id":"4","last_reported":1745853036,"current_range_meters":22800,"station_id":"ce4bh0h2rcd13ifvqd40","pricing_plan_id":"cebpf4jnsgd1na2vs0mg"},{"bike_id":"7ae05d06-2fb0-4dce-a88a-edece77a2e8c","system_id":"levelo_inurba_marseille","lat":43.272074,"lon":5.391788,"is_reserved":false,"is_disabled":false,"rental_uris":{"android":"levelo://app?vid=7ae05d06-2fb0-4dce-a88a-edece77a2e8c","ios":"levelo://app?vid=7ae05d06-2fb0-4dce-a88a-edece77a2e8c"},"vehicle_type_id":"4","last_reported":1745853036,"current_range_meters":21600,"station_id":"ce4bhhp2rcd13ifvqfm0","pricing_plan_id":"cebpf4jnsgd1na2vs0mg"},{"bike_id":"537381da-ce11-4bd0-ac92-c70c6230f520","system_id":"levelo_inurba_marseille","lat":43.27806,"lon":5.40703,"is_reserved":false,"is_disabled":false,"rental_uris":{"android":"levelo://app?vid=537381da-ce11-4bd0-ac92-c70c6230f520","ios":"levelo://app?vid=537381da-ce11-4bd0-ac92-c70c6230f520"},"vehicle_type_id":"4","last_reported":1745853036,"current_range_meters":22800,"station_id":"ce4bhnh2rcd13ifvqgtg","pricing_plan_id":"cebpf4jnsgd1na2vs0mg"},{"bike_id":"3252def0-1533-48bb-99c6-33a6747f7b85","system_id":"levelo_inurba_marseille","lat":43.23196,"lon":5.35539,"is_reserved":false,"is_disabled":false,"rental_uris":{"android":"levelo://app?vid=3252def0-1533-48bb-99c6-33a6747f7b85","ios":"levelo://app?vid=3252def0-1533-48bb-99c6-33a6747f7b85"},"vehicle_type_id":"4","last_reported":1745853036,"current_range_meters":23200,"station_id":"ce4bhu92rcd13ifvqi70","pricing_plan_id":"cebpf4jnsgd1na2vs0mg"},{"bike_id":"940b7320-b328-4afe-85a6-d4d069ced16a","system_id":"levelo_inurba_marseille","lat":43.30927,"lon":5.40148,"is_reserved":false,"is_disabled":true,"rental_uris":{"android":"levelo://app?vid=940b7320-b328-4afe-85a6-d4d069ced16a","ios":"levelo://app?vid=940b7320-b328-4afe-85a6-d4d069ced16a"},"vehicle_type_id":"4","last_reported":1745853036,"current_range_meters":23200,"station_id":"ce4bgvp2rcd13ifvqct0","pricing_plan_id":"cebpf4jnsgd1na2vs0mg"},{"bike_id":"ebfb3e3d-e098-4972-b40b-2f8b456cc6f7","system_id":"levelo_inurba_marseille","lat":43.337444,"lon":5.374475,"is_reserved":false,"is_disabled":false,"rental_uris":{"android":"levelo://app?vid=ebfb3e3d-e098-4972-b40b-2f8b456cc6f7","ios":"levelo://app?vid=ebfb3e3d-e098-4972-b40b-2f8b456cc6f7"},"vehicle_type_id":"4","last_reported":1745853036,"current_range_meters":23200,"station_id":"","pricing_plan_id":"cebpf4jnsgd1na2vs0mg"},{"bike_id":"f1987611-a520-442e-9543-7c116d8592b1","system_id":"levelo_inurba_marseille","lat":43.31074,"lon":5.38354,"is_reserved":false,"is_disabled":false,"rental_uris":{"android":"levelo://app?vid=f1987611-a520-442e-9543-7c116d8592b1","ios":"levelo://app?vid=f1987611-a520-442e-9543-7c116d8592b1"},"vehicle_type_id":"4","last_reported":1745853036,"current_range_meters":23200,"station_id":"ce4bgv92rcd13ifvqcr0","pricing_plan_id":"cebpf4jnsgd1na2vs0mg"},{"bike_id":"b26a0b33-650f-4f7b-8536-58a942167ba4","system_id":"levelo_inurba_marseille","lat":43.231913,"lon":5.355528,"is_reserved":false,"is_disabled":false,"rental_uris":{"android":"levelo://app?vid=b26a0b33-650f-4f7b-8536-58a942167ba4","ios":"levelo://app?vid=b26a0b33-650f-4f7b-8536-58a942167ba4"},"vehicle_type_id":"4","last_reported":1745853036,"current_range_meters":23200,"station_id":"ce4bhu92rcd13ifvqi70","pricing_plan_id":"cebpf4jnsgd1na2vs0mg"},{"bike_id":"c60c5030-46ee-43fd-9009-42d657e1d77b","system_id":"levelo_inurba_marseille","lat":43.29569,"lon":5.39965,"is_reserved":false,"is_disabled":false,"rental_uris":{"android":"levelo://app?vid=c60c5030-46ee-43fd-9009-42d657e1d77b","ios":"levelo://app?vid=c60c5030-46ee-43fd-9009-42d657e1d77b"},"vehicle_type_id":"4","last_reported":1745853036,"current_range_meters":22400,"station_id":"ce4bh312rcd13ifvqdj0","pricing_plan_id":"cebpf4jnsgd1na2vs0mg"},{"bike_id":"254a82b3-1bfa-44d0-bb2c-211fbec80e17","system_id":"levelo_inurba_marseille","lat":43.27948,"lon":5.387173,"is_reserved":false,"is_disabled":false,"rental_uris":{"android":"levelo://app?vid=254a82b3-1bfa-44d0-bb2c-211fbec80e17","ios":"levelo://app?vid=254a82b3-1bfa-44d0-bb2c-211fbec80e17"},"vehicle_type_id":"4","last_reported":1745853036,"current_range_meters":23200,"station_id":"ce4bhg12rcd13ifvqf80","pricing_plan_id":"cebpf4jnsgd1na2vs0mg"},{"bike_id":"6991f568-3e61-41e5-97bc-5095157310f4","system_id":"levelo_inurba_marseille","lat":43.24803,"lon":5.37451,"is_reserved":false,"is_disabled":false,"rental_uris":{"android":"levelo://app?vid=6991f568-3e61-41e5-97bc-5095157310f4","ios":"levelo://app?vid=6991f568-3e61-41e5-97bc-5095157310f4"},"vehicle_type_id":"4","last_reported":1745853036,"current_range_meters":23200,"station_id":"ce4bhgh2rcd13ifvqfb0","pricing_plan_id":"cebpf4jnsgd1na2vs0mg"},{"bike_id":"6f07a4c6-c9d8-4425-9447-8676203a33a0","system_id":"levelo_inurba_marseille","lat":43.24169,"lon":5.3639,"is_reserved":false,"is_disabled":false,"rental_uris":{"android":"levelo://app?vid=6f07a4c6-c9d8-4425-9447-8676203a33a0","ios":"levelo://app?vid=6f07a4c6-c9d8-4425-9447-8676203a33a0"},"vehicle_type_id":"4","last_reported":1745853036,"current_range_meters":23200,"station_id":"cpo36qri1sfpv3e86is0","pricing_plan_id":"cebpf4jnsgd1na2vs0mg"},{"bike_id":"5bf74899-aaa9-46cc-9539-9bfcd27a6e32","system_id":"levelo_inurba_marseille","lat":43.27054,"lon":5.40253,"is_reserved":false,"is_disabled":false,"rental_uris":{"android":"levelo://app?vid=5bf74899-aaa9-46cc-9539-9bfcd27a6e32","ios":"levelo://app?vid=5bf74899-aaa9-46cc-9539-9bfcd27a6e32"},"vehicle_type_id":"4","last_reported":1745853036,"current_range_meters":24000,"station_id":"ce4bhk92rcd13ifvqgc0","pricing_plan_id":"cebpf4jnsgd1na2vs0mg"},{"bike_id":"88f6416c-a8cf-48b6-bb44-3988c8b89e2f","system_id":"levelo_inurba_marseille","lat":43.241718,"lon":5.363974,"is_reserved":false,"is_disabled":false,"rental_uris":{"android":"levelo://app?vid=88f6416c-a8cf-48b6-bb44-3988c8b89e2f","ios":"levelo://app?vid=88f6416c-a8cf-48b6-bb44-3988c8b89e2f"},"vehicle_type_id":"4","last_reported":1745853036,"current_range_meters":24000,"station_id":"cpo36qri1sfpv3e86is0","pricing_plan_id":"cebpf4jnsgd1na2vs0mg"},{"bike_id":"df762654-fba6-47e6-b012-d932a5205d9e","system_id":"levelo_inurba_marseille","lat":43.31714,"lon":5.43705,"is_reserved":false,"is_disabled":false,"rental_uris":{"android":"levelo://app?vid=df762654-fba6-47e6-b012-d932a5205d9e","ios":"levelo://app?vid=df762654-fba6-47e6-b012-d932a5205d9e"},"vehicle_type_id":"4","last_reported":1745853036,"current_range_meters":24000,"station_id":"ce4bhp92rcd13ifvqhcg","pricing_plan_id":"cebpf4jnsgd1na2vs0mg"},{"bike_id":"9eb85a53-c55c-460b-93df-91d80e7bfcef","system_id":"levelo_inurba_marseille","lat":43.32458,"lon":5.36585,"is_reserved":false,"is_disabled":false,"rental_uris":{"android":"levelo://app?vid=9eb85a53-c55c-460b-93df-91d80e7bfcef","ios":"levelo://app?vid=9eb85a53-c55c-460b-93df-91d80e7bfcef"},"vehicle_type_id":"4","last_reported":1745853036,"current_range_meters":24000,"station_id":"ce4bhs12rcd13ifvqhvg","pricing_plan_id":"cebpf4jnsgd1na2vs0mg"},{"bike_id":"edfab3e8-1267-44ff-a673-7032b1d822b5","system_id":"levelo_inurba_marseille","lat":43.2903,"lon":5.38651,"is_reserved":false,"is_disabled":false,"rental_uris":{"android":"levelo://app?vid=edfab3e8-1267-44ff-a673-7032b1d822b5","ios":"levelo://app?vid=edfab3e8-1267-44ff-a673-7032b1d822b5"},