{"last_updated":1702094930,"ttl":30,"version":"2.2","data":{"bikes":[{"bike_id":"b17ec574-edbd-47a5-bd7a-a51947fb7f67","system_id":"levelo_inurba_marseille","lat":43.312239,"lon":5.368562,"is_reserved":false,"is_disabled":false,"rental_uris":{"android":"levelo://app?vid=b17ec574-edbd-47a5-bd7a-a51947fb7f67","ios":"levelo://app?vid=b17ec574-edbd-47a5-bd7a-a51947fb7f67"},"vehicle_type_id":"4","last_reported":1702094930,"current_range_meters":26800,"station_id":"ce4bgl92rcd13ifvqbq0","pricing_plan_id":"free"},{"bike_id":"a8dd39d8-eeda-4dc0-9edd-6c377b05b48d","system_id":"levelo_inurba_marseille","lat":43.309076,"lon":5.368465,"is_reserved":false,"is_disabled":false,"rental_uris":{"android":"levelo://app?vid=a8dd39d8-eeda-4dc0-9edd-6c377b05b48d","ios":"levelo://app?vid=a8dd39d8-eeda-4dc0-9edd-6c377b05b48d"},"vehicle_type_id":"4","last_reported":1702094930,"current_range_meters":24800,"station_id":"ce4bgn92rcd13ifvqbvg","pricing_plan_id":"free"},{"bike_id":"443c66d2-f17b-4662-877a-37e30b1a2c76","system_id":"levelo_inurba_marseille","lat":43.314811,"lon":5.373104,"is_reserved":false,"is_disabled":false,"rental_uris":{"android":"levelo://app?vid=443c66d2-f17b-4662-877a-37e30b1a2c76","ios":"levelo://app?vid=443c66d2-f17b-4662-877a-37e30b1a2c76"},"vehicle_type_id":"4","last_reported":1702094930,"current_range_meters":22000,"station_id":"ce4bgt12rcd13ifvqcd0","pricing_plan_id":"free"},{"bike_id":"c047de04-c00d-4a9a-bdcd-647d543c2b5d","system_id":"levelo_inurba_marseille","lat":43.311131,"lon":5.377651,"is_reserved":false,"is_disabled":false,"rental_uris":{"android":"levelo://app?vid=c047de04-c00d-4a9a-bdcd-647d543c2b5d","ios":"levelo://app?vid=c047de04-c00d-4a9a-bdcd-647d543c2b5d"},"vehicle_type_id":"4","last_reported":1702094930,"current_range_meters":26000,"station_id":"ce4bgt92rcd13ifvqcg0","pricing_plan_id":"free"},{"bike_id":"0a19223a-1afb-450d-b92d-08ad76a32d2e","system_id":"levelo_inurba_marseille","lat":43.307945,"lon":5.376487,"is_reserved":false,"is_disabled":false,"rental_uris":{"android":"levelo://app?vid=0a19223a-1afb-450d-b92d-08ad76a32d2e","ios":"levelo://app?vid=0a19223a-1afb-450d-b92d-08ad76a32d2e"},"vehicle_type_id":"4","last_reported":1702094930,"current_range_meters":26400,"station_id":"ce4bgv92rcd13ifvqcq0","pricing_plan_id":"free"},{"bike_id":"e50a0d9c-af0a-4e60-b6b7-2f9fc9cf5c58","system_id":"levelo_inurba_marseille","lat":43.317075,"lon":5.377367,"is_reserved":false,"is_disabled":false,"rental_uris":{"android":"levelo://app?vid=e50a0d9c-af0a-4e60-b6b7-2f9fc9cf5c58","ios":"levelo://app?vid=e50a0d9c-af0a-4e60-b6b7-2f9fc9cf5c58"},"vehicle_type_id":"4","last_reported":1702094930,"current_range_meters":22800,"station_id":"ce4bgth2rcd13ifvqch0","pricing_plan_id":"free"},{"bike_id":"47b8f5a0-681e-43e5-98a8-cb3af2d4d393","system_id":"levelo_inurba_marseille","lat":43.3154,"lon":5.38028,"is_reserved":false,"is_disabled":false,"rental_uris":{"android":"levelo://app?vid=47b8f5a0-681e-43e5-98a8-cb3af2d4d393","ios":"levelo://app?vid=47b8f5a0-681e-43e5-98a8-cb3af2d4d393"},"vehicle_type_id":"4","last_reported":1702094930,"current_range_meters":4800,"station_id":"ce4bhsp2rcd13ifvqi50","pricing_plan_id":"free"},{"bike_id":"884158e6-8ed4-4fe3-9553-eb4fe8c63194","system_id":"levelo_inurba_marseille","lat":43.315317,"lon":5.380318,"is_reserved":false,"is_disabled":false,"rental_uris":{"android":"levelo://app?vid=884158e6-8ed4-4fe3-9553-eb4fe8c63194","ios":"levelo://app?vid=884158e6-8ed4-4fe3-9553-eb4fe8c63194"},"vehicle_type_id":"4","last_reported":1702094930,"current_range_meters":22000,"station_id":"ce4bhsp2rcd13ifvqi50","pricing_plan_id":"free"},{"bike_id":"93a235ed-e726-498d-aedf-015128817557","system_id":"levelo_inurba_marseille","lat":43.315288,"lon":5.380365,"is_reserved":false,"is_disabled":false,"rental_uris":{"android":"levelo://app?vid=93a235ed-e726-498d-aedf-015128817557","ios":"levelo://app?vid=93a235ed-e726-498d-aedf-015128817557"},"vehicle_type_id":"4","last_reported":1702094930,"current_range_meters":14000,"station_id":"ce4bhsp2rcd13ifvqi50","pricing_plan_id":"free"},{"bike_id":"b669c648-0751-4c3b-9970-8d1f2bac554f","system_id":"levelo_inurba_marseille","lat":43.323271,"lon":5.36738,"is_reserved":false,"is_disabled":false,"rental_uris":{"android":"levelo://app?vid=b669c648-0751-4c3b-9970-8d1f2bac554f","ios":"levelo://app?vid=b669c648-0751-4c3b-9970-8d1f2bac554f"},"vehicle_type_id":"4","last_reported":1702094930,"current_range_meters":0,"station_id":"","pricing_plan_id":"free"},{"bike_id":"ee0e638f-d618-41fa-ac21-fbf44fdd47b0","system_id":"levelo_inurba_marseille","lat":43.319935,"lon":5.381699,"is_reserved":false,"is_disabled":false,"rental_uris":{"android":"levelo://app?vid=ee0e638f-d618-41fa-ac21-fbf44fdd47b0","ios":"levelo://app?vid=ee0e638f-d618-41fa-ac21-fbf44fdd47b0"},"vehicle_type_id":"4","last_reported":1702094930,"current_range_meters":5600,"station_id":"ce4bhr12rcd13ifvqhpg","pricing_plan_id":"free"},{"bike_id":"12c5ed45-dd2b-4f3d-92a2-007b91a2b718","system_id":"levelo_inurba_marseille","lat":43.319935,"lon":5.381699,"is_reserved":false,"is_disabled":false,"rental_uris":{"android":"levelo://app?vid=12c5ed45-dd2b-4f3d-92a2-007b91a2b718","ios":"levelo://app?vid=12c5ed45-dd2b-4f3d-92a2-007b91a2b718"},"vehicle_type_id":"4","last_reported":1702094930,"current_range_meters":15200,"station_id":"ce4bhr12rcd13ifvqhpg","pricing_plan_id":"free"},{"bike_id":"fed045ef-142a-4577-9a30-c5884d0c38eb","system_id":"levelo_inurba_marseille","lat":43.305772,"lon":5.384091,"is_reserved":false,"is_disabled":false,"rental_uris":{"android":"levelo://app?vid=fed045ef-142a-4577-9a30-c5884d0c38eb","ios":"levelo://app?vid=fed045ef-142a-4577-9a30-c5884d0c38eb"},"vehicle_type_id":"4","last_reported":1702094930,"current_range_meters":28800,"station_id":"","pricing_plan_id":"free"},{"bike_id":"b896b486-a36d-40c3-99aa-2d0f70ea3225","system_id":"levelo_inurba_marseille","lat":43.311722,"lon":5.387247,"is_reserved":false,"is_disabled":false,"rental_uris":{"android":"levelo://app?vid=b896b486-a36d-40c3-99aa-2d0f70ea3225","ios":"levelo://app?vid=b896b486-a36d-40c3-99aa-2d0f70ea3225"},"vehicle_type_id":"4","last_reported":1702094930,"current_range_meters":27200,"station_id":"ce4bgv12rcd13ifvqcp0","pricing_plan_id":"free"},{"bike_id":"5295f103-b95a-48d7-8c23-149d2011d1f8","system_id":"levelo_inurba_marseille","lat":43.311722,"lon":5.387247,"is_reserved":false,"is_disabled":false,"rental_uris":{"android":"levelo://app?vid=5295f103-b95a-48d7-8c23-149d2011d1f8","ios":"levelo://app?vid=5295f103-b95a-48d7-8c23-149d2011d1f8"},"vehicle_type_id":"4","last_reported":1702094930,"current_range_meters":27200,"station_id":"ce4bgv12rcd13ifvqcp0","pricing_plan_id":"free"},{"bike_id":"62530057-5868-4165-b8d2-5109a890bbeb","system_id":"levelo_inurba_marseille","lat":43.297794,"lon":5.370888,"is_reserved":false,"is_disabled":false,"rental_uris":{"android":"levelo://app?vid=62530057-5868-4165-b8d2-5109a890bbeb","ios":"levelo://app?vid=62530057-5868-4165-b8d2-5109a890bbeb"},"vehicle_type_id":"4","last_reported":1702094930,"current_range_meters":19200,"station_id":"ce4bgop2rcd13ifvqc1g","pricing_plan_id":"free"},{"bike_id":"7b04c468-d67d-486d-aa31-b467eddee7c0","system_id":"levelo_inurba_marseille","lat":43.322872,"lon":5.382756,"is_reserved":false,"is_disabled":false,"rental_uris":{"android":"levelo://app?vid=7b04c468-d67d-486d-aa31-b467eddee7c0","ios":"levelo://app?vid=7b04c468-d67d-486d-aa31-b467eddee7c0"},"vehicle_type_id":"4","last_reported":1702094930,"current_range_meters":0,"station_id":"ce4bhr12rcd13ifvqhqg","pricing_plan_id":"free"},{"bike_id":"991448e4-6851-4d1a-aba1-4b6e7cd051db","system_id":"levelo_inurba_marseille","lat":43.322872,"lon":5.382756,"is_reserved":false,"is_disabled":false,"rental_uris":{"android":"levelo://app?vid=991448e4-6851-4d1a-aba1-4b6e7cd051db","ios":"levelo://app?vid=991448e4-6851-4d1a-aba1-4b6e7cd051db"},"vehicle_type_id":"4","last_reported":1702094930,"current_range_meters":20400,"station_id":"ce4bhr12rcd13ifvqhqg","pricing_plan_id":"free"},{"bike_id":"38f1223e-a214-4eb0-9b54-a70de861d11b","system_id":"levelo_inurba_marseille","lat":43.322896,"lon":5.382657,"is_reserved":false,"is_disabled":false,"rental_uris":{"android":"levelo://app?vid=38f1223e-a214-4eb0-9b54-a70de861d11b","ios":"levelo://app?vid=38f1223e-a214-4eb0-9b54-a70de861d11b"},"vehicle_type_id":"4","last_reported":1702094930,"current_range_meters":24400,"station_id":"ce4bhr12rcd13ifvqhqg","pricing_plan_id":"free"},{"bike_id":"a80312d7-2035-41c9-b519-92db02a72c60","system_id":"levelo_inurba_marseille","lat":43.32286,"lon":5.38278,"is_reserved":false,"is_disabled":false,"rental_uris":{"android":"levelo://app?vid=a80312d7-2035-41c9-b519-92db02a72c60","ios":"levelo://app?vid=a80312d7-2035-41c9-b519-92db02a72c60"},"vehicle_type_id":"4","last_reported":1702094930,"current_range_meters":25600,"station_id":"ce4bhr12rcd13ifvqhqg","pricing_plan_id":"free"},{"bike_id":"6ac675f1-e0be-498c-ad2f-b742a949d4b0","system_id":"levelo_inurba_marseille","lat":43.298218,"lon":5.374416,"is_reserved":false,"is_disabled":false,"rental_uris":{"android":"levelo://app?vid=6ac675f1-e0be-498c-ad2f-b742a949d4b0","ios":"levelo://app?vid=6ac675f1-e0be-498c-ad2f-b742a949d4b0"},"vehicle_type_id":"4","last_reported":1702094930,"current_range_meters":3600,"station_id":"","pricing_plan_id":"free"},{"bike_id":"92dc65d6-6823-4de3-93d4-056f738f090c","system_id":"levelo_inurba_marseille","lat":43.316538,"lon":5.38954,"is_reserved":false,"is_disabled":false,"rental_uris":{"android":"levelo://app?vid=92dc65d6-6823-4de3-93d4-056f738f090c","ios":"levelo://app?vid=92dc65d6-6823-4de3-93d4-056f738f090c"},"vehicle_type_id":"4","last_reported":1702094930,"current_range_meters":0,"station_id":"","pricing_plan_id":"free"},{"bike_id":"876532af-199e-486a-937f-82e75b08f425","system_id":"levelo_inurba_marseille","lat":43.29573,"lon":5.367355,"is_reserved":false,"is_disabled":false,"rental_uris":{"android":"levelo://app?vid=876532af-199e-486a-937f-82e75b08f425","ios":"levelo://app?vid=876532af-199e-486a-937f-82e75b08f425"},"vehicle_type_id":"4","last_reported":1702094930,"current_range_meters":29200,"station_id":"ce4bgph2rcd13ifvqc2g","pricing_plan_id":"free"},{"bike_id":"4b0096f5-0bd6-4b72-aa2b-31cfe101175a","system_id":"levelo_inurba_marseille","lat":43.296935,"lon":5.376544,"is_reserved":false,"is_disabled":false,"rental_uris":{"android":"levelo://app?vid=4b0096f5-0bd6-4b72-aa2b-31cfe101175a","ios":"levelo://app?vid=4b0096f5-0bd6-4b72-aa2b-31cfe101175a"},"vehicle_type_id":"4","last_reported":1702094930,"current_range_meters":19600,"station_id":"ce4bgkh2rcd13ifvqbl0","pricing_plan_id":"free"},{"bike_id":"2ba3d187-866c-4a09-817b-c1c02eaa1f0f","system_id":"levelo_inurba_marseille","lat":43.317557,"lon":5.390173,"is_reserved":false,"is_disabled":false,"rental_uris":{"android":"levelo://app?vid=2ba3d187-866c-4a09-817b-c1c02eaa1f0f","ios":"levelo://app?vid=2ba3d187-866c-4a09-817b-c1c02eaa1f0f"},"vehicle_type_id":"4","last_reported":1702094930,"current_range_meters":29200,"station_id":"ce4bhqp2rcd13ifvqhng","pricing_plan_id":"free"},{"bike_id":"228baed1-e399-40e0-a2e5-7b8608918327","system_id":"levelo_inurba_marseille","lat":43.317557,"lon":5.390173,"is_reserved":false,"is_disabled":false,"rental_uris":{"android":"levelo://app?vid=228baed1-e399-40e0-a2e5-7b8608918327","ios":"levelo://app?vid=228baed1-e399-40e0-a2e5-7b8608918327"},"vehicle_type_id":"4","last_reported":1702094930,"current_range_meters":25600,"station_id":"ce4bhqp2rcd13ifvqhng","pricing_plan_id":"free"},{"bike_id":"e4380772-0cc4-42aa-8069-884f657a0a21","system_id":"levelo_inurba_marseille","lat":43.323621,"lon":5.388867,"is_reserved":false,"is_disabled":false,"rental_uris":{"android":"levelo://app?vid=e4380772-0cc4-42aa-8069-884f657a0a21","ios":"levelo://app?vid=e4380772-0cc4-42aa-8069-884f657a0a21"},"vehicle_type_id":"4","last_reported":1702094930,"current_range_meters":1600,"station_id":"ce4bhqp2rcd13ifvqhog","pricing_plan_id":"free"},{"bike_id":"f7f2e554-18b2-48d2-84a3-9aa5b5bce942","system_id":"levelo_inurba_marseille","lat":43.32367,"lon":5.388836,"is_reserved":false,"is_disabled":false,"rental_uris":{"android":"levelo://app?vid=f7f2e554-18b2-48d2-84a3-9aa5b5bce942","ios":"levelo://app?vid=f7f2e554-18b2-48d2-84a3-9aa5b5bce942"},"vehicle_type_id":"4","last_reported":1702094930,"current_range_meters":6800,"station_id":"ce4bhqp2rcd13ifvqhog","pricing_plan_id":"free"},{"bike_id":"5a1f6bc8-e270-4ee1-b3a7-8b734b52a9ea","system_id":"levelo_inurba_marseille","lat":43.32367,"lon":5.388836,"is_reserved":false,"is_disabled":false,"rental_uris":{"android":"levelo://app?vid=5a1f6bc8-e270-4ee1-b3a7-8b734b52a9ea","ios":"levelo://app?vid=5a1f6bc8-e270-4ee1-b3a7-8b734b52a9ea"},"vehicle_type_id":"4","last_reported":1702094930,"current_range_meters":16000,"station_id":"ce4bhqp2rcd13ifvqhog","pricing_plan_id":"free"},{"bike_id":"ffe8e861-9583-46be-9da3-462d5c1037ee","system_id":"levelo_inurba_marseille","lat":43.293,"lon":5.3746,"is_reserved":false,"is_disabled":false,"rental_uris":{"android":"levelo://app?vid=ffe8e861-9583-46be-9da3-462d5c1037ee","ios":"levelo://app?vid=ffe8e861-9583-46be-9da3-462d5c1037ee"},"vehicle_type_id":"4","last_reported":1702094930,"current_range_meters":13200,"station_id":"ce4bgi12rcd13ifvqb70","pricing_plan_id":"free"},{"bike_id":"d0493a73-5bfb-46e8-b0e7-fb3e30202064","system_id":"levelo_inurba_marseille","lat":43.293009,"lon":5.374584,"is_reserved":false,"is_disabled":false,"rental_uris":{"android":"levelo://app?vid=d0493a73-5bfb-46e8-b0e7-fb3e30202064","ios":"levelo://app?vid=d0493a73-5bfb-46e8-b0e7-fb3e30202064"},"vehicle_type_id":"4","last_reported":1702094930,"current_range_meters":27200,"station_id":"ce4bgi12rcd13ifvqb70","pricing_plan_id":"free"},{"bike_id":"8e8723aa-2a14-4bbc-b6a5-6e66f870c03d","system_id":"levelo_inurba_marseille","lat":43.292311,"lon":5.360731,"is_reserved":false,"is_disabled":false,"rental_uris":{"android":"levelo://app?vid=8e8723aa-2a14-4bbc-b6a5-6e66f870c03d","ios":"levelo://app?vid=8e8723aa-2a14-4bbc-b6a5-6e66f870c03d"},"vehicle_type_id":"4","last_reported":1702094930,"current_range_meters":28800,"station_id":"ce4bhbh2rcd13ifvqeqg","pricing_plan_id":"free"},{"bike_id":"1d9d88da-6d05-4a9a-a1a6-232e5f2fb4e5","system_id":"levelo_inurba_marseille","lat":43.309047,"lon":5.396551,"is_reserved":false,"is_disabled":false,"rental_uris":{"android":"levelo://app?vid=1d9d88da-6d05-4a9a-a1a6-232e5f2fb4e5","ios":"levelo://app?vid=1d9d88da-6d05-4a9a-a1a6-232e5f2fb4e5"},"vehicle_type_id":"4","last_reported":1702094930,"current_range_meters":27200,"station_id":"ce4bh012rcd13ifvqcv0","pricing_plan_id":"free"},{"bike_id":"758896fa-1cea-4b54-b08b-faf596afcec6","system_id":"levelo_inurba_marseille","lat":43.309038,"lon":5.396546,"is_reserved":false,"is_disabled":false,"rental_uris":{"android":"levelo://app?vid=758896fa-1cea-4b54-b08b-faf596afcec6","ios":"levelo://app?vid=758896fa-1cea-4b54-b08b-faf596afcec6"},"vehicle_type_id":"4","last_reported":1702094930,"current_range_meters":29600,"station_id":"ce4bh012rcd13ifvqcv0","pricing_plan_id":"free"},{"bike_id":"b49d7ac9-d516-4f46-94ab-e974e6fe434a","system_id":"levelo_inurba_marseille","lat":43.31328,"lon":5.39694,"is_reserved":false,"is_disabled":false,"rental_uris":{"android":"levelo://app?vid=b49d7ac9-d516-4f46-94ab-e974e6fe434a","ios":"levelo://app?vid=b49d7ac9-d516-4f46-94ab-e974e6fe434a"},"vehicle_type_id":"4","last_reported":1702094930,"current_range_meters":31200,"station_id":"ce4bgvp2rcd13ifvqcu0","pricing_plan_id":"free"},{"bike_id":"54b9269a-a4fc-4c67-8b7d-f7faa397f746","system_id":"levelo_inurba_marseille","lat":43.313291,"lon":5.396838,"is_reserved":false,"is_disabled":false,"rental_uris":{"android":"levelo://app?vid=54b9269a-a4fc-4c67-8b7d-f7faa397f746","ios":"levelo://app?vid=54b9269a-a4fc-4c67-8b7d-f7faa397f746"},"vehicle_type_id":"4","last_reported":1702094930,"current_range_meters":31200,"station_id":"ce4bgvp2rcd13ifvqcu0","pricing_plan_id":"free"},{"bike_id":"25370a0e-e806-4f5e-a418-6aeaa4287291","system_id":"levelo_inurba_marseille","lat":43.29187,"lon":5.35797,"is_reserved":false,"is_disabled":false,"rental_uris":{"android":"levelo://app?vid=25370a0e-e806-4f5e-a418-6aeaa4287291","ios":"levelo://app?vid=25370a0e-e806-4f5e-a418-6aeaa4287291"},"vehicle_type_id":"4","last_reported":1702094930,"current_range_meters":18000,"station_id":"ce4bhb12rcd13ifvqel0","pricing_plan_id":"free"},{"bike_id":"72524f48-7637-48fb-b88b-e50ebf419b1a","system_id":"levelo_inurba_marseille","lat":43.313291,"lon":5.396838,"is_reserved":false,"is_disabled":false,"rental_uris":{"android":"levelo://app?vid=72524f48-7637-48fb-b88b-e50ebf419b1a","ios":"levelo://app?vid=72524f48-7637-48fb-b88b-e50ebf419b1a"},"vehicle_type_id":"4","last_reported":1702094930,"current_range_meters":31200,"station_id":"ce4bgvp2rcd13ifvqcu0","pricing_plan_id":"free"},{"bike_id":"4e243823-71ff-4201-a69e-10766f056885","system_id":"levelo_inurba_marseille","lat":43.313291,"lon":5.396838,"is_reserved":false,"is_disabled":false,"rental_uris":{"android":"levelo://app?vid=4e243823-71ff-4201-a69e-10766f056885","ios":"levelo://app?vid=4e243823-71ff-4201-a69e-10766f056885"},"vehicle_type_id":"4","last_reported":1702094930,"current_range_meters":15600,"station_id":"ce4bgvp2rcd13ifvqcu0","pricing_plan_id":"free"},{"bike_id":"1fe0c6f2-3c17-46d9-b77f-a6ad97e61eaa","system_id":"levelo_inurba_marseille","lat":43.313291,"lon":5.396838,"is_reserved":false,"is_disabled":false,"rental_uris":{"android":"levelo://app?vid=1fe0c6f2-3c17-46d9-b77f-a6ad97e61eaa","ios":"levelo://app?vid=1fe0c6f2-3c17-46d9-b77f-a6ad97e61eaa"},"vehicle_type_id":"4","last_reported":1702094930,"current_range_meters":31200,"station_id":"ce4bgvp2rcd13ifvqcu0","pricing_plan_id":"free"},{"bike_id":"d3b5dcb4-4695-4906-a26a-51a8ec00eb86","system_id":"levelo_inurba_marseille","lat":43.309038,"lon":5.396546,"is_reserved":false,"is_disabled":false,"rental_uris":{"android":"levelo://app?vid=d3b5dcb4-4695-4906-a26a-51a8ec00eb86","ios":"levelo://app?vid=d3b5dcb4-4695-4906-a26a-51a8ec00eb86"},"vehicle_type_id":"4","last_reported":1702094930,"current_range_meters":27200,"station_id":"ce4bh012rcd13ifvqcv0","pricing_plan_id":"free"},{"bike_id":"a84eaf3f-53ab-481d-b9e5-a6c1b000b857","system_id":"levelo_inurba_marseille","lat":43.289468,"lon":5.363719,"is_reserved":false,"is_disabled":false,"rental_uris":{"android":"levelo://app?vid=a84eaf3f-53ab-481d-b9e5-a6c1b000b857","ios":"levelo://app?vid=a84eaf3f-53ab-481d-b9e5-a6c1b000b857"},"vehicle_type_id":"4","last_reported":1702094930,"current_range_meters":31200,"station_id":"ce4bhc92rcd13ifvqetg","pricing_plan_id":"free"},{"bike_id":"a02a1b20-1fb1-4951-988a-77389649024d","system_id":"levelo_inurba_marseille","lat":43.289259,"lon":5.366364,"is_reserved":false,"is_disabled":false,"rental_uris":{"android":"levelo://app?vid=a02a1b20-1fb1-4951-988a-77389649024d","ios":"levelo://app?vid=a02a1b20-1fb1-4951-988a-77389649024d"},"vehicle_type_id":"4","last_reported":1702094930,"current_range_meters":13600,"station_id":"","pricing_plan_id":"free"},{"bike_id":"6beb7734-c98f-494d-9570-a515941d54ae","system_id":"levelo_inurba_marseille","lat":43.304274,"lon":5.397513,"is_reserved":false,"is_disabled":false,"rental_uris":{"android":"levelo://app?vid=6beb7734-c98f-494d-9570-a515941d54ae","ios":"levelo://app?vid=6beb7734-c98f-494d-9570-a515941d54ae"},"vehicle_type_id":"4","last_reported":1702094930,"current_range_meters":30000,"station_id":"ce4bh092rcd13ifvqd20","pricing_plan_id":"free"},{"bike_id":"ec33feba-3ef2-47e1-8a42-1dabd82c686f","system_id":"levelo_inurba_marseille","lat":43.290104,"lon":5.356111,"is_reserved":false,"is_disabled":false,"rental_uris":{"android":"levelo://app?vid=ec33feba-3ef2-47e1-8a42-1dabd82c686f","ios":"levelo://app?vid=ec33feba-3ef2-47e1-8a42-1dabd82c686f"},"vehicle_type_id":"4","last_reported":1702094930,"current_range_meters":28800,"station_id":"ce4bhb92rcd13ifvqen0","pricing_plan_id":"free"},{"bike_id":"8f6f10a7-e824-409e-80f7-f7456a0b63dd","system_id":"levelo_inurba_marseille","lat":43.330435,"lon":5.38919,"is_reserved":false,"is_disabled":false,"rental_uris":{"android":"levelo://app?vid=8f6f10a7-e824-409e-80f7-f7456a0b63dd","ios":"levelo://app?vid=8f6f10a7-e824-409e-80f7-f7456a0b63dd"},"vehicle_type_id":"4","last_reported":1702094930,"current_range_meters":16000,"station_id":"ce4bhr92rcd13ifvqhrg","pricing_plan_id":"free"},{"bike_id":"f4c12303-054a-4794-9ee7-984b76bf6398","system_id":"levelo_inurba_marseille","lat":43.290104,"lon":5.356111,"is_reserved":false,"is_disabled":false,"rental_uris":{"android":"levelo://app?vid=f4c12303-054a-4794-9ee7-984b76bf6398","ios":"levelo://app?vid=f4c12303-054a-4794-9ee7-984b76bf6398"},"vehicle_type_id":"4","last_reported":1702094930,"current_range_meters":22000,"station_id":"ce4bhb92rcd13ifvqen0","pricing_plan_id":"free"},{"bike_id":"ce18ae7e-3845-4a46-8c8c-674d4d2c7da0","system_id":"levelo_inurba_marseille","lat":43.33044,"lon":5.38922,"is_reserved":false,"is_disabled":false,"rental_uris":{"android":"levelo://app?vid=ce18ae7e-3845-4a46-8c8c-674d4d2c7da0","ios":"levelo://app?vid=ce18ae7e-3845-4a46-8c8c-674d4d2c7da0"},"vehicle_type_id":"4","last_reported":1702094930,"current_range_meters":16400,"station_id":"ce4bhr92rcd13ifvqhrg","pricing_plan_id":"free"},{"bike_id":"e6aa64d7-b2f8-4db9-98ca-c72ba001f222","system_id":"levelo_inurba_marseille","lat":43.290103,"lon":5.356114,"is_reserved":false,"is_disabled":false,"rental_uris":{"android":"levelo://app?vid=e6aa64d7-b2f8-4db9-98ca-c72ba001f222","ios":"levelo://app?vid=e6aa64d7-b2f8-4db9-98ca-c72ba001f222"},"vehicle_type_id":"4","last_reported":1702094930,"current_range_meters":26800,"station_id":"ce4bhb92rcd13ifvqen0","pricing_plan_id":"free"},{"bike_id":"ab7a69eb-e112-4b2e-9d6b-76fc86ce66d7","system_id":"levelo_inurba_marseille","lat":43.290023,"lon":5.356119,"is_reserved":false,"is_disabled":false,"rental_uris":{"android":"levelo://app?vid=ab7a69eb-e112-4b2e-9d6b-76fc86ce66d7","ios":"levelo://app?vid=ab7a69eb-e112-4b2e-9d6b-76fc86ce66d7"},"vehicle_type_id":"4","last_reported":1702094930,"current_range_meters":16800,"station_id":"ce4bhb92rcd13ifvqen0","pricing_plan_id":"free"},{"bike_id":"5c851a12-5741-43b3-816f-010057363b5e","system_id":"levelo_inurba_marseille","lat":43.3305,"lon":5.3892,"is_reserved":false,"is_disabled":false,"rental_uris":{"android":"levelo://app?vid=5c851a12-5741-43b3-816f-010057363b5e","ios":"levelo://app?vid=5c851a12-5741-43b3-816f-010057363b5e"},"vehicle_type_id":"4","last_reported":1702094930,"current_range_meters":10000,"station_id":"ce4bhr92rcd13ifvqhrg","pricing_plan_id":"free"},{"bike_id":"adb3c8cf-e0a6-44ec-ab94-fb0b328db9a8","system_id":"levelo_inurba_marseille","lat":43.28856,"lon":5.358371,"is_reserved":false,"is_disabled":false,"rental_uris":{"android":"levelo://app?vid=adb3c8cf-e0a6-44ec-ab94-fb0b328db9a8","ios":"levelo://app?vid=adb3c8cf-e0a6-44ec-ab94-fb0b328db9a8"},"vehicle_type_id":"4","last_reported":1702094930,"current_range_meters":31200,"station_id":"ce4bhb12rcd13ifvqem0","pricing_plan_id":"free"},{"bike_id":"631bcfce-8730-4001-9ccf-b57cdc31e15a","system_id":"levelo_inurba_marseille","lat":43.309309,"lon":5.401346,"is_reserved":false,"is_disabled":false,"rental_uris":{"android":"levelo://app?vid=631bcfce-8730-4001-9ccf-b57cdc31e15a","ios":"levelo://app?vid=631bcfce-8730-4001-9ccf-b57cdc31e15a"},"vehicle_type_id":"4","last_reported":1702094930,"current_range_meters":28800,"station_id":"ce4bgvp2rcd13ifvqct0","pricing_plan_id":"free"},{"bike_id":"cff7ab71-ec22-4853-87b0-421568c97b13","system_id":"levelo_inurba_marseille","lat":43.309371,"lon":5.401449,"is_reserved":false,"is_disabled":false,"rental_uris":{"android":"levelo://app?vid=cff7ab71-ec22-4853-87b0-421568c97b13","ios":"levelo://app?vid=cff7ab71-ec22-4853-87b0-421568c97b13"},"vehicle_type_id":"4","last_reported":1702094930,"current_range_meters":31200,"station_id":"ce4bgvp2rcd13ifvqct0","pricing_plan_id":"free"},{"bike_id":"ef1ec0d6-3c07-4a63-b329-516ae0d42eb7","system_id":"levelo_inurba_marseille","lat":43.309371,"lon":5.401449,"is_reserved":false,"is_disabled":false,"rental_uris":{"android":"levelo://app?vid=ef1ec0d6-3c07-4a63-b329-516ae0d42eb7","ios":"levelo://app?vid=ef1ec0d6-3c07-4a63-b329-516ae0d42eb7"},"vehicle_type_id":"4","last_reported":1702094930,"current_range_meters":17200,"station_id":"ce4bgvp2rcd13ifvqct0","pricing_plan_id":"free"},{"bike_id":"680b2a2f-c376-46c8-93ac-a40467fd4a9a","system_id":"levelo_inurba_marseille","lat":43.30934,"lon":5.401438,"is_reserved":false,"is_disabled":false,"rental_uris":{"android":"levelo://app?vid=680b2a2f-c376-46c8-93ac-a40467fd4a9a","ios":"levelo://app?vid=680b2a2f-c376-46c8-93ac-a40467fd4a9a"},"vehicle_type_id":"4","last_reported":1702094930,"current_range_meters":30400,"station_id":"ce4bgvp2rcd13ifvqct0","pricing_plan_id":"free"},{"bike_id":"bb31c462-72ac-457c-9803-835e538ce5aa","system_id":"levelo_inurba_marseille","lat":43.30926,"lon":5.40143,"is_reserved":false,"is_disabled":false,"rental_uris":{"android":"levelo://app?vid=bb31c462-72ac-457c-9803-835e538ce5aa","ios":"levelo://app?vid=bb31c462-72ac-457c-9803-835e538ce5aa"},"vehicle_type_id":"4","last_reported":1702094930,"current_range_meters":0,"station_id":"ce4bgvp2rcd13ifvqct0","pricing_plan_id":"free"},{"bike_id":"67846d0a-d8d2-4467-b05c-0ee63e1ac0ce","system_id":"levelo_inurba_marseille","lat":43.309259,"lon":5.401447,"is_reserved":false,"is_disabled":false,"rental_uris":{"android":"levelo://app?vid=67846d0a-d8d2-4467-b05c-0ee63e1ac0ce","ios":"levelo://app?vid=67846d0a-d8d2-4467-b05c-0ee63e1ac0ce"},"vehicle_type_id":"4","last_reported":1702094930,"current_range_meters":28400,"station_id":"ce4bgvp2rcd13ifvqct0","pricing_plan_id":"free"},{"bike_id":"7d81a33a-cde0-4c81-ad47-39bacf73c094","system_id":"levelo_inurba_marseille","lat":43.309371,"lon":5.401449,"is_reserved":false,"is_disabled":false,"rental_uris":{"android":"levelo://app?vid=7d81a33a-cde0-4c81-ad47-39bacf73c094","ios":"levelo://app?vid=7d81a33a-cde0-4c81-ad47-39bacf73c094"},"vehicle_type_id":"4","last_reported":1702094930,"current_range_meters":21600,"station_id":"ce4bgvp2rcd13ifvqct0","pricing_plan_id":"free"},{"bike_id":"c366fb86-9c3e-4dd8-bb11-a35f22b04ec5","system_id":"levelo_inurba_marseille","lat":43.306412,"lon":5.401035,"is_reserved":false,"is_disabled":false,"rental_uris":{"android":"levelo://app?vid=c366fb86-9c3e-4dd8-bb11-a35f22b04ec5","ios":"levelo://app?vid=c366fb86-9c3e-4dd8-bb11-a35f22b04ec5"},"vehicle_type_id":"4","last_reported":1702094930,"current_range_meters":30400,"station_id":"ce4bh112rcd13ifvqda0","pricing_plan_id":"free"},{"bike_id":"557df06a-1e45-4f81-8773-0136e6b922c5","system_id":"levelo_inurba_marseille","lat":43.301117,"lon":5.398795,"is_reserved":false,"is_disabled":false,"rental_uris":{"android":"levelo://app?vid=557df06a-1e45-4f81-8773-0136e6b922c5","ios":"levelo://app?vid=557df06a-1e45-4f81-8773-0136e6b922c5"},"vehicle_type_id":"4","last_reported":1702094930,"current_range_meters":18000,"station_id":"ce4bh0h2rcd13ifvqd40","pricing_plan_id":"free"},{"bike_id":"066175bb-9259-4227-8cd4-78cd43f21020","system_id":"levelo_inurba_marseille","lat":43.28727,"lon":5.36078,"is_reserved":false,"is_disabled":false,"rental_uris":{"android":"levelo://app?vid=066175bb-9259-4227-8cd4-78cd43f21020","ios":"levelo://app?vid=066175bb-9259-4227-8cd4-78cd43f21020"},"vehicle_type_id":"4","last_reported":1702094930,"current_range_meters":30000,"station_id":"cki0cbj6b192h4jlfktg","pricing_plan_id":"free"},{"bike_id":"00eb7162-a713-4469-9070-da7182e14e95","system_id":"levelo_inurba_marseille","lat":43.28727,"lon":5.36078,"is_reserved":false,"is_disabled":false,"rental_uris":{"android":"levelo://app?vid=00eb7162-a713-4469-9070-da7182e14e95","ios":"levelo://app?vid=00eb7162-a713-4469-9070-da7182e14e95"},"vehicle_type_id":"4","last_reported":1702094930,"current_range_meters":30000,"station_id":"cki0cbj6b192h4jlfktg","pricing_plan_id":"free"},{"bike_id":"4ed05978-a9d3-406d-ad2e-c57b0ff4f0cf","system_id":"levelo_inurba_marseille","lat":43.28727,"lon":5.36078,"is_reserved":false,"is_disabled":false,"rental_uris":{"android":"levelo://app?vid=4ed05978-a9d3-406d-ad2e-c57b0ff4f0cf","ios":"levelo://app?vid=4ed05978-a9d3-406d-ad2e-c57b0ff4f0cf"},"vehicle_type_id":"4","last_reported":1702094930,"current_range_meters":31600,"station_id":"cki0cbj6b192h4jlfktg","pricing_plan_id":"free"},{"bike_id":"012845d2-4912-4d32-8f0a-626625e4641c","system_id":"levelo_inurba_marseille","lat":43.28727,"lon":5.36078,"is_reserved":false,"is_disabled":false,"rental_uris":{"android":"levelo://app?vid=012845d2-4912-4d32-8f0a-626625e4641c","ios":"levelo://app?vid=012845d2-4912-4d32-8f0a-626625e4641c"},"vehicle_type_id":"4","last_reported":1702094930,"current_range_meters":29200,"station_id":"cki0cbj6b192h4jlfktg","pricing_plan_id":"free"},{"bike_id":"4ff532f4-de2d-4b32-814d-4f29386ae434","system_id":"levelo_inurba_marseille","lat":43.28727,"lon":5.36078,"is_reserved":false,"is_disabled":false,"rental_uris":{"android":"levelo://app?vid=4ff532f4-de2d-4b32-814d-4f29386ae434","ios":"levelo://app?vid=4ff532f4-de2d-4b32-814d-4f29386ae434"},"vehicle_type_id":"4","last_reported":1702094930,"current_range_meters":24000,"station_id":"cki0cbj6b192h4jlfktg","pricing_plan_id":"free"},{"bike_id":"ad34b626-8f03-43e6-afa4-7e7803deb8a5","system_id":"levelo_inurba_marseille","lat":43.298681,"lon":5.397225,"is_reserved":false,"is_disabled":false,"rental_uris":{"android":"levelo://app?vid=ad34b626-8f03-43e6-afa4-7e7803deb8a5","ios":"levelo://app?vid=ad34b626-8f03-43e6-afa4-7e7803deb8a5"},"vehicle_type_id":"4","last_reported":1702094930,"current_range_meters":26800,"station_id":"ce4bh0h2rcd13ifvqd50","pricing_plan_id":"free"},{"bike_id":"6429bf6f-5e52-4c73-9de9-0ecac0612fa5","system_id":"levelo_inurba_marseille","lat":43.298681,"lon":5.397225,"is_reserved":false,"is_disabled":false,"rental_uris":{"android":"levelo://app?vid=6429bf6f-5e52-4c73-9de9-0ecac0612fa5","ios":"levelo://app?vid=6429bf6f-5e52-4c73-9de9-0ecac0612fa5"},"vehicle_type_id":"4","last_reported":1702094930,"current_range_meters":30400,"station_id":"ce4bh0h2rcd13ifvqd50","pricing_plan_id":"free"},{"bike_id":"f642c75d-0d67-4a70-a2c9-e2e4540aa64e","system_id":"levelo_inurba_marseille","lat":43.28701,"lon":5.37381,"is_reserved":false,"is_disabled":false,"rental_uris":{"android":"levelo://app?vid=f642c75d-0d67-4a70-a2c9-e2e4540aa64e","ios":"levelo://app?vid=f642c75d-0d67-4a70-a2c9-e2e4540aa64e"},"vehicle_type_id":"4","last_reported":1702094930,"current_range_meters":1200,"station_id":"ce4bh3p2rcd13ifvqdq0","pricing_plan_id":"free"},{"bike_id":"83bd5b8e-f832-4dc5-a1ae-fa6c118dd242","system_id":"levelo_inurba_marseille","lat":43.286961,"lon":5.373785,"is_reserved":false,"is_disabled":false,"rental_uris":{"android":"levelo://app?vid=83bd5b8e-f832-4dc5-a1ae-fa6c118dd242","ios":"levelo://app?vid=83bd5b8e-f832-4dc5-a1ae-fa6c118dd242"},"vehicle_type_id":"4","last_reported":1702094930,"current_range_meters":26400,"station_id":"ce4bh3p2rcd13ifvqdq0","pricing_plan_id":"free"},{"bike_id":"53499871-debb-4098-8968-281edcaee93b","system_id":"levelo_inurba_marseille","lat":43.29873,"lon":5.39739,"is_reserved":false,"is_disabled":false,"rental_uris":{"android":"levelo://app?vid=53499871-debb-4098-8968-281edcaee93b","ios":"levelo://app?vid=53499871-debb-4098-8968-281edcaee93b"},"vehicle_type_id":"4","last_reported":1702094930,"current_range_meters":14400,"station_id":"ce4bh0h2rcd13ifvqd50","pricing_plan_id":"free"},{"bike_id":"d1b4c525-f784-4b50-90b4-9e2d020176a3","system_id":"levelo_inurba_marseille","lat":43.286961,"lon":5.373785,"is_reserved":false,"is_disabled":false,"rental_uris":{"android":"levelo://app?vid=d1b4c525-f784-4b50-90b4-9e2d020176a3","ios":"levelo://app?vid=d1b4c525-f784-4b50-90b4-9e2d020176a3"},"vehicle_type_id":"4","last_reported":1702094930,"current_range_meters":13600,"station_id":"ce4bh3p2rcd13ifvqdq0","pricing_plan_id":"free"},{"bike_id":"bf4ac724-46c4-4178-bca8-ef89c1607c2a","system_id":"levelo_inurba_marseille","lat":43.286961,"lon":5.373785,"is_reserved":false,"is_disabled":false,"rental_uris":{"android":"levelo://app?vid=bf4ac724-46c4-4178-bca8-ef89c1607c2a","ios":"levelo://app?vid=bf4ac724-46c4-4178-bca8-ef89c1607c2a"},"vehicle_type_id":"4","last_reported":1702094930,"current_range_meters":13200,"station_id":"ce4bh3p2rcd13ifvqdq0","pricing_plan_id":"free"},{"bike_id":"11827d9c-dab2-4e6e-a8a5-19328753934f","system_id":"levelo_inurba_marseille","lat":43.286039,"lon":5.370681,"is_reserved":false,"is_disabled":false,"rental_uris":{"android":"levelo://app?vid=11827d9c-dab2-4e6e-a8a5-19328753934f","ios":"levelo://app?vid=11827d9c-dab2-4e6e-a8a5-19328753934f"},"vehicle_type_id":"4","last_reported":1702094930,"current_range_meters":19200,"station_id":"ce4bht12rcd13ifvqi60","pricing_plan_id":"free"},{"bike_id":"9b3c19df-c18b-40ee-95d1-43c079a5630a","system_id":"levelo_inurba_marseille","lat":43.287185,"lon":5.379373,"is_reserved":false,"is_disabled":false,"rental_uris":{"android":"levelo://app?vid=9b3c19df-c18b-40ee-95d1-43c079a5630a","ios":"levelo://app?vid=9b3c19df-c18b-40ee-95d1-43c079a5630a"},"vehicle_type_id":"4","last_reported":1702094930,"current_range_meters":28400,"station_id":"ce4bh9p2rcd13ifvqec0","pricing_plan_id":"free"},{"bike_id":"f546fcea-d5fb-44d5-8608-6351792ffea4","system_id":"levelo_inurba_marseille","lat":43.316828,"lon":5.404723,"is_reserved":false,"is_disabled":false,"rental_uris":{"android":"levelo://app?vid=f546fcea-d5fb-44d5-8608-6351792ffea4","ios":"levelo://app?vid=f546fcea-d5fb-44d5-8608-6351792ffea4"},"vehicle_type_id":"4","last_reported":1702094930,"current_range_meters":24400,"station_id":"ce4bh012rcd13ifvqd00","pricing_plan_id":"free"},{"bike_id":"c548a2e2-8b80-4008-85ca-96d64fd782df","system_id":"levelo_inurba_marseille","lat":43.284538,"lon":5.358657,"is_reserved":false,"is_disabled":false,"rental_uris":{"android":"levelo://app?vid=c548a2e2-8b80-4008-85ca-96d64fd782df","ios":"levelo://app?vid=c548a2e2-8b80-4008-85ca-96d64fd782df"},"vehicle_type_id":"4","last_reported":1702094930,"current_range_meters":29600,"station_id":"ce4bhah2rcd13ifvqei0","pricing_plan_id":"free"},{"bike_id":"139b5c27-953e-4eba-b438-40258d263d4d","system_id":"levelo_inurba_marseille","lat":43.284538,"lon":5.358657,"is_reserved":false,"is_disabled":false,"rental_uris":{"android":"levelo://app?vid=139b5c27-953e-4eba-b438-40258d263d4d","ios":"levelo://app?vid=139b5c27-953e-4eba-b438-40258d263d4d"},"vehicle_type_id":"4","last_reported":1702094930,"current_range_meters":31600,"station_id":"ce4bhah2rcd13ifvqei0","pricing_plan_id":"free"},{"bike_id":"6edc997b-2682-4b0d-9cd1-58366ea77dd4","system_id":"levelo_inurba_marseille","lat":43.284538,"lon":5.358657,"is_reserved":false,"is_disabled":false,"rental_uris":{"android":"levelo://app?vid=6edc997b-2682-4b0d-9cd1-58366ea77dd4","ios":"levelo://app?vid=6edc997b-2682-4b0d-9cd1-58366ea77dd4"},"vehicle_type_id":"4","last_reported":1702094930,"current_range_meters":26000,"station_id":"ce4bhah2rcd13ifvqei0","pricing_plan_id":"free"},{"bike_id":"591cb939-6b0a-4b19-83ff-445e61f6c1d6","system_id":"levelo_inurba_marseille","lat":43.284538,"lon":5.358657,"is_reserved":false,"is_disabled":false,"rental_uris":{"android":"levelo://app?vid=591cb939-6b0a-4b19-83ff-445e61f6c1d6","ios":"levelo://app?vid=591cb939-6b0a-4b19-83ff-445e61f6c1d6"},"vehicle_type_id":"4","last_reported":1702094930,"current_range_meters":30000,"station_id":"ce4bhah2rcd13ifvqei0","pricing_plan_id":"free"},{"bike_id":"441b82a9-77aa-44f1-bfd8-b490f77f947a","system_id":"levelo_inurba_marseille","lat":43.284538,"lon":5.358657,"is_reserved":false,"is_disabled":false,"rental_uris":{"android":"levelo://app?vid=441b82a9-77aa-44f1-bfd8-b490f77f947a","ios":"levelo://app?vid=441b82a9-77aa-44f1-bfd8-b490f77f947a"},"vehicle_type_id":"4","last_reported":1702094930,"current_range_meters":15200,"station_id":"ce4bhah2rcd13ifvqei0","pricing_plan_id":"free"},{"bike_id":"2c79197d-1f07-4639-a43e-84f0cc03e534","system_id":"levelo_inurba_marseille","lat":43.284538,"lon":5.358657,"is_reserved":false,"is_disabled":false,"rental_uris":{"android":"levelo://app?vid=2c79197d-1f07-4639-a43e-84f0cc03e534","ios":"levelo://app?vid=2c79197d-1f07-4639-a43e-84f0cc03e534"},"vehicle_type_id":"4","last_reported":1702094930,"current_range_meters":12000,"station_id":"ce4bhah2rcd13ifvqei0","pricing_plan_id":"free"},{"bike_id":"56380940-1685-40ff-9442-5aea03747329","system_id":"levelo_inurba_marseille","lat":43.284538,"lon":5.358657,"is_reserved":false,"is_disabled":false,"rental_uris":{"android":"levelo://app?vid=56380940-1685-40ff-9442-5aea03747329","ios":"levelo://app?vid=56380940-1685-40ff-9442-5aea03747329"},"vehicle_type_id":"4","last_reported":1702094930,"current_range_meters":23200,"station_id":"ce4bhah2rcd13ifvqei0","pricing_plan_id":"free"},{"bike_id":"2cee83b1-65df-416a-a71c-8c2ce874812a","system_id":"levelo_inurba_marseille","lat":43.284538,"lon":5.358657,"is_reserved":false,"is_disabled":false,"rental_uris":{"android":"levelo://app?vid=2cee83b1-65df-416a-a71c-8c2ce874812a","ios":"levelo://app?vid=2cee83b1-65df-416a-a71c-8c2ce874812a"},"vehicle_type_id":"4","last_reported":1702094930,"current_range_meters":29200,"station_id":"ce4bhah2rcd13ifvqei0","pricing_plan_id":"free"},{"bike_id":"b5e48a7f-cbf5-43f4-b0a6-65b7bbd02390","system_id":"levelo_inurba_marseille","lat":43.284538,"lon":5.358657,"is_reserved":false,"is_disabled":false,"rental_uris":{"android":"levelo://app?vid=b5e48a7f-cbf5-43f4-b0a6-65b7bbd02390","ios":"levelo://app?vid=b5e48a7f-cbf5-43f4-b0a6-65b7bbd02390"},"vehicle_type_id":"4","last_reported":1702094930,"current_range_meters":26800,"station_id":"ce4bhah2rcd13ifvqei0","pricing_plan_id":"free"},{"bike_id":"1ffc8f9f-0f7f-44a1-8eb0-5c365718136b","system_id":"levelo_inurba_marseille","lat":43.284538,"lon":5.358657,"is_reserved":false,"is_disabled":false,"rental_uris":{"android":"levelo://app?vid=1ffc8f9f-0f7f-44a1-8eb0-5c365718136b","ios":"levelo://app?vid=1ffc8f9f-0f7f-44a1-8eb0-5c365718136b"},"vehicle_type_id":"4","last_reported":1702094930,"current_range_meters":31200,"station_id":"ce4bhah2rcd13ifvqei0","pricing_plan_id":"free"},{"bike_id":"02c10077-b1df-429a-b700-f04dc8703603","system_id":"levelo_inurba_marseille","lat":43.294314,"lon":5.397498,"is_reserved":false,"is_disabled":false,"rental_uris":{"android":"levelo://app?vid=02c10077-b1df-429a-b700-f04dc8703603","ios":"levelo://app?vid=02c10077-b1df-429a-b700-f04dc8703603"},"vehicle_type_id":"4","last_reported":1702094930,"current_range_meters":29200,"station_id":"ce4bh3h2rcd13ifvqdo0","pricing_plan_id":"free"},{"bike_id":"084eb075-937d-4238-8478-4c59fa31561a","system_id":"levelo_inurba_marseille","lat":43.284538,"lon":5.358657,"is_reserved":false,"is_disabled":false,"rental_uris":{"android":"levelo://app?vid=084eb075-937d-4238-8478-4c59fa31561a","ios":"levelo://app?vid=084eb075-937d-4238-8478-4c59fa31561a"},"vehicle_type_id":"4","last_reported":1702094930,"current_range_meters":25600,"station_id":"ce4bhah2rcd13ifvqei0","pricing_plan_id":"free"},{"bike_id":"a74a3878-4eea-4074-b70f-591ba450338d","system_id":"levelo_inurba_marseille","lat":43.28613,"lon":5.351,"is_reserved":false,"is_disabled":false,"rental_uris":{"android":"levelo://app?vid=a74a3878-4eea-4074-b70f-591ba450338d","ios":"levelo://app?vid=a74a3878-4eea-4074-b70f-591ba450338d"},"vehicle_type_id":"4","last_reported":1702094930,"current_range_meters":30000,"station_id":"ce4bhch2rcd13ifvqeug","pricing_plan_id":"free"},{"bike_id":"2f43a1cf-20f8-476f-bf2c-2527235b53ab","system_id":"levelo_inurba_marseille","lat":43.295713,"lon":5.399639,"is_reserved":false,"is_disabled":false,"rental_uris":{"android":"levelo://app?vid=2f43a1cf-20f8-476f-bf2c-2527235b53ab","ios":"levelo://app?vid=2f43a1cf-20f8-476f-bf2c-2527235b53ab"},"vehicle_type_id":"4","last_reported":1702094930,"current_range_meters":26400,"station_id":"ce4bh312rcd13ifvqdj0","pricing_plan_id":"free"},{"bike_id":"8114e18f-d491-4066-a09c-d8ccca125204","system_id":"levelo_inurba_marseille","lat":43.283998,"lon":5.375062,"is_reserved":false,"is_disabled":false,"rental_uris":{"android":"levelo://app?vid=8114e18f-d491-4066-a09c-d8ccca125204","ios":"levelo://app?vid=8114e18f-d491-4066-a09c-d8ccca125204"},"vehicle_type_id":"4","last_reported":1702094930,"current_range_meters":28400,"station_id":"ce4bh412rcd13ifvqds0","pricing_plan_id":"free"},{"bike_id":"3b44b279-4508-4e90-b4ff-6cbec8acfee3","system_id":"levelo_inurba_marseille","lat":43.284748,"lon":5.380503,"is_reserved":false,"is_disabled":false,"rental_uris":{"android":"levelo://app?vid=3b44b279-4508-4e90-b4ff-6cbec8acfee3","ios":"levelo://app?vid=3b44b279-4508-4e90-b4ff-6cbec8acfee3"},"vehicle_type_id":"4","last_reported":1702094930,"current_range_meters":18400,"station_id":"","pricing_plan_id":"free"},{"bike_id":"99ff134c-a6cd-4bbf-9051-8f05a2930939","system_id":"levelo_inurba_marseille","lat":43.319179,"lon":5.407725,"is_reserved":false,"is_disabled":false,"rental_uris":{"android":"levelo://app?vid=99ff134c-a6cd-4bbf-9051-8f05a2930939","ios":"levelo://app?vid=99ff134c-a6cd-4bbf-9051-8f05a2930939"},"vehicle_type_id":"4","last_reported":1702094930,"current_range_meters":0,"station_id":"ce4bhq12rcd13ifvqhig","pricing_plan_id":"free"},{"bike_id":"394e7ef0-8795-4b05-b68f-3db5b0a2f588","system_id":"levelo_inurba_marseille","lat":43.33717,"lon":5.391857,"is_reserved":false,"is_disabled":false,"rental_uris":{"android":"levelo://app?vid=394e7ef0-8795-4b05-b68f-3db5b0a2f588","ios":"levelo://app?vid=394e7ef0-8795-4b05-b68f-3db5b0a2f588"},"vehicle_type_id":"4","last_reported":1702094930,"current_range_meters":29600,"station_id":"ce4bhr92rcd13ifvqhsg","pricing_plan_id":"free"},{"bike_id":"efe9d2cc-d0eb-4e85-b313-6bf62b4d4d4c","system_id":"levelo_inurba_marseille","lat":43.33717,"lon":5.391857,"is_reserved":false,"is_disabled":false,"rental_uris":{"android":"levelo://app?vid=efe9d2cc-d0eb-4e85-b313-6bf62b4d4d4c","ios":"levelo://app?vid=efe9d2cc-d0eb-4e85-b313-6bf62b4d4d4c"},"vehicle_type_id":"4","last_reported":1702094930,"current_range_meters":800,"station_id":"ce4bhr92rcd13ifvqhsg","pricing_plan_id":"free"},{"bike_id":"9bfd8a66-9912-444f-92dd-91b1b47345c1","system_id":"levelo_inurba_marseille","lat":43.284793,"lon":5.384113,"is_reserved":false,"is_disabled":false,"rental_uris":{"android":"levelo://app?vid=9bfd8a66-9912-444f-92dd-91b1b47345c1","ios":"levelo://app?vid=9bfd8a66-9912-444f-92dd-91b1b47345c1"},"vehicle_type_id":"4","last_reported":1702094930,"current_range_meters":21600,"station_id":"ce4bh512rcd13ifvqe3g","pricing_plan_id":"free"},{"bike_id":"6b6416e6-cf4e-4a0d-92d7-445e2579f198","system_id":"levelo_inurba_marseille","lat":43.297946,"lon":5.404063,"is_reserved":false,"is_disabled":false,"rental_uris":{"android":"levelo://app?vid=6b6416e6-cf4e-4a0d-92d7-445e2579f198","ios":"levelo://app?vid=6b6416e6-cf4e-4a0d-92d7-445e2579f198"},"vehicle_type_id":"4","last_reported":1702094930,"current_range_meters":28000,"station_id":"ce4bh112rcd13ifvqd90","pricing_plan_id":"free"},{"bike_id":"af420aac-9786-4190-bc23-68b96f73c73c","system_id":"levelo_inurba_marseille","lat":43.30879,"lon":5.409045,"is_reserved":false,"is_disabled":false,"rental_uris":{"android":"levelo://app?vid=af420aac-9786-4190-bc23-68b96f73c73c","ios":"levelo://app?vid=af420aac-9786-4190-bc23-68b96f73c73c"},"vehicle_type_id":"4","last_reported":1702094930,"current_range_meters":0,"station_id":"","pricing_plan_id":"free"},{"bike_id":"bcce3b25-1537-4198-b1da-695a0ed0517f","system_id":"levelo_inurba_marseille","lat":43.284214,"lon":5.349706,"is_reserved":false,"is_disabled":false,"rental_uris":{"android":"levelo://app?vid=bcce3b25-1537-4198-b1da-695a0ed0517f","ios":"levelo://app?vid=bcce3b25-1537-4198-b1da-695a0ed0517f"},"vehicle_type_id":"4","last_reported":1702094930,"current_range_meters":27200,"station_id":"ce4bhbh2rcd13ifvqepg","pricing_plan_id":"free"},{"bike_id":"4fcca0f6-58dd-47c0-9d91-6b6b9ef9c751","system_id":"levelo_inurba_marseille","lat":43.282744,"lon":5.350533,"is_reserved":false,"is_disabled":false,"rental_uris":{"android":"levelo://app?vid=4fcca0f6-58dd-47c0-9d91-6b6b9ef9c751","ios":"levelo://app?vid=4fcca0f6-58dd-47c0-9d91-6b6b9ef9c751"},"vehicle_type_id":"4","last_reported":1702094930,"current_range_meters":27600,"station_id":"ce4bhbp2rcd13ifvqerg","pricing_plan_id":"free"},{"bike_id":"4d919dcd-4526-4125-943d-519d8ad26e44","system_id":"levelo_inurba_marseille","lat":43.28037,"lon":5.36944,"is_reserved":false,"is_disabled":false,"rental_uris":{"android":"levelo://app?vid=4d919dcd-4526-4125-943d-519d8ad26e44","ios":"levelo://app?vid=4d919dcd-4526-4125-943d-519d8ad26e44"},"vehicle_type_id":"4","last_reported":1702094930,"current_range_meters":19600,"station_id":"ce4bha12rcd13ifvqef0","pricing_plan_id":"free"},{"bike_id":"b64281d8-e0fb-4f4f-85e2-03d9a9a69000","system_id":"levelo_inurba_marseille","lat":43.281044,"lon":5.378308,"is_reserved":false,"is_disabled":false,"rental_uris":{"android":"levelo://app?vid=b64281d8-e0fb-4f4f-85e2-03d9a9a69000","ios":"levelo://app?vid=b64281d8-e0fb-4f4f-85e2-03d9a9a69000"},"vehicle_type_id":"4","last_reported":1702094930,"current_range_meters":30400,"station_id":"ce4bha12rcd13ifvqee0","pricing_plan_id":"free"},{"bike_id":"d79d1a7e-484a-48a0-8fb1-a71cbf206b8e","system_id":"levelo_inurba_marseille","lat":43.296263,"lon":5.40601,"is_reserved":false,"is_disabled":false,"rental_uris":{"android":"levelo://app?vid=d79d1a7e-484a-48a0-8fb1-a71cbf206b8e","ios":"levelo://app?vid=d79d1a7e-484a-48a0-8fb1-a71cbf206b8e"},"vehicle_type_id":"4","last_reported":1702094930,"current_range_meters":26800,"station_id":"ce4bh0h2rcd13ifvqd60","pricing_plan_id":"free"},{"bike_id":"42c6c4ae-8f47-40c8-a6b3-e8f8ef0d6fb9","system_id":"levelo_inurba_marseille","lat":43.296263,"lon":5.40601,"is_reserved":false,"is_disabled":false,"rental_uris":{"android":"levelo://app?vid=42c6c4ae-8f47-40c8-a6b3-e8f8ef0d6fb9","ios":"levelo://app?vid=42c6c4ae-8f47-40c8-a6b3-e8f8ef0d6fb9"},"vehicle_type_id":"4","last_reported":1702094930,"current_range_meters":30000,"station_id":"ce4bh0h2rcd13ifvqd60","pricing_plan_id":"free"},{"bike_id":"15144092-dc94-4468-8ec9-aeb652fb782b","system_id":"levelo_inurba_marseille","lat":43.296263,"lon":5.40601,"is_reserved":false,"is_disabled":false,"rental_uris":{"android":"levelo://app?vid=15144092-dc94-4468-8ec9-aeb652fb782b","ios":"levelo://app?vid=15144092-dc94-4468-8ec9-aeb652fb782b"},"vehicle_type_id":"4","last_reported":1702094930,"current_range_meters":26800,"station_id":"ce4bh0h2rcd13ifvqd60","pricing_plan_id":"free"},{"bike_id":"e52ddfd6-0ddd-4c7b-ab34-3c7fe5c2aaef","system_id":"levelo_inurba_marseille","lat":43.326605,"lon":5.409903,"is_reserved":false,"is_disabled":false,"rental_uris":{"android":"levelo://app?vid=e52ddfd6-0ddd-4c7b-ab34-3c7fe5c2aaef","ios":"levelo://app?vid=e52ddfd6-0ddd-4c7b-ab34-3c7fe5c2aaef"},"vehicle_type_id":"4","last_reported":1702094930,"current_range_meters":31200,"station_id":"ce4bhpp2rcd13ifvqhgg","pricing_plan_id":"free"},{"bike_id":"24f7bf56-e0e6-452e-aa46-25e110e538c6","system_id":"levelo_inurba_marseille","lat":43.3266,"lon":5.40992,"is_reserved":false,"is_disabled":false,"rental_uris":{"android":"levelo://app?vid=24f7bf56-e0e6-452e-aa46-25e110e538c6","ios":"levelo://app?vid=24f7bf56-e0e6-452e-aa46-25e110e538c6"},"vehicle_type_id":"4","last_reported":1702094930,"current_range_meters":31600,"station_id":"ce4bhpp2rcd13ifvqhgg","pricing_plan_id":"free"},{"bike_id":"c0763524-47cd-4818-80fc-1b29f8280dc8","system_id":"levelo_inurba_marseille","lat":43.326605,"lon":5.409903,"is_reserved":false,"is_disabled":false,"rental_uris":{"android":"levelo://app?vid=c0763524-47cd-4818-80fc-1b29f8280dc8","ios":"levelo://app?vid=c0763524-47cd-4818-80fc-1b29f8280dc8"},"vehicle_type_id":"4","last_reported":1702094930,"current_range_meters":31600,"station_id":"ce4bhpp2rcd13ifvqhgg","pricing_plan_id":"free"},{"bike_id":"c6edb2c0-fca4-4817-ac1a-8acfbd5f7de7","system_id":"levelo_inurba_marseille","lat":43.326605,"lon":5.409903,"is_reserved":false,"is_disabled":false,"rental_uris":{"android":"levelo://app?vid=c6edb2c0-fca4-4817-ac1a-8acfbd5f7de7","ios":"levelo://app?vid=c6edb2c0-fca4-4817-ac1a-8acfbd5f7de7"},"vehicle_type_id":"4","last_reported":1702094930,"current_range_meters":1200,"station_id":"ce4bhpp2rcd13ifvqhgg","pricing_plan_id":"free"},{"bike_id":"8e72c163-1aa2-4a7b-94b7-81680a6273b6","system_id":"levelo_inurba_marseille","lat":43.32659,"lon":5.40997,"is_reserved":false,"is_disabled":false,"rental_uris":{"android":"levelo://app?vid=8e72c163-1aa2-4a7b-94b7-81680a6273b6","ios":"levelo://app?vid=8e72c163-1aa2-4a7b-94b7-81680a6273b6"},"vehicle_type_id":"4","last_reported":1702094930,"current_range_meters":9600,"station_id":"ce4bhpp2rcd13ifvqhgg","pricing_plan_id":"free"},{"bike_id":"4c3823f4-aea9-44a3-8e6c-29934f52b96a","system_id":"levelo_inurba_marseille","lat":43.304188,"lon":5.412904,"is_reserved":false,"is_disabled":false,"rental_uris":{"android":"levelo://app?vid=4c3823f4-aea9-44a3-8e6c-29934f52b96a","ios":"levelo://app?vid=4c3823f4-aea9-44a3-8e6c-29934f52b96a"},"vehicle_type_id":"4","last_reported":1702094930,"current_range_meters":24000,"station_id":"ce4bhop2rcd13ifvqh8g","pricing_plan_id":"free"},{"bike_id":"b26c8630-323c-4045-8811-b7bc791c08ad","system_id":"levelo_inurba_marseille","lat":43.277967,"lon":5.362509,"is_reserved":false,"is_disabled":false,"rental_uris":{"android":"levelo://app?vid=b26c8630-323c-4045-8811-b7bc791c08ad","ios":"levelo://app?vid=b26c8630-323c-4045-8811-b7bc791c08ad"},"vehicle_type_id":"4","last_reported":1702094930,"current_range_meters":25200,"station_id":"","pricing_plan_id":"free"},{"bike_id":"4e81cbcd-16e9-4781-ac4a-4b7a94c81367","system_id":"levelo_inurba_marseille","lat":43.279087,"lon":5.380114,"is_reserved":false,"is_disabled":false,"rental_uris":{"android":"levelo://app?vid=4e81cbcd-16e9-4781-ac4a-4b7a94c81367","ios":"levelo://app?vid=4e81cbcd-16e9-4781-ac4a-4b7a94c81367"},"vehicle_type_id":"4","last_reported":1702094930,"current_range_meters":22400,"station_id":"ce4bhf92rcd13ifvqf50","pricing_plan_id":"free"},{"bike_id":"4665f390-3b92-4bdc-bbab-d0212e027c94","system_id":"levelo_inurba_marseille","lat":43.2871,"lon":5.399961,"is_reserved":false,"is_disabled":false,"rental_uris":{"android":"levelo://app?vid=4665f390-3b92-4bdc-bbab-d0212e027c94","ios":"levelo://app?vid=4665f390-3b92-4bdc-bbab-d0212e027c94"},"vehicle_type_id":"4","last_reported":1702094930,"current_range_meters":28800,"station_id":"ce4bho92rcd13ifvqh3g","pricing_plan_id":"free"},{"bike_id":"f49d5cf5-0c66-4176-88ae-518ed8264b82","system_id":"levelo_inurba_marseille","lat":43.27618,"lon":5.361009,"is_reserved":false,"is_disabled":false,"rental_uris":{"android":"levelo://app?vid=f49d5cf5-0c66-4176-88ae-518ed8264b82","ios":"levelo://app?vid=f49d5cf5-0c66-4176-88ae-518ed8264b82"},"vehicle_type_id":"4","last_reported":1702094930,"current_range_meters":31200,"station_id":"ce4bgj92rcd13ifvqbe0","pricing_plan_id":"free"},{"bike_id":"71b63bbf-97e6-4b65-9ef6-e4b2a4c6338d","system_id":"levelo_inurba_marseille","lat":43.325243,"lon":5.414326,"is_reserved":false,"is_disabled":false,"rental_uris":{"android":"levelo://app?vid=71b63bbf-97e6-4b65-9ef6-e4b2a4c6338d","ios":"levelo://app?vid=71b63bbf-97e6-4b65-9ef6-e4b2a4c6338d"},"vehicle_type_id":"4","last_reported":1702094930,"current_range_meters":24800,"station_id":"ce4bhq12rcd13ifvqhhg","pricing_plan_id":"free"},{"bike_id":"f3194e18-3c74-4f0b-a190-3f1f1c3e4a59","system_id":"levelo_inurba_marseille","lat":43.278015,"lon":5.39022,"is_reserved":false,"is_disabled":false,"rental_uris":{"android":"levelo://app?vid=f3194e18-3c74-4f0b-a190-3f1f1c3e4a59","ios":"levelo://app?vid=f3194e18-3c74-4f0b-a190-3f1f1c3e4a59"},"vehicle_type_id":"4","last_reported":1702094930,"current_range_meters":2800,"station_id":"","pricing_plan_id":"free"},{"bike_id":"a38aeb50-e61c-4175-8b6c-ea2617d6def1","system_id":"levelo_inurba_marseille","lat":43.33612,"lon":5.410321,"is_reserved":false,"is_disabled":false,"rental_uris":{"android":"levelo://app?vid=a38aeb50-e61c-4175-8b6c-ea2617d6def1","ios":"levelo://app?vid=a38aeb50-e61c-4175-8b6c-ea2617d6def1"},"vehicle_type_id":"4","last_reported":1702094930,"current_range_meters":3600,"station_id":"ce4bhqh2rcd13ifvqhmg","pricing_plan_id":"free"},{"bike_id":"cad2aa93-1dd6-4f61-aed7-63bd8874b030","system_id":"levelo_inurba_marseille","lat":43.303508,"lon":5.418817,"is_reserved":false,"is_disabled":false,"rental_uris":{"android":"levelo://app?vid=cad2aa93-1dd6-4f61-aed7-63bd8874b030","ios":"levelo://app?vid=cad2aa93-1dd6-4f61-aed7-63bd8874b030"},"vehicle_type_id":"4","last_reported":1702094930,"current_range_meters":5200,"station_id":"ce4bhop2rcd13ifvqh7g","pricing_plan_id":"free"},{"bike_id":"89f003f7-cfb5-467e-9728-23686c1aedda","system_id":"levelo_inurba_marseille","lat":43.278399,"lon":5.392139,"is_reserved":false,"is_disabled":false,"rental_uris":{"android":"levelo://app?vid=89f003f7-cfb5-467e-9728-23686c1aedda","ios":"levelo://app?vid=89f003f7-cfb5-467e-9728-23686c1aedda"},"vehicle_type_id":"4","last_reported":1702094930,"current_range_meters":22000,"station_id":"ce4bhjp2rcd13ifvqga0","pricing_plan_id":"free"},{"bike_id":"64bbba07-a435-4543-858c-87875b1b48cf","system_id":"levelo_inurba_marseille","lat":43.275625,"lon":5.384392,"is_reserved":false,"is_disabled":false,"rental_uris":{"android":"levelo://app?vid=64bbba07-a435-4543-858c-87875b1b48cf","ios":"levelo://app?vid=64bbba07-a435-4543-858c-87875b1b48cf"},"vehicle_type_id":"4","last_reported":1702094930,"current_range_meters":17600,"station_id":"ce4bhh92rcd13ifvqfi0","pricing_plan_id":"free"},{"bike_id":"e34501e0-4a80-4af1-b609-c137374da842","system_id":"levelo_inurba_marseille","lat":43.273613,"lon":5.362705,"is_reserved":false,"is_disabled":false,"rental_uris":{"android":"levelo://app?vid=e34501e0-4a80-4af1-b609-c137374da842","ios":"levelo://app?vid=e34501e0-4a80-4af1-b609-c137374da842"},"vehicle_type_id":"4","last_reported":1702094930,"current_range_meters":27600,"station_id":"ce4bhbh2rcd13ifvqeo0","pricing_plan_id":"free"},{"bike_id":"5bdc5481-12d8-4d9d-ad5d-128ecf6bd745","system_id":"levelo_inurba_marseille","lat":43.336134,"lon":5.410341,"is_reserved":false,"is_disabled":false,"rental_uris":{"android":"levelo://app?vid=5bdc5481-12d8-4d9d-ad5d-128ecf6bd745","ios":"levelo://app?vid=5bdc5481-12d8-4d9d-ad5d-128ecf6bd745"},"vehicle_type_id":"4","last_reported":1702094930,"current_range_meters":28000,"station_id":"ce4bhqh2rcd13ifvqhmg","pricing_plan_id":"free"},{"bike_id":"bd309c78-c820-47d6-8ca2-d32903baef91","system_id":"levelo_inurba_marseille","lat":43.276346,"lon":5.391864,"is_reserved":false,"is_disabled":false,"rental_uris":{"android":"levelo://app?vid=bd309c78-c820-47d6-8ca2-d32903baef91","ios":"levelo://app?vid=bd309c78-c820-47d6-8ca2-d32903baef91"},"vehicle_type_id":"4","last_reported":1702094930,"current_range_meters":8800,"station_id":"","pricing_plan_id":"free"},{"bike_id":"9f9b9422-e50a-4812-bb43-b8b018e054a1","system_id":"levelo_inurba_marseille","lat":43.279975,"lon":5.40009,"is_reserved":false,"is_disabled":false,"rental_uris":{"android":"levelo://app?vid=9f9b9422-e50a-4812-bb43-b8b018e054a1","ios":"levelo://app?vid=9f9b9422-e50a-4812-bb43-b8b018e054a1"},"vehicle_type_id":"4","last_reported":1702094930,"current_range_meters":30000,"station_id":"ce4bho92rcd13ifvqh4g","pricing_plan_id":"free"},{"bike_id":"0f7a9644-c470-46e7-ae97-75a010349f8b","system_id":"levelo_inurba_marseille","lat":43.317121,"lon":5.423936,"is_reserved":false,"is_disabled":false,"rental_uris":{"android":"levelo://app?vid=0f7a9644-c470-46e7-ae97-75a010349f8b","ios":"levelo://app?vid=0f7a9644-c470-46e7-ae97-75a010349f8b"},"vehicle_type_id":"4","last_reported":1702094930,"current_range_meters":26400,"station_id":"ce4bhp92rcd13ifvqhbg","pricing_plan_id":"free"},{"bike_id":"02791883-a925-42a0-9dd3-b7193f6a574b","system_id":"levelo_inurba_marseille","lat":43.31715,"lon":5.423936,"is_reserved":false,"is_disabled":false,"rental_uris":{"android":"levelo://app?vid=02791883-a925-42a0-9dd3-b7193f6a574b","ios":"levelo://app?vid=02791883-a925-42a0-9dd3-b7193f6a574b"},"vehicle_type_id":"4","last_reported":1702094930,"current_range_meters":5200,"station_id":"ce4bhp92rcd13ifvqhbg","pricing_plan_id":"free"},{"bike_id":"fc4bcc5b-5f4e-42a1-8cca-78d5c651475f","system_id":"levelo_inurba_marseille","lat":43.317121,"lon":5.423936,"is_reserved":false,"is_disabled":false,"rental_uris":{"android":"levelo://app?vid=fc4bcc5b-5f4e-42a1-8cca-78d5c651475f","ios":"levelo://app?vid=fc4bcc5b-5f4e-42a1-8cca-78d5c651475f"},"vehicle_type_id":"4","last_reported":1702094930,"current_range_meters":26000,"station_id":"ce4bhp92rcd13ifvqhbg","pricing_plan_id":"free"},{"bike_id":"80038031-3601-4c51-b66a-c6c9131d41d1","system_id":"levelo_inurba_marseille","lat":43.310785,"lon":5.424305,"is_reserved":false,"is_disabled":false,"rental_uris":{"android":"levelo://app?vid=80038031-3601-4c51-b66a-c6c9131d41d1","ios":"levelo://app?vid=80038031-3601-4c51-b66a-c6c9131d41d1"},"vehicle_type_id":"4","last_reported":1702094930,"current_range_meters":30000,"station_id":"ce4bhp92rcd13ifvqhag","pricing_plan_id":"free"},{"bike_id":"48e3df08-57dc-434d-a06c-f6f751cd351f","system_id":"levelo_inurba_marseille","lat":43.310785,"lon":5.424305,"is_reserved":false,"is_disabled":false,"rental_uris":{"android":"levelo://app?vid=48e3df08-57dc-434d-a06c-f6f751cd351f","ios":"levelo://app?vid=48e3df08-57dc-434d-a06c-f6f751cd351f"},"vehicle_type_id":"4","last_reported":1702094930,"current_range_meters":21600,"station_id":"ce4bhp92rcd13ifvqhag","pricing_plan_id":"free"},{"bike_id":"fe6596e6-baa8-4e45-9baf-7421815b8310","system_id":"levelo_inurba_marseille","lat":43.310813,"lon":5.42431,"is_reserved":false,"is_disabled":false,"rental_uris":{"android":"levelo://app?vid=fe6596e6-baa8-4e45-9baf-7421815b8310","ios":"levelo://app?vid=fe6596e6-baa8-4e45-9baf-7421815b8310"},"vehicle_type_id":"4","last_reported":1702094930,"current_range_meters":16800,"station_id":"ce4bhp92rcd13ifvqhag","pricing_plan_id":"free"},{"bike_id":"e7bd1e73-4f86-473d-905c-a7b0f3d6ad8a","system_id":"levelo_inurba_marseille","lat":43.31723,"lon":5.42405,"is_reserved":false,"is_disabled":false,"rental_uris":{"android":"levelo://app?vid=e7bd1e73-4f86-473d-905c-a7b0f3d6ad8a","ios":"levelo://app?vid=e7bd1e73-4f86-473d-905c-a7b0f3d6ad8a"},"vehicle_type_id":"4","last_reported":1702094930,"current_range_meters":18800,"station_id":"ce4bhp92rcd13ifvqhbg","pricing_plan_id":"free"},{"bike_id":"c58024d2-cabc-4012-868c-d0b5976a6bb0","system_id":"levelo_inurba_marseille","lat":43.317121,"lon":5.423936,"is_reserved":false,"is_disabled":false,"rental_uris":{"android":"levelo://app?vid=c58024d2-cabc-4012-868c-d0b5976a6bb0","ios":"levelo://app?vid=c58024d2-cabc-4012-868c-d0b5976a6bb0"},"vehicle_type_id":"4","last_reported":1702094930,"current_range_meters":29200,"station_id":"ce4bhp92rcd13ifvqhbg","pricing_plan_id":"free"},{"bike_id":"3382fddf-23bf-43e2-9be0-1a0233fdea3a","system_id":"levelo_inurba_marseille","lat":43.31082,"lon":5.42433,"is_reserved":false,"is_disabled":false,"rental_uris":{"android":"levelo://app?vid=3382fddf-23bf-43e2-9be0-1a0233fdea3a","ios":"levelo://app?vid=3382fddf-23bf-43e2-9be0-1a0233fdea3a"},"vehicle_type_id":"4","last_reported":1702094930,"current_range_meters":30000,"station_id":"ce4bhp92rcd13ifvqhag","pricing_plan_id":"free"},{"bike_id":"e6ff414d-6f05-44d2-b7c6-4a89a6fc64e2","system_id":"levelo_inurba_marseille","lat":43.310823,"lon":5.424333,"is_reserved":false,"is_disabled":false,"rental_uris":{"android":"levelo://app?vid=e6ff414d-6f05-44d2-b7c6-4a89a6fc64e2","ios":"levelo://app?vid=e6ff414d-6f05-44d2-b7c6-4a89a6fc64e2"},"vehicle_type_id":"4","last_reported":1702094930,"current_range_meters":6400,"station_id":"ce4bhp92rcd13ifvqhag","pricing_plan_id":"free"},{"bike_id":"ab349320-16bd-497a-a10c-b97351078571","system_id":"levelo_inurba_marseille","lat":43.340804,"lon":5.410219,"is_reserved":false,"is_disabled":false,"rental_uris":{"android":"levelo://app?vid=ab349320-16bd-497a-a10c-b97351078571","ios":"levelo://app?vid=ab349320-16bd-497a-a10c-b97351078571"},"vehicle_type_id":"4","last_reported":1702094930,"current_range_meters":26400,"station_id":"ce4bhqh2rcd13ifvqhlg","pricing_plan_id":"free"},{"bike_id":"63133364-316e-458e-b234-bbd4926c63fc","system_id":"levelo_inurba_marseille","lat":43.27583,"lon":5.39474,"is_reserved":false,"is_disabled":false,"rental_uris":{"android":"levelo://app?vid=63133364-316e-458e-b234-bbd4926c63fc","ios":"levelo://app?vid=63133364-316e-458e-b234-bbd4926c63fc"},"vehicle_type_id":"4","last_reported":1702094930,"current_range_meters":9600,"station_id":"","pricing_plan_id":"free"},{"bike_id":"3500ff95-ad50-4c05-a1e2-2faf185b7e1c","system_id":"levelo_inurba_marseille","lat":43.304096,"lon":5.425385,"is_reserved":false,"is_disabled":false,"rental_uris":{"android":"levelo://app?vid=3500ff95-ad50-4c05-a1e2-2faf185b7e1c","ios":"levelo://app?vid=3500ff95-ad50-4c05-a1e2-2faf185b7e1c"},"vehicle_type_id":"4","last_reported":1702094930,"current_range_meters":14000,"station_id":"ce4bhoh2rcd13ifvqh6g","pricing_plan_id":"free"},{"bike_id":"fc6794cf-495d-453d-b822-fc2923d07b21","system_id":"levelo_inurba_marseille","lat":43.304096,"lon":5.425385,"is_reserved":false,"is_disabled":false,"rental_uris":{"android":"levelo://app?vid=fc6794cf-495d-453d-b822-fc2923d07b21","ios":"levelo://app?vid=fc6794cf-495d-453d-b822-fc2923d07b21"},"vehicle_type_id":"4","last_reported":1702094930,"current_range_meters":13200,"station_id":"ce4bhoh2rcd13ifvqh6g","pricing_plan_id":"free"},{"bike_id":"5ed4ca3b-e38e-4196-acea-f278768787eb","system_id":"levelo_inurba_marseille","lat":43.295511,"lon":5.422926,"is_reserved":false,"is_disabled":false,"rental_uris":{"android":"levelo://app?vid=5ed4ca3b-e38e-4196-acea-f278768787eb","ios":"levelo://app?vid=5ed4ca3b-e38e-4196-acea-f278768787eb"},"vehicle_type_id":"4","last_reported":1702094930,"current_range_meters":31200,"station_id":"ce4bhph2rcd13ifvqhdg","pricing_plan_id":"free"},{"bike_id":"b0ace1ee-48c1-47ff-b8ca-0f59683651a4","system_id":"levelo_inurba_marseille","lat":43.295523,"lon":5.422926,"is_reserved":false,"is_disabled":false,"rental_uris":{"android":"levelo://app?vid=b0ace1ee-48c1-47ff-b8ca-0f59683651a4","ios":"levelo://app?vid=b0ace1ee-48c1-47ff-b8ca-0f59683651a4"},"vehicle_type_id":"4","last_reported":1702094930,"current_range_meters":30000,"station_id":"ce4bhph2rcd13ifvqhdg","pricing_plan_id":"free"},{"bike_id":"d04013a3-534f-4ad9-a405-306181f29573","system_id":"levelo_inurba_marseille","lat":43.295511,"lon":5.422926,"is_reserved":false,"is_disabled":false,"rental_uris":{"android":"levelo://app?vid=d04013a3-534f-4ad9-a405-306181f29573","ios":"levelo://app?vid=d04013a3-534f-4ad9-a405-306181f29573"},"vehicle_type_id":"4","last_reported":1702094930,"current_range_meters":16400,"station_id":"ce4bhph2rcd13ifvqhdg","pricing_plan_id":"free"},{"bike_id":"c8108039-44dd-4fb1-b7b8-29be72bcb52c","system_id":"levelo_inurba_marseille","lat":43.295511,"lon":5.422926,"is_reserved":false,"is_disabled":false,"rental_uris":{"android":"levelo://app?vid=c8108039-44dd-4fb1-b7b8-29be72bcb52c","ios":"levelo://app?vid=c8108039-44dd-4fb1-b7b8-29be72bcb52c"},"vehicle_type_id":"4","last_reported":1702094930,"current_range_meters":17600,"station_id":"ce4bhph2rcd13ifvqhdg","pricing_plan_id":"free"},{"bike_id":"281c8529-1375-471b-a05f-597307bf1b59","system_id":"levelo_inurba_marseille","lat":43.295511,"lon":5.422926,"is_reserved":false,"is_disabled":false,"rental_uris":{"android":"levelo://app?vid=281c8529-1375-471b-a05f-597307bf1b59","ios":"levelo://app?vid=281c8529-1375-471b-a05f-597307bf1b59"},"vehicle_type_id":"4","last_reported":1702094930,"current_range_meters":12800,"station_id":"ce4bhph2rcd13ifvqhdg","pricing_plan_id":"free"},{"bike_id":"4f9e48a0-eacd-4e63-bd3c-330b19e5c041","system_id":"levelo_inurba_marseille","lat":43.295511,"lon":5.422926,"is_reserved":false,"is_disabled":false,"rental_uris":{"android":"levelo://app?vid=4f9e48a0-eacd-4e63-bd3c-330b19e5c041","ios":"levelo://app?vid=4f9e48a0-eacd-4e63-bd3c-330b19e5c041"},"vehicle_type_id":"4","last_reported":1702094930,"current_range_meters":31200,"station_id":"ce4bhph2rcd13ifvqhdg","pricing_plan_id":"free"},{"bike_id":"7fe1cb63-397c-46d6-9728-506d5c02bb4e","system_id":"levelo_inurba_marseille","lat":43.272116,"lon":5.391747,"is_reserved":false,"is_disabled":false,"rental_uris":{"android":"levelo://app?vid=7fe1cb63-397c-46d6-9728-506d5c02bb4e","ios":"levelo://app?vid=7fe1cb63-397c-46d6-9728-506d5c02bb4e"},"vehicle_type_id":"4","last_reported":1702094930,"current_range_meters":27200,"station_id":"ce4bhhp2rcd13ifvqfm0","pricing_plan_id":"free"},{"bike_id":"8f021145-48f8-459b-aef0-f8921e18b0a0","system_id":"levelo_inurba_marseille","lat":43.27214,"lon":5.3925,"is_reserved":false,"is_disabled":false,"rental_uris":{"android":"levelo://app?vid=8f021145-48f8-459b-aef0-f8921e18b0a0","ios":"levelo://app?vid=8f021145-48f8-459b-aef0-f8921e18b0a0"},"vehicle_type_id":"4","last_reported":1702094930,"current_range_meters":3200,"station_id":"","pricing_plan_id":"free"},{"bike_id":"af0ffe56-5521-4c49-aaf3-b0c77922a42a","system_id":"levelo_inurba_marseille","lat":43.269467,"lon":5.386439,"is_reserved":false,"is_disabled":false,"rental_uris":{"android":"levelo://app?vid=af0ffe56-5521-4c49-aaf3-b0c77922a42a","ios":"levelo://app?vid=af0ffe56-5521-4c49-aaf3-b0c77922a42a"},"vehicle_type_id":"4","last_reported":1702094930,"current_range_meters":31200,"station_id":"ce4bhh92rcd13ifvqfh0","pricing_plan_id":"free"},{"bike_id":"6202f571-96a1-40a5-965b-28219388e7bb","system_id":"levelo_inurba_marseille","lat":43.269467,"lon":5.386439,"is_reserved":false,"is_disabled":false,"rental_uris":{"android":"levelo://app?vid=6202f571-96a1-40a5-965b-28219388e7bb","ios":"levelo://app?vid=6202f571-96a1-40a5-965b-28219388e7bb"},"vehicle_type_id":"4","last_reported":1702094930,"current_range_meters":30000,"station_id":"ce4bhh92rcd13ifvqfh0","pricing_plan_id":"free"},{"bike_id":"81739baa-3903-4e1f-87c8-7e9667562eb6","system_id":"levelo_inurba_marseille","lat":43.279548,"lon":5.410373,"is_reserved":false,"is_disabled":false,"rental_uris":{"android":"levelo://app?vid=81739baa-3903-4e1f-87c8-7e9667562eb6","ios":"levelo://app?vid=81739baa-3903-4e1f-87c8-7e9667562eb6"},"vehicle_type_id":"4","last_reported":1702094930,"current_range_meters":0,"station_id":"ce4bhnp2rcd13ifvqh0g","pricing_plan_id":"free"},{"bike_id":"2c592db3-e82c-4b03-a22a-e9d541d8110a","system_id":"levelo_inurba_marseille","lat":43.26931,"lon":5.38927,"is_reserved":false,"is_disabled":false,"rental_uris":{"android":"levelo://app?vid=2c592db3-e82c-4b03-a22a-e9d541d8110a","ios":"levelo://app?vid=2c592db3-e82c-4b03-a22a-e9d541d8110a"},"vehicle_type_id":"4","last_reported":1702094930,"current_range_meters":2000,"station_id":"ce4bhhh2rcd13ifvqfl0","pricing_plan_id":"free"},{"bike_id":"3315ff64-44e6-417a-b2e7-1e8925684364","system_id":"levelo_inurba_marseille","lat":43.279881,"lon":5.416579,"is_reserved":false,"is_disabled":false,"rental_uris":{"android":"levelo://app?vid=3315ff64-44e6-417a-b2e7-1e8925684364","ios":"levelo://app?vid=3315ff64-44e6-417a-b2e7-1e8925684364"},"vehicle_type_id":"4","last_reported":1702094930,"current_range_meters":4400,"station_id":"ce4bho12rcd13ifvqh1g","pricing_plan_id":"free"},{"bike_id":"846d3d20-1752-4ff8-a0aa-65a584813e26","system_id":"levelo_inurba_marseille","lat":43.265571,"lon":5.390032,"is_reserved":false,"is_disabled":false,"rental_uris":{"android":"levelo://app?vid=846d3d20-1752-4ff8-a0aa-65a584813e26","ios":"levelo://app?vid=846d3d20-1752-4ff8-a0aa-65a584813e26"},"vehicle_type_id":"4","last_reported":1702094930,"current_range_meters":18800,"station_id":"ce4bhe12rcd13ifvqf30","pricing_plan_id":"free"},{"bike_id":"953e4af0-c270-490b-8a35-21adbad82a34","system_id":"levelo_inurba_marseille","lat":43.308051,"lon":5.43527,"is_reserved":false,"is_disabled":false,"rental_uris":{"android":"levelo://app?vid=953e4af0-c270-490b-8a35-21adbad82a34","ios":"levelo://app?vid=953e4af0-c270-490b-8a35-21adbad82a34"},"vehicle_type_id":"4","last_reported":1702094930,"current_range_meters":19600,"station_id":"ce4bhph2rcd13ifvqheg","pricing_plan_id":"free"},{"bike_id":"10bd98e0-d0a2-4a25-a407-cc97034aa68c","system_id":"levelo_inurba_marseille","lat":43.317128,"lon":5.437016,"is_reserved":false,"is_disabled":false,"rental_uris":{"android":"levelo://app?vid=10bd98e0-d0a2-4a25-a407-cc97034aa68c","ios":"levelo://app?vid=10bd98e0-d0a2-4a25-a407-cc97034aa68c"},"vehicle_type_id":"4","last_reported":1702094930,"current_range_meters":9200,"station_id":"ce4bhp92rcd13ifvqhcg","pricing_plan_id":"free"},{"bike_id":"e682df97-8240-4ca3-aae3-148a900e0dc3","system_id":"levelo_inurba_marseille","lat":43.26202,"lon":5.379299,"is_reserved":false,"is_disabled":false,"rental_uris":{"android":"levelo://app?vid=e682df97-8240-4ca3-aae3-148a900e0dc3","ios":"levelo://app?vid=e682df97-8240-4ca3-aae3-148a900e0dc3"},"vehicle_type_id":"4","last_reported":1702094930,"current_range_meters":24400,"station_id":"ce4bhjp2rcd13ifvqg90","pricing_plan_id":"free"},{"bike_id":"951f740b-37b9-4d60-a638-e3a5b1e324f0","system_id":"levelo_inurba_marseille","lat":43.271388,"lon":5.409269,"is_reserved":false,"is_disabled":false,"rental_uris":{"android":"levelo://app?vid=951f740b-37b9-4d60-a638-e3a5b1e324f0","ios":"levelo://app?vid=951f740b-37b9-4d60-a638-e3a5b1e324f0"},"vehicle_type_id":"4","last_reported":1702094930,"current_range_meters":31200,"station_id":"ce4bhl12rcd13ifvqgf0","pricing_plan_id":"free"},{"bike_id":"58c0b39d-6793-4d31-9f06-14ef4f6af8ea","system_id":"levelo_inurba_marseille","lat":43.26202,"lon":5.379299,"is_reserved":false,"is_disabled":false,"rental_uris":{"android":"levelo://app?vid=58c0b39d-6793-4d31-9f06-14ef4f6af8ea","ios":"levelo://app?vid=58c0b39d-6793-4d31-9f06-14ef4f6af8ea"},"vehicle_type_id":"4","last_reported":1702094930,"current_range_meters":25200,"station_id":"ce4bhjp2rcd13ifvqg90","pricing_plan_id":"free"},{"bike_id":"668edf61-6960-468f-942e-6a5cc5a21a93","system_id":"levelo_inurba_marseille","lat":43.271388,"lon":5.409269,"is_reserved":false,"is_disabled":false,"rental_uris":{"android":"levelo://app?vid=668edf61-6960-468f-942e-6a5cc5a21a93","ios":"levelo://app?vid=668edf61-6960-468f-942e-6a5cc5a21a93"},"vehicle_type_id":"4","last_reported":1702094930,"current_range_meters":30800,"station_id":"ce4bhl12rcd13ifvqgf0","pricing_plan_id":"free"},{"bike_id":"27e0bed9-11d2-4515-92f1-768e36978486","system_id":"levelo_inurba_marseille","lat":43.271388,"lon":5.409269,"is_reserved":false,"is_disabled":false,"rental_uris":{"android":"levelo://app?vid=27e0bed9-11d2-4515-92f1-768e36978486","ios":"levelo://app?vid=27e0bed9-11d2-4515-92f1-768e36978486"},"vehicle_type_id":"4","last_reported":1702094930,"current_range_meters":28000,"station_id":"ce4bhl12rcd13ifvqgf0","pricing_plan_id":"free"},{"bike_id":"e4143c11-802c-445e-a594-e8c310d9dbbe","system_id":"levelo_inurba_marseille","lat":43.267959,"lon":5.402687,"is_reserved":false,"is_disabled":false,"rental_uris":{"android":"levelo://app?vid=e4143c11-802c-445e-a594-e8c310d9dbbe","ios":"levelo://app?vid=e4143c11-802c-445e-a594-e8c310d9dbbe"},"vehicle_type_id":"4","last_reported":1702094930,"current_range_meters":28000,"station_id":"ce501612rcd8frsf0b60","pricing_plan_id":"free"},{"bike_id":"2cd90db9-b508-45af-afd0-5b4b8fae22ee","system_id":"levelo_inurba_marseille","lat":43.298768,"lon":5.43643,"is_reserved":false,"is_disabled":false,"rental_uris":{"android":"levelo://app?vid=2cd90db9-b508-45af-afd0-5b4b8fae22ee","ios":"levelo://app?vid=2cd90db9-b508-45af-afd0-5b4b8fae22ee"},"vehicle_type_id":"4","last_reported":1702094930,"current_range_meters":24800,"station_id":"ce4bhpp2rcd13ifvqhfg","pricing_plan_id":"free"},{"bike_id":"4f68f183-a711-4386-a731-e8ea8e2f115e","system_id":"levelo_inurba_marseille","lat":43.298768,"lon":5.43643,"is_reserved":false,"is_disabled":false,"rental_uris":{"android":"levelo://app?vid=4f68f183-a711-4386-a731-e8ea8e2f115e","ios":"levelo://app?vid=4f68f183-a711-4386-a731-e8ea8e2f115e"},"vehicle_type_id":"4","last_reported":1702094930,"current_range_meters":25600,"station_id":"ce4bhpp2rcd13ifvqhfg","pricing_plan_id":"free"},{"bike_id":"70c52fa1-91be-4fbd-9217-7a0c668f9310","system_id":"levelo_inurba_marseille","lat":43.298978,"lon":5.436627,"is_reserved":false,"is_disabled":false,"rental_uris":{"android":"levelo://app?vid=70c52fa1-91be-4fbd-9217-7a0c668f9310","ios":"levelo://app?vid=70c52fa1-91be-4fbd-9217-7a0c668f9310"},"vehicle_type_id":"4","last_reported":1702094930,"current_range_meters":27600,"station_id":"ce4bhpp2rcd13ifvqhfg","pricing_plan_id":"free"},{"bike_id":"5215ad78-0811-4492-88ee-04afc35bf3a5","system_id":"levelo_inurba_marseille","lat":43.298768,"lon":5.43643,"is_reserved":false,"is_disabled":false,"rental_uris":{"android":"levelo://app?vid=5215ad78-0811-4492-88ee-04afc35bf3a5","ios":"levelo://app?vid=5215ad78-0811-4492-88ee-04afc35bf3a5"},"vehicle_type_id":"4","last_reported":1702094930,"current_range_meters":31200,"station_id":"ce4bhpp2rcd13ifvqhfg","pricing_plan_id":"free"},{"bike_id":"c16ba598-e268-423a-ba8d-6002d2a98117","system_id":"levelo_inurba_marseille","lat":43.298768,"lon":5.43643,"is_reserved":false,"is_disabled":false,"rental_uris":{"android":"levelo://app?vid=c16ba598-e268-423a-ba8d-6002d2a98117","ios":"levelo://app?vid=c16ba598-e268-423a-ba8d-6002d2a98117"},"vehicle_type_id":"4","last_reported":1702094930,"current_range_meters":29600,"station_id":"ce4bhpp2rcd13ifvqhfg","pricing_plan_id":"free"},{"bike_id":"6b17b896-99f2-456b-929e-df3811eeb274","system_id":"levelo_inurba_marseille","lat":43.298768,"lon":5.43643,"is_reserved":false,"is_disabled":false,"rental_uris":{"android":"levelo://app?vid=6b17b896-99f2-456b-929e-df3811eeb274","ios":"levelo://app?vid=6b17b896-99f2-456b-929e-df3811eeb274"},"vehicle_type_id":"4","last_reported":1702094930,"current_range_meters":28000,"station_id":"ce4bhpp2rcd13ifvqhfg","pricing_plan_id":"free"},{"bike_id":"ca4db8a8-5b98-4b78-bc3d-514f38028a3d","system_id":"levelo_inurba_marseille","lat":43.298768,"lon":5.43643,"is_reserved":false,"is_disabled":false,"rental_uris":{"android":"levelo://app?vid=ca4db8a8-5b98-4b78-bc3d-514f38028a3d","ios":"levelo://app?vid=ca4db8a8-5b98-4b78-bc3d-514f38028a3d"},"vehicle_type_id":"4","last_reported":1702094930,"current_range_meters":31200,"station_id":"ce4bhpp2rcd13ifvqhfg","pricing_plan_id":"free"},{"bike_id":"83e2018e-7127-4415-8bbf-2e347a9c6750","system_id":"levelo_inurba_marseille","lat":43.298974,"lon":5.436742,"is_reserved":false,"is_disabled":false,"rental_uris":{"android":"levelo://app?vid=83e2018e-7127-4415-8bbf-2e347a9c6750","ios":"levelo://app?vid=83e2018e-7127-4415-8bbf-2e347a9c6750"},"vehicle_type_id":"4","last_reported":1702094930,"current_range_meters":400,"station_id":"ce4bhpp2rcd13ifvqhfg","pricing_plan_id":"free"},{"bike_id":"35808219-26b6-4380-82a5-b4564699733a","system_id":"levelo_inurba_marseille","lat":43.298992,"lon":5.436767,"is_reserved":false,"is_disabled":false,"rental_uris":{"android":"levelo://app?vid=35808219-26b6-4380-82a5-b4564699733a","ios":"levelo://app?vid=35808219-26b6-4380-82a5-b4564699733a"},"vehicle_type_id":"4","last_reported":1702094930,"current_range_meters":13200,"station_id":"","pricing_plan_id":"free"},{"bike_id":"f56607a5-8c0d-4214-a86e-b954d1fd309d","system_id":"levelo_inurba_marseille","lat":43.28158,"lon":5.42639,"is_reserved":false,"is_disabled":false,"rental_uris":{"android":"levelo://app?vid=f56607a5-8c0d-4214-a86e-b954d1fd309d","ios":"levelo://app?vid=f56607a5-8c0d-4214-a86e-b954d1fd309d"},"vehicle_type_id":"4","last_reported":1702094930,"current_range_meters":1600,"station_id":"ce4bhnh2rcd13ifvqgug","pricing_plan_id":"free"},{"bike_id":"2d70b9fc-8d42-4ce5-98c1-cdfca249cc2c","system_id":"levelo_inurba_marseille","lat":43.281548,"lon":5.42643,"is_reserved":false,"is_disabled":false,"rental_uris":{"android":"levelo://app?vid=2d70b9fc-8d42-4ce5-98c1-cdfca249cc2c","ios":"levelo://app?vid=2d70b9fc-8d42-4ce5-98c1-cdfca249cc2c"},"vehicle_type_id":"4","last_reported":1702094930,"current_range_meters":29600,"station_id":"ce4bhnh2rcd13ifvqgug","pricing_plan_id":"free"},{"bike_id":"bf0f85ca-5630-4c1a-b3f1-d0fc5f67252f","system_id":"levelo_inurba_marseille","lat":43.281548,"lon":5.42643,"is_reserved":false,"is_disabled":false,"rental_uris":{"android":"levelo://app?vid=bf0f85ca-5630-4c1a-b3f1-d0fc5f67252f","ios":"levelo://app?vid=bf0f85ca-5630-4c1a-b3f1-d0fc5f67252f"},"vehicle_type_id":"4","last_reported":1702094930,"current_range_meters":27600,"station_id":"ce4bhnh2rcd13ifvqgug","pricing_plan_id":"free"},{"bike_id":"2462e9d0-51ce-4306-b299-30eaad24f763","system_id":"levelo_inurba_marseille","lat":43.2607,"lon":5.393983,"is_reserved":false,"is_disabled":false,"rental_uris":{"android":"levelo://app?vid=2462e9d0-51ce-4306-b299-30eaad24f763","ios":"levelo://app?vid=2462e9d0-51ce-4306-b299-30eaad24f763"},"vehicle_type_id":"4","last_reported":1702094930,"current_range_meters":26000,"station_id":"ce4bhh92rcd13ifvqfj0","pricing_plan_id":"free"},{"bike_id":"5c6c0a20-db46-4949-8b8f-87d395f35c91","system_id":"levelo_inurba_marseille","lat":43.275028,"lon":5.424534,"is_reserved":false,"is_disabled":false,"rental_uris":{"android":"levelo://app?vid=5c6c0a20-db46-4949-8b8f-87d395f35c91","ios":"levelo://app?vid=5c6c0a20-db46-4949-8b8f-87d395f35c91"},"vehicle_type_id":"4","last_reported":1702094930,"current_range_meters":27200,"station_id":"ce4bhn92rcd13ifvqgrg","pricing_plan_id":"free"},{"bike_id":"81142fc0-e6d9-4e1f-ae31-ca988411e3e0","system_id":"levelo_inurba_marseille","lat":43.25578,"lon":5.38238,"is_reserved":false,"is_disabled":false,"rental_uris":{"android":"levelo://app?vid=81142fc0-e6d9-4e1f-ae31-ca988411e3e0","ios":"levelo://app?vid=81142fc0-e6d9-4e1f-ae31-ca988411e3e0"},"vehicle_type_id":"4","last_reported":1702094930,"current_range_meters":25200,"station_id":"ce4bhih2rcd13ifvqfs0","pricing_plan_id":"free"},{"bike_id":"354e625b-19c8-4c14-beeb-5ea32b3cdae5","system_id":"levelo_inurba_marseille","lat":43.258224,"lon":5.394369,"is_reserved":false,"is_disabled":false,"rental_uris":{"android":"levelo://app?vid=354e625b-19c8-4c14-beeb-5ea32b3cdae5","ios":"levelo://app?vid=354e625b-19c8-4c14-beeb-5ea32b3cdae5"},"vehicle_type_id":"4","last_reported":1702094930,"current_range_meters":29200,"station_id":"ce4bhip2rcd13ifvqft0","pricing_plan_id":"free"},{"bike_id":"8abbf737-67d5-43e8-a940-280135ae0cd8","system_id":"levelo_inurba_marseille","lat":43.254947,"lon":5.376454,"is_reserved":false,"is_disabled":false,"rental_uris":{"android":"levelo://app?vid=8abbf737-67d5-43e8-a940-280135ae0cd8","ios":"levelo://app?vid=8abbf737-67d5-43e8-a940-280135ae0cd8"},"vehicle_type_id":"4","last_reported":1702094930,"current_range_meters":31200,"station_id":"ce4bhh12rcd13ifvqff0","pricing_plan_id":"free"},{"bike_id":"6ed089ef-9932-4c16-91e9-dafe344c662d","system_id":"levelo_inurba_marseille","lat":43.27074,"lon":5.42277,"is_reserved":false,"is_disabled":false,"rental_uris":{"android":"levelo://app?vid=6ed089ef-9932-4c16-91e9-dafe344c662d","ios":"levelo://app?vid=6ed089ef-9932-4c16-91e9-dafe344c662d"},"vehicle_type_id":"4","last_reported":1702094930,"current_range_meters":3200,"station_id":"ce4bhk92rcd13ifvqgb0","pricing_plan_id":"free"},{"bike_id":"b892416b-65d0-482e-a86c-e596080a2ad5","system_id":"levelo_inurba_marseille","lat":43.27069,"lon":5.42282,"is_reserved":false,"is_disabled":false,"rental_uris":{"android":"levelo://app?vid=b892416b-65d0-482e-a86c-e596080a2ad5","ios":"levelo://app?vid=b892416b-65d0-482e-a86c-e596080a2ad5"},"vehicle_type_id":"4","last_reported":1702094930,"current_range_meters":24000,"station_id":"ce4bhk92rcd13ifvqgb0","pricing_plan_id":"free"},{"bike_id":"8544b240-4563-4356-b729-81f1ce86de4e","system_id":"levelo_inurba_marseille","lat":43.258658,"lon":5.398935,"is_reserved":false,"is_disabled":false,"rental_uris":{"android":"levelo://app?vid=8544b240-4563-4356-b729-81f1ce86de4e","ios":"levelo://app?vid=8544b240-4563-4356-b729-81f1ce86de4e"},"vehicle_type_id":"4","last_reported":1702094930,"current_range_meters":31200,"station_id":"ce4bhl92rcd13ifvqghg","pricing_plan_id":"free"},{"bike_id":"c4df22de-68a0-40f7-b2c2-6a6aaf6b0bbb","system_id":"levelo_inurba_marseille","lat":43.258658,"lon":5.398935,"is_reserved":false,"is_disabled":false,"rental_uris":{"android":"levelo://app?vid=c4df22de-68a0-40f7-b2c2-6a6aaf6b0bbb","ios":"levelo://app?vid=c4df22de-68a0-40f7-b2c2-6a6aaf6b0bbb"},"vehicle_type_id":"4","last_reported":1702094930,"current_range_meters":20800,"station_id":"ce4bhl92rcd13ifvqghg","pricing_plan_id":"free"},{"bike_id":"9c0ddfb3-23a0-4f2d-87b9-6806835818c0","system_id":"levelo_inurba_marseille","lat":43.257079,"lon":5.411051,"is_reserved":false,"is_disabled":false,"rental_uris":{"android":"levelo://app?vid=9c0ddfb3-23a0-4f2d-87b9-6806835818c0","ios":"levelo://app?vid=9c0ddfb3-23a0-4f2d-87b9-6806835818c0"},"vehicle_type_id":"4","last_reported":1702094930,"current_range_meters":26400,"station_id":"ce4bhkp2rcd13ifvqgd0","pricing_plan_id":"free"},{"bike_id":"3029dce1-b5e1-4a93-964f-e286d4fbd784","system_id":"levelo_inurba_marseille","lat":43.250009,"lon":5.389195,"is_reserved":false,"is_disabled":false,"rental_uris":{"android":"levelo://app?vid=3029dce1-b5e1-4a93-964f-e286d4fbd784","ios":"levelo://app?vid=3029dce1-b5e1-4a93-964f-e286d4fbd784"},"vehicle_type_id":"4","last_reported":1702094930,"current_range_meters":27200,"station_id":"ce4bhgp2rcd13ifvqfd0","pricing_plan_id":"free"},{"bike_id":"8508fa21-fb93-4b49-a453-60acc70e61cc","system_id":"levelo_inurba_marseille","lat":43.24803,"lon":5.37452,"is_reserved":false,"is_disabled":false,"rental_uris":{"android":"levelo://app?vid=8508fa21-fb93-4b49-a453-60acc70e61cc","ios":"levelo://app?vid=8508fa21-fb93-4b49-a453-60acc70e61cc"},"vehicle_type_id":"4","last_reported":1702094930,"current_range_meters":18400,"station_id":"ce4bhgh2rcd13ifvqfb0","pricing_plan_id":"free"},{"bike_id":"c0a43abc-646e-4fe3-9405-a4ff532063ee","system_id":"levelo_inurba_marseille","lat":43.250966,"lon":5.395186,"is_reserved":false,"is_disabled":false,"rental_uris":{"android":"levelo://app?vid=c0a43abc-646e-4fe3-9405-a4ff532063ee","ios":"levelo://app?vid=c0a43abc-646e-4fe3-9405-a4ff532063ee"},"vehicle_type_id":"4","last_reported":1702094930,"current_range_meters":26000,"station_id":"ce4bhm12rcd13ifvqgkg","pricing_plan_id":"free"},{"bike_id":"8942007c-b796-4f77-9496-778676fd6edc","system_id":"levelo_inurba_marseille","lat":43.250966,"lon":5.395186,"is_reserved":false,"is_disabled":false,"rental_uris":{"android":"levelo://app?vid=8942007c-b796-4f77-9496-778676fd6edc","ios":"levelo://app?vid=8942007c-b796-4f77-9496-778676fd6edc"},"vehicle_type_id":"4","last_reported":1702094930,"current_range_meters":30000,"station_id":"ce4bhm12rcd13ifvqgkg","pricing_plan_id":"free"},{"bike_id":"8913cceb-d73f-4432-9e1f-266f1ce1367e","system_id":"levelo_inurba_marseille","lat":43.25102,"lon":5.403214,"is_reserved":false,"is_disabled":false,"rental_uris":{"android":"levelo://app?vid=8913cceb-d73f-4432-9e1f-266f1ce1367e","ios":"levelo://app?vid=8913cceb-d73f-4432-9e1f-266f1ce1367e"},"vehicle_type_id":"4","last_reported":1702094930,"current_range_meters":28000,"station_id":"ce4bhlh2rcd13ifvqgig","pricing_plan_id":"free"},{"bike_id":"d8ec6ef7-52db-4dde-9927-1128a313208a","system_id":"levelo_inurba_marseille","lat":43.246461,"lon":5.389014,"is_reserved":false,"is_disabled":false,"rental_uris":{"android":"levelo://app?vid=d8ec6ef7-52db-4dde-9927-1128a313208a","ios":"levelo://app?vid=d8ec6ef7-52db-4dde-9927-1128a313208a"},"vehicle_type_id":"4","last_reported":1702094930,"current_range_meters":25200,"station_id":"ce4bhg12rcd13ifvqf60","pricing_plan_id":"free"},{"bike_id":"6fc9a2eb-0bc4-4389-b1f2-a7c90c2f9a07","system_id":"levelo_inurba_marseille","lat":43.24382,"lon":5.37054,"is_reserved":false,"is_disabled":false,"rental_uris":{"android":"levelo://app?vid=6fc9a2eb-0bc4-4389-b1f2-a7c90c2f9a07","ios":"levelo://app?vid=6fc9a2eb-0bc4-4389-b1f2-a7c90c2f9a07"},"vehicle_type_id":"4","last_reported":1702094930,"current_range_meters":26400,"station_id":"ce4bhhh2rcd13ifvqfk0","pricing_plan_id":"free"},{"bike_id":"b3705516-da65-4902-b345-4cc53e261fdf","system_id":"levelo_inurba_marseille","lat":43.2408,"lon":5.37759,"is_reserved":false,"is_disabled":false,"rental_uris":{"android":"levelo://app?vid=b3705516-da65-4902-b345-4cc53e261fdf","ios":"levelo://app?vid=b3705516-da65-4902-b345-4cc53e261fdf"},"vehicle_type_id":"4","last_reported":1702094930,"current_range_meters":19600,"station_id":"","pricing_plan_id":"free"},{"bike_id":"868bb225-bffe-4b2e-9a8b-56b2a9d28e58","system_id":"levelo_inurba_marseille","lat":43.24075,"lon":5.3776,"is_reserved":false,"is_disabled":false,"rental_uris":{"android":"levelo://app?vid=868bb225-bffe-4b2e-9a8b-56b2a9d28e58","ios":"levelo://app?vid=868bb225-bffe-4b2e-9a8b-56b2a9d28e58"},"vehicle_type_id":"4","last_reported":1702094930,"current_range_meters":19200,"station_id":"ce4bhnp2rcd13ifvqgvg","pricing_plan_id":"free"},{"bike_id":"549f739b-1226-445d-b2da-b266488cad53","system_id":"levelo_inurba_marseille","lat":43.240623,"lon":5.377642,"is_reserved":false,"is_disabled":false,"rental_uris":{"android":"levelo://app?vid=549f739b-1226-445d-b2da-b266488cad53","ios":"levelo://app?vid=549f739b-1226-445d-b2da-b266488cad53"},"vehicle_type_id":"4","last_reported":1702094930,"current_range_meters":20800,"station_id":"ce4bhnp2rcd13ifvqgvg","pricing_plan_id":"free"},{"bike_id":"07f04f98-06c9-4309-b3fe-4415621f48f3","system_id":"levelo_inurba_marseille","lat":43.23971,"lon":5.36632,"is_reserved":false,"is_disabled":false,"rental_uris":{"android":"levelo://app?vid=07f04f98-06c9-4309-b3fe-4415621f48f3","ios":"levelo://app?vid=07f04f98-06c9-4309-b3fe-4415621f48f3"},"vehicle_type_id":"4","last_reported":1702094930,"current_range_meters":25200,"station_id":"ce4bhi12rcd13ifvqfp0","pricing_plan_id":"free"},{"bike_id":"f3af0f29-c6b3-45f1-8540-3a752563e91b","system_id":"levelo_inurba_marseille","lat":43.239682,"lon":5.366293,"is_reserved":false,"is_disabled":false,"rental_uris":{"android":"levelo://app?vid=f3af0f29-c6b3-45f1-8540-3a752563e91b","ios":"levelo://app?vid=f3af0f29-c6b3-45f1-8540-3a752563e91b"},"vehicle_type_id":"4","last_reported":1702094930,"current_range_meters":12000,"station_id":"ce4bhi12rcd13ifvqfp0","pricing_plan_id":"free"},{"bike_id":"93fd8d33-bd13-40ab-b32d-bfac25f014e4","system_id":"levelo_inurba_marseille","lat":43.239588,"lon":5.366238,"is_reserved":false,"is_disabled":false,"rental_uris":{"android":"levelo://app?vid=93fd8d33-bd13-40ab-b32d-bfac25f014e4","ios":"levelo://app?vid=93fd8d33-bd13-40ab-b32d-bfac25f014e4"},"vehicle_type_id":"4","last_reported":1702094930,"current_range_meters":10400,"station_id":"ce4bhi12rcd13ifvqfp0","pricing_plan_id":"free"},{"bike_id":"a6a4b85e-4149-43b9-9e51-1a32a90de556","system_id":"levelo_inurba_marseille","lat":43.239588,"lon":5.366238,"is_reserved":false,"is_disabled":false,"rental_uris":{"android":"levelo://app?vid=a6a4b85e-4149-43b9-9e51-1a32a90de556","ios":"levelo://app?vid=a6a4b85e-4149-43b9-9e51-1a32a90de556"},"vehicle_type_id":"4","last_reported":1702094930,"current_range_meters":28000,"station_id":"ce4bhi12rcd13ifvqfp0","pricing_plan_id":"free"},{"bike_id":"19de1d90-0ef7-4697-bd3a-3e98bd2bf2e7","system_id":"levelo_inurba_marseille","lat":43.239588,"lon":5.366238,"is_reserved":false,"is_disabled":false,"rental_uris":{"android":"levelo://app?vid=19de1d90-0ef7-4697-bd3a-3e98bd2bf2e7","ios":"levelo://app?vid=19de1d90-0ef7-4697-bd3a-3e98bd2bf2e7"},"vehicle_type_id":"4","last_reported":1702094930,"current_range_meters":31200,"station_id":"ce4bhi12rcd13ifvqfp0","pricing_plan_id":"free"},{"bike_id":"c044812f-23c8-40b9-9235-f3a1ed3758bf","system_id":"levelo_inurba_marseille","lat":43.239588,"lon":5.366238,"is_reserved":false,"is_disabled":false,"rental_uris":{"android":"levelo://app?vid=c044812f-23c8-40b9-9235-f3a1ed3758bf","ios":"levelo://app?vid=c044812f-23c8-40b9-9235-f3a1ed3758bf"},"vehicle_type_id":"4","last_reported":1702094930,"current_range_meters":16400,"station_id":"ce4bhi12rcd13ifvqfp0","pricing_plan_id":"free"},{"bike_id":"93954539-37ab-42cb-8148-c6cd6174d0ce","system_id":"levelo_inurba_marseille","lat":43.23962,"lon":5.36632,"is_reserved":false,"is_disabled":false,"rental_uris":{"android":"levelo://app?vid=93954539-37ab-42cb-8148-c6cd6174d0ce","ios":"levelo://app?vid=93954539-37ab-42cb-8148-c6cd6174d0ce"},"vehicle_type_id":"4","last_reported":1702094930,"current_range_meters":31200,"station_id":"ce4bhi12rcd13ifvqfp0","pricing_plan_id":"free"},{"bike_id":"bb4b886c-66b7-4f91-b51d-a408ecac68f2","system_id":"levelo_inurba_marseille","lat":43.239588,"lon":5.366238,"is_reserved":false,"is_disabled":false,"rental_uris":{"android":"levelo://app?vid=bb4b886c-66b7-4f91-b51d-a408ecac68f2","ios":"levelo://app?vid=bb4b886c-66b7-4f91-b51d-a408ecac68f2"},"vehicle_type_id":"4","last_reported":1702094930,"current_range_meters":9600,"station_id":"ce4bhi12rcd13ifvqfp0","pricing_plan_id":"free"},{"bike_id":"fc8a7774-7978-464f-bc39-ef33e8146288","system_id":"levelo_inurba_marseille","lat":43.239588,"lon":5.366238,"is_reserved":false,"is_disabled":false,"rental_uris":{"android":"levelo://app?vid=fc8a7774-7978-464f-bc39-ef33e8146288","ios":"levelo://app?vid=fc8a7774-7978-464f-bc39-ef33e8146288"},"vehicle_type_id":"4","last_reported":1702094930,"current_range_meters":30800,"station_id":"ce4bhi12rcd13ifvqfp0","pricing_plan_id":"free"},{"bike_id":"1d8e9bd7-e6ff-447e-b845-0049da0206d3","system_id":"levelo_inurba_marseille","lat":43.231919,"lon":5.355532,"is_reserved":false,"is_disabled":false,"rental_uris":{"android":"levelo://app?vid=1d8e9bd7-e6ff-447e-b845-0049da0206d3","ios":"levelo://app?vid=1d8e9bd7-e6ff-447e-b845-0049da0206d3"},"vehicle_type_id":"4","last_reported":1702094930,"current_range_meters":29200,"station_id":"ce4bhu92rcd13ifvqi70","pricing_plan_id":"free"},{"bike_id":"19ba5a50-7ba0-4da5-96be-2e26583e1f0f","system_id":"levelo_inurba_marseille","lat":43.231919,"lon":5.355532,"is_reserved":false,"is_disabled":false,"rental_uris":{"android":"levelo://app?vid=19ba5a50-7ba0-4da5-96be-2e26583e1f0f","ios":"levelo://app?vid=19ba5a50-7ba0-4da5-96be-2e26583e1f0f"},"vehicle_type_id":"4","last_reported":1702094930,"current_range_meters":14800,"station_id":"ce4bhu92rcd13ifvqi70","pricing_plan_id":"free"},{"bike_id":"c3cc5da6-5c49-4257-ab3a-242bb99906d5","system_id":"levelo_inurba_marseille","lat":43.23196,"lon":5.35543,"is_reserved":false,"is_disabled":false,"rental_uris":{"android":"levelo://app?vid=c3cc5da6-5c49-4257-ab3a-242bb99906d5","ios":"levelo://app?vid=c3cc5da6-5c49-4257-ab3a-242bb99906d5"},"vehicle_type_id":"4","last_reported":1702094930,"current_range_meters":31200,"station_id":"ce4bhu92rcd13ifvqi70","pricing_plan_id":"free"},{"bike_id":"2d162bbc-a411-450c-a9d5-a61a23484d14","system_id":"levelo_inurba_marseille","lat":43.231919,"lon":5.355532,"is_reserved":false,"is_disabled":false,"rental_uris":{"android":"levelo://app?vid=2d162bbc-a411-450c-a9d5-a61a23484d14","ios":"levelo://app?vid=2d162bbc-a411-450c-a9d5-a61a23484d14"},"vehicle_type_id":"4","last_reported":1702094930,"current_range_meters":31200,"station_id":"ce4bhu92rcd13ifvqi70","pricing_plan_id":"free"},{"bike_id":"c6004eb4-873a-4661-a0e7-ea9140f6bd61","system_id":"levelo_inurba_marseille","lat":43.231919,"lon":5.355532,"is_reserved":false,"is_disabled":false,"rental_uris":{"android":"levelo://app?vid=c6004eb4-873a-4661-a0e7-ea9140f6bd61","ios":"levelo://app?vid=c6004eb4-873a-4661-a0e7-ea9140f6bd61"},"vehicle_type_id":"4","last_reported":1702094930,"current_range_meters":30400,"station_id":"ce4bhu92rcd13ifvqi70","pricing_plan_id":"free"},{"bike_id":"5c4c14b0-15b0-4600-8dc6-cdbde00bef8b","system_id":"levelo_inurba_marseille","lat":43.231886,"lon":5.39975,"is_reserved":false,"is_disabled":false,"rental_uris":{"android":"levelo://app?vid=5c4c14b0-15b0-4600-8dc6-cdbde00bef8b","ios":"levelo://app?vid=5c4c14b0-15b0-4600-8dc6-cdbde00bef8b"},"vehicle_type_id":"4","last_reported":1702094930,"current_range_meters":31200,"station_id":"ce4bhn12rcd13ifvqgqg","pricing_plan_id":"free"},{"bike_id":"be845917-f52e-4a9f-83ff-909546a09332","system_id":"levelo_inurba_marseille","lat":43.231794,"lon":5.400052,"is_reserved":false,"is_disabled":false,"rental_uris":{"android":"levelo://app?vid=be845917-f52e-4a9f-83ff-909546a09332","ios":"levelo://app?vid=be845917-f52e-4a9f-83ff-909546a09332"},"vehicle_type_id":"4","last_reported":1702094930,"current_range_meters":31200,"station_id":"ce4bhn12rcd13ifvqgqg","pricing_plan_id":"free"},{"bike_id":"d7354235-71f2-4aeb-aa26-9572f0d131ef","system_id":"levelo_inurba_marseille","lat":43.231865,"lon":5.399806,"is_reserved":false,"is_disabled":false,"rental_uris":{"android":"levelo://app?vid=d7354235-71f2-4aeb-aa26-9572f0d131ef","ios":"levelo://app?vid=d7354235-71f2-4aeb-aa26-9572f0d131ef"},"vehicle_type_id":"4","last_reported":1702094930,"current_range_meters":31200,"station_id":"ce4bhn12rcd13ifvqgqg","pricing_plan_id":"free"},{"bike_id":"ff1109c9-6591-43d3-b5cd-adc2963d746c","system_id":"levelo_inurba_marseille","lat":43.23187,"lon":5.39986,"is_reserved":false,"is_disabled":false,"rental_uris":{"android":"levelo://app?vid=ff1109c9-6591-43d3-b5cd-adc2963d746c","ios":"levelo://app?vid=ff1109c9-6591-43d3-b5cd-adc2963d746c"},"vehicle_type_id":"4","last_reported":1702094930,"current_range_meters":22000,"station_id":"ce4bhn12rcd13ifvqgqg","pricing_plan_id":"free"},{"bike_id":"18920ba5-4ce1-41cc-940f-647195c9ea38","system_id":"levelo_inurba_marseille","lat":43.23185,"lon":5.399797,"is_reserved":false,"is_disabled":false,"rental_uris":{"android":"levelo://app?vid=18920ba5-4ce1-41cc-940f-647195c9ea38","ios":"levelo://app?vid=18920ba5-4ce1-41cc-940f-647195c9ea38"},"vehicle_type_id":"4","last_reported":1702094930,"current_range_meters":17200,"station_id":"ce4bhn12rcd13ifvqgqg","pricing_plan_id":"free"},{"bike_id":"6c4620c0-0d4d-493f-9950-4fd3c4457696","system_id":"levelo_inurba_marseille","lat":43.231794,"lon":5.400052,"is_reserved":false,"is_disabled":false,"rental_uris":{"android":"levelo://app?vid=6c4620c0-0d4d-493f-9950-4fd3c4457696","ios":"levelo://app?vid=6c4620c0-0d4d-493f-9950-4fd3c4457696"},"vehicle_type_id":"4","last_reported":1702094930,"current_range_meters":31200,"station_id":"ce4bhn12rcd13ifvqgqg","pricing_plan_id":"free"},{"bike_id":"1c690641-a72b-433d-b1af-d36beaec8f2e","system_id":"levelo_inurba_marseille","lat":43.231862,"lon":5.399954,"is_reserved":false,"is_disabled":false,"rental_uris":{"android":"levelo://app?vid=1c690641-a72b-433d-b1af-d36beaec8f2e","ios":"levelo://app?vid=1c690641-a72b-433d-b1af-d36beaec8f2e"},"vehicle_type_id":"4","last_reported":1702094930,"current_range_meters":28000,"station_id":"ce4bhn12rcd13ifvqgqg","pricing_plan_id":"free"},{"bike_id":"34665144-ce30-468a-b218-97ce329e0725","system_id":"levelo_inurba_marseille","lat":43.23182,"lon":5.39976,"is_reserved":false,"is_disabled":false,"rental_uris":{"android":"levelo://app?vid=34665144-ce30-468a-b218-97ce329e0725","ios":"levelo://app?vid=34665144-ce30-468a-b218-97ce329e0725"},"vehicle_type_id":"4","last_reported":1702094930,"current_range_meters":20400,"station_id":"ce4bhn12rcd13ifvqgqg","pricing_plan_id":"free"},{"bike_id":"0ecf5d94-fb77-4683-9b33-b3a43c812fa1","system_id":"levelo_inurba_marseille","lat":43.231843,"lon":5.399887,"is_reserved":false,"is_disabled":false,"rental_uris":{"android":"levelo://app?vid=0ecf5d94-fb77-4683-9b33-b3a43c812fa1","ios":"levelo://app?vid=0ecf5d94-fb77-4683-9b33-b3a43c812fa1"},"vehicle_type_id":"4","last_reported":1702094930,"current_range_meters":18800,"station_id":"ce4bhn12rcd13ifvqgqg","pricing_plan_id":"free"},{"bike_id":"1364bb53-1feb-4c66-bc1b-fe1d777b1c2f","system_id":"levelo_inurba_marseille","lat":43.231818,"lon":5.399906,"is_reserved":false,"is_disabled":false,"rental_uris":{"android":"levelo://app?vid=1364bb53-1feb-4c66-bc1b-fe1d777b1c2f","ios":"levelo://app?vid=1364bb53-1feb-4c66-bc1b-fe1d777b1c2f"},"vehicle_type_id":"4","last_reported":1702094930,"current_range_meters":29600,"station_id":"ce4bhn12rcd13ifvqgqg","pricing_plan_id":"free"}]}}