{"last_updated":1779138058,"ttl":60,"version":"2.2","data":{"bikes":[{"bike_id":"7d641315-6110-49cb-a9dd-d637ff032de1","system_id":"levelo_inurba_marseille","lat":43.337444,"lon":5.374475,"is_reserved":false,"is_disabled":false,"rental_uris":{"android":"levelo://app?vid=7d641315-6110-49cb-a9dd-d637ff032de1","ios":"levelo://app?vid=7d641315-6110-49cb-a9dd-d637ff032de1"},"vehicle_type_id":"4","last_reported":1779138058,"current_range_meters":0,"station_id":"","pricing_plan_id":"cebpf4jnsgd1na2vs0mg"},{"bike_id":"2cd48a35-42f5-4905-a545-77ef65266664","system_id":"levelo_inurba_marseille","lat":43.29664,"lon":5.37769,"is_reserved":false,"is_disabled":true,"rental_uris":{"android":"levelo://app?vid=2cd48a35-42f5-4905-a545-77ef65266664","ios":"levelo://app?vid=2cd48a35-42f5-4905-a545-77ef65266664"},"vehicle_type_id":"4","last_reported":1779138058,"current_range_meters":2800,"station_id":"","pricing_plan_id":"cebpf4jnsgd1na2vs0mg"},{"bike_id":"b91d7374-8e56-4e76-95fb-2da619659bd1","system_id":"levelo_inurba_marseille","lat":43.24469,"lon":5.42539,"is_reserved":false,"is_disabled":false,"rental_uris":{"android":"levelo://app?vid=b91d7374-8e56-4e76-95fb-2da619659bd1","ios":"levelo://app?vid=b91d7374-8e56-4e76-95fb-2da619659bd1"},"vehicle_type_id":"4","last_reported":1779138058,"current_range_meters":2800,"station_id":"st_d4a3vfp97mjs738cd8kg","pricing_plan_id":"cebpf4jnsgd1na2vs0mg"},{"bike_id":"1f92479c-2697-4dfb-895d-f1ad26133df4","system_id":"levelo_inurba_marseille","lat":43.21756,"lon":5.34597,"is_reserved":false,"is_disabled":false,"rental_uris":{"android":"levelo://app?vid=1f92479c-2697-4dfb-895d-f1ad26133df4","ios":"levelo://app?vid=1f92479c-2697-4dfb-895d-f1ad26133df4"},"vehicle_type_id":"4","last_reported":1779138058,"current_range_meters":2800,"station_id":"st_cvj6r9ubvosntc0bgbag","pricing_plan_id":"cebpf4jnsgd1na2vs0mg"},{"bike_id":"e0bb6494-3107-45d5-bf57-d23876a00455","system_id":"levelo_inurba_marseille","lat":43.21184,"lon":5.35079,"is_reserved":false,"is_disabled":false,"rental_uris":{"android":"levelo://app?vid=e0bb6494-3107-45d5-bf57-d23876a00455","ios":"levelo://app?vid=e0bb6494-3107-45d5-bf57-d23876a00455"},"vehicle_type_id":"4","last_reported":1779138058,"current_range_meters":2800,"station_id":"st_cvj6sg6p6f1abm77japg","pricing_plan_id":"cebpf4jnsgd1na2vs0mg"},{"bike_id":"f1847048-603f-4223-b2b7-41607c2c4c22","system_id":"levelo_inurba_marseille","lat":43.29266,"lon":5.38438,"is_reserved":false,"is_disabled":false,"rental_uris":{"android":"levelo://app?vid=f1847048-603f-4223-b2b7-41607c2c4c22","ios":"levelo://app?vid=f1847048-603f-4223-b2b7-41607c2c4c22"},"vehicle_type_id":"4","last_reported":1779138058,"current_range_meters":2800,"station_id":"","pricing_plan_id":"cebpf4jnsgd1na2vs0mg"},{"bike_id":"ec979def-2f91-4068-9211-794157de7481","system_id":"levelo_inurba_marseille","lat":43.24657,"lon":5.41789,"is_reserved":false,"is_disabled":false,"rental_uris":{"android":"levelo://app?vid=ec979def-2f91-4068-9211-794157de7481","ios":"levelo://app?vid=ec979def-2f91-4068-9211-794157de7481"},"vehicle_type_id":"4","last_reported":1779138058,"current_range_meters":2800,"station_id":"","pricing_plan_id":"cebpf4jnsgd1na2vs0mg"},{"bike_id":"40c1c031-dac1-4a0a-97fa-4ae1d10831d4","system_id":"levelo_inurba_marseille","lat":43.24802,"lon":5.37453,"is_reserved":false,"is_disabled":false,"rental_uris":{"android":"levelo://app?vid=40c1c031-dac1-4a0a-97fa-4ae1d10831d4","ios":"levelo://app?vid=40c1c031-dac1-4a0a-97fa-4ae1d10831d4"},"vehicle_type_id":"4","last_reported":1779138058,"current_range_meters":2800,"station_id":"ce4bhgh2rcd13ifvqfb0","pricing_plan_id":"cebpf4jnsgd1na2vs0mg"},{"bike_id":"19497617-20ab-49f1-b41e-a1ee20d78737","system_id":"levelo_inurba_marseille","lat":43.28946,"lon":5.36632,"is_reserved":false,"is_disabled":false,"rental_uris":{"android":"levelo://app?vid=19497617-20ab-49f1-b41e-a1ee20d78737","ios":"levelo://app?vid=19497617-20ab-49f1-b41e-a1ee20d78737"},"vehicle_type_id":"4","last_reported":1779138058,"current_range_meters":3200,"station_id":"ce4bhap2rcd13ifvqek0","pricing_plan_id":"cebpf4jnsgd1na2vs0mg"},{"bike_id":"2acf6cbb-6fde-447b-b2bb-3d0a9fcfa8f6","system_id":"levelo_inurba_marseille","lat":43.29792,"lon":5.39332,"is_reserved":false,"is_disabled":false,"rental_uris":{"android":"levelo://app?vid=2acf6cbb-6fde-447b-b2bb-3d0a9fcfa8f6","ios":"levelo://app?vid=2acf6cbb-6fde-447b-b2bb-3d0a9fcfa8f6"},"vehicle_type_id":"4","last_reported":1779138058,"current_range_meters":3200,"station_id":"chh1huq6cuj3fo74tm60","pricing_plan_id":"cebpf4jnsgd1na2vs0mg"},{"bike_id":"9d79beaf-20d5-4b32-92ad-e89cf8c3ec13","system_id":"levelo_inurba_marseille","lat":43.29978,"lon":5.38476,"is_reserved":false,"is_disabled":false,"rental_uris":{"android":"levelo://app?vid=9d79beaf-20d5-4b32-92ad-e89cf8c3ec13","ios":"levelo://app?vid=9d79beaf-20d5-4b32-92ad-e89cf8c3ec13"},"vehicle_type_id":"4","last_reported":1779138058,"current_range_meters":3200,"station_id":"ce4bgj92rcd13ifvqbd0","pricing_plan_id":"cebpf4jnsgd1na2vs0mg"},{"bike_id":"4feeb0f1-9905-4845-86c7-e9af4964b610","system_id":"levelo_inurba_marseille","lat":43.29737,"lon":5.37685,"is_reserved":false,"is_disabled":false,"rental_uris":{"android":"levelo://app?vid=4feeb0f1-9905-4845-86c7-e9af4964b610","ios":"levelo://app?vid=4feeb0f1-9905-4845-86c7-e9af4964b610"},"vehicle_type_id":"4","last_reported":1779138058,"current_range_meters":3200,"station_id":"ce4bgkh2rcd13ifvqbl0","pricing_plan_id":"cebpf4jnsgd1na2vs0mg"},{"bike_id":"9751b1f1-7f72-438a-b2f0-fae292637e11","system_id":"levelo_inurba_marseille","lat":43.29842,"lon":5.36267,"is_reserved":false,"is_disabled":false,"rental_uris":{"android":"levelo://app?vid=9751b1f1-7f72-438a-b2f0-fae292637e11","ios":"levelo://app?vid=9751b1f1-7f72-438a-b2f0-fae292637e11"},"vehicle_type_id":"4","last_reported":1779138058,"current_range_meters":3200,"station_id":"ce4bgpp2rcd13ifvqc3g","pricing_plan_id":"cebpf4jnsgd1na2vs0mg"},{"bike_id":"5f4ddabc-9267-4f5c-b393-db6fd6acaf7d","system_id":"levelo_inurba_marseille","lat":43.25139,"lon":5.40317,"is_reserved":false,"is_disabled":true,"rental_uris":{"android":"levelo://app?vid=5f4ddabc-9267-4f5c-b393-db6fd6acaf7d","ios":"levelo://app?vid=5f4ddabc-9267-4f5c-b393-db6fd6acaf7d"},"vehicle_type_id":"4","last_reported":1779138058,"current_range_meters":3200,"station_id":"ce4bhlh2rcd13ifvqgig","pricing_plan_id":"cebpf4jnsgd1na2vs0mg"},{"bike_id":"bb719097-49f9-4ef8-b021-ede068d8c8f6","system_id":"levelo_inurba_marseille","lat":43.2583,"lon":5.39433,"is_reserved":false,"is_disabled":false,"rental_uris":{"android":"levelo://app?vid=bb719097-49f9-4ef8-b021-ede068d8c8f6","ios":"levelo://app?vid=bb719097-49f9-4ef8-b021-ede068d8c8f6"},"vehicle_type_id":"4","last_reported":1779138058,"current_range_meters":3200,"station_id":"ce4bhip2rcd13ifvqft0","pricing_plan_id":"cebpf4jnsgd1na2vs0mg"},{"bike_id":"483dff16-5e91-4eae-8d48-a335b6f5c383","system_id":"levelo_inurba_marseille","lat":43.28625,"lon":5.35094,"is_reserved":false,"is_disabled":false,"rental_uris":{"android":"levelo://app?vid=483dff16-5e91-4eae-8d48-a335b6f5c383","ios":"levelo://app?vid=483dff16-5e91-4eae-8d48-a335b6f5c383"},"vehicle_type_id":"4","last_reported":1779138058,"current_range_meters":3200,"station_id":"ce4bhch2rcd13ifvqeug","pricing_plan_id":"cebpf4jnsgd1na2vs0mg"},{"bike_id":"d809fd00-694f-470d-b3b3-9c1f2315aeef","system_id":"levelo_inurba_marseille","lat":43.21727,"lon":5.34566,"is_reserved":false,"is_disabled":false,"rental_uris":{"android":"levelo://app?vid=d809fd00-694f-470d-b3b3-9c1f2315aeef","ios":"levelo://app?vid=d809fd00-694f-470d-b3b3-9c1f2315aeef"},"vehicle_type_id":"4","last_reported":1779138058,"current_range_meters":3200,"station_id":"st_cvj6r9ubvosntc0bgbag","pricing_plan_id":"cebpf4jnsgd1na2vs0mg"},{"bike_id":"67b69975-820d-4e12-abcf-d196a36274a7","system_id":"levelo_inurba_marseille","lat":43.25581,"lon":5.38259,"is_reserved":false,"is_disabled":false,"rental_uris":{"android":"levelo://app?vid=67b69975-820d-4e12-abcf-d196a36274a7","ios":"levelo://app?vid=67b69975-820d-4e12-abcf-d196a36274a7"},"vehicle_type_id":"4","last_reported":1779138058,"current_range_meters":3600,"station_id":"ce4bhih2rcd13ifvqfs0","pricing_plan_id":"cebpf4jnsgd1na2vs0mg"},{"bike_id":"b6027c58-314b-4731-a44d-3a175bdcf956","system_id":"levelo_inurba_marseille","lat":43.2972,"lon":5.36596,"is_reserved":false,"is_disabled":false,"rental_uris":{"android":"levelo://app?vid=b6027c58-314b-4731-a44d-3a175bdcf956","ios":"levelo://app?vid=b6027c58-314b-4731-a44d-3a175bdcf956"},"vehicle_type_id":"4","last_reported":1779138058,"current_range_meters":3600,"station_id":"ce4bgn12rcd13ifvqbt0","pricing_plan_id":"cebpf4jnsgd1na2vs0mg"},{"bike_id":"d1cee1d6-850f-4008-9e7f-92438d58fc13","system_id":"levelo_inurba_marseille","lat":43.27188,"lon":5.40982,"is_reserved":false,"is_disabled":false,"rental_uris":{"android":"levelo://app?vid=d1cee1d6-850f-4008-9e7f-92438d58fc13","ios":"levelo://app?vid=d1cee1d6-850f-4008-9e7f-92438d58fc13"},"vehicle_type_id":"4","last_reported":1779138058,"current_range_meters":3600,"station_id":"ce4bhl12rcd13ifvqgf0","pricing_plan_id":"cebpf4jnsgd1na2vs0mg"},{"bike_id":"7df43883-c1e0-4da1-a102-d45e33555e9a","system_id":"levelo_inurba_marseille","lat":43.30227,"lon":5.39853,"is_reserved":false,"is_disabled":false,"rental_uris":{"android":"levelo://app?vid=7df43883-c1e0-4da1-a102-d45e33555e9a","ios":"levelo://app?vid=7df43883-c1e0-4da1-a102-d45e33555e9a"},"vehicle_type_id":"4","last_reported":1779138058,"current_range_meters":3600,"station_id":"","pricing_plan_id":"cebpf4jnsgd1na2vs0mg"},{"bike_id":"9d18dc58-248c-49c8-a233-5fa2af77daec","system_id":"levelo_inurba_marseille","lat":43.28653,"lon":5.37785,"is_reserved":false,"is_disabled":false,"rental_uris":{"android":"levelo://app?vid=9d18dc58-248c-49c8-a233-5fa2af77daec","ios":"levelo://app?vid=9d18dc58-248c-49c8-a233-5fa2af77daec"},"vehicle_type_id":"4","last_reported":1779138058,"current_range_meters":3600,"station_id":"","pricing_plan_id":"cebpf4jnsgd1na2vs0mg"},{"bike_id":"cdee817c-caa2-4adb-8af4-205c5b59b01a","system_id":"levelo_inurba_marseille","lat":43.24954,"lon":5.40483,"is_reserved":false,"is_disabled":false,"rental_uris":{"android":"levelo://app?vid=cdee817c-caa2-4adb-8af4-205c5b59b01a","ios":"levelo://app?vid=cdee817c-caa2-4adb-8af4-205c5b59b01a"},"vehicle_type_id":"4","last_reported":1779138058,"current_range_meters":3600,"station_id":"st_d2ngiaodas8pm72gd1h0","pricing_plan_id":"cebpf4jnsgd1na2vs0mg"},{"bike_id":"1b3cec47-fdb6-491c-8219-01412d92358c","system_id":"levelo_inurba_marseille","lat":43.26085,"lon":5.39396,"is_reserved":false,"is_disabled":false,"rental_uris":{"android":"levelo://app?vid=1b3cec47-fdb6-491c-8219-01412d92358c","ios":"levelo://app?vid=1b3cec47-fdb6-491c-8219-01412d92358c"},"vehicle_type_id":"4","last_reported":1779138058,"current_range_meters":3600,"station_id":"ce4bhh92rcd13ifvqfj0","pricing_plan_id":"cebpf4jnsgd1na2vs0mg"},{"bike_id":"e6a80555-6ae0-44c1-99a1-fdcc80bb51a3","system_id":"levelo_inurba_marseille","lat":43.29549,"lon":5.42283,"is_reserved":false,"is_disabled":false,"rental_uris":{"android":"levelo://app?vid=e6a80555-6ae0-44c1-99a1-fdcc80bb51a3","ios":"levelo://app?vid=e6a80555-6ae0-44c1-99a1-fdcc80bb51a3"},"vehicle_type_id":"4","last_reported":1779138058,"current_range_meters":3600,"station_id":"ce4bhph2rcd13ifvqhdg","pricing_plan_id":"cebpf4jnsgd1na2vs0mg"},{"bike_id":"9bb94f8d-4bf5-49c3-9aab-5f956045678e","system_id":"levelo_inurba_marseille","lat":43.2835,"lon":5.3811,"is_reserved":false,"is_disabled":false,"rental_uris":{"android":"levelo://app?vid=9bb94f8d-4bf5-49c3-9aab-5f956045678e","ios":"levelo://app?vid=9bb94f8d-4bf5-49c3-9aab-5f956045678e"},"vehicle_type_id":"4","last_reported":1779138058,"current_range_meters":3600,"station_id":"ce4bh412rcd13ifvqdr0","pricing_plan_id":"cebpf4jnsgd1na2vs0mg"},{"bike_id":"59b2432e-f424-4c75-ba04-57a073a9c3ce","system_id":"levelo_inurba_marseille","lat":43.31379,"lon":5.44129,"is_reserved":false,"is_disabled":false,"rental_uris":{"android":"levelo://app?vid=59b2432e-f424-4c75-ba04-57a073a9c3ce","ios":"levelo://app?vid=59b2432e-f424-4c75-ba04-57a073a9c3ce"},"vehicle_type_id":"4","last_reported":1779138058,"current_range_meters":3600,"station_id":"","pricing_plan_id":"cebpf4jnsgd1na2vs0mg"},{"bike_id":"ca8deebd-3892-4cd3-95b9-93993366f63e","system_id":"levelo_inurba_marseille","lat":43.26251,"lon":5.40445,"is_reserved":false,"is_disabled":true,"rental_uris":{"android":"levelo://app?vid=ca8deebd-3892-4cd3-95b9-93993366f63e","ios":"levelo://app?vid=ca8deebd-3892-4cd3-95b9-93993366f63e"},"vehicle_type_id":"4","last_reported":1779138058,"current_range_meters":3600,"station_id":"ce4bhmh2rcd13ifvqgmg","pricing_plan_id":"cebpf4jnsgd1na2vs0mg"},{"bike_id":"26246e34-f8d2-433a-a9ec-8eab31a3135c","system_id":"levelo_inurba_marseille","lat":43.29227,"lon":5.36063,"is_reserved":false,"is_disabled":false,"rental_uris":{"android":"levelo://app?vid=26246e34-f8d2-433a-a9ec-8eab31a3135c","ios":"levelo://app?vid=26246e34-f8d2-433a-a9ec-8eab31a3135c"},"vehicle_type_id":"4","last_reported":1779138058,"current_range_meters":3600,"station_id":"ce4bhbh2rcd13ifvqeqg","pricing_plan_id":"cebpf4jnsgd1na2vs0mg"},{"bike_id":"014147bf-2a69-4db6-bbe1-609a4d2d22c0","system_id":"levelo_inurba_marseille","lat":43.2884,"lon":5.39295,"is_reserved":false,"is_disabled":false,"rental_uris":{"android":"levelo://app?vid=014147bf-2a69-4db6-bbe1-609a4d2d22c0","ios":"levelo://app?vid=014147bf-2a69-4db6-bbe1-609a4d2d22c0"},"vehicle_type_id":"4","last_reported":1779138058,"current_range_meters":4000,"station_id":"ce4bh2p2rcd13ifvqdi0","pricing_plan_id":"cebpf4jnsgd1na2vs0mg"},{"bike_id":"97ef0eaa-07a1-41e5-96b2-af004dd36978","system_id":"levelo_inurba_marseille","lat":43.288593,"lon":5.42519,"is_reserved":false,"is_disabled":true,"rental_uris":{"android":"levelo://app?vid=97ef0eaa-07a1-41e5-96b2-af004dd36978","ios":"levelo://app?vid=97ef0eaa-07a1-41e5-96b2-af004dd36978"},"vehicle_type_id":"4","last_reported":1779138058,"current_range_meters":4000,"station_id":"st_d3b462108ojc7389ooeg","pricing_plan_id":"cebpf4jnsgd1na2vs0mg"},{"bike_id":"55fd0741-f693-4c0e-bc61-157606e04439","system_id":"levelo_inurba_marseille","lat":43.32602,"lon":5.39886,"is_reserved":false,"is_disabled":false,"rental_uris":{"android":"levelo://app?vid=55fd0741-f693-4c0e-bc61-157606e04439","ios":"levelo://app?vid=55fd0741-f693-4c0e-bc61-157606e04439"},"vehicle_type_id":"4","last_reported":1779138058,"current_range_meters":4000,"station_id":"","pricing_plan_id":"cebpf4jnsgd1na2vs0mg"},{"bike_id":"6870a2fc-cbce-49a0-b12b-cd85b833122a","system_id":"levelo_inurba_marseille","lat":43.26923,"lon":5.38906,"is_reserved":false,"is_disabled":true,"rental_uris":{"android":"levelo://app?vid=6870a2fc-cbce-49a0-b12b-cd85b833122a","ios":"levelo://app?vid=6870a2fc-cbce-49a0-b12b-cd85b833122a"},"vehicle_type_id":"4","last_reported":1779138058,"current_range_meters":4000,"station_id":"ce4bhhh2rcd13ifvqfl0","pricing_plan_id":"cebpf4jnsgd1na2vs0mg"},{"bike_id":"4a3d82be-0006-44ab-a43c-dc1d6f1b1e8f","system_id":"levelo_inurba_marseille","lat":43.31764,"lon":5.39003,"is_reserved":false,"is_disabled":false,"rental_uris":{"android":"levelo://app?vid=4a3d82be-0006-44ab-a43c-dc1d6f1b1e8f","ios":"levelo://app?vid=4a3d82be-0006-44ab-a43c-dc1d6f1b1e8f"},"vehicle_type_id":"4","last_reported":1779138058,"current_range_meters":4000,"station_id":"ce4bhqp2rcd13ifvqhng","pricing_plan_id":"cebpf4jnsgd1na2vs0mg"},{"bike_id":"76483057-aa19-441c-af55-216e6ef2b5ac","system_id":"levelo_inurba_marseille","lat":43.2256,"lon":5.41626,"is_reserved":false,"is_disabled":false,"rental_uris":{"android":"levelo://app?vid=76483057-aa19-441c-af55-216e6ef2b5ac","ios":"levelo://app?vid=76483057-aa19-441c-af55-216e6ef2b5ac"},"vehicle_type_id":"4","last_reported":1779138058,"current_range_meters":4000,"station_id":"st_d2o4gvlbi1j2169b742g","pricing_plan_id":"cebpf4jnsgd1na2vs0mg"},{"bike_id":"40b3a112-5397-4abc-9de1-3dd792605a70","system_id":"levelo_inurba_marseille","lat":43.32359,"lon":5.36729,"is_reserved":false,"is_disabled":false,"rental_uris":{"android":"levelo://app?vid=40b3a112-5397-4abc-9de1-3dd792605a70","ios":"levelo://app?vid=40b3a112-5397-4abc-9de1-3dd792605a70"},"vehicle_type_id":"4","last_reported":1779138058,"current_range_meters":4000,"station_id":"ce4bhsh2rcd13ifvqi2g","pricing_plan_id":"cebpf4jnsgd1na2vs0mg"},{"bike_id":"d3ef7364-0836-4b24-9843-1fcf1783e802","system_id":"levelo_inurba_marseille","lat":43.29907,"lon":5.43663,"is_reserved":false,"is_disabled":false,"rental_uris":{"android":"levelo://app?vid=d3ef7364-0836-4b24-9843-1fcf1783e802","ios":"levelo://app?vid=d3ef7364-0836-4b24-9843-1fcf1783e802"},"vehicle_type_id":"4","last_reported":1779138058,"current_range_meters":4000,"station_id":"ce4bhpp2rcd13ifvqhfg","pricing_plan_id":"cebpf4jnsgd1na2vs0mg"},{"bike_id":"e6cc49d1-e7bb-4c14-9c61-50b5557fed59","system_id":"levelo_inurba_marseille","lat":43.30686,"lon":5.40598,"is_reserved":false,"is_disabled":false,"rental_uris":{"android":"levelo://app?vid=e6cc49d1-e7bb-4c14-9c61-50b5557fed59","ios":"levelo://app?vid=e6cc49d1-e7bb-4c14-9c61-50b5557fed59"},"vehicle_type_id":"4","last_reported":1779138058,"current_range_meters":4000,"station_id":"","pricing_plan_id":"cebpf4jnsgd1na2vs0mg"},{"bike_id":"d54107ca-05f2-45fc-9fae-e2d4c6c24d36","system_id":"levelo_inurba_marseille","lat":43.23177,"lon":5.40009,"is_reserved":false,"is_disabled":false,"rental_uris":{"android":"levelo://app?vid=d54107ca-05f2-45fc-9fae-e2d4c6c24d36","ios":"levelo://app?vid=d54107ca-05f2-45fc-9fae-e2d4c6c24d36"},"vehicle_type_id":"4","last_reported":1779138058,"current_range_meters":4400,"station_id":"ce4bhn12rcd13ifvqgqg","pricing_plan_id":"cebpf4jnsgd1na2vs0mg"},{"bike_id":"fa3ab85f-39fb-4822-82d2-81887d57956a","system_id":"levelo_inurba_marseille","lat":43.289287,"lon":5.384018,"is_reserved":false,"is_disabled":false,"rental_uris":{"android":"levelo://app?vid=fa3ab85f-39fb-4822-82d2-81887d57956a","ios":"levelo://app?vid=fa3ab85f-39fb-4822-82d2-81887d57956a"},"vehicle_type_id":"4","last_reported":1779138058,"current_range_meters":4400,"station_id":"ce4bh612rcd13ifvqe6g","pricing_plan_id":"cebpf4jnsgd1na2vs0mg"},{"bike_id":"1c52c94e-8317-4744-9d99-003bb6cdb15f","system_id":"levelo_inurba_marseille","lat":43.31699,"lon":5.40465,"is_reserved":false,"is_disabled":false,"rental_uris":{"android":"levelo://app?vid=1c52c94e-8317-4744-9d99-003bb6cdb15f","ios":"levelo://app?vid=1c52c94e-8317-4744-9d99-003bb6cdb15f"},"vehicle_type_id":"4","last_reported":1779138058,"current_range_meters":4400,"station_id":"ce4bh012rcd13ifvqd00","pricing_plan_id":"cebpf4jnsgd1na2vs0mg"},{"bike_id":"9e4605bd-fb5f-4dea-85c6-6d392142aaa8","system_id":"levelo_inurba_marseille","lat":43.29732,"lon":5.4161,"is_reserved":false,"is_disabled":false,"rental_uris":{"android":"levelo://app?vid=9e4605bd-fb5f-4dea-85c6-6d392142aaa8","ios":"levelo://app?vid=9e4605bd-fb5f-4dea-85c6-6d392142aaa8"},"vehicle_type_id":"4","last_reported":1779138058,"current_range_meters":4400,"station_id":"","pricing_plan_id":"cebpf4jnsgd1na2vs0mg"},{"bike_id":"a9d8acd3-7977-4cee-928c-f1f51f9d119e","system_id":"levelo_inurba_marseille","lat":43.23968,"lon":5.36611,"is_reserved":false,"is_disabled":false,"rental_uris":{"android":"levelo://app?vid=a9d8acd3-7977-4cee-928c-f1f51f9d119e","ios":"levelo://app?vid=a9d8acd3-7977-4cee-928c-f1f51f9d119e"},"vehicle_type_id":"4","last_reported":1779138058,"current_range_meters":4400,"station_id":"ce4bhi12rcd13ifvqfp0","pricing_plan_id":"cebpf4jnsgd1na2vs0mg"},{"bike_id":"0a557a53-5e2a-4f58-a5bd-c17c32c1c9c4","system_id":"levelo_inurba_marseille","lat":43.29224,"lon":5.36019,"is_reserved":false,"is_disabled":true,"rental_uris":{"android":"levelo://app?vid=0a557a53-5e2a-4f58-a5bd-c17c32c1c9c4","ios":"levelo://app?vid=0a557a53-5e2a-4f58-a5bd-c17c32c1c9c4"},"vehicle_type_id":"4","last_reported":1779138058,"current_range_meters":4400,"station_id":"ce4bhbh2rcd13ifvqeqg","pricing_plan_id":"cebpf4jnsgd1na2vs0mg"},{"bike_id":"45f6f96d-86be-4b42-b6e5-69858c996258","system_id":"levelo_inurba_marseille","lat":43.303064,"lon":5.368903,"is_reserved":false,"is_disabled":false,"rental_uris":{"android":"levelo://app?vid=45f6f96d-86be-4b42-b6e5-69858c996258","ios":"levelo://app?vid=45f6f96d-86be-4b42-b6e5-69858c996258"},"vehicle_type_id":"4","last_reported":1779138058,"current_range_meters":4400,"station_id":"ce4bgqh2rcd13ifvqc5g","pricing_plan_id":"cebpf4jnsgd1na2vs0mg"},{"bike_id":"de8aec29-32c6-409e-b2b2-bd88ab1ef740","system_id":"levelo_inurba_marseille","lat":43.29204,"lon":5.35796,"is_reserved":false,"is_disabled":false,"rental_uris":{"android":"levelo://app?vid=de8aec29-32c6-409e-b2b2-bd88ab1ef740","ios":"levelo://app?vid=de8aec29-32c6-409e-b2b2-bd88ab1ef740"},"vehicle_type_id":"4","last_reported":1779138058,"current_range_meters":4800,"station_id":"ce4bhb12rcd13ifvqel0","pricing_plan_id":"cebpf4jnsgd1na2vs0mg"},{"bike_id":"c3f0931a-b98e-4ec6-aa39-67278fb8aaff","system_id":"levelo_inurba_marseille","lat":43.31924,"lon":5.36741,"is_reserved":false,"is_disabled":false,"rental_uris":{"android":"levelo://app?vid=c3f0931a-b98e-4ec6-aa39-67278fb8aaff","ios":"levelo://app?vid=c3f0931a-b98e-4ec6-aa39-67278fb8aaff"},"vehicle_type_id":"4","last_reported":1779138058,"current_range_meters":4800,"station_id":"","pricing_plan_id":"cebpf4jnsgd1na2vs0mg"},{"bike_id":"f46dc198-f447-4b28-8d13-72a1d78dd32a","system_id":"levelo_inurba_marseille","lat":43.29012,"lon":5.3549,"is_reserved":false,"is_disabled":false,"rental_uris":{"android":"levelo://app?vid=f46dc198-f447-4b28-8d13-72a1d78dd32a","ios":"levelo://app?vid=f46dc198-f447-4b28-8d13-72a1d78dd32a"},"vehicle_type_id":"4","last_reported":1779138058,"current_range_meters":4800,"station_id":"","pricing_plan_id":"cebpf4jnsgd1na2vs0mg"},{"bike_id":"ebca06cf-98a9-457c-8ee9-bd451803af87","system_id":"levelo_inurba_marseille","lat":43.26201,"lon":5.37918,"is_reserved":false,"is_disabled":false,"rental_uris":{"android":"levelo://app?vid=ebca06cf-98a9-457c-8ee9-bd451803af87","ios":"levelo://app?vid=ebca06cf-98a9-457c-8ee9-bd451803af87"},"vehicle_type_id":"4","last_reported":1779138058,"current_range_meters":4800,"station_id":"ce4bhjp2rcd13ifvqg90","pricing_plan_id":"cebpf4jnsgd1na2vs0mg"},{"bike_id":"8859668b-bac7-4f48-99ea-4e5357889027","system_id":"levelo_inurba_marseille","lat":43.2908,"lon":5.37172,"is_reserved":false,"is_disabled":false,"rental_uris":{"android":"levelo://app?vid=8859668b-bac7-4f48-99ea-4e5357889027","ios":"levelo://app?vid=8859668b-bac7-4f48-99ea-4e5357889027"},"vehicle_type_id":"4","last_reported":1779138058,"current_range_meters":4800,"station_id":"ce4bh5p2rcd13ifvqe4g","pricing_plan_id":"cebpf4jnsgd1na2vs0mg"},{"bike_id":"7b6b191c-2196-4eff-a204-e6551d1afb89","system_id":"levelo_inurba_marseille","lat":43.27062,"lon":5.38305,"is_reserved":false,"is_disabled":false,"rental_uris":{"android":"levelo://app?vid=7b6b191c-2196-4eff-a204-e6551d1afb89","ios":"levelo://app?vid=7b6b191c-2196-4eff-a204-e6551d1afb89"},"vehicle_type_id":"4","last_reported":1779138058,"current_range_meters":4800,"station_id":"st_d3n2fo6cfp8s73cte1j0","pricing_plan_id":"cebpf4jnsgd1na2vs0mg"},{"bike_id":"31ff2bc9-defb-4580-a7b6-ec23763942fe","system_id":"levelo_inurba_marseille","lat":43.23778,"lon":5.36605,"is_reserved":false,"is_disabled":false,"rental_uris":{"android":"levelo://app?vid=31ff2bc9-defb-4580-a7b6-ec23763942fe","ios":"levelo://app?vid=31ff2bc9-defb-4580-a7b6-ec23763942fe"},"vehicle_type_id":"4","last_reported":1779138058,"current_range_meters":4800,"station_id":"st_d3nk18o9ro0c73en2l3g","pricing_plan_id":"cebpf4jnsgd1na2vs0mg"},{"bike_id":"6f02c462-5be8-4fd9-bd86-49563918d3d3","system_id":"levelo_inurba_marseille","lat":43.31897,"lon":5.36802,"is_reserved":false,"is_disabled":false,"rental_uris":{"android":"levelo://app?vid=6f02c462-5be8-4fd9-bd86-49563918d3d3","ios":"levelo://app?vid=6f02c462-5be8-4fd9-bd86-49563918d3d3"},"vehicle_type_id":"4","last_reported":1779138058,"current_range_meters":4800,"station_id":"st_d6o2h0d0559c73evc1b0","pricing_plan_id":"cebpf4jnsgd1na2vs0mg"},{"bike_id":"ca29e35d-502f-4fb7-babc-accd43c51ab5","system_id":"levelo_inurba_marseille","lat":43.28698,"lon":5.46676,"is_reserved":false,"is_disabled":false,"rental_uris":{"android":"levelo://app?vid=ca29e35d-502f-4fb7-babc-accd43c51ab5","ios":"levelo://app?vid=ca29e35d-502f-4fb7-babc-accd43c51ab5"},"vehicle_type_id":"4","last_reported":1779138058,"current_range_meters":4800,"station_id":"st_d6tc3vkotcvc738tfjhg","pricing_plan_id":"cebpf4jnsgd1na2vs0mg"},{"bike_id":"f61ce9fe-ca8e-435e-98bd-c91c3d17c4ad","system_id":"levelo_inurba_marseille","lat":43.2908,"lon":5.37161,"is_reserved":false,"is_disabled":false,"rental_uris":{"android":"levelo://app?vid=f61ce9fe-ca8e-435e-98bd-c91c3d17c4ad","ios":"levelo://app?vid=f61ce9fe-ca8e-435e-98bd-c91c3d17c4ad"},"vehicle_type_id":"4","last_reported":1779138058,"current_range_meters":4800,"station_id":"ce4bh5p2rcd13ifvqe4g","pricing_plan_id":"cebpf4jnsgd1na2vs0mg"},{"bike_id":"9cb9e01c-edb2-41a3-917d-7146f7531c7d","system_id":"levelo_inurba_marseille","lat":43.31767,"lon":5.39045,"is_reserved":false,"is_disabled":false,"rental_uris":{"android":"levelo://app?vid=9cb9e01c-edb2-41a3-917d-7146f7531c7d","ios":"levelo://app?vid=9cb9e01c-edb2-41a3-917d-7146f7531c7d"},"vehicle_type_id":"4","last_reported":1779138058,"current_range_meters":4800,"station_id":"ce4bhqp2rcd13ifvqhng","pricing_plan_id":"cebpf4jnsgd1na2vs0mg"},{"bike_id":"56611aee-4a97-497f-a541-b301e0a4b4f4","system_id":"levelo_inurba_marseille","lat":43.33247,"lon":5.406,"is_reserved":false,"is_disabled":false,"rental_uris":{"android":"levelo://app?vid=56611aee-4a97-497f-a541-b301e0a4b4f4","ios":"levelo://app?vid=56611aee-4a97-497f-a541-b301e0a4b4f4"},"vehicle_type_id":"4","last_reported":1779138058,"current_range_meters":4800,"station_id":"","pricing_plan_id":"cebpf4jnsgd1na2vs0mg"},{"bike_id":"95402387-5bb1-4af7-bd0c-8a7dd2adbab6","system_id":"levelo_inurba_marseille","lat":43.30302,"lon":5.3918,"is_reserved":false,"is_disabled":true,"rental_uris":{"android":"levelo://app?vid=95402387-5bb1-4af7-bd0c-8a7dd2adbab6","ios":"levelo://app?vid=95402387-5bb1-4af7-bd0c-8a7dd2adbab6"},"vehicle_type_id":"4","last_reported":1779138058,"current_range_meters":4800,"station_id":"ce4bgkh2rcd13ifvqbk0","pricing_plan_id":"cebpf4jnsgd1na2vs0mg"},{"bike_id":"25ee507b-9574-429f-8046-a134b769e067","system_id":"levelo_inurba_marseille","lat":43.31298,"lon":5.39728,"is_reserved":false,"is_disabled":false,"rental_uris":{"android":"levelo://app?vid=25ee507b-9574-429f-8046-a134b769e067","ios":"levelo://app?vid=25ee507b-9574-429f-8046-a134b769e067"},"vehicle_type_id":"4","last_reported":1779138058,"current_range_meters":4800,"station_id":"ce4bgvp2rcd13ifvqcu0","pricing_plan_id":"cebpf4jnsgd1na2vs0mg"},{"bike_id":"462b788c-6301-44ac-95e3-03eeaa9ea279","system_id":"levelo_inurba_marseille","lat":43.31059,"lon":5.37144,"is_reserved":false,"is_disabled":false,"rental_uris":{"android":"levelo://app?vid=462b788c-6301-44ac-95e3-03eeaa9ea279","ios":"levelo://app?vid=462b788c-6301-44ac-95e3-03eeaa9ea279"},"vehicle_type_id":"4","last_reported":1779138058,"current_range_meters":4800,"station_id":"st_d4kl2rp97mjs73e7tdfg","pricing_plan_id":"cebpf4jnsgd1na2vs0mg"},{"bike_id":"39b70faa-7483-4f2d-932a-0fde3904314a","system_id":"levelo_inurba_marseille","lat":43.306875,"lon":5.395087,"is_reserved":false,"is_disabled":false,"rental_uris":{"android":"levelo://app?vid=39b70faa-7483-4f2d-932a-0fde3904314a","ios":"levelo://app?vid=39b70faa-7483-4f2d-932a-0fde3904314a"},"vehicle_type_id":"4","last_reported":1779138058,"current_range_meters":5600,"station_id":"ce4bh012rcd13ifvqcv0","pricing_plan_id":"cebpf4jnsgd1na2vs0mg"},{"bike_id":"c4c56dca-3c1e-48c7-b5bd-d8adea2c4f5c","system_id":"levelo_inurba_marseille","lat":43.27053,"lon":5.42275,"is_reserved":false,"is_disabled":false,"rental_uris":{"android":"levelo://app?vid=c4c56dca-3c1e-48c7-b5bd-d8adea2c4f5c","ios":"levelo://app?vid=c4c56dca-3c1e-48c7-b5bd-d8adea2c4f5c"},"vehicle_type_id":"4","last_reported":1779138058,"current_range_meters":5600,"station_id":"ce4bhk92rcd13ifvqgb0","pricing_plan_id":"cebpf4jnsgd1na2vs0mg"},{"bike_id":"2501e45f-08e5-4e1e-b1d6-4597fc74d164","system_id":"levelo_inurba_marseille","lat":43.30898,"lon":5.37193,"is_reserved":false,"is_disabled":false,"rental_uris":{"android":"levelo://app?vid=2501e45f-08e5-4e1e-b1d6-4597fc74d164","ios":"levelo://app?vid=2501e45f-08e5-4e1e-b1d6-4597fc74d164"},"vehicle_type_id":"4","last_reported":1779138058,"current_range_meters":5600,"station_id":"ce4bguh2rcd13ifvqckg","pricing_plan_id":"cebpf4jnsgd1na2vs0mg"},{"bike_id":"61f28b91-2a02-4913-9b70-22fbd3b412a4","system_id":"levelo_inurba_marseille","lat":43.29538,"lon":5.38536,"is_reserved":false,"is_disabled":false,"rental_uris":{"android":"levelo://app?vid=61f28b91-2a02-4913-9b70-22fbd3b412a4","ios":"levelo://app?vid=61f28b91-2a02-4913-9b70-22fbd3b412a4"},"vehicle_type_id":"4","last_reported":1779138058,"current_range_meters":5600,"station_id":"ce4bgih2rcd13ifvqba0","pricing_plan_id":"cebpf4jnsgd1na2vs0mg"},{"bike_id":"ab3e477c-861a-436a-9f70-5c6894fa4863","system_id":"levelo_inurba_marseille","lat":43.29187,"lon":5.35792,"is_reserved":false,"is_disabled":false,"rental_uris":{"android":"levelo://app?vid=ab3e477c-861a-436a-9f70-5c6894fa4863","ios":"levelo://app?vid=ab3e477c-861a-436a-9f70-5c6894fa4863"},"vehicle_type_id":"4","last_reported":1779138058,"current_range_meters":5600,"station_id":"ce4bhb12rcd13ifvqel0","pricing_plan_id":"cebpf4jnsgd1na2vs0mg"},{"bike_id":"4de22d2a-42b5-4340-9a15-d6954e69ec3b","system_id":"levelo_inurba_marseille","lat":43.25504,"lon":5.37652,"is_reserved":false,"is_disabled":false,"rental_uris":{"android":"levelo://app?vid=4de22d2a-42b5-4340-9a15-d6954e69ec3b","ios":"levelo://app?vid=4de22d2a-42b5-4340-9a15-d6954e69ec3b"},"vehicle_type_id":"4","last_reported":1779138058,"current_range_meters":5600,"station_id":"ce4bhh12rcd13ifvqff0","pricing_plan_id":"cebpf4jnsgd1na2vs0mg"},{"bike_id":"f0155b3f-a757-41e6-a885-d929684d0a3c","system_id":"levelo_inurba_marseille","lat":43.30593,"lon":5.366,"is_reserved":false,"is_disabled":false,"rental_uris":{"android":"levelo://app?vid=f0155b3f-a757-41e6-a885-d929684d0a3c","ios":"levelo://app?vid=f0155b3f-a757-41e6-a885-d929684d0a3c"},"vehicle_type_id":"4","last_reported":1779138058,"current_range_meters":5600,"station_id":"ce4bgs12rcd13ifvqcag","pricing_plan_id":"cebpf4jnsgd1na2vs0mg"},{"bike_id":"da66c6ce-3d3c-40b4-8a30-8668c058cfe8","system_id":"levelo_inurba_marseille","lat":43.24667,"lon":5.38154,"is_reserved":false,"is_disabled":false,"rental_uris":{"android":"levelo://app?vid=da66c6ce-3d3c-40b4-8a30-8668c058cfe8","ios":"levelo://app?vid=da66c6ce-3d3c-40b4-8a30-8668c058cfe8"},"vehicle_type_id":"4","last_reported":1779138058,"current_range_meters":5600,"station_id":"ce4bhih2rcd13ifvqfr0","pricing_plan_id":"cebpf4jnsgd1na2vs0mg"},{"bike_id":"e5d3f8e5-7fc2-4063-b550-2d1f9611ba34","system_id":"levelo_inurba_marseille","lat":43.212,"lon":5.35061,"is_reserved":false,"is_disabled":true,"rental_uris":{"android":"levelo://app?vid=e5d3f8e5-7fc2-4063-b550-2d1f9611ba34","ios":"levelo://app?vid=e5d3f8e5-7fc2-4063-b550-2d1f9611ba34"},"vehicle_type_id":"4","last_reported":1779138058,"current_range_meters":5600,"station_id":"st_cvj6sg6p6f1abm77japg","pricing_plan_id":"cebpf4jnsgd1na2vs0mg"},{"bike_id":"88324fb6-4d29-461b-96a4-b082411df7ed","system_id":"levelo_inurba_marseille","lat":43.28666,"lon":5.38659,"is_reserved":false,"is_disabled":false,"rental_uris":{"android":"levelo://app?vid=88324fb6-4d29-461b-96a4-b082411df7ed","ios":"levelo://app?vid=88324fb6-4d29-461b-96a4-b082411df7ed"},"vehicle_type_id":"4","last_reported":1779138058,"current_range_meters":5600,"station_id":"ce4bh492rcd13ifvqdug","pricing_plan_id":"cebpf4jnsgd1na2vs0mg"},{"bike_id":"bee61739-00a8-4165-97c3-a9a36ab42e78","system_id":"levelo_inurba_marseille","lat":43.28941,"lon":5.38416,"is_reserved":false,"is_disabled":false,"rental_uris":{"android":"levelo://app?vid=bee61739-00a8-4165-97c3-a9a36ab42e78","ios":"levelo://app?vid=bee61739-00a8-4165-97c3-a9a36ab42e78"},"vehicle_type_id":"4","last_reported":1779138058,"current_range_meters":5600,"station_id":"ce4bh612rcd13ifvqe6g","pricing_plan_id":"cebpf4jnsgd1na2vs0mg"},{"bike_id":"627051ca-ceab-4958-842c-b7590911776e","system_id":"levelo_inurba_marseille","lat":43.32344,"lon":5.36725,"is_reserved":false,"is_disabled":false,"rental_uris":{"android":"levelo://app?vid=627051ca-ceab-4958-842c-b7590911776e","ios":"levelo://app?vid=627051ca-ceab-4958-842c-b7590911776e"},"vehicle_type_id":"4","last_reported":1779138058,"current_range_meters":5600,"station_id":"ce4bhsh2rcd13ifvqi2g","pricing_plan_id":"cebpf4jnsgd1na2vs0mg"},{"bike_id":"9fdcbe47-e271-4e8a-a5f4-2b31fe40ea31","system_id":"levelo_inurba_marseille","lat":43.28621,"lon":5.35088,"is_reserved":false,"is_disabled":false,"rental_uris":{"android":"levelo://app?vid=9fdcbe47-e271-4e8a-a5f4-2b31fe40ea31","ios":"levelo://app?vid=9fdcbe47-e271-4e8a-a5f4-2b31fe40ea31"},"vehicle_type_id":"4","last_reported":1779138058,"current_range_meters":5600,"station_id":"ce4bhch2rcd13ifvqeug","pricing_plan_id":"cebpf4jnsgd1na2vs0mg"},{"bike_id":"f14fee49-7a79-4c22-8240-ce2cc8ca3c00","system_id":"levelo_inurba_marseille","lat":43.29036,"lon":5.39967,"is_reserved":false,"is_disabled":false,"rental_uris":{"android":"levelo://app?vid=f14fee49-7a79-4c22-8240-ce2cc8ca3c00","ios":"levelo://app?vid=f14fee49-7a79-4c22-8240-ce2cc8ca3c00"},"vehicle_type_id":"4","last_reported":1779138058,"current_range_meters":5600,"station_id":"ce4bh392rcd13ifvqdm0","pricing_plan_id":"cebpf4jnsgd1na2vs0mg"},{"bike_id":"5064e4d1-a4b8-4d4d-9cf4-b90eda56c5de","system_id":"levelo_inurba_marseille","lat":43.33547,"lon":5.37476,"is_reserved":false,"is_disabled":false,"rental_uris":{"android":"levelo://app?vid=5064e4d1-a4b8-4d4d-9cf4-b90eda56c5de","ios":"levelo://app?vid=5064e4d1-a4b8-4d4d-9cf4-b90eda56c5de"},"vehicle_type_id":"4","last_reported":1779138058,"current_range_meters":5600,"station_id":"st_d46tts09ee8s73dlu43g","pricing_plan_id":"cebpf4jnsgd1na2vs0mg"},{"bike_id":"71cc849b-6867-4b3f-9dc7-18039e41f45b","system_id":"levelo_inurba_marseille","lat":43.29058,"lon":5.35896,"is_reserved":false,"is_disabled":false,"rental_uris":{"android":"levelo://app?vid=71cc849b-6867-4b3f-9dc7-18039e41f45b","ios":"levelo://app?vid=71cc849b-6867-4b3f-9dc7-18039e41f45b"},"vehicle_type_id":"4","last_reported":1779138058,"current_range_meters":5600,"station_id":"ce4bha92rcd13ifvqeg0","pricing_plan_id":"cebpf4jnsgd1na2vs0mg"},{"bike_id":"8db735ea-0ffe-417f-bbac-95b81aceb555","system_id":"levelo_inurba_marseille","lat":43.30585,"lon":5.3935,"is_reserved":false,"is_disabled":false,"rental_uris":{"android":"levelo://app?vid=8db735ea-0ffe-417f-bbac-95b81aceb555","ios":"levelo://app?vid=8db735ea-0ffe-417f-bbac-95b81aceb555"},"vehicle_type_id":"4","last_reported":1779138058,"current_range_meters":6000,"station_id":"ce4bh0p2rcd13ifvqd80","pricing_plan_id":"cebpf4jnsgd1na2vs0mg"},{"bike_id":"185113fd-b3bd-49f2-9b2e-dfb619e0d36f","system_id":"levelo_inurba_marseille","lat":43.24147,"lon":5.39662,"is_reserved":false,"is_disabled":false,"rental_uris":{"android":"levelo://app?vid=185113fd-b3bd-49f2-9b2e-dfb619e0d36f","ios":"levelo://app?vid=185113fd-b3bd-49f2-9b2e-dfb619e0d36f"},"vehicle_type_id":"4","last_reported":1779138058,"current_range_meters":6000,"station_id":"","pricing_plan_id":"cebpf4jnsgd1na2vs0mg"},{"bike_id":"1c2eb4d1-e613-4047-a77c-317fbe0accea","system_id":"levelo_inurba_marseille","lat":43.29275,"lon":5.3842,"is_reserved":false,"is_disabled":true,"rental_uris":{"android":"levelo://app?vid=1c2eb4d1-e613-4047-a77c-317fbe0accea","ios":"levelo://app?vid=1c2eb4d1-e613-4047-a77c-317fbe0accea"},"vehicle_type_id":"4","last_reported":1779138058,"current_range_meters":6000,"station_id":"ce4bh692rcd13ifvqea0","pricing_plan_id":"cebpf4jnsgd1na2vs0mg"},{"bike_id":"46117692-980b-4971-bcf1-25795253a6b1","system_id":"levelo_inurba_marseille","lat":43.28614,"lon":5.37047,"is_reserved":false,"is_disabled":false,"rental_uris":{"android":"levelo://app?vid=46117692-980b-4971-bcf1-25795253a6b1","ios":"levelo://app?vid=46117692-980b-4971-bcf1-25795253a6b1"},"vehicle_type_id":"4","last_reported":1779138058,"current_range_meters":6000,"station_id":"ce4bht12rcd13ifvqi60","pricing_plan_id":"cebpf4jnsgd1na2vs0mg"},{"bike_id":"42707d6f-4581-4bd7-a210-c1a06576b84d","system_id":"levelo_inurba_marseille","lat":43.26563,"lon":5.40326,"is_reserved":false,"is_disabled":false,"rental_uris":{"android":"levelo://app?vid=42707d6f-4581-4bd7-a210-c1a06576b84d","ios":"levelo://app?vid=42707d6f-4581-4bd7-a210-c1a06576b84d"},"vehicle_type_id":"4","last_reported":1779138058,"current_range_meters":6000,"station_id":"ce4bhmp2rcd13ifvqgng","pricing_plan_id":"cebpf4jnsgd1na2vs0mg"},{"bike_id":"dbf0138b-cfc1-48d4-ae4a-9c45a76e73b1","system_id":"levelo_inurba_marseille","lat":43.3149,"lon":5.37289,"is_reserved":false,"is_disabled":false,"rental_uris":{"android":"levelo://app?vid=dbf0138b-cfc1-48d4-ae4a-9c45a76e73b1","ios":"levelo://app?vid=dbf0138b-cfc1-48d4-ae4a-9c45a76e73b1"},"vehicle_type_id":"4","last_reported":1779138058,"current_range_meters":6000,"station_id":"ce4bgt12rcd13ifvqcd0","pricing_plan_id":"cebpf4jnsgd1na2vs0mg"},{"bike_id":"80cc7be8-e95e-4d57-afd7-767e38f6fffc","system_id":"levelo_inurba_marseille","lat":43.29738,"lon":5.42788,"is_reserved":false,"is_disabled":false,"rental_uris":{"android":"levelo://app?vid=80cc7be8-e95e-4d57-afd7-767e38f6fffc","ios":"levelo://app?vid=80cc7be8-e95e-4d57-afd7-767e38f6fffc"},"vehicle_type_id":"4","last_reported":1779138058,"current_range_meters":6000,"station_id":"st_d3md5207bmas73dh9klg","pricing_plan_id":"cebpf4jnsgd1na2vs0mg"},{"bike_id":"ab1a7a5a-57d9-44f1-9411-c1f278ef1ae0","system_id":"levelo_inurba_marseille","lat":43.29182,"lon":5.35803,"is_reserved":false,"is_disabled":false,"rental_uris":{"android":"levelo://app?vid=ab1a7a5a-57d9-44f1-9411-c1f278ef1ae0","ios":"levelo://app?vid=ab1a7a5a-57d9-44f1-9411-c1f278ef1ae0"},"vehicle_type_id":"4","last_reported":1779138058,"current_range_meters":6000,"station_id":"ce4bhb12rcd13ifvqel0","pricing_plan_id":"cebpf4jnsgd1na2vs0mg"},{"bike_id":"da8cd255-0bd6-4dcc-b728-1feff34853cc","system_id":"levelo_inurba_marseille","lat":43.28492,"lon":5.35838,"is_reserved":false,"is_disabled":false,"rental_uris":{"android":"levelo://app?vid=da8cd255-0bd6-4dcc-b728-1feff34853cc","ios":"levelo://app?vid=da8cd255-0bd6-4dcc-b728-1feff34853cc"},"vehicle_type_id":"4","last_reported":1779138058,"current_range_meters":6000,"station_id":"ce4bhah2rcd13ifvqei0","pricing_plan_id":"cebpf4jnsgd1na2vs0mg"},{"bike_id":"461d5e9b-3596-4d6e-a192-ffe757923bcc","system_id":"levelo_inurba_marseille","lat":43.26096,"lon":5.41781,"is_reserved":false,"is_disabled":false,"rental_uris":{"android":"levelo://app?vid=461d5e9b-3596-4d6e-a192-ffe757923bcc","ios":"levelo://app?vid=461d5e9b-3596-4d6e-a192-ffe757923bcc"},"vehicle_type_id":"4","last_reported":1779138058,"current_range_meters":6000,"station_id":"","pricing_plan_id":"cebpf4jnsgd1na2vs0mg"},{"bike_id":"81953542-9173-4123-87e9-c66001a3f47d","system_id":"levelo_inurba_marseille","lat":43.24694,"lon":5.38159,"is_reserved":false,"is_disabled":false,"rental_uris":{"android":"levelo://app?vid=81953542-9173-4123-87e9-c66001a3f47d","ios":"levelo://app?vid=81953542-9173-4123-87e9-c66001a3f47d"},"vehicle_type_id":"4","last_reported":1779138058,"current_range_meters":6400,"station_id":"ce4bhih2rcd13ifvqfr0","pricing_plan_id":"cebpf4jnsgd1na2vs0mg"},{"bike_id":"85aa1070-8927-41d8-ab11-aae95609209a","system_id":"levelo_inurba_marseille","lat":43.28452,"lon":5.35882,"is_reserved":false,"is_disabled":false,"rental_uris":{"android":"levelo://app?vid=85aa1070-8927-41d8-ab11-aae95609209a","ios":"levelo://app?vid=85aa1070-8927-41d8-ab11-aae95609209a"},"vehicle_type_id":"4","last_reported":1779138058,"current_range_meters":6400,"station_id":"ce4bhah2rcd13ifvqei0","pricing_plan_id":"cebpf4jnsgd1na2vs0mg"},{"bike_id":"b9ca77f1-80fa-475b-9a37-ec72feacc5df","system_id":"levelo_inurba_marseille","lat":43.29799,"lon":5.44054,"is_reserved":false,"is_disabled":false,"rental_uris":{"android":"levelo://app?vid=b9ca77f1-80fa-475b-9a37-ec72feacc5df","ios":"levelo://app?vid=b9ca77f1-80fa-475b-9a37-ec72feacc5df"},"vehicle_type_id":"4","last_reported":1779138058,"current_range_meters":6400,"station_id":"st_d3jp68qikq2c7381ktn0","pricing_plan_id":"cebpf4jnsgd1na2vs0mg"},{"bike_id":"80b13410-2b38-4065-9ee7-6899f603dc75","system_id":"levelo_inurba_marseille","lat":43.28715,"lon":5.36086,"is_reserved":false,"is_disabled":false,"rental_uris":{"android":"levelo://app?vid=80b13410-2b38-4065-9ee7-6899f603dc75","ios":"levelo://app?vid=80b13410-2b38-4065-9ee7-6899f603dc75"},"vehicle_type_id":"4","last_reported":1779138058,"current_range_meters":6400,"station_id":"cki0cbj6b192h4jlfktg","pricing_plan_id":"cebpf4jnsgd1na2vs0mg"},{"bike_id":"88ebb790-6b2b-4fcd-9b52-484e5a30bff5","system_id":"levelo_inurba_marseille","lat":43.28443,"lon":5.37551,"is_reserved":false,"is_disabled":false,"rental_uris":{"android":"levelo://app?vid=88ebb790-6b2b-4fcd-9b52-484e5a30bff5","ios":"levelo://app?vid=88ebb790-6b2b-4fcd-9b52-484e5a30bff5"},"vehicle_type_id":"4","last_reported":1779138058,"current_range_meters":6400,"station_id":"","pricing_plan_id":"cebpf4jnsgd1na2vs0mg"},{"bike_id":"a32c8246-aad5-4d77-bdfa-15f970ed4ffc","system_id":"levelo_inurba_marseille","lat":43.27966,"lon":5.38723,"is_reserved":false,"is_disabled":false,"rental_uris":{"android":"levelo://app?vid=a32c8246-aad5-4d77-bdfa-15f970ed4ffc","ios":"levelo://app?vid=a32c8246-aad5-4d77-bdfa-15f970ed4ffc"},"vehicle_type_id":"4","last_reported":1779138058,"current_range_meters":6400,"station_id":"ce4bhg12rcd13ifvqf80","pricing_plan_id":"cebpf4jnsgd1na2vs0mg"},{"bike_id":"922e6ff3-f35b-4155-bb16-2dbf0ee3292b","system_id":"levelo_inurba_marseille","lat":43.290481,"lon":5.355927,"is_reserved":false,"is_disabled":false,"rental_uris":{"android":"levelo://app?vid=922e6ff3-f35b-4155-bb16-2dbf0ee3292b","ios":"levelo://app?vid=922e6ff3-f35b-4155-bb16-2dbf0ee3292b"},"vehicle_type_id":"4","last_reported":1779138058,"current_range_meters":6400,"station_id":"ce4bhb92rcd13ifvqen0","pricing_plan_id":"cebpf4jnsgd1na2vs0mg"},{"bike_id":"9e2fe2f7-d6df-4ab9-966a-e0a262530a00","system_id":"levelo_inurba_marseille","lat":43.24823,"lon":5.3743,"is_reserved":false,"is_disabled":false,"rental_uris":{"android":"levelo://app?vid=9e2fe2f7-d6df-4ab9-966a-e0a262530a00","ios":"levelo://app?vid=9e2fe2f7-d6df-4ab9-966a-e0a262530a00"},"vehicle_type_id":"4","last_reported":1779138058,"current_range_meters":6400,"station_id":"ce4bhgh2rcd13ifvqfb0","pricing_plan_id":"cebpf4jnsgd1na2vs0mg"},{"bike_id":"3f7e1ed9-1b6d-4bbe-8e61-40251501c157","system_id":"levelo_inurba_marseille","lat":43.30434,"lon":5.41262,"is_reserved":false,"is_disabled":false,"rental_uris":{"android":"levelo://app?vid=3f7e1ed9-1b6d-4bbe-8e61-40251501c157","ios":"levelo://app?vid=3f7e1ed9-1b6d-4bbe-8e61-40251501c157"},"vehicle_type_id":"4","last_reported":1779138058,"current_range_meters":6400,"station_id":"ce4bhop2rcd13ifvqh8g","pricing_plan_id":"cebpf4jnsgd1na2vs0mg"},{"bike_id":"6af654b7-7a8b-457b-ad58-fba21b09801a","system_id":"levelo_inurba_marseille","lat":43.32104,"lon":5.36797,"is_reserved":false,"is_disabled":false,"rental_uris":{"android":"levelo://app?vid=6af654b7-7a8b-457b-ad58-fba21b09801a","ios":"levelo://app?vid=6af654b7-7a8b-457b-ad58-fba21b09801a"},"vehicle_type_id":"4","last_reported":1779138058,"current_range_meters":6400,"station_id":"ce4bhrh2rcd13ifvqhug","pricing_plan_id":"cebpf4jnsgd1na2vs0mg"},{"bike_id":"1b9a4f9e-101a-4bd7-a664-7c121f897c2e","system_id":"levelo_inurba_marseille","lat":43.23039,"lon":5.40504,"is_reserved":false,"is_disabled":false,"rental_uris":{"android":"levelo://app?vid=1b9a4f9e-101a-4bd7-a664-7c121f897c2e","ios":"levelo://app?vid=1b9a4f9e-101a-4bd7-a664-7c121f897c2e"},"vehicle_type_id":"4","last_reported":1779138058,"current_range_meters":6400,"station_id":"","pricing_plan_id":"cebpf4jnsgd1na2vs0mg"},{"bike_id":"46e5ee1b-6e75-4db8-88e1-e8ff6d5292d7","system_id":"levelo_inurba_marseille","lat":43.23088,"lon":5.3948,"is_reserved":false,"is_disabled":false,"rental_uris":{"android":"levelo://app?vid=46e5ee1b-6e75-4db8-88e1-e8ff6d5292d7","ios":"levelo://app?vid=46e5ee1b-6e75-4db8-88e1-e8ff6d5292d7"},"vehicle_type_id":"4","last_reported":1779138058,"current_range_meters":6400,"station_id":"","pricing_plan_id":"cebpf4jnsgd1na2vs0mg"},{"bike_id":"527c40e5-badc-4281-b4c8-e1f5629d912c","system_id":"levelo_inurba_marseille","lat":43.25109,"lon":5.3953,"is_reserved":false,"is_disabled":false,"rental_uris":{"android":"levelo://app?vid=527c40e5-badc-4281-b4c8-e1f5629d912c","ios":"levelo://app?vid=527c40e5-badc-4281-b4c8-e1f5629d912c"},"vehicle_type_id":"4","last_reported":1779138058,"current_range_meters":6400,"station_id":"ce4bhm12rcd13ifvqgkg","pricing_plan_id":"cebpf4jnsgd1na2vs0mg"},{"bike_id":"3467f6e8-d4b1-4c81-83eb-9bfd2f1ebb8f","system_id":"levelo_inurba_marseille","lat":43.28026,"lon":5.39974,"is_reserved":false,"is_disabled":false,"rental_uris":{"android":"levelo://app?vid=3467f6e8-d4b1-4c81-83eb-9bfd2f1ebb8f","ios":"levelo://app?vid=3467f6e8-d4b1-4c81-83eb-9bfd2f1ebb8f"},"vehicle_type_id":"4","last_reported":1779138058,"current_range_meters":6400,"station_id":"ce4bho92rcd13ifvqh4g","pricing_plan_id":"cebpf4jnsgd1na2vs0mg"},{"bike_id":"26591e34-5557-4c47-85c1-c0340780f77e","system_id":"levelo_inurba_marseille","lat":43.24555,"lon":5.39495,"is_reserved":false,"is_disabled":false,"rental_uris":{"android":"levelo://app?vid=26591e34-5557-4c47-85c1-c0340780f77e","ios":"levelo://app?vid=26591e34-5557-4c47-85c1-c0340780f77e"},"vehicle_type_id":"4","last_reported":1779138058,"current_range_meters":6400,"station_id":"ce4bhlp2rcd13ifvqgjg","pricing_plan_id":"cebpf4jnsgd1na2vs0mg"},{"bike_id":"5a1c8a28-d79f-4b07-a4d8-bce75ba2c426","system_id":"levelo_inurba_marseille","lat":43.2586,"lon":5.39888,"is_reserved":false,"is_disabled":true,"rental_uris":{"android":"levelo://app?vid=5a1c8a28-d79f-4b07-a4d8-bce75ba2c426","ios":"levelo://app?vid=5a1c8a28-d79f-4b07-a4d8-bce75ba2c426"},"vehicle_type_id":"4","last_reported":1779138058,"current_range_meters":6800,"station_id":"ce4bhl92rcd13ifvqghg","pricing_plan_id":"cebpf4jnsgd1na2vs0mg"},{"bike_id":"b3eeb2a6-a588-4cb4-a718-e5d9e9764140","system_id":"levelo_inurba_marseille","lat":43.29544,"lon":5.38518,"is_reserved":false,"is_disabled":false,"rental_uris":{"android":"levelo://app?vid=b3eeb2a6-a588-4cb4-a718-e5d9e9764140","ios":"levelo://app?vid=b3eeb2a6-a588-4cb4-a718-e5d9e9764140"},"vehicle_type_id":"4","last_reported":1779138058,"current_range_meters":6800,"station_id":"ce4bgih2rcd13ifvqba0","pricing_plan_id":"cebpf4jnsgd1na2vs0mg"},{"bike_id":"139da8c0-4a36-4fe0-a828-69f137ae30da","system_id":"levelo_inurba_marseille","lat":43.25546,"lon":5.37667,"is_reserved":false,"is_disabled":true,"rental_uris":{"android":"levelo://app?vid=139da8c0-4a36-4fe0-a828-69f137ae30da","ios":"levelo://app?vid=139da8c0-4a36-4fe0-a828-69f137ae30da"},"vehicle_type_id":"4","last_reported":1779138058,"current_range_meters":6800,"station_id":"","pricing_plan_id":"cebpf4jnsgd1na2vs0mg"},{"bike_id":"8f6fb70f-9962-4c14-afae-9cd42b60f2ca","system_id":"levelo_inurba_marseille","lat":43.26799,"lon":5.39402,"is_reserved":false,"is_disabled":true,"rental_uris":{"android":"levelo://app?vid=8f6fb70f-9962-4c14-afae-9cd42b60f2ca","ios":"levelo://app?vid=8f6fb70f-9962-4c14-afae-9cd42b60f2ca"},"vehicle_type_id":"4","last_reported":1779138058,"current_range_meters":6800,"station_id":"ce4bhh12rcd13ifvqfg0","pricing_plan_id":"cebpf4jnsgd1na2vs0mg"},{"bike_id":"373f9222-30d0-4160-9fc0-3f4cc13ad446","system_id":"levelo_inurba_marseille","lat":43.21775,"lon":5.34599,"is_reserved":false,"is_disabled":false,"rental_uris":{"android":"levelo://app?vid=373f9222-30d0-4160-9fc0-3f4cc13ad446","ios":"levelo://app?vid=373f9222-30d0-4160-9fc0-3f4cc13ad446"},"vehicle_type_id":"4","last_reported":1779138058,"current_range_meters":6800,"station_id":"st_cvj6r9ubvosntc0bgbag","pricing_plan_id":"cebpf4jnsgd1na2vs0mg"},{"bike_id":"f730d25a-84e3-42c5-a939-51609cebefcd","system_id":"levelo_inurba_marseille","lat":43.28758,"lon":5.46621,"is_reserved":false,"is_disabled":false,"rental_uris":{"android":"levelo://app?vid=f730d25a-84e3-42c5-a939-51609cebefcd","ios":"levelo://app?vid=f730d25a-84e3-42c5-a939-51609cebefcd"},"vehicle_type_id":"4","last_reported":1779138058,"current_range_meters":6800,"station_id":"","pricing_plan_id":"cebpf4jnsgd1na2vs0mg"},{"bike_id":"913b4782-ecaf-49ee-b1ea-1a73be00cddd","system_id":"levelo_inurba_marseille","lat":43.26049,"lon":5.39373,"is_reserved":false,"is_disabled":false,"rental_uris":{"android":"levelo://app?vid=913b4782-ecaf-49ee-b1ea-1a73be00cddd","ios":"levelo://app?vid=913b4782-ecaf-49ee-b1ea-1a73be00cddd"},"vehicle_type_id":"4","last_reported":1779138058,"current_range_meters":6800,"station_id":"ce4bhh92rcd13ifvqfj0","pricing_plan_id":"cebpf4jnsgd1na2vs0mg"},{"bike_id":"8b40f371-b5b3-4fc4-8d18-2cb1fc4066c3","system_id":"levelo_inurba_marseille","lat":43.28929,"lon":5.38394,"is_reserved":false,"is_disabled":true,"rental_uris":{"android":"levelo://app?vid=8b40f371-b5b3-4fc4-8d18-2cb1fc4066c3","ios":"levelo://app?vid=8b40f371-b5b3-4fc4-8d18-2cb1fc4066c3"},"vehicle_type_id":"4","last_reported":1779138058,"current_range_meters":6800,"station_id":"ce4bh612rcd13ifvqe6g","pricing_plan_id":"cebpf4jnsgd1na2vs0mg"},{"bike_id":"8f3af7fc-2bf8-4325-97eb-54f330bbc6f4","system_id":"levelo_inurba_marseille","lat":43.24181,"lon":5.3638,"is_reserved":false,"is_disabled":false,"rental_uris":{"android":"levelo://app?vid=8f3af7fc-2bf8-4325-97eb-54f330bbc6f4","ios":"levelo://app?vid=8f3af7fc-2bf8-4325-97eb-54f330bbc6f4"},"vehicle_type_id":"4","last_reported":1779138058,"current_range_meters":6800,"station_id":"cpo36qri1sfpv3e86is0","pricing_plan_id":"cebpf4jnsgd1na2vs0mg"},{"bike_id":"bfda2ad5-657c-48ec-8580-b8dbf66596f9","system_id":"levelo_inurba_marseille","lat":43.26954,"lon":5.40238,"is_reserved":false,"is_disabled":false,"rental_uris":{"android":"levelo://app?vid=bfda2ad5-657c-48ec-8580-b8dbf66596f9","ios":"levelo://app?vid=bfda2ad5-657c-48ec-8580-b8dbf66596f9"},"vehicle_type_id":"4","last_reported":1779138058,"current_range_meters":6800,"station_id":"cjm6bp8fraef2m0cb0m0","pricing_plan_id":"cebpf4jnsgd1na2vs0mg"},{"bike_id":"b3e47a10-789b-4113-b169-face25d448d0","system_id":"levelo_inurba_marseille","lat":43.28717,"lon":5.46676,"is_reserved":false,"is_disabled":false,"rental_uris":{"android":"levelo://app?vid=b3e47a10-789b-4113-b169-face25d448d0","ios":"levelo://app?vid=b3e47a10-789b-4113-b169-face25d448d0"},"vehicle_type_id":"4","last_reported":1779138058,"current_range_meters":6800,"station_id":"st_d6tc3vkotcvc738tfjhg","pricing_plan_id":"cebpf4jnsgd1na2vs0mg"},{"bike_id":"1e83bb69-67d4-4436-a694-2a70fa6c12ea","system_id":"levelo_inurba_marseille","lat":43.24671,"lon":5.38167,"is_reserved":false,"is_disabled":false,"rental_uris":{"android":"levelo://app?vid=1e83bb69-67d4-4436-a694-2a70fa6c12ea","ios":"levelo://app?vid=1e83bb69-67d4-4436-a694-2a70fa6c12ea"},"vehicle_type_id":"4","last_reported":1779138058,"current_range_meters":6800,"station_id":"ce4bhih2rcd13ifvqfr0","pricing_plan_id":"cebpf4jnsgd1na2vs0mg"},{"bike_id":"92d1f52a-2b5f-46f0-a31e-967db06a4663","system_id":"levelo_inurba_marseille","lat":43.23403,"lon":5.41218,"is_reserved":false,"is_disabled":true,"rental_uris":{"android":"levelo://app?vid=92d1f52a-2b5f-46f0-a31e-967db06a4663","ios":"levelo://app?vid=92d1f52a-2b5f-46f0-a31e-967db06a4663"},"vehicle_type_id":"4","last_reported":1779138058,"current_range_meters":6800,"station_id":"st_d75pvndhf9lc73cqq3eg","pricing_plan_id":"cebpf4jnsgd1na2vs0mg"},{"bike_id":"8655fdd0-b9ff-4c4b-a8e4-7080f35b0493","system_id":"levelo_inurba_marseille","lat":43.3133,"lon":5.39692,"is_reserved":false,"is_disabled":false,"rental_uris":{"android":"levelo://app?vid=8655fdd0-b9ff-4c4b-a8e4-7080f35b0493","ios":"levelo://app?vid=8655fdd0-b9ff-4c4b-a8e4-7080f35b0493"},"vehicle_type_id":"4","last_reported":1779138058,"current_range_meters":6800,"station_id":"ce4bgvp2rcd13ifvqcu0","pricing_plan_id":"cebpf4jnsgd1na2vs0mg"},{"bike_id":"3ba5e129-ee15-4e70-b2c9-b0ec3fafe875","system_id":"levelo_inurba_marseille","lat":43.29535,"lon":5.39385,"is_reserved":false,"is_disabled":false,"rental_uris":{"android":"levelo://app?vid=3ba5e129-ee15-4e70-b2c9-b0ec3fafe875","ios":"levelo://app?vid=3ba5e129-ee15-4e70-b2c9-b0ec3fafe875"},"vehicle_type_id":"4","last_reported":1779138058,"current_range_meters":6800,"station_id":"ce4bh292rcd13ifvqdf0","pricing_plan_id":"cebpf4jnsgd1na2vs0mg"},{"bike_id":"32a331e7-e577-4f3e-8e78-93860127baf5","system_id":"levelo_inurba_marseille","lat":43.24382,"lon":5.37056,"is_reserved":false,"is_disabled":false,"rental_uris":{"android":"levelo://app?vid=32a331e7-e577-4f3e-8e78-93860127baf5","ios":"levelo://app?vid=32a331e7-e577-4f3e-8e78-93860127baf5"},"vehicle_type_id":"4","last_reported":1779138058,"current_range_meters":7200,"station_id":"ce4bhhh2rcd13ifvqfk0","pricing_plan_id":"cebpf4jnsgd1na2vs0mg"},{"bike_id":"c157cae3-0fbd-4493-954b-460ac549a32f","system_id":"levelo_inurba_marseille","lat":43.24656,"lon":5.38159,"is_reserved":false,"is_disabled":false,"rental_uris":{"android":"levelo://app?vid=c157cae3-0fbd-4493-954b-460ac549a32f","ios":"levelo://app?vid=c157cae3-0fbd-4493-954b-460ac549a32f"},"vehicle_type_id":"4","last_reported":1779138058,"current_range_meters":7200,"station_id":"ce4bhih2rcd13ifvqfr0","pricing_plan_id":"cebpf4jnsgd1na2vs0mg"},{"bike_id":"f953e7df-9a8f-4f8e-8e56-6a5db7d34d82","system_id":"levelo_inurba_marseille","lat":43.269189,"lon":5.380411,"is_reserved":false,"is_disabled":false,"rental_uris":{"android":"levelo://app?vid=f953e7df-9a8f-4f8e-8e56-6a5db7d34d82","ios":"levelo://app?vid=f953e7df-9a8f-4f8e-8e56-6a5db7d34d82"},"vehicle_type_id":"4","last_reported":1779138058,"current_range_meters":7200,"station_id":"","pricing_plan_id":"cebpf4jnsgd1na2vs0mg"},{"bike_id":"118f25d8-0255-44ef-8a35-47bb481bb8b6","system_id":"levelo_inurba_marseille","lat":43.24396,"lon":5.37067,"is_reserved":false,"is_disabled":true,"rental_uris":{"android":"levelo://app?vid=118f25d8-0255-44ef-8a35-47bb481bb8b6","ios":"levelo://app?vid=118f25d8-0255-44ef-8a35-47bb481bb8b6"},"vehicle_type_id":"4","last_reported":1779138058,"current_range_meters":7200,"station_id":"ce4bhhh2rcd13ifvqfk0","pricing_plan_id":"cebpf4jnsgd1na2vs0mg"},{"bike_id":"addcdd95-92f1-4085-b077-e57d382466cb","system_id":"levelo_inurba_marseille","lat":43.28996,"lon":5.35609,"is_reserved":false,"is_disabled":true,"rental_uris":{"android":"levelo://app?vid=addcdd95-92f1-4085-b077-e57d382466cb","ios":"levelo://app?vid=addcdd95-92f1-4085-b077-e57d382466cb"},"vehicle_type_id":"4","last_reported":1779138058,"current_range_meters":7200,"station_id":"ce4bhb92rcd13ifvqen0","pricing_plan_id":"cebpf4jnsgd1na2vs0mg"},{"bike_id":"d330ebaf-89a2-4938-8fb2-a03c97594a54","system_id":"levelo_inurba_marseille","lat":43.29002,"lon":5.37616,"is_reserved":false,"is_disabled":false,"rental_uris":{"android":"levelo://app?vid=d330ebaf-89a2-4938-8fb2-a03c97594a54","ios":"levelo://app?vid=d330ebaf-89a2-4938-8fb2-a03c97594a54"},"vehicle_type_id":"4","last_reported":1779138058,"current_range_meters":7200,"station_id":"ce4bh692rcd13ifvqe90","pricing_plan_id":"cebpf4jnsgd1na2vs0mg"},{"bike_id":"2eee5c56-15d0-42b7-a294-a32ebf5dafc7","system_id":"levelo_inurba_marseille","lat":43.29717,"lon":5.36581,"is_reserved":false,"is_disabled":false,"rental_uris":{"android":"levelo://app?vid=2eee5c56-15d0-42b7-a294-a32ebf5dafc7","ios":"levelo://app?vid=2eee5c56-15d0-42b7-a294-a32ebf5dafc7"},"vehicle_type_id":"4","last_reported":1779138058,"current_range_meters":7200,"station_id":"ce4bgn12rcd13ifvqbt0","pricing_plan_id":"cebpf4jnsgd1na2vs0mg"},{"bike_id":"58c98de5-8c45-44bc-b9d2-d73286c3efe5","system_id":"levelo_inurba_marseille","lat":43.28151,"lon":5.42634,"is_reserved":false,"is_disabled":false,"rental_uris":{"android":"levelo://app?vid=58c98de5-8c45-44bc-b9d2-d73286c3efe5","ios":"levelo://app?vid=58c98de5-8c45-44bc-b9d2-d73286c3efe5"},"vehicle_type_id":"4","last_reported":1779138058,"current_range_meters":7200,"station_id":"ce4bhnh2rcd13ifvqgug","pricing_plan_id":"cebpf4jnsgd1na2vs0mg"},{"bike_id":"1f8259a9-7e55-4812-b53f-6d999496a759","system_id":"levelo_inurba_marseille","lat":43.28701,"lon":5.46682,"is_reserved":false,"is_disabled":false,"rental_uris":{"android":"levelo://app?vid=1f8259a9-7e55-4812-b53f-6d999496a759","ios":"levelo://app?vid=1f8259a9-7e55-4812-b53f-6d999496a759"},"vehicle_type_id":"4","last_reported":1779138058,"current_range_meters":7200,"station_id":"st_d6tc3vkotcvc738tfjhg","pricing_plan_id":"cebpf4jnsgd1na2vs0mg"},{"bike_id":"9b501810-60c8-41e8-aef6-07bda0b1699e","system_id":"levelo_inurba_marseille","lat":43.25336,"lon":5.42173,"is_reserved":false,"is_disabled":false,"rental_uris":{"android":"levelo://app?vid=9b501810-60c8-41e8-aef6-07bda0b1699e","ios":"levelo://app?vid=9b501810-60c8-41e8-aef6-07bda0b1699e"},"vehicle_type_id":"4","last_reported":1779138058,"current_range_meters":7200,"station_id":"st_d2m65c5bi1j21697t3ng","pricing_plan_id":"cebpf4jnsgd1na2vs0mg"},{"bike_id":"6ea6c320-3fde-4b3f-983f-c4ea28652a4e","system_id":"levelo_inurba_marseille","lat":43.22558,"lon":5.41622,"is_reserved":false,"is_disabled":false,"rental_uris":{"android":"levelo://app?vid=6ea6c320-3fde-4b3f-983f-c4ea28652a4e","ios":"levelo://app?vid=6ea6c320-3fde-4b3f-983f-c4ea28652a4e"},"vehicle_type_id":"4","last_reported":1779138058,"current_range_meters":7200,"station_id":"st_d2o4gvlbi1j2169b742g","pricing_plan_id":"cebpf4jnsgd1na2vs0mg"},{"bike_id":"547402e8-4b98-430e-8a04-6a3e568275ce","system_id":"levelo_inurba_marseille","lat":43.26948,"lon":5.38638,"is_reserved":false,"is_disabled":false,"rental_uris":{"android":"levelo://app?vid=547402e8-4b98-430e-8a04-6a3e568275ce","ios":"levelo://app?vid=547402e8-4b98-430e-8a04-6a3e568275ce"},"vehicle_type_id":"4","last_reported":1779138058,"current_range_meters":7200,"station_id":"ce4bhh92rcd13ifvqfh0","pricing_plan_id":"cebpf4jnsgd1na2vs0mg"},{"bike_id":"17ba3c19-387f-4e2e-b73c-a02294ccdd28","system_id":"levelo_inurba_marseille","lat":43.2256,"lon":5.41628,"is_reserved":false,"is_disabled":false,"rental_uris":{"android":"levelo://app?vid=17ba3c19-387f-4e2e-b73c-a02294ccdd28","ios":"levelo://app?vid=17ba3c19-387f-4e2e-b73c-a02294ccdd28"},"vehicle_type_id":"4","last_reported":1779138058,"current_range_meters":7200,"station_id":"st_d2o4gvlbi1j2169b742g","pricing_plan_id":"cebpf4jnsgd1na2vs0mg"},{"bike_id":"428a210f-87f7-428f-9ac4-76d179596d35","system_id":"levelo_inurba_marseille","lat":43.2857,"lon":5.39487,"is_reserved":false,"is_disabled":true,"rental_uris":{"android":"levelo://app?vid=428a210f-87f7-428f-9ac4-76d179596d35","ios":"levelo://app?vid=428a210f-87f7-428f-9ac4-76d179596d35"},"vehicle_type_id":"4","last_reported":1779138058,"current_range_meters":7200,"station_id":"ce4bh292rcd13ifvqdg0","pricing_plan_id":"cebpf4jnsgd1na2vs0mg"},{"bike_id":"4ac8ff19-3b11-40d5-9853-fe542b6b1dff","system_id":"levelo_inurba_marseille","lat":43.29439,"lon":5.39747,"is_reserved":false,"is_disabled":false,"rental_uris":{"android":"levelo://app?vid=4ac8ff19-3b11-40d5-9853-fe542b6b1dff","ios":"levelo://app?vid=4ac8ff19-3b11-40d5-9853-fe542b6b1dff"},"vehicle_type_id":"4","last_reported":1779138058,"current_range_meters":7200,"station_id":"ce4bh3h2rcd13ifvqdo0","pricing_plan_id":"cebpf4jnsgd1na2vs0mg"},{"bike_id":"32002178-684c-43e8-9be6-799731394bbf","system_id":"levelo_inurba_marseille","lat":43.28612,"lon":5.37054,"is_reserved":false,"is_disabled":false,"rental_uris":{"android":"levelo://app?vid=32002178-684c-43e8-9be6-799731394bbf","ios":"levelo://app?vid=32002178-684c-43e8-9be6-799731394bbf"},"vehicle_type_id":"4","last_reported":1779138058,"current_range_meters":7200,"station_id":"ce4bht12rcd13ifvqi60","pricing_plan_id":"cebpf4jnsgd1na2vs0mg"},{"bike_id":"5838cbd4-3594-4074-87c7-4262fb50c5d2","system_id":"levelo_inurba_marseille","lat":43.26761,"lon":5.39441,"is_reserved":false,"is_disabled":false,"rental_uris":{"android":"levelo://app?vid=5838cbd4-3594-4074-87c7-4262fb50c5d2","ios":"levelo://app?vid=5838cbd4-3594-4074-87c7-4262fb50c5d2"},"vehicle_type_id":"4","last_reported":1779138058,"current_range_meters":7200,"station_id":"ce4bhh12rcd13ifvqfg0","pricing_plan_id":"cebpf4jnsgd1na2vs0mg"},{"bike_id":"21500814-6683-446e-8685-c501c2e51c66","system_id":"levelo_inurba_marseille","lat":43.30888,"lon":5.37201,"is_reserved":false,"is_disabled":false,"rental_uris":{"android":"levelo://app?vid=21500814-6683-446e-8685-c501c2e51c66","ios":"levelo://app?vid=21500814-6683-446e-8685-c501c2e51c66"},"vehicle_type_id":"4","last_reported":1779138058,"current_range_meters":7200,"station_id":"ce4bguh2rcd13ifvqckg","pricing_plan_id":"cebpf4jnsgd1na2vs0mg"},{"bike_id":"87734c19-e7b5-4722-9118-7ad40bbc200d","system_id":"levelo_inurba_marseille","lat":43.31064,"lon":5.37171,"is_reserved":false,"is_disabled":false,"rental_uris":{"android":"levelo://app?vid=87734c19-e7b5-4722-9118-7ad40bbc200d","ios":"levelo://app?vid=87734c19-e7b5-4722-9118-7ad40bbc200d"},"vehicle_type_id":"4","last_reported":1779138058,"current_range_meters":7200,"station_id":"st_d4kl2rp97mjs73e7tdfg","pricing_plan_id":"cebpf4jnsgd1na2vs0mg"},{"bike_id":"fecbad9b-de34-45b5-aec9-0d12e826acd8","system_id":"levelo_inurba_marseille","lat":43.21189,"lon":5.35065,"is_reserved":false,"is_disabled":true,"rental_uris":{"android":"levelo://app?vid=fecbad9b-de34-45b5-aec9-0d12e826acd8","ios":"levelo://app?vid=fecbad9b-de34-45b5-aec9-0d12e826acd8"},"vehicle_type_id":"4","last_reported":1779138058,"current_range_meters":7200,"station_id":"st_cvj6sg6p6f1abm77japg","pricing_plan_id":"cebpf4jnsgd1na2vs0mg"},{"bike_id":"6bd314e1-ab15-4455-b889-55d1f77e4075","system_id":"levelo_inurba_marseille","lat":43.28573,"lon":5.35168,"is_reserved":false,"is_disabled":false,"rental_uris":{"android":"levelo://app?vid=6bd314e1-ab15-4455-b889-55d1f77e4075","ios":"levelo://app?vid=6bd314e1-ab15-4455-b889-55d1f77e4075"},"vehicle_type_id":"4","last_reported":1779138058,"current_range_meters":7200,"station_id":"","pricing_plan_id":"cebpf4jnsgd1na2vs0mg"},{"bike_id":"a739f6f6-8343-4c4c-be8c-5f6e7deabd5f","system_id":"levelo_inurba_marseille","lat":43.26294,"lon":5.37409,"is_reserved":false,"is_disabled":false,"rental_uris":{"android":"levelo://app?vid=a739f6f6-8343-4c4c-be8c-5f6e7deabd5f","ios":"levelo://app?vid=a739f6f6-8343-4c4c-be8c-5f6e7deabd5f"},"vehicle_type_id":"4","last_reported":1779138058,"current_range_meters":7200,"station_id":"","pricing_plan_id":"cebpf4jnsgd1na2vs0mg"},{"bike_id":"dc16d907-1362-4b3a-9410-43b0effbb837","system_id":"levelo_inurba_marseille","lat":43.30528,"lon":5.38425,"is_reserved":false,"is_disabled":false,"rental_uris":{"android":"levelo://app?vid=dc16d907-1362-4b3a-9410-43b0effbb837","ios":"levelo://app?vid=dc16d907-1362-4b3a-9410-43b0effbb837"},"vehicle_type_id":"4","last_reported":1779138058,"current_range_meters":7200,"station_id":"ce4bgg92rcd13ifvqb30","pricing_plan_id":"cebpf4jnsgd1na2vs0mg"},{"bike_id":"6a4190a9-60c1-474d-b36b-bd9f7c409216","system_id":"levelo_inurba_marseille","lat":43.30376,"lon":5.4248,"is_reserved":false,"is_disabled":false,"rental_uris":{"android":"levelo://app?vid=6a4190a9-60c1-474d-b36b-bd9f7c409216","ios":"levelo://app?vid=6a4190a9-60c1-474d-b36b-bd9f7c409216"},"vehicle_type_id":"4","last_reported":1779138058,"current_range_meters":7200,"station_id":"ce4bhoh2rcd13ifvqh6g","pricing_plan_id":"cebpf4jnsgd1na2vs0mg"},{"bike_id":"76822842-6de5-44db-bee3-28d0eed2902b","system_id":"levelo_inurba_marseille","lat":43.22922,"lon":5.35378,"is_reserved":false,"is_disabled":false,"rental_uris":{"android":"levelo://app?vid=76822842-6de5-44db-bee3-28d0eed2902b","ios":"levelo://app?vid=76822842-6de5-44db-bee3-28d0eed2902b"},"vehicle_type_id":"4","last_reported":1779138058,"current_range_meters":7200,"station_id":"cpo3532slgdg3j2ikp40","pricing_plan_id":"cebpf4jnsgd1na2vs0mg"},{"bike_id":"4a170901-2cdd-442d-aa21-d97612b5b3ec","system_id":"levelo_inurba_marseille","lat":43.28629,"lon":5.35097,"is_reserved":false,"is_disabled":false,"rental_uris":{"android":"levelo://app?vid=4a170901-2cdd-442d-aa21-d97612b5b3ec","ios":"levelo://app?vid=4a170901-2cdd-442d-aa21-d97612b5b3ec"},"vehicle_type_id":"4","last_reported":1779138058,"current_range_meters":7200,"station_id":"ce4bhch2rcd13ifvqeug","pricing_plan_id":"cebpf4jnsgd1na2vs0mg"},{"bike_id":"67298b0d-96b3-4d14-87eb-fc9a2dd8b027","system_id":"levelo_inurba_marseille","lat":43.25123,"lon":5.40309,"is_reserved":false,"is_disabled":false,"rental_uris":{"android":"levelo://app?vid=67298b0d-96b3-4d14-87eb-fc9a2dd8b027","ios":"levelo://app?vid=67298b0d-96b3-4d14-87eb-fc9a2dd8b027"},"vehicle_type_id":"4","last_reported":1779138058,"current_range_meters":7200,"station_id":"ce4bhkp2rcd13ifvqgd0","pricing_plan_id":"cebpf4jnsgd1na2vs0mg"},{"bike_id":"0c317d67-551a-4f9d-9220-56f890aa499e","system_id":"levelo_inurba_marseille","lat":43.28607,"lon":5.39861,"is_reserved":false,"is_disabled":false,"rental_uris":{"android":"levelo://app?vid=0c317d67-551a-4f9d-9220-56f890aa499e","ios":"levelo://app?vid=0c317d67-551a-4f9d-9220-56f890aa499e"},"vehicle_type_id":"4","last_reported":1779138058,"current_range_meters":7200,"station_id":"st_d4a7ka997mjs738ck50g","pricing_plan_id":"cebpf4jnsgd1na2vs0mg"},{"bike_id":"5d76ac2d-dba9-436a-9804-f75dcc3a73f8","system_id":"levelo_inurba_marseille","lat":43.30813,"lon":5.38159,"is_reserved":false,"is_disabled":false,"rental_uris":{"android":"levelo://app?vid=5d76ac2d-dba9-436a-9804-f75dcc3a73f8","ios":"levelo://app?vid=5d76ac2d-dba9-436a-9804-f75dcc3a73f8"},"vehicle_type_id":"4","last_reported":1779138058,"current_range_meters":7200,"station_id":"ce4bgt12rcd13ifvqce0","pricing_plan_id":"cebpf4jnsgd1na2vs0mg"},{"bike_id":"8bd2b4dc-f458-4c7d-9cb0-4fe0a8375090","system_id":"levelo_inurba_marseille","lat":43.29534,"lon":5.38542,"is_reserved":false,"is_disabled":false,"rental_uris":{"android":"levelo://app?vid=8bd2b4dc-f458-4c7d-9cb0-4fe0a8375090","ios":"levelo://app?vid=8bd2b4dc-f458-4c7d-9cb0-4fe0a8375090"},"vehicle_type_id":"4","last_reported":1779138058,"current_range_meters":7200,"station_id":"ce4bgih2rcd13ifvqba0","pricing_plan_id":"cebpf4jnsgd1na2vs0mg"},{"bike_id":"b27287c5-907b-4d58-ab2f-fd6bb99bea76","system_id":"levelo_inurba_marseille","lat":43.25141,"lon":5.40316,"is_reserved":false,"is_disabled":false,"rental_uris":{"android":"levelo://app?vid=b27287c5-907b-4d58-ab2f-fd6bb99bea76","ios":"levelo://app?vid=b27287c5-907b-4d58-ab2f-fd6bb99bea76"},"vehicle_type_id":"4","last_reported":1779138058,"current_range_meters":8000,"station_id":"ce4bhlh2rcd13ifvqgig","pricing_plan_id":"cebpf4jnsgd1na2vs0mg"},{"bike_id":"b7097421-a56a-4622-9da5-ded6bbb1b7ae","system_id":"levelo_inurba_marseille","lat":43.30895,"lon":5.39646,"is_reserved":false,"is_disabled":false,"rental_uris":{"android":"levelo://app?vid=b7097421-a56a-4622-9da5-ded6bbb1b7ae","ios":"levelo://app?vid=b7097421-a56a-4622-9da5-ded6bbb1b7ae"},"vehicle_type_id":"4","last_reported":1779138058,"current_range_meters":8000,"station_id":"ce4bh012rcd13ifvqcv0","pricing_plan_id":"cebpf4jnsgd1na2vs0mg"},{"bike_id":"2d03e62f-ba8b-4d0b-92f6-555161cc53ff","system_id":"levelo_inurba_marseille","lat":43.29767,"lon":5.41329,"is_reserved":false,"is_disabled":false,"rental_uris":{"android":"levelo://app?vid=2d03e62f-ba8b-4d0b-92f6-555161cc53ff","ios":"levelo://app?vid=2d03e62f-ba8b-4d0b-92f6-555161cc53ff"},"vehicle_type_id":"4","last_reported":1779138058,"current_range_meters":8000,"station_id":"","pricing_plan_id":"cebpf4jnsgd1na2vs0mg"},{"bike_id":"31d2ea7f-0d71-43d5-803e-b65cad381563","system_id":"levelo_inurba_marseille","lat":43.30587,"lon":5.3935,"is_reserved":false,"is_disabled":false,"rental_uris":{"android":"levelo://app?vid=31d2ea7f-0d71-43d5-803e-b65cad381563","ios":"levelo://app?vid=31d2ea7f-0d71-43d5-803e-b65cad381563"},"vehicle_type_id":"4","last_reported":1779138058,"current_range_meters":8000,"station_id":"ce4bh0p2rcd13ifvqd80","pricing_plan_id":"cebpf4jnsgd1na2vs0mg"},{"bike_id":"5eb11d83-2461-40c2-9484-0a35868d2011","system_id":"levelo_inurba_marseille","lat":43.29767,"lon":5.42767,"is_reserved":false,"is_disabled":true,"rental_uris":{"android":"levelo://app?vid=5eb11d83-2461-40c2-9484-0a35868d2011","ios":"levelo://app?vid=5eb11d83-2461-40c2-9484-0a35868d2011"},"vehicle_type_id":"4","last_reported":1779138058,"current_range_meters":8000,"station_id":"st_d3md5207bmas73dh9klg","pricing_plan_id":"cebpf4jnsgd1na2vs0mg"},{"bike_id":"ee4c4f1c-528d-4985-bf57-398fb25d0967","system_id":"levelo_inurba_marseille","lat":43.32009,"lon":5.38145,"is_reserved":false,"is_disabled":false,"rental_uris":{"android":"levelo://app?vid=ee4c4f1c-528d-4985-bf57-398fb25d0967","ios":"levelo://app?vid=ee4c4f1c-528d-4985-bf57-398fb25d0967"},"vehicle_type_id":"4","last_reported":1779138058,"current_range_meters":8000,"station_id":"ce4bhr12rcd13ifvqhpg","pricing_plan_id":"cebpf4jnsgd1na2vs0mg"},{"bike_id":"adfe9037-b261-48fa-9222-93c4748b68a8","system_id":"levelo_inurba_marseille","lat":43.29025,"lon":5.3808,"is_reserved":false,"is_disabled":false,"rental_uris":{"android":"levelo://app?vid=adfe9037-b261-48fa-9222-93c4748b68a8","ios":"levelo://app?vid=adfe9037-b261-48fa-9222-93c4748b68a8"},"vehicle_type_id":"4","last_reported":1779138058,"current_range_meters":8000,"station_id":"ce4bh4p2rcd13ifvqe1g","pricing_plan_id":"cebpf4jnsgd1na2vs0mg"},{"bike_id":"7b6ce7be-dae1-47d9-ae25-32475a85a9ee","system_id":"levelo_inurba_marseille","lat":43.29994,"lon":5.38489,"is_reserved":false,"is_disabled":false,"rental_uris":{"android":"levelo://app?vid=7b6ce7be-dae1-47d9-ae25-32475a85a9ee","ios":"levelo://app?vid=7b6ce7be-dae1-47d9-ae25-32475a85a9ee"},"vehicle_type_id":"4","last_reported":1779138058,"current_range_meters":8000,"station_id":"ce4bgj92rcd13ifvqbd0","pricing_plan_id":"cebpf4jnsgd1na2vs0mg"},{"bike_id":"5e265005-9551-4579-b283-b599febcb750","system_id":"levelo_inurba_marseille","lat":43.23184,"lon":5.3998,"is_reserved":false,"is_disabled":false,"rental_uris":{"android":"levelo://app?vid=5e265005-9551-4579-b283-b599febcb750","ios":"levelo://app?vid=5e265005-9551-4579-b283-b599febcb750"},"vehicle_type_id":"4","last_reported":1779138058,"current_range_meters":8000,"station_id":"ce4bhn12rcd13ifvqgqg","pricing_plan_id":"cebpf4jnsgd1na2vs0mg"},{"bike_id":"55bc82df-e573-45c7-a6cf-359973b3643c","system_id":"levelo_inurba_marseille","lat":43.279965,"lon":5.416612,"is_reserved":false,"is_disabled":false,"rental_uris":{"android":"levelo://app?vid=55bc82df-e573-45c7-a6cf-359973b3643c","ios":"levelo://app?vid=55bc82df-e573-45c7-a6cf-359973b3643c"},"vehicle_type_id":"4","last_reported":1779138058,"current_range_meters":8000,"station_id":"ce4bho12rcd13ifvqh1g","pricing_plan_id":"cebpf4jnsgd1na2vs0mg"},{"bike_id":"15363b54-e214-4b72-9d88-6d6f824039df","system_id":"levelo_inurba_marseille","lat":43.25691,"lon":5.41948,"is_reserved":false,"is_disabled":false,"rental_uris":{"android":"levelo://app?vid=15363b54-e214-4b72-9d88-6d6f824039df","ios":"levelo://app?vid=15363b54-e214-4b72-9d88-6d6f824039df"},"vehicle_type_id":"4","last_reported":1779138058,"current_range_meters":8000,"station_id":"","pricing_plan_id":"cebpf4jnsgd1na2vs0mg"},{"bike_id":"1e7eeb6e-f6c4-4208-9356-8e94a37f45b8","system_id":"levelo_inurba_marseille","lat":43.29449,"lon":5.39754,"is_reserved":false,"is_disabled":true,"rental_uris":{"android":"levelo://app?vid=1e7eeb6e-f6c4-4208-9356-8e94a37f45b8","ios":"levelo://app?vid=1e7eeb6e-f6c4-4208-9356-8e94a37f45b8"},"vehicle_type_id":"4","last_reported":1779138058,"current_range_meters":8000,"station_id":"ce4bh3h2rcd13ifvqdo0","pricing_plan_id":"cebpf4jnsgd1na2vs0mg"},{"bike_id":"c0d467e6-6fef-4d21-8af4-af3c30cfe717","system_id":"levelo_inurba_marseille","lat":43.29802,"lon":5.36504,"is_reserved":false,"is_disabled":false,"rental_uris":{"android":"levelo://app?vid=c0d467e6-6fef-4d21-8af4-af3c30cfe717","ios":"levelo://app?vid=c0d467e6-6fef-4d21-8af4-af3c30cfe717"},"vehicle_type_id":"4","last_reported":1779138058,"current_range_meters":8000,"station_id":"","pricing_plan_id":"cebpf4jnsgd1na2vs0mg"},{"bike_id":"ac4e8799-8ff6-4ce5-9431-c9eefa641e01","system_id":"levelo_inurba_marseille","lat":43.29574,"lon":5.39965,"is_reserved":false,"is_disabled":false,"rental_uris":{"android":"levelo://app?vid=ac4e8799-8ff6-4ce5-9431-c9eefa641e01","ios":"levelo://app?vid=ac4e8799-8ff6-4ce5-9431-c9eefa641e01"},"vehicle_type_id":"4","last_reported":1779138058,"current_range_meters":8000,"station_id":"ce4bh312rcd13ifvqdj0","pricing_plan_id":"cebpf4jnsgd1na2vs0mg"},{"bike_id":"71688001-db4c-4822-91b8-2ea11131a9b1","system_id":"levelo_inurba_marseille","lat":43.28939,"lon":5.36618,"is_reserved":false,"is_disabled":false,"rental_uris":{"android":"levelo://app?vid=71688001-db4c-4822-91b8-2ea11131a9b1","ios":"levelo://app?vid=71688001-db4c-4822-91b8-2ea11131a9b1"},"vehicle_type_id":"4","last_reported":1779138058,"current_range_meters":8000,"station_id":"ce4bhap2rcd13ifvqek0","pricing_plan_id":"cebpf4jnsgd1na2vs0mg"},{"bike_id":"2c3aff6c-5ea5-454b-9fb3-3d51f48b5461","system_id":"levelo_inurba_marseille","lat":43.28692,"lon":5.38652,"is_reserved":false,"is_disabled":false,"rental_uris":{"android":"levelo://app?vid=2c3aff6c-5ea5-454b-9fb3-3d51f48b5461","ios":"levelo://app?vid=2c3aff6c-5ea5-454b-9fb3-3d51f48b5461"},"vehicle_type_id":"4","last_reported":1779138058,"current_range_meters":8000,"station_id":"ce4bh492rcd13ifvqdug","pricing_plan_id":"cebpf4jnsgd1na2vs0mg"},{"bike_id":"1cfea1fe-4dbd-4626-b852-88bcbad730c4","system_id":"levelo_inurba_marseille","lat":43.30259,"lon":5.40083,"is_reserved":false,"is_disabled":false,"rental_uris":{"android":"levelo://app?vid=1cfea1fe-4dbd-4626-b852-88bcbad730c4","ios":"levelo://app?vid=1cfea1fe-4dbd-4626-b852-88bcbad730c4"},"vehicle_type_id":"4","last_reported":1779138058,"current_range_meters":8000,"station_id":"ce4bgvh2rcd13ifvqcs0","pricing_plan_id":"cebpf4jnsgd1na2vs0mg"},{"bike_id":"c2e65253-62b7-4a1d-b0c0-5b91ba0c0ab6","system_id":"levelo_inurba_marseille","lat":43.28542,"lon":5.44103,"is_reserved":false,"is_disabled":false,"rental_uris":{"android":"levelo://app?vid=c2e65253-62b7-4a1d-b0c0-5b91ba0c0ab6","ios":"levelo://app?vid=c2e65253-62b7-4a1d-b0c0-5b91ba0c0ab6"},"vehicle_type_id":"4","last_reported":1779138058,"current_range_meters":8000,"station_id":"st_d3j3df2ikq2c7380ej80","pricing_plan_id":"cebpf4jnsgd1na2vs0mg"},{"bike_id":"bd8b6028-8ecf-494d-87d2-0b1eb8c458c3","system_id":"levelo_inurba_marseille","lat":43.295572,"lon":5.395163,"is_reserved":false,"is_disabled":false,"rental_uris":{"android":"levelo://app?vid=bd8b6028-8ecf-494d-87d2-0b1eb8c458c3","ios":"levelo://app?vid=bd8b6028-8ecf-494d-87d2-0b1eb8c458c3"},"vehicle_type_id":"4","last_reported":1779138058,"current_range_meters":8000,"station_id":"ce4bh312rcd13ifvqdj0","pricing_plan_id":"cebpf4jnsgd1na2vs0mg"},{"bike_id":"497e6644-8987-41b1-81ab-505bc931c380","system_id":"levelo_inurba_marseille","lat":43.2496,"lon":5.40489,"is_reserved":false,"is_disabled":false,"rental_uris":{"android":"levelo://app?vid=497e6644-8987-41b1-81ab-505bc931c380","ios":"levelo://app?vid=497e6644-8987-41b1-81ab-505bc931c380"},"vehicle_type_id":"4","last_reported":1779138058,"current_range_meters":8000,"station_id":"st_d2ngiaodas8pm72gd1h0","pricing_plan_id":"cebpf4jnsgd1na2vs0mg"},{"bike_id":"a8cc5db3-56fd-4a37-9585-f8d009cfb309","system_id":"levelo_inurba_marseille","lat":43.27426,"lon":5.40664,"is_reserved":false,"is_disabled":false,"rental_uris":{"android":"levelo://app?vid=a8cc5db3-56fd-4a37-9585-f8d009cfb309","ios":"levelo://app?vid=a8cc5db3-56fd-4a37-9585-f8d009cfb309"},"vehicle_type_id":"4","last_reported":1779138058,"current_range_meters":8000,"station_id":"","pricing_plan_id":"cebpf4jnsgd1na2vs0mg"},{"bike_id":"8cc509bd-11f7-400a-a28c-22d5f67c6ee1","system_id":"levelo_inurba_marseille","lat":43.281954,"lon":5.390701,"is_reserved":false,"is_disabled":false,"rental_uris":{"android":"levelo://app?vid=8cc509bd-11f7-400a-a28c-22d5f67c6ee1","ios":"levelo://app?vid=8cc509bd-11f7-400a-a28c-22d5f67c6ee1"},"vehicle_type_id":"4","last_reported":1779138058,"current_range_meters":8000,"station_id":"ce4bhn92rcd13ifvqgsg","pricing_plan_id":"cebpf4jnsgd1na2vs0mg"},{"bike_id":"de3b1317-4623-49c4-aaa5-aa900fb27b7c","system_id":"levelo_inurba_marseille","lat":43.30127,"lon":5.43121,"is_reserved":false,"is_disabled":false,"rental_uris":{"android":"levelo://app?vid=de3b1317-4623-49c4-aaa5-aa900fb27b7c","ios":"levelo://app?vid=de3b1317-4623-49c4-aaa5-aa900fb27b7c"},"vehicle_type_id":"4","last_reported":1779138058,"current_range_meters":8000,"station_id":"st_d3js3co5814s73ftftug","pricing_plan_id":"cebpf4jnsgd1na2vs0mg"},{"bike_id":"e51cd27c-a83e-4dc8-b67c-9bc0f3d88b36","system_id":"levelo_inurba_marseille","lat":43.30735,"lon":5.42432,"is_reserved":false,"is_disabled":false,"rental_uris":{"android":"levelo://app?vid=e51cd27c-a83e-4dc8-b67c-9bc0f3d88b36","ios":"levelo://app?vid=e51cd27c-a83e-4dc8-b67c-9bc0f3d88b36"},"vehicle_type_id":"4","last_reported":1779138058,"current_range_meters":8000,"station_id":"st_cvj6ca6bvosntc0bfgr0","pricing_plan_id":"cebpf4jnsgd1na2vs0mg"},{"bike_id":"bc056627-1c3f-4ad6-af07-b39b6b219bea","system_id":"levelo_inurba_marseille","lat":43.28675,"lon":5.36313,"is_reserved":false,"is_disabled":false,"rental_uris":{"android":"levelo://app?vid=bc056627-1c3f-4ad6-af07-b39b6b219bea","ios":"levelo://app?vid=bc056627-1c3f-4ad6-af07-b39b6b219bea"},"vehicle_type_id":"4","last_reported":1779138058,"current_range_meters":8000,"station_id":"ce4bhah2rcd13ifvqej0","pricing_plan_id":"cebpf4jnsgd1na2vs0mg"},{"bike_id":"c34d59f4-1b74-49c2-8cd7-a3ac52e77f2f","system_id":"levelo_inurba_marseille","lat":43.30603,"lon":5.37184,"is_reserved":false,"is_disabled":false,"rental_uris":{"android":"levelo://app?vid=c34d59f4-1b74-49c2-8cd7-a3ac52e77f2f","ios":"levelo://app?vid=c34d59f4-1b74-49c2-8cd7-a3ac52e77f2f"},"vehicle_type_id":"4","last_reported":1779138058,"current_range_meters":8000,"station_id":"ce4bgqh2rcd13ifvqc4g","pricing_plan_id":"cebpf4jnsgd1na2vs0mg"},{"bike_id":"de0075fb-deb1-4c13-b239-1af36e9430dd","system_id":"levelo_inurba_marseille","lat":43.31341,"lon":5.39717,"is_reserved":false,"is_disabled":false,"rental_uris":{"android":"levelo://app?vid=de0075fb-deb1-4c13-b239-1af36e9430dd","ios":"levelo://app?vid=de0075fb-deb1-4c13-b239-1af36e9430dd"},"vehicle_type_id":"4","last_reported":1779138058,"current_range_meters":8400,"station_id":"ce4bgvp2rcd13ifvqcu0","pricing_plan_id":"cebpf4jnsgd1na2vs0mg"},{"bike_id":"716ad749-9eb2-4471-b89a-a78f0c625c78","system_id":"levelo_inurba_marseille","lat":43.23183,"lon":5.39977,"is_reserved":false,"is_disabled":false,"rental_uris":{"android":"levelo://app?vid=716ad749-9eb2-4471-b89a-a78f0c625c78","ios":"levelo://app?vid=716ad749-9eb2-4471-b89a-a78f0c625c78"},"vehicle_type_id":"4","last_reported":1779138058,"current_range_meters":8400,"station_id":"ce4bhn12rcd13ifvqgqg","pricing_plan_id":"cebpf4jnsgd1na2vs0mg"},{"bike_id":"92d2aad7-69f3-4a25-95ec-202d9b4f3dd1","system_id":"levelo_inurba_marseille","lat":43.313298,"lon":5.396906,"is_reserved":false,"is_disabled":false,"rental_uris":{"android":"levelo://app?vid=92d2aad7-69f3-4a25-95ec-202d9b4f3dd1","ios":"levelo://app?vid=92d2aad7-69f3-4a25-95ec-202d9b4f3dd1"},"vehicle_type_id":"4","last_reported":1779138058,"current_range_meters":8400,"station_id":"ce4bgvp2rcd13ifvqcu0","pricing_plan_id":"cebpf4jnsgd1na2vs0mg"},{"bike_id":"0e0d5418-4a56-4251-8866-025e6b539885","system_id":"levelo_inurba_marseille","lat":43.28863,"lon":5.42504,"is_reserved":false,"is_disabled":false,"rental_uris":{"android":"levelo://app?vid=0e0d5418-4a56-4251-8866-025e6b539885","ios":"levelo://app?vid=0e0d5418-4a56-4251-8866-025e6b539885"},"vehicle_type_id":"4","last_reported":1779138058,"current_range_meters":8400,"station_id":"st_d3b462108ojc7389ooeg","pricing_plan_id":"cebpf4jnsgd1na2vs0mg"},{"bike_id":"ca4f6bf2-59b9-4fb8-9cc3-7ba12b36fa60","system_id":"levelo_inurba_marseille","lat":43.29609,"lon":5.40569,"is_reserved":false,"is_disabled":false,"rental_uris":{"android":"levelo://app?vid=ca4f6bf2-59b9-4fb8-9cc3-7ba12b36fa60","ios":"levelo://app?vid=ca4f6bf2-59b9-4fb8-9cc3-7ba12b36fa60"},"vehicle_type_id":"4","last_reported":1779138058,"current_range_meters":8400,"station_id":"ce4bh0h2rcd13ifvqd60","pricing_plan_id":"cebpf4jnsgd1na2vs0mg"},{"bike_id":"6e790415-aecf-44aa-a8ca-f8ab84aae953","system_id":"levelo_inurba_marseille","lat":43.28076,"lon":5.39651,"is_reserved":false,"is_disabled":false,"rental_uris":{"android":"levelo://app?vid=6e790415-aecf-44aa-a8ca-f8ab84aae953","ios":"levelo://app?vid=6e790415-aecf-44aa-a8ca-f8ab84aae953"},"vehicle_type_id":"4","last_reported":1779138058,"current_range_meters":8400,"station_id":"ce4bho12rcd13ifvqh2g","pricing_plan_id":"cebpf4jnsgd1na2vs0mg"},{"bike_id":"9d0b3c6e-0dc8-49a2-9703-e43e62925c50","system_id":"levelo_inurba_marseille","lat":43.2835,"lon":5.38626,"is_reserved":false,"is_disabled":false,"rental_uris":{"android":"levelo://app?vid=9d0b3c6e-0dc8-49a2-9703-e43e62925c50","ios":"levelo://app?vid=9d0b3c6e-0dc8-49a2-9703-e43e62925c50"},"vehicle_type_id":"4","last_reported":1779138058,"current_range_meters":8400,"station_id":"ce4bh492rcd13ifvqdvg","pricing_plan_id":"cebpf4jnsgd1na2vs0mg"},{"bike_id":"e6f19690-add7-4afb-aabb-6b8519815447","system_id":"levelo_inurba_marseille","lat":43.30523,"lon":5.38418,"is_reserved":false,"is_disabled":false,"rental_uris":{"android":"levelo://app?vid=e6f19690-add7-4afb-aabb-6b8519815447","ios":"levelo://app?vid=e6f19690-add7-4afb-aabb-6b8519815447"},"vehicle_type_id":"4","last_reported":1779138058,"current_range_meters":8400,"station_id":"ce4bgg92rcd13ifvqb30","pricing_plan_id":"cebpf4jnsgd1na2vs0mg"},{"bike_id":"06ef7304-d318-412d-bb27-eb750906e9a6","system_id":"levelo_inurba_marseille","lat":43.29516,"lon":5.39029,"is_reserved":false,"is_disabled":false,"rental_uris":{"android":"levelo://app?vid=06ef7304-d318-412d-bb27-eb750906e9a6","ios":"levelo://app?vid=06ef7304-d318-412d-bb27-eb750906e9a6"},"vehicle_type_id":"4","last_reported":1779138058,"current_range_meters":8400,"station_id":"ce4bh3p2rcd13ifvqdp0","pricing_plan_id":"cebpf4jnsgd1na2vs0mg"},{"bike_id":"5d4dc8e3-e1c8-4f4d-afda-06dc4c7d444e","system_id":"levelo_inurba_marseille","lat":43.2609,"lon":5.39385,"is_reserved":false,"is_disabled":false,"rental_uris":{"android":"levelo://app?vid=5d4dc8e3-e1c8-4f4d-afda-06dc4c7d444e","ios":"levelo://app?vid=5d4dc8e3-e1c8-4f4d-afda-06dc4c7d444e"},"vehicle_type_id":"4","last_reported":1779138058,"current_range_meters":8400,"station_id":"ce4bhh92rcd13ifvqfj0","pricing_plan_id":"cebpf4jnsgd1na2vs0mg"},{"bike_id":"c9513b4e-0f0e-49bc-bbff-f4414a2b16f9","system_id":"levelo_inurba_marseille","lat":43.27475,"lon":5.4163,"is_reserved":false,"is_disabled":false,"rental_uris":{"android":"levelo://app?vid=c9513b4e-0f0e-49bc-bbff-f4414a2b16f9","ios":"levelo://app?vid=c9513b4e-0f0e-49bc-bbff-f4414a2b16f9"},"vehicle_type_id":"4","last_reported":1779138058,"current_range_meters":8400,"station_id":"","pricing_plan_id":"cebpf4jnsgd1na2vs0mg"},{"bike_id":"147e10c5-f004-42c7-948b-464c1b400773","system_id":"levelo_inurba_marseille","lat":43.30295,"lon":5.39208,"is_reserved":false,"is_disabled":false,"rental_uris":{"android":"levelo://app?vid=147e10c5-f004-42c7-948b-464c1b400773","ios":"levelo://app?vid=147e10c5-f004-42c7-948b-464c1b400773"},"vehicle_type_id":"4","last_reported":1779138058,"current_range_meters":8400,"station_id":"ce4bgkh2rcd13ifvqbk0","pricing_plan_id":"cebpf4jnsgd1na2vs0mg"},{"bike_id":"fa592942-41bc-4de8-816e-0cc8cfc267c2","system_id":"levelo_inurba_marseille","lat":43.23956,"lon":5.3663,"is_reserved":false,"is_disabled":false,"rental_uris":{"android":"levelo://app?vid=fa592942-41bc-4de8-816e-0cc8cfc267c2","ios":"levelo://app?vid=fa592942-41bc-4de8-816e-0cc8cfc267c2"},"vehicle_type_id":"4","last_reported":1779138058,"current_range_meters":8400,"station_id":"ce4bhi12rcd13ifvqfp0","pricing_plan_id":"cebpf4jnsgd1na2vs0mg"},{"bike_id":"71dadbbf-2988-4d63-8dfa-fc0cb188b342","system_id":"levelo_inurba_marseille","lat":43.27057,"lon":5.40254,"is_reserved":false,"is_disabled":true,"rental_uris":{"android":"levelo://app?vid=71dadbbf-2988-4d63-8dfa-fc0cb188b342","ios":"levelo://app?vid=71dadbbf-2988-4d63-8dfa-fc0cb188b342"},"vehicle_type_id":"4","last_reported":1779138058,"current_range_meters":8400,"station_id":"ce4bhk92rcd13ifvqgc0","pricing_plan_id":"cebpf4jnsgd1na2vs0mg"},{"bike_id":"9a147a82-1909-4624-8e35-bd6b119bb2af","system_id":"levelo_inurba_marseille","lat":43.30659,"lon":5.40099,"is_reserved":false,"is_disabled":true,"rental_uris":{"android":"levelo://app?vid=9a147a82-1909-4624-8e35-bd6b119bb2af","ios":"levelo://app?vid=9a147a82-1909-4624-8e35-bd6b119bb2af"},"vehicle_type_id":"4","last_reported":1779138058,"current_range_meters":8400,"station_id":"ce4bh112rcd13ifvqda0","pricing_plan_id":"cebpf4jnsgd1na2vs0mg"},{"bike_id":"e40439b8-70d1-4a31-b2ca-aacd85765f54","system_id":"levelo_inurba_marseille","lat":43.32108,"lon":5.36793,"is_reserved":false,"is_disabled":false,"rental_uris":{"android":"levelo://app?vid=e40439b8-70d1-4a31-b2ca-aacd85765f54","ios":"levelo://app?vid=e40439b8-70d1-4a31-b2ca-aacd85765f54"},"vehicle_type_id":"4","last_reported":1779138058,"current_range_meters":8400,"station_id":"ce4bhrh2rcd13ifvqhug","pricing_plan_id":"cebpf4jnsgd1na2vs0mg"},{"bike_id":"41aeab6c-6978-4475-9abb-adbd218ad412","system_id":"levelo_inurba_marseille","lat":43.29619,"lon":5.37667,"is_reserved":false,"is_disabled":true,"rental_uris":{"android":"levelo://app?vid=41aeab6c-6978-4475-9abb-adbd218ad412","ios":"levelo://app?vid=41aeab6c-6978-4475-9abb-adbd218ad412"},"vehicle_type_id":"4","last_reported":1779138058,"current_range_meters":8400,"station_id":"ce4bgi92rcd13ifvqb90","pricing_plan_id":"cebpf4jnsgd1na2vs0mg"},{"bike_id":"ff3b4694-4c2d-4e0e-882d-168610d86b23","system_id":"levelo_inurba_marseille","lat":43.21743,"lon":5.34607,"is_reserved":false,"is_disabled":false,"rental_uris":{"android":"levelo://app?vid=ff3b4694-4c2d-4e0e-882d-168610d86b23","ios":"levelo://app?vid=ff3b4694-4c2d-4e0e-882d-168610d86b23"},"vehicle_type_id":"4","last_reported":1779138058,"current_range_meters":8400,"station_id":"st_cvj6r9ubvosntc0bgbag","pricing_plan_id":"cebpf4jnsgd1na2vs0mg"},{"bike_id":"604f2b02-108b-4d89-b5fd-713f05291d84","system_id":"levelo_inurba_marseille","lat":43.31179,"lon":5.38235,"is_reserved":false,"is_disabled":false,"rental_uris":{"android":"levelo://app?vid=604f2b02-108b-4d89-b5fd-713f05291d84","ios":"levelo://app?vid=604f2b02-108b-4d89-b5fd-713f05291d84"},"vehicle_type_id":"4","last_reported":1779138058,"current_range_meters":8400,"station_id":"","pricing_plan_id":"cebpf4jnsgd1na2vs0mg"},{"bike_id":"8ee2a7d7-cfab-46eb-bbee-79dc7f30c5e4","system_id":"levelo_inurba_marseille","lat":43.2794,"lon":5.41052,"is_reserved":false,"is_disabled":false,"rental_uris":{"android":"levelo://app?vid=8ee2a7d7-cfab-46eb-bbee-79dc7f30c5e4","ios":"levelo://app?vid=8ee2a7d7-cfab-46eb-bbee-79dc7f30c5e4"},"vehicle_type_id":"4","last_reported":1779138058,"current_range_meters":8400,"station_id":"ce4bhnp2rcd13ifvqh0g","pricing_plan_id":"cebpf4jnsgd1na2vs0mg"},{"bike_id":"4dc8177c-8240-4872-97f6-1b9344e31364","system_id":"levelo_inurba_marseille","lat":43.31728,"lon":5.42395,"is_reserved":false,"is_disabled":false,"rental_uris":{"android":"levelo://app?vid=4dc8177c-8240-4872-97f6-1b9344e31364","ios":"levelo://app?vid=4dc8177c-8240-4872-97f6-1b9344e31364"},"vehicle_type_id":"4","last_reported":1779138058,"current_range_meters":8400,"station_id":"ce4bhp92rcd13ifvqhbg","pricing_plan_id":"cebpf4jnsgd1na2vs0mg"},{"bike_id":"cc304cb8-4f68-43f5-87bd-386d540f3819","system_id":"levelo_inurba_marseille","lat":43.30306,"lon":5.39208,"is_reserved":false,"is_disabled":false,"rental_uris":{"android":"levelo://app?vid=cc304cb8-4f68-43f5-87bd-386d540f3819","ios":"levelo://app?vid=cc304cb8-4f68-43f5-87bd-386d540f3819"},"vehicle_type_id":"4","last_reported":1779138058,"current_range_meters":8400,"station_id":"ce4bgkh2rcd13ifvqbk0","pricing_plan_id":"cebpf4jnsgd1na2vs0mg"},{"bike_id":"37cb1772-1c83-44c5-a9c7-1dd078c91fa2","system_id":"levelo_inurba_marseille","lat":43.26957,"lon":5.38633,"is_reserved":false,"is_disabled":false,"rental_uris":{"android":"levelo://app?vid=37cb1772-1c83-44c5-a9c7-1dd078c91fa2","ios":"levelo://app?vid=37cb1772-1c83-44c5-a9c7-1dd078c91fa2"},"vehicle_type_id":"4","last_reported":1779138058,"current_range_meters":8400,"station_id":"ce4bhh92rcd13ifvqfh0","pricing_plan_id":"cebpf4jnsgd1na2vs0mg"},{"bike_id":"6ccf4f87-c84f-470c-9ce4-7958a1e238b2","system_id":"levelo_inurba_marseille","lat":43.24958,"lon":5.40497,"is_reserved":false,"is_disabled":false,"rental_uris":{"android":"levelo://app?vid=6ccf4f87-c84f-470c-9ce4-7958a1e238b2","ios":"levelo://app?vid=6ccf4f87-c84f-470c-9ce4-7958a1e238b2"},"vehicle_type_id":"4","last_reported":1779138058,"current_range_meters":8400,"station_id":"st_d2ngiaodas8pm72gd1h0","pricing_plan_id":"cebpf4jnsgd1na2vs0mg"},{"bike_id":"13385d31-9d70-40eb-8cc5-7110dec04d8b","system_id":"levelo_inurba_marseille","lat":43.28848,"lon":5.35852,"is_reserved":false,"is_disabled":false,"rental_uris":{"android":"levelo://app?vid=13385d31-9d70-40eb-8cc5-7110dec04d8b","ios":"levelo://app?vid=13385d31-9d70-40eb-8cc5-7110dec04d8b"},"vehicle_type_id":"4","last_reported":1779138058,"current_range_meters":8400,"station_id":"ce4bhb12rcd13ifvqem0","pricing_plan_id":"cebpf4jnsgd1na2vs0mg"},{"bike_id":"aa8c0e15-ccda-428a-91ca-f1f0bc2527ff","system_id":"levelo_inurba_marseille","lat":43.30106,"lon":5.39053,"is_reserved":false,"is_disabled":false,"rental_uris":{"android":"levelo://app?vid=aa8c0e15-ccda-428a-91ca-f1f0bc2527ff","ios":"levelo://app?vid=aa8c0e15-ccda-428a-91ca-f1f0bc2527ff"},"vehicle_type_id":"4","last_reported":1779138058,"current_range_meters":8800,"station_id":"ce4bh192rcd13ifvqdb0","pricing_plan_id":"cebpf4jnsgd1na2vs0mg"},{"bike_id":"626f8d4e-2654-41bb-adc8-7cdd5f5a4c8e","system_id":"levelo_inurba_marseille","lat":43.28278,"lon":5.35056,"is_reserved":false,"is_disabled":true,"rental_uris":{"android":"levelo://app?vid=626f8d4e-2654-41bb-adc8-7cdd5f5a4c8e","ios":"levelo://app?vid=626f8d4e-2654-41bb-adc8-7cdd5f5a4c8e"},"vehicle_type_id":"4","last_reported":1779138058,"current_range_meters":8800,"station_id":"ce4bhbp2rcd13ifvqerg","pricing_plan_id":"cebpf4jnsgd1na2vs0mg"},{"bike_id":"604c8d35-0292-4781-b66d-7833a0f007ea","system_id":"levelo_inurba_marseille","lat":43.33559,"lon":5.37452,"is_reserved":false,"is_disabled":false,"rental_uris":{"android":"levelo://app?vid=604c8d35-0292-4781-b66d-7833a0f007ea","ios":"levelo://app?vid=604c8d35-0292-4781-b66d-7833a0f007ea"},"vehicle_type_id":"4","last_reported":1779138058,"current_range_meters":8800,"station_id":"st_d46tts09ee8s73dlu43g","pricing_plan_id":"cebpf4jnsgd1na2vs0mg"},{"bike_id":"6a267b88-21e7-4780-a798-a9852d3f692d","system_id":"levelo_inurba_marseille","lat":43.30792,"lon":5.37671,"is_reserved":false,"is_disabled":false,"rental_uris":{"android":"levelo://app?vid=6a267b88-21e7-4780-a798-a9852d3f692d","ios":"levelo://app?vid=6a267b88-21e7-4780-a798-a9852d3f692d"},"vehicle_type_id":"4","last_reported":1779138058,"current_range_meters":8800,"station_id":"ce4bgv92rcd13ifvqcq0","pricing_plan_id":"cebpf4jnsgd1na2vs0mg"},{"bike_id":"695b8d0a-21a4-49aa-b015-a857cf7302c9","system_id":"levelo_inurba_marseille","lat":43.27561,"lon":5.38406,"is_reserved":false,"is_disabled":false,"rental_uris":{"android":"levelo://app?vid=695b8d0a-21a4-49aa-b015-a857cf7302c9","ios":"levelo://app?vid=695b8d0a-21a4-49aa-b015-a857cf7302c9"},"vehicle_type_id":"4","last_reported":1779138058,"current_range_meters":8800,"station_id":"ce4bhh92rcd13ifvqfi0","pricing_plan_id":"cebpf4jnsgd1na2vs0mg"},{"bike_id":"359eb808-75a6-4e9a-b943-bf5873a0e29f","system_id":"levelo_inurba_marseille","lat":43.25578,"lon":5.38235,"is_reserved":false,"is_disabled":false,"rental_uris":{"android":"levelo://app?vid=359eb808-75a6-4e9a-b943-bf5873a0e29f","ios":"levelo://app?vid=359eb808-75a6-4e9a-b943-bf5873a0e29f"},"vehicle_type_id":"4","last_reported":1779138058,"current_range_meters":8800,"station_id":"ce4bhih2rcd13ifvqfs0","pricing_plan_id":"cebpf4jnsgd1na2vs0mg"},{"bike_id":"3cb0f51f-6dcd-4632-878c-d970324133b7","system_id":"levelo_inurba_marseille","lat":43.239,"lon":5.37454,"is_reserved":false,"is_disabled":false,"rental_uris":{"android":"levelo://app?vid=3cb0f51f-6dcd-4632-878c-d970324133b7","ios":"levelo://app?vid=3cb0f51f-6dcd-4632-878c-d970324133b7"},"vehicle_type_id":"4","last_reported":1779138058,"current_range_meters":8800,"station_id":"st_d6sm7csbq4hs73f8fpjg","pricing_plan_id":"cebpf4jnsgd1na2vs0mg"},{"bike_id":"2fbad4ff-3321-4ed4-955d-868f812d0490","system_id":"levelo_inurba_marseille","lat":43.24463,"lon":5.4253,"is_reserved":false,"is_disabled":false,"rental_uris":{"android":"levelo://app?vid=2fbad4ff-3321-4ed4-955d-868f812d0490","ios":"levelo://app?vid=2fbad4ff-3321-4ed4-955d-868f812d0490"},"vehicle_type_id":"4","last_reported":1779138058,"current_range_meters":8800,"station_id":"st_d4a3vfp97mjs738cd8kg","pricing_plan_id":"cebpf4jnsgd1na2vs0mg"},{"bike_id":"19fccb6d-84ac-468d-a9f7-7b56ef95dfe2","system_id":"levelo_inurba_marseille","lat":43.29528,"lon":5.38546,"is_reserved":false,"is_disabled":false,"rental_uris":{"android":"levelo://app?vid=19fccb6d-84ac-468d-a9f7-7b56ef95dfe2","ios":"levelo://app?vid=19fccb6d-84ac-468d-a9f7-7b56ef95dfe2"},"vehicle_type_id":"4","last_reported":1779138058,"current_range_meters":8800,"station_id":"ce4bgih2rcd13ifvqba0","pricing_plan_id":"cebpf4jnsgd1na2vs0mg"},{"bike_id":"50cfa01f-de61-45f0-90a3-3f0cfe3b0f41","system_id":"levelo_inurba_marseille","lat":43.27208,"lon":5.38565,"is_reserved":false,"is_disabled":false,"rental_uris":{"android":"levelo://app?vid=50cfa01f-de61-45f0-90a3-3f0cfe3b0f41","ios":"levelo://app?vid=50cfa01f-de61-45f0-90a3-3f0cfe3b0f41"},"vehicle_type_id":"4","last_reported":1779138058,"current_range_meters":8800,"station_id":"","pricing_plan_id":"cebpf4jnsgd1na2vs0mg"},{"bike_id":"1b42c5dd-00ec-48cc-82a7-a3569ef1f8f0","system_id":"levelo_inurba_marseille","lat":43.28624,"lon":5.39866,"is_reserved":false,"is_disabled":false,"rental_uris":{"android":"levelo://app?vid=1b42c5dd-00ec-48cc-82a7-a3569ef1f8f0","ios":"levelo://app?vid=1b42c5dd-00ec-48cc-82a7-a3569ef1f8f0"},"vehicle_type_id":"4","last_reported":1779138058,"current_range_meters":8800,"station_id":"st_d4a7ka997mjs738ck50g","pricing_plan_id":"cebpf4jnsgd1na2vs0mg"},{"bike_id":"544a5a8f-218d-4183-b454-e008e38c18a0","system_id":"levelo_inurba_marseille","lat":43.24656,"lon":5.38868,"is_reserved":false,"is_disabled":false,"rental_uris":{"android":"levelo://app?vid=544a5a8f-218d-4183-b454-e008e38c18a0","ios":"levelo://app?vid=544a5a8f-218d-4183-b454-e008e38c18a0"},"vehicle_type_id":"4","last_reported":1779138058,"current_range_meters":8800,"station_id":"ce4bhg12rcd13ifvqf60","pricing_plan_id":"cebpf4jnsgd1na2vs0mg"},{"bike_id":"0fd36076-af9f-4d78-aea2-d4ee499a4161","system_id":"levelo_inurba_marseille","lat":43.299816,"lon":5.371862,"is_reserved":false,"is_disabled":false,"rental_uris":{"android":"levelo://app?vid=0fd36076-af9f-4d78-aea2-d4ee499a4161","ios":"levelo://app?vid=0fd36076-af9f-4d78-aea2-d4ee499a4161"},"vehicle_type_id":"4","last_reported":1779138058,"current_range_meters":8800,"station_id":"ce4bgr92rcd13ifvqc7g","pricing_plan_id":"cebpf4jnsgd1na2vs0mg"},{"bike_id":"3942a10b-fbde-44cf-9339-8b9493e06000","system_id":"levelo_inurba_marseille","lat":43.29047,"lon":5.37532,"is_reserved":false,"is_disabled":true,"rental_uris":{"android":"levelo://app?vid=3942a10b-fbde-44cf-9339-8b9493e06000","ios":"levelo://app?vid=3942a10b-fbde-44cf-9339-8b9493e06000"},"vehicle_type_id":"4","last_reported":1779138058,"current_range_meters":8800,"station_id":"ce4bh692rcd13ifvqe90","pricing_plan_id":"cebpf4jnsgd1na2vs0mg"},{"bike_id":"6b4a17da-6f65-4878-8770-e57be1f60b38","system_id":"levelo_inurba_marseille","lat":43.2965,"lon":5.40604,"is_reserved":false,"is_disabled":false,"rental_uris":{"android":"levelo://app?vid=6b4a17da-6f65-4878-8770-e57be1f60b38","ios":"levelo://app?vid=6b4a17da-6f65-4878-8770-e57be1f60b38"},"vehicle_type_id":"4","last_reported":1779138058,"current_range_meters":8800,"station_id":"ce4bh0h2rcd13ifvqd60","pricing_plan_id":"cebpf4jnsgd1na2vs0mg"},{"bike_id":"0c2b3871-9f7c-47e4-b56c-51981e5f12b4","system_id":"levelo_inurba_marseille","lat":43.27617,"lon":5.36113,"is_reserved":false,"is_disabled":false,"rental_uris":{"android":"levelo://app?vid=0c2b3871-9f7c-47e4-b56c-51981e5f12b4","ios":"levelo://app?vid=0c2b3871-9f7c-47e4-b56c-51981e5f12b4"},"vehicle_type_id":"4","last_reported":1779138058,"current_range_meters":8800,"station_id":"ce4bgj92rcd13ifvqbe0","pricing_plan_id":"cebpf4jnsgd1na2vs0mg"},{"bike_id":"80b1c03c-fc50-4b1b-af3e-919d3841c97e","system_id":"levelo_inurba_marseille","lat":43.28712,"lon":5.37931,"is_reserved":false,"is_disabled":false,"rental_uris":{"android":"levelo://app?vid=80b1c03c-fc50-4b1b-af3e-919d3841c97e","ios":"levelo://app?vid=80b1c03c-fc50-4b1b-af3e-919d3841c97e"},"vehicle_type_id":"4","last_reported":1779138058,"current_range_meters":8800,"station_id":"ce4bh9p2rcd13ifvqec0","pricing_plan_id":"cebpf4jnsgd1na2vs0mg"},{"bike_id":"c80798d6-8316-464a-b206-1385d77e76f4","system_id":"levelo_inurba_marseille","lat":43.30092,"lon":5.39107,"is_reserved":false,"is_disabled":false,"rental_uris":{"android":"levelo://app?vid=c80798d6-8316-464a-b206-1385d77e76f4","ios":"levelo://app?vid=c80798d6-8316-464a-b206-1385d77e76f4"},"vehicle_type_id":"4","last_reported":1779138058,"current_range_meters":8800,"station_id":"ce4bh192rcd13ifvqdb0","pricing_plan_id":"cebpf4jnsgd1na2vs0mg"},{"bike_id":"8bd36308-f19b-4c81-baf2-f80d63464915","system_id":"levelo_inurba_marseille","lat":43.27204,"lon":5.40985,"is_reserved":false,"is_disabled":false,"rental_uris":{"android":"levelo://app?vid=8bd36308-f19b-4c81-baf2-f80d63464915","ios":"levelo://app?vid=8bd36308-f19b-4c81-baf2-f80d63464915"},"vehicle_type_id":"4","last_reported":1779138058,"current_range_meters":8800,"station_id":"ce4bhl12rcd13ifvqgf0","pricing_plan_id":"cebpf4jnsgd1na2vs0mg"},{"bike_id":"d5507518-cb58-4fc3-a22b-de5ad3c6e51d","system_id":"levelo_inurba_marseille","lat":43.29817,"lon":5.44064,"is_reserved":false,"is_disabled":false,"rental_uris":{"android":"levelo://app?vid=d5507518-cb58-4fc3-a22b-de5ad3c6e51d","ios":"levelo://app?vid=d5507518-cb58-4fc3-a22b-de5ad3c6e51d"},"vehicle_type_id":"4","last_reported":1779138058,"current_range_meters":8800,"station_id":"st_d3jp68qikq2c7381ktn0","pricing_plan_id":"cebpf4jnsgd1na2vs0mg"},{"bike_id":"f388e711-51fa-4d2a-9693-a1688f05c76b","system_id":"levelo_inurba_marseille","lat":43.25117,"lon":5.40318,"is_reserved":false,"is_disabled":false,"rental_uris":{"android":"levelo://app?vid=f388e711-51fa-4d2a-9693-a1688f05c76b","ios":"levelo://app?vid=f388e711-51fa-4d2a-9693-a1688f05c76b"},"vehicle_type_id":"4","last_reported":1779138058,"current_range_meters":8800,"station_id":"ce4bhlh2rcd13ifvqgig","pricing_plan_id":"cebpf4jnsgd1na2vs0mg"},{"bike_id":"ba703724-8d38-44ed-940f-aae513aac85d","system_id":"levelo_inurba_marseille","lat":43.28467,"lon":5.35872,"is_reserved":false,"is_disabled":false,"rental_uris":{"android":"levelo://app?vid=ba703724-8d38-44ed-940f-aae513aac85d","ios":"levelo://app?vid=ba703724-8d38-44ed-940f-aae513aac85d"},"vehicle_type_id":"4","last_reported":1779138058,"current_range_meters":8800,"station_id":"ce4bhah2rcd13ifvqei0","pricing_plan_id":"cebpf4jnsgd1na2vs0mg"},{"bike_id":"923913ca-a156-4dca-ba86-9d804e151c1c","system_id":"levelo_inurba_marseille","lat":43.30969,"lon":5.39021,"is_reserved":false,"is_disabled":false,"rental_uris":{"android":"levelo://app?vid=923913ca-a156-4dca-ba86-9d804e151c1c","ios":"levelo://app?vid=923913ca-a156-4dca-ba86-9d804e151c1c"},"vehicle_type_id":"4","last_reported":1779138058,"current_range_meters":8800,"station_id":"ce4bgup2rcd13ifvqco0","pricing_plan_id":"cebpf4jnsgd1na2vs0mg"},