{"last_updated":1717783866,"ttl":30,"version":"2.2","data":{"bikes":[{"bike_id":"c4c57b85-e817-4fbe-979d-4b184c53defb","system_id":"levelo_inurba_marseille","lat":43.312239,"lon":5.368562,"is_reserved":false,"is_disabled":false,"rental_uris":{"android":"levelo://app?vid=c4c57b85-e817-4fbe-979d-4b184c53defb","ios":"levelo://app?vid=c4c57b85-e817-4fbe-979d-4b184c53defb"},"vehicle_type_id":"4","last_reported":1717783866,"current_range_meters":28400,"station_id":"ce4bgl92rcd13ifvqbq0","pricing_plan_id":"cebpf4jnsgd1na2vs0mg"},{"bike_id":"18d12c27-d6c2-4e0c-bc64-87a2a7732df3","system_id":"levelo_inurba_marseille","lat":43.309076,"lon":5.368465,"is_reserved":false,"is_disabled":false,"rental_uris":{"android":"levelo://app?vid=18d12c27-d6c2-4e0c-bc64-87a2a7732df3","ios":"levelo://app?vid=18d12c27-d6c2-4e0c-bc64-87a2a7732df3"},"vehicle_type_id":"4","last_reported":1717783866,"current_range_meters":6800,"station_id":"ce4bgn92rcd13ifvqbvg","pricing_plan_id":"cebpf4jnsgd1na2vs0mg"},{"bike_id":"7dddc350-a162-4268-850f-4b6212e27f0c","system_id":"levelo_inurba_marseille","lat":43.309076,"lon":5.368465,"is_reserved":false,"is_disabled":false,"rental_uris":{"android":"levelo://app?vid=7dddc350-a162-4268-850f-4b6212e27f0c","ios":"levelo://app?vid=7dddc350-a162-4268-850f-4b6212e27f0c"},"vehicle_type_id":"4","last_reported":1717783866,"current_range_meters":7200,"station_id":"ce4bgn92rcd13ifvqbvg","pricing_plan_id":"cebpf4jnsgd1na2vs0mg"},{"bike_id":"005572ae-72d6-4d11-b44c-1a5686042a5c","system_id":"levelo_inurba_marseille","lat":43.309076,"lon":5.368465,"is_reserved":false,"is_disabled":false,"rental_uris":{"android":"levelo://app?vid=005572ae-72d6-4d11-b44c-1a5686042a5c","ios":"levelo://app?vid=005572ae-72d6-4d11-b44c-1a5686042a5c"},"vehicle_type_id":"4","last_reported":1717783866,"current_range_meters":18000,"station_id":"ce4bgn92rcd13ifvqbvg","pricing_plan_id":"cebpf4jnsgd1na2vs0mg"},{"bike_id":"fe4e98ad-8021-4ffa-9bc7-7a4500e98732","system_id":"levelo_inurba_marseille","lat":43.30897,"lon":5.3686,"is_reserved":false,"is_disabled":false,"rental_uris":{"android":"levelo://app?vid=fe4e98ad-8021-4ffa-9bc7-7a4500e98732","ios":"levelo://app?vid=fe4e98ad-8021-4ffa-9bc7-7a4500e98732"},"vehicle_type_id":"4","last_reported":1717783866,"current_range_meters":0,"station_id":"ce4bgn92rcd13ifvqbvg","pricing_plan_id":"cebpf4jnsgd1na2vs0mg"},{"bike_id":"a0cc2e56-1eb8-4dae-8da0-8e825b79db29","system_id":"levelo_inurba_marseille","lat":43.31487,"lon":5.37307,"is_reserved":false,"is_disabled":false,"rental_uris":{"android":"levelo://app?vid=a0cc2e56-1eb8-4dae-8da0-8e825b79db29","ios":"levelo://app?vid=a0cc2e56-1eb8-4dae-8da0-8e825b79db29"},"vehicle_type_id":"4","last_reported":1717783866,"current_range_meters":8000,"station_id":"ce4bgt12rcd13ifvqcd0","pricing_plan_id":"cebpf4jnsgd1na2vs0mg"},{"bike_id":"aa61253b-8491-49d5-95fa-63190eeea168","system_id":"levelo_inurba_marseille","lat":43.314811,"lon":5.373103,"is_reserved":false,"is_disabled":false,"rental_uris":{"android":"levelo://app?vid=aa61253b-8491-49d5-95fa-63190eeea168","ios":"levelo://app?vid=aa61253b-8491-49d5-95fa-63190eeea168"},"vehicle_type_id":"4","last_reported":1717783866,"current_range_meters":26400,"station_id":"ce4bgt12rcd13ifvqcd0","pricing_plan_id":"cebpf4jnsgd1na2vs0mg"},{"bike_id":"306c4dcf-ff25-4982-8705-763a1f6dccfc","system_id":"levelo_inurba_marseille","lat":43.309039,"lon":5.371797,"is_reserved":false,"is_disabled":false,"rental_uris":{"android":"levelo://app?vid=306c4dcf-ff25-4982-8705-763a1f6dccfc","ios":"levelo://app?vid=306c4dcf-ff25-4982-8705-763a1f6dccfc"},"vehicle_type_id":"4","last_reported":1717783866,"current_range_meters":3200,"station_id":"ce4bguh2rcd13ifvqckg","pricing_plan_id":"cebpf4jnsgd1na2vs0mg"},{"bike_id":"ee7383d4-fdd8-46f9-ad27-c5193471fa6d","system_id":"levelo_inurba_marseille","lat":43.3158,"lon":5.37483,"is_reserved":false,"is_disabled":false,"rental_uris":{"android":"levelo://app?vid=ee7383d4-fdd8-46f9-ad27-c5193471fa6d","ios":"levelo://app?vid=ee7383d4-fdd8-46f9-ad27-c5193471fa6d"},"vehicle_type_id":"4","last_reported":1717783866,"current_range_meters":0,"station_id":"","pricing_plan_id":"cebpf4jnsgd1na2vs0mg"},{"bike_id":"6711a720-4be1-4766-9812-54d9f67bc267","system_id":"levelo_inurba_marseille","lat":43.318258,"lon":5.373428,"is_reserved":false,"is_disabled":false,"rental_uris":{"android":"levelo://app?vid=6711a720-4be1-4766-9812-54d9f67bc267","ios":"levelo://app?vid=6711a720-4be1-4766-9812-54d9f67bc267"},"vehicle_type_id":"4","last_reported":1717783866,"current_range_meters":14800,"station_id":"","pricing_plan_id":"cebpf4jnsgd1na2vs0mg"},{"bike_id":"b77c47d8-1c8a-464a-95be-68e0705f624c","system_id":"levelo_inurba_marseille","lat":43.30552,"lon":5.3655,"is_reserved":false,"is_disabled":false,"rental_uris":{"android":"levelo://app?vid=b77c47d8-1c8a-464a-95be-68e0705f624c","ios":"levelo://app?vid=b77c47d8-1c8a-464a-95be-68e0705f624c"},"vehicle_type_id":"4","last_reported":1717783866,"current_range_meters":0,"station_id":"ce4bgs12rcd13ifvqcag","pricing_plan_id":"cebpf4jnsgd1na2vs0mg"},{"bike_id":"e2355ccf-fde1-471b-b88e-d6b87e9903a1","system_id":"levelo_inurba_marseille","lat":43.311125,"lon":5.377624,"is_reserved":false,"is_disabled":false,"rental_uris":{"android":"levelo://app?vid=e2355ccf-fde1-471b-b88e-d6b87e9903a1","ios":"levelo://app?vid=e2355ccf-fde1-471b-b88e-d6b87e9903a1"},"vehicle_type_id":"4","last_reported":1717783866,"current_range_meters":14800,"station_id":"ce4bgt92rcd13ifvqcg0","pricing_plan_id":"cebpf4jnsgd1na2vs0mg"},{"bike_id":"53295028-3f58-42d0-84d8-686ed73f20d0","system_id":"levelo_inurba_marseille","lat":43.31119,"lon":5.3781,"is_reserved":false,"is_disabled":false,"rental_uris":{"android":"levelo://app?vid=53295028-3f58-42d0-84d8-686ed73f20d0","ios":"levelo://app?vid=53295028-3f58-42d0-84d8-686ed73f20d0"},"vehicle_type_id":"4","last_reported":1717783866,"current_range_meters":18800,"station_id":"","pricing_plan_id":"cebpf4jnsgd1na2vs0mg"},{"bike_id":"8f990b2b-5d8c-4959-8e0e-f3b752f79254","system_id":"levelo_inurba_marseille","lat":43.307945,"lon":5.376487,"is_reserved":false,"is_disabled":false,"rental_uris":{"android":"levelo://app?vid=8f990b2b-5d8c-4959-8e0e-f3b752f79254","ios":"levelo://app?vid=8f990b2b-5d8c-4959-8e0e-f3b752f79254"},"vehicle_type_id":"4","last_reported":1717783866,"current_range_meters":1200,"station_id":"ce4bgv92rcd13ifvqcq0","pricing_plan_id":"cebpf4jnsgd1na2vs0mg"},{"bike_id":"10ef6efb-c77f-43a2-ba99-0984d70d65aa","system_id":"levelo_inurba_marseille","lat":43.317075,"lon":5.377367,"is_reserved":false,"is_disabled":false,"rental_uris":{"android":"levelo://app?vid=10ef6efb-c77f-43a2-ba99-0984d70d65aa","ios":"levelo://app?vid=10ef6efb-c77f-43a2-ba99-0984d70d65aa"},"vehicle_type_id":"4","last_reported":1717783866,"current_range_meters":19200,"station_id":"ce4bgth2rcd13ifvqch0","pricing_plan_id":"cebpf4jnsgd1na2vs0mg"},{"bike_id":"2068851b-c70e-419a-bfd3-234eecfc9f36","system_id":"levelo_inurba_marseille","lat":43.317075,"lon":5.377367,"is_reserved":false,"is_disabled":false,"rental_uris":{"android":"levelo://app?vid=2068851b-c70e-419a-bfd3-234eecfc9f36","ios":"levelo://app?vid=2068851b-c70e-419a-bfd3-234eecfc9f36"},"vehicle_type_id":"4","last_reported":1717783866,"current_range_meters":9600,"station_id":"ce4bgth2rcd13ifvqch0","pricing_plan_id":"cebpf4jnsgd1na2vs0mg"},{"bike_id":"ed09d6f6-2285-4fbd-8aa0-f5f6c3618d8d","system_id":"levelo_inurba_marseille","lat":43.301939,"lon":5.366286,"is_reserved":false,"is_disabled":false,"rental_uris":{"android":"levelo://app?vid=ed09d6f6-2285-4fbd-8aa0-f5f6c3618d8d","ios":"levelo://app?vid=ed09d6f6-2285-4fbd-8aa0-f5f6c3618d8d"},"vehicle_type_id":"4","last_reported":1717783866,"current_range_meters":14400,"station_id":"ce4bgrh2rcd13ifvqc8g","pricing_plan_id":"cebpf4jnsgd1na2vs0mg"},{"bike_id":"905ee5b2-e399-4580-a75a-4fff31a197ac","system_id":"levelo_inurba_marseille","lat":43.305364,"lon":5.384119,"is_reserved":false,"is_disabled":false,"rental_uris":{"android":"levelo://app?vid=905ee5b2-e399-4580-a75a-4fff31a197ac","ios":"levelo://app?vid=905ee5b2-e399-4580-a75a-4fff31a197ac"},"vehicle_type_id":"4","last_reported":1717783866,"current_range_meters":800,"station_id":"ce4bgg92rcd13ifvqb30","pricing_plan_id":"cebpf4jnsgd1na2vs0mg"},{"bike_id":"e16bbd74-9d2f-422d-8d7d-3fdbab332813","system_id":"levelo_inurba_marseille","lat":43.304606,"lon":5.379026,"is_reserved":false,"is_disabled":false,"rental_uris":{"android":"levelo://app?vid=e16bbd74-9d2f-422d-8d7d-3fdbab332813","ios":"levelo://app?vid=e16bbd74-9d2f-422d-8d7d-3fdbab332813"},"vehicle_type_id":"4","last_reported":1717783866,"current_range_meters":12000,"station_id":"ce4bgup2rcd13ifvqcn0","pricing_plan_id":"cebpf4jnsgd1na2vs0mg"},{"bike_id":"9644a35e-6565-474e-a1f9-f14e6a22cb85","system_id":"levelo_inurba_marseille","lat":43.304606,"lon":5.379026,"is_reserved":false,"is_disabled":false,"rental_uris":{"android":"levelo://app?vid=9644a35e-6565-474e-a1f9-f14e6a22cb85","ios":"levelo://app?vid=9644a35e-6565-474e-a1f9-f14e6a22cb85"},"vehicle_type_id":"4","last_reported":1717783866,"current_range_meters":8400,"station_id":"ce4bgup2rcd13ifvqcn0","pricing_plan_id":"cebpf4jnsgd1na2vs0mg"},{"bike_id":"a17cb890-a28c-48d2-9807-bcd4e4ec294c","system_id":"levelo_inurba_marseille","lat":43.304606,"lon":5.379026,"is_reserved":false,"is_disabled":false,"rental_uris":{"android":"levelo://app?vid=a17cb890-a28c-48d2-9807-bcd4e4ec294c","ios":"levelo://app?vid=a17cb890-a28c-48d2-9807-bcd4e4ec294c"},"vehicle_type_id":"4","last_reported":1717783866,"current_range_meters":15600,"station_id":"ce4bgup2rcd13ifvqcn0","pricing_plan_id":"cebpf4jnsgd1na2vs0mg"},{"bike_id":"fe8a8214-e573-4131-8125-671205594930","system_id":"levelo_inurba_marseille","lat":43.304606,"lon":5.379026,"is_reserved":false,"is_disabled":false,"rental_uris":{"android":"levelo://app?vid=fe8a8214-e573-4131-8125-671205594930","ios":"levelo://app?vid=fe8a8214-e573-4131-8125-671205594930"},"vehicle_type_id":"4","last_reported":1717783866,"current_range_meters":20000,"station_id":"ce4bgup2rcd13ifvqcn0","pricing_plan_id":"cebpf4jnsgd1na2vs0mg"},{"bike_id":"3c9fe599-11ef-4904-ac9f-222bc966a693","system_id":"levelo_inurba_marseille","lat":43.307797,"lon":5.382,"is_reserved":false,"is_disabled":false,"rental_uris":{"android":"levelo://app?vid=3c9fe599-11ef-4904-ac9f-222bc966a693","ios":"levelo://app?vid=3c9fe599-11ef-4904-ac9f-222bc966a693"},"vehicle_type_id":"4","last_reported":1717783866,"current_range_meters":6000,"station_id":"ce4bgg92rcd13ifvqb30","pricing_plan_id":"cebpf4jnsgd1na2vs0mg"},{"bike_id":"9f29cb93-a8c8-46f1-9c14-ecc7885faeca","system_id":"levelo_inurba_marseille","lat":43.324771,"lon":5.36557,"is_reserved":false,"is_disabled":false,"rental_uris":{"android":"levelo://app?vid=9f29cb93-a8c8-46f1-9c14-ecc7885faeca","ios":"levelo://app?vid=9f29cb93-a8c8-46f1-9c14-ecc7885faeca"},"vehicle_type_id":"4","last_reported":1717783866,"current_range_meters":12400,"station_id":"ce4bhs12rcd13ifvqhvg","pricing_plan_id":"cebpf4jnsgd1na2vs0mg"},{"bike_id":"52656606-31dd-4cc4-aa82-584d50f94f66","system_id":"levelo_inurba_marseille","lat":43.304606,"lon":5.379026,"is_reserved":false,"is_disabled":false,"rental_uris":{"android":"levelo://app?vid=52656606-31dd-4cc4-aa82-584d50f94f66","ios":"levelo://app?vid=52656606-31dd-4cc4-aa82-584d50f94f66"},"vehicle_type_id":"4","last_reported":1717783866,"current_range_meters":0,"station_id":"ce4bgup2rcd13ifvqcn0","pricing_plan_id":"cebpf4jnsgd1na2vs0mg"},{"bike_id":"38c8c3e7-8e73-486e-b7e1-c26165fdb211","system_id":"levelo_inurba_marseille","lat":43.324771,"lon":5.36557,"is_reserved":false,"is_disabled":false,"rental_uris":{"android":"levelo://app?vid=38c8c3e7-8e73-486e-b7e1-c26165fdb211","ios":"levelo://app?vid=38c8c3e7-8e73-486e-b7e1-c26165fdb211"},"vehicle_type_id":"4","last_reported":1717783866,"current_range_meters":19600,"station_id":"ce4bhs12rcd13ifvqhvg","pricing_plan_id":"cebpf4jnsgd1na2vs0mg"},{"bike_id":"9834a927-9501-4a29-b56f-dd7e32d0a4ae","system_id":"levelo_inurba_marseille","lat":43.300688,"lon":5.36916,"is_reserved":false,"is_disabled":false,"rental_uris":{"android":"levelo://app?vid=9834a927-9501-4a29-b56f-dd7e32d0a4ae","ios":"levelo://app?vid=9834a927-9501-4a29-b56f-dd7e32d0a4ae"},"vehicle_type_id":"4","last_reported":1717783866,"current_range_meters":0,"station_id":"","pricing_plan_id":"cebpf4jnsgd1na2vs0mg"},{"bike_id":"deb4d2cc-bcf8-4c40-9b7c-53928f047508","system_id":"levelo_inurba_marseille","lat":43.324771,"lon":5.36557,"is_reserved":false,"is_disabled":false,"rental_uris":{"android":"levelo://app?vid=deb4d2cc-bcf8-4c40-9b7c-53928f047508","ios":"levelo://app?vid=deb4d2cc-bcf8-4c40-9b7c-53928f047508"},"vehicle_type_id":"4","last_reported":1717783866,"current_range_meters":7200,"station_id":"ce4bhs12rcd13ifvqhvg","pricing_plan_id":"cebpf4jnsgd1na2vs0mg"},{"bike_id":"2d5f7b73-7291-43b0-a330-b7ec435749f2","system_id":"levelo_inurba_marseille","lat":43.324771,"lon":5.36557,"is_reserved":false,"is_disabled":false,"rental_uris":{"android":"levelo://app?vid=2d5f7b73-7291-43b0-a330-b7ec435749f2","ios":"levelo://app?vid=2d5f7b73-7291-43b0-a330-b7ec435749f2"},"vehicle_type_id":"4","last_reported":1717783866,"current_range_meters":13600,"station_id":"ce4bhs12rcd13ifvqhvg","pricing_plan_id":"cebpf4jnsgd1na2vs0mg"},{"bike_id":"b7ca7cc0-2c94-4c87-9ead-59eaad1158df","system_id":"levelo_inurba_marseille","lat":43.310804,"lon":5.38359,"is_reserved":false,"is_disabled":false,"rental_uris":{"android":"levelo://app?vid=b7ca7cc0-2c94-4c87-9ead-59eaad1158df","ios":"levelo://app?vid=b7ca7cc0-2c94-4c87-9ead-59eaad1158df"},"vehicle_type_id":"4","last_reported":1717783866,"current_range_meters":0,"station_id":"ce4bgv92rcd13ifvqcr0","pricing_plan_id":"cebpf4jnsgd1na2vs0mg"},{"bike_id":"e8187182-4f0d-4f89-9164-9b108c14c1a1","system_id":"levelo_inurba_marseille","lat":43.31079,"lon":5.38356,"is_reserved":false,"is_disabled":false,"rental_uris":{"android":"levelo://app?vid=e8187182-4f0d-4f89-9164-9b108c14c1a1","ios":"levelo://app?vid=e8187182-4f0d-4f89-9164-9b108c14c1a1"},"vehicle_type_id":"4","last_reported":1717783866,"current_range_meters":0,"station_id":"ce4bgv92rcd13ifvqcr0","pricing_plan_id":"cebpf4jnsgd1na2vs0mg"},{"bike_id":"8b1cf84b-abce-483f-84a6-70393928fc89","system_id":"levelo_inurba_marseille","lat":43.31071,"lon":5.38355,"is_reserved":false,"is_disabled":false,"rental_uris":{"android":"levelo://app?vid=8b1cf84b-abce-483f-84a6-70393928fc89","ios":"levelo://app?vid=8b1cf84b-abce-483f-84a6-70393928fc89"},"vehicle_type_id":"4","last_reported":1717783866,"current_range_meters":0,"station_id":"ce4bgv92rcd13ifvqcr0","pricing_plan_id":"cebpf4jnsgd1na2vs0mg"},{"bike_id":"a99e5356-8cf4-4b49-9388-540e7179deda","system_id":"levelo_inurba_marseille","lat":43.301429,"lon":5.37413,"is_reserved":false,"is_disabled":false,"rental_uris":{"android":"levelo://app?vid=a99e5356-8cf4-4b49-9388-540e7179deda","ios":"levelo://app?vid=a99e5356-8cf4-4b49-9388-540e7179deda"},"vehicle_type_id":"4","last_reported":1717783866,"current_range_meters":0,"station_id":"ce4bgs92rcd13ifvqcc0","pricing_plan_id":"cebpf4jnsgd1na2vs0mg"},{"bike_id":"ccd72c90-ce77-47b8-9700-d1ed20608418","system_id":"levelo_inurba_marseille","lat":43.32001,"lon":5.38168,"is_reserved":false,"is_disabled":false,"rental_uris":{"android":"levelo://app?vid=ccd72c90-ce77-47b8-9700-d1ed20608418","ios":"levelo://app?vid=ccd72c90-ce77-47b8-9700-d1ed20608418"},"vehicle_type_id":"4","last_reported":1717783866,"current_range_meters":28800,"station_id":"ce4bhr12rcd13ifvqhpg","pricing_plan_id":"cebpf4jnsgd1na2vs0mg"},{"bike_id":"243b48c8-7e37-453b-ba41-1943acf78afb","system_id":"levelo_inurba_marseille","lat":43.32004,"lon":5.38168,"is_reserved":false,"is_disabled":false,"rental_uris":{"android":"levelo://app?vid=243b48c8-7e37-453b-ba41-1943acf78afb","ios":"levelo://app?vid=243b48c8-7e37-453b-ba41-1943acf78afb"},"vehicle_type_id":"4","last_reported":1717783866,"current_range_meters":14000,"station_id":"ce4bhr12rcd13ifvqhpg","pricing_plan_id":"cebpf4jnsgd1na2vs0mg"},{"bike_id":"bffec124-a070-40d5-ade7-6e1128f5f6ed","system_id":"levelo_inurba_marseille","lat":43.2997,"lon":5.37191,"is_reserved":false,"is_disabled":false,"rental_uris":{"android":"levelo://app?vid=bffec124-a070-40d5-ade7-6e1128f5f6ed","ios":"levelo://app?vid=bffec124-a070-40d5-ade7-6e1128f5f6ed"},"vehicle_type_id":"4","last_reported":1717783866,"current_range_meters":0,"station_id":"ce4bgr92rcd13ifvqc7g","pricing_plan_id":"cebpf4jnsgd1na2vs0mg"},{"bike_id":"2b8e1f3a-dd73-4e4d-bc61-7c5986901c67","system_id":"levelo_inurba_marseille","lat":43.300013,"lon":5.374047,"is_reserved":false,"is_disabled":false,"rental_uris":{"android":"levelo://app?vid=2b8e1f3a-dd73-4e4d-bc61-7c5986901c67","ios":"levelo://app?vid=2b8e1f3a-dd73-4e4d-bc61-7c5986901c67"},"vehicle_type_id":"4","last_reported":1717783866,"current_range_meters":28800,"station_id":"","pricing_plan_id":"cebpf4jnsgd1na2vs0mg"},{"bike_id":"c663d806-c7b6-47cd-ac99-58c590e27d58","system_id":"levelo_inurba_marseille","lat":43.305364,"lon":5.384119,"is_reserved":false,"is_disabled":false,"rental_uris":{"android":"levelo://app?vid=c663d806-c7b6-47cd-ac99-58c590e27d58","ios":"levelo://app?vid=c663d806-c7b6-47cd-ac99-58c590e27d58"},"vehicle_type_id":"4","last_reported":1717783866,"current_range_meters":0,"station_id":"ce4bgg92rcd13ifvqb30","pricing_plan_id":"cebpf4jnsgd1na2vs0mg"},{"bike_id":"b2f8a2f5-b365-4045-97ee-7b4a3ee0e932","system_id":"levelo_inurba_marseille","lat":43.298433,"lon":5.362774,"is_reserved":false,"is_disabled":false,"rental_uris":{"android":"levelo://app?vid=b2f8a2f5-b365-4045-97ee-7b4a3ee0e932","ios":"levelo://app?vid=b2f8a2f5-b365-4045-97ee-7b4a3ee0e932"},"vehicle_type_id":"4","last_reported":1717783866,"current_range_meters":0,"station_id":"ce4bgpp2rcd13ifvqc3g","pricing_plan_id":"cebpf4jnsgd1na2vs0mg"},{"bike_id":"bc5770af-7cb3-4be0-bdf3-94e3419e76e2","system_id":"levelo_inurba_marseille","lat":43.299243,"lon":5.37481,"is_reserved":false,"is_disabled":false,"rental_uris":{"android":"levelo://app?vid=bc5770af-7cb3-4be0-bdf3-94e3419e76e2","ios":"levelo://app?vid=bc5770af-7cb3-4be0-bdf3-94e3419e76e2"},"vehicle_type_id":"4","last_reported":1717783866,"current_range_meters":1600,"station_id":"ce4bgjh2rcd13ifvqbg0","pricing_plan_id":"cebpf4jnsgd1na2vs0mg"},{"bike_id":"c8510c06-87e9-47cd-af77-bd0881d217a9","system_id":"levelo_inurba_marseille","lat":43.311722,"lon":5.387247,"is_reserved":false,"is_disabled":false,"rental_uris":{"android":"levelo://app?vid=c8510c06-87e9-47cd-af77-bd0881d217a9","ios":"levelo://app?vid=c8510c06-87e9-47cd-af77-bd0881d217a9"},"vehicle_type_id":"4","last_reported":1717783866,"current_range_meters":9200,"station_id":"ce4bgv12rcd13ifvqcp0","pricing_plan_id":"cebpf4jnsgd1na2vs0mg"},{"bike_id":"50e23870-c5c5-4a00-bd6b-51bb68717f02","system_id":"levelo_inurba_marseille","lat":43.297794,"lon":5.370888,"is_reserved":false,"is_disabled":false,"rental_uris":{"android":"levelo://app?vid=50e23870-c5c5-4a00-bd6b-51bb68717f02","ios":"levelo://app?vid=50e23870-c5c5-4a00-bd6b-51bb68717f02"},"vehicle_type_id":"4","last_reported":1717783866,"current_range_meters":19200,"station_id":"ce4bgop2rcd13ifvqc1g","pricing_plan_id":"cebpf4jnsgd1na2vs0mg"},{"bike_id":"23f7d586-dbc2-48e8-b500-0e7921230d53","system_id":"levelo_inurba_marseille","lat":43.299966,"lon":5.378227,"is_reserved":false,"is_disabled":false,"rental_uris":{"android":"levelo://app?vid=23f7d586-dbc2-48e8-b500-0e7921230d53","ios":"levelo://app?vid=23f7d586-dbc2-48e8-b500-0e7921230d53"},"vehicle_type_id":"4","last_reported":1717783866,"current_range_meters":2400,"station_id":"","pricing_plan_id":"cebpf4jnsgd1na2vs0mg"},{"bike_id":"77201d94-06b7-4b2d-a3f2-4ac4dab85408","system_id":"levelo_inurba_marseille","lat":43.311722,"lon":5.387247,"is_reserved":false,"is_disabled":false,"rental_uris":{"android":"levelo://app?vid=77201d94-06b7-4b2d-a3f2-4ac4dab85408","ios":"levelo://app?vid=77201d94-06b7-4b2d-a3f2-4ac4dab85408"},"vehicle_type_id":"4","last_reported":1717783866,"current_range_meters":0,"station_id":"ce4bgv12rcd13ifvqcp0","pricing_plan_id":"cebpf4jnsgd1na2vs0mg"},{"bike_id":"78e24f65-8640-48bf-b76c-9e82e0350dde","system_id":"levelo_inurba_marseille","lat":43.322938,"lon":5.38256,"is_reserved":false,"is_disabled":false,"rental_uris":{"android":"levelo://app?vid=78e24f65-8640-48bf-b76c-9e82e0350dde","ios":"levelo://app?vid=78e24f65-8640-48bf-b76c-9e82e0350dde"},"vehicle_type_id":"4","last_reported":1717783866,"current_range_meters":8800,"station_id":"ce4bhr12rcd13ifvqhqg","pricing_plan_id":"cebpf4jnsgd1na2vs0mg"},{"bike_id":"7272ec5c-534b-4b44-b40b-5a54aa333cde","system_id":"levelo_inurba_marseille","lat":43.297774,"lon":5.370875,"is_reserved":false,"is_disabled":false,"rental_uris":{"android":"levelo://app?vid=7272ec5c-534b-4b44-b40b-5a54aa333cde","ios":"levelo://app?vid=7272ec5c-534b-4b44-b40b-5a54aa333cde"},"vehicle_type_id":"4","last_reported":1717783866,"current_range_meters":10000,"station_id":"ce4bgop2rcd13ifvqc1g","pricing_plan_id":"cebpf4jnsgd1na2vs0mg"},{"bike_id":"5540a9ee-bf36-47d7-b4fa-9e44f79dfdd1","system_id":"levelo_inurba_marseille","lat":43.32283,"lon":5.38282,"is_reserved":false,"is_disabled":false,"rental_uris":{"android":"levelo://app?vid=5540a9ee-bf36-47d7-b4fa-9e44f79dfdd1","ios":"levelo://app?vid=5540a9ee-bf36-47d7-b4fa-9e44f79dfdd1"},"vehicle_type_id":"4","last_reported":1717783866,"current_range_meters":20000,"station_id":"ce4bhr12rcd13ifvqhqg","pricing_plan_id":"cebpf4jnsgd1na2vs0mg"},{"bike_id":"eecff279-029d-4aeb-b256-5405f226927c","system_id":"levelo_inurba_marseille","lat":43.322872,"lon":5.382756,"is_reserved":false,"is_disabled":false,"rental_uris":{"android":"levelo://app?vid=eecff279-029d-4aeb-b256-5405f226927c","ios":"levelo://app?vid=eecff279-029d-4aeb-b256-5405f226927c"},"vehicle_type_id":"4","last_reported":1717783866,"current_range_meters":30000,"station_id":"ce4bhr12rcd13ifvqhqg","pricing_plan_id":"cebpf4jnsgd1na2vs0mg"},{"bike_id":"b18ff61a-3ddf-4e61-8a42-f2cb29516f31","system_id":"levelo_inurba_marseille","lat":43.322872,"lon":5.382756,"is_reserved":false,"is_disabled":false,"rental_uris":{"android":"levelo://app?vid=b18ff61a-3ddf-4e61-8a42-f2cb29516f31","ios":"levelo://app?vid=b18ff61a-3ddf-4e61-8a42-f2cb29516f31"},"vehicle_type_id":"4","last_reported":1717783866,"current_range_meters":5600,"station_id":"ce4bhr12rcd13ifvqhqg","pricing_plan_id":"cebpf4jnsgd1na2vs0mg"},{"bike_id":"8edb40af-6950-4c65-bfcc-1219492adbd0","system_id":"levelo_inurba_marseille","lat":43.2968,"lon":5.37291,"is_reserved":false,"is_disabled":false,"rental_uris":{"android":"levelo://app?vid=8edb40af-6950-4c65-bfcc-1219492adbd0","ios":"levelo://app?vid=8edb40af-6950-4c65-bfcc-1219492adbd0"},"vehicle_type_id":"4","last_reported":1717783866,"current_range_meters":14800,"station_id":"ce4bgk12rcd13ifvqbj0","pricing_plan_id":"cebpf4jnsgd1na2vs0mg"},{"bike_id":"bfe33d00-22be-4fcb-b412-bf8809def526","system_id":"levelo_inurba_marseille","lat":43.326953,"lon":5.379331,"is_reserved":false,"is_disabled":false,"rental_uris":{"android":"levelo://app?vid=bfe33d00-22be-4fcb-b412-bf8809def526","ios":"levelo://app?vid=bfe33d00-22be-4fcb-b412-bf8809def526"},"vehicle_type_id":"4","last_reported":1717783866,"current_range_meters":16800,"station_id":"","pricing_plan_id":"cebpf4jnsgd1na2vs0mg"},{"bike_id":"0630808b-b6d9-4138-8f3d-e0a6375eb3c1","system_id":"levelo_inurba_marseille","lat":43.32147,"lon":5.38685,"is_reserved":false,"is_disabled":false,"rental_uris":{"android":"levelo://app?vid=0630808b-b6d9-4138-8f3d-e0a6375eb3c1","ios":"levelo://app?vid=0630808b-b6d9-4138-8f3d-e0a6375eb3c1"},"vehicle_type_id":"4","last_reported":1717783866,"current_range_meters":5200,"station_id":"","pricing_plan_id":"cebpf4jnsgd1na2vs0mg"},{"bike_id":"94ae4afa-677c-44a9-8321-f759333015e2","system_id":"levelo_inurba_marseille","lat":43.29573,"lon":5.367355,"is_reserved":false,"is_disabled":false,"rental_uris":{"android":"levelo://app?vid=94ae4afa-677c-44a9-8321-f759333015e2","ios":"levelo://app?vid=94ae4afa-677c-44a9-8321-f759333015e2"},"vehicle_type_id":"4","last_reported":1717783866,"current_range_meters":0,"station_id":"ce4bgph2rcd13ifvqc2g","pricing_plan_id":"cebpf4jnsgd1na2vs0mg"},{"bike_id":"3deaf0d2-7bf1-40c9-bd85-745ed90bbaf5","system_id":"levelo_inurba_marseille","lat":43.29573,"lon":5.367355,"is_reserved":false,"is_disabled":false,"rental_uris":{"android":"levelo://app?vid=3deaf0d2-7bf1-40c9-bd85-745ed90bbaf5","ios":"levelo://app?vid=3deaf0d2-7bf1-40c9-bd85-745ed90bbaf5"},"vehicle_type_id":"4","last_reported":1717783866,"current_range_meters":7600,"station_id":"ce4bgph2rcd13ifvqc2g","pricing_plan_id":"cebpf4jnsgd1na2vs0mg"},{"bike_id":"1a96fed5-5681-4eea-b417-33d80e2801f7","system_id":"levelo_inurba_marseille","lat":43.296131,"lon":5.370773,"is_reserved":false,"is_disabled":false,"rental_uris":{"android":"levelo://app?vid=1a96fed5-5681-4eea-b417-33d80e2801f7","ios":"levelo://app?vid=1a96fed5-5681-4eea-b417-33d80e2801f7"},"vehicle_type_id":"4","last_reported":1717783866,"current_range_meters":9200,"station_id":"ce4bgnh2rcd13ifvqc0g","pricing_plan_id":"cebpf4jnsgd1na2vs0mg"},{"bike_id":"7875cecf-a810-4e73-a8f9-1dbb4854044d","system_id":"levelo_inurba_marseille","lat":43.299028,"lon":5.381509,"is_reserved":false,"is_disabled":false,"rental_uris":{"android":"levelo://app?vid=7875cecf-a810-4e73-a8f9-1dbb4854044d","ios":"levelo://app?vid=7875cecf-a810-4e73-a8f9-1dbb4854044d"},"vehicle_type_id":"4","last_reported":1717783866,"current_range_meters":11600,"station_id":"ce4bgj12rcd13ifvqbc0","pricing_plan_id":"cebpf4jnsgd1na2vs0mg"},{"bike_id":"d6a646d0-0e28-4306-9557-38aa30bddb1b","system_id":"levelo_inurba_marseille","lat":43.299028,"lon":5.381509,"is_reserved":false,"is_disabled":false,"rental_uris":{"android":"levelo://app?vid=d6a646d0-0e28-4306-9557-38aa30bddb1b","ios":"levelo://app?vid=d6a646d0-0e28-4306-9557-38aa30bddb1b"},"vehicle_type_id":"4","last_reported":1717783866,"current_range_meters":31600,"station_id":"ce4bgj12rcd13ifvqbc0","pricing_plan_id":"cebpf4jnsgd1na2vs0mg"},{"bike_id":"a78e656e-83ba-499e-91a9-a31985f27f42","system_id":"levelo_inurba_marseille","lat":43.309589,"lon":5.390258,"is_reserved":false,"is_disabled":false,"rental_uris":{"android":"levelo://app?vid=a78e656e-83ba-499e-91a9-a31985f27f42","ios":"levelo://app?vid=a78e656e-83ba-499e-91a9-a31985f27f42"},"vehicle_type_id":"4","last_reported":1717783866,"current_range_meters":6400,"station_id":"ce4bgup2rcd13ifvqco0","pricing_plan_id":"cebpf4jnsgd1na2vs0mg"},{"bike_id":"cf275e6d-2b0c-4341-b778-c6d25d03283a","system_id":"levelo_inurba_marseille","lat":43.309589,"lon":5.390258,"is_reserved":false,"is_disabled":false,"rental_uris":{"android":"levelo://app?vid=cf275e6d-2b0c-4341-b778-c6d25d03283a","ios":"levelo://app?vid=cf275e6d-2b0c-4341-b778-c6d25d03283a"},"vehicle_type_id":"4","last_reported":1717783866,"current_range_meters":1600,"station_id":"ce4bgup2rcd13ifvqco0","pricing_plan_id":"cebpf4jnsgd1na2vs0mg"},{"bike_id":"f20e4d4f-ec40-425a-a337-0aeecb45d6a2","system_id":"levelo_inurba_marseille","lat":43.309589,"lon":5.390258,"is_reserved":false,"is_disabled":false,"rental_uris":{"android":"levelo://app?vid=f20e4d4f-ec40-425a-a337-0aeecb45d6a2","ios":"levelo://app?vid=f20e4d4f-ec40-425a-a337-0aeecb45d6a2"},"vehicle_type_id":"4","last_reported":1717783866,"current_range_meters":6800,"station_id":"ce4bgup2rcd13ifvqco0","pricing_plan_id":"cebpf4jnsgd1na2vs0mg"},{"bike_id":"d1a5011e-67d3-4eb1-afb3-b2121fa50fdb","system_id":"levelo_inurba_marseille","lat":43.309589,"lon":5.390258,"is_reserved":false,"is_disabled":false,"rental_uris":{"android":"levelo://app?vid=d1a5011e-67d3-4eb1-afb3-b2121fa50fdb","ios":"levelo://app?vid=d1a5011e-67d3-4eb1-afb3-b2121fa50fdb"},"vehicle_type_id":"4","last_reported":1717783866,"current_range_meters":4400,"station_id":"ce4bgup2rcd13ifvqco0","pricing_plan_id":"cebpf4jnsgd1na2vs0mg"},{"bike_id":"f71f3175-ebc8-45a4-99e9-9eed6d5a4bb7","system_id":"levelo_inurba_marseille","lat":43.309589,"lon":5.390258,"is_reserved":false,"is_disabled":false,"rental_uris":{"android":"levelo://app?vid=f71f3175-ebc8-45a4-99e9-9eed6d5a4bb7","ios":"levelo://app?vid=f71f3175-ebc8-45a4-99e9-9eed6d5a4bb7"},"vehicle_type_id":"4","last_reported":1717783866,"current_range_meters":0,"station_id":"ce4bgup2rcd13ifvqco0","pricing_plan_id":"cebpf4jnsgd1na2vs0mg"},{"bike_id":"9b85d55a-e93b-4662-bf4c-c48cd17d4650","system_id":"levelo_inurba_marseille","lat":43.309589,"lon":5.390258,"is_reserved":false,"is_disabled":false,"rental_uris":{"android":"levelo://app?vid=9b85d55a-e93b-4662-bf4c-c48cd17d4650","ios":"levelo://app?vid=9b85d55a-e93b-4662-bf4c-c48cd17d4650"},"vehicle_type_id":"4","last_reported":1717783866,"current_range_meters":0,"station_id":"ce4bgup2rcd13ifvqco0","pricing_plan_id":"cebpf4jnsgd1na2vs0mg"},{"bike_id":"14a73c23-cba6-4b7f-a40a-251f756265a4","system_id":"levelo_inurba_marseille","lat":43.309589,"lon":5.390258,"is_reserved":false,"is_disabled":false,"rental_uris":{"android":"levelo://app?vid=14a73c23-cba6-4b7f-a40a-251f756265a4","ios":"levelo://app?vid=14a73c23-cba6-4b7f-a40a-251f756265a4"},"vehicle_type_id":"4","last_reported":1717783866,"current_range_meters":0,"station_id":"ce4bgup2rcd13ifvqco0","pricing_plan_id":"cebpf4jnsgd1na2vs0mg"},{"bike_id":"5afada9a-86a0-452d-8031-25aec006e9ca","system_id":"levelo_inurba_marseille","lat":43.309589,"lon":5.390258,"is_reserved":false,"is_disabled":false,"rental_uris":{"android":"levelo://app?vid=5afada9a-86a0-452d-8031-25aec006e9ca","ios":"levelo://app?vid=5afada9a-86a0-452d-8031-25aec006e9ca"},"vehicle_type_id":"4","last_reported":1717783866,"current_range_meters":3600,"station_id":"ce4bgup2rcd13ifvqco0","pricing_plan_id":"cebpf4jnsgd1na2vs0mg"},{"bike_id":"f153f7a0-5b5b-4293-a517-644fd477c1d8","system_id":"levelo_inurba_marseille","lat":43.296921,"lon":5.376579,"is_reserved":false,"is_disabled":false,"rental_uris":{"android":"levelo://app?vid=f153f7a0-5b5b-4293-a517-644fd477c1d8","ios":"levelo://app?vid=f153f7a0-5b5b-4293-a517-644fd477c1d8"},"vehicle_type_id":"4","last_reported":1717783866,"current_range_meters":1200,"station_id":"ce4bgkh2rcd13ifvqbl0","pricing_plan_id":"cebpf4jnsgd1na2vs0mg"},{"bike_id":"9119dab9-f91e-4433-ac3d-56ed73bd46ca","system_id":"levelo_inurba_marseille","lat":43.317557,"lon":5.390173,"is_reserved":false,"is_disabled":false,"rental_uris":{"android":"levelo://app?vid=9119dab9-f91e-4433-ac3d-56ed73bd46ca","ios":"levelo://app?vid=9119dab9-f91e-4433-ac3d-56ed73bd46ca"},"vehicle_type_id":"4","last_reported":1717783866,"current_range_meters":0,"station_id":"ce4bhqp2rcd13ifvqhng","pricing_plan_id":"cebpf4jnsgd1na2vs0mg"},{"bike_id":"17fe99b6-9c29-49b1-82c3-ddc9221959ff","system_id":"levelo_inurba_marseille","lat":43.31761,"lon":5.39018,"is_reserved":false,"is_disabled":false,"rental_uris":{"android":"levelo://app?vid=17fe99b6-9c29-49b1-82c3-ddc9221959ff","ios":"levelo://app?vid=17fe99b6-9c29-49b1-82c3-ddc9221959ff"},"vehicle_type_id":"4","last_reported":1717783866,"current_range_meters":29600,"station_id":"ce4bhqp2rcd13ifvqhng","pricing_plan_id":"cebpf4jnsgd1na2vs0mg"},{"bike_id":"c1c592cc-9a1b-4b1c-b277-88f6186e14e3","system_id":"levelo_inurba_marseille","lat":43.317557,"lon":5.390173,"is_reserved":false,"is_disabled":false,"rental_uris":{"android":"levelo://app?vid=c1c592cc-9a1b-4b1c-b277-88f6186e14e3","ios":"levelo://app?vid=c1c592cc-9a1b-4b1c-b277-88f6186e14e3"},"vehicle_type_id":"4","last_reported":1717783866,"current_range_meters":0,"station_id":"ce4bhqp2rcd13ifvqhng","pricing_plan_id":"cebpf4jnsgd1na2vs0mg"},{"bike_id":"c10ccc4a-e29f-4972-984a-4d0b8f0df0db","system_id":"levelo_inurba_marseille","lat":43.29683,"lon":5.37743,"is_reserved":false,"is_disabled":false,"rental_uris":{"android":"levelo://app?vid=c10ccc4a-e29f-4972-984a-4d0b8f0df0db","ios":"levelo://app?vid=c10ccc4a-e29f-4972-984a-4d0b8f0df0db"},"vehicle_type_id":"4","last_reported":1717783866,"current_range_meters":21200,"station_id":"","pricing_plan_id":"cebpf4jnsgd1na2vs0mg"},{"bike_id":"ec1a418d-f154-4ceb-a31a-22ec60091642","system_id":"levelo_inurba_marseille","lat":43.302447,"lon":5.386873,"is_reserved":false,"is_disabled":false,"rental_uris":{"android":"levelo://app?vid=ec1a418d-f154-4ceb-a31a-22ec60091642","ios":"levelo://app?vid=ec1a418d-f154-4ceb-a31a-22ec60091642"},"vehicle_type_id":"4","last_reported":1717783866,"current_range_meters":0,"station_id":"ce4bgk12rcd13ifvqbi0","pricing_plan_id":"cebpf4jnsgd1na2vs0mg"},{"bike_id":"f6300310-1b37-4a05-b6ab-348deed7091a","system_id":"levelo_inurba_marseille","lat":43.298037,"lon":5.381066,"is_reserved":false,"is_disabled":false,"rental_uris":{"android":"levelo://app?vid=f6300310-1b37-4a05-b6ab-348deed7091a","ios":"levelo://app?vid=f6300310-1b37-4a05-b6ab-348deed7091a"},"vehicle_type_id":"4","last_reported":1717783866,"current_range_meters":28000,"station_id":"ce4bgip2rcd13ifvqbb0","pricing_plan_id":"cebpf4jnsgd1na2vs0mg"},{"bike_id":"73a4b51d-2952-4a72-933c-c3273c6da9bc","system_id":"levelo_inurba_marseille","lat":43.298037,"lon":5.381066,"is_reserved":false,"is_disabled":false,"rental_uris":{"android":"levelo://app?vid=73a4b51d-2952-4a72-933c-c3273c6da9bc","ios":"levelo://app?vid=73a4b51d-2952-4a72-933c-c3273c6da9bc"},"vehicle_type_id":"4","last_reported":1717783866,"current_range_meters":18800,"station_id":"ce4bgip2rcd13ifvqbb0","pricing_plan_id":"cebpf4jnsgd1na2vs0mg"},{"bike_id":"94ac1a67-4cba-4184-9ee9-6bcf3190f8b8","system_id":"levelo_inurba_marseille","lat":43.298037,"lon":5.381066,"is_reserved":false,"is_disabled":false,"rental_uris":{"android":"levelo://app?vid=94ac1a67-4cba-4184-9ee9-6bcf3190f8b8","ios":"levelo://app?vid=94ac1a67-4cba-4184-9ee9-6bcf3190f8b8"},"vehicle_type_id":"4","last_reported":1717783866,"current_range_meters":22800,"station_id":"ce4bgip2rcd13ifvqbb0","pricing_plan_id":"cebpf4jnsgd1na2vs0mg"},{"bike_id":"5bc685fc-6ac3-4d2d-bee3-efa6cc50438e","system_id":"levelo_inurba_marseille","lat":43.298037,"lon":5.381066,"is_reserved":false,"is_disabled":false,"rental_uris":{"android":"levelo://app?vid=5bc685fc-6ac3-4d2d-bee3-efa6cc50438e","ios":"levelo://app?vid=5bc685fc-6ac3-4d2d-bee3-efa6cc50438e"},"vehicle_type_id":"4","last_reported":1717783866,"current_range_meters":6800,"station_id":"ce4bgip2rcd13ifvqbb0","pricing_plan_id":"cebpf4jnsgd1na2vs0mg"},{"bike_id":"cc7ede1a-7a3b-4096-8b15-840f36675fa2","system_id":"levelo_inurba_marseille","lat":43.295748,"lon":5.37522,"is_reserved":false,"is_disabled":false,"rental_uris":{"android":"levelo://app?vid=cc7ede1a-7a3b-4096-8b15-840f36675fa2","ios":"levelo://app?vid=cc7ede1a-7a3b-4096-8b15-840f36675fa2"},"vehicle_type_id":"4","last_reported":1717783866,"current_range_meters":0,"station_id":"ce4bgh92rcd13ifvqb50","pricing_plan_id":"cebpf4jnsgd1na2vs0mg"},{"bike_id":"0094beff-207f-4af4-94f5-e2c34048ddb2","system_id":"levelo_inurba_marseille","lat":43.304274,"lon":5.388873,"is_reserved":false,"is_disabled":false,"rental_uris":{"android":"levelo://app?vid=0094beff-207f-4af4-94f5-e2c34048ddb2","ios":"levelo://app?vid=0094beff-207f-4af4-94f5-e2c34048ddb2"},"vehicle_type_id":"4","last_reported":1717783866,"current_range_meters":1600,"station_id":"ce4bgk12rcd13ifvqbi0","pricing_plan_id":"cebpf4jnsgd1na2vs0mg"},{"bike_id":"9b9fb426-cf77-44a6-87b4-f80ca133fc49","system_id":"levelo_inurba_marseille","lat":43.296051,"lon":5.376847,"is_reserved":false,"is_disabled":false,"rental_uris":{"android":"levelo://app?vid=9b9fb426-cf77-44a6-87b4-f80ca133fc49","ios":"levelo://app?vid=9b9fb426-cf77-44a6-87b4-f80ca133fc49"},"vehicle_type_id":"4","last_reported":1717783866,"current_range_meters":14000,"station_id":"","pricing_plan_id":"cebpf4jnsgd1na2vs0mg"},{"bike_id":"4ac8c040-cdc6-469d-a5c1-eb897eb1f50a","system_id":"levelo_inurba_marseille","lat":43.296263,"lon":5.377094,"is_reserved":false,"is_disabled":false,"rental_uris":{"android":"levelo://app?vid=4ac8c040-cdc6-469d-a5c1-eb897eb1f50a","ios":"levelo://app?vid=4ac8c040-cdc6-469d-a5c1-eb897eb1f50a"},"vehicle_type_id":"4","last_reported":1717783866,"current_range_meters":0,"station_id":"ce4bgi92rcd13ifvqb90","pricing_plan_id":"cebpf4jnsgd1na2vs0mg"},{"bike_id":"1c454bd9-62d3-4448-baac-7a4280e69675","system_id":"levelo_inurba_marseille","lat":43.299707,"lon":5.384859,"is_reserved":false,"is_disabled":false,"rental_uris":{"android":"levelo://app?vid=1c454bd9-62d3-4448-baac-7a4280e69675","ios":"levelo://app?vid=1c454bd9-62d3-4448-baac-7a4280e69675"},"vehicle_type_id":"4","last_reported":1717783866,"current_range_meters":5600,"station_id":"ce4bgj92rcd13ifvqbd0","pricing_plan_id":"cebpf4jnsgd1na2vs0mg"},{"bike_id":"aec7babd-cc33-4e50-b6d5-6b99c1124f1d","system_id":"levelo_inurba_marseille","lat":43.299717,"lon":5.384845,"is_reserved":false,"is_disabled":false,"rental_uris":{"android":"levelo://app?vid=aec7babd-cc33-4e50-b6d5-6b99c1124f1d","ios":"levelo://app?vid=aec7babd-cc33-4e50-b6d5-6b99c1124f1d"},"vehicle_type_id":"4","last_reported":1717783866,"current_range_meters":27600,"station_id":"ce4bgj92rcd13ifvqbd0","pricing_plan_id":"cebpf4jnsgd1na2vs0mg"},{"bike_id":"989032a7-25ca-4adf-b5f8-ae67f388eda4","system_id":"levelo_inurba_marseille","lat":43.32367,"lon":5.388836,"is_reserved":false,"is_disabled":false,"rental_uris":{"android":"levelo://app?vid=989032a7-25ca-4adf-b5f8-ae67f388eda4","ios":"levelo://app?vid=989032a7-25ca-4adf-b5f8-ae67f388eda4"},"vehicle_type_id":"4","last_reported":1717783866,"current_range_meters":22400,"station_id":"ce4bhqp2rcd13ifvqhog","pricing_plan_id":"cebpf4jnsgd1na2vs0mg"},{"bike_id":"b1c04bbb-a961-4e38-8a82-328451360209","system_id":"levelo_inurba_marseille","lat":43.32367,"lon":5.388836,"is_reserved":false,"is_disabled":false,"rental_uris":{"android":"levelo://app?vid=b1c04bbb-a961-4e38-8a82-328451360209","ios":"levelo://app?vid=b1c04bbb-a961-4e38-8a82-328451360209"},"vehicle_type_id":"4","last_reported":1717783866,"current_range_meters":6000,"station_id":"ce4bhqp2rcd13ifvqhog","pricing_plan_id":"cebpf4jnsgd1na2vs0mg"},{"bike_id":"aa454f51-b083-44f1-98ad-15801166ef48","system_id":"levelo_inurba_marseille","lat":43.32367,"lon":5.388836,"is_reserved":false,"is_disabled":false,"rental_uris":{"android":"levelo://app?vid=aa454f51-b083-44f1-98ad-15801166ef48","ios":"levelo://app?vid=aa454f51-b083-44f1-98ad-15801166ef48"},"vehicle_type_id":"4","last_reported":1717783866,"current_range_meters":31200,"station_id":"ce4bhqp2rcd13ifvqhog","pricing_plan_id":"cebpf4jnsgd1na2vs0mg"},{"bike_id":"29db9671-5358-4290-a805-7bdf348f4b4a","system_id":"levelo_inurba_marseille","lat":43.32368,"lon":5.38885,"is_reserved":false,"is_disabled":false,"rental_uris":{"android":"levelo://app?vid=29db9671-5358-4290-a805-7bdf348f4b4a","ios":"levelo://app?vid=29db9671-5358-4290-a805-7bdf348f4b4a"},"vehicle_type_id":"4","last_reported":1717783866,"current_range_meters":30400,"station_id":"ce4bhqp2rcd13ifvqhog","pricing_plan_id":"cebpf4jnsgd1na2vs0mg"},{"bike_id":"2358e49c-e7fd-44bf-83be-4090ce600afd","system_id":"levelo_inurba_marseille","lat":43.32367,"lon":5.388836,"is_reserved":false,"is_disabled":false,"rental_uris":{"android":"levelo://app?vid=2358e49c-e7fd-44bf-83be-4090ce600afd","ios":"levelo://app?vid=2358e49c-e7fd-44bf-83be-4090ce600afd"},"vehicle_type_id":"4","last_reported":1717783866,"current_range_meters":30800,"station_id":"ce4bhqp2rcd13ifvqhog","pricing_plan_id":"cebpf4jnsgd1na2vs0mg"},{"bike_id":"898a72a8-825a-4a66-b476-69601a095304","system_id":"levelo_inurba_marseille","lat":43.32367,"lon":5.388836,"is_reserved":false,"is_disabled":false,"rental_uris":{"android":"levelo://app?vid=898a72a8-825a-4a66-b476-69601a095304","ios":"levelo://app?vid=898a72a8-825a-4a66-b476-69601a095304"},"vehicle_type_id":"4","last_reported":1717783866,"current_range_meters":31200,"station_id":"ce4bhqp2rcd13ifvqhog","pricing_plan_id":"cebpf4jnsgd1na2vs0mg"},{"bike_id":"94e15e4d-97b6-433b-a481-7cbf19a1925e","system_id":"levelo_inurba_marseille","lat":43.29602,"lon":5.381084,"is_reserved":false,"is_disabled":false,"rental_uris":{"android":"levelo://app?vid=94e15e4d-97b6-433b-a481-7cbf19a1925e","ios":"levelo://app?vid=94e15e4d-97b6-433b-a481-7cbf19a1925e"},"vehicle_type_id":"4","last_reported":1717783866,"current_range_meters":28000,"station_id":"ce4bgl12rcd13ifvqbo0","pricing_plan_id":"cebpf4jnsgd1na2vs0mg"},{"bike_id":"6b1b81e6-f64f-4d18-8d40-b128227a2368","system_id":"levelo_inurba_marseille","lat":43.29602,"lon":5.381084,"is_reserved":false,"is_disabled":false,"rental_uris":{"android":"levelo://app?vid=6b1b81e6-f64f-4d18-8d40-b128227a2368","ios":"levelo://app?vid=6b1b81e6-f64f-4d18-8d40-b128227a2368"},"vehicle_type_id":"4","last_reported":1717783866,"current_range_meters":0,"station_id":"ce4bgl12rcd13ifvqbo0","pricing_plan_id":"cebpf4jnsgd1na2vs0mg"},{"bike_id":"39e52d82-8ce0-4b71-9a03-c910b078011f","system_id":"levelo_inurba_marseille","lat":43.29602,"lon":5.381084,"is_reserved":false,"is_disabled":false,"rental_uris":{"android":"levelo://app?vid=39e52d82-8ce0-4b71-9a03-c910b078011f","ios":"levelo://app?vid=39e52d82-8ce0-4b71-9a03-c910b078011f"},"vehicle_type_id":"4","last_reported":1717783866,"current_range_meters":19600,"station_id":"ce4bgl12rcd13ifvqbo0","pricing_plan_id":"cebpf4jnsgd1na2vs0mg"},{"bike_id":"2d8fe56a-b5ab-41b8-a8df-07446911c478","system_id":"levelo_inurba_marseille","lat":43.29601,"lon":5.381084,"is_reserved":false,"is_disabled":false,"rental_uris":{"android":"levelo://app?vid=2d8fe56a-b5ab-41b8-a8df-07446911c478","ios":"levelo://app?vid=2d8fe56a-b5ab-41b8-a8df-07446911c478"},"vehicle_type_id":"4","last_reported":1717783866,"current_range_meters":23600,"station_id":"ce4bgl12rcd13ifvqbo0","pricing_plan_id":"cebpf4jnsgd1na2vs0mg"},{"bike_id":"802b33a5-3cf6-454d-8287-4bd07fb20c24","system_id":"levelo_inurba_marseille","lat":43.292749,"lon":5.368402,"is_reserved":false,"is_disabled":false,"rental_uris":{"android":"levelo://app?vid=802b33a5-3cf6-454d-8287-4bd07fb20c24","ios":"levelo://app?vid=802b33a5-3cf6-454d-8287-4bd07fb20c24"},"vehicle_type_id":"4","last_reported":1717783866,"current_range_meters":24000,"station_id":"ce4bhbp2rcd13ifvqesg","pricing_plan_id":"cebpf4jnsgd1na2vs0mg"},{"bike_id":"a41057b6-ce47-4687-ad2c-59b2d5ac3407","system_id":"levelo_inurba_marseille","lat":43.29303,"lon":5.37155,"is_reserved":false,"is_disabled":false,"rental_uris":{"android":"levelo://app?vid=a41057b6-ce47-4687-ad2c-59b2d5ac3407","ios":"levelo://app?vid=a41057b6-ce47-4687-ad2c-59b2d5ac3407"},"vehicle_type_id":"4","last_reported":1717783866,"current_range_meters":30400,"station_id":"ce4bgh92rcd13ifvqb40","pricing_plan_id":"cebpf4jnsgd1na2vs0mg"},{"bike_id":"809750cb-5fde-4a65-ae25-a06449fe7c6c","system_id":"levelo_inurba_marseille","lat":43.292763,"lon":5.3685,"is_reserved":false,"is_disabled":false,"rental_uris":{"android":"levelo://app?vid=809750cb-5fde-4a65-ae25-a06449fe7c6c","ios":"levelo://app?vid=809750cb-5fde-4a65-ae25-a06449fe7c6c"},"vehicle_type_id":"4","last_reported":1717783866,"current_range_meters":0,"station_id":"ce4bhbp2rcd13ifvqesg","pricing_plan_id":"cebpf4jnsgd1na2vs0mg"},{"bike_id":"67d19bae-588e-4335-8ea9-238a69f486f7","system_id":"levelo_inurba_marseille","lat":43.292749,"lon":5.368398,"is_reserved":false,"is_disabled":false,"rental_uris":{"android":"levelo://app?vid=67d19bae-588e-4335-8ea9-238a69f486f7","ios":"levelo://app?vid=67d19bae-588e-4335-8ea9-238a69f486f7"},"vehicle_type_id":"4","last_reported":1717783866,"current_range_meters":0,"station_id":"ce4bhbp2rcd13ifvqesg","pricing_plan_id":"cebpf4jnsgd1na2vs0mg"},{"bike_id":"38e46061-8f74-48bd-99be-1620499a7a90","system_id":"levelo_inurba_marseille","lat":43.293009,"lon":5.374584,"is_reserved":false,"is_disabled":false,"rental_uris":{"android":"levelo://app?vid=38e46061-8f74-48bd-99be-1620499a7a90","ios":"levelo://app?vid=38e46061-8f74-48bd-99be-1620499a7a90"},"vehicle_type_id":"4","last_reported":1717783866,"current_range_meters":0,"station_id":"ce4bgi12rcd13ifvqb70","pricing_plan_id":"cebpf4jnsgd1na2vs0mg"},{"bike_id":"57416c75-93c5-45c2-a758-813367ca240d","system_id":"levelo_inurba_marseille","lat":43.293009,"lon":5.374584,"is_reserved":false,"is_disabled":false,"rental_uris":{"android":"levelo://app?vid=57416c75-93c5-45c2-a758-813367ca240d","ios":"levelo://app?vid=57416c75-93c5-45c2-a758-813367ca240d"},"vehicle_type_id":"4","last_reported":1717783866,"current_range_meters":0,"station_id":"ce4bgi12rcd13ifvqb70","pricing_plan_id":"cebpf4jnsgd1na2vs0mg"},{"bike_id":"ec8903ef-c9f5-4d08-b9d3-2a3016255948","system_id":"levelo_inurba_marseille","lat":43.305994,"lon":5.393687,"is_reserved":false,"is_disabled":false,"rental_uris":{"android":"levelo://app?vid=ec8903ef-c9f5-4d08-b9d3-2a3016255948","ios":"levelo://app?vid=ec8903ef-c9f5-4d08-b9d3-2a3016255948"},"vehicle_type_id":"4","last_reported":1717783866,"current_range_meters":2000,"station_id":"ce4bh0p2rcd13ifvqd80","pricing_plan_id":"cebpf4jnsgd1na2vs0mg"},{"bike_id":"3ad30447-37a8-471e-8a7b-22c9bb05a60b","system_id":"levelo_inurba_marseille","lat":43.2936,"lon":5.37835,"is_reserved":false,"is_disabled":false,"rental_uris":{"android":"levelo://app?vid=3ad30447-37a8-471e-8a7b-22c9bb05a60b","ios":"levelo://app?vid=3ad30447-37a8-471e-8a7b-22c9bb05a60b"},"vehicle_type_id":"4","last_reported":1717783866,"current_range_meters":8800,"station_id":"ce4bgjh2rcd13ifvqbf0","pricing_plan_id":"cebpf4jnsgd1na2vs0mg"},{"bike_id":"fe45e17a-7bfe-4fe7-97ad-b9e5b0135ef4","system_id":"levelo_inurba_marseille","lat":43.302992,"lon":5.392136,"is_reserved":false,"is_disabled":false,"rental_uris":{"android":"levelo://app?vid=fe45e17a-7bfe-4fe7-97ad-b9e5b0135ef4","ios":"levelo://app?vid=fe45e17a-7bfe-4fe7-97ad-b9e5b0135ef4"},"vehicle_type_id":"4","last_reported":1717783866,"current_range_meters":7600,"station_id":"ce4bgkh2rcd13ifvqbk0","pricing_plan_id":"cebpf4jnsgd1na2vs0mg"},{"bike_id":"5997b6cc-d744-4210-b1bd-93e392a96768","system_id":"levelo_inurba_marseille","lat":43.303002,"lon":5.392142,"is_reserved":false,"is_disabled":false,"rental_uris":{"android":"levelo://app?vid=5997b6cc-d744-4210-b1bd-93e392a96768","ios":"levelo://app?vid=5997b6cc-d744-4210-b1bd-93e392a96768"},"vehicle_type_id":"4","last_reported":1717783866,"current_range_meters":0,"station_id":"ce4bgkh2rcd13ifvqbk0","pricing_plan_id":"cebpf4jnsgd1na2vs0mg"},{"bike_id":"8699586d-2f5b-44a9-a2c3-ba3d6ecea0f8","system_id":"levelo_inurba_marseille","lat":43.303002,"lon":5.392142,"is_reserved":false,"is_disabled":false,"rental_uris":{"android":"levelo://app?vid=8699586d-2f5b-44a9-a2c3-ba3d6ecea0f8","ios":"levelo://app?vid=8699586d-2f5b-44a9-a2c3-ba3d6ecea0f8"},"vehicle_type_id":"4","last_reported":1717783866,"current_range_meters":0,"station_id":"ce4bgkh2rcd13ifvqbk0","pricing_plan_id":"cebpf4jnsgd1na2vs0mg"},{"bike_id":"131b6842-1cf8-42eb-9c5d-3089570faafa","system_id":"levelo_inurba_marseille","lat":43.2936,"lon":5.37835,"is_reserved":false,"is_disabled":false,"rental_uris":{"android":"levelo://app?vid=131b6842-1cf8-42eb-9c5d-3089570faafa","ios":"levelo://app?vid=131b6842-1cf8-42eb-9c5d-3089570faafa"},"vehicle_type_id":"4","last_reported":1717783866,"current_range_meters":7200,"station_id":"ce4bgjh2rcd13ifvqbf0","pricing_plan_id":"cebpf4jnsgd1na2vs0mg"},{"bike_id":"98cc77c5-1969-4a62-88e8-e2b31f011d7d","system_id":"levelo_inurba_marseille","lat":43.2936,"lon":5.37835,"is_reserved":false,"is_disabled":false,"rental_uris":{"android":"levelo://app?vid=98cc77c5-1969-4a62-88e8-e2b31f011d7d","ios":"levelo://app?vid=98cc77c5-1969-4a62-88e8-e2b31f011d7d"},"vehicle_type_id":"4","last_reported":1717783866,"current_range_meters":0,"station_id":"ce4bgjh2rcd13ifvqbf0","pricing_plan_id":"cebpf4jnsgd1na2vs0mg"},{"bike_id":"15c06786-9cd9-484d-ab55-50b9c8db0652","system_id":"levelo_inurba_marseille","lat":43.292311,"lon":5.360731,"is_reserved":false,"is_disabled":false,"rental_uris":{"android":"levelo://app?vid=15c06786-9cd9-484d-ab55-50b9c8db0652","ios":"levelo://app?vid=15c06786-9cd9-484d-ab55-50b9c8db0652"},"vehicle_type_id":"4","last_reported":1717783866,"current_range_meters":1200,"station_id":"ce4bhbh2rcd13ifvqeqg","pricing_plan_id":"cebpf4jnsgd1na2vs0mg"},{"bike_id":"b75ac916-0e7a-4b78-bfbb-f9db1773d4cd","system_id":"levelo_inurba_marseille","lat":43.292311,"lon":5.360731,"is_reserved":false,"is_disabled":false,"rental_uris":{"android":"levelo://app?vid=b75ac916-0e7a-4b78-bfbb-f9db1773d4cd","ios":"levelo://app?vid=b75ac916-0e7a-4b78-bfbb-f9db1773d4cd"},"vehicle_type_id":"4","last_reported":1717783866,"current_range_meters":0,"station_id":"ce4bhbh2rcd13ifvqeqg","pricing_plan_id":"cebpf4jnsgd1na2vs0mg"},{"bike_id":"a06314c6-af08-46ab-ab6d-ac67bc4b197a","system_id":"levelo_inurba_marseille","lat":43.292311,"lon":5.360731,"is_reserved":false,"is_disabled":false,"rental_uris":{"android":"levelo://app?vid=a06314c6-af08-46ab-ab6d-ac67bc4b197a","ios":"levelo://app?vid=a06314c6-af08-46ab-ab6d-ac67bc4b197a"},"vehicle_type_id":"4","last_reported":1717783866,"current_range_meters":5600,"station_id":"ce4bhbh2rcd13ifvqeqg","pricing_plan_id":"cebpf4jnsgd1na2vs0mg"},{"bike_id":"6a8483d6-f4c4-4a02-aea6-202126a8d02d","system_id":"levelo_inurba_marseille","lat":43.30085,"lon":5.390856,"is_reserved":false,"is_disabled":false,"rental_uris":{"android":"levelo://app?vid=6a8483d6-f4c4-4a02-aea6-202126a8d02d","ios":"levelo://app?vid=6a8483d6-f4c4-4a02-aea6-202126a8d02d"},"vehicle_type_id":"4","last_reported":1717783866,"current_range_meters":0,"station_id":"ce4bh192rcd13ifvqdb0","pricing_plan_id":"cebpf4jnsgd1na2vs0mg"},{"bike_id":"d0a71568-3e00-4c40-9e7c-cc9346858851","system_id":"levelo_inurba_marseille","lat":43.30085,"lon":5.390856,"is_reserved":false,"is_disabled":false,"rental_uris":{"android":"levelo://app?vid=d0a71568-3e00-4c40-9e7c-cc9346858851","ios":"levelo://app?vid=d0a71568-3e00-4c40-9e7c-cc9346858851"},"vehicle_type_id":"4","last_reported":1717783866,"current_range_meters":1600,"station_id":"ce4bh192rcd13ifvqdb0","pricing_plan_id":"cebpf4jnsgd1na2vs0mg"},{"bike_id":"db5b0555-8483-44d8-bcce-35d18954aba9","system_id":"levelo_inurba_marseille","lat":43.291671,"lon":5.371575,"is_reserved":false,"is_disabled":false,"rental_uris":{"android":"levelo://app?vid=db5b0555-8483-44d8-bcce-35d18954aba9","ios":"levelo://app?vid=db5b0555-8483-44d8-bcce-35d18954aba9"},"vehicle_type_id":"4","last_reported":1717783866,"current_range_meters":16000,"station_id":"ce4bha92rcd13ifvqeh0","pricing_plan_id":"cebpf4jnsgd1na2vs0mg"},{"bike_id":"d1ff9cdb-3054-4ef9-ba2f-8507f5e24e54","system_id":"levelo_inurba_marseille","lat":43.291671,"lon":5.371575,"is_reserved":false,"is_disabled":false,"rental_uris":{"android":"levelo://app?vid=d1ff9cdb-3054-4ef9-ba2f-8507f5e24e54","ios":"levelo://app?vid=d1ff9cdb-3054-4ef9-ba2f-8507f5e24e54"},"vehicle_type_id":"4","last_reported":1717783866,"current_range_meters":5200,"station_id":"ce4bha92rcd13ifvqeh0","pricing_plan_id":"cebpf4jnsgd1na2vs0mg"},{"bike_id":"1add293a-7f4c-4a68-9066-daca56a2eb83","system_id":"levelo_inurba_marseille","lat":43.291671,"lon":5.371575,"is_reserved":false,"is_disabled":false,"rental_uris":{"android":"levelo://app?vid=1add293a-7f4c-4a68-9066-daca56a2eb83","ios":"levelo://app?vid=1add293a-7f4c-4a68-9066-daca56a2eb83"},"vehicle_type_id":"4","last_reported":1717783866,"current_range_meters":0,"station_id":"ce4bha92rcd13ifvqeh0","pricing_plan_id":"cebpf4jnsgd1na2vs0mg"},{"bike_id":"1faf7cdc-c518-4c44-b875-9fe86f182dcc","system_id":"levelo_inurba_marseille","lat":43.2917,"lon":5.37161,"is_reserved":false,"is_disabled":false,"rental_uris":{"android":"levelo://app?vid=1faf7cdc-c518-4c44-b875-9fe86f182dcc","ios":"levelo://app?vid=1faf7cdc-c518-4c44-b875-9fe86f182dcc"},"vehicle_type_id":"4","last_reported":1717783866,"current_range_meters":0,"station_id":"ce4bha92rcd13ifvqeh0","pricing_plan_id":"cebpf4jnsgd1na2vs0mg"},{"bike_id":"99b0c0d1-ccf0-419a-beed-7c51429e8cb9","system_id":"levelo_inurba_marseille","lat":43.291671,"lon":5.371575,"is_reserved":false,"is_disabled":false,"rental_uris":{"android":"levelo://app?vid=99b0c0d1-ccf0-419a-beed-7c51429e8cb9","ios":"levelo://app?vid=99b0c0d1-ccf0-419a-beed-7c51429e8cb9"},"vehicle_type_id":"4","last_reported":1717783866,"current_range_meters":13600,"station_id":"ce4bha92rcd13ifvqeh0","pricing_plan_id":"cebpf4jnsgd1na2vs0mg"},{"bike_id":"49a3fb3b-dd74-4a01-a0d3-f4ac622eafe3","system_id":"levelo_inurba_marseille","lat":43.291671,"lon":5.371575,"is_reserved":false,"is_disabled":false,"rental_uris":{"android":"levelo://app?vid=49a3fb3b-dd74-4a01-a0d3-f4ac622eafe3","ios":"levelo://app?vid=49a3fb3b-dd74-4a01-a0d3-f4ac622eafe3"},"vehicle_type_id":"4","last_reported":1717783866,"current_range_meters":0,"station_id":"ce4bha92rcd13ifvqeh0","pricing_plan_id":"cebpf4jnsgd1na2vs0mg"},{"bike_id":"dad48ec0-c860-466f-93ac-6a071505965e","system_id":"levelo_inurba_marseille","lat":43.301429,"lon":5.37413,"is_reserved":false,"is_disabled":false,"rental_uris":{"android":"levelo://app?vid=dad48ec0-c860-466f-93ac-6a071505965e","ios":"levelo://app?vid=dad48ec0-c860-466f-93ac-6a071505965e"},"vehicle_type_id":"4","last_reported":1717783866,"current_range_meters":28800,"station_id":"ce4bgs92rcd13ifvqcc0","pricing_plan_id":"cebpf4jnsgd1na2vs0mg"},{"bike_id":"67aea5a2-2b59-4413-8b73-8b41906ac907","system_id":"levelo_inurba_marseille","lat":43.309038,"lon":5.396546,"is_reserved":false,"is_disabled":false,"rental_uris":{"android":"levelo://app?vid=67aea5a2-2b59-4413-8b73-8b41906ac907","ios":"levelo://app?vid=67aea5a2-2b59-4413-8b73-8b41906ac907"},"vehicle_type_id":"4","last_reported":1717783866,"current_range_meters":0,"station_id":"ce4bh012rcd13ifvqcv0","pricing_plan_id":"cebpf4jnsgd1na2vs0mg"},{"bike_id":"d3da9afa-a192-425f-b176-64539a65ac17","system_id":"levelo_inurba_marseille","lat":43.313291,"lon":5.396838,"is_reserved":false,"is_disabled":false,"rental_uris":{"android":"levelo://app?vid=d3da9afa-a192-425f-b176-64539a65ac17","ios":"levelo://app?vid=d3da9afa-a192-425f-b176-64539a65ac17"},"vehicle_type_id":"4","last_reported":1717783866,"current_range_meters":26400,"station_id":"ce4bgvp2rcd13ifvqcu0","pricing_plan_id":"cebpf4jnsgd1na2vs0mg"},{"bike_id":"cf4982ad-de46-42bc-b0f1-662c39c43b2e","system_id":"levelo_inurba_marseille","lat":43.313291,"lon":5.396838,"is_reserved":false,"is_disabled":false,"rental_uris":{"android":"levelo://app?vid=cf4982ad-de46-42bc-b0f1-662c39c43b2e","ios":"levelo://app?vid=cf4982ad-de46-42bc-b0f1-662c39c43b2e"},"vehicle_type_id":"4","last_reported":1717783866,"current_range_meters":10000,"station_id":"ce4bgvp2rcd13ifvqcu0","pricing_plan_id":"cebpf4jnsgd1na2vs0mg"},{"bike_id":"ea58e26c-4ac8-4772-8a81-fb79926fd16c","system_id":"levelo_inurba_marseille","lat":43.309038,"lon":5.396546,"is_reserved":false,"is_disabled":false,"rental_uris":{"android":"levelo://app?vid=ea58e26c-4ac8-4772-8a81-fb79926fd16c","ios":"levelo://app?vid=ea58e26c-4ac8-4772-8a81-fb79926fd16c"},"vehicle_type_id":"4","last_reported":1717783866,"current_range_meters":0,"station_id":"ce4bh012rcd13ifvqcv0","pricing_plan_id":"cebpf4jnsgd1na2vs0mg"},{"bike_id":"f1532dae-6afa-46cb-989c-e7297892b552","system_id":"levelo_inurba_marseille","lat":43.313291,"lon":5.396838,"is_reserved":false,"is_disabled":false,"rental_uris":{"android":"levelo://app?vid=f1532dae-6afa-46cb-989c-e7297892b552","ios":"levelo://app?vid=f1532dae-6afa-46cb-989c-e7297892b552"},"vehicle_type_id":"4","last_reported":1717783866,"current_range_meters":25200,"station_id":"ce4bgvp2rcd13ifvqcu0","pricing_plan_id":"cebpf4jnsgd1na2vs0mg"},{"bike_id":"afaf1831-e53c-48ff-a222-f55acd6a53b0","system_id":"levelo_inurba_marseille","lat":43.291994,"lon":5.357886,"is_reserved":false,"is_disabled":false,"rental_uris":{"android":"levelo://app?vid=afaf1831-e53c-48ff-a222-f55acd6a53b0","ios":"levelo://app?vid=afaf1831-e53c-48ff-a222-f55acd6a53b0"},"vehicle_type_id":"4","last_reported":1717783866,"current_range_meters":0,"station_id":"ce4bhb12rcd13ifvqel0","pricing_plan_id":"cebpf4jnsgd1na2vs0mg"},{"bike_id":"de746d53-58de-4271-8c10-af2e5b8edaab","system_id":"levelo_inurba_marseille","lat":43.313291,"lon":5.396838,"is_reserved":false,"is_disabled":false,"rental_uris":{"android":"levelo://app?vid=de746d53-58de-4271-8c10-af2e5b8edaab","ios":"levelo://app?vid=de746d53-58de-4271-8c10-af2e5b8edaab"},"vehicle_type_id":"4","last_reported":1717783866,"current_range_meters":20800,"station_id":"ce4bgvp2rcd13ifvqcu0","pricing_plan_id":"cebpf4jnsgd1na2vs0mg"},{"bike_id":"bf2e0976-a572-47b0-8a3e-49dfb0197de1","system_id":"levelo_inurba_marseille","lat":43.29546,"lon":5.38546,"is_reserved":false,"is_disabled":false,"rental_uris":{"android":"levelo://app?vid=bf2e0976-a572-47b0-8a3e-49dfb0197de1","ios":"levelo://app?vid=bf2e0976-a572-47b0-8a3e-49dfb0197de1"},"vehicle_type_id":"4","last_reported":1717783866,"current_range_meters":26000,"station_id":"ce4bgih2rcd13ifvqba0","pricing_plan_id":"cebpf4jnsgd1na2vs0mg"},{"bike_id":"98d0ad72-fa8a-4b42-87ad-a5f83e52d54f","system_id":"levelo_inurba_marseille","lat":43.309038,"lon":5.396546,"is_reserved":false,"is_disabled":false,"rental_uris":{"android":"levelo://app?vid=98d0ad72-fa8a-4b42-87ad-a5f83e52d54f","ios":"levelo://app?vid=98d0ad72-fa8a-4b42-87ad-a5f83e52d54f"},"vehicle_type_id":"4","last_reported":1717783866,"current_range_meters":16400,"station_id":"ce4bh012rcd13ifvqcv0","pricing_plan_id":"cebpf4jnsgd1na2vs0mg"},{"bike_id":"53e35578-ceb3-4ec1-8537-990eb851d3ea","system_id":"levelo_inurba_marseille","lat":43.29529,"lon":5.385581,"is_reserved":false,"is_disabled":false,"rental_uris":{"android":"levelo://app?vid=53e35578-ceb3-4ec1-8537-990eb851d3ea","ios":"levelo://app?vid=53e35578-ceb3-4ec1-8537-990eb851d3ea"},"vehicle_type_id":"4","last_reported":1717783866,"current_range_meters":28400,"station_id":"ce4bgih2rcd13ifvqba0","pricing_plan_id":"cebpf4jnsgd1na2vs0mg"},{"bike_id":"444b554d-b2d8-4839-b65d-8191e7d6f3f9","system_id":"levelo_inurba_marseille","lat":43.29536,"lon":5.3854,"is_reserved":false,"is_disabled":false,"rental_uris":{"android":"levelo://app?vid=444b554d-b2d8-4839-b65d-8191e7d6f3f9","ios":"levelo://app?vid=444b554d-b2d8-4839-b65d-8191e7d6f3f9"},"vehicle_type_id":"4","last_reported":1717783866,"current_range_meters":20000,"station_id":"ce4bgih2rcd13ifvqba0","pricing_plan_id":"cebpf4jnsgd1na2vs0mg"},{"bike_id":"3342210b-b29f-4925-a166-b976518ba395","system_id":"levelo_inurba_marseille","lat":43.29535,"lon":5.38547,"is_reserved":false,"is_disabled":false,"rental_uris":{"android":"levelo://app?vid=3342210b-b29f-4925-a166-b976518ba395","ios":"levelo://app?vid=3342210b-b29f-4925-a166-b976518ba395"},"vehicle_type_id":"4","last_reported":1717783866,"current_range_meters":23200,"station_id":"ce4bgih2rcd13ifvqba0","pricing_plan_id":"cebpf4jnsgd1na2vs0mg"},{"bike_id":"77a2e3ee-8592-4aa7-9f28-2ee61ee98051","system_id":"levelo_inurba_marseille","lat":43.2953,"lon":5.38543,"is_reserved":false,"is_disabled":false,"rental_uris":{"android":"levelo://app?vid=77a2e3ee-8592-4aa7-9f28-2ee61ee98051","ios":"levelo://app?vid=77a2e3ee-8592-4aa7-9f28-2ee61ee98051"},"vehicle_type_id":"4","last_reported":1717783866,"current_range_meters":16400,"station_id":"ce4bgih2rcd13ifvqba0","pricing_plan_id":"cebpf4jnsgd1na2vs0mg"},{"bike_id":"c948ead3-596f-4521-a03a-5b1c8911551d","system_id":"levelo_inurba_marseille","lat":43.2906,"lon":5.37156,"is_reserved":false,"is_disabled":false,"rental_uris":{"android":"levelo://app?vid=c948ead3-596f-4521-a03a-5b1c8911551d","ios":"levelo://app?vid=c948ead3-596f-4521-a03a-5b1c8911551d"},"vehicle_type_id":"4","last_reported":1717783866,"current_range_meters":31200,"station_id":"ce4bh5p2rcd13ifvqe4g","pricing_plan_id":"cebpf4jnsgd1na2vs0mg"},{"bike_id":"c917e88c-b353-478f-82d3-571605f56daf","system_id":"levelo_inurba_marseille","lat":43.290779,"lon":5.371482,"is_reserved":false,"is_disabled":false,"rental_uris":{"android":"levelo://app?vid=c917e88c-b353-478f-82d3-571605f56daf","ios":"levelo://app?vid=c917e88c-b353-478f-82d3-571605f56daf"},"vehicle_type_id":"4","last_reported":1717783866,"current_range_meters":0,"station_id":"ce4bh5p2rcd13ifvqe4g","pricing_plan_id":"cebpf4jnsgd1na2vs0mg"},{"bike_id":"77b02e24-e70a-4906-b99f-684cf96876cf","system_id":"levelo_inurba_marseille","lat":43.294349,"lon":5.385716,"is_reserved":false,"is_disabled":false,"rental_uris":{"android":"levelo://app?vid=77b02e24-e70a-4906-b99f-684cf96876cf","ios":"levelo://app?vid=77b02e24-e70a-4906-b99f-684cf96876cf"},"vehicle_type_id":"4","last_reported":1717783866,"current_range_meters":18400,"station_id":"ce4bh2h2rcd13ifvqdh0","pricing_plan_id":"cebpf4jnsgd1na2vs0mg"},{"bike_id":"5a450a69-6af3-4d05-a5ad-9b8993150e6e","system_id":"levelo_inurba_marseille","lat":43.294162,"lon":5.386292,"is_reserved":false,"is_disabled":false,"rental_uris":{"android":"levelo://app?vid=5a450a69-6af3-4d05-a5ad-9b8993150e6e","ios":"levelo://app?vid=5a450a69-6af3-4d05-a5ad-9b8993150e6e"},"vehicle_type_id":"4","last_reported":1717783866,"current_range_meters":3200,"station_id":"ce4bh2h2rcd13ifvqdh0","pricing_plan_id":"cebpf4jnsgd1na2vs0mg"},{"bike_id":"91f8a9ce-dcfa-4498-9946-7dce8ffae3b5","system_id":"levelo_inurba_marseille","lat":43.29422,"lon":5.38616,"is_reserved":false,"is_disabled":false,"rental_uris":{"android":"levelo://app?vid=91f8a9ce-dcfa-4498-9946-7dce8ffae3b5","ios":"levelo://app?vid=91f8a9ce-dcfa-4498-9946-7dce8ffae3b5"},"vehicle_type_id":"4","last_reported":1717783866,"current_range_meters":0,"station_id":"ce4bh2h2rcd13ifvqdh0","pricing_plan_id":"cebpf4jnsgd1na2vs0mg"},{"bike_id":"23fd3f09-5fdd-4c15-b0f6-c6482c8d6f4d","system_id":"levelo_inurba_marseille","lat":43.294227,"lon":5.386177,"is_reserved":false,"is_disabled":false,"rental_uris":{"android":"levelo://app?vid=23fd3f09-5fdd-4c15-b0f6-c6482c8d6f4d","ios":"levelo://app?vid=23fd3f09-5fdd-4c15-b0f6-c6482c8d6f4d"},"vehicle_type_id":"4","last_reported":1717783866,"current_range_meters":12800,"station_id":"ce4bh2h2rcd13ifvqdh0","pricing_plan_id":"cebpf4jnsgd1na2vs0mg"},{"bike_id":"194099a3-7303-4d9f-901d-6bdbda06a422","system_id":"levelo_inurba_marseille","lat":43.2942,"lon":5.38617,"is_reserved":false,"is_disabled":false,"rental_uris":{"android":"levelo://app?vid=194099a3-7303-4d9f-901d-6bdbda06a422","ios":"levelo://app?vid=194099a3-7303-4d9f-901d-6bdbda06a422"},"vehicle_type_id":"4","last_reported":1717783866,"current_range_meters":6800,"station_id":"ce4bh2h2rcd13ifvqdh0","pricing_plan_id":"cebpf4jnsgd1na2vs0mg"},{"bike_id":"2db822d0-1676-44b2-93c8-26b87d18e990","system_id":"levelo_inurba_marseille","lat":43.290365,"lon":5.375692,"is_reserved":false,"is_disabled":false,"rental_uris":{"android":"levelo://app?vid=2db822d0-1676-44b2-93c8-26b87d18e990","ios":"levelo://app?vid=2db822d0-1676-44b2-93c8-26b87d18e990"},"vehicle_type_id":"4","last_reported":1717783866,"current_range_meters":0,"station_id":"ce4bh692rcd13ifvqe90","pricing_plan_id":"cebpf4jnsgd1na2vs0mg"},{"bike_id":"7908b740-28ef-48b5-b26e-5d821e893f3f","system_id":"levelo_inurba_marseille","lat":43.294153,"lon":5.386305,"is_reserved":false,"is_disabled":false,"rental_uris":{"android":"levelo://app?vid=7908b740-28ef-48b5-b26e-5d821e893f3f","ios":"levelo://app?vid=7908b740-28ef-48b5-b26e-5d821e893f3f"},"vehicle_type_id":"4","last_reported":1717783866,"current_range_meters":400,"station_id":"ce4bh2h2rcd13ifvqdh0","pricing_plan_id":"cebpf4jnsgd1na2vs0mg"},{"bike_id":"cc9123e6-a288-4ffe-8ae5-2568331a630e","system_id":"levelo_inurba_marseille","lat":43.29419,"lon":5.38626,"is_reserved":false,"is_disabled":false,"rental_uris":{"android":"levelo://app?vid=cc9123e6-a288-4ffe-8ae5-2568331a630e","ios":"levelo://app?vid=cc9123e6-a288-4ffe-8ae5-2568331a630e"},"vehicle_type_id":"4","last_reported":1717783866,"current_range_meters":0,"station_id":"ce4bh2h2rcd13ifvqdh0","pricing_plan_id":"cebpf4jnsgd1na2vs0mg"},{"bike_id":"72da276a-b436-46f3-a91c-785852d9847e","system_id":"levelo_inurba_marseille","lat":43.29418,"lon":5.38627,"is_reserved":false,"is_disabled":false,"rental_uris":{"android":"levelo://app?vid=72da276a-b436-46f3-a91c-785852d9847e","ios":"levelo://app?vid=72da276a-b436-46f3-a91c-785852d9847e"},"vehicle_type_id":"4","last_reported":1717783866,"current_range_meters":0,"station_id":"ce4bh2h2rcd13ifvqdh0","pricing_plan_id":"cebpf4jnsgd1na2vs0mg"},{"bike_id":"1cac05ee-2a8f-4548-8669-7a06a65cd932","system_id":"levelo_inurba_marseille","lat":43.28944,"lon":5.36644,"is_reserved":false,"is_disabled":false,"rental_uris":{"android":"levelo://app?vid=1cac05ee-2a8f-4548-8669-7a06a65cd932","ios":"levelo://app?vid=1cac05ee-2a8f-4548-8669-7a06a65cd932"},"vehicle_type_id":"4","last_reported":1717783866,"current_range_meters":0,"station_id":"ce4bhap2rcd13ifvqek0","pricing_plan_id":"cebpf4jnsgd1na2vs0mg"},{"bike_id":"ff1440f2-c81e-496d-b577-d1e5c0768f08","system_id":"levelo_inurba_marseille","lat":43.29418,"lon":5.3863,"is_reserved":false,"is_disabled":false,"rental_uris":{"android":"levelo://app?vid=ff1440f2-c81e-496d-b577-d1e5c0768f08","ios":"levelo://app?vid=ff1440f2-c81e-496d-b577-d1e5c0768f08"},"vehicle_type_id":"4","last_reported":1717783866,"current_range_meters":0,"station_id":"ce4bh2h2rcd13ifvqdh0","pricing_plan_id":"cebpf4jnsgd1na2vs0mg"},{"bike_id":"115605b7-6541-42d0-9847-7b0df664ebca","system_id":"levelo_inurba_marseille","lat":43.28942,"lon":5.36631,"is_reserved":false,"is_disabled":false,"rental_uris":{"android":"levelo://app?vid=115605b7-6541-42d0-9847-7b0df664ebca","ios":"levelo://app?vid=115605b7-6541-42d0-9847-7b0df664ebca"},"vehicle_type_id":"4","last_reported":1717783866,"current_range_meters":0,"station_id":"ce4bhap2rcd13ifvqek0","pricing_plan_id":"cebpf4jnsgd1na2vs0mg"},{"bike_id":"69f712b5-e9b2-435a-90cb-052decf3003c","system_id":"levelo_inurba_marseille","lat":43.290319,"lon":5.375732,"is_reserved":false,"is_disabled":false,"rental_uris":{"android":"levelo://app?vid=69f712b5-e9b2-435a-90cb-052decf3003c","ios":"levelo://app?vid=69f712b5-e9b2-435a-90cb-052decf3003c"},"vehicle_type_id":"4","last_reported":1717783866,"current_range_meters":0,"station_id":"ce4bh692rcd13ifvqe90","pricing_plan_id":"cebpf4jnsgd1na2vs0mg"},{"bike_id":"d0a403c8-e825-4518-914d-0b48201a990f","system_id":"levelo_inurba_marseille","lat":43.289184,"lon":5.366408,"is_reserved":false,"is_disabled":false,"rental_uris":{"android":"levelo://app?vid=d0a403c8-e825-4518-914d-0b48201a990f","ios":"levelo://app?vid=d0a403c8-e825-4518-914d-0b48201a990f"},"vehicle_type_id":"4","last_reported":1717783866,"current_range_meters":0,"station_id":"ce4bhap2rcd13ifvqek0","pricing_plan_id":"cebpf4jnsgd1na2vs0mg"},{"bike_id":"bae8f681-657c-4f8b-9b58-e57a30e28658","system_id":"levelo_inurba_marseille","lat":43.29441,"lon":5.38681,"is_reserved":false,"is_disabled":false,"rental_uris":{"android":"levelo://app?vid=bae8f681-657c-4f8b-9b58-e57a30e28658","ios":"levelo://app?vid=bae8f681-657c-4f8b-9b58-e57a30e28658"},"vehicle_type_id":"4","last_reported":1717783866,"current_range_meters":14000,"station_id":"ce4bh2h2rcd13ifvqdh0","pricing_plan_id":"cebpf4jnsgd1na2vs0mg"},{"bike_id":"d5023e36-af76-498c-ac0b-55b5d83fcb25","system_id":"levelo_inurba_marseille","lat":43.28934,"lon":5.36634,"is_reserved":false,"is_disabled":false,"rental_uris":{"android":"levelo://app?vid=d5023e36-af76-498c-ac0b-55b5d83fcb25","ios":"levelo://app?vid=d5023e36-af76-498c-ac0b-55b5d83fcb25"},"vehicle_type_id":"4","last_reported":1717783866,"current_range_meters":0,"station_id":"ce4bhap2rcd13ifvqek0","pricing_plan_id":"cebpf4jnsgd1na2vs0mg"},{"bike_id":"588d5a29-b83e-413a-a35d-2c84801b943e","system_id":"levelo_inurba_marseille","lat":43.294027,"lon":5.386278,"is_reserved":false,"is_disabled":false,"rental_uris":{"android":"levelo://app?vid=588d5a29-b83e-413a-a35d-2c84801b943e","ios":"levelo://app?vid=588d5a29-b83e-413a-a35d-2c84801b943e"},"vehicle_type_id":"4","last_reported":1717783866,"current_range_meters":2400,"station_id":"ce4bh2h2rcd13ifvqdh0","pricing_plan_id":"cebpf4jnsgd1na2vs0mg"},{"bike_id":"3fa21411-31c5-4797-9724-9d48de29439b","system_id":"levelo_inurba_marseille","lat":43.292644,"lon":5.384257,"is_reserved":false,"is_disabled":false,"rental_uris":{"android":"levelo://app?vid=3fa21411-31c5-4797-9724-9d48de29439b","ios":"levelo://app?vid=3fa21411-31c5-4797-9724-9d48de29439b"},"vehicle_type_id":"4","last_reported":1717783866,"current_range_meters":2000,"station_id":"ce4bh692rcd13ifvqea0","pricing_plan_id":"cebpf4jnsgd1na2vs0mg"},{"bike_id":"c4e0bba0-3bc6-44a3-b5b9-4287f60ada03","system_id":"levelo_inurba_marseille","lat":43.292644,"lon":5.384257,"is_reserved":false,"is_disabled":false,"rental_uris":{"android":"levelo://app?vid=c4e0bba0-3bc6-44a3-b5b9-4287f60ada03","ios":"levelo://app?vid=c4e0bba0-3bc6-44a3-b5b9-4287f60ada03"},"vehicle_type_id":"4","last_reported":1717783866,"current_range_meters":16000,"station_id":"ce4bh692rcd13ifvqea0","pricing_plan_id":"cebpf4jnsgd1na2vs0mg"},{"bike_id":"f3a85102-5e56-40f7-b7db-491d1eceea52","system_id":"levelo_inurba_marseille","lat":43.292644,"lon":5.384257,"is_reserved":false,"is_disabled":false,"rental_uris":{"android":"levelo://app?vid=f3a85102-5e56-40f7-b7db-491d1eceea52","ios":"levelo://app?vid=f3a85102-5e56-40f7-b7db-491d1eceea52"},"vehicle_type_id":"4","last_reported":1717783866,"current_range_meters":0,"station_id":"ce4bh692rcd13ifvqea0","pricing_plan_id":"cebpf4jnsgd1na2vs0mg"},{"bike_id":"fb933214-0f60-44d6-ab7c-9d757f51fb32","system_id":"levelo_inurba_marseille","lat":43.292644,"lon":5.384257,"is_reserved":false,"is_disabled":false,"rental_uris":{"android":"levelo://app?vid=fb933214-0f60-44d6-ab7c-9d757f51fb32","ios":"levelo://app?vid=fb933214-0f60-44d6-ab7c-9d757f51fb32"},"vehicle_type_id":"4","last_reported":1717783866,"current_range_meters":1600,"station_id":"ce4bh692rcd13ifvqea0","pricing_plan_id":"cebpf4jnsgd1na2vs0mg"},{"bike_id":"36f9e31c-045f-4286-ad7a-9a5d7fc95b26","system_id":"levelo_inurba_marseille","lat":43.29267,"lon":5.38442,"is_reserved":false,"is_disabled":false,"rental_uris":{"android":"levelo://app?vid=36f9e31c-045f-4286-ad7a-9a5d7fc95b26","ios":"levelo://app?vid=36f9e31c-045f-4286-ad7a-9a5d7fc95b26"},"vehicle_type_id":"4","last_reported":1717783866,"current_range_meters":0,"station_id":"ce4bh692rcd13ifvqea0","pricing_plan_id":"cebpf4jnsgd1na2vs0mg"},{"bike_id":"e6af297c-7310-4750-ae74-917adf252ccd","system_id":"levelo_inurba_marseille","lat":43.292642,"lon":5.384254,"is_reserved":false,"is_disabled":false,"rental_uris":{"android":"levelo://app?vid=e6af297c-7310-4750-ae74-917adf252ccd","ios":"levelo://app?vid=e6af297c-7310-4750-ae74-917adf252ccd"},"vehicle_type_id":"4","last_reported":1717783866,"current_range_meters":8800,"station_id":"ce4bh692rcd13ifvqea0","pricing_plan_id":"cebpf4jnsgd1na2vs0mg"},{"bike_id":"b55caedd-d76d-4df5-91ac-ee9da95ca9f3","system_id":"levelo_inurba_marseille","lat":43.29257,"lon":5.384422,"is_reserved":false,"is_disabled":false,"rental_uris":{"android":"levelo://app?vid=b55caedd-d76d-4df5-91ac-ee9da95ca9f3","ios":"levelo://app?vid=b55caedd-d76d-4df5-91ac-ee9da95ca9f3"},"vehicle_type_id":"4","last_reported":1717783866,"current_range_meters":0,"station_id":"ce4bh692rcd13ifvqea0","pricing_plan_id":"cebpf4jnsgd1na2vs0mg"},{"bike_id":"e2147445-80d7-482e-bbe6-22001511e30f","system_id":"levelo_inurba_marseille","lat":43.29573,"lon":5.367355,"is_reserved":false,"is_disabled":false,"rental_uris":{"android":"levelo://app?vid=e2147445-80d7-482e-bbe6-22001511e30f","ios":"levelo://app?vid=e2147445-80d7-482e-bbe6-22001511e30f"},"vehicle_type_id":"4","last_reported":1717783866,"current_range_meters":2800,"station_id":"ce4bgph2rcd13ifvqc2g","pricing_plan_id":"cebpf4jnsgd1na2vs0mg"},{"bike_id":"255e0348-b8a3-48ec-a66b-5c833d50f4c3","system_id":"levelo_inurba_marseille","lat":43.292644,"lon":5.384257,"is_reserved":false,"is_disabled":false,"rental_uris":{"android":"levelo://app?vid=255e0348-b8a3-48ec-a66b-5c833d50f4c3","ios":"levelo://app?vid=255e0348-b8a3-48ec-a66b-5c833d50f4c3"},"vehicle_type_id":"4","last_reported":1717783866,"current_range_meters":0,"station_id":"ce4bh692rcd13ifvqea0","pricing_plan_id":"cebpf4jnsgd1na2vs0mg"},{"bike_id":"2dfa427c-7230-4e6f-afe2-508cdab8db44","system_id":"levelo_inurba_marseille","lat":43.290104,"lon":5.356111,"is_reserved":false,"is_disabled":false,"rental_uris":{"android":"levelo://app?vid=2dfa427c-7230-4e6f-afe2-508cdab8db44","ios":"levelo://app?vid=2dfa427c-7230-4e6f-afe2-508cdab8db44"},"vehicle_type_id":"4","last_reported":1717783866,"current_range_meters":0,"station_id":"ce4bhb92rcd13ifvqen0","pricing_plan_id":"cebpf4jnsgd1na2vs0mg"},{"bike_id":"6e315013-bae5-409b-b8eb-f9dd642b4fd6","system_id":"levelo_inurba_marseille","lat":43.29007,"lon":5.35615,"is_reserved":false,"is_disabled":false,"rental_uris":{"android":"levelo://app?vid=6e315013-bae5-409b-b8eb-f9dd642b4fd6","ios":"levelo://app?vid=6e315013-bae5-409b-b8eb-f9dd642b4fd6"},"vehicle_type_id":"4","last_reported":1717783866,"current_range_meters":0,"station_id":"ce4bhb92rcd13ifvqen0","pricing_plan_id":"cebpf4jnsgd1na2vs0mg"},{"bike_id":"66aae592-de26-4760-bec6-f6fb2caeed1e","system_id":"levelo_inurba_marseille","lat":43.290104,"lon":5.356111,"is_reserved":false,"is_disabled":false,"rental_uris":{"android":"levelo://app?vid=66aae592-de26-4760-bec6-f6fb2caeed1e","ios":"levelo://app?vid=66aae592-de26-4760-bec6-f6fb2caeed1e"},"vehicle_type_id":"4","last_reported":1717783866,"current_range_meters":0,"station_id":"ce4bhb92rcd13ifvqen0","pricing_plan_id":"cebpf4jnsgd1na2vs0mg"},{"bike_id":"fb2699dd-af45-45d2-88b6-57f41c852d3f","system_id":"levelo_inurba_marseille","lat":43.29004,"lon":5.35614,"is_reserved":false,"is_disabled":false,"rental_uris":{"android":"levelo://app?vid=fb2699dd-af45-45d2-88b6-57f41c852d3f","ios":"levelo://app?vid=fb2699dd-af45-45d2-88b6-57f41c852d3f"},"vehicle_type_id":"4","last_reported":1717783866,"current_range_meters":0,"station_id":"ce4bhb92rcd13ifvqen0","pricing_plan_id":"cebpf4jnsgd1na2vs0mg"},{"bike_id":"0d2a0694-8f0d-43a8-abe3-ca83043d958e","system_id":"levelo_inurba_marseille","lat":43.290995,"lon":5.381361,"is_reserved":false,"is_disabled":false,"rental_uris":{"android":"levelo://app?vid=0d2a0694-8f0d-43a8-abe3-ca83043d958e","ios":"levelo://app?vid=0d2a0694-8f0d-43a8-abe3-ca83043d958e"},"vehicle_type_id":"4","last_reported":1717783866,"current_range_meters":27200,"station_id":"ce4bh512rcd13ifvqe2g","pricing_plan_id":"cebpf4jnsgd1na2vs0mg"},{"bike_id":"1d551b96-2d18-4c99-be65-5f869a393d8f","system_id":"levelo_inurba_marseille","lat":43.295169,"lon":5.390426,"is_reserved":false,"is_disabled":false,"rental_uris":{"android":"levelo://app?vid=1d551b96-2d18-4c99-be65-5f869a393d8f","ios":"levelo://app?vid=1d551b96-2d18-4c99-be65-5f869a393d8f"},"vehicle_type_id":"4","last_reported":1717783866,"current_range_meters":23200,"station_id":"ce4bh3p2rcd13ifvqdp0","pricing_plan_id":"cebpf4jnsgd1na2vs0mg"},{"bike_id":"27278577-a85b-4d14-93d1-38626911f656","system_id":"levelo_inurba_marseille","lat":43.295169,"lon":5.390426,"is_reserved":false,"is_disabled":false,"rental_uris":{"android":"levelo://app?vid=27278577-a85b-4d14-93d1-38626911f656","ios":"levelo://app?vid=27278577-a85b-4d14-93d1-38626911f656"},"vehicle_type_id":"4","last_reported":1717783866,"current_range_meters":1200,"station_id":"ce4bh3p2rcd13ifvqdp0","pricing_plan_id":"cebpf4jnsgd1na2vs0mg"},{"bike_id":"f11c947b-4767-4e74-a09e-8afbc68df447","system_id":"levelo_inurba_marseille","lat":43.33027,"lon":5.39036,"is_reserved":false,"is_disabled":false,"rental_uris":{"android":"levelo://app?vid=f11c947b-4767-4e74-a09e-8afbc68df447","ios":"levelo://app?vid=f11c947b-4767-4e74-a09e-8afbc68df447"},"vehicle_type_id":"4","last_reported":1717783866,"current_range_meters":0,"station_id":"ce4bhr92rcd13ifvqhrg","pricing_plan_id":"cebpf4jnsgd1na2vs0mg"},{"bike_id":"ca65e7d2-f10e-4130-ba0d-5dd49518a4fa","system_id":"levelo_inurba_marseille","lat":43.33027,"lon":5.39039,"is_reserved":false,"is_disabled":false,"rental_uris":{"android":"levelo://app?vid=ca65e7d2-f10e-4130-ba0d-5dd49518a4fa","ios":"levelo://app?vid=ca65e7d2-f10e-4130-ba0d-5dd49518a4fa"},"vehicle_type_id":"4","last_reported":1717783866,"current_range_meters":1200,"station_id":"ce4bhr92rcd13ifvqhrg","pricing_plan_id":"cebpf4jnsgd1na2vs0mg"},{"bike_id":"b8569b2f-9c4d-4c21-a293-639c73fba58a","system_id":"levelo_inurba_marseille","lat":43.33025,"lon":5.39044,"is_reserved":false,"is_disabled":false,"rental_uris":{"android":"levelo://app?vid=b8569b2f-9c4d-4c21-a293-639c73fba58a","ios":"levelo://app?vid=b8569b2f-9c4d-4c21-a293-639c73fba58a"},"vehicle_type_id":"4","last_reported":1717783866,"current_range_meters":12000,"station_id":"ce4bhr92rcd13ifvqhrg","pricing_plan_id":"cebpf4jnsgd1na2vs0mg"},{"bike_id":"5162ab54-7ef4-41b9-8d04-dcc5aa69cc87","system_id":"levelo_inurba_marseille","lat":43.33029,"lon":5.39042,"is_reserved":false,"is_disabled":false,"rental_uris":{"android":"levelo://app?vid=5162ab54-7ef4-41b9-8d04-dcc5aa69cc87","ios":"levelo://app?vid=5162ab54-7ef4-41b9-8d04-dcc5aa69cc87"},"vehicle_type_id":"4","last_reported":1717783866,"current_range_meters":6800,"station_id":"ce4bhr92rcd13ifvqhrg","pricing_plan_id":"cebpf4jnsgd1na2vs0mg"},{"bike_id":"db58bfa1-0e62-43af-8994-5d060069fe2e","system_id":"levelo_inurba_marseille","lat":43.330442,"lon":5.389148,"is_reserved":false,"is_disabled":false,"rental_uris":{"android":"levelo://app?vid=db58bfa1-0e62-43af-8994-5d060069fe2e","ios":"levelo://app?vid=db58bfa1-0e62-43af-8994-5d060069fe2e"},"vehicle_type_id":"4","last_reported":1717783866,"current_range_meters":400,"station_id":"ce4bhr92rcd13ifvqhrg","pricing_plan_id":"cebpf4jnsgd1na2vs0mg"},{"bike_id":"6fea45a8-35bb-4570-90bf-754fbe5de613","system_id":"levelo_inurba_marseille","lat":43.28856,"lon":5.358371,"is_reserved":false,"is_disabled":false,"rental_uris":{"android":"levelo://app?vid=6fea45a8-35bb-4570-90bf-754fbe5de613","ios":"levelo://app?vid=6fea45a8-35bb-4570-90bf-754fbe5de613"},"vehicle_type_id":"4","last_reported":1717783866,"current_range_meters":24400,"station_id":"ce4bhb12rcd13ifvqem0","pricing_plan_id":"cebpf4jnsgd1na2vs0mg"},{"bike_id":"2d77e1ed-6957-4588-b7a0-833bf6d6b29b","system_id":"levelo_inurba_marseille","lat":43.290094,"lon":5.381264,"is_reserved":false,"is_disabled":false,"rental_uris":{"android":"levelo://app?vid=2d77e1ed-6957-4588-b7a0-833bf6d6b29b","ios":"levelo://app?vid=2d77e1ed-6957-4588-b7a0-833bf6d6b29b"},"vehicle_type_id":"4","last_reported":1717783866,"current_range_meters":3600,"station_id":"ce4bh4p2rcd13ifvqe1g","pricing_plan_id":"cebpf4jnsgd1na2vs0mg"},{"bike_id":"10f052da-41c3-43e5-b96c-96043e84b34e","system_id":"levelo_inurba_marseille","lat":43.31069,"lon":5.40095,"is_reserved":false,"is_disabled":false,"rental_uris":{"android":"levelo://app?vid=10f052da-41c3-43e5-b96c-96043e84b34e","ios":"levelo://app?vid=10f052da-41c3-43e5-b96c-96043e84b34e"},"vehicle_type_id":"4","last_reported":1717783866,"current_range_meters":31200,"station_id":"","pricing_plan_id":"cebpf4jnsgd1na2vs0mg"},{"bike_id":"5c8cbac2-0965-4cbe-b037-43a18ad2ca21","system_id":"levelo_inurba_marseille","lat":43.312609,"lon":5.401662,"is_reserved":false,"is_disabled":false,"rental_uris":{"android":"levelo://app?vid=5c8cbac2-0965-4cbe-b037-43a18ad2ca21","ios":"levelo://app?vid=5c8cbac2-0965-4cbe-b037-43a18ad2ca21"},"vehicle_type_id":"4","last_reported":1717783866,"current_range_meters":0,"station_id":"ce4bh092rcd13ifvqd30","pricing_plan_id":"cebpf4jnsgd1na2vs0mg"},{"bike_id":"f5d81ff7-7e0d-44d8-86e3-2548419d17b8","system_id":"levelo_inurba_marseille","lat":43.33737,"lon":5.37483,"is_reserved":false,"is_disabled":false,"rental_uris":{"android":"levelo://app?vid=f5d81ff7-7e0d-44d8-86e3-2548419d17b8","ios":"levelo://app?vid=f5d81ff7-7e0d-44d8-86e3-2548419d17b8"},"vehicle_type_id":"4","last_reported":1717783866,"current_range_meters":6000,"station_id":"","pricing_plan_id":"cebpf4jnsgd1na2vs0mg"},{"bike_id":"6730616c-ae0d-4fce-8656-7f3b388fddae","system_id":"levelo_inurba_marseille","lat":43.30932,"lon":5.40139,"is_reserved":false,"is_disabled":false,"rental_uris":{"android":"levelo://app?vid=6730616c-ae0d-4fce-8656-7f3b388fddae","ios":"levelo://app?vid=6730616c-ae0d-4fce-8656-7f3b388fddae"},"vehicle_type_id":"4","last_reported":1717783866,"current_range_meters":0,"station_id":"ce4bgvp2rcd13ifvqct0","pricing_plan_id":"cebpf4jnsgd1na2vs0mg"},{"bike_id":"ceff1af8-1a5a-442a-94e2-a660a6b91490","system_id":"levelo_inurba_marseille","lat":43.31277,"lon":5.40172,"is_reserved":false,"is_disabled":false,"rental_uris":{"android":"levelo://app?vid=ceff1af8-1a5a-442a-94e2-a660a6b91490","ios":"levelo://app?vid=ceff1af8-1a5a-442a-94e2-a660a6b91490"},"vehicle_type_id":"4","last_reported":1717783866,"current_range_meters":4400,"station_id":"ce4bh092rcd13ifvqd30","pricing_plan_id":"cebpf4jnsgd1na2vs0mg"},{"bike_id":"cb968fa6-1425-4db5-b111-741fc3873653","system_id":"levelo_inurba_marseille","lat":43.33745,"lon":5.374543,"is_reserved":false,"is_disabled":false,"rental_uris":{"android":"levelo://app?vid=cb968fa6-1425-4db5-b111-741fc3873653","ios":"levelo://app?vid=cb968fa6-1425-4db5-b111-741fc3873653"},"vehicle_type_id":"4","last_reported":1717783866,"current_range_meters":29200,"station_id":"","pricing_plan_id":"cebpf4jnsgd1na2vs0mg"},{"bike_id":"38bcbad9-e543-4c24-af2f-2f9425162306","system_id":"levelo_inurba_marseille","lat":43.312609,"lon":5.401662,"is_reserved":false,"is_disabled":false,"rental_uris":{"android":"levelo://app?vid=38bcbad9-e543-4c24-af2f-2f9425162306","ios":"levelo://app?vid=38bcbad9-e543-4c24-af2f-2f9425162306"},"vehicle_type_id":"4","last_reported":1717783866,"current_range_meters":25200,"station_id":"ce4bh092rcd13ifvqd30","pricing_plan_id":"cebpf4jnsgd1na2vs0mg"},{"bike_id":"1e2f8b55-fdbf-441a-906e-1ae2d57293ab","system_id":"levelo_inurba_marseille","lat":43.3094,"lon":5.40144,"is_reserved":false,"is_disabled":false,"rental_uris":{"android":"levelo://app?vid=1e2f8b55-fdbf-441a-906e-1ae2d57293ab","ios":"levelo://app?vid=1e2f8b55-fdbf-441a-906e-1ae2d57293ab"},"vehicle_type_id":"4","last_reported":1717783866,"current_range_meters":0,"station_id":"ce4bgvp2rcd13ifvqct0","pricing_plan_id":"cebpf4jnsgd1na2vs0mg"},{"bike_id":"d2acab0a-c49c-49e4-becb-d310b8556bab","system_id":"levelo_inurba_marseille","lat":43.30937,"lon":5.40147,"is_reserved":false,"is_disabled":false,"rental_uris":{"android":"levelo://app?vid=d2acab0a-c49c-49e4-becb-d310b8556bab","ios":"levelo://app?vid=d2acab0a-c49c-49e4-becb-d310b8556bab"},"vehicle_type_id":"4","last_reported":1717783866,"current_range_meters":0,"station_id":"ce4bgvp2rcd13ifvqct0","pricing_plan_id":"cebpf4jnsgd1na2vs0mg"},{"bike_id":"c4f698ec-64e9-4887-b0e3-1335dc62c252","system_id":"levelo_inurba_marseille","lat":43.337564,"lon":5.374545,"is_reserved":false,"is_disabled":false,"rental_uris":{"android":"levelo://app?vid=c4f698ec-64e9-4887-b0e3-1335dc62c252","ios":"levelo://app?vid=c4f698ec-64e9-4887-b0e3-1335dc62c252"},"vehicle_type_id":"4","last_reported":1717783866,"current_range_meters":18400,"station_id":"","pricing_plan_id":"cebpf4jnsgd1na2vs0mg"},{"bike_id":"1fcf9f4a-821a-4e24-8f11-be3d088c25bd","system_id":"levelo_inurba_marseille","lat":43.30647,"lon":5.4009,"is_reserved":false,"is_disabled":false,"rental_uris":{"android":"levelo://app?vid=1fcf9f4a-821a-4e24-8f11-be3d088c25bd","ios":"levelo://app?vid=1fcf9f4a-821a-4e24-8f11-be3d088c25bd"},"vehicle_type_id":"4","last_reported":1717783866,"current_range_meters":0,"station_id":"ce4bh112rcd13ifvqda0","pricing_plan_id":"cebpf4jnsgd1na2vs0mg"},{"bike_id":"2efc08a3-0dd5-4b55-9bb2-108a1936b5ed","system_id":"levelo_inurba_marseille","lat":43.30642,"lon":5.401031,"is_reserved":false,"is_disabled":false,"rental_uris":{"android":"levelo://app?vid=2efc08a3-0dd5-4b55-9bb2-108a1936b5ed","ios":"levelo://app?vid=2efc08a3-0dd5-4b55-9bb2-108a1936b5ed"},"vehicle_type_id":"4","last_reported":1717783866,"current_range_meters":0,"station_id":"ce4bh112rcd13ifvqda0","pricing_plan_id":"cebpf4jnsgd1na2vs0mg"},{"bike_id":"492ab0e5-c857-4907-98e5-7e78beaec5e9","system_id":"levelo_inurba_marseille","lat":43.301117,"lon":5.398795,"is_reserved":false,"is_disabled":false,"rental_uris":{"android":"levelo://app?vid=492ab0e5-c857-4907-98e5-7e78beaec5e9","ios":"levelo://app?vid=492ab0e5-c857-4907-98e5-7e78beaec5e9"},"vehicle_type_id":"4","last_reported":1717783866,"current_range_meters":24800,"station_id":"ce4bh0h2rcd13ifvqd40","pricing_plan_id":"cebpf4jnsgd1na2vs0mg"},{"bike_id":"6d679425-45dc-4b0e-b21f-2ce1b5cb7ae7","system_id":"levelo_inurba_marseille","lat":43.28684,"lon":5.3672,"is_reserved":false,"is_disabled":false,"rental_uris":{"android":"levelo://app?vid=6d679425-45dc-4b0e-b21f-2ce1b5cb7ae7","ios":"levelo://app?vid=6d679425-45dc-4b0e-b21f-2ce1b5cb7ae7"},"vehicle_type_id":"4","last_reported":1717783866,"current_range_meters":5600,"station_id":"","pricing_plan_id":"cebpf4jnsgd1na2vs0mg"},{"bike_id":"03bac799-e14c-43ec-b0db-82ddc2d9fee3","system_id":"levelo_inurba_marseille","lat":43.286961,"lon":5.373785,"is_reserved":false,"is_disabled":false,"rental_uris":{"android":"levelo://app?vid=03bac799-e14c-43ec-b0db-82ddc2d9fee3","ios":"levelo://app?vid=03bac799-e14c-43ec-b0db-82ddc2d9fee3"},"vehicle_type_id":"4","last_reported":1717783866,"current_range_meters":1600,"station_id":"ce4bh3p2rcd13ifvqdq0","pricing_plan_id":"cebpf4jnsgd1na2vs0mg"},{"bike_id":"1e315040-7597-429f-8658-b437f48a3bd2","system_id":"levelo_inurba_marseille","lat":43.286961,"lon":5.373785,"is_reserved":false,"is_disabled":false,"rental_uris":{"android":"levelo://app?vid=1e315040-7597-429f-8658-b437f48a3bd2","ios":"levelo://app?vid=1e315040-7597-429f-8658-b437f48a3bd2"},"vehicle_type_id":"4","last_reported":1717783866,"current_range_meters":0,"station_id":"ce4bh3p2rcd13ifvqdq0","pricing_plan_id":"cebpf4jnsgd1na2vs0mg"},{"bike_id":"6ab480b5-611b-4457-aea6-0a2617c9c424","system_id":"levelo_inurba_marseille","lat":43.298681,"lon":5.397225,"is_reserved":false,"is_disabled":false,"rental_uris":{"android":"levelo://app?vid=6ab480b5-611b-4457-aea6-0a2617c9c424","ios":"levelo://app?vid=6ab480b5-611b-4457-aea6-0a2617c9c424"},"vehicle_type_id":"4","last_reported":1717783866,"current_range_meters":30000,"station_id":"ce4bh0h2rcd13ifvqd50","pricing_plan_id":"cebpf4jnsgd1na2vs0mg"},{"bike_id":"641bcfbc-b94e-4225-ab47-e6ea57c56be0","system_id":"levelo_inurba_marseille","lat":43.2866,"lon":5.36354,"is_reserved":false,"is_disabled":false,"rental_uris":{"android":"levelo://app?vid=641bcfbc-b94e-4225-ab47-e6ea57c56be0","ios":"levelo://app?vid=641bcfbc-b94e-4225-ab47-e6ea57c56be0"},"vehicle_type_id":"4","last_reported":1717783866,"current_range_meters":0,"station_id":"ce4bhah2rcd13ifvqej0","pricing_plan_id":"cebpf4jnsgd1na2vs0mg"},{"bike_id":"457b852d-a37b-4719-94ed-82cba041956d","system_id":"levelo_inurba_marseille","lat":43.290336,"lon":5.386425,"is_reserved":false,"is_disabled":false,"rental_uris":{"android":"levelo://app?vid=457b852d-a37b-4719-94ed-82cba041956d","ios":"levelo://app?vid=457b852d-a37b-4719-94ed-82cba041956d"},"vehicle_type_id":"4","last_reported":1717783866,"current_range_meters":16800,"station_id":"ce4bh4p2rcd13ifvqe0g","pricing_plan_id":"cebpf4jnsgd1na2vs0mg"},{"bike_id":"ab11cb16-51ed-4d20-8798-7c5c2cc6732b","system_id":"levelo_inurba_marseille","lat":43.290345,"lon":5.38646,"is_reserved":false,"is_disabled":false,"rental_uris":{"android":"levelo://app?vid=ab11cb16-51ed-4d20-8798-7c5c2cc6732b","ios":"levelo://app?vid=ab11cb16-51ed-4d20-8798-7c5c2cc6732b"},"vehicle_type_id":"4","last_reported":1717783866,"current_range_meters":0,"station_id":"ce4bh4p2rcd13ifvqe0g","pricing_plan_id":"cebpf4jnsgd1na2vs0mg"},{"bike_id":"363e0ba7-ad59-42e6-a6cd-120a5c0da19e","system_id":"levelo_inurba_marseille","lat":43.289307,"lon":5.38406,"is_reserved":false,"is_disabled":false,"rental_uris":{"android":"levelo://app?vid=363e0ba7-ad59-42e6-a6cd-120a5c0da19e","ios":"levelo://app?vid=363e0ba7-ad59-42e6-a6cd-120a5c0da19e"},"vehicle_type_id":"4","last_reported":1717783866,"current_range_meters":0,"station_id":"ce4bh612rcd13ifvqe6g","pricing_plan_id":"cebpf4jnsgd1na2vs0mg"},{"bike_id":"01a873aa-d305-4884-9061-1daf794e7879","system_id":"levelo_inurba_marseille","lat":43.302759,"lon":5.400793,"is_reserved":false,"is_disabled":false,"rental_uris":{"android":"levelo://app?vid=01a873aa-d305-4884-9061-1daf794e7879","ios":"levelo://app?vid=01a873aa-d305-4884-9061-1daf794e7879"},"vehicle_type_id":"4","last_reported":1717783866,"current_range_meters":21600,"station_id":"ce4bgvh2rcd13ifvqcs0","pricing_plan_id":"cebpf4jnsgd1na2vs0mg"},{"bike_id":"5dcddc8a-cec3-4c71-b083-70269def32ec","system_id":"levelo_inurba_marseille","lat":43.302477,"lon":5.40074,"is_reserved":false,"is_disabled":false,"rental_uris":{"android":"levelo://app?vid=5dcddc8a-cec3-4c71-b083-70269def32ec","ios":"levelo://app?vid=5dcddc8a-cec3-4c71-b083-70269def32ec"},"vehicle_type_id":"4","last_reported":1717783866,"current_range_meters":400,"station_id":"ce4bgvh2rcd13ifvqcs0","pricing_plan_id":"cebpf4jnsgd1na2vs0mg"},{"bike_id":"fe7be329-2dea-44a3-8b4f-c8acf1f8d056","system_id":"levelo_inurba_marseille","lat":43.302759,"lon":5.400793,"is_reserved":false,"is_disabled":false,"rental_uris":{"android":"levelo://app?vid=fe7be329-2dea-44a3-8b4f-c8acf1f8d056","ios":"levelo://app?vid=fe7be329-2dea-44a3-8b4f-c8acf1f8d056"},"vehicle_type_id":"4","last_reported":1717783866,"current_range_meters":18400,"station_id":"ce4bgvh2rcd13ifvqcs0","pricing_plan_id":"cebpf4jnsgd1na2vs0mg"},{"bike_id":"14aa8977-ed31-4b60-a868-3e4d444872b3","system_id":"levelo_inurba_marseille","lat":43.286039,"lon":5.370681,"is_reserved":false,"is_disabled":false,"rental_uris":{"android":"levelo://app?vid=14aa8977-ed31-4b60-a868-3e4d444872b3","ios":"levelo://app?vid=14aa8977-ed31-4b60-a868-3e4d444872b3"},"vehicle_type_id":"4","last_reported":1717783866,"current_range_meters":31600,"station_id":"ce4bht12rcd13ifvqi60","pricing_plan_id":"cebpf4jnsgd1na2vs0mg"},{"bike_id":"afb59e87-9aa7-4ebd-ac4d-8a0fbca7db14","system_id":"levelo_inurba_marseille","lat":43.286039,"lon":5.370681,"is_reserved":false,"is_disabled":false,"rental_uris":{"android":"levelo://app?vid=afb59e87-9aa7-4ebd-ac4d-8a0fbca7db14","ios":"levelo://app?vid=afb59e87-9aa7-4ebd-ac4d-8a0fbca7db14"},"vehicle_type_id":"4","last_reported":1717783866,"current_range_meters":20800,"station_id":"ce4bht12rcd13ifvqi60","pricing_plan_id":"cebpf4jnsgd1na2vs0mg"},{"bike_id":"3b4ab38e-13d4-4582-822e-d48caf811ca0","system_id":"levelo_inurba_marseille","lat":43.28612,"lon":5.37066,"is_reserved":false,"is_disabled":false,"rental_uris":{"android":"levelo://app?vid=3b4ab38e-13d4-4582-822e-d48caf811ca0","ios":"levelo://app?vid=3b4ab38e-13d4-4582-822e-d48caf811ca0"},"vehicle_type_id":"4","last_reported":1717783866,"current_range_meters":25600,"station_id":"ce4bht12rcd13ifvqi60","pricing_plan_id":"cebpf4jnsgd1na2vs0mg"},{"bike_id":"f9397181-2862-49ab-a440-9e77222a5379","system_id":"levelo_inurba_marseille","lat":43.286039,"lon":5.370681,"is_reserved":false,"is_disabled":false,"rental_uris":{"android":"levelo://app?vid=f9397181-2862-49ab-a440-9e77222a5379","ios":"levelo://app?vid=f9397181-2862-49ab-a440-9e77222a5379"},"vehicle_type_id":"4","last_reported":1717783866,"current_range_meters":21200,"station_id":"ce4bht12rcd13ifvqi60","pricing_plan_id":"cebpf4jnsgd1na2vs0mg"},{"bike_id":"a0fda5cd-094a-46ca-ac54-bcfd43057dea","system_id":"levelo_inurba_marseille","lat":43.286039,"lon":5.370681,"is_reserved":false,"is_disabled":false,"rental_uris":{"android":"levelo://app?vid=a0fda5cd-094a-46ca-ac54-bcfd43057dea","ios":"levelo://app?vid=a0fda5cd-094a-46ca-ac54-bcfd43057dea"},"vehicle_type_id":"4","last_reported":1717783866,"current_range_meters":25200,"station_id":"ce4bht12rcd13ifvqi60","pricing_plan_id":"cebpf4jnsgd1na2vs0mg"},{"bike_id":"1a1adc70-c71d-42e9-9231-3ec02c596c17","system_id":"levelo_inurba_marseille","lat":43.286039,"lon":5.370681,"is_reserved":false,"is_disabled":false,"rental_uris":{"android":"levelo://app?vid=1a1adc70-c71d-42e9-9231-3ec02c596c17","ios":"levelo://app?vid=1a1adc70-c71d-42e9-9231-3ec02c596c17"},"vehicle_type_id":"4","last_reported":1717783866,"current_range_meters":22000,"station_id":"ce4bht12rcd13ifvqi60","pricing_plan_id":"cebpf4jnsgd1na2vs0mg"},{"bike_id":"5b43c40f-2488-4a05-84af-cc0148af6824","system_id":"levelo_inurba_marseille","lat":43.286039,"lon":5.370681,"is_reserved":false,"is_disabled":false,"rental_uris":{"android":"levelo://app?vid=5b43c40f-2488-4a05-84af-cc0148af6824","ios":"levelo://app?vid=5b43c40f-2488-4a05-84af-cc0148af6824"},"vehicle_type_id":"4","last_reported":1717783866,"current_range_meters":24000,"station_id":"ce4bht12rcd13ifvqi60","pricing_plan_id":"cebpf4jnsgd1na2vs0mg"},{"bike_id":"adc32d5d-e99b-47d6-a1ba-bd6e986176ee","system_id":"levelo_inurba_marseille","lat":43.2872,"lon":5.37934,"is_reserved":false,"is_disabled":false,"rental_uris":{"android":"levelo://app?vid=adc32d5d-e99b-47d6-a1ba-bd6e986176ee","ios":"levelo://app?vid=adc32d5d-e99b-47d6-a1ba-bd6e986176ee"},"vehicle_type_id":"4","last_reported":1717783866,"current_range_meters":11600,"station_id":"ce4bh9p2rcd13ifvqec0","pricing_plan_id":"cebpf4jnsgd1na2vs0mg"},{"bike_id":"1ae7e827-6255-45bc-860c-5d983a1ffae8","system_id":"levelo_inurba_marseille","lat":43.286039,"lon":5.370681,"is_reserved":false,"is_disabled":false,"rental_uris":{"android":"levelo://app?vid=1ae7e827-6255-45bc-860c-5d983a1ffae8","ios":"levelo://app?vid=1ae7e827-6255-45bc-860c-5d983a1ffae8"},"vehicle_type_id":"4","last_reported":1717783866,"current_range_meters":9600,"station_id":"ce4bht12rcd13ifvqi60","pricing_plan_id":"cebpf4jnsgd1na2vs0mg"},{"bike_id":"3c63c494-7a9d-4c07-9b50-1c084ac6f93c","system_id":"levelo_inurba_marseille","lat":43.28681,"lon":5.35476,"is_reserved":false,"is_disabled":false,"rental_uris":{"android":"levelo://app?vid=3c63c494-7a9d-4c07-9b50-1c084ac6f93c","ios":"levelo://app?vid=3c63c494-7a9d-4c07-9b50-1c084ac6f93c"},"vehicle_type_id":"4","last_reported":1717783866,"current_range_meters":8400,"station_id":"","pricing_plan_id":"cebpf4jnsgd1na2vs0mg"},{"bike_id":"4aa933df-201c-4cfe-9fc0-62fbdb301dea","system_id":"levelo_inurba_marseille","lat":43.287417,"lon":5.352228,"is_reserved":false,"is_disabled":false,"rental_uris":{"android":"levelo://app?vid=4aa933df-201c-4cfe-9fc0-62fbdb301dea","ios":"levelo://app?vid=4aa933df-201c-4cfe-9fc0-62fbdb301dea"},"vehicle_type_id":"4","last_reported":1717783866,"current_range_meters":26000,"station_id":"","pricing_plan_id":"cebpf4jnsgd1na2vs0mg"},{"bike_id":"8eabf572-f8b6-4761-a39c-f7610894d9b7","system_id":"levelo_inurba_marseille","lat":43.30642,"lon":5.401031,"is_reserved":false,"is_disabled":false,"rental_uris":{"android":"levelo://app?vid=8eabf572-f8b6-4761-a39c-f7610894d9b7","ios":"levelo://app?vid=8eabf572-f8b6-4761-a39c-f7610894d9b7"},"vehicle_type_id":"4","last_reported":1717783866,"current_range_meters":4000,"station_id":"ce4bh112rcd13ifvqda0","pricing_plan_id":"cebpf4jnsgd1na2vs0mg"},{"bike_id":"d81b95f6-4b6c-4abb-b17e-113c1d8a8e73","system_id":"levelo_inurba_marseille","lat":43.316821,"lon":5.404737,"is_reserved":false,"is_disabled":false,"rental_uris":{"android":"levelo://app?vid=d81b95f6-4b6c-4abb-b17e-113c1d8a8e73","ios":"levelo://app?vid=d81b95f6-4b6c-4abb-b17e-113c1d8a8e73"},"vehicle_type_id":"4","last_reported":1717783866,"current_range_meters":14800,"station_id":"ce4bh012rcd13ifvqd00","pricing_plan_id":"cebpf4jnsgd1na2vs0mg"},{"bike_id":"1518733c-7e96-4bec-9068-966975fb379e","system_id":"levelo_inurba_marseille","lat":43.288427,"lon":5.386593,"is_reserved":false,"is_disabled":false,"rental_uris":{"android":"levelo://app?vid=1518733c-7e96-4bec-9068-966975fb379e","ios":"levelo://app?vid=1518733c-7e96-4bec-9068-966975fb379e"},"vehicle_type_id":"4","last_reported":1717783866,"current_range_meters":0,"station_id":"","pricing_plan_id":"cebpf4jnsgd1na2vs0mg"},{"bike_id":"f1e01532-1ead-44e3-a9bf-32e39d0c445b","system_id":"levelo_inurba_marseille","lat":43.301117,"lon":5.398795,"is_reserved":false,"is_disabled":false,"rental_uris":{"android":"levelo://app?vid=f1e01532-1ead-44e3-a9bf-32e39d0c445b","ios":"levelo://app?vid=f1e01532-1ead-44e3-a9bf-32e39d0c445b"},"vehicle_type_id":"4","last_reported":1717783866,"current_range_meters":22400,"station_id":"ce4bh0h2rcd13ifvqd40","pricing_plan_id":"cebpf4jnsgd1na2vs0mg"},{"bike_id":"a2d7ef40-5a97-4f14-8f1e-d81dc462765c","system_id":"levelo_inurba_marseille","lat":43.284538,"lon":5.358657,"is_reserved":false,"is_disabled":false,"rental_uris":{"android":"levelo://app?vid=a2d7ef40-5a97-4f14-8f1e-d81dc462765c","ios":"levelo://app?vid=a2d7ef40-5a97-4f14-8f1e-d81dc462765c"},"vehicle_type_id":"4","last_reported":1717783866,"current_range_meters":18800,"station_id":"ce4bhah2rcd13ifvqei0","pricing_plan_id":"cebpf4jnsgd1na2vs0mg"},{"bike_id":"b42edaa1-cff1-44f8-9710-2b7158bbc304","system_id":"levelo_inurba_marseille","lat":43.28618,"lon":5.3511,"is_reserved":false,"is_disabled":false,"rental_uris":{"android":"levelo://app?vid=b42edaa1-cff1-44f8-9710-2b7158bbc304","ios":"levelo://app?vid=b42edaa1-cff1-44f8-9710-2b7158bbc304"},"vehicle_type_id":"4","last_reported":1717783866,"current_range_meters":0,"station_id":"ce4bhch2rcd13ifvqeug","pricing_plan_id":"cebpf4jnsgd1na2vs0mg"},{"bike_id":"a293f82a-d701-4036-8edd-c5edc685db3d","system_id":"levelo_inurba_marseille","lat":43.28618,"lon":5.35106,"is_reserved":false,"is_disabled":false,"rental_uris":{"android":"levelo://app?vid=a293f82a-d701-4036-8edd-c5edc685db3d","ios":"levelo://app?vid=a293f82a-d701-4036-8edd-c5edc685db3d"},"vehicle_type_id":"4","last_reported":1717783866,"current_range_meters":0,"station_id":"ce4bhch2rcd13ifvqeug","pricing_plan_id":"cebpf4jnsgd1na2vs0mg"},{"bike_id":"b3c0b8f5-3dba-4548-bae8-55d91d5cbb0d","system_id":"levelo_inurba_marseille","lat":43.285856,"lon":5.350771,"is_reserved":false,"is_disabled":false,"rental_uris":{"android":"levelo://app?vid=b3c0b8f5-3dba-4548-bae8-55d91d5cbb0d","ios":"levelo://app?vid=b3c0b8f5-3dba-4548-bae8-55d91d5cbb0d"},"vehicle_type_id":"4","last_reported":1717783866,"current_range_meters":18800,"station_id":"ce4bhch2rcd13ifvqeug","pricing_plan_id":"cebpf4jnsgd1na2vs0mg"},{"bike_id":"2b2ae0e2-5dad-4669-a940-ea7ed20dab26","system_id":"levelo_inurba_marseille","lat":43.28617,"lon":5.351,"is_reserved":false,"is_disabled":false,"rental_uris":{"android":"levelo://app?vid=2b2ae0e2-5dad-4669-a940-ea7ed20dab26","ios":"levelo://app?vid=2b2ae0e2-5dad-4669-a940-ea7ed20dab26"},"vehicle_type_id":"4","last_reported":1717783866,"current_range_meters":0,"station_id":"ce4bhch2rcd13ifvqeug","pricing_plan_id":"cebpf4jnsgd1na2vs0mg"},{"bike_id":"29438f8a-a95f-4b6b-9fbe-49f996901116","system_id":"levelo_inurba_marseille","lat":43.28616,"lon":5.35102,"is_reserved":false,"is_disabled":false,"rental_uris":{"android":"levelo://app?vid=29438f8a-a95f-4b6b-9fbe-49f996901116","ios":"levelo://app?vid=29438f8a-a95f-4b6b-9fbe-49f996901116"},"vehicle_type_id":"4","last_reported":1717783866,"current_range_meters":17200,"station_id":"ce4bhch2rcd13ifvqeug","pricing_plan_id":"cebpf4jnsgd1na2vs0mg"},{"bike_id":"3db354c2-1235-49e4-ad59-7ed8c91cfadc","system_id":"levelo_inurba_marseille","lat":43.28615,"lon":5.35103,"is_reserved":false,"is_disabled":false,"rental_uris":{"android":"levelo://app?vid=3db354c2-1235-49e4-ad59-7ed8c91cfadc","ios":"levelo://app?vid=3db354c2-1235-49e4-ad59-7ed8c91cfadc"},"vehicle_type_id":"4","last_reported":1717783866,"current_range_meters":0,"station_id":"ce4bhch2rcd13ifvqeug","pricing_plan_id":"cebpf4jnsgd1na2vs0mg"},{"bike_id":"ab0219dc-8847-4a3d-b885-62fc91a2091a","system_id":"levelo_inurba_marseille","lat":43.28614,"lon":5.35101,"is_reserved":false,"is_disabled":false,"rental_uris":{"android":"levelo://app?vid=ab0219dc-8847-4a3d-b885-62fc91a2091a","ios":"levelo://app?vid=ab0219dc-8847-4a3d-b885-62fc91a2091a"},"vehicle_type_id":"4","last_reported":1717783866,"current_range_meters":19600,"station_id":"ce4bhch2rcd13ifvqeug","pricing_plan_id":"cebpf4jnsgd1na2vs0mg"},{"bike_id":"aa284899-d0ce-4106-bdf8-3b6f68df1546","system_id":"levelo_inurba_marseille","lat":43.28613,"lon":5.35103,"is_reserved":false,"is_disabled":false,"rental_uris":{"android":"levelo://app?vid=aa284899-d0ce-4106-bdf8-3b6f68df1546","ios":"levelo://app?vid=aa284899-d0ce-4106-bdf8-3b6f68df1546"},"vehicle_type_id":"4","last_reported":1717783866,"current_range_meters":0,"station_id":"ce4bhch2rcd13ifvqeug","pricing_plan_id":"cebpf4jnsgd1na2vs0mg"},{"bike_id":"3ccb6792-d2a2-49f4-b6df-69a70eb22d5a","system_id":"levelo_inurba_marseille","lat":43.28613,"lon":5.35102,"is_reserved":false,"is_disabled":false,"rental_uris":{"android":"levelo://app?vid=3ccb6792-d2a2-49f4-b6df-69a70eb22d5a","ios":"levelo://app?vid=3ccb6792-d2a2-49f4-b6df-69a70eb22d5a"},