{"last_updated":1715454348,"ttl":30,"version":"2.2","data":{"bikes":[{"bike_id":"b6d5adf7-e3cf-42dc-bd46-9e38f2887abe","system_id":"levelo_inurba_marseille","lat":43.31248,"lon":5.36848,"is_reserved":false,"is_disabled":false,"rental_uris":{"android":"levelo://app?vid=b6d5adf7-e3cf-42dc-bd46-9e38f2887abe","ios":"levelo://app?vid=b6d5adf7-e3cf-42dc-bd46-9e38f2887abe"},"vehicle_type_id":"4","last_reported":1715454348,"current_range_meters":5200,"station_id":"ce4bgl92rcd13ifvqbq0","pricing_plan_id":"cebpf4jnsgd1na2vs0mg"},{"bike_id":"c5a0a353-c18f-4f94-80ce-a0115e1a7e3f","system_id":"levelo_inurba_marseille","lat":43.31216,"lon":5.36847,"is_reserved":false,"is_disabled":false,"rental_uris":{"android":"levelo://app?vid=c5a0a353-c18f-4f94-80ce-a0115e1a7e3f","ios":"levelo://app?vid=c5a0a353-c18f-4f94-80ce-a0115e1a7e3f"},"vehicle_type_id":"4","last_reported":1715454348,"current_range_meters":0,"station_id":"","pricing_plan_id":"cebpf4jnsgd1na2vs0mg"},{"bike_id":"fa6cb905-5284-44aa-9c0e-81828d5f9bf7","system_id":"levelo_inurba_marseille","lat":43.312239,"lon":5.368562,"is_reserved":false,"is_disabled":false,"rental_uris":{"android":"levelo://app?vid=fa6cb905-5284-44aa-9c0e-81828d5f9bf7","ios":"levelo://app?vid=fa6cb905-5284-44aa-9c0e-81828d5f9bf7"},"vehicle_type_id":"4","last_reported":1715454348,"current_range_meters":0,"station_id":"ce4bgl92rcd13ifvqbq0","pricing_plan_id":"cebpf4jnsgd1na2vs0mg"},{"bike_id":"312160d1-8fa2-468a-8ebf-fd60da90dc8a","system_id":"levelo_inurba_marseille","lat":43.31212,"lon":5.36872,"is_reserved":false,"is_disabled":false,"rental_uris":{"android":"levelo://app?vid=312160d1-8fa2-468a-8ebf-fd60da90dc8a","ios":"levelo://app?vid=312160d1-8fa2-468a-8ebf-fd60da90dc8a"},"vehicle_type_id":"4","last_reported":1715454348,"current_range_meters":26800,"station_id":"ce4bgl92rcd13ifvqbq0","pricing_plan_id":"cebpf4jnsgd1na2vs0mg"},{"bike_id":"010f033d-994d-4fac-afcc-79ef525bf296","system_id":"levelo_inurba_marseille","lat":43.309076,"lon":5.368465,"is_reserved":false,"is_disabled":false,"rental_uris":{"android":"levelo://app?vid=010f033d-994d-4fac-afcc-79ef525bf296","ios":"levelo://app?vid=010f033d-994d-4fac-afcc-79ef525bf296"},"vehicle_type_id":"4","last_reported":1715454348,"current_range_meters":3200,"station_id":"ce4bgn92rcd13ifvqbvg","pricing_plan_id":"cebpf4jnsgd1na2vs0mg"},{"bike_id":"e074c415-10ab-4d32-a5fb-7aa6039575fd","system_id":"levelo_inurba_marseille","lat":43.309076,"lon":5.368465,"is_reserved":false,"is_disabled":false,"rental_uris":{"android":"levelo://app?vid=e074c415-10ab-4d32-a5fb-7aa6039575fd","ios":"levelo://app?vid=e074c415-10ab-4d32-a5fb-7aa6039575fd"},"vehicle_type_id":"4","last_reported":1715454348,"current_range_meters":2800,"station_id":"ce4bgn92rcd13ifvqbvg","pricing_plan_id":"cebpf4jnsgd1na2vs0mg"},{"bike_id":"ce346588-0ddf-40c4-af52-a1b9e984907a","system_id":"levelo_inurba_marseille","lat":43.309076,"lon":5.368465,"is_reserved":false,"is_disabled":false,"rental_uris":{"android":"levelo://app?vid=ce346588-0ddf-40c4-af52-a1b9e984907a","ios":"levelo://app?vid=ce346588-0ddf-40c4-af52-a1b9e984907a"},"vehicle_type_id":"4","last_reported":1715454348,"current_range_meters":30400,"station_id":"ce4bgn92rcd13ifvqbvg","pricing_plan_id":"cebpf4jnsgd1na2vs0mg"},{"bike_id":"f810f5a0-f783-44fc-b524-774d35ca36aa","system_id":"levelo_inurba_marseille","lat":43.314646,"lon":5.371955,"is_reserved":false,"is_disabled":false,"rental_uris":{"android":"levelo://app?vid=f810f5a0-f783-44fc-b524-774d35ca36aa","ios":"levelo://app?vid=f810f5a0-f783-44fc-b524-774d35ca36aa"},"vehicle_type_id":"4","last_reported":1715454348,"current_range_meters":0,"station_id":"ce4bgt12rcd13ifvqcd0","pricing_plan_id":"cebpf4jnsgd1na2vs0mg"},{"bike_id":"c39ab2ad-be7a-46a2-95f1-7426485e7f32","system_id":"levelo_inurba_marseille","lat":43.314811,"lon":5.373103,"is_reserved":false,"is_disabled":false,"rental_uris":{"android":"levelo://app?vid=c39ab2ad-be7a-46a2-95f1-7426485e7f32","ios":"levelo://app?vid=c39ab2ad-be7a-46a2-95f1-7426485e7f32"},"vehicle_type_id":"4","last_reported":1715454348,"current_range_meters":0,"station_id":"ce4bgt12rcd13ifvqcd0","pricing_plan_id":"cebpf4jnsgd1na2vs0mg"},{"bike_id":"ec48009b-5266-44c6-b5cd-845c566aa381","system_id":"levelo_inurba_marseille","lat":43.314811,"lon":5.373104,"is_reserved":false,"is_disabled":false,"rental_uris":{"android":"levelo://app?vid=ec48009b-5266-44c6-b5cd-845c566aa381","ios":"levelo://app?vid=ec48009b-5266-44c6-b5cd-845c566aa381"},"vehicle_type_id":"4","last_reported":1715454348,"current_range_meters":15600,"station_id":"ce4bgt12rcd13ifvqcd0","pricing_plan_id":"cebpf4jnsgd1na2vs0mg"},{"bike_id":"0c7d571b-9053-4072-bbd8-385a03e3718f","system_id":"levelo_inurba_marseille","lat":43.314811,"lon":5.373103,"is_reserved":false,"is_disabled":false,"rental_uris":{"android":"levelo://app?vid=0c7d571b-9053-4072-bbd8-385a03e3718f","ios":"levelo://app?vid=0c7d571b-9053-4072-bbd8-385a03e3718f"},"vehicle_type_id":"4","last_reported":1715454348,"current_range_meters":0,"station_id":"ce4bgt12rcd13ifvqcd0","pricing_plan_id":"cebpf4jnsgd1na2vs0mg"},{"bike_id":"af8d4eb1-8ee8-4683-822e-c65107a0e0a8","system_id":"levelo_inurba_marseille","lat":43.314811,"lon":5.373104,"is_reserved":false,"is_disabled":false,"rental_uris":{"android":"levelo://app?vid=af8d4eb1-8ee8-4683-822e-c65107a0e0a8","ios":"levelo://app?vid=af8d4eb1-8ee8-4683-822e-c65107a0e0a8"},"vehicle_type_id":"4","last_reported":1715454348,"current_range_meters":17200,"station_id":"ce4bgt12rcd13ifvqcd0","pricing_plan_id":"cebpf4jnsgd1na2vs0mg"},{"bike_id":"442a9883-2e59-4295-a1ec-7487b67b429f","system_id":"levelo_inurba_marseille","lat":43.314811,"lon":5.373104,"is_reserved":false,"is_disabled":false,"rental_uris":{"android":"levelo://app?vid=442a9883-2e59-4295-a1ec-7487b67b429f","ios":"levelo://app?vid=442a9883-2e59-4295-a1ec-7487b67b429f"},"vehicle_type_id":"4","last_reported":1715454348,"current_range_meters":4800,"station_id":"ce4bgt12rcd13ifvqcd0","pricing_plan_id":"cebpf4jnsgd1na2vs0mg"},{"bike_id":"ddb7e328-d932-4d23-a593-f8d93f6ee6c9","system_id":"levelo_inurba_marseille","lat":43.314811,"lon":5.373103,"is_reserved":false,"is_disabled":false,"rental_uris":{"android":"levelo://app?vid=ddb7e328-d932-4d23-a593-f8d93f6ee6c9","ios":"levelo://app?vid=ddb7e328-d932-4d23-a593-f8d93f6ee6c9"},"vehicle_type_id":"4","last_reported":1715454348,"current_range_meters":0,"station_id":"ce4bgt12rcd13ifvqcd0","pricing_plan_id":"cebpf4jnsgd1na2vs0mg"},{"bike_id":"3cc9209d-d6a4-49c5-8d9b-79eb5cf640bc","system_id":"levelo_inurba_marseille","lat":43.314811,"lon":5.373104,"is_reserved":false,"is_disabled":false,"rental_uris":{"android":"levelo://app?vid=3cc9209d-d6a4-49c5-8d9b-79eb5cf640bc","ios":"levelo://app?vid=3cc9209d-d6a4-49c5-8d9b-79eb5cf640bc"},"vehicle_type_id":"4","last_reported":1715454348,"current_range_meters":4400,"station_id":"ce4bgt12rcd13ifvqcd0","pricing_plan_id":"cebpf4jnsgd1na2vs0mg"},{"bike_id":"0957e933-1b51-46a7-8089-090eb8de71ba","system_id":"levelo_inurba_marseille","lat":43.3088,"lon":5.37206,"is_reserved":false,"is_disabled":false,"rental_uris":{"android":"levelo://app?vid=0957e933-1b51-46a7-8089-090eb8de71ba","ios":"levelo://app?vid=0957e933-1b51-46a7-8089-090eb8de71ba"},"vehicle_type_id":"4","last_reported":1715454348,"current_range_meters":0,"station_id":"ce4bguh2rcd13ifvqckg","pricing_plan_id":"cebpf4jnsgd1na2vs0mg"},{"bike_id":"413f28bd-db44-4e4e-aa4f-e767d65cc3e8","system_id":"levelo_inurba_marseille","lat":43.305714,"lon":5.365633,"is_reserved":false,"is_disabled":false,"rental_uris":{"android":"levelo://app?vid=413f28bd-db44-4e4e-aa4f-e767d65cc3e8","ios":"levelo://app?vid=413f28bd-db44-4e4e-aa4f-e767d65cc3e8"},"vehicle_type_id":"4","last_reported":1715454348,"current_range_meters":7200,"station_id":"ce4bgs12rcd13ifvqcag","pricing_plan_id":"cebpf4jnsgd1na2vs0mg"},{"bike_id":"89f3f973-23a8-49f5-ac43-62c613ea9cdf","system_id":"levelo_inurba_marseille","lat":43.305714,"lon":5.365633,"is_reserved":false,"is_disabled":false,"rental_uris":{"android":"levelo://app?vid=89f3f973-23a8-49f5-ac43-62c613ea9cdf","ios":"levelo://app?vid=89f3f973-23a8-49f5-ac43-62c613ea9cdf"},"vehicle_type_id":"4","last_reported":1715454348,"current_range_meters":8000,"station_id":"ce4bgs12rcd13ifvqcag","pricing_plan_id":"cebpf4jnsgd1na2vs0mg"},{"bike_id":"07882673-99a4-4b74-9e71-04d67af8fe4f","system_id":"levelo_inurba_marseille","lat":43.305706,"lon":5.365654,"is_reserved":false,"is_disabled":false,"rental_uris":{"android":"levelo://app?vid=07882673-99a4-4b74-9e71-04d67af8fe4f","ios":"levelo://app?vid=07882673-99a4-4b74-9e71-04d67af8fe4f"},"vehicle_type_id":"4","last_reported":1715454348,"current_range_meters":2000,"station_id":"ce4bgs12rcd13ifvqcag","pricing_plan_id":"cebpf4jnsgd1na2vs0mg"},{"bike_id":"37fc26e0-99f5-42d0-8c48-6cb69a5b9d4b","system_id":"levelo_inurba_marseille","lat":43.30539,"lon":5.36544,"is_reserved":false,"is_disabled":false,"rental_uris":{"android":"levelo://app?vid=37fc26e0-99f5-42d0-8c48-6cb69a5b9d4b","ios":"levelo://app?vid=37fc26e0-99f5-42d0-8c48-6cb69a5b9d4b"},"vehicle_type_id":"4","last_reported":1715454348,"current_range_meters":0,"station_id":"ce4bgs12rcd13ifvqcag","pricing_plan_id":"cebpf4jnsgd1na2vs0mg"},{"bike_id":"899f7188-5d04-4e57-94db-03647f15a9ad","system_id":"levelo_inurba_marseille","lat":43.30598,"lon":5.37219,"is_reserved":false,"is_disabled":false,"rental_uris":{"android":"levelo://app?vid=899f7188-5d04-4e57-94db-03647f15a9ad","ios":"levelo://app?vid=899f7188-5d04-4e57-94db-03647f15a9ad"},"vehicle_type_id":"4","last_reported":1715454348,"current_range_meters":0,"station_id":"ce4bgqh2rcd13ifvqc4g","pricing_plan_id":"cebpf4jnsgd1na2vs0mg"},{"bike_id":"80002b85-cbaf-465c-8213-9fc1436771d1","system_id":"levelo_inurba_marseille","lat":43.30603,"lon":5.37241,"is_reserved":false,"is_disabled":false,"rental_uris":{"android":"levelo://app?vid=80002b85-cbaf-465c-8213-9fc1436771d1","ios":"levelo://app?vid=80002b85-cbaf-465c-8213-9fc1436771d1"},"vehicle_type_id":"4","last_reported":1715454348,"current_range_meters":0,"station_id":"ce4bgqh2rcd13ifvqc4g","pricing_plan_id":"cebpf4jnsgd1na2vs0mg"},{"bike_id":"c317af9c-df59-4a3f-9ef8-114edae49360","system_id":"levelo_inurba_marseille","lat":43.311131,"lon":5.377651,"is_reserved":false,"is_disabled":false,"rental_uris":{"android":"levelo://app?vid=c317af9c-df59-4a3f-9ef8-114edae49360","ios":"levelo://app?vid=c317af9c-df59-4a3f-9ef8-114edae49360"},"vehicle_type_id":"4","last_reported":1715454348,"current_range_meters":0,"station_id":"ce4bgt92rcd13ifvqcg0","pricing_plan_id":"cebpf4jnsgd1na2vs0mg"},{"bike_id":"2e5389fc-392a-425e-9013-7e3971f46ebc","system_id":"levelo_inurba_marseille","lat":43.317075,"lon":5.377367,"is_reserved":false,"is_disabled":false,"rental_uris":{"android":"levelo://app?vid=2e5389fc-392a-425e-9013-7e3971f46ebc","ios":"levelo://app?vid=2e5389fc-392a-425e-9013-7e3971f46ebc"},"vehicle_type_id":"4","last_reported":1715454348,"current_range_meters":20000,"station_id":"ce4bgth2rcd13ifvqch0","pricing_plan_id":"cebpf4jnsgd1na2vs0mg"},{"bike_id":"57e96d4e-aa35-4a7e-8ac8-a7cd46ff08fa","system_id":"levelo_inurba_marseille","lat":43.307945,"lon":5.376487,"is_reserved":false,"is_disabled":false,"rental_uris":{"android":"levelo://app?vid=57e96d4e-aa35-4a7e-8ac8-a7cd46ff08fa","ios":"levelo://app?vid=57e96d4e-aa35-4a7e-8ac8-a7cd46ff08fa"},"vehicle_type_id":"4","last_reported":1715454348,"current_range_meters":800,"station_id":"ce4bgv92rcd13ifvqcq0","pricing_plan_id":"cebpf4jnsgd1na2vs0mg"},{"bike_id":"a8420d12-5ea1-4553-ba77-74153419b9a1","system_id":"levelo_inurba_marseille","lat":43.307945,"lon":5.376487,"is_reserved":false,"is_disabled":false,"rental_uris":{"android":"levelo://app?vid=a8420d12-5ea1-4553-ba77-74153419b9a1","ios":"levelo://app?vid=a8420d12-5ea1-4553-ba77-74153419b9a1"},"vehicle_type_id":"4","last_reported":1715454348,"current_range_meters":30800,"station_id":"ce4bgv92rcd13ifvqcq0","pricing_plan_id":"cebpf4jnsgd1na2vs0mg"},{"bike_id":"6e8ec6db-877d-4218-b232-7b611fdc00a9","system_id":"levelo_inurba_marseille","lat":43.317075,"lon":5.377367,"is_reserved":false,"is_disabled":false,"rental_uris":{"android":"levelo://app?vid=6e8ec6db-877d-4218-b232-7b611fdc00a9","ios":"levelo://app?vid=6e8ec6db-877d-4218-b232-7b611fdc00a9"},"vehicle_type_id":"4","last_reported":1715454348,"current_range_meters":22400,"station_id":"ce4bgth2rcd13ifvqch0","pricing_plan_id":"cebpf4jnsgd1na2vs0mg"},{"bike_id":"d5228d40-9994-4357-9558-ce3b35c4db81","system_id":"levelo_inurba_marseille","lat":43.317075,"lon":5.377367,"is_reserved":false,"is_disabled":false,"rental_uris":{"android":"levelo://app?vid=d5228d40-9994-4357-9558-ce3b35c4db81","ios":"levelo://app?vid=d5228d40-9994-4357-9558-ce3b35c4db81"},"vehicle_type_id":"4","last_reported":1715454348,"current_range_meters":9600,"station_id":"ce4bgth2rcd13ifvqch0","pricing_plan_id":"cebpf4jnsgd1na2vs0mg"},{"bike_id":"c9c6f8e9-9b64-41d7-a39d-276cb4625a56","system_id":"levelo_inurba_marseille","lat":43.315293,"lon":5.380349,"is_reserved":false,"is_disabled":false,"rental_uris":{"android":"levelo://app?vid=c9c6f8e9-9b64-41d7-a39d-276cb4625a56","ios":"levelo://app?vid=c9c6f8e9-9b64-41d7-a39d-276cb4625a56"},"vehicle_type_id":"4","last_reported":1715454348,"current_range_meters":2000,"station_id":"ce4bhsp2rcd13ifvqi50","pricing_plan_id":"cebpf4jnsgd1na2vs0mg"},{"bike_id":"dfc7ec82-cde0-4457-a8fa-45b6c6a6be39","system_id":"levelo_inurba_marseille","lat":43.30173,"lon":5.36608,"is_reserved":false,"is_disabled":false,"rental_uris":{"android":"levelo://app?vid=dfc7ec82-cde0-4457-a8fa-45b6c6a6be39","ios":"levelo://app?vid=dfc7ec82-cde0-4457-a8fa-45b6c6a6be39"},"vehicle_type_id":"4","last_reported":1715454348,"current_range_meters":0,"station_id":"ce4bgrh2rcd13ifvqc8g","pricing_plan_id":"cebpf4jnsgd1na2vs0mg"},{"bike_id":"8815bf13-dcba-47eb-b0d0-94bf66ce1930","system_id":"levelo_inurba_marseille","lat":43.298433,"lon":5.362774,"is_reserved":false,"is_disabled":false,"rental_uris":{"android":"levelo://app?vid=8815bf13-dcba-47eb-b0d0-94bf66ce1930","ios":"levelo://app?vid=8815bf13-dcba-47eb-b0d0-94bf66ce1930"},"vehicle_type_id":"4","last_reported":1715454348,"current_range_meters":5600,"station_id":"ce4bgpp2rcd13ifvqc3g","pricing_plan_id":"cebpf4jnsgd1na2vs0mg"},{"bike_id":"e14a5e6d-ff75-455d-bc86-b9a6ba241f7e","system_id":"levelo_inurba_marseille","lat":43.308012,"lon":5.381511,"is_reserved":false,"is_disabled":false,"rental_uris":{"android":"levelo://app?vid=e14a5e6d-ff75-455d-bc86-b9a6ba241f7e","ios":"levelo://app?vid=e14a5e6d-ff75-455d-bc86-b9a6ba241f7e"},"vehicle_type_id":"4","last_reported":1715454348,"current_range_meters":1600,"station_id":"ce4bgt12rcd13ifvqce0","pricing_plan_id":"cebpf4jnsgd1na2vs0mg"},{"bike_id":"3269a82e-20fd-46cb-9087-cc49c8cec2db","system_id":"levelo_inurba_marseille","lat":43.324739,"lon":5.365592,"is_reserved":false,"is_disabled":false,"rental_uris":{"android":"levelo://app?vid=3269a82e-20fd-46cb-9087-cc49c8cec2db","ios":"levelo://app?vid=3269a82e-20fd-46cb-9087-cc49c8cec2db"},"vehicle_type_id":"4","last_reported":1715454348,"current_range_meters":6400,"station_id":"ce4bhs12rcd13ifvqhvg","pricing_plan_id":"cebpf4jnsgd1na2vs0mg"},{"bike_id":"68787172-6519-4e62-833f-9d82dce9100d","system_id":"levelo_inurba_marseille","lat":43.324771,"lon":5.36557,"is_reserved":false,"is_disabled":false,"rental_uris":{"android":"levelo://app?vid=68787172-6519-4e62-833f-9d82dce9100d","ios":"levelo://app?vid=68787172-6519-4e62-833f-9d82dce9100d"},"vehicle_type_id":"4","last_reported":1715454348,"current_range_meters":4000,"station_id":"ce4bhs12rcd13ifvqhvg","pricing_plan_id":"cebpf4jnsgd1na2vs0mg"},{"bike_id":"7d725402-757b-4cd9-84ff-6dd57d0cc79e","system_id":"levelo_inurba_marseille","lat":43.32479,"lon":5.36571,"is_reserved":false,"is_disabled":false,"rental_uris":{"android":"levelo://app?vid=7d725402-757b-4cd9-84ff-6dd57d0cc79e","ios":"levelo://app?vid=7d725402-757b-4cd9-84ff-6dd57d0cc79e"},"vehicle_type_id":"4","last_reported":1715454348,"current_range_meters":27600,"station_id":"ce4bhs12rcd13ifvqhvg","pricing_plan_id":"cebpf4jnsgd1na2vs0mg"},{"bike_id":"b477d686-c217-4fd8-853d-78a541c0c23e","system_id":"levelo_inurba_marseille","lat":43.324771,"lon":5.36557,"is_reserved":false,"is_disabled":false,"rental_uris":{"android":"levelo://app?vid=b477d686-c217-4fd8-853d-78a541c0c23e","ios":"levelo://app?vid=b477d686-c217-4fd8-853d-78a541c0c23e"},"vehicle_type_id":"4","last_reported":1715454348,"current_range_meters":2400,"station_id":"ce4bhs12rcd13ifvqhvg","pricing_plan_id":"cebpf4jnsgd1na2vs0mg"},{"bike_id":"a76ac9e1-e5fc-45aa-83a4-d1570f8cca81","system_id":"levelo_inurba_marseille","lat":43.3248,"lon":5.36556,"is_reserved":false,"is_disabled":false,"rental_uris":{"android":"levelo://app?vid=a76ac9e1-e5fc-45aa-83a4-d1570f8cca81","ios":"levelo://app?vid=a76ac9e1-e5fc-45aa-83a4-d1570f8cca81"},"vehicle_type_id":"4","last_reported":1715454348,"current_range_meters":9200,"station_id":"","pricing_plan_id":"cebpf4jnsgd1na2vs0mg"},{"bike_id":"de363a9b-b8dd-4f25-97c4-05ca23eea0b0","system_id":"levelo_inurba_marseille","lat":43.324771,"lon":5.36557,"is_reserved":false,"is_disabled":false,"rental_uris":{"android":"levelo://app?vid=de363a9b-b8dd-4f25-97c4-05ca23eea0b0","ios":"levelo://app?vid=de363a9b-b8dd-4f25-97c4-05ca23eea0b0"},"vehicle_type_id":"4","last_reported":1715454348,"current_range_meters":0,"station_id":"ce4bhs12rcd13ifvqhvg","pricing_plan_id":"cebpf4jnsgd1na2vs0mg"},{"bike_id":"9e4c201b-6a69-4d81-a9ea-f731580c78c6","system_id":"levelo_inurba_marseille","lat":43.324862,"lon":5.36553,"is_reserved":false,"is_disabled":false,"rental_uris":{"android":"levelo://app?vid=9e4c201b-6a69-4d81-a9ea-f731580c78c6","ios":"levelo://app?vid=9e4c201b-6a69-4d81-a9ea-f731580c78c6"},"vehicle_type_id":"4","last_reported":1715454348,"current_range_meters":19600,"station_id":"ce4bhs12rcd13ifvqhvg","pricing_plan_id":"cebpf4jnsgd1na2vs0mg"},{"bike_id":"63ef5efb-9b94-4f51-9651-e18f405960c1","system_id":"levelo_inurba_marseille","lat":43.310718,"lon":5.383513,"is_reserved":false,"is_disabled":false,"rental_uris":{"android":"levelo://app?vid=63ef5efb-9b94-4f51-9651-e18f405960c1","ios":"levelo://app?vid=63ef5efb-9b94-4f51-9651-e18f405960c1"},"vehicle_type_id":"4","last_reported":1715454348,"current_range_meters":2400,"station_id":"ce4bgv92rcd13ifvqcr0","pricing_plan_id":"cebpf4jnsgd1na2vs0mg"},{"bike_id":"3b56295b-3528-4142-be65-0c5ed3dcfaef","system_id":"levelo_inurba_marseille","lat":43.310804,"lon":5.38359,"is_reserved":false,"is_disabled":false,"rental_uris":{"android":"levelo://app?vid=3b56295b-3528-4142-be65-0c5ed3dcfaef","ios":"levelo://app?vid=3b56295b-3528-4142-be65-0c5ed3dcfaef"},"vehicle_type_id":"4","last_reported":1715454348,"current_range_meters":6800,"station_id":"ce4bgv92rcd13ifvqcr0","pricing_plan_id":"cebpf4jnsgd1na2vs0mg"},{"bike_id":"f4bf507c-2bde-4feb-b703-dabad56ca1ba","system_id":"levelo_inurba_marseille","lat":43.310804,"lon":5.38359,"is_reserved":false,"is_disabled":false,"rental_uris":{"android":"levelo://app?vid=f4bf507c-2bde-4feb-b703-dabad56ca1ba","ios":"levelo://app?vid=f4bf507c-2bde-4feb-b703-dabad56ca1ba"},"vehicle_type_id":"4","last_reported":1715454348,"current_range_meters":22400,"station_id":"ce4bgv92rcd13ifvqcr0","pricing_plan_id":"cebpf4jnsgd1na2vs0mg"},{"bike_id":"56c6afbf-7543-444b-bd54-9efdeb1fa0d5","system_id":"levelo_inurba_marseille","lat":43.302784,"lon":5.377158,"is_reserved":false,"is_disabled":false,"rental_uris":{"android":"levelo://app?vid=56c6afbf-7543-444b-bd54-9efdeb1fa0d5","ios":"levelo://app?vid=56c6afbf-7543-444b-bd54-9efdeb1fa0d5"},"vehicle_type_id":"4","last_reported":1715454348,"current_range_meters":2000,"station_id":"ce4bguh2rcd13ifvqcj0","pricing_plan_id":"cebpf4jnsgd1na2vs0mg"},{"bike_id":"093ad352-d753-4628-8844-c33c53cefa19","system_id":"levelo_inurba_marseille","lat":43.30143,"lon":5.37413,"is_reserved":false,"is_disabled":false,"rental_uris":{"android":"levelo://app?vid=093ad352-d753-4628-8844-c33c53cefa19","ios":"levelo://app?vid=093ad352-d753-4628-8844-c33c53cefa19"},"vehicle_type_id":"4","last_reported":1715454348,"current_range_meters":4800,"station_id":"ce4bgs92rcd13ifvqcc0","pricing_plan_id":"cebpf4jnsgd1na2vs0mg"},{"bike_id":"09759957-b8b8-4c80-8d26-a79f8309d8bb","system_id":"levelo_inurba_marseille","lat":43.319935,"lon":5.381699,"is_reserved":false,"is_disabled":false,"rental_uris":{"android":"levelo://app?vid=09759957-b8b8-4c80-8d26-a79f8309d8bb","ios":"levelo://app?vid=09759957-b8b8-4c80-8d26-a79f8309d8bb"},"vehicle_type_id":"4","last_reported":1715454348,"current_range_meters":0,"station_id":"ce4bhr12rcd13ifvqhpg","pricing_plan_id":"cebpf4jnsgd1na2vs0mg"},{"bike_id":"1c7cafee-e030-43eb-a330-eeb527a21816","system_id":"levelo_inurba_marseille","lat":43.32321,"lon":5.37719,"is_reserved":false,"is_disabled":false,"rental_uris":{"android":"levelo://app?vid=1c7cafee-e030-43eb-a330-eeb527a21816","ios":"levelo://app?vid=1c7cafee-e030-43eb-a330-eeb527a21816"},"vehicle_type_id":"4","last_reported":1715454348,"current_range_meters":8800,"station_id":"","pricing_plan_id":"cebpf4jnsgd1na2vs0mg"},{"bike_id":"410e5bfb-dcfb-4ca2-9436-8e8130d914d1","system_id":"levelo_inurba_marseille","lat":43.313571,"lon":5.384829,"is_reserved":false,"is_disabled":false,"rental_uris":{"android":"levelo://app?vid=410e5bfb-dcfb-4ca2-9436-8e8130d914d1","ios":"levelo://app?vid=410e5bfb-dcfb-4ca2-9436-8e8130d914d1"},"vehicle_type_id":"4","last_reported":1715454348,"current_range_meters":1200,"station_id":"ce4bgt92rcd13ifvqcf0","pricing_plan_id":"cebpf4jnsgd1na2vs0mg"},{"bike_id":"3afae7ed-5349-4004-9096-4912677e690e","system_id":"levelo_inurba_marseille","lat":43.313571,"lon":5.384829,"is_reserved":false,"is_disabled":false,"rental_uris":{"android":"levelo://app?vid=3afae7ed-5349-4004-9096-4912677e690e","ios":"levelo://app?vid=3afae7ed-5349-4004-9096-4912677e690e"},"vehicle_type_id":"4","last_reported":1715454348,"current_range_meters":800,"station_id":"ce4bgt92rcd13ifvqcf0","pricing_plan_id":"cebpf4jnsgd1na2vs0mg"},{"bike_id":"f13056e9-4653-4a2b-9f14-0c03714048e3","system_id":"levelo_inurba_marseille","lat":43.313571,"lon":5.384829,"is_reserved":false,"is_disabled":false,"rental_uris":{"android":"levelo://app?vid=f13056e9-4653-4a2b-9f14-0c03714048e3","ios":"levelo://app?vid=f13056e9-4653-4a2b-9f14-0c03714048e3"},"vehicle_type_id":"4","last_reported":1715454348,"current_range_meters":400,"station_id":"ce4bgt92rcd13ifvqcf0","pricing_plan_id":"cebpf4jnsgd1na2vs0mg"},{"bike_id":"de963229-8361-4db7-9a88-95ae4d7035a0","system_id":"levelo_inurba_marseille","lat":43.313571,"lon":5.384829,"is_reserved":false,"is_disabled":false,"rental_uris":{"android":"levelo://app?vid=de963229-8361-4db7-9a88-95ae4d7035a0","ios":"levelo://app?vid=de963229-8361-4db7-9a88-95ae4d7035a0"},"vehicle_type_id":"4","last_reported":1715454348,"current_range_meters":0,"station_id":"ce4bgt92rcd13ifvqcf0","pricing_plan_id":"cebpf4jnsgd1na2vs0mg"},{"bike_id":"e8ef476a-b1e3-4e8c-82c7-a87911daffc5","system_id":"levelo_inurba_marseille","lat":43.31364,"lon":5.38498,"is_reserved":false,"is_disabled":false,"rental_uris":{"android":"levelo://app?vid=e8ef476a-b1e3-4e8c-82c7-a87911daffc5","ios":"levelo://app?vid=e8ef476a-b1e3-4e8c-82c7-a87911daffc5"},"vehicle_type_id":"4","last_reported":1715454348,"current_range_meters":0,"station_id":"ce4bgt92rcd13ifvqcf0","pricing_plan_id":"cebpf4jnsgd1na2vs0mg"},{"bike_id":"bcc739ae-5e43-4f31-bb87-9f6fe09e2442","system_id":"levelo_inurba_marseille","lat":43.313571,"lon":5.384829,"is_reserved":false,"is_disabled":false,"rental_uris":{"android":"levelo://app?vid=bcc739ae-5e43-4f31-bb87-9f6fe09e2442","ios":"levelo://app?vid=bcc739ae-5e43-4f31-bb87-9f6fe09e2442"},"vehicle_type_id":"4","last_reported":1715454348,"current_range_meters":13200,"station_id":"ce4bgt92rcd13ifvqcf0","pricing_plan_id":"cebpf4jnsgd1na2vs0mg"},{"bike_id":"c7bea60e-910f-4220-9a58-7743cbc63306","system_id":"levelo_inurba_marseille","lat":43.313571,"lon":5.384829,"is_reserved":false,"is_disabled":false,"rental_uris":{"android":"levelo://app?vid=c7bea60e-910f-4220-9a58-7743cbc63306","ios":"levelo://app?vid=c7bea60e-910f-4220-9a58-7743cbc63306"},"vehicle_type_id":"4","last_reported":1715454348,"current_range_meters":24400,"station_id":"ce4bgt92rcd13ifvqcf0","pricing_plan_id":"cebpf4jnsgd1na2vs0mg"},{"bike_id":"85c0d206-af40-4cef-bd14-592cee3d3782","system_id":"levelo_inurba_marseille","lat":43.299222,"lon":5.365554,"is_reserved":false,"is_disabled":false,"rental_uris":{"android":"levelo://app?vid=85c0d206-af40-4cef-bd14-592cee3d3782","ios":"levelo://app?vid=85c0d206-af40-4cef-bd14-592cee3d3782"},"vehicle_type_id":"4","last_reported":1715454348,"current_range_meters":4000,"station_id":"ce4bgm92rcd13ifvqbr0","pricing_plan_id":"cebpf4jnsgd1na2vs0mg"},{"bike_id":"32204e01-f589-4ca4-87be-735d10c777ba","system_id":"levelo_inurba_marseille","lat":43.298433,"lon":5.362774,"is_reserved":false,"is_disabled":false,"rental_uris":{"android":"levelo://app?vid=32204e01-f589-4ca4-87be-735d10c777ba","ios":"levelo://app?vid=32204e01-f589-4ca4-87be-735d10c777ba"},"vehicle_type_id":"4","last_reported":1715454348,"current_range_meters":12400,"station_id":"ce4bgpp2rcd13ifvqc3g","pricing_plan_id":"cebpf4jnsgd1na2vs0mg"},{"bike_id":"a3f7b314-09c1-4b4b-b13e-c68dd4161fc8","system_id":"levelo_inurba_marseille","lat":43.298433,"lon":5.362774,"is_reserved":false,"is_disabled":false,"rental_uris":{"android":"levelo://app?vid=a3f7b314-09c1-4b4b-b13e-c68dd4161fc8","ios":"levelo://app?vid=a3f7b314-09c1-4b4b-b13e-c68dd4161fc8"},"vehicle_type_id":"4","last_reported":1715454348,"current_range_meters":24400,"station_id":"ce4bgpp2rcd13ifvqc3g","pricing_plan_id":"cebpf4jnsgd1na2vs0mg"},{"bike_id":"5104c609-d58a-49e6-8769-b2ffa31d47da","system_id":"levelo_inurba_marseille","lat":43.305364,"lon":5.384119,"is_reserved":false,"is_disabled":false,"rental_uris":{"android":"levelo://app?vid=5104c609-d58a-49e6-8769-b2ffa31d47da","ios":"levelo://app?vid=5104c609-d58a-49e6-8769-b2ffa31d47da"},"vehicle_type_id":"4","last_reported":1715454348,"current_range_meters":400,"station_id":"ce4bgg92rcd13ifvqb30","pricing_plan_id":"cebpf4jnsgd1na2vs0mg"},{"bike_id":"852e6fcf-b043-4b2c-b63f-b624ff49549c","system_id":"levelo_inurba_marseille","lat":43.298433,"lon":5.362774,"is_reserved":false,"is_disabled":false,"rental_uris":{"android":"levelo://app?vid=852e6fcf-b043-4b2c-b63f-b624ff49549c","ios":"levelo://app?vid=852e6fcf-b043-4b2c-b63f-b624ff49549c"},"vehicle_type_id":"4","last_reported":1715454348,"current_range_meters":4400,"station_id":"ce4bgpp2rcd13ifvqc3g","pricing_plan_id":"cebpf4jnsgd1na2vs0mg"},{"bike_id":"79141f9b-592c-4231-a00f-1138cf5fdf1b","system_id":"levelo_inurba_marseille","lat":43.29841,"lon":5.36268,"is_reserved":false,"is_disabled":false,"rental_uris":{"android":"levelo://app?vid=79141f9b-592c-4231-a00f-1138cf5fdf1b","ios":"levelo://app?vid=79141f9b-592c-4231-a00f-1138cf5fdf1b"},"vehicle_type_id":"4","last_reported":1715454348,"current_range_meters":0,"station_id":"ce4bgpp2rcd13ifvqc3g","pricing_plan_id":"cebpf4jnsgd1na2vs0mg"},{"bike_id":"fe8c82ba-572e-48d0-9958-c7e7e7e8d4f5","system_id":"levelo_inurba_marseille","lat":43.299243,"lon":5.374807,"is_reserved":false,"is_disabled":false,"rental_uris":{"android":"levelo://app?vid=fe8c82ba-572e-48d0-9958-c7e7e7e8d4f5","ios":"levelo://app?vid=fe8c82ba-572e-48d0-9958-c7e7e7e8d4f5"},"vehicle_type_id":"4","last_reported":1715454348,"current_range_meters":4400,"station_id":"ce4bgjh2rcd13ifvqbg0","pricing_plan_id":"cebpf4jnsgd1na2vs0mg"},{"bike_id":"0b80d379-5916-467b-a79a-4f72a73ed48a","system_id":"levelo_inurba_marseille","lat":43.299243,"lon":5.37481,"is_reserved":false,"is_disabled":false,"rental_uris":{"android":"levelo://app?vid=0b80d379-5916-467b-a79a-4f72a73ed48a","ios":"levelo://app?vid=0b80d379-5916-467b-a79a-4f72a73ed48a"},"vehicle_type_id":"4","last_reported":1715454348,"current_range_meters":3600,"station_id":"ce4bgjh2rcd13ifvqbg0","pricing_plan_id":"cebpf4jnsgd1na2vs0mg"},{"bike_id":"785019ab-c02e-4f7f-90a6-e52548db02b0","system_id":"levelo_inurba_marseille","lat":43.299243,"lon":5.37481,"is_reserved":false,"is_disabled":false,"rental_uris":{"android":"levelo://app?vid=785019ab-c02e-4f7f-90a6-e52548db02b0","ios":"levelo://app?vid=785019ab-c02e-4f7f-90a6-e52548db02b0"},"vehicle_type_id":"4","last_reported":1715454348,"current_range_meters":7600,"station_id":"ce4bgjh2rcd13ifvqbg0","pricing_plan_id":"cebpf4jnsgd1na2vs0mg"},{"bike_id":"5d3d217e-c5e2-44ba-9704-4fda0f7b1d35","system_id":"levelo_inurba_marseille","lat":43.31175,"lon":5.38711,"is_reserved":false,"is_disabled":false,"rental_uris":{"android":"levelo://app?vid=5d3d217e-c5e2-44ba-9704-4fda0f7b1d35","ios":"levelo://app?vid=5d3d217e-c5e2-44ba-9704-4fda0f7b1d35"},"vehicle_type_id":"4","last_reported":1715454348,"current_range_meters":0,"station_id":"ce4bgv12rcd13ifvqcp0","pricing_plan_id":"cebpf4jnsgd1na2vs0mg"},{"bike_id":"3af146b3-1fbd-41b0-a86e-ea763718dbf0","system_id":"levelo_inurba_marseille","lat":43.299243,"lon":5.37481,"is_reserved":false,"is_disabled":false,"rental_uris":{"android":"levelo://app?vid=3af146b3-1fbd-41b0-a86e-ea763718dbf0","ios":"levelo://app?vid=3af146b3-1fbd-41b0-a86e-ea763718dbf0"},"vehicle_type_id":"4","last_reported":1715454348,"current_range_meters":8000,"station_id":"ce4bgjh2rcd13ifvqbg0","pricing_plan_id":"cebpf4jnsgd1na2vs0mg"},{"bike_id":"34dd3523-cb4a-4971-a766-5d6f2c6fa155","system_id":"levelo_inurba_marseille","lat":43.29796,"lon":5.37107,"is_reserved":false,"is_disabled":false,"rental_uris":{"android":"levelo://app?vid=34dd3523-cb4a-4971-a766-5d6f2c6fa155","ios":"levelo://app?vid=34dd3523-cb4a-4971-a766-5d6f2c6fa155"},"vehicle_type_id":"4","last_reported":1715454348,"current_range_meters":11600,"station_id":"ce4bgop2rcd13ifvqc1g","pricing_plan_id":"cebpf4jnsgd1na2vs0mg"},{"bike_id":"10683567-5c7c-4e2a-9c41-b54c938fa4c6","system_id":"levelo_inurba_marseille","lat":43.29792,"lon":5.37096,"is_reserved":false,"is_disabled":false,"rental_uris":{"android":"levelo://app?vid=10683567-5c7c-4e2a-9c41-b54c938fa4c6","ios":"levelo://app?vid=10683567-5c7c-4e2a-9c41-b54c938fa4c6"},"vehicle_type_id":"4","last_reported":1715454348,"current_range_meters":8800,"station_id":"ce4bgop2rcd13ifvqc1g","pricing_plan_id":"cebpf4jnsgd1na2vs0mg"},{"bike_id":"676e5dda-eba3-4b87-a7dc-ee379f42c552","system_id":"levelo_inurba_marseille","lat":43.297774,"lon":5.370875,"is_reserved":false,"is_disabled":false,"rental_uris":{"android":"levelo://app?vid=676e5dda-eba3-4b87-a7dc-ee379f42c552","ios":"levelo://app?vid=676e5dda-eba3-4b87-a7dc-ee379f42c552"},"vehicle_type_id":"4","last_reported":1715454348,"current_range_meters":26800,"station_id":"ce4bgop2rcd13ifvqc1g","pricing_plan_id":"cebpf4jnsgd1na2vs0mg"},{"bike_id":"fe2345bf-8bd6-4677-bb69-bb5d6b22b16f","system_id":"levelo_inurba_marseille","lat":43.29781,"lon":5.370838,"is_reserved":false,"is_disabled":false,"rental_uris":{"android":"levelo://app?vid=fe2345bf-8bd6-4677-bb69-bb5d6b22b16f","ios":"levelo://app?vid=fe2345bf-8bd6-4677-bb69-bb5d6b22b16f"},"vehicle_type_id":"4","last_reported":1715454348,"current_range_meters":5600,"station_id":"ce4bgop2rcd13ifvqc1g","pricing_plan_id":"cebpf4jnsgd1na2vs0mg"},{"bike_id":"5f2ab4cc-27fc-42f5-a3f4-b228ac737fe6","system_id":"levelo_inurba_marseille","lat":43.297774,"lon":5.370875,"is_reserved":false,"is_disabled":false,"rental_uris":{"android":"levelo://app?vid=5f2ab4cc-27fc-42f5-a3f4-b228ac737fe6","ios":"levelo://app?vid=5f2ab4cc-27fc-42f5-a3f4-b228ac737fe6"},"vehicle_type_id":"4","last_reported":1715454348,"current_range_meters":4800,"station_id":"ce4bgop2rcd13ifvqc1g","pricing_plan_id":"cebpf4jnsgd1na2vs0mg"},{"bike_id":"f9f2cc9b-5523-4356-8fba-306f7b19ce1e","system_id":"levelo_inurba_marseille","lat":43.322872,"lon":5.382756,"is_reserved":false,"is_disabled":false,"rental_uris":{"android":"levelo://app?vid=f9f2cc9b-5523-4356-8fba-306f7b19ce1e","ios":"levelo://app?vid=f9f2cc9b-5523-4356-8fba-306f7b19ce1e"},"vehicle_type_id":"4","last_reported":1715454348,"current_range_meters":2800,"station_id":"ce4bhr12rcd13ifvqhqg","pricing_plan_id":"cebpf4jnsgd1na2vs0mg"},{"bike_id":"8b8b727e-8cc4-407b-b396-22de4655dafa","system_id":"levelo_inurba_marseille","lat":43.322872,"lon":5.382756,"is_reserved":false,"is_disabled":false,"rental_uris":{"android":"levelo://app?vid=8b8b727e-8cc4-407b-b396-22de4655dafa","ios":"levelo://app?vid=8b8b727e-8cc4-407b-b396-22de4655dafa"},"vehicle_type_id":"4","last_reported":1715454348,"current_range_meters":8800,"station_id":"ce4bhr12rcd13ifvqhqg","pricing_plan_id":"cebpf4jnsgd1na2vs0mg"},{"bike_id":"8d4c06b3-4626-444e-a849-29e815a69458","system_id":"levelo_inurba_marseille","lat":43.322872,"lon":5.382756,"is_reserved":false,"is_disabled":false,"rental_uris":{"android":"levelo://app?vid=8d4c06b3-4626-444e-a849-29e815a69458","ios":"levelo://app?vid=8d4c06b3-4626-444e-a849-29e815a69458"},"vehicle_type_id":"4","last_reported":1715454348,"current_range_meters":30400,"station_id":"ce4bhr12rcd13ifvqhqg","pricing_plan_id":"cebpf4jnsgd1na2vs0mg"},{"bike_id":"ece778aa-25f5-4fd3-98a8-0c6f16d6e323","system_id":"levelo_inurba_marseille","lat":43.29708,"lon":5.3662,"is_reserved":false,"is_disabled":false,"rental_uris":{"android":"levelo://app?vid=ece778aa-25f5-4fd3-98a8-0c6f16d6e323","ios":"levelo://app?vid=ece778aa-25f5-4fd3-98a8-0c6f16d6e323"},"vehicle_type_id":"4","last_reported":1715454348,"current_range_meters":20800,"station_id":"ce4bgn12rcd13ifvqbt0","pricing_plan_id":"cebpf4jnsgd1na2vs0mg"},{"bike_id":"1f428780-77ff-4bc6-ad93-88923086a95b","system_id":"levelo_inurba_marseille","lat":43.29618,"lon":5.3717,"is_reserved":false,"is_disabled":false,"rental_uris":{"android":"levelo://app?vid=1f428780-77ff-4bc6-ad93-88923086a95b","ios":"levelo://app?vid=1f428780-77ff-4bc6-ad93-88923086a95b"},"vehicle_type_id":"4","last_reported":1715454348,"current_range_meters":3600,"station_id":"ce4bgnh2rcd13ifvqc0g","pricing_plan_id":"cebpf4jnsgd1na2vs0mg"},{"bike_id":"37e5a6a0-f28c-423a-974b-7b186c54b457","system_id":"levelo_inurba_marseille","lat":43.29573,"lon":5.367355,"is_reserved":false,"is_disabled":false,"rental_uris":{"android":"levelo://app?vid=37e5a6a0-f28c-423a-974b-7b186c54b457","ios":"levelo://app?vid=37e5a6a0-f28c-423a-974b-7b186c54b457"},"vehicle_type_id":"4","last_reported":1715454348,"current_range_meters":400,"station_id":"ce4bgph2rcd13ifvqc2g","pricing_plan_id":"cebpf4jnsgd1na2vs0mg"},{"bike_id":"df4d6898-94c3-4b7e-ac5d-18cad2ff218f","system_id":"levelo_inurba_marseille","lat":43.29573,"lon":5.367355,"is_reserved":false,"is_disabled":false,"rental_uris":{"android":"levelo://app?vid=df4d6898-94c3-4b7e-ac5d-18cad2ff218f","ios":"levelo://app?vid=df4d6898-94c3-4b7e-ac5d-18cad2ff218f"},"vehicle_type_id":"4","last_reported":1715454348,"current_range_meters":0,"station_id":"ce4bgph2rcd13ifvqc2g","pricing_plan_id":"cebpf4jnsgd1na2vs0mg"},{"bike_id":"2ead9eb7-9479-4c63-8203-787eb3ffd478","system_id":"levelo_inurba_marseille","lat":43.296129,"lon":5.370777,"is_reserved":false,"is_disabled":false,"rental_uris":{"android":"levelo://app?vid=2ead9eb7-9479-4c63-8203-787eb3ffd478","ios":"levelo://app?vid=2ead9eb7-9479-4c63-8203-787eb3ffd478"},"vehicle_type_id":"4","last_reported":1715454348,"current_range_meters":4400,"station_id":"ce4bgnh2rcd13ifvqc0g","pricing_plan_id":"cebpf4jnsgd1na2vs0mg"},{"bike_id":"9812e82a-11fc-4970-a90f-ac952f98a80d","system_id":"levelo_inurba_marseille","lat":43.29723,"lon":5.37677,"is_reserved":false,"is_disabled":false,"rental_uris":{"android":"levelo://app?vid=9812e82a-11fc-4970-a90f-ac952f98a80d","ios":"levelo://app?vid=9812e82a-11fc-4970-a90f-ac952f98a80d"},"vehicle_type_id":"4","last_reported":1715454348,"current_range_meters":8400,"station_id":"ce4bgkh2rcd13ifvqbl0","pricing_plan_id":"cebpf4jnsgd1na2vs0mg"},{"bike_id":"9f252a48-dd03-4d91-82b5-e316db9e638f","system_id":"levelo_inurba_marseille","lat":43.30952,"lon":5.39027,"is_reserved":false,"is_disabled":false,"rental_uris":{"android":"levelo://app?vid=9f252a48-dd03-4d91-82b5-e316db9e638f","ios":"levelo://app?vid=9f252a48-dd03-4d91-82b5-e316db9e638f"},"vehicle_type_id":"4","last_reported":1715454348,"current_range_meters":0,"station_id":"ce4bgup2rcd13ifvqco0","pricing_plan_id":"cebpf4jnsgd1na2vs0mg"},{"bike_id":"900d39b4-19ca-43b1-909a-51c0934f78d0","system_id":"levelo_inurba_marseille","lat":43.30946,"lon":5.3903,"is_reserved":false,"is_disabled":false,"rental_uris":{"android":"levelo://app?vid=900d39b4-19ca-43b1-909a-51c0934f78d0","ios":"levelo://app?vid=900d39b4-19ca-43b1-909a-51c0934f78d0"},"vehicle_type_id":"4","last_reported":1715454348,"current_range_meters":8000,"station_id":"ce4bgup2rcd13ifvqco0","pricing_plan_id":"cebpf4jnsgd1na2vs0mg"},{"bike_id":"8ab92123-1565-4ddc-8ffb-a41b5684b739","system_id":"levelo_inurba_marseille","lat":43.317557,"lon":5.390173,"is_reserved":false,"is_disabled":false,"rental_uris":{"android":"levelo://app?vid=8ab92123-1565-4ddc-8ffb-a41b5684b739","ios":"levelo://app?vid=8ab92123-1565-4ddc-8ffb-a41b5684b739"},"vehicle_type_id":"4","last_reported":1715454348,"current_range_meters":11600,"station_id":"ce4bhqp2rcd13ifvqhng","pricing_plan_id":"cebpf4jnsgd1na2vs0mg"},{"bike_id":"5ac93315-54c4-458e-afef-cc7b23a07317","system_id":"levelo_inurba_marseille","lat":43.317557,"lon":5.390173,"is_reserved":false,"is_disabled":false,"rental_uris":{"android":"levelo://app?vid=5ac93315-54c4-458e-afef-cc7b23a07317","ios":"levelo://app?vid=5ac93315-54c4-458e-afef-cc7b23a07317"},"vehicle_type_id":"4","last_reported":1715454348,"current_range_meters":2400,"station_id":"ce4bhqp2rcd13ifvqhng","pricing_plan_id":"cebpf4jnsgd1na2vs0mg"},{"bike_id":"117ea6a9-01af-49f7-ba3b-ee891c9546f5","system_id":"levelo_inurba_marseille","lat":43.31759,"lon":5.39016,"is_reserved":false,"is_disabled":false,"rental_uris":{"android":"levelo://app?vid=117ea6a9-01af-49f7-ba3b-ee891c9546f5","ios":"levelo://app?vid=117ea6a9-01af-49f7-ba3b-ee891c9546f5"},"vehicle_type_id":"4","last_reported":1715454348,"current_range_meters":2800,"station_id":"ce4bhqp2rcd13ifvqhng","pricing_plan_id":"cebpf4jnsgd1na2vs0mg"},{"bike_id":"f285b6f6-8c2c-44a5-bbaf-e05305a55caa","system_id":"levelo_inurba_marseille","lat":43.304278,"lon":5.388868,"is_reserved":false,"is_disabled":false,"rental_uris":{"android":"levelo://app?vid=f285b6f6-8c2c-44a5-bbaf-e05305a55caa","ios":"levelo://app?vid=f285b6f6-8c2c-44a5-bbaf-e05305a55caa"},"vehicle_type_id":"4","last_reported":1715454348,"current_range_meters":8000,"station_id":"ce4bgk12rcd13ifvqbi0","pricing_plan_id":"cebpf4jnsgd1na2vs0mg"},{"bike_id":"88031d4c-0039-492a-b461-541581b52a53","system_id":"levelo_inurba_marseille","lat":43.317557,"lon":5.390173,"is_reserved":false,"is_disabled":false,"rental_uris":{"android":"levelo://app?vid=88031d4c-0039-492a-b461-541581b52a53","ios":"levelo://app?vid=88031d4c-0039-492a-b461-541581b52a53"},"vehicle_type_id":"4","last_reported":1715454348,"current_range_meters":27200,"station_id":"ce4bhqp2rcd13ifvqhng","pricing_plan_id":"cebpf4jnsgd1na2vs0mg"},{"bike_id":"5e869f56-5165-4960-8f23-3ba1afaaca40","system_id":"levelo_inurba_marseille","lat":43.309258,"lon":5.390729,"is_reserved":false,"is_disabled":false,"rental_uris":{"android":"levelo://app?vid=5e869f56-5165-4960-8f23-3ba1afaaca40","ios":"levelo://app?vid=5e869f56-5165-4960-8f23-3ba1afaaca40"},"vehicle_type_id":"4","last_reported":1715454348,"current_range_meters":800,"station_id":"ce4bgup2rcd13ifvqco0","pricing_plan_id":"cebpf4jnsgd1na2vs0mg"},{"bike_id":"9ba9a39f-fc5c-40d0-a58c-13fc252fc4a8","system_id":"levelo_inurba_marseille","lat":43.298037,"lon":5.381066,"is_reserved":false,"is_disabled":false,"rental_uris":{"android":"levelo://app?vid=9ba9a39f-fc5c-40d0-a58c-13fc252fc4a8","ios":"levelo://app?vid=9ba9a39f-fc5c-40d0-a58c-13fc252fc4a8"},"vehicle_type_id":"4","last_reported":1715454348,"current_range_meters":1200,"station_id":"ce4bgip2rcd13ifvqbb0","pricing_plan_id":"cebpf4jnsgd1na2vs0mg"},{"bike_id":"480b03de-913e-494f-9c2c-5b6394c00fa8","system_id":"levelo_inurba_marseille","lat":43.298037,"lon":5.381066,"is_reserved":false,"is_disabled":false,"rental_uris":{"android":"levelo://app?vid=480b03de-913e-494f-9c2c-5b6394c00fa8","ios":"levelo://app?vid=480b03de-913e-494f-9c2c-5b6394c00fa8"},"vehicle_type_id":"4","last_reported":1715454348,"current_range_meters":17200,"station_id":"ce4bgip2rcd13ifvqbb0","pricing_plan_id":"cebpf4jnsgd1na2vs0mg"},{"bike_id":"771040c3-d986-48d7-a046-f665dbfc6b27","system_id":"levelo_inurba_marseille","lat":43.295748,"lon":5.37522,"is_reserved":false,"is_disabled":false,"rental_uris":{"android":"levelo://app?vid=771040c3-d986-48d7-a046-f665dbfc6b27","ios":"levelo://app?vid=771040c3-d986-48d7-a046-f665dbfc6b27"},"vehicle_type_id":"4","last_reported":1715454348,"current_range_meters":0,"station_id":"ce4bgh92rcd13ifvqb50","pricing_plan_id":"cebpf4jnsgd1na2vs0mg"},{"bike_id":"8443ec53-33cf-40bf-a551-c5eaa631169b","system_id":"levelo_inurba_marseille","lat":43.297958,"lon":5.381035,"is_reserved":false,"is_disabled":false,"rental_uris":{"android":"levelo://app?vid=8443ec53-33cf-40bf-a551-c5eaa631169b","ios":"levelo://app?vid=8443ec53-33cf-40bf-a551-c5eaa631169b"},"vehicle_type_id":"4","last_reported":1715454348,"current_range_meters":400,"station_id":"ce4bgip2rcd13ifvqbb0","pricing_plan_id":"cebpf4jnsgd1na2vs0mg"},{"bike_id":"33424dc5-672e-4844-8d1c-e6167f01f348","system_id":"levelo_inurba_marseille","lat":43.298037,"lon":5.381066,"is_reserved":false,"is_disabled":false,"rental_uris":{"android":"levelo://app?vid=33424dc5-672e-4844-8d1c-e6167f01f348","ios":"levelo://app?vid=33424dc5-672e-4844-8d1c-e6167f01f348"},"vehicle_type_id":"4","last_reported":1715454348,"current_range_meters":8000,"station_id":"ce4bgip2rcd13ifvqbb0","pricing_plan_id":"cebpf4jnsgd1na2vs0mg"},{"bike_id":"acd99c19-d3f8-466e-b0cc-624ca9667964","system_id":"levelo_inurba_marseille","lat":43.29572,"lon":5.37502,"is_reserved":false,"is_disabled":false,"rental_uris":{"android":"levelo://app?vid=acd99c19-d3f8-466e-b0cc-624ca9667964","ios":"levelo://app?vid=acd99c19-d3f8-466e-b0cc-624ca9667964"},"vehicle_type_id":"4","last_reported":1715454348,"current_range_meters":4800,"station_id":"ce4bgh92rcd13ifvqb50","pricing_plan_id":"cebpf4jnsgd1na2vs0mg"},{"bike_id":"6b6b4909-efb9-4eef-a413-6ab96e5a31e4","system_id":"levelo_inurba_marseille","lat":43.295748,"lon":5.37522,"is_reserved":false,"is_disabled":false,"rental_uris":{"android":"levelo://app?vid=6b6b4909-efb9-4eef-a413-6ab96e5a31e4","ios":"levelo://app?vid=6b6b4909-efb9-4eef-a413-6ab96e5a31e4"},"vehicle_type_id":"4","last_reported":1715454348,"current_range_meters":0,"station_id":"ce4bgh92rcd13ifvqb50","pricing_plan_id":"cebpf4jnsgd1na2vs0mg"},{"bike_id":"419d3dee-4201-4f54-bda3-96dca33c1d22","system_id":"levelo_inurba_marseille","lat":43.30428,"lon":5.38882,"is_reserved":false,"is_disabled":false,"rental_uris":{"android":"levelo://app?vid=419d3dee-4201-4f54-bda3-96dca33c1d22","ios":"levelo://app?vid=419d3dee-4201-4f54-bda3-96dca33c1d22"},"vehicle_type_id":"4","last_reported":1715454348,"current_range_meters":0,"station_id":"ce4bgk12rcd13ifvqbi0","pricing_plan_id":"cebpf4jnsgd1na2vs0mg"},{"bike_id":"9d5cf745-7f96-46d3-92a9-188f8fe5dea8","system_id":"levelo_inurba_marseille","lat":43.296277,"lon":5.377108,"is_reserved":false,"is_disabled":false,"rental_uris":{"android":"levelo://app?vid=9d5cf745-7f96-46d3-92a9-188f8fe5dea8","ios":"levelo://app?vid=9d5cf745-7f96-46d3-92a9-188f8fe5dea8"},"vehicle_type_id":"4","last_reported":1715454348,"current_range_meters":4400,"station_id":"ce4bgi92rcd13ifvqb90","pricing_plan_id":"cebpf4jnsgd1na2vs0mg"},{"bike_id":"0f026692-a326-42a7-a841-70be2dd608fd","system_id":"levelo_inurba_marseille","lat":43.29788,"lon":5.381,"is_reserved":false,"is_disabled":false,"rental_uris":{"android":"levelo://app?vid=0f026692-a326-42a7-a841-70be2dd608fd","ios":"levelo://app?vid=0f026692-a326-42a7-a841-70be2dd608fd"},"vehicle_type_id":"4","last_reported":1715454348,"current_range_meters":0,"station_id":"ce4bgip2rcd13ifvqbb0","pricing_plan_id":"cebpf4jnsgd1na2vs0mg"},{"bike_id":"a712a299-e107-4791-99a3-dc2acb03ee56","system_id":"levelo_inurba_marseille","lat":43.298037,"lon":5.381066,"is_reserved":false,"is_disabled":false,"rental_uris":{"android":"levelo://app?vid=a712a299-e107-4791-99a3-dc2acb03ee56","ios":"levelo://app?vid=a712a299-e107-4791-99a3-dc2acb03ee56"},"vehicle_type_id":"4","last_reported":1715454348,"current_range_meters":2000,"station_id":"ce4bgip2rcd13ifvqbb0","pricing_plan_id":"cebpf4jnsgd1na2vs0mg"},{"bike_id":"3c47a0d2-b6d2-46ef-a2f3-139efa91a586","system_id":"levelo_inurba_marseille","lat":43.296277,"lon":5.377108,"is_reserved":false,"is_disabled":false,"rental_uris":{"android":"levelo://app?vid=3c47a0d2-b6d2-46ef-a2f3-139efa91a586","ios":"levelo://app?vid=3c47a0d2-b6d2-46ef-a2f3-139efa91a586"},"vehicle_type_id":"4","last_reported":1715454348,"current_range_meters":19600,"station_id":"ce4bgi92rcd13ifvqb90","pricing_plan_id":"cebpf4jnsgd1na2vs0mg"},{"bike_id":"77edd127-256d-49d7-938a-b8480d3bdaa8","system_id":"levelo_inurba_marseille","lat":43.296277,"lon":5.377108,"is_reserved":false,"is_disabled":false,"rental_uris":{"android":"levelo://app?vid=77edd127-256d-49d7-938a-b8480d3bdaa8","ios":"levelo://app?vid=77edd127-256d-49d7-938a-b8480d3bdaa8"},"vehicle_type_id":"4","last_reported":1715454348,"current_range_meters":7200,"station_id":"ce4bgi92rcd13ifvqb90","pricing_plan_id":"cebpf4jnsgd1na2vs0mg"},{"bike_id":"3202c075-fb97-4112-bce9-18bdaa64154d","system_id":"levelo_inurba_marseille","lat":43.296263,"lon":5.377094,"is_reserved":false,"is_disabled":false,"rental_uris":{"android":"levelo://app?vid=3202c075-fb97-4112-bce9-18bdaa64154d","ios":"levelo://app?vid=3202c075-fb97-4112-bce9-18bdaa64154d"},"vehicle_type_id":"4","last_reported":1715454348,"current_range_meters":1600,"station_id":"ce4bgi92rcd13ifvqb90","pricing_plan_id":"cebpf4jnsgd1na2vs0mg"},{"bike_id":"ec9136a7-aea8-4586-824e-633d97f64ed9","system_id":"levelo_inurba_marseille","lat":43.296277,"lon":5.377108,"is_reserved":false,"is_disabled":false,"rental_uris":{"android":"levelo://app?vid=ec9136a7-aea8-4586-824e-633d97f64ed9","ios":"levelo://app?vid=ec9136a7-aea8-4586-824e-633d97f64ed9"},"vehicle_type_id":"4","last_reported":1715454348,"current_range_meters":0,"station_id":"ce4bgi92rcd13ifvqb90","pricing_plan_id":"cebpf4jnsgd1na2vs0mg"},{"bike_id":"04da7725-df0d-44ea-b5ca-c4d6170ad373","system_id":"levelo_inurba_marseille","lat":43.296263,"lon":5.377094,"is_reserved":false,"is_disabled":false,"rental_uris":{"android":"levelo://app?vid=04da7725-df0d-44ea-b5ca-c4d6170ad373","ios":"levelo://app?vid=04da7725-df0d-44ea-b5ca-c4d6170ad373"},"vehicle_type_id":"4","last_reported":1715454348,"current_range_meters":26400,"station_id":"ce4bgi92rcd13ifvqb90","pricing_plan_id":"cebpf4jnsgd1na2vs0mg"},{"bike_id":"42c83685-b39c-46a1-a76c-bff0ba084fa7","system_id":"levelo_inurba_marseille","lat":43.296277,"lon":5.377108,"is_reserved":false,"is_disabled":false,"rental_uris":{"android":"levelo://app?vid=42c83685-b39c-46a1-a76c-bff0ba084fa7","ios":"levelo://app?vid=42c83685-b39c-46a1-a76c-bff0ba084fa7"},"vehicle_type_id":"4","last_reported":1715454348,"current_range_meters":0,"station_id":"ce4bgi92rcd13ifvqb90","pricing_plan_id":"cebpf4jnsgd1na2vs0mg"},{"bike_id":"5bc35382-5339-4dfc-a4a3-04be1f91f65a","system_id":"levelo_inurba_marseille","lat":43.29611,"lon":5.37719,"is_reserved":false,"is_disabled":false,"rental_uris":{"android":"levelo://app?vid=5bc35382-5339-4dfc-a4a3-04be1f91f65a","ios":"levelo://app?vid=5bc35382-5339-4dfc-a4a3-04be1f91f65a"},"vehicle_type_id":"4","last_reported":1715454348,"current_range_meters":0,"station_id":"ce4bgi92rcd13ifvqb90","pricing_plan_id":"cebpf4jnsgd1na2vs0mg"},{"bike_id":"d6266799-6336-4ee0-90dc-33a2620eed62","system_id":"levelo_inurba_marseille","lat":43.29613,"lon":5.37742,"is_reserved":false,"is_disabled":false,"rental_uris":{"android":"levelo://app?vid=d6266799-6336-4ee0-90dc-33a2620eed62","ios":"levelo://app?vid=d6266799-6336-4ee0-90dc-33a2620eed62"},"vehicle_type_id":"4","last_reported":1715454348,"current_range_meters":0,"station_id":"ce4bgi92rcd13ifvqb90","pricing_plan_id":"cebpf4jnsgd1na2vs0mg"},{"bike_id":"b02664ad-7c34-489a-a175-48007fd762f4","system_id":"levelo_inurba_marseille","lat":43.299705,"lon":5.38485,"is_reserved":false,"is_disabled":false,"rental_uris":{"android":"levelo://app?vid=b02664ad-7c34-489a-a175-48007fd762f4","ios":"levelo://app?vid=b02664ad-7c34-489a-a175-48007fd762f4"},"vehicle_type_id":"4","last_reported":1715454348,"current_range_meters":0,"station_id":"ce4bgip2rcd13ifvqbb0","pricing_plan_id":"cebpf4jnsgd1na2vs0mg"},{"bike_id":"7b4519c0-a05f-4fa1-a50e-d97901603d30","system_id":"levelo_inurba_marseille","lat":43.295279,"lon":5.375048,"is_reserved":false,"is_disabled":false,"rental_uris":{"android":"levelo://app?vid=7b4519c0-a05f-4fa1-a50e-d97901603d30","ios":"levelo://app?vid=7b4519c0-a05f-4fa1-a50e-d97901603d30"},"vehicle_type_id":"4","last_reported":1715454348,"current_range_meters":6400,"station_id":"ce4bgkp2rcd13ifvqbmg","pricing_plan_id":"cebpf4jnsgd1na2vs0mg"},{"bike_id":"dfcd0627-538c-4c1b-a4de-5a1d6610701a","system_id":"levelo_inurba_marseille","lat":43.299724,"lon":5.384848,"is_reserved":false,"is_disabled":false,"rental_uris":{"android":"levelo://app?vid=dfcd0627-538c-4c1b-a4de-5a1d6610701a","ios":"levelo://app?vid=dfcd0627-538c-4c1b-a4de-5a1d6610701a"},"vehicle_type_id":"4","last_reported":1715454348,"current_range_meters":25600,"station_id":"ce4bgj92rcd13ifvqbd0","pricing_plan_id":"cebpf4jnsgd1na2vs0mg"},{"bike_id":"7bd491d0-e969-4c0c-8f0c-c953e0659b85","system_id":"levelo_inurba_marseille","lat":43.299717,"lon":5.384845,"is_reserved":false,"is_disabled":false,"rental_uris":{"android":"levelo://app?vid=7bd491d0-e969-4c0c-8f0c-c953e0659b85","ios":"levelo://app?vid=7bd491d0-e969-4c0c-8f0c-c953e0659b85"},"vehicle_type_id":"4","last_reported":1715454348,"current_range_meters":17200,"station_id":"ce4bgj92rcd13ifvqbd0","pricing_plan_id":"cebpf4jnsgd1na2vs0mg"},{"bike_id":"2ba08303-c80f-4484-b4dd-51891ac3f89e","system_id":"levelo_inurba_marseille","lat":43.295279,"lon":5.375048,"is_reserved":false,"is_disabled":false,"rental_uris":{"android":"levelo://app?vid=2ba08303-c80f-4484-b4dd-51891ac3f89e","ios":"levelo://app?vid=2ba08303-c80f-4484-b4dd-51891ac3f89e"},"vehicle_type_id":"4","last_reported":1715454348,"current_range_meters":0,"station_id":"ce4bgkp2rcd13ifvqbmg","pricing_plan_id":"cebpf4jnsgd1na2vs0mg"},{"bike_id":"daea4f0b-c564-46fd-8cac-acc3bab5e006","system_id":"levelo_inurba_marseille","lat":43.299023,"lon":5.384725,"is_reserved":false,"is_disabled":false,"rental_uris":{"android":"levelo://app?vid=daea4f0b-c564-46fd-8cac-acc3bab5e006","ios":"levelo://app?vid=daea4f0b-c564-46fd-8cac-acc3bab5e006"},"vehicle_type_id":"4","last_reported":1715454348,"current_range_meters":0,"station_id":"","pricing_plan_id":"cebpf4jnsgd1na2vs0mg"},{"bike_id":"b7a8912c-8a7d-4e12-9580-854fcaddddcb","system_id":"levelo_inurba_marseille","lat":43.32362,"lon":5.38881,"is_reserved":false,"is_disabled":false,"rental_uris":{"android":"levelo://app?vid=b7a8912c-8a7d-4e12-9580-854fcaddddcb","ios":"levelo://app?vid=b7a8912c-8a7d-4e12-9580-854fcaddddcb"},"vehicle_type_id":"4","last_reported":1715454348,"current_range_meters":7200,"station_id":"ce4bhqp2rcd13ifvqhog","pricing_plan_id":"cebpf4jnsgd1na2vs0mg"},{"bike_id":"3c8fdbb9-7750-47e5-bbc2-59623780d076","system_id":"levelo_inurba_marseille","lat":43.32367,"lon":5.388836,"is_reserved":false,"is_disabled":false,"rental_uris":{"android":"levelo://app?vid=3c8fdbb9-7750-47e5-bbc2-59623780d076","ios":"levelo://app?vid=3c8fdbb9-7750-47e5-bbc2-59623780d076"},"vehicle_type_id":"4","last_reported":1715454348,"current_range_meters":18400,"station_id":"ce4bhqp2rcd13ifvqhog","pricing_plan_id":"cebpf4jnsgd1na2vs0mg"},{"bike_id":"4a5a43e4-26b3-40aa-a477-1c783be6adc9","system_id":"levelo_inurba_marseille","lat":43.32367,"lon":5.388836,"is_reserved":false,"is_disabled":false,"rental_uris":{"android":"levelo://app?vid=4a5a43e4-26b3-40aa-a477-1c783be6adc9","ios":"levelo://app?vid=4a5a43e4-26b3-40aa-a477-1c783be6adc9"},"vehicle_type_id":"4","last_reported":1715454348,"current_range_meters":17200,"station_id":"ce4bhqp2rcd13ifvqhog","pricing_plan_id":"cebpf4jnsgd1na2vs0mg"},{"bike_id":"53f4033f-b9cb-412c-b6b0-275f1c656d8f","system_id":"levelo_inurba_marseille","lat":43.32367,"lon":5.38886,"is_reserved":false,"is_disabled":false,"rental_uris":{"android":"levelo://app?vid=53f4033f-b9cb-412c-b6b0-275f1c656d8f","ios":"levelo://app?vid=53f4033f-b9cb-412c-b6b0-275f1c656d8f"},"vehicle_type_id":"4","last_reported":1715454348,"current_range_meters":0,"station_id":"ce4bhqp2rcd13ifvqhog","pricing_plan_id":"cebpf4jnsgd1na2vs0mg"},{"bike_id":"59f7ed56-efa1-4a89-b479-251d4588ad8a","system_id":"levelo_inurba_marseille","lat":43.32364,"lon":5.38889,"is_reserved":false,"is_disabled":false,"rental_uris":{"android":"levelo://app?vid=59f7ed56-efa1-4a89-b479-251d4588ad8a","ios":"levelo://app?vid=59f7ed56-efa1-4a89-b479-251d4588ad8a"},"vehicle_type_id":"4","last_reported":1715454348,"current_range_meters":14400,"station_id":"ce4bhqp2rcd13ifvqhog","pricing_plan_id":"cebpf4jnsgd1na2vs0mg"},{"bike_id":"81efba0e-12fe-4fa0-a4ae-da8c5b033846","system_id":"levelo_inurba_marseille","lat":43.323675,"lon":5.388882,"is_reserved":false,"is_disabled":false,"rental_uris":{"android":"levelo://app?vid=81efba0e-12fe-4fa0-a4ae-da8c5b033846","ios":"levelo://app?vid=81efba0e-12fe-4fa0-a4ae-da8c5b033846"},"vehicle_type_id":"4","last_reported":1715454348,"current_range_meters":9600,"station_id":"ce4bhqp2rcd13ifvqhog","pricing_plan_id":"cebpf4jnsgd1na2vs0mg"},{"bike_id":"74e9fd30-3429-4c4d-b751-f689bcef54c0","system_id":"levelo_inurba_marseille","lat":43.32367,"lon":5.388836,"is_reserved":false,"is_disabled":false,"rental_uris":{"android":"levelo://app?vid=74e9fd30-3429-4c4d-b751-f689bcef54c0","ios":"levelo://app?vid=74e9fd30-3429-4c4d-b751-f689bcef54c0"},"vehicle_type_id":"4","last_reported":1715454348,"current_range_meters":6000,"station_id":"ce4bhqp2rcd13ifvqhog","pricing_plan_id":"cebpf4jnsgd1na2vs0mg"},{"bike_id":"1986fd2d-a6a7-4f6f-a763-c7b749d43f4e","system_id":"levelo_inurba_marseille","lat":43.29602,"lon":5.381084,"is_reserved":false,"is_disabled":false,"rental_uris":{"android":"levelo://app?vid=1986fd2d-a6a7-4f6f-a763-c7b749d43f4e","ios":"levelo://app?vid=1986fd2d-a6a7-4f6f-a763-c7b749d43f4e"},"vehicle_type_id":"4","last_reported":1715454348,"current_range_meters":27200,"station_id":"ce4bgl12rcd13ifvqbo0","pricing_plan_id":"cebpf4jnsgd1na2vs0mg"},{"bike_id":"b537abf0-d0ea-4948-915e-459ef3bfffcc","system_id":"levelo_inurba_marseille","lat":43.29602,"lon":5.381084,"is_reserved":false,"is_disabled":false,"rental_uris":{"android":"levelo://app?vid=b537abf0-d0ea-4948-915e-459ef3bfffcc","ios":"levelo://app?vid=b537abf0-d0ea-4948-915e-459ef3bfffcc"},"vehicle_type_id":"4","last_reported":1715454348,"current_range_meters":1600,"station_id":"ce4bgl12rcd13ifvqbo0","pricing_plan_id":"cebpf4jnsgd1na2vs0mg"},{"bike_id":"bce93953-72f5-4674-b480-a06142f932f1","system_id":"levelo_inurba_marseille","lat":43.29602,"lon":5.381084,"is_reserved":false,"is_disabled":false,"rental_uris":{"android":"levelo://app?vid=bce93953-72f5-4674-b480-a06142f932f1","ios":"levelo://app?vid=bce93953-72f5-4674-b480-a06142f932f1"},"vehicle_type_id":"4","last_reported":1715454348,"current_range_meters":24000,"station_id":"ce4bgl12rcd13ifvqbo0","pricing_plan_id":"cebpf4jnsgd1na2vs0mg"},{"bike_id":"3601a511-c9fc-45c8-8141-fc970367fcb6","system_id":"levelo_inurba_marseille","lat":43.29602,"lon":5.381084,"is_reserved":false,"is_disabled":false,"rental_uris":{"android":"levelo://app?vid=3601a511-c9fc-45c8-8141-fc970367fcb6","ios":"levelo://app?vid=3601a511-c9fc-45c8-8141-fc970367fcb6"},"vehicle_type_id":"4","last_reported":1715454348,"current_range_meters":1200,"station_id":"ce4bgl12rcd13ifvqbo0","pricing_plan_id":"cebpf4jnsgd1na2vs0mg"},{"bike_id":"22af7fd7-441d-48df-8490-9248c0fed5fa","system_id":"levelo_inurba_marseille","lat":43.29602,"lon":5.381084,"is_reserved":false,"is_disabled":false,"rental_uris":{"android":"levelo://app?vid=22af7fd7-441d-48df-8490-9248c0fed5fa","ios":"levelo://app?vid=22af7fd7-441d-48df-8490-9248c0fed5fa"},"vehicle_type_id":"4","last_reported":1715454348,"current_range_meters":0,"station_id":"ce4bgl12rcd13ifvqbo0","pricing_plan_id":"cebpf4jnsgd1na2vs0mg"},{"bike_id":"89bc46ee-5903-4aff-8443-fb28cfb892e7","system_id":"levelo_inurba_marseille","lat":43.29602,"lon":5.381084,"is_reserved":false,"is_disabled":false,"rental_uris":{"android":"levelo://app?vid=89bc46ee-5903-4aff-8443-fb28cfb892e7","ios":"levelo://app?vid=89bc46ee-5903-4aff-8443-fb28cfb892e7"},"vehicle_type_id":"4","last_reported":1715454348,"current_range_meters":17600,"station_id":"ce4bgl12rcd13ifvqbo0","pricing_plan_id":"cebpf4jnsgd1na2vs0mg"},{"bike_id":"804af8b9-6ef9-4c2b-89a5-4aedf7490840","system_id":"levelo_inurba_marseille","lat":43.29601,"lon":5.381084,"is_reserved":false,"is_disabled":false,"rental_uris":{"android":"levelo://app?vid=804af8b9-6ef9-4c2b-89a5-4aedf7490840","ios":"levelo://app?vid=804af8b9-6ef9-4c2b-89a5-4aedf7490840"},"vehicle_type_id":"4","last_reported":1715454348,"current_range_meters":400,"station_id":"ce4bgl12rcd13ifvqbo0","pricing_plan_id":"cebpf4jnsgd1na2vs0mg"},{"bike_id":"051e86fa-d90f-4e8d-ac1d-882c6961fb27","system_id":"levelo_inurba_marseille","lat":43.29601,"lon":5.381084,"is_reserved":false,"is_disabled":false,"rental_uris":{"android":"levelo://app?vid=051e86fa-d90f-4e8d-ac1d-882c6961fb27","ios":"levelo://app?vid=051e86fa-d90f-4e8d-ac1d-882c6961fb27"},"vehicle_type_id":"4","last_reported":1715454348,"current_range_meters":1200,"station_id":"ce4bgl12rcd13ifvqbo0","pricing_plan_id":"cebpf4jnsgd1na2vs0mg"},{"bike_id":"053fc30b-1e43-4d1d-8dba-6190b6f254a1","system_id":"levelo_inurba_marseille","lat":43.30216,"lon":5.39006,"is_reserved":false,"is_disabled":false,"rental_uris":{"android":"levelo://app?vid=053fc30b-1e43-4d1d-8dba-6190b6f254a1","ios":"levelo://app?vid=053fc30b-1e43-4d1d-8dba-6190b6f254a1"},"vehicle_type_id":"4","last_reported":1715454348,"current_range_meters":4400,"station_id":"ce4bh092rcd13ifvqd30","pricing_plan_id":"cebpf4jnsgd1na2vs0mg"},{"bike_id":"17409a7c-1f5f-4eb2-bfbd-e77365b2d345","system_id":"levelo_inurba_marseille","lat":43.293259,"lon":5.371586,"is_reserved":false,"is_disabled":false,"rental_uris":{"android":"levelo://app?vid=17409a7c-1f5f-4eb2-bfbd-e77365b2d345","ios":"levelo://app?vid=17409a7c-1f5f-4eb2-bfbd-e77365b2d345"},"vehicle_type_id":"4","last_reported":1715454348,"current_range_meters":17200,"station_id":"ce4bgh92rcd13ifvqb40","pricing_plan_id":"cebpf4jnsgd1na2vs0mg"},{"bike_id":"ea968e24-a986-4303-b874-39189d54b612","system_id":"levelo_inurba_marseille","lat":43.29602,"lon":5.381084,"is_reserved":false,"is_disabled":false,"rental_uris":{"android":"levelo://app?vid=ea968e24-a986-4303-b874-39189d54b612","ios":"levelo://app?vid=ea968e24-a986-4303-b874-39189d54b612"},"vehicle_type_id":"4","last_reported":1715454348,"current_range_meters":2000,"station_id":"ce4bgl12rcd13ifvqbo0","pricing_plan_id":"cebpf4jnsgd1na2vs0mg"},{"bike_id":"2936190c-6922-4ce9-b103-9b3215084f35","system_id":"levelo_inurba_marseille","lat":43.293259,"lon":5.371586,"is_reserved":false,"is_disabled":false,"rental_uris":{"android":"levelo://app?vid=2936190c-6922-4ce9-b103-9b3215084f35","ios":"levelo://app?vid=2936190c-6922-4ce9-b103-9b3215084f35"},"vehicle_type_id":"4","last_reported":1715454348,"current_range_meters":0,"station_id":"ce4bgh92rcd13ifvqb40","pricing_plan_id":"cebpf4jnsgd1na2vs0mg"},{"bike_id":"316f5a2f-2036-448d-8cee-7fd65ff744e2","system_id":"levelo_inurba_marseille","lat":43.292749,"lon":5.368398,"is_reserved":false,"is_disabled":false,"rental_uris":{"android":"levelo://app?vid=316f5a2f-2036-448d-8cee-7fd65ff744e2","ios":"levelo://app?vid=316f5a2f-2036-448d-8cee-7fd65ff744e2"},"vehicle_type_id":"4","last_reported":1715454348,"current_range_meters":25200,"station_id":"ce4bhbp2rcd13ifvqesg","pricing_plan_id":"cebpf4jnsgd1na2vs0mg"},{"bike_id":"de9a8e39-a5ff-46ff-85c7-1a4f90468b70","system_id":"levelo_inurba_marseille","lat":43.292749,"lon":5.368402,"is_reserved":false,"is_disabled":false,"rental_uris":{"android":"levelo://app?vid=de9a8e39-a5ff-46ff-85c7-1a4f90468b70","ios":"levelo://app?vid=de9a8e39-a5ff-46ff-85c7-1a4f90468b70"},"vehicle_type_id":"4","last_reported":1715454348,"current_range_meters":26400,"station_id":"ce4bhbp2rcd13ifvqesg","pricing_plan_id":"cebpf4jnsgd1na2vs0mg"},{"bike_id":"28b88c1e-219c-44f1-9e1d-6a95f7be185f","system_id":"levelo_inurba_marseille","lat":43.293259,"lon":5.371586,"is_reserved":false,"is_disabled":false,"rental_uris":{"android":"levelo://app?vid=28b88c1e-219c-44f1-9e1d-6a95f7be185f","ios":"levelo://app?vid=28b88c1e-219c-44f1-9e1d-6a95f7be185f"},"vehicle_type_id":"4","last_reported":1715454348,"current_range_meters":16000,"station_id":"ce4bgh92rcd13ifvqb40","pricing_plan_id":"cebpf4jnsgd1na2vs0mg"},{"bike_id":"96edf4c3-a7a3-4083-b75f-95b8f02725fa","system_id":"levelo_inurba_marseille","lat":43.292749,"lon":5.368402,"is_reserved":false,"is_disabled":false,"rental_uris":{"android":"levelo://app?vid=96edf4c3-a7a3-4083-b75f-95b8f02725fa","ios":"levelo://app?vid=96edf4c3-a7a3-4083-b75f-95b8f02725fa"},"vehicle_type_id":"4","last_reported":1715454348,"current_range_meters":0,"station_id":"ce4bhbp2rcd13ifvqesg","pricing_plan_id":"cebpf4jnsgd1na2vs0mg"},{"bike_id":"aeafc71b-87e4-4b47-8c8b-248db53db61c","system_id":"levelo_inurba_marseille","lat":43.292713,"lon":5.368443,"is_reserved":false,"is_disabled":false,"rental_uris":{"android":"levelo://app?vid=aeafc71b-87e4-4b47-8c8b-248db53db61c","ios":"levelo://app?vid=aeafc71b-87e4-4b47-8c8b-248db53db61c"},"vehicle_type_id":"4","last_reported":1715454348,"current_range_meters":0,"station_id":"ce4bhbp2rcd13ifvqesg","pricing_plan_id":"cebpf4jnsgd1na2vs0mg"},{"bike_id":"0a5a81d6-6b86-45e5-a038-5b256b4de616","system_id":"levelo_inurba_marseille","lat":43.293259,"lon":5.371586,"is_reserved":false,"is_disabled":false,"rental_uris":{"android":"levelo://app?vid=0a5a81d6-6b86-45e5-a038-5b256b4de616","ios":"levelo://app?vid=0a5a81d6-6b86-45e5-a038-5b256b4de616"},"vehicle_type_id":"4","last_reported":1715454348,"current_range_meters":15600,"station_id":"ce4bgh92rcd13ifvqb40","pricing_plan_id":"cebpf4jnsgd1na2vs0mg"},{"bike_id":"8070affc-168f-4180-8384-e09d72b7f8e3","system_id":"levelo_inurba_marseille","lat":43.292749,"lon":5.368398,"is_reserved":false,"is_disabled":false,"rental_uris":{"android":"levelo://app?vid=8070affc-168f-4180-8384-e09d72b7f8e3","ios":"levelo://app?vid=8070affc-168f-4180-8384-e09d72b7f8e3"},"vehicle_type_id":"4","last_reported":1715454348,"current_range_meters":0,"station_id":"ce4bhbp2rcd13ifvqesg","pricing_plan_id":"cebpf4jnsgd1na2vs0mg"},{"bike_id":"ace5f1ba-d409-47f8-8f94-137520b885a6","system_id":"levelo_inurba_marseille","lat":43.29264,"lon":5.36846,"is_reserved":false,"is_disabled":false,"rental_uris":{"android":"levelo://app?vid=ace5f1ba-d409-47f8-8f94-137520b885a6","ios":"levelo://app?vid=ace5f1ba-d409-47f8-8f94-137520b885a6"},"vehicle_type_id":"4","last_reported":1715454348,"current_range_meters":0,"station_id":"ce4bhbp2rcd13ifvqesg","pricing_plan_id":"cebpf4jnsgd1na2vs0mg"},{"bike_id":"ac07ca81-33b7-48b8-8168-e09c5bcbd18e","system_id":"levelo_inurba_marseille","lat":43.309589,"lon":5.390258,"is_reserved":false,"is_disabled":false,"rental_uris":{"android":"levelo://app?vid=ac07ca81-33b7-48b8-8168-e09c5bcbd18e","ios":"levelo://app?vid=ac07ca81-33b7-48b8-8168-e09c5bcbd18e"},"vehicle_type_id":"4","last_reported":1715454348,"current_range_meters":0,"station_id":"ce4bgup2rcd13ifvqco0","pricing_plan_id":"cebpf4jnsgd1na2vs0mg"},{"bike_id":"c472b6a1-8b43-4543-b4e6-cfa415b2b6d0","system_id":"levelo_inurba_marseille","lat":43.293009,"lon":5.374584,"is_reserved":false,"is_disabled":false,"rental_uris":{"android":"levelo://app?vid=c472b6a1-8b43-4543-b4e6-cfa415b2b6d0","ios":"levelo://app?vid=c472b6a1-8b43-4543-b4e6-cfa415b2b6d0"},"vehicle_type_id":"4","last_reported":1715454348,"current_range_meters":0,"station_id":"ce4bgi12rcd13ifvqb70","pricing_plan_id":"cebpf4jnsgd1na2vs0mg"},{"bike_id":"eaebcb1b-4b99-4130-a413-0b7c0e25c24b","system_id":"levelo_inurba_marseille","lat":43.305994,"lon":5.393687,"is_reserved":false,"is_disabled":false,"rental_uris":{"android":"levelo://app?vid=eaebcb1b-4b99-4130-a413-0b7c0e25c24b","ios":"levelo://app?vid=eaebcb1b-4b99-4130-a413-0b7c0e25c24b"},"vehicle_type_id":"4","last_reported":1715454348,"current_range_meters":7600,"station_id":"ce4bh0p2rcd13ifvqd80","pricing_plan_id":"cebpf4jnsgd1na2vs0mg"},{"bike_id":"b5518a5a-d16b-4595-a0f1-d51a55506246","system_id":"levelo_inurba_marseille","lat":43.305994,"lon":5.393687,"is_reserved":false,"is_disabled":false,"rental_uris":{"android":"levelo://app?vid=b5518a5a-d16b-4595-a0f1-d51a55506246","ios":"levelo://app?vid=b5518a5a-d16b-4595-a0f1-d51a55506246"},"vehicle_type_id":"4","last_reported":1715454348,"current_range_meters":14400,"station_id":"ce4bh0p2rcd13ifvqd80","pricing_plan_id":"cebpf4jnsgd1na2vs0mg"},{"bike_id":"63d18056-e337-42a8-a86e-0f478c353b29","system_id":"levelo_inurba_marseille","lat":43.305994,"lon":5.393687,"is_reserved":false,"is_disabled":false,"rental_uris":{"android":"levelo://app?vid=63d18056-e337-42a8-a86e-0f478c353b29","ios":"levelo://app?vid=63d18056-e337-42a8-a86e-0f478c353b29"},"vehicle_type_id":"4","last_reported":1715454348,"current_range_meters":0,"station_id":"ce4bh0p2rcd13ifvqd80","pricing_plan_id":"cebpf4jnsgd1na2vs0mg"},{"bike_id":"2af4424c-fd65-4ff0-9cf6-31460101abf4","system_id":"levelo_inurba_marseille","lat":43.30585,"lon":5.39357,"is_reserved":false,"is_disabled":false,"rental_uris":{"android":"levelo://app?vid=2af4424c-fd65-4ff0-9cf6-31460101abf4","ios":"levelo://app?vid=2af4424c-fd65-4ff0-9cf6-31460101abf4"},"vehicle_type_id":"4","last_reported":1715454348,"current_range_meters":9200,"station_id":"ce4bh0p2rcd13ifvqd80","pricing_plan_id":"cebpf4jnsgd1na2vs0mg"},{"bike_id":"6eb8c16d-271a-425e-be42-7c1c28df9e9a","system_id":"levelo_inurba_marseille","lat":43.2936,"lon":5.37835,"is_reserved":false,"is_disabled":false,"rental_uris":{"android":"levelo://app?vid=6eb8c16d-271a-425e-be42-7c1c28df9e9a","ios":"levelo://app?vid=6eb8c16d-271a-425e-be42-7c1c28df9e9a"},"vehicle_type_id":"4","last_reported":1715454348,"current_range_meters":2800,"station_id":"ce4bgjh2rcd13ifvqbf0","pricing_plan_id":"cebpf4jnsgd1na2vs0mg"},{"bike_id":"26cdfbd5-4b7e-486b-a871-0e9cb749d0df","system_id":"levelo_inurba_marseille","lat":43.303002,"lon":5.392142,"is_reserved":false,"is_disabled":false,"rental_uris":{"android":"levelo://app?vid=26cdfbd5-4b7e-486b-a871-0e9cb749d0df","ios":"levelo://app?vid=26cdfbd5-4b7e-486b-a871-0e9cb749d0df"},"vehicle_type_id":"4","last_reported":1715454348,"current_range_meters":26800,"station_id":"ce4bgkh2rcd13ifvqbk0","pricing_plan_id":"cebpf4jnsgd1na2vs0mg"},{"bike_id":"b0add846-a61c-47ae-9275-add62fa74566","system_id":"levelo_inurba_marseille","lat":43.302992,"lon":5.392136,"is_reserved":false,"is_disabled":false,"rental_uris":{"android":"levelo://app?vid=b0add846-a61c-47ae-9275-add62fa74566","ios":"levelo://app?vid=b0add846-a61c-47ae-9275-add62fa74566"},"vehicle_type_id":"4","last_reported":1715454348,"current_range_meters":4800,"station_id":"ce4bgkh2rcd13ifvqbk0","pricing_plan_id":"cebpf4jnsgd1na2vs0mg"},{"bike_id":"2efa2a58-157d-46f1-8ade-c8b6549d2e49","system_id":"levelo_inurba_marseille","lat":43.303002,"lon":5.392142,"is_reserved":false,"is_disabled":false,"rental_uris":{"android":"levelo://app?vid=2efa2a58-157d-46f1-8ade-c8b6549d2e49","ios":"levelo://app?vid=2efa2a58-157d-46f1-8ade-c8b6549d2e49"},"vehicle_type_id":"4","last_reported":1715454348,"current_range_meters":25200,"station_id":"ce4bgkh2rcd13ifvqbk0","pricing_plan_id":"cebpf4jnsgd1na2vs0mg"},{"bike_id":"0d6910b5-f25c-4e31-b621-b8d80ca7f57f","system_id":"levelo_inurba_marseille","lat":43.2936,"lon":5.37835,"is_reserved":false,"is_disabled":false,"rental_uris":{"android":"levelo://app?vid=0d6910b5-f25c-4e31-b621-b8d80ca7f57f","ios":"levelo://app?vid=0d6910b5-f25c-4e31-b621-b8d80ca7f57f"},"vehicle_type_id":"4","last_reported":1715454348,"current_range_meters":5600,"station_id":"ce4bgjh2rcd13ifvqbf0","pricing_plan_id":"cebpf4jnsgd1na2vs0mg"},{"bike_id":"91009555-e665-4959-a72e-a9da0fcfe0e9","system_id":"levelo_inurba_marseille","lat":43.2936,"lon":5.37835,"is_reserved":false,"is_disabled":false,"rental_uris":{"android":"levelo://app?vid=91009555-e665-4959-a72e-a9da0fcfe0e9","ios":"levelo://app?vid=91009555-e665-4959-a72e-a9da0fcfe0e9"},"vehicle_type_id":"4","last_reported":1715454348,"current_range_meters":2000,"station_id":"ce4bgjh2rcd13ifvqbf0","pricing_plan_id":"cebpf4jnsgd1na2vs0mg"},{"bike_id":"322075f2-5c4d-4e98-9abe-e01ee50f555a","system_id":"levelo_inurba_marseille","lat":43.2936,"lon":5.37835,"is_reserved":false,"is_disabled":false,"rental_uris":{"android":"levelo://app?vid=322075f2-5c4d-4e98-9abe-e01ee50f555a","ios":"levelo://app?vid=322075f2-5c4d-4e98-9abe-e01ee50f555a"},"vehicle_type_id":"4","last_reported":1715454348,"current_range_meters":25200,"station_id":"ce4bgjh2rcd13ifvqbf0","pricing_plan_id":"cebpf4jnsgd1na2vs0mg"},{"bike_id":"fe174315-dcdb-4f0d-b2df-c7cb963cc117","system_id":"levelo_inurba_marseille","lat":43.293792,"lon":5.378708,"is_reserved":false,"is_disabled":false,"rental_uris":{"android":"levelo://app?vid=fe174315-dcdb-4f0d-b2df-c7cb963cc117","ios":"levelo://app?vid=fe174315-dcdb-4f0d-b2df-c7cb963cc117"},"vehicle_type_id":"4","last_reported":1715454348,"current_range_meters":6000,"station_id":"ce4bgjh2rcd13ifvqbf0","pricing_plan_id":"cebpf4jnsgd1na2vs0mg"},{"bike_id":"858313e7-d7d3-4a21-bc9d-cd20971c6132","system_id":"levelo_inurba_marseille","lat":43.29374,"lon":5.37856,"is_reserved":false,"is_disabled":false,"rental_uris":{"android":"levelo://app?vid=858313e7-d7d3-4a21-bc9d-cd20971c6132","ios":"levelo://app?vid=858313e7-d7d3-4a21-bc9d-cd20971c6132"},"vehicle_type_id":"4","last_reported":1715454348,"current_range_meters":0,"station_id":"ce4bgjh2rcd13ifvqbf0","pricing_plan_id":"cebpf4jnsgd1na2vs0mg"},{"bike_id":"79bc5275-ca72-44d8-bec3-2a8b4249a14b","system_id":"levelo_inurba_marseille","lat":43.302992,"lon":5.392136,"is_reserved":false,"is_disabled":false,"rental_uris":{"android":"levelo://app?vid=79bc5275-ca72-44d8-bec3-2a8b4249a14b","ios":"levelo://app?vid=79bc5275-ca72-44d8-bec3-2a8b4249a14b"},"vehicle_type_id":"4","last_reported":1715454348,"current_range_meters":21600,"station_id":"ce4bgkh2rcd13ifvqbk0","pricing_plan_id":"cebpf4jnsgd1na2vs0mg"},{"bike_id":"53fefb64-0a32-4fa2-abef-dd57feb404c1","system_id":"levelo_inurba_marseille","lat":43.2936,"lon":5.37835,"is_reserved":false,"is_disabled":false,"rental_uris":{"android":"levelo://app?vid=53fefb64-0a32-4fa2-abef-dd57feb404c1","ios":"levelo://app?vid=53fefb64-0a32-4fa2-abef-dd57feb404c1"},"vehicle_type_id":"4","last_reported":1715454348,"current_range_meters":10000,"station_id":"ce4bgjh2rcd13ifvqbf0","pricing_plan_id":"cebpf4jnsgd1na2vs0mg"},{"bike_id":"6192984c-4e50-4835-a127-aa50bfcc7cd4","system_id":"levelo_inurba_marseille","lat":43.2936,"lon":5.37835,"is_reserved":false,"is_disabled":false,"rental_uris":{"android":"levelo://app?vid=6192984c-4e50-4835-a127-aa50bfcc7cd4","ios":"levelo://app?vid=6192984c-4e50-4835-a127-aa50bfcc7cd4"},"vehicle_type_id":"4","last_reported":1715454348,"current_range_meters":4800,"station_id":"ce4bgjh2rcd13ifvqbf0","pricing_plan_id":"cebpf4jnsgd1na2vs0mg"},{"bike_id":"0724cb7d-b3e9-46a0-a449-17f7d2ef608e","system_id":"levelo_inurba_marseille","lat":43.2936,"lon":5.37835,"is_reserved":false,"is_disabled":false,"rental_uris":{"android":"levelo://app?vid=0724cb7d-b3e9-46a0-a449-17f7d2ef608e","ios":"levelo://app?vid=0724cb7d-b3e9-46a0-a449-17f7d2ef608e"},"vehicle_type_id":"4","last_reported":1715454348,"current_range_meters":16800,"station_id":"ce4bgjh2rcd13ifvqbf0","pricing_plan_id":"cebpf4jnsgd1na2vs0mg"},{"bike_id":"95d9d19d-fdd4-4079-a5b7-44badd3a9823","system_id":"levelo_inurba_marseille","lat":43.302992,"lon":5.392136,"is_reserved":false,"is_disabled":false,"rental_uris":{"android":"levelo://app?vid=95d9d19d-fdd4-4079-a5b7-44badd3a9823","ios":"levelo://app?vid=95d9d19d-fdd4-4079-a5b7-44badd3a9823"},"vehicle_type_id":"4","last_reported":1715454348,"current_range_meters":10000,"station_id":"ce4bgkh2rcd13ifvqbk0","pricing_plan_id":"cebpf4jnsgd1na2vs0mg"},{"bike_id":"60676e27-4cba-4436-a3da-049edec489f8","system_id":"levelo_inurba_marseille","lat":43.2936,"lon":5.37835,"is_reserved":false,"is_disabled":false,"rental_uris":{"android":"levelo://app?vid=60676e27-4cba-4436-a3da-049edec489f8","ios":"levelo://app?vid=60676e27-4cba-4436-a3da-049edec489f8"},"vehicle_type_id":"4","last_reported":1715454348,"current_range_meters":9600,"station_id":"ce4bgjh2rcd13ifvqbf0","pricing_plan_id":"cebpf4jnsgd1na2vs0mg"},{"bike_id":"e79bbe5d-6072-4b1f-8ec3-51add19c7c19","system_id":"levelo_inurba_marseille","lat":43.292303,"lon":5.360599,"is_reserved":false,"is_disabled":false,"rental_uris":{"android":"levelo://app?vid=e79bbe5d-6072-4b1f-8ec3-51add19c7c19","ios":"levelo://app?vid=e79bbe5d-6072-4b1f-8ec3-51add19c7c19"},"vehicle_type_id":"4","last_reported":1715454348,"current_range_meters":4400,"station_id":"ce4bhbh2rcd13ifvqeqg","pricing_plan_id":"cebpf4jnsgd1na2vs0mg"},{"bike_id":"d61f0ecd-f5ee-4aa9-af35-c5753c8ab7ef","system_id":"levelo_inurba_marseille","lat":43.30085,"lon":5.390856,"is_reserved":false,"is_disabled":false,"rental_uris":{"android":"levelo://app?vid=d61f0ecd-f5ee-4aa9-af35-c5753c8ab7ef","ios":"levelo://app?vid=d61f0ecd-f5ee-4aa9-af35-c5753c8ab7ef"},"vehicle_type_id":"4","last_reported":1715454348,"current_range_meters":19200,"station_id":"ce4bh192rcd13ifvqdb0","pricing_plan_id":"cebpf4jnsgd1na2vs0mg"},{"bike_id":"b23fbf0e-c5ed-495c-8bf2-fcb322f7d67f","system_id":"levelo_inurba_marseille","lat":43.30085,"lon":5.390856,"is_reserved":false,"is_disabled":false,"rental_uris":{"android":"levelo://app?vid=b23fbf0e-c5ed-495c-8bf2-fcb322f7d67f","ios":"levelo://app?vid=b23fbf0e-c5ed-495c-8bf2-fcb322f7d67f"},"vehicle_type_id":"4","last_reported":1715454348,"current_range_meters":0,"station_id":"ce4bh192rcd13ifvqdb0","pricing_plan_id":"cebpf4jnsgd1na2vs0mg"},{"bike_id":"9528b14c-fc86-4b57-a79a-adc13f1c0ea7","system_id":"levelo_inurba_marseille","lat":43.29226,"lon":5.36056,"is_reserved":false,"is_disabled":false,"rental_uris":{"android":"levelo://app?vid=9528b14c-fc86-4b57-a79a-adc13f1c0ea7","ios":"levelo://app?vid=9528b14c-fc86-4b57-a79a-adc13f1c0ea7"},"vehicle_type_id":"4","last_reported":1715454348,"current_range_meters":800,"station_id":"ce4bhbh2rcd13ifvqeqg","pricing_plan_id":"cebpf4jnsgd1na2vs0mg"},{"bike_id":"e7a17999-3908-401b-bf66-d00a80626758","system_id":"levelo_inurba_marseille","lat":43.292311,"lon":5.360731,"is_reserved":false,"is_disabled":false,"rental_uris":{"android":"levelo://app?vid=e7a17999-3908-401b-bf66-d00a80626758","ios":"levelo://app?vid=e7a17999-3908-401b-bf66-d00a80626758"},"vehicle_type_id":"4","last_reported":1715454348,"current_range_meters":6000,"station_id":"ce4bhbh2rcd13ifvqeqg","pricing_plan_id":"cebpf4jnsgd1na2vs0mg"},{"bike_id":"6dc70de4-5b16-4b35-b3ec-fb8373aabad8","system_id":"levelo_inurba_marseille","lat":43.30085,"lon":5.390856,"is_reserved":false,"is_disabled":false,"rental_uris":{"android":"levelo://app?vid=6dc70de4-5b16-4b35-b3ec-fb8373aabad8","ios":"levelo://app?vid=6dc70de4-5b16-4b35-b3ec-fb8373aabad8"},"vehicle_type_id":"4","last_reported":1715454348,"current_range_meters":1600,"station_id":"ce4bh192rcd13ifvqdb0","pricing_plan_id":"cebpf4jnsgd1na2vs0mg"},{"bike_id":"46349490-f5fe-475f-aa83-10328d7bf099","system_id":"levelo_inurba_marseille","lat":43.29186,"lon":5.37145,"is_reserved":false,"is_disabled":false,"rental_uris":{"android":"levelo://app?vid=46349490-f5fe-475f-aa83-10328d7bf099","ios":"levelo://app?vid=46349490-f5fe-475f-aa83-10328d7bf099"},"vehicle_type_id":"4","last_reported":1715454348,"current_range_meters":0,"station_id":"ce4bha92rcd13ifvqeh0","pricing_plan_id":"cebpf4jnsgd1na2vs0mg"},{"bike_id":"5af808e6-71d2-44eb-af9a-fa157d5aa502","system_id":"levelo_inurba_marseille","lat":43.291671,"lon":5.371575,"is_reserved":false,"is_disabled":false,"rental_uris":{"android":"levelo://app?vid=5af808e6-71d2-44eb-af9a-fa157d5aa502","ios":"levelo://app?vid=5af808e6-71d2-44eb-af9a-fa157d5aa502"},"vehicle_type_id":"4","last_reported":1715454348,"current_range_meters":12400,"station_id":"ce4bha92rcd13ifvqeh0","pricing_plan_id":"cebpf4jnsgd1na2vs0mg"},{"bike_id":"ca6b1152-a67a-4cf5-b542-97a9269fa438","system_id":"levelo_inurba_marseille","lat":43.291675,"lon":5.371583,"is_reserved":false,"is_disabled":false,"rental_uris":{"android":"levelo://app?vid=ca6b1152-a67a-4cf5-b542-97a9269fa438","ios":"levelo://app?vid=ca6b1152-a67a-4cf5-b542-97a9269fa438"},"vehicle_type_id":"4","last_reported":1715454348,"current_range_meters":6000,"station_id":"ce4bha92rcd13ifvqeh0","pricing_plan_id":"cebpf4jnsgd1na2vs0mg"},{"bike_id":"a1005953-1e96-4385-84c7-3a2395f5e69d","system_id":"levelo_inurba_marseille","lat":43.298777,"lon":5.389117,"is_reserved":false,"is_disabled":false,"rental_uris":{"android":"levelo://app?vid=a1005953-1e96-4385-84c7-3a2395f5e69d","ios":"levelo://app?vid=a1005953-1e96-4385-84c7-3a2395f5e69d"},"vehicle_type_id":"4","last_reported":1715454348,"current_range_meters":0,"station_id":"ce4bh392rcd13ifvqdl0","pricing_plan_id":"cebpf4jnsgd1na2vs0mg"},{"bike_id":"d59082dd-3ce6-45c1-a644-dcc9d1817435","system_id":"levelo_inurba_marseille","lat":43.291675,"lon":5.371583,"is_reserved":false,"is_disabled":false,"rental_uris":{"android":"levelo://app?vid=d59082dd-3ce6-45c1-a644-dcc9d1817435","ios":"levelo://app?vid=d59082dd-3ce6-45c1-a644-dcc9d1817435"},"vehicle_type_id":"4","last_reported":1715454348,"current_range_meters":14000,"station_id":"ce4bha92rcd13ifvqeh0","pricing_plan_id":"cebpf4jnsgd1na2vs0mg"},{"bike_id":"f3ebc673-6700-4797-8b9e-8a2056f853b0","system_id":"levelo_inurba_marseille","lat":43.298764,"lon":5.388973,"is_reserved":false,"is_disabled":false,"rental_uris":{"android":"levelo://app?vid=f3ebc673-6700-4797-8b9e-8a2056f853b0","ios":"levelo://app?vid=f3ebc673-6700-4797-8b9e-8a2056f853b0"},"vehicle_type_id":"4","last_reported":1715454348,"current_range_meters":10000,"station_id":"ce4bh392rcd13ifvqdl0","pricing_plan_id":"cebpf4jnsgd1na2vs0mg"},{"bike_id":"dc799692-8ddf-4d78-bcac-81b2db9eb308","system_id":"levelo_inurba_marseille","lat":43.291675,"lon":5.371583,"is_reserved":false,"is_disabled":false,"rental_uris":{"android":"levelo://app?vid=dc799692-8ddf-4d78-bcac-81b2db9eb308","ios":"levelo://app?vid=dc799692-8ddf-4d78-bcac-81b2db9eb308"},"vehicle_type_id":"4","last_reported":1715454348,"current_range_meters":8000,"station_id":"ce4bha92rcd13ifvqeh0","pricing_plan_id":"cebpf4jnsgd1na2vs0mg"},{"bike_id":"508bd038-234c-44ee-a02e-ddf62bb93640","system_id":"levelo_inurba_marseille","lat":43.298764,"lon":5.388973,"is_reserved":false,"is_disabled":false,"rental_uris":{"android":"levelo://app?vid=508bd038-234c-44ee-a02e-ddf62bb93640","ios":"levelo://app?vid=508bd038-234c-44ee-a02e-ddf62bb93640"},"vehicle_type_id":"4","last_reported":1715454348,"current_range_meters":13200,"station_id":"ce4bh392rcd13ifvqdl0","pricing_plan_id":"cebpf4jnsgd1na2vs0mg"},{"bike_id":"91dac2e4-36ee-48d1-a7dd-e8eae52c3dea","system_id":"levelo_inurba_marseille","lat":43.29858,"lon":5.389219,"is_reserved":false,"is_disabled":false,"rental_uris":{"android":"levelo://app?vid=91dac2e4-36ee-48d1-a7dd-e8eae52c3dea","ios":"levelo://app?vid=91dac2e4-36ee-48d1-a7dd-e8eae52c3dea"},"vehicle_type_id":"4","last_reported":1715454348,"current_range_meters":11200,"station_id":"ce4bh392rcd13ifvqdl0","pricing_plan_id":"cebpf4jnsgd1na2vs0mg"},{"bike_id":"37e144eb-3971-4731-ace4-189d7a5e7a66","system_id":"levelo_inurba_marseille","lat":43.291941,"lon":5.35793,"is_reserved":false,"is_disabled":false,"rental_uris":{"android":"levelo://app?vid=37e144eb-3971-4731-ace4-189d7a5e7a66","ios":"levelo://app?vid=37e144eb-3971-4731-ace4-189d7a5e7a66"},"vehicle_type_id":"4","last_reported":1715454348,"current_range_meters":0,"station_id":"ce4bhb12rcd13ifvqel0","pricing_plan_id":"cebpf4jnsgd1na2vs0mg"},{"bike_id":"b964c6ee-6d29-45fc-ac22-e442dcc1c883","system_id":"levelo_inurba_marseille","lat":43.309038,"lon":5.396546,"is_reserved":false,"is_disabled":false,"rental_uris":{"android":"levelo://app?vid=b964c6ee-6d29-45fc-ac22-e442dcc1c883","ios":"levelo://app?vid=b964c6ee-6d29-45fc-ac22-e442dcc1c883"},"vehicle_type_id":"4","last_reported":1715454348,"current_range_meters":28800,"station_id":"ce4bh012rcd13ifvqcv0","pricing_plan_id":"cebpf4jnsgd1na2vs0mg"},{"bike_id":"9d790f2f-f165-4544-8dcc-1ebf344b3f56","system_id":"levelo_inurba_marseille","lat":43.29529,"lon":5.385581,"is_reserved":false,"is_disabled":false,"rental_uris":{"android":"levelo://app?vid=9d790f2f-f165-4544-8dcc-1ebf344b3f56","ios":"levelo://app?vid=9d790f2f-f165-4544-8dcc-1ebf344b3f56"},"vehicle_type_id":"4","last_reported":1715454348,"current_range_meters":5200,"station_id":"ce4bgih2rcd13ifvqba0","pricing_plan_id":"cebpf4jnsgd1na2vs0mg"},{"bike_id":"70c54b0e-b89d-4c56-8f08-ee86e141198c","system_id":"levelo_inurba_marseille","lat":43.29529,"lon":5.385581,"is_reserved":false,"is_disabled":false,"rental_uris":{"android":"levelo://app?vid=70c54b0e-b89d-4c56-8f08-ee86e141198c","ios":"levelo://app?vid=70c54b0e-b89d-4c56-8f08-ee86e141198c"},"vehicle_type_id":"4","last_reported":1715454348,"current_range_meters":6400,"station_id":"ce4bgih2rcd13ifvqba0","pricing_plan_id":"cebpf4jnsgd1na2vs0mg"},{"bike_id":"0bed7a7f-40b0-4806-bb9b-de9cde23fd6a","system_id":"levelo_inurba_marseille","lat":43.29529,"lon":5.385581,"is_reserved":false,"is_disabled":false,"rental_uris":{"android":"levelo://app?vid=0bed7a7f-40b0-4806-bb9b-de9cde23fd6a","ios":"levelo://app?vid=0bed7a7f-40b0-4806-bb9b-de9cde23fd6a"},"vehicle_type_id":"4","last_reported":1715454348,"current_range_meters":0,"station_id":"ce4bgih2rcd13ifvqba0","pricing_plan_id":"cebpf4jnsgd1na2vs0mg"},{"bike_id":"cb4ff5c6-fa50-45cd-948f-3dc4dccb5b2a","system_id":"levelo_inurba_marseille","lat":43.29529,"lon":5.385581,"is_reserved":false,"is_disabled":false,"rental_uris":{"android":"levelo://app?vid=cb4ff5c6-fa50-45cd-948f-3dc4dccb5b2a","ios":"levelo://app?vid=cb4ff5c6-fa50-45cd-948f-3dc4dccb5b2a"},"vehicle_type_id":"4","last_reported":1715454348,"current_range_meters":7200,"station_id":"ce4bgih2rcd13ifvqba0","pricing_plan_id":"cebpf4jnsgd1na2vs0mg"},{"bike_id":"4891bc67-9924-4bde-937a-1f0653d634a4","system_id":"levelo_inurba_marseille","lat":43.29529,"lon":5.385581,"is_reserved":false,"is_disabled":false,"rental_uris":{"android":"levelo://app?vid=4891bc67-9924-4bde-937a-1f0653d634a4","ios":"levelo://app?vid=4891bc67-9924-4bde-937a-1f0653d634a4"},"vehicle_type_id":"4","last_reported":1715454348,"current_range_meters":20400,"station_id":"ce4bgih2rcd13ifvqba0","pricing_plan_id":"cebpf4jnsgd1na2vs0mg"},{"bike_id":"c0dcb867-e74b-4fc9-a2dd-cabdf5332885","system_id":"levelo_inurba_marseille","lat":43.29529,"lon":5.385581,"is_reserved":false,"is_disabled":false,"rental_uris":{"android":"levelo://app?vid=c0dcb867-e74b-4fc9-a2dd-cabdf5332885","ios":"levelo://app?vid=c0dcb867-e74b-4fc9-a2dd-cabdf5332885"},"vehicle_type_id":"4","last_reported":1715454348,"current_range_meters":1600,"station_id":"ce4bgih2rcd13ifvqba0","pricing_plan_id":"cebpf4jnsgd1na2vs0mg"},{"bike_id":"ca776409-637e-48a4-b127-2e6480edea9b","system_id":"levelo_inurba_marseille","lat":43.29534,"lon":5.38547,"is_reserved":false,"is_disabled":false,"rental_uris":{"android":"levelo://app?vid=ca776409-637e-48a4-b127-2e6480edea9b","ios":"levelo://app?vid=ca776409-637e-48a4-b127-2e6480edea9b"},"vehicle_type_id":"4","last_reported":1715454348,"current_range_meters":0,"station_id":"ce4bgih2rcd13ifvqba0","pricing_plan_id":"cebpf4jnsgd1na2vs0mg"},{"bike_id":"b25c0923-fc46-4756-9480-869b0f37c8b2","system_id":"levelo_inurba_marseille","lat":43.29529,"lon":5.385581,"is_reserved":false,"is_disabled":false,"rental_uris":{"android":"levelo://app?vid=b25c0923-fc46-4756-9480-869b0f37c8b2","ios":"levelo://app?vid=b25c0923-fc46-4756-9480-869b0f37c8b2"},"vehicle_type_id":"4","last_reported":1715454348,"current_range_meters":26800,"station_id":"ce4bgih2rcd13ifvqba0","pricing_plan_id":"cebpf4jnsgd1na2vs0mg"},{"bike_id":"7f178e18-4e51-4877-836a-510c8a4f623f","system_id":"levelo_inurba_marseille","lat":43.292826,"lon":5.37987,"is_reserved":false,"is_disabled":false,"rental_uris":{"android":"levelo://app?vid=7f178e18-4e51-4877-836a-510c8a4f623f","ios":"levelo://app?vid=7f178e18-4e51-4877-836a-510c8a4f623f"},"vehicle_type_id":"4","last_reported":1715454348,"current_range_meters":0,"station_id":"","pricing_plan_id":"cebpf4jnsgd1na2vs0mg"},{"bike_id":"69e3b564-5c37-4488-9b2d-dde8b146c0ea","system_id":"levelo_inurba_marseille","lat":43.29529,"lon":5.385581,"is_reserved":false,"is_disabled":false,"rental_uris":{"android":"levelo://app?vid=69e3b564-5c37-4488-9b2d-dde8b146c0ea","ios":"levelo://app?vid=69e3b564-5c37-4488-9b2d-dde8b146c0ea"},"vehicle_type_id":"4","last_reported":1715454348,"current_range_meters":22400,"station_id":"ce4bgih2rcd13ifvqba0","pricing_plan_id":"cebpf4jnsgd1na2vs0mg"},{"bike_id":"ae96d84a-2b45-4811-a228-b1cb16334d8f","system_id":"levelo_inurba_marseille","lat":43.29529,"lon":5.385581,"is_reserved":false,"is_disabled":false,"rental_uris":{"android":"levelo://app?vid=ae96d84a-2b45-4811-a228-b1cb16334d8f","ios":"levelo://app?vid=ae96d84a-2b45-4811-a228-b1cb16334d8f"},"vehicle_type_id":"4","last_reported":1715454348,"current_range_meters":1200,"station_id":"ce4bgih2rcd13ifvqba0","pricing_plan_id":"cebpf4jnsgd1na2vs0mg"},{"bike_id":"0e6f03d7-dd7c-46f6-b7c6-b700c38676f9","system_id":"levelo_inurba_marseille","lat":43.29529,"lon":5.385581,"is_reserved":false,"is_disabled":false,"rental_uris":{"android":"levelo://app?vid=0e6f03d7-dd7c-46f6-b7c6-b700c38676f9","ios":"levelo://app?vid=0e6f03d7-dd7c-46f6-b7c6-b700c38676f9"},"vehicle_type_id":"4","last_reported":1715454348,"current_range_meters":22800,"station_id":"ce4bgih2rcd13ifvqba0","pricing_plan_id":"cebpf4jnsgd1na2vs0mg"},{"bike_id":"2bc6d0dc-ac9c-468f-8290-90f457d6d628","system_id":"levelo_inurba_marseille","lat":43.29529,"lon":5.385581,"is_reserved":false,"is_disabled":false,"rental_uris":{"android":"levelo://app?vid=2bc6d0dc-ac9c-468f-8290-90f457d6d628","ios":"levelo://app?vid=2bc6d0dc-ac9c-468f-8290-90f457d6d628"},"vehicle_type_id":"4","last_reported":1715454348,"current_range_meters":30400,"station_id":"ce4bgih2rcd13ifvqba0","pricing_plan_id":"cebpf4jnsgd1na2vs0mg"},{"bike_id":"e755bc51-9481-4655-8680-04ac881b9f11","system_id":"levelo_inurba_marseille","lat":43.29529,"lon":5.385581,"is_reserved":false,"is_disabled":false,"rental_uris":{"android":"levelo://app?vid=e755bc51-9481-4655-8680-04ac881b9f11","ios":"levelo://app?vid=e755bc51-9481-4655-8680-04ac881b9f11"},"vehicle_type_id":"4","last_reported":1715454348,"current_range_meters":26400,"station_id":"ce4bgih2rcd13ifvqba0","pricing_plan_id":"cebpf4jnsgd1na2vs0mg"},{"bike_id":"68fa5573-e501-44f9-956f-22dfeb619cbc","system_id":"levelo_inurba_marseille","lat":43.29529,"lon":5.385581,"is_reserved":false,"is_disabled":false,"rental_uris":{"android":"levelo://app?vid=68fa5573-e501-44f9-956f-22dfeb619cbc","ios":"levelo://app?vid=68fa5573-e501-44f9-956f-22dfeb619cbc"},"vehicle_type_id":"4","last_reported":1715454348,"current_range_meters":26400,"station_id":"ce4bgih2rcd13ifvqba0","pricing_plan_id":"cebpf4jnsgd1na2vs0mg"},{"bike_id":"2be6e83e-f03d-44dd-907e-e568e1e8253c","system_id":"levelo_inurba_marseille","lat":43.29529,"lon":5.385581,"is_reserved":false,"is_disabled":false,"rental_uris":{"android":"levelo://app?vid=2be6e83e-f03d-44dd-907e-e568e1e8253c","ios":"levelo://app?vid=2be6e83e-f03d-44dd-907e-e568e1e8253c"},"vehicle_type_id":"4","last_reported":1715454348,"current_range_meters":0,"station_id":"ce4bgih2rcd13ifvqba0","pricing_plan_id":"cebpf4jnsgd1na2vs0mg"},{"bike_id":"d6c40533-4d37-4b6b-a657-74df893a827a","system_id":"levelo_inurba_marseille","lat":43.29529,"lon":5.385581,"is_reserved":false,"is_disabled":false,"rental_uris":{"android":"levelo://app?vid=d6c40533-4d37-4b6b-a657-74df893a827a","ios":"levelo://app?vid=d6c40533-4d37-4b6b-a657-74df893a827a"},"vehicle_type_id":"4","last_reported":1715454348,"current_range_meters":0,"station_id":"ce4bgih2rcd13ifvqba0","pricing_plan_id":"cebpf4jnsgd1na2vs0mg"},{"bike_id":"e84a1a17-ce05-43fc-8da1-8b34173d8020","system_id":"levelo_inurba_marseille","lat":43.29538,"lon":5.385837,"is_reserved":false,"is_disabled":false,"rental_uris":{"android":"levelo://app?vid=e84a1a17-ce05-43fc-8da1-8b34173d8020","ios":"levelo://app?vid=e84a1a17-ce05-43fc-8da1-8b34173d8020"},"vehicle_type_id":"4","last_reported":1715454348,"current_range_meters":19200,"station_id":"","pricing_plan_id":"cebpf4jnsgd1na2vs0mg"},{"bike_id":"6c6efb91-8e56-4845-ba45-d8958b3ab57e","system_id":"levelo_inurba_marseille","lat":43.290779,"lon":5.371482,"is_reserved":false,"is_disabled":false,"rental_uris":{"android":"levelo://app?vid=6c6efb91-8e56-4845-ba45-d8958b3ab57e","ios":"levelo://app?vid=6c6efb91-8e56-4845-ba45-d8958b3ab57e"},"vehicle_type_id":"4","last_reported":1715454348,"current_range_meters":20400,"station_id":"ce4bh5p2rcd13ifvqe4g","pricing_plan_id":"cebpf4jnsgd1na2vs0mg"},{"bike_id":"5f554d1c-6bc0-40cf-813b-aca6e346ef95","system_id":"levelo_inurba_marseille","lat":43.290779,"lon":5.371482,"is_reserved":false,"is_disabled":false,"rental_uris":{"android":"levelo://app?vid=5f554d1c-6bc0-40cf-813b-aca6e346ef95","ios":"levelo://app?vid=5f554d1c-6bc0-40cf-813b-aca6e346ef95"},"vehicle_type_id":"4","last_reported":1715454348,"current_range_meters":3200,"station_id":"ce4bh5p2rcd13ifvqe4g","pricing_plan_id":"cebpf4jnsgd1na2vs0mg"},{"bike_id":"bcb1df68-583e-4517-9082-e52a63e1959e","system_id":"levelo_inurba_marseille","lat":43.290779,"lon":5.371482,"is_reserved":false,"is_disabled":false,"rental_uris":{"android":"levelo://app?vid=bcb1df68-583e-4517-9082-e52a63e1959e","ios":"levelo://app?vid=bcb1df68-583e-4517-9082-e52a63e1959e"},"vehicle_type_id":"4","last_reported":1715454348,"current_range_meters":0,"station_id":"ce4bh5p2rcd13ifvqe4g","pricing_plan_id":"cebpf4jnsgd1na2vs0mg"},{"bike_id":"75ace9e0-825a-42fa-b39d-9699ccf7be16","system_id":"levelo_inurba_marseille","lat":43.290779,"lon":5.371482,"is_reserved":false,"is_disabled":false,"rental_uris":{"android":"levelo://app?vid=75ace9e0-825a-42fa-b39d-9699ccf7be16","ios":"levelo://app?vid=75ace9e0-825a-42fa-b39d-9699ccf7be16"},"vehicle_type_id":"4","last_reported":1715454348,"current_range_meters":0,"station_id":"ce4bh5p2rcd13ifvqe4g","pricing_plan_id":"cebpf4jnsgd1na2vs0mg"},{"bike_id":"a287da1a-6be9-47c2-aec8-27f993850bda","system_id":"levelo_inurba_marseille","lat":43.290779,"lon":5.371482,"is_reserved":false,"is_disabled":false,"rental_uris":{"android":"levelo://app?vid=a287da1a-6be9-47c2-aec8-27f993850bda","ios":"levelo://app?vid=a287da1a-6be9-47c2-aec8-27f993850bda"},"vehicle_type_id":"4","last_reported":1715454348,"current_range_meters":13600,"station_id":"ce4bh5p2rcd13ifvqe4g","pricing_plan_id":"cebpf4jnsgd1na2vs0mg"},{"bike_id":"ff829939-8515-4c95-80aa-2e5c493d905e","system_id":"levelo_inurba_marseille","lat":43.290779,"lon":5.371482,"is_reserved":false,"is_disabled":false,"rental_uris":{"android":"levelo://app?vid=ff829939-8515-4c95-80aa-2e5c493d905e","ios":"levelo://app?vid=ff829939-8515-4c95-80aa-2e5c493d905e"},"vehicle_type_id":"4","last_reported":1715454348,"current_range_meters":12800,"station_id":"ce4bh5p2rcd13ifvqe4g","pricing_plan_id":"cebpf4jnsgd1na2vs0mg"},{"bike_id":"c9930954-fb2f-4ad9-ad9b-65a8144378a5","system_id":"levelo_inurba_marseille","lat":43.294153,"lon":5.386305,"is_reserved":false,"is_disabled":false,"rental_uris":{"android":"levelo://app?vid=c9930954-fb2f-4ad9-ad9b-65a8144378a5","ios":"levelo://app?vid=c9930954-fb2f-4ad9-ad9b-65a8144378a5"},"vehicle_type_id":"4","last_reported":1715454348,"current_range_meters":3600,"station_id":"ce4bh2h2rcd13ifvqdh0","pricing_plan_id":"cebpf4jnsgd1na2vs0mg"},{"bike_id":"2eaa4fb5-91f8-42b4-b91c-6eaa231d77f2","system_id":"levelo_inurba_marseille","lat":43.302008,"lon":5.394694,"is_reserved":false,"is_disabled":false,"rental_uris":{"android":"levelo://app?vid=2eaa4fb5-91f8-42b4-b91c-6eaa231d77f2","ios":"levelo://app?vid=2eaa4fb5-91f8-42b4-b91c-6eaa231d77f2"},"vehicle_type_id":"4","last_reported":1715454348,"current_range_meters":6800,"station_id":"ce4bh0p2rcd13ifvqd70","pricing_plan_id":"cebpf4jnsgd1na2vs0mg"},{"bike_id":"80b871fe-89c0-42c9-a740-5ea6644a9b71","system_id":"levelo_inurba_marseille","lat":43.293881,"lon":5.384947,"is_reserved":false,"is_disabled":false,"rental_uris":{"android":"levelo://app?vid=80b871fe-89c0-42c9-a740-5ea6644a9b71","ios":"levelo://app?vid=80b871fe-89c0-42c9-a740-5ea6644a9b71"},"vehicle_type_id":"4","last_reported":1715454348,"current_range_meters":11200,"station_id":"","pricing_plan_id":"cebpf4jnsgd1na2vs0mg"},{"bike_id":"90608a30-ffc8-437e-9929-fdce46706af0","system_id":"levelo_inurba_marseille","lat":43.290995,"lon":5.381361,"is_reserved":false,"is_disabled":false,"rental_uris":{"android":"levelo://app?vid=90608a30-ffc8-437e-9929-fdce46706af0","ios":"levelo://app?vid=90608a30-ffc8-437e-9929-fdce46706af0"},"vehicle_type_id":"4","last_reported":1715454348,"current_range_meters":800,"station_id":"ce4bh512rcd13ifvqe2g","pricing_plan_id":"cebpf4jnsgd1na2vs0mg"},{"bike_id":"9a4bc00c-3ef7-425e-ae2e-baf863d4ef9d","system_id":"levelo_inurba_marseille","lat":43.294167,"lon":5.386162,"is_reserved":false,"is_disabled":false,"rental_uris":{"android":"levelo://app?vid=9a4bc00c-3ef7-425e-ae2e-baf863d4ef9d","ios":"levelo://app?vid=9a4bc00c-3ef7-425e-ae2e-baf863d4ef9d"},"vehicle_type_id":"4","last_reported":1715454348,"current_range_meters":11600,"station_id":"","pricing_plan_id":"cebpf4jnsgd1na2vs0mg"},{"bike_id":"46ae4534-5768-4746-af62-0f759234c1d6","system_id":"levelo_inurba_marseille","lat":43.29418,"lon":5.386202,"is_reserved":false,"is_disabled":false,"rental_uris":{"android":"levelo://app?vid=46ae4534-5768-4746-af62-0f759234c1d6","ios":"levelo://app?vid=46ae4534-5768-4746-af62-0f759234c1d6"},"vehicle_type_id":"4","last_reported":1715454348,"current_range_meters":9200,"station_id":"ce4bh2h2rcd13ifvqdh0","pricing_plan_id":"cebpf4jnsgd1na2vs0mg"},{"bike_id":"346b4fc6-7bdb-453e-aa9a-47004c561df5","system_id":"levelo_inurba_marseille","lat":43.294153,"lon":5.386305,"is_reserved":false,"is_disabled":false,"rental_uris":{"android":"levelo://app?vid=346b4fc6-7bdb-453e-aa9a-47004c561df5","ios":"levelo://app?vid=346b4fc6-7bdb-453e-aa9a-47004c561df5"},"vehicle_type_id":"4","last_reported":1715454348,"current_range_meters":12800,"station_id":"ce4bh2h2rcd13ifvqdh0","pricing_plan_id":"cebpf4jnsgd1na2vs0mg"},{"bike_id":"43eed62a-91c0-4207-8307-7d65e248d1c3","system_id":"levelo_inurba_marseille","lat":43.2942,"lon":5.38627,"is_reserved":false,"is_disabled":false,"rental_uris":{"android":"levelo://app?vid=43eed62a-91c0-4207-8307-7d65e248d1c3","ios":"levelo://app?vid=43eed62a-91c0-4207-8307-7d65e248d1c3"},"vehicle_type_id":"4","last_reported":1715454348,"current_range_meters":15200,"station_id":"ce4bh2h2rcd13ifvqdh0","pricing_plan_id":"cebpf4jnsgd1na2vs0mg"},{"bike_id":"731c9249-941c-4830-a55f-e1575e1354b0","system_id":"levelo_inurba_marseille","lat":43.294153,"lon":5.386305,"is_reserved":false,"is_disabled":false,"rental_uris":{"android":"levelo://app?vid=731c9249-941c-4830-a55f-e1575e1354b0","ios":"levelo://app?vid=731c9249-941c-4830-a55f-e1575e1354b0"},"vehicle_type_id":"4","last_reported":1715454348,"current_range_meters":0,"station_id":"ce4bh2h2rcd13ifvqdh0","pricing_plan_id":"cebpf4jnsgd1na2vs0mg"},{"bike_id":"83687dfe-d269-402d-91d9-e50504e929fb","system_id":"levelo_inurba_marseille","lat":43.294153,"lon":5.386305,"is_reserved":false,"is_disabled":false,"rental_uris":{"android":"levelo://app?vid=83687dfe-d269-402d-91d9-e50504e929fb","ios":"levelo://app?vid=83687dfe-d269-402d-91d9-e50504e929fb"},"vehicle_type_id":"4","last_reported":1715454348,"current_range_meters":2800,"station_id":"ce4bh2h2rcd13ifvqdh0","pricing_plan_id":"cebpf4jnsgd1na2vs0mg"},{"bike_id":"836069a0-046b-4eb7-a204-7668a4a7d0d1","system_id":"levelo_inurba_marseille","lat":43.290327,"lon":5.375711,"is_reserved":false,"is_disabled":false,"rental_uris":{"android":"levelo://app?vid=836069a0-046b-4eb7-a204-7668a4a7d0d1","ios":"levelo://app?vid=836069a0-046b-4eb7-a204-7668a4a7d0d1"},"vehicle_type_id":"4","last_reported":1715454348,"current_range_meters":16400,"station_id":"ce4bh692rcd13ifvqe90","pricing_plan_id":"cebpf4jnsgd1na2vs0mg"},{"bike_id":"8768d6cc-de54-4b76-b217-d048216e7984","system_id":"levelo_inurba_marseille","lat":43.29414,"lon":5.3862,"is_reserved":false,"is_disabled":false,"rental_uris":{"android":"levelo://app?vid=8768d6cc-de54-4b76-b217-d048216e7984","ios":"levelo://app?vid=8768d6cc-de54-4b76-b217-d048216e7984"},"vehicle_type_id":"4","last_reported":1715454348,"current_range_meters":9200,"station_id":"ce4bh2h2rcd13ifvqdh0","pricing_plan_id":"cebpf4jnsgd1na2vs0mg"},{"bike_id":"d69987f4-01c2-4072-896f-fcef48011d79","system_id":"levelo_inurba_marseille","lat":43.289444,"lon":5.366501,"is_reserved":false,"is_disabled":false,"rental_uris":{"android":"levelo://app?vid=d69987f4-01c2-4072-896f-fcef48011d79","ios":"levelo://app?vid=d69987f4-01c2-4072-896f-fcef48011d79"},"vehicle_type_id":"4","last_reported":1715454348,"current_range_meters":21200,"station_id":"","pricing_plan_id":"cebpf4jnsgd1na2vs0mg"},{"bike_id":"010d22b6-89c0-4662-8fc1-a2654b997cb3","system_id":"levelo_inurba_marseille","lat":43.28944,"lon":5.36635,"is_reserved":false,"is_disabled":false,"rental_uris":{"android":"levelo://app?vid=010d22b6-89c0-4662-8fc1-a2654b997cb3","ios":"levelo://app?vid=010d22b6-89c0-4662-8fc1-a2654b997cb3"},"vehicle_type_id":"4","last_reported":1715454348,"current_range_meters":4000,"station_id":"ce4bhap2rcd13ifvqek0","pricing_plan_id":"cebpf4jnsgd1na2vs0mg"},{"bike_id":"50474e97-2a63-404f-9bb0-798faeb76cf0","system_id":"levelo_inurba_marseille","lat":43.29423,"lon":5.386387,"is_reserved":false,"is_disabled":false,"rental_uris":{"android":"levelo://app?vid=50474e97-2a63-404f-9bb0-798faeb76cf0","ios":"levelo://app?vid=50474e97-2a63-404f-9bb0-798faeb76cf0"},"vehicle_type_id":"4","last_reported":1715454348,"current_range_meters":12400,"station_id":"ce4bh2h2rcd13ifvqdh0","pricing_plan_id":"cebpf4jnsgd1na2vs0mg"},{"bike_id":"39c7d860-7561-4d81-9282-fd90f6f8dbd2","system_id":"levelo_inurba_marseille","lat":43.294121,"lon":5.386193,"is_reserved":false,"is_disabled":false,"rental_uris":{"android":"levelo://app?vid=39c7d860-7561-4d81-9282-fd90f6f8dbd2","ios":"levelo://app?vid=39c7d860-7561-4d81-9282-fd90f6f8dbd2"},"vehicle_type_id":"4","last_reported":1715454348,"current_range_meters":0,"station_id":"ce4bh2h2rcd13ifvqdh0","pricing_plan_id":"cebpf4jnsgd1na2vs0mg"},{"bike_id":"76199be9-3b0f-440b-89ef-214f92f0017e","system_id":"levelo_inurba_marseille","lat":43.294153,"lon":5.386305,"is_reserved":false,"is_disabled":false,"rental_uris":{"android":"levelo://app?vid=76199be9-3b0f-440b-89ef-214f92f0017e","ios":"levelo://app?vid=76199be9-3b0f-440b-89ef-214f92f0017e"},"vehicle_type_id":"4","last_reported":1715454348,"current_range_meters":2800,"station_id":"ce4bh2h2rcd13ifvqdh0","pricing_plan_id":"cebpf4jnsgd1na2vs0mg"},{"bike_id":"d0a1318b-a02a-41b1-8542-7387bfb6b7cd","system_id":"levelo_inurba_marseille","lat":43.28943,"lon":5.366382,"is_reserved":false,"is_disabled":false,"rental_uris":{"android":"levelo://app?vid=d0a1318b-a02a-41b1-8542-7387bfb6b7cd","ios":"levelo://app?vid=d0a1318b-a02a-41b1-8542-7387bfb6b7cd"},"vehicle_type_id":"4","last_reported":1715454348,"current_range_meters":3200,"station_id":"","pricing_plan_id":"cebpf4jnsgd1na2vs0mg"},{"bike_id":"e284681a-1bdf-4a45-8492-369ab878f748","system_id":"levelo_inurba_marseille","lat":43.29414,"lon":5.386244,"is_reserved":false,"is_disabled":false,"rental_uris":{"android":"levelo://app?vid=e284681a-1bdf-4a45-8492-369ab878f748","ios":"levelo://app?vid=e284681a-1bdf-4a45-8492-369ab878f748"},"vehicle_type_id":"4","last_reported":1715454348,"current_range_meters":3200,"station_id":"ce4bh2h2rcd13ifvqdh0","pricing_plan_id":"cebpf4jnsgd1na2vs0mg"},