{"last_updated":1744196896,"ttl":60,"version":"2.2","data":{"bikes":[{"bike_id":"0fbdf58d-4917-4d24-8b4b-9c66b7b96e08","system_id":"levelo_inurba_marseille","lat":43.31752,"lon":5.39823,"is_reserved":false,"is_disabled":false,"rental_uris":{"android":"levelo://app?vid=0fbdf58d-4917-4d24-8b4b-9c66b7b96e08","ios":"levelo://app?vid=0fbdf58d-4917-4d24-8b4b-9c66b7b96e08"},"vehicle_type_id":"4","last_reported":1744196896,"current_range_meters":2800,"station_id":"","pricing_plan_id":"cebpf4jnsgd1na2vs0mg"},{"bike_id":"74268a1b-3171-4102-8965-1152e12aba3e","system_id":"levelo_inurba_marseille","lat":43.27679,"lon":5.38879,"is_reserved":false,"is_disabled":false,"rental_uris":{"android":"levelo://app?vid=74268a1b-3171-4102-8965-1152e12aba3e","ios":"levelo://app?vid=74268a1b-3171-4102-8965-1152e12aba3e"},"vehicle_type_id":"4","last_reported":1744196896,"current_range_meters":2800,"station_id":"ce4bhi12rcd13ifvqfo0","pricing_plan_id":"cebpf4jnsgd1na2vs0mg"},{"bike_id":"b2f5cc91-4e26-4ab6-9541-eb3a9527bd37","system_id":"levelo_inurba_marseille","lat":43.25932,"lon":5.40913,"is_reserved":false,"is_disabled":true,"rental_uris":{"android":"levelo://app?vid=b2f5cc91-4e26-4ab6-9541-eb3a9527bd37","ios":"levelo://app?vid=b2f5cc91-4e26-4ab6-9541-eb3a9527bd37"},"vehicle_type_id":"4","last_reported":1744196896,"current_range_meters":3200,"station_id":"ce4bhm92rcd13ifvqglg","pricing_plan_id":"cebpf4jnsgd1na2vs0mg"},{"bike_id":"3b5d932c-bc0b-440d-a1c6-6aa00212d7f9","system_id":"levelo_inurba_marseille","lat":43.29275,"lon":5.36849,"is_reserved":false,"is_disabled":false,"rental_uris":{"android":"levelo://app?vid=3b5d932c-bc0b-440d-a1c6-6aa00212d7f9","ios":"levelo://app?vid=3b5d932c-bc0b-440d-a1c6-6aa00212d7f9"},"vehicle_type_id":"4","last_reported":1744196896,"current_range_meters":3200,"station_id":"ce4bhbp2rcd13ifvqesg","pricing_plan_id":"cebpf4jnsgd1na2vs0mg"},{"bike_id":"74410253-6cf7-49d9-acfc-4728a4655563","system_id":"levelo_inurba_marseille","lat":43.28847,"lon":5.35836,"is_reserved":false,"is_disabled":false,"rental_uris":{"android":"levelo://app?vid=74410253-6cf7-49d9-acfc-4728a4655563","ios":"levelo://app?vid=74410253-6cf7-49d9-acfc-4728a4655563"},"vehicle_type_id":"4","last_reported":1744196896,"current_range_meters":3600,"station_id":"ce4bhb12rcd13ifvqem0","pricing_plan_id":"cebpf4jnsgd1na2vs0mg"},{"bike_id":"aa4b60d4-da31-4b11-9f61-1d2a7fb8cd99","system_id":"levelo_inurba_marseille","lat":43.30806,"lon":5.38147,"is_reserved":false,"is_disabled":true,"rental_uris":{"android":"levelo://app?vid=aa4b60d4-da31-4b11-9f61-1d2a7fb8cd99","ios":"levelo://app?vid=aa4b60d4-da31-4b11-9f61-1d2a7fb8cd99"},"vehicle_type_id":"4","last_reported":1744196896,"current_range_meters":3600,"station_id":"ce4bgt12rcd13ifvqce0","pricing_plan_id":"cebpf4jnsgd1na2vs0mg"},{"bike_id":"ecef8e9e-03dc-4612-b74e-b978f92e2873","system_id":"levelo_inurba_marseille","lat":43.301,"lon":5.39133,"is_reserved":false,"is_disabled":false,"rental_uris":{"android":"levelo://app?vid=ecef8e9e-03dc-4612-b74e-b978f92e2873","ios":"levelo://app?vid=ecef8e9e-03dc-4612-b74e-b978f92e2873"},"vehicle_type_id":"4","last_reported":1744196896,"current_range_meters":4000,"station_id":"ce4bh192rcd13ifvqdb0","pricing_plan_id":"cebpf4jnsgd1na2vs0mg"},{"bike_id":"f39be6f5-2f69-4c37-b021-559d20b299a4","system_id":"levelo_inurba_marseille","lat":43.300114,"lon":5.376556,"is_reserved":false,"is_disabled":false,"rental_uris":{"android":"levelo://app?vid=f39be6f5-2f69-4c37-b021-559d20b299a4","ios":"levelo://app?vid=f39be6f5-2f69-4c37-b021-559d20b299a4"},"vehicle_type_id":"4","last_reported":1744196896,"current_range_meters":4000,"station_id":"","pricing_plan_id":"cebpf4jnsgd1na2vs0mg"},{"bike_id":"04ea21db-9998-4cdc-8b93-e4b23b0ed540","system_id":"levelo_inurba_marseille","lat":43.2613,"lon":5.39585,"is_reserved":false,"is_disabled":false,"rental_uris":{"android":"levelo://app?vid=04ea21db-9998-4cdc-8b93-e4b23b0ed540","ios":"levelo://app?vid=04ea21db-9998-4cdc-8b93-e4b23b0ed540"},"vehicle_type_id":"4","last_reported":1744196896,"current_range_meters":4000,"station_id":"","pricing_plan_id":"cebpf4jnsgd1na2vs0mg"},{"bike_id":"851dd422-a2d9-41b9-9c1e-f44e7aae9209","system_id":"levelo_inurba_marseille","lat":43.28458,"lon":5.35898,"is_reserved":false,"is_disabled":false,"rental_uris":{"android":"levelo://app?vid=851dd422-a2d9-41b9-9c1e-f44e7aae9209","ios":"levelo://app?vid=851dd422-a2d9-41b9-9c1e-f44e7aae9209"},"vehicle_type_id":"4","last_reported":1744196896,"current_range_meters":4000,"station_id":"ce4bhah2rcd13ifvqei0","pricing_plan_id":"cebpf4jnsgd1na2vs0mg"},{"bike_id":"1f44fe96-4ae9-49b0-9313-5ff59711e743","system_id":"levelo_inurba_marseille","lat":43.28708,"lon":5.39995,"is_reserved":false,"is_disabled":false,"rental_uris":{"android":"levelo://app?vid=1f44fe96-4ae9-49b0-9313-5ff59711e743","ios":"levelo://app?vid=1f44fe96-4ae9-49b0-9313-5ff59711e743"},"vehicle_type_id":"4","last_reported":1744196896,"current_range_meters":4800,"station_id":"ce4bho92rcd13ifvqh3g","pricing_plan_id":"cebpf4jnsgd1na2vs0mg"},{"bike_id":"3576b946-70b3-456f-a60a-d98e227f015c","system_id":"levelo_inurba_marseille","lat":43.30072,"lon":5.38271,"is_reserved":false,"is_disabled":false,"rental_uris":{"android":"levelo://app?vid=3576b946-70b3-456f-a60a-d98e227f015c","ios":"levelo://app?vid=3576b946-70b3-456f-a60a-d98e227f015c"},"vehicle_type_id":"4","last_reported":1744196896,"current_range_meters":4800,"station_id":"","pricing_plan_id":"cebpf4jnsgd1na2vs0mg"},{"bike_id":"b0e70e48-f0ae-4e70-acf1-d92ac7d0b960","system_id":"levelo_inurba_marseille","lat":43.23134,"lon":5.43732,"is_reserved":false,"is_disabled":false,"rental_uris":{"android":"levelo://app?vid=b0e70e48-f0ae-4e70-acf1-d92ac7d0b960","ios":"levelo://app?vid=b0e70e48-f0ae-4e70-acf1-d92ac7d0b960"},"vehicle_type_id":"4","last_reported":1744196896,"current_range_meters":4800,"station_id":"ce4bhmp2rcd13ifvqgog","pricing_plan_id":"cebpf4jnsgd1na2vs0mg"},{"bike_id":"4f5d4e14-c889-4f44-8462-3ae4bfffd43c","system_id":"levelo_inurba_marseille","lat":43.231551,"lon":5.437135,"is_reserved":false,"is_disabled":false,"rental_uris":{"android":"levelo://app?vid=4f5d4e14-c889-4f44-8462-3ae4bfffd43c","ios":"levelo://app?vid=4f5d4e14-c889-4f44-8462-3ae4bfffd43c"},"vehicle_type_id":"4","last_reported":1744196896,"current_range_meters":4800,"station_id":"ce4bhmp2rcd13ifvqgog","pricing_plan_id":"cebpf4jnsgd1na2vs0mg"},{"bike_id":"bdb9d501-6ee2-4cc5-a6a6-1a5f38c5d5d6","system_id":"levelo_inurba_marseille","lat":43.29421,"lon":5.38626,"is_reserved":false,"is_disabled":false,"rental_uris":{"android":"levelo://app?vid=bdb9d501-6ee2-4cc5-a6a6-1a5f38c5d5d6","ios":"levelo://app?vid=bdb9d501-6ee2-4cc5-a6a6-1a5f38c5d5d6"},"vehicle_type_id":"4","last_reported":1744196896,"current_range_meters":4800,"station_id":"ce4bh2h2rcd13ifvqdh0","pricing_plan_id":"cebpf4jnsgd1na2vs0mg"},{"bike_id":"456b79bb-81b6-42d9-a52b-1ca6c839f098","system_id":"levelo_inurba_marseille","lat":43.30417,"lon":5.41281,"is_reserved":false,"is_disabled":true,"rental_uris":{"android":"levelo://app?vid=456b79bb-81b6-42d9-a52b-1ca6c839f098","ios":"levelo://app?vid=456b79bb-81b6-42d9-a52b-1ca6c839f098"},"vehicle_type_id":"4","last_reported":1744196896,"current_range_meters":4800,"station_id":"ce4bhop2rcd13ifvqh8g","pricing_plan_id":"cebpf4jnsgd1na2vs0mg"},{"bike_id":"2e9000dc-6400-4918-a994-dd60039ca96d","system_id":"levelo_inurba_marseille","lat":43.31967,"lon":5.38085,"is_reserved":false,"is_disabled":true,"rental_uris":{"android":"levelo://app?vid=2e9000dc-6400-4918-a994-dd60039ca96d","ios":"levelo://app?vid=2e9000dc-6400-4918-a994-dd60039ca96d"},"vehicle_type_id":"4","last_reported":1744196896,"current_range_meters":4800,"station_id":"","pricing_plan_id":"cebpf4jnsgd1na2vs0mg"},{"bike_id":"472104a1-013f-4b9b-8a7c-05adf4e752b6","system_id":"levelo_inurba_marseille","lat":43.28153,"lon":5.42647,"is_reserved":false,"is_disabled":false,"rental_uris":{"android":"levelo://app?vid=472104a1-013f-4b9b-8a7c-05adf4e752b6","ios":"levelo://app?vid=472104a1-013f-4b9b-8a7c-05adf4e752b6"},"vehicle_type_id":"4","last_reported":1744196896,"current_range_meters":4800,"station_id":"ce4bhnh2rcd13ifvqgug","pricing_plan_id":"cebpf4jnsgd1na2vs0mg"},{"bike_id":"96ba2d0d-f508-4904-b9d2-5268717d4af9","system_id":"levelo_inurba_marseille","lat":43.28424,"lon":5.34981,"is_reserved":false,"is_disabled":false,"rental_uris":{"android":"levelo://app?vid=96ba2d0d-f508-4904-b9d2-5268717d4af9","ios":"levelo://app?vid=96ba2d0d-f508-4904-b9d2-5268717d4af9"},"vehicle_type_id":"4","last_reported":1744196896,"current_range_meters":5600,"station_id":"ce4bhbh2rcd13ifvqepg","pricing_plan_id":"cebpf4jnsgd1na2vs0mg"},{"bike_id":"61faeab7-d3b1-42ea-8185-a6bb834269b2","system_id":"levelo_inurba_marseille","lat":43.27124,"lon":5.41511,"is_reserved":false,"is_disabled":false,"rental_uris":{"android":"levelo://app?vid=61faeab7-d3b1-42ea-8185-a6bb834269b2","ios":"levelo://app?vid=61faeab7-d3b1-42ea-8185-a6bb834269b2"},"vehicle_type_id":"4","last_reported":1744196896,"current_range_meters":5600,"station_id":"","pricing_plan_id":"cebpf4jnsgd1na2vs0mg"},{"bike_id":"3dacb78c-23e8-43c0-b367-cfdc8b13b4d5","system_id":"levelo_inurba_marseille","lat":43.25923,"lon":5.40886,"is_reserved":false,"is_disabled":false,"rental_uris":{"android":"levelo://app?vid=3dacb78c-23e8-43c0-b367-cfdc8b13b4d5","ios":"levelo://app?vid=3dacb78c-23e8-43c0-b367-cfdc8b13b4d5"},"vehicle_type_id":"4","last_reported":1744196896,"current_range_meters":5600,"station_id":"ce4bhm92rcd13ifvqglg","pricing_plan_id":"cebpf4jnsgd1na2vs0mg"},{"bike_id":"82f28cf6-556c-431d-a12b-bd3ce5fc2f28","system_id":"levelo_inurba_marseille","lat":43.27552,"lon":5.37806,"is_reserved":false,"is_disabled":false,"rental_uris":{"android":"levelo://app?vid=82f28cf6-556c-431d-a12b-bd3ce5fc2f28","ios":"levelo://app?vid=82f28cf6-556c-431d-a12b-bd3ce5fc2f28"},"vehicle_type_id":"4","last_reported":1744196896,"current_range_meters":6000,"station_id":"","pricing_plan_id":"cebpf4jnsgd1na2vs0mg"},{"bike_id":"a42b4344-b752-43c1-b161-a32faebe2c6f","system_id":"levelo_inurba_marseille","lat":43.29042,"lon":5.39981,"is_reserved":false,"is_disabled":false,"rental_uris":{"android":"levelo://app?vid=a42b4344-b752-43c1-b161-a32faebe2c6f","ios":"levelo://app?vid=a42b4344-b752-43c1-b161-a32faebe2c6f"},"vehicle_type_id":"4","last_reported":1744196896,"current_range_meters":6400,"station_id":"ce4bh392rcd13ifvqdm0","pricing_plan_id":"cebpf4jnsgd1na2vs0mg"},{"bike_id":"70810d3e-9936-4863-b211-84f880613e88","system_id":"levelo_inurba_marseille","lat":43.312862,"lon":5.37323,"is_reserved":false,"is_disabled":false,"rental_uris":{"android":"levelo://app?vid=70810d3e-9936-4863-b211-84f880613e88","ios":"levelo://app?vid=70810d3e-9936-4863-b211-84f880613e88"},"vehicle_type_id":"4","last_reported":1744196896,"current_range_meters":6800,"station_id":"","pricing_plan_id":"cebpf4jnsgd1na2vs0mg"},{"bike_id":"ec41b842-c84f-4ab1-894c-fc6101e00efb","system_id":"levelo_inurba_marseille","lat":43.31723,"lon":5.4034,"is_reserved":false,"is_disabled":false,"rental_uris":{"android":"levelo://app?vid=ec41b842-c84f-4ab1-894c-fc6101e00efb","ios":"levelo://app?vid=ec41b842-c84f-4ab1-894c-fc6101e00efb"},"vehicle_type_id":"4","last_reported":1744196896,"current_range_meters":6800,"station_id":"","pricing_plan_id":"cebpf4jnsgd1na2vs0mg"},{"bike_id":"5a5e8f1a-bec8-4f9b-9022-ff6006b6bdf3","system_id":"levelo_inurba_marseille","lat":43.26244,"lon":5.40401,"is_reserved":false,"is_disabled":false,"rental_uris":{"android":"levelo://app?vid=5a5e8f1a-bec8-4f9b-9022-ff6006b6bdf3","ios":"levelo://app?vid=5a5e8f1a-bec8-4f9b-9022-ff6006b6bdf3"},"vehicle_type_id":"4","last_reported":1744196896,"current_range_meters":7200,"station_id":"ce4bhmh2rcd13ifvqgmg","pricing_plan_id":"cebpf4jnsgd1na2vs0mg"},{"bike_id":"3d0cae43-5b75-4aac-b7cb-471ce1151dd5","system_id":"levelo_inurba_marseille","lat":43.33041,"lon":5.39534,"is_reserved":false,"is_disabled":false,"rental_uris":{"android":"levelo://app?vid=3d0cae43-5b75-4aac-b7cb-471ce1151dd5","ios":"levelo://app?vid=3d0cae43-5b75-4aac-b7cb-471ce1151dd5"},"vehicle_type_id":"4","last_reported":1744196896,"current_range_meters":7200,"station_id":"","pricing_plan_id":"cebpf4jnsgd1na2vs0mg"},{"bike_id":"b20e9b96-9326-44a6-a232-b0c3da687017","system_id":"levelo_inurba_marseille","lat":43.30756,"lon":5.42435,"is_reserved":false,"is_disabled":false,"rental_uris":{"android":"levelo://app?vid=b20e9b96-9326-44a6-a232-b0c3da687017","ios":"levelo://app?vid=b20e9b96-9326-44a6-a232-b0c3da687017"},"vehicle_type_id":"4","last_reported":1744196896,"current_range_meters":8000,"station_id":"st_cvj6ca6bvosntc0bfgr0","pricing_plan_id":"cebpf4jnsgd1na2vs0mg"},{"bike_id":"68d1cc33-0218-451e-8e10-d32225c21263","system_id":"levelo_inurba_marseille","lat":43.23162,"lon":5.43701,"is_reserved":false,"is_disabled":true,"rental_uris":{"android":"levelo://app?vid=68d1cc33-0218-451e-8e10-d32225c21263","ios":"levelo://app?vid=68d1cc33-0218-451e-8e10-d32225c21263"},"vehicle_type_id":"4","last_reported":1744196896,"current_range_meters":8000,"station_id":"ce4bhmp2rcd13ifvqgog","pricing_plan_id":"cebpf4jnsgd1na2vs0mg"},{"bike_id":"5e6ad826-38da-4531-b4ba-2eda8622ede3","system_id":"levelo_inurba_marseille","lat":43.3109,"lon":5.40465,"is_reserved":false,"is_disabled":false,"rental_uris":{"android":"levelo://app?vid=5e6ad826-38da-4531-b4ba-2eda8622ede3","ios":"levelo://app?vid=5e6ad826-38da-4531-b4ba-2eda8622ede3"},"vehicle_type_id":"4","last_reported":1744196896,"current_range_meters":8000,"station_id":"","pricing_plan_id":"cebpf4jnsgd1na2vs0mg"},{"bike_id":"23babc0c-2473-4b4c-ad96-508f8f2db285","system_id":"levelo_inurba_marseille","lat":43.28427,"lon":5.35013,"is_reserved":false,"is_disabled":false,"rental_uris":{"android":"levelo://app?vid=23babc0c-2473-4b4c-ad96-508f8f2db285","ios":"levelo://app?vid=23babc0c-2473-4b4c-ad96-508f8f2db285"},"vehicle_type_id":"4","last_reported":1744196896,"current_range_meters":8400,"station_id":"ce4bhbh2rcd13ifvqepg","pricing_plan_id":"cebpf4jnsgd1na2vs0mg"},{"bike_id":"0aa02c49-cbb3-4907-a588-f754056f3ba8","system_id":"levelo_inurba_marseille","lat":43.30784,"lon":5.38164,"is_reserved":false,"is_disabled":true,"rental_uris":{"android":"levelo://app?vid=0aa02c49-cbb3-4907-a588-f754056f3ba8","ios":"levelo://app?vid=0aa02c49-cbb3-4907-a588-f754056f3ba8"},"vehicle_type_id":"4","last_reported":1744196896,"current_range_meters":8400,"station_id":"ce4bgt12rcd13ifvqce0","pricing_plan_id":"cebpf4jnsgd1na2vs0mg"},{"bike_id":"602d6e81-c941-4bd5-9baf-f21dc7a73734","system_id":"levelo_inurba_marseille","lat":43.30148,"lon":5.3988,"is_reserved":false,"is_disabled":false,"rental_uris":{"android":"levelo://app?vid=602d6e81-c941-4bd5-9baf-f21dc7a73734","ios":"levelo://app?vid=602d6e81-c941-4bd5-9baf-f21dc7a73734"},"vehicle_type_id":"4","last_reported":1744196896,"current_range_meters":8400,"station_id":"ce4bh0h2rcd13ifvqd40","pricing_plan_id":"cebpf4jnsgd1na2vs0mg"},{"bike_id":"2316a27d-e8bc-4c82-90fe-4120ccb0ef4b","system_id":"levelo_inurba_marseille","lat":43.23152,"lon":5.43712,"is_reserved":false,"is_disabled":false,"rental_uris":{"android":"levelo://app?vid=2316a27d-e8bc-4c82-90fe-4120ccb0ef4b","ios":"levelo://app?vid=2316a27d-e8bc-4c82-90fe-4120ccb0ef4b"},"vehicle_type_id":"4","last_reported":1744196896,"current_range_meters":8400,"station_id":"ce4bhmp2rcd13ifvqgog","pricing_plan_id":"cebpf4jnsgd1na2vs0mg"},{"bike_id":"e0ddec79-bccf-492b-bfd6-46048fa2475d","system_id":"levelo_inurba_marseille","lat":43.32365,"lon":5.36774,"is_reserved":false,"is_disabled":false,"rental_uris":{"android":"levelo://app?vid=e0ddec79-bccf-492b-bfd6-46048fa2475d","ios":"levelo://app?vid=e0ddec79-bccf-492b-bfd6-46048fa2475d"},"vehicle_type_id":"4","last_reported":1744196896,"current_range_meters":8400,"station_id":"ce4bhsh2rcd13ifvqi2g","pricing_plan_id":"cebpf4jnsgd1na2vs0mg"},{"bike_id":"db157b82-99fa-4e55-9316-8771c25cd2ac","system_id":"levelo_inurba_marseille","lat":43.2527,"lon":5.40249,"is_reserved":false,"is_disabled":false,"rental_uris":{"android":"levelo://app?vid=db157b82-99fa-4e55-9316-8771c25cd2ac","ios":"levelo://app?vid=db157b82-99fa-4e55-9316-8771c25cd2ac"},"vehicle_type_id":"4","last_reported":1744196896,"current_range_meters":8400,"station_id":"","pricing_plan_id":"cebpf4jnsgd1na2vs0mg"},{"bike_id":"1ca7d0c4-b7aa-4350-ad9f-4e24c2ba029a","system_id":"levelo_inurba_marseille","lat":43.30379,"lon":5.42484,"is_reserved":false,"is_disabled":true,"rental_uris":{"android":"levelo://app?vid=1ca7d0c4-b7aa-4350-ad9f-4e24c2ba029a","ios":"levelo://app?vid=1ca7d0c4-b7aa-4350-ad9f-4e24c2ba029a"},"vehicle_type_id":"4","last_reported":1744196896,"current_range_meters":8800,"station_id":"ce4bhoh2rcd13ifvqh6g","pricing_plan_id":"cebpf4jnsgd1na2vs0mg"},{"bike_id":"a566336b-6133-47a6-ad7f-74f32862e29a","system_id":"levelo_inurba_marseille","lat":43.303695,"lon":5.425022,"is_reserved":false,"is_disabled":false,"rental_uris":{"android":"levelo://app?vid=a566336b-6133-47a6-ad7f-74f32862e29a","ios":"levelo://app?vid=a566336b-6133-47a6-ad7f-74f32862e29a"},"vehicle_type_id":"4","last_reported":1744196896,"current_range_meters":8800,"station_id":"ce4bhoh2rcd13ifvqh6g","pricing_plan_id":"cebpf4jnsgd1na2vs0mg"},{"bike_id":"93dc05e7-18be-495e-81f8-226ded3af89f","system_id":"levelo_inurba_marseille","lat":43.29787,"lon":5.37661,"is_reserved":false,"is_disabled":true,"rental_uris":{"android":"levelo://app?vid=93dc05e7-18be-495e-81f8-226ded3af89f","ios":"levelo://app?vid=93dc05e7-18be-495e-81f8-226ded3af89f"},"vehicle_type_id":"4","last_reported":1744196896,"current_range_meters":8800,"station_id":"ce4bgkh2rcd13ifvqbl0","pricing_plan_id":"cebpf4jnsgd1na2vs0mg"},{"bike_id":"08f9c0c8-8b33-4578-8a03-20f44d582241","system_id":"levelo_inurba_marseille","lat":43.30617,"lon":5.37152,"is_reserved":false,"is_disabled":false,"rental_uris":{"android":"levelo://app?vid=08f9c0c8-8b33-4578-8a03-20f44d582241","ios":"levelo://app?vid=08f9c0c8-8b33-4578-8a03-20f44d582241"},"vehicle_type_id":"4","last_reported":1744196896,"current_range_meters":8800,"station_id":"","pricing_plan_id":"cebpf4jnsgd1na2vs0mg"},{"bike_id":"feca3d9e-12e9-4a3a-8f8a-211aa953b3fa","system_id":"levelo_inurba_marseille","lat":43.29322,"lon":5.41157,"is_reserved":false,"is_disabled":false,"rental_uris":{"android":"levelo://app?vid=feca3d9e-12e9-4a3a-8f8a-211aa953b3fa","ios":"levelo://app?vid=feca3d9e-12e9-4a3a-8f8a-211aa953b3fa"},"vehicle_type_id":"4","last_reported":1744196896,"current_range_meters":8800,"station_id":"","pricing_plan_id":"cebpf4jnsgd1na2vs0mg"},{"bike_id":"5a227ec7-0e73-4162-be29-601991d70eb1","system_id":"levelo_inurba_marseille","lat":43.29537,"lon":5.38566,"is_reserved":false,"is_disabled":false,"rental_uris":{"android":"levelo://app?vid=5a227ec7-0e73-4162-be29-601991d70eb1","ios":"levelo://app?vid=5a227ec7-0e73-4162-be29-601991d70eb1"},"vehicle_type_id":"4","last_reported":1744196896,"current_range_meters":8800,"station_id":"ce4bgih2rcd13ifvqba0","pricing_plan_id":"cebpf4jnsgd1na2vs0mg"},{"bike_id":"ad212075-aa88-4f52-8b77-40fff53ff563","system_id":"levelo_inurba_marseille","lat":43.30383,"lon":5.42498,"is_reserved":false,"is_disabled":false,"rental_uris":{"android":"levelo://app?vid=ad212075-aa88-4f52-8b77-40fff53ff563","ios":"levelo://app?vid=ad212075-aa88-4f52-8b77-40fff53ff563"},"vehicle_type_id":"4","last_reported":1744196896,"current_range_meters":8800,"station_id":"ce4bhoh2rcd13ifvqh6g","pricing_plan_id":"cebpf4jnsgd1na2vs0mg"},{"bike_id":"80663e12-6b64-446d-88c9-20255bde1a8a","system_id":"levelo_inurba_marseille","lat":43.30895,"lon":5.39637,"is_reserved":false,"is_disabled":true,"rental_uris":{"android":"levelo://app?vid=80663e12-6b64-446d-88c9-20255bde1a8a","ios":"levelo://app?vid=80663e12-6b64-446d-88c9-20255bde1a8a"},"vehicle_type_id":"4","last_reported":1744196896,"current_range_meters":9200,"station_id":"ce4bh012rcd13ifvqcv0","pricing_plan_id":"cebpf4jnsgd1na2vs0mg"},{"bike_id":"3e9d0bdb-071d-4fee-8efc-b74db3241ca2","system_id":"levelo_inurba_marseille","lat":43.295214,"lon":5.375004,"is_reserved":false,"is_disabled":false,"rental_uris":{"android":"levelo://app?vid=3e9d0bdb-071d-4fee-8efc-b74db3241ca2","ios":"levelo://app?vid=3e9d0bdb-071d-4fee-8efc-b74db3241ca2"},"vehicle_type_id":"4","last_reported":1744196896,"current_range_meters":9200,"station_id":"ce4bgkp2rcd13ifvqbmg","pricing_plan_id":"cebpf4jnsgd1na2vs0mg"},{"bike_id":"b86eab0d-277a-44aa-b0d6-f413fa90aac6","system_id":"levelo_inurba_marseille","lat":43.28411,"lon":5.37523,"is_reserved":false,"is_disabled":true,"rental_uris":{"android":"levelo://app?vid=b86eab0d-277a-44aa-b0d6-f413fa90aac6","ios":"levelo://app?vid=b86eab0d-277a-44aa-b0d6-f413fa90aac6"},"vehicle_type_id":"4","last_reported":1744196896,"current_range_meters":9200,"station_id":"ce4bh412rcd13ifvqds0","pricing_plan_id":"cebpf4jnsgd1na2vs0mg"},{"bike_id":"b397701f-0d3d-44bf-ab3e-3ccc7e74fb2e","system_id":"levelo_inurba_marseille","lat":43.26444,"lon":5.42285,"is_reserved":false,"is_disabled":false,"rental_uris":{"android":"levelo://app?vid=b397701f-0d3d-44bf-ab3e-3ccc7e74fb2e","ios":"levelo://app?vid=b397701f-0d3d-44bf-ab3e-3ccc7e74fb2e"},"vehicle_type_id":"4","last_reported":1744196896,"current_range_meters":9200,"station_id":"","pricing_plan_id":"cebpf4jnsgd1na2vs0mg"},{"bike_id":"44c3b9c5-8f3a-4630-8ad4-2508eb7a1c37","system_id":"levelo_inurba_marseille","lat":43.28271,"lon":5.3507,"is_reserved":false,"is_disabled":false,"rental_uris":{"android":"levelo://app?vid=44c3b9c5-8f3a-4630-8ad4-2508eb7a1c37","ios":"levelo://app?vid=44c3b9c5-8f3a-4630-8ad4-2508eb7a1c37"},"vehicle_type_id":"4","last_reported":1744196896,"current_range_meters":9600,"station_id":"ce4bhbp2rcd13ifvqerg","pricing_plan_id":"cebpf4jnsgd1na2vs0mg"},{"bike_id":"17e34b06-5626-424e-bfe1-9028ffc02380","system_id":"levelo_inurba_marseille","lat":43.28937,"lon":5.36393,"is_reserved":false,"is_disabled":false,"rental_uris":{"android":"levelo://app?vid=17e34b06-5626-424e-bfe1-9028ffc02380","ios":"levelo://app?vid=17e34b06-5626-424e-bfe1-9028ffc02380"},"vehicle_type_id":"4","last_reported":1744196896,"current_range_meters":10000,"station_id":"ce4bhc92rcd13ifvqetg","pricing_plan_id":"cebpf4jnsgd1na2vs0mg"},{"bike_id":"894923f7-24a8-4f05-8d0c-1af4b4d3211a","system_id":"levelo_inurba_marseille","lat":43.30313,"lon":5.39214,"is_reserved":false,"is_disabled":true,"rental_uris":{"android":"levelo://app?vid=894923f7-24a8-4f05-8d0c-1af4b4d3211a","ios":"levelo://app?vid=894923f7-24a8-4f05-8d0c-1af4b4d3211a"},"vehicle_type_id":"4","last_reported":1744196896,"current_range_meters":10000,"station_id":"ce4bgkh2rcd13ifvqbk0","pricing_plan_id":"cebpf4jnsgd1na2vs0mg"},{"bike_id":"ce0fd5b8-478f-4f08-869c-935a7a4c659f","system_id":"levelo_inurba_marseille","lat":43.33286,"lon":5.3797,"is_reserved":false,"is_disabled":false,"rental_uris":{"android":"levelo://app?vid=ce0fd5b8-478f-4f08-869c-935a7a4c659f","ios":"levelo://app?vid=ce0fd5b8-478f-4f08-869c-935a7a4c659f"},"vehicle_type_id":"4","last_reported":1744196896,"current_range_meters":10000,"station_id":"","pricing_plan_id":"cebpf4jnsgd1na2vs0mg"},{"bike_id":"e24c6fd3-f9cb-40c7-9e57-dd2c20540e9b","system_id":"levelo_inurba_marseille","lat":43.31732,"lon":5.42389,"is_reserved":false,"is_disabled":false,"rental_uris":{"android":"levelo://app?vid=e24c6fd3-f9cb-40c7-9e57-dd2c20540e9b","ios":"levelo://app?vid=e24c6fd3-f9cb-40c7-9e57-dd2c20540e9b"},"vehicle_type_id":"4","last_reported":1744196896,"current_range_meters":10000,"station_id":"ce4bhp92rcd13ifvqhbg","pricing_plan_id":"cebpf4jnsgd1na2vs0mg"},{"bike_id":"58e8190f-cded-4bd0-8488-a02552cd7e3b","system_id":"levelo_inurba_marseille","lat":43.30544,"lon":5.36523,"is_reserved":false,"is_disabled":false,"rental_uris":{"android":"levelo://app?vid=58e8190f-cded-4bd0-8488-a02552cd7e3b","ios":"levelo://app?vid=58e8190f-cded-4bd0-8488-a02552cd7e3b"},"vehicle_type_id":"4","last_reported":1744196896,"current_range_meters":10000,"station_id":"ce4bgs12rcd13ifvqcag","pricing_plan_id":"cebpf4jnsgd1na2vs0mg"},{"bike_id":"012e7a50-1197-4bdf-bd4d-79e45f914126","system_id":"levelo_inurba_marseille","lat":43.281584,"lon":5.426403,"is_reserved":false,"is_disabled":true,"rental_uris":{"android":"levelo://app?vid=012e7a50-1197-4bdf-bd4d-79e45f914126","ios":"levelo://app?vid=012e7a50-1197-4bdf-bd4d-79e45f914126"},"vehicle_type_id":"4","last_reported":1744196896,"current_range_meters":10000,"station_id":"ce4bhnh2rcd13ifvqgug","pricing_plan_id":"cebpf4jnsgd1na2vs0mg"},{"bike_id":"1180a7b1-52e4-45a6-a35d-3a6133d07906","system_id":"levelo_inurba_marseille","lat":43.30153,"lon":5.37413,"is_reserved":false,"is_disabled":false,"rental_uris":{"android":"levelo://app?vid=1180a7b1-52e4-45a6-a35d-3a6133d07906","ios":"levelo://app?vid=1180a7b1-52e4-45a6-a35d-3a6133d07906"},"vehicle_type_id":"4","last_reported":1744196896,"current_range_meters":10800,"station_id":"ce4bgs92rcd13ifvqcc0","pricing_plan_id":"cebpf4jnsgd1na2vs0mg"},{"bike_id":"38c43302-d0f3-42c8-89fb-a9374ff631e5","system_id":"levelo_inurba_marseille","lat":43.30541,"lon":5.36517,"is_reserved":false,"is_disabled":false,"rental_uris":{"android":"levelo://app?vid=38c43302-d0f3-42c8-89fb-a9374ff631e5","ios":"levelo://app?vid=38c43302-d0f3-42c8-89fb-a9374ff631e5"},"vehicle_type_id":"4","last_reported":1744196896,"current_range_meters":10800,"station_id":"ce4bgs12rcd13ifvqcag","pricing_plan_id":"cebpf4jnsgd1na2vs0mg"},{"bike_id":"0d49b47f-468c-4650-8e32-89e6f15bee24","system_id":"levelo_inurba_marseille","lat":43.24161,"lon":5.39715,"is_reserved":false,"is_disabled":false,"rental_uris":{"android":"levelo://app?vid=0d49b47f-468c-4650-8e32-89e6f15bee24","ios":"levelo://app?vid=0d49b47f-468c-4650-8e32-89e6f15bee24"},"vehicle_type_id":"4","last_reported":1744196896,"current_range_meters":10800,"station_id":"ce4bhn12rcd13ifvqgpg","pricing_plan_id":"cebpf4jnsgd1na2vs0mg"},{"bike_id":"bee50beb-3a61-4ffb-be25-3aea9a11206f","system_id":"levelo_inurba_marseille","lat":43.28939,"lon":5.36386,"is_reserved":false,"is_disabled":false,"rental_uris":{"android":"levelo://app?vid=bee50beb-3a61-4ffb-be25-3aea9a11206f","ios":"levelo://app?vid=bee50beb-3a61-4ffb-be25-3aea9a11206f"},"vehicle_type_id":"4","last_reported":1744196896,"current_range_meters":11200,"station_id":"ce4bhc92rcd13ifvqetg","pricing_plan_id":"cebpf4jnsgd1na2vs0mg"},{"bike_id":"b47960c6-0205-4b83-a76d-013331f6c916","system_id":"levelo_inurba_marseille","lat":43.24391,"lon":5.37057,"is_reserved":false,"is_disabled":false,"rental_uris":{"android":"levelo://app?vid=b47960c6-0205-4b83-a76d-013331f6c916","ios":"levelo://app?vid=b47960c6-0205-4b83-a76d-013331f6c916"},"vehicle_type_id":"4","last_reported":1744196896,"current_range_meters":11200,"station_id":"ce4bhhh2rcd13ifvqfk0","pricing_plan_id":"cebpf4jnsgd1na2vs0mg"},{"bike_id":"b30af0ec-efcb-4f5d-925c-99de1f855a4c","system_id":"levelo_inurba_marseille","lat":43.294844,"lon":5.386823,"is_reserved":false,"is_disabled":false,"rental_uris":{"android":"levelo://app?vid=b30af0ec-efcb-4f5d-925c-99de1f855a4c","ios":"levelo://app?vid=b30af0ec-efcb-4f5d-925c-99de1f855a4c"},"vehicle_type_id":"4","last_reported":1744196896,"current_range_meters":11200,"station_id":"ce4bgvh2rcd13ifvqcs0","pricing_plan_id":"cebpf4jnsgd1na2vs0mg"},{"bike_id":"1e099cf5-9456-4ac3-8d36-9153ce8a87f2","system_id":"levelo_inurba_marseille","lat":43.29569,"lon":5.3996,"is_reserved":false,"is_disabled":true,"rental_uris":{"android":"levelo://app?vid=1e099cf5-9456-4ac3-8d36-9153ce8a87f2","ios":"levelo://app?vid=1e099cf5-9456-4ac3-8d36-9153ce8a87f2"},"vehicle_type_id":"4","last_reported":1744196896,"current_range_meters":11600,"station_id":"ce4bh312rcd13ifvqdj0","pricing_plan_id":"cebpf4jnsgd1na2vs0mg"},{"bike_id":"82a62dcb-4784-49bc-901f-5b135d8c39ab","system_id":"levelo_inurba_marseille","lat":43.31486,"lon":5.37308,"is_reserved":false,"is_disabled":false,"rental_uris":{"android":"levelo://app?vid=82a62dcb-4784-49bc-901f-5b135d8c39ab","ios":"levelo://app?vid=82a62dcb-4784-49bc-901f-5b135d8c39ab"},"vehicle_type_id":"4","last_reported":1744196896,"current_range_meters":12000,"station_id":"ce4bgt12rcd13ifvqcd0","pricing_plan_id":"cebpf4jnsgd1na2vs0mg"},{"bike_id":"e64e1711-17c5-4ff6-97b2-2e0939d1f686","system_id":"levelo_inurba_marseille","lat":43.28835,"lon":5.39294,"is_reserved":false,"is_disabled":false,"rental_uris":{"android":"levelo://app?vid=e64e1711-17c5-4ff6-97b2-2e0939d1f686","ios":"levelo://app?vid=e64e1711-17c5-4ff6-97b2-2e0939d1f686"},"vehicle_type_id":"4","last_reported":1744196896,"current_range_meters":12000,"station_id":"ce4bh2p2rcd13ifvqdi0","pricing_plan_id":"cebpf4jnsgd1na2vs0mg"},{"bike_id":"827f3b07-f90c-49c6-bfc3-c20b8c840658","system_id":"levelo_inurba_marseille","lat":43.2963,"lon":5.37724,"is_reserved":false,"is_disabled":false,"rental_uris":{"android":"levelo://app?vid=827f3b07-f90c-49c6-bfc3-c20b8c840658","ios":"levelo://app?vid=827f3b07-f90c-49c6-bfc3-c20b8c840658"},"vehicle_type_id":"4","last_reported":1744196896,"current_range_meters":12000,"station_id":"ce4bgi92rcd13ifvqb90","pricing_plan_id":"cebpf4jnsgd1na2vs0mg"},{"bike_id":"e82d3cbf-6990-4eca-9743-6a7db542c284","system_id":"levelo_inurba_marseille","lat":43.32345,"lon":5.40625,"is_reserved":false,"is_disabled":false,"rental_uris":{"android":"levelo://app?vid=e82d3cbf-6990-4eca-9743-6a7db542c284","ios":"levelo://app?vid=e82d3cbf-6990-4eca-9743-6a7db542c284"},"vehicle_type_id":"4","last_reported":1744196896,"current_range_meters":12400,"station_id":"ce4bhq92rcd13ifvqhjg","pricing_plan_id":"cebpf4jnsgd1na2vs0mg"},{"bike_id":"df54b984-9ac6-4e0a-b08c-294a2263e049","system_id":"levelo_inurba_marseille","lat":43.23154,"lon":5.43725,"is_reserved":false,"is_disabled":false,"rental_uris":{"android":"levelo://app?vid=df54b984-9ac6-4e0a-b08c-294a2263e049","ios":"levelo://app?vid=df54b984-9ac6-4e0a-b08c-294a2263e049"},"vehicle_type_id":"4","last_reported":1744196896,"current_range_meters":12400,"station_id":"ce4bhmp2rcd13ifvqgog","pricing_plan_id":"cebpf4jnsgd1na2vs0mg"},{"bike_id":"cc23f386-e027-4abe-bbdd-5e252c76d169","system_id":"levelo_inurba_marseille","lat":43.23183,"lon":5.43686,"is_reserved":false,"is_disabled":false,"rental_uris":{"android":"levelo://app?vid=cc23f386-e027-4abe-bbdd-5e252c76d169","ios":"levelo://app?vid=cc23f386-e027-4abe-bbdd-5e252c76d169"},"vehicle_type_id":"4","last_reported":1744196896,"current_range_meters":12400,"station_id":"ce4bhmp2rcd13ifvqgog","pricing_plan_id":"cebpf4jnsgd1na2vs0mg"},{"bike_id":"739a9bd0-b90f-42ad-bc9f-adc460f320e8","system_id":"levelo_inurba_marseille","lat":43.323606,"lon":5.367684,"is_reserved":false,"is_disabled":false,"rental_uris":{"android":"levelo://app?vid=739a9bd0-b90f-42ad-bc9f-adc460f320e8","ios":"levelo://app?vid=739a9bd0-b90f-42ad-bc9f-adc460f320e8"},"vehicle_type_id":"4","last_reported":1744196896,"current_range_meters":12800,"station_id":"ce4bhsh2rcd13ifvqi2g","pricing_plan_id":"cebpf4jnsgd1na2vs0mg"},{"bike_id":"64bdb442-165e-4b87-9afa-fb802b0d2144","system_id":"levelo_inurba_marseille","lat":43.29163,"lon":5.37169,"is_reserved":false,"is_disabled":false,"rental_uris":{"android":"levelo://app?vid=64bdb442-165e-4b87-9afa-fb802b0d2144","ios":"levelo://app?vid=64bdb442-165e-4b87-9afa-fb802b0d2144"},"vehicle_type_id":"4","last_reported":1744196896,"current_range_meters":12800,"station_id":"ce4bha92rcd13ifvqeh0","pricing_plan_id":"cebpf4jnsgd1na2vs0mg"},{"bike_id":"5f30a5a4-de9f-499e-b151-b811ebb3b43a","system_id":"levelo_inurba_marseille","lat":43.31081,"lon":5.38361,"is_reserved":false,"is_disabled":true,"rental_uris":{"android":"levelo://app?vid=5f30a5a4-de9f-499e-b151-b811ebb3b43a","ios":"levelo://app?vid=5f30a5a4-de9f-499e-b151-b811ebb3b43a"},"vehicle_type_id":"4","last_reported":1744196896,"current_range_meters":12800,"station_id":"ce4bgv92rcd13ifvqcr0","pricing_plan_id":"cebpf4jnsgd1na2vs0mg"},{"bike_id":"62a970a8-ceb5-4ee9-a4d6-92537ea34f4b","system_id":"levelo_inurba_marseille","lat":43.28478,"lon":5.38435,"is_reserved":false,"is_disabled":false,"rental_uris":{"android":"levelo://app?vid=62a970a8-ceb5-4ee9-a4d6-92537ea34f4b","ios":"levelo://app?vid=62a970a8-ceb5-4ee9-a4d6-92537ea34f4b"},"vehicle_type_id":"4","last_reported":1744196896,"current_range_meters":12800,"station_id":"ce4bh512rcd13ifvqe3g","pricing_plan_id":"cebpf4jnsgd1na2vs0mg"},{"bike_id":"a5a3271a-5246-48be-b394-8cf8dae58a65","system_id":"levelo_inurba_marseille","lat":43.2978,"lon":5.3934,"is_reserved":false,"is_disabled":false,"rental_uris":{"android":"levelo://app?vid=a5a3271a-5246-48be-b394-8cf8dae58a65","ios":"levelo://app?vid=a5a3271a-5246-48be-b394-8cf8dae58a65"},"vehicle_type_id":"4","last_reported":1744196896,"current_range_meters":12800,"station_id":"chh1huq6cuj3fo74tm60","pricing_plan_id":"cebpf4jnsgd1na2vs0mg"},{"bike_id":"421b6d78-2e51-419b-b90a-8ce23e5986e9","system_id":"levelo_inurba_marseille","lat":43.32478,"lon":5.36581,"is_reserved":false,"is_disabled":false,"rental_uris":{"android":"levelo://app?vid=421b6d78-2e51-419b-b90a-8ce23e5986e9","ios":"levelo://app?vid=421b6d78-2e51-419b-b90a-8ce23e5986e9"},"vehicle_type_id":"4","last_reported":1744196896,"current_range_meters":12800,"station_id":"ce4bhs12rcd13ifvqhvg","pricing_plan_id":"cebpf4jnsgd1na2vs0mg"},{"bike_id":"21ad85cb-fd01-4f4b-a5e7-06320eee0f8b","system_id":"levelo_inurba_marseille","lat":43.24657,"lon":5.38899,"is_reserved":false,"is_disabled":false,"rental_uris":{"android":"levelo://app?vid=21ad85cb-fd01-4f4b-a5e7-06320eee0f8b","ios":"levelo://app?vid=21ad85cb-fd01-4f4b-a5e7-06320eee0f8b"},"vehicle_type_id":"4","last_reported":1744196896,"current_range_meters":12800,"station_id":"ce4bhg12rcd13ifvqf60","pricing_plan_id":"cebpf4jnsgd1na2vs0mg"},{"bike_id":"fa7032a6-af17-4b49-b301-3ae08c5baa65","system_id":"levelo_inurba_marseille","lat":43.22924,"lon":5.35395,"is_reserved":false,"is_disabled":false,"rental_uris":{"android":"levelo://app?vid=fa7032a6-af17-4b49-b301-3ae08c5baa65","ios":"levelo://app?vid=fa7032a6-af17-4b49-b301-3ae08c5baa65"},"vehicle_type_id":"4","last_reported":1744196896,"current_range_meters":13600,"station_id":"cpo3532slgdg3j2ikp40","pricing_plan_id":"cebpf4jnsgd1na2vs0mg"},{"bike_id":"8aca47b8-dcba-4e10-a490-7acd73bde0df","system_id":"levelo_inurba_marseille","lat":43.30559,"lon":5.36537,"is_reserved":false,"is_disabled":false,"rental_uris":{"android":"levelo://app?vid=8aca47b8-dcba-4e10-a490-7acd73bde0df","ios":"levelo://app?vid=8aca47b8-dcba-4e10-a490-7acd73bde0df"},"vehicle_type_id":"4","last_reported":1744196896,"current_range_meters":13600,"station_id":"ce4bgs12rcd13ifvqcag","pricing_plan_id":"cebpf4jnsgd1na2vs0mg"},{"bike_id":"5312080d-eddc-4247-ac47-c20c4e36ad62","system_id":"levelo_inurba_marseille","lat":43.29631,"lon":5.40595,"is_reserved":false,"is_disabled":false,"rental_uris":{"android":"levelo://app?vid=5312080d-eddc-4247-ac47-c20c4e36ad62","ios":"levelo://app?vid=5312080d-eddc-4247-ac47-c20c4e36ad62"},"vehicle_type_id":"4","last_reported":1744196896,"current_range_meters":13600,"station_id":"ce4bh0h2rcd13ifvqd60","pricing_plan_id":"cebpf4jnsgd1na2vs0mg"},{"bike_id":"df9bd667-b38a-4b68-adec-fd6077bbc5b9","system_id":"levelo_inurba_marseille","lat":43.217445,"lon":5.346046,"is_reserved":false,"is_disabled":false,"rental_uris":{"android":"levelo://app?vid=df9bd667-b38a-4b68-adec-fd6077bbc5b9","ios":"levelo://app?vid=df9bd667-b38a-4b68-adec-fd6077bbc5b9"},"vehicle_type_id":"4","last_reported":1744196896,"current_range_meters":13600,"station_id":"","pricing_plan_id":"cebpf4jnsgd1na2vs0mg"},{"bike_id":"b37944fb-f9c1-4c8e-ac3a-9da227afb433","system_id":"levelo_inurba_marseille","lat":43.30807,"lon":5.381603,"is_reserved":false,"is_disabled":true,"rental_uris":{"android":"levelo://app?vid=b37944fb-f9c1-4c8e-ac3a-9da227afb433","ios":"levelo://app?vid=b37944fb-f9c1-4c8e-ac3a-9da227afb433"},"vehicle_type_id":"4","last_reported":1744196896,"current_range_meters":13600,"station_id":"ce4bgt12rcd13ifvqce0","pricing_plan_id":"cebpf4jnsgd1na2vs0mg"},{"bike_id":"b3014d67-1beb-4a0f-a0f5-829e0d2a4492","system_id":"levelo_inurba_marseille","lat":43.21761,"lon":5.34613,"is_reserved":false,"is_disabled":false,"rental_uris":{"android":"levelo://app?vid=b3014d67-1beb-4a0f-a0f5-829e0d2a4492","ios":"levelo://app?vid=b3014d67-1beb-4a0f-a0f5-829e0d2a4492"},"vehicle_type_id":"4","last_reported":1744196896,"current_range_meters":13600,"station_id":"st_cvj6r9ubvosntc0bgbag","pricing_plan_id":"cebpf4jnsgd1na2vs0mg"},{"bike_id":"82209d15-f379-449a-ae72-80f997a62a1a","system_id":"levelo_inurba_marseille","lat":43.29277,"lon":5.40143,"is_reserved":false,"is_disabled":true,"rental_uris":{"android":"levelo://app?vid=82209d15-f379-449a-ae72-80f997a62a1a","ios":"levelo://app?vid=82209d15-f379-449a-ae72-80f997a62a1a"},"vehicle_type_id":"4","last_reported":1744196896,"current_range_meters":12800,"station_id":"ce4bh312rcd13ifvqdk0","pricing_plan_id":"cebpf4jnsgd1na2vs0mg"},{"bike_id":"61ad2f19-d511-44f0-944e-9576e28f5f14","system_id":"levelo_inurba_marseille","lat":43.30603,"lon":5.39379,"is_reserved":false,"is_disabled":true,"rental_uris":{"android":"levelo://app?vid=61ad2f19-d511-44f0-944e-9576e28f5f14","ios":"levelo://app?vid=61ad2f19-d511-44f0-944e-9576e28f5f14"},"vehicle_type_id":"4","last_reported":1744196896,"current_range_meters":14000,"station_id":"ce4bh0p2rcd13ifvqd80","pricing_plan_id":"cebpf4jnsgd1na2vs0mg"},{"bike_id":"df53b750-ced4-4ec8-9b5a-2ef86f2bbef0","system_id":"levelo_inurba_marseille","lat":43.29616,"lon":5.37732,"is_reserved":false,"is_disabled":false,"rental_uris":{"android":"levelo://app?vid=df53b750-ced4-4ec8-9b5a-2ef86f2bbef0","ios":"levelo://app?vid=df53b750-ced4-4ec8-9b5a-2ef86f2bbef0"},"vehicle_type_id":"4","last_reported":1744196896,"current_range_meters":14000,"station_id":"ce4bgi92rcd13ifvqb90","pricing_plan_id":"cebpf4jnsgd1na2vs0mg"},{"bike_id":"013c7073-5d74-4b0a-86b2-fa20ab000bcb","system_id":"levelo_inurba_marseille","lat":43.25507,"lon":5.37654,"is_reserved":false,"is_disabled":false,"rental_uris":{"android":"levelo://app?vid=013c7073-5d74-4b0a-86b2-fa20ab000bcb","ios":"levelo://app?vid=013c7073-5d74-4b0a-86b2-fa20ab000bcb"},"vehicle_type_id":"4","last_reported":1744196896,"current_range_meters":14000,"station_id":"ce4bhh12rcd13ifvqff0","pricing_plan_id":"cebpf4jnsgd1na2vs0mg"},{"bike_id":"f147c6df-27ae-4e7a-90c0-6893ba89129c","system_id":"levelo_inurba_marseille","lat":43.30559,"lon":5.36521,"is_reserved":false,"is_disabled":false,"rental_uris":{"android":"levelo://app?vid=f147c6df-27ae-4e7a-90c0-6893ba89129c","ios":"levelo://app?vid=f147c6df-27ae-4e7a-90c0-6893ba89129c"},"vehicle_type_id":"4","last_reported":1744196896,"current_range_meters":14400,"station_id":"ce4bgs12rcd13ifvqcag","pricing_plan_id":"cebpf4jnsgd1na2vs0mg"},{"bike_id":"66e30961-2708-430e-b533-a04bf976ef8a","system_id":"levelo_inurba_marseille","lat":43.2997,"lon":5.37175,"is_reserved":false,"is_disabled":false,"rental_uris":{"android":"levelo://app?vid=66e30961-2708-430e-b533-a04bf976ef8a","ios":"levelo://app?vid=66e30961-2708-430e-b533-a04bf976ef8a"},"vehicle_type_id":"4","last_reported":1744196896,"current_range_meters":14400,"station_id":"ce4bgr92rcd13ifvqc7g","pricing_plan_id":"cebpf4jnsgd1na2vs0mg"},{"bike_id":"53fb0077-3a65-43ca-a501-d7c36dc0627d","system_id":"levelo_inurba_marseille","lat":43.31775,"lon":5.38799,"is_reserved":false,"is_disabled":false,"rental_uris":{"android":"levelo://app?vid=53fb0077-3a65-43ca-a501-d7c36dc0627d","ios":"levelo://app?vid=53fb0077-3a65-43ca-a501-d7c36dc0627d"},"vehicle_type_id":"4","last_reported":1744196896,"current_range_meters":14800,"station_id":"","pricing_plan_id":"cebpf4jnsgd1na2vs0mg"},{"bike_id":"9fce7fb9-26b6-4832-9f96-ea1b75c489f0","system_id":"levelo_inurba_marseille","lat":43.21194,"lon":5.35077,"is_reserved":false,"is_disabled":false,"rental_uris":{"android":"levelo://app?vid=9fce7fb9-26b6-4832-9f96-ea1b75c489f0","ios":"levelo://app?vid=9fce7fb9-26b6-4832-9f96-ea1b75c489f0"},"vehicle_type_id":"4","last_reported":1744196896,"current_range_meters":14800,"station_id":"","pricing_plan_id":"cebpf4jnsgd1na2vs0mg"},{"bike_id":"b4b93a64-d083-4ab2-bbd0-53609c602fb5","system_id":"levelo_inurba_marseille","lat":43.3101,"lon":5.40067,"is_reserved":false,"is_disabled":true,"rental_uris":{"android":"levelo://app?vid=b4b93a64-d083-4ab2-bbd0-53609c602fb5","ios":"levelo://app?vid=b4b93a64-d083-4ab2-bbd0-53609c602fb5"},"vehicle_type_id":"4","last_reported":1744196896,"current_range_meters":14800,"station_id":"ce4bgvp2rcd13ifvqct0","pricing_plan_id":"cebpf4jnsgd1na2vs0mg"},{"bike_id":"024641de-8dce-4296-9e29-6c5c5df295c6","system_id":"levelo_inurba_marseille","lat":43.2844,"lon":5.39187,"is_reserved":false,"is_disabled":false,"rental_uris":{"android":"levelo://app?vid=024641de-8dce-4296-9e29-6c5c5df295c6","ios":"levelo://app?vid=024641de-8dce-4296-9e29-6c5c5df295c6"},"vehicle_type_id":"4","last_reported":1744196896,"current_range_meters":14800,"station_id":"ce4bhoh2rcd13ifvqh5g","pricing_plan_id":"cebpf4jnsgd1na2vs0mg"},{"bike_id":"150ae11f-2ce0-4bcc-bc74-9e0cbcd35eb1","system_id":"levelo_inurba_marseille","lat":43.30538,"lon":5.3843,"is_reserved":false,"is_disabled":false,"rental_uris":{"android":"levelo://app?vid=150ae11f-2ce0-4bcc-bc74-9e0cbcd35eb1","ios":"levelo://app?vid=150ae11f-2ce0-4bcc-bc74-9e0cbcd35eb1"},"vehicle_type_id":"4","last_reported":1744196896,"current_range_meters":14800,"station_id":"ce4bgg92rcd13ifvqb30","pricing_plan_id":"cebpf4jnsgd1na2vs0mg"},{"bike_id":"d44ff2b9-417e-4368-bebb-1fc974db3122","system_id":"levelo_inurba_marseille","lat":43.33628,"lon":5.39766,"is_reserved":false,"is_disabled":true,"rental_uris":{"android":"levelo://app?vid=d44ff2b9-417e-4368-bebb-1fc974db3122","ios":"levelo://app?vid=d44ff2b9-417e-4368-bebb-1fc974db3122"},"vehicle_type_id":"4","last_reported":1744196896,"current_range_meters":14800,"station_id":"","pricing_plan_id":"cebpf4jnsgd1na2vs0mg"},{"bike_id":"0a55865b-72bd-4ce0-891d-2335aa9822a2","system_id":"levelo_inurba_marseille","lat":43.27377,"lon":5.3626,"is_reserved":false,"is_disabled":false,"rental_uris":{"android":"levelo://app?vid=0a55865b-72bd-4ce0-891d-2335aa9822a2","ios":"levelo://app?vid=0a55865b-72bd-4ce0-891d-2335aa9822a2"},"vehicle_type_id":"4","last_reported":1744196896,"current_range_meters":14800,"station_id":"ce4bhbh2rcd13ifvqeo0","pricing_plan_id":"cebpf4jnsgd1na2vs0mg"},{"bike_id":"0c0682ef-602c-4853-944b-e80ee191e508","system_id":"levelo_inurba_marseille","lat":43.30542,"lon":5.36684,"is_reserved":false,"is_disabled":false,"rental_uris":{"android":"levelo://app?vid=0c0682ef-602c-4853-944b-e80ee191e508","ios":"levelo://app?vid=0c0682ef-602c-4853-944b-e80ee191e508"},"vehicle_type_id":"4","last_reported":1744196896,"current_range_meters":14800,"station_id":"ce4bgrp2rcd13ifvqc9g","pricing_plan_id":"cebpf4jnsgd1na2vs0mg"},{"bike_id":"a235d1e9-155e-4c4c-97e3-d0b8a79311e0","system_id":"levelo_inurba_marseille","lat":43.26803,"lon":5.40272,"is_reserved":false,"is_disabled":false,"rental_uris":{"android":"levelo://app?vid=a235d1e9-155e-4c4c-97e3-d0b8a79311e0","ios":"levelo://app?vid=a235d1e9-155e-4c4c-97e3-d0b8a79311e0"},"vehicle_type_id":"4","last_reported":1744196896,"current_range_meters":15200,"station_id":"ce501612rcd8frsf0b60","pricing_plan_id":"cebpf4jnsgd1na2vs0mg"},{"bike_id":"1d258ce2-2d7f-4514-9cf5-9b9790ac6e60","system_id":"levelo_inurba_marseille","lat":43.28623,"lon":5.3511,"is_reserved":false,"is_disabled":false,"rental_uris":{"android":"levelo://app?vid=1d258ce2-2d7f-4514-9cf5-9b9790ac6e60","ios":"levelo://app?vid=1d258ce2-2d7f-4514-9cf5-9b9790ac6e60"},"vehicle_type_id":"4","last_reported":1744196896,"current_range_meters":15200,"station_id":"ce4bhch2rcd13ifvqeug","pricing_plan_id":"cebpf4jnsgd1na2vs0mg"},{"bike_id":"7bd3f7de-3a74-4fff-b4c6-181d8b119e52","system_id":"levelo_inurba_marseille","lat":43.29823,"lon":5.40439,"is_reserved":false,"is_disabled":true,"rental_uris":{"android":"levelo://app?vid=7bd3f7de-3a74-4fff-b4c6-181d8b119e52","ios":"levelo://app?vid=7bd3f7de-3a74-4fff-b4c6-181d8b119e52"},"vehicle_type_id":"4","last_reported":1744196896,"current_range_meters":16000,"station_id":"ce4bh112rcd13ifvqd90","pricing_plan_id":"cebpf4jnsgd1na2vs0mg"},{"bike_id":"71a3919b-8525-4f47-a6df-5e0d6eec871b","system_id":"levelo_inurba_marseille","lat":43.32348,"lon":5.40618,"is_reserved":false,"is_disabled":false,"rental_uris":{"android":"levelo://app?vid=71a3919b-8525-4f47-a6df-5e0d6eec871b","ios":"levelo://app?vid=71a3919b-8525-4f47-a6df-5e0d6eec871b"},"vehicle_type_id":"4","last_reported":1744196896,"current_range_meters":16000,"station_id":"ce4bhq92rcd13ifvqhjg","pricing_plan_id":"cebpf4jnsgd1na2vs0mg"},{"bike_id":"741d7b57-dfaa-48c1-a8b9-5d49d9379b52","system_id":"levelo_inurba_marseille","lat":43.32662,"lon":5.40996,"is_reserved":false,"is_disabled":false,"rental_uris":{"android":"levelo://app?vid=741d7b57-dfaa-48c1-a8b9-5d49d9379b52","ios":"levelo://app?vid=741d7b57-dfaa-48c1-a8b9-5d49d9379b52"},"vehicle_type_id":"4","last_reported":1744196896,"current_range_meters":16400,"station_id":"ce4bhpp2rcd13ifvqhgg","pricing_plan_id":"cebpf4jnsgd1na2vs0mg"},{"bike_id":"b84b1d45-729e-47db-8c7e-e88abe2948fb","system_id":"levelo_inurba_marseille","lat":43.317159,"lon":5.424097,"is_reserved":false,"is_disabled":false,"rental_uris":{"android":"levelo://app?vid=b84b1d45-729e-47db-8c7e-e88abe2948fb","ios":"levelo://app?vid=b84b1d45-729e-47db-8c7e-e88abe2948fb"},"vehicle_type_id":"4","last_reported":1744196896,"current_range_meters":16400,"station_id":"ce4bhp92rcd13ifvqhbg","pricing_plan_id":"cebpf4jnsgd1na2vs0mg"},{"bike_id":"6d1b5940-ea24-4479-97b7-081e33bd0bf6","system_id":"levelo_inurba_marseille","lat":43.28618,"lon":5.35105,"is_reserved":false,"is_disabled":false,"rental_uris":{"android":"levelo://app?vid=6d1b5940-ea24-4479-97b7-081e33bd0bf6","ios":"levelo://app?vid=6d1b5940-ea24-4479-97b7-081e33bd0bf6"},"vehicle_type_id":"4","last_reported":1744196896,"current_range_meters":16800,"station_id":"ce4bhch2rcd13ifvqeug","pricing_plan_id":"cebpf4jnsgd1na2vs0mg"},{"bike_id":"296ae0af-58ce-4357-8f3d-35ac0c1e40ba","system_id":"levelo_inurba_marseille","lat":43.29297,"lon":5.37476,"is_reserved":false,"is_disabled":false,"rental_uris":{"android":"levelo://app?vid=296ae0af-58ce-4357-8f3d-35ac0c1e40ba","ios":"levelo://app?vid=296ae0af-58ce-4357-8f3d-35ac0c1e40ba"},"vehicle_type_id":"4","last_reported":1744196896,"current_range_meters":16800,"station_id":"ce4bgi12rcd13ifvqb70","pricing_plan_id":"cebpf4jnsgd1na2vs0mg"},{"bike_id":"42c1fdc6-38af-4ea1-a910-702e15d5a9b4","system_id":"levelo_inurba_marseille","lat":43.30919,"lon":5.40175,"is_reserved":false,"is_disabled":true,"rental_uris":{"android":"levelo://app?vid=42c1fdc6-38af-4ea1-a910-702e15d5a9b4","ios":"levelo://app?vid=42c1fdc6-38af-4ea1-a910-702e15d5a9b4"},"vehicle_type_id":"4","last_reported":1744196896,"current_range_meters":16800,"station_id":"ce4bgvp2rcd13ifvqct0","pricing_plan_id":"cebpf4jnsgd1na2vs0mg"},{"bike_id":"d3a30278-1fc8-438b-a6b9-b6523acb13c6","system_id":"levelo_inurba_marseille","lat":43.31232,"lon":5.36867,"is_reserved":false,"is_disabled":false,"rental_uris":{"android":"levelo://app?vid=d3a30278-1fc8-438b-a6b9-b6523acb13c6","ios":"levelo://app?vid=d3a30278-1fc8-438b-a6b9-b6523acb13c6"},"vehicle_type_id":"4","last_reported":1744196896,"current_range_meters":16800,"station_id":"ce4bgl92rcd13ifvqbq0","pricing_plan_id":"cebpf4jnsgd1na2vs0mg"},{"bike_id":"9b707f39-8a91-47a1-afe5-0c6d90ae57f5","system_id":"levelo_inurba_marseille","lat":43.30545,"lon":5.36551,"is_reserved":false,"is_disabled":false,"rental_uris":{"android":"levelo://app?vid=9b707f39-8a91-47a1-afe5-0c6d90ae57f5","ios":"levelo://app?vid=9b707f39-8a91-47a1-afe5-0c6d90ae57f5"},"vehicle_type_id":"4","last_reported":1744196896,"current_range_meters":16800,"station_id":"ce4bgs12rcd13ifvqcag","pricing_plan_id":"cebpf4jnsgd1na2vs0mg"},{"bike_id":"33c6f353-0166-4c8c-af82-a2e0d1d8c75d","system_id":"levelo_inurba_marseille","lat":43.32986,"lon":5.43861,"is_reserved":false,"is_disabled":false,"rental_uris":{"android":"levelo://app?vid=33c6f353-0166-4c8c-af82-a2e0d1d8c75d","ios":"levelo://app?vid=33c6f353-0166-4c8c-af82-a2e0d1d8c75d"},"vehicle_type_id":"4","last_reported":1744196896,"current_range_meters":16800,"station_id":"","pricing_plan_id":"cebpf4jnsgd1na2vs0mg"},{"bike_id":"09bddc24-4c9d-460f-8967-e90ee5c88b43","system_id":"levelo_inurba_marseille","lat":43.31341,"lon":5.39699,"is_reserved":false,"is_disabled":true,"rental_uris":{"android":"levelo://app?vid=09bddc24-4c9d-460f-8967-e90ee5c88b43","ios":"levelo://app?vid=09bddc24-4c9d-460f-8967-e90ee5c88b43"},"vehicle_type_id":"4","last_reported":1744196896,"current_range_meters":16800,"station_id":"ce4bgvp2rcd13ifvqcu0","pricing_plan_id":"cebpf4jnsgd1na2vs0mg"},{"bike_id":"60d42f2c-37a3-487b-93aa-3614a6c5024d","system_id":"levelo_inurba_marseille","lat":43.30559,"lon":5.36544,"is_reserved":false,"is_disabled":false,"rental_uris":{"android":"levelo://app?vid=60d42f2c-37a3-487b-93aa-3614a6c5024d","ios":"levelo://app?vid=60d42f2c-37a3-487b-93aa-3614a6c5024d"},"vehicle_type_id":"4","last_reported":1744196896,"current_range_meters":16800,"station_id":"ce4bgs12rcd13ifvqcag","pricing_plan_id":"cebpf4jnsgd1na2vs0mg"},{"bike_id":"21da33ca-7999-48ec-9485-f692a9863b65","system_id":"levelo_inurba_marseille","lat":43.29563,"lon":5.37531,"is_reserved":false,"is_disabled":false,"rental_uris":{"android":"levelo://app?vid=21da33ca-7999-48ec-9485-f692a9863b65","ios":"levelo://app?vid=21da33ca-7999-48ec-9485-f692a9863b65"},"vehicle_type_id":"4","last_reported":1744196896,"current_range_meters":17200,"station_id":"ce4bgh92rcd13ifvqb50","pricing_plan_id":"cebpf4jnsgd1na2vs0mg"},{"bike_id":"875883da-a830-4c1a-8530-93fae3774448","system_id":"levelo_inurba_marseille","lat":43.30534,"lon":5.36554,"is_reserved":false,"is_disabled":false,"rental_uris":{"android":"levelo://app?vid=875883da-a830-4c1a-8530-93fae3774448","ios":"levelo://app?vid=875883da-a830-4c1a-8530-93fae3774448"},"vehicle_type_id":"4","last_reported":1744196896,"current_range_meters":17200,"station_id":"ce4bgs12rcd13ifvqcag","pricing_plan_id":"cebpf4jnsgd1na2vs0mg"},{"bike_id":"5f446a93-3c0a-4498-a069-f5d3a71e824f","system_id":"levelo_inurba_marseille","lat":43.3169,"lon":5.40468,"is_reserved":false,"is_disabled":false,"rental_uris":{"android":"levelo://app?vid=5f446a93-3c0a-4498-a069-f5d3a71e824f","ios":"levelo://app?vid=5f446a93-3c0a-4498-a069-f5d3a71e824f"},"vehicle_type_id":"4","last_reported":1744196896,"current_range_meters":17200,"station_id":"ce4bh012rcd13ifvqd00","pricing_plan_id":"cebpf4jnsgd1na2vs0mg"},{"bike_id":"c55184d3-fbbd-4f0a-a6fc-c4d88e36e900","system_id":"levelo_inurba_marseille","lat":43.30554,"lon":5.36558,"is_reserved":false,"is_disabled":false,"rental_uris":{"android":"levelo://app?vid=c55184d3-fbbd-4f0a-a6fc-c4d88e36e900","ios":"levelo://app?vid=c55184d3-fbbd-4f0a-a6fc-c4d88e36e900"},"vehicle_type_id":"4","last_reported":1744196896,"current_range_meters":17200,"station_id":"ce4bgs12rcd13ifvqcag","pricing_plan_id":"cebpf4jnsgd1na2vs0mg"},{"bike_id":"67e290c0-bf9d-4bda-9ea3-0356f267f1d6","system_id":"levelo_inurba_marseille","lat":43.27942,"lon":5.41053,"is_reserved":false,"is_disabled":false,"rental_uris":{"android":"levelo://app?vid=67e290c0-bf9d-4bda-9ea3-0356f267f1d6","ios":"levelo://app?vid=67e290c0-bf9d-4bda-9ea3-0356f267f1d6"},"vehicle_type_id":"4","last_reported":1744196896,"current_range_meters":17600,"station_id":"ce4bhnp2rcd13ifvqh0g","pricing_plan_id":"cebpf4jnsgd1na2vs0mg"},{"bike_id":"776a98b2-bad8-49da-9f25-e5924cc43c54","system_id":"levelo_inurba_marseille","lat":43.29783,"lon":5.37101,"is_reserved":false,"is_disabled":false,"rental_uris":{"android":"levelo://app?vid=776a98b2-bad8-49da-9f25-e5924cc43c54","ios":"levelo://app?vid=776a98b2-bad8-49da-9f25-e5924cc43c54"},"vehicle_type_id":"4","last_reported":1744196896,"current_range_meters":17600,"station_id":"ce4bgop2rcd13ifvqc1g","pricing_plan_id":"cebpf4jnsgd1na2vs0mg"},{"bike_id":"e97821fe-abd9-44e2-b7b8-29713691cd6d","system_id":"levelo_inurba_marseille","lat":43.28854,"lon":5.35854,"is_reserved":false,"is_disabled":false,"rental_uris":{"android":"levelo://app?vid=e97821fe-abd9-44e2-b7b8-29713691cd6d","ios":"levelo://app?vid=e97821fe-abd9-44e2-b7b8-29713691cd6d"},"vehicle_type_id":"4","last_reported":1744196896,"current_range_meters":17600,"station_id":"ce4bhb12rcd13ifvqem0","pricing_plan_id":"cebpf4jnsgd1na2vs0mg"},{"bike_id":"b29ac927-eab6-4a14-9853-22707579ab07","system_id":"levelo_inurba_marseille","lat":43.28622,"lon":5.35109,"is_reserved":false,"is_disabled":false,"rental_uris":{"android":"levelo://app?vid=b29ac927-eab6-4a14-9853-22707579ab07","ios":"levelo://app?vid=b29ac927-eab6-4a14-9853-22707579ab07"},"vehicle_type_id":"4","last_reported":1744196896,"current_range_meters":17600,"station_id":"ce4bhch2rcd13ifvqeug","pricing_plan_id":"cebpf4jnsgd1na2vs0mg"},{"bike_id":"50c90c7c-c6f4-41c0-aa4b-c15f771652a8","system_id":"levelo_inurba_marseille","lat":43.29978,"lon":5.37191,"is_reserved":false,"is_disabled":false,"rental_uris":{"android":"levelo://app?vid=50c90c7c-c6f4-41c0-aa4b-c15f771652a8","ios":"levelo://app?vid=50c90c7c-c6f4-41c0-aa4b-c15f771652a8"},"vehicle_type_id":"4","last_reported":1744196896,"current_range_meters":17200,"station_id":"ce4bgr92rcd13ifvqc7g","pricing_plan_id":"cebpf4jnsgd1na2vs0mg"},{"bike_id":"1a3cd0ab-ec77-41b3-982c-74e5093499a8","system_id":"levelo_inurba_marseille","lat":43.3044,"lon":5.38898,"is_reserved":false,"is_disabled":true,"rental_uris":{"android":"levelo://app?vid=1a3cd0ab-ec77-41b3-982c-74e5093499a8","ios":"levelo://app?vid=1a3cd0ab-ec77-41b3-982c-74e5093499a8"},"vehicle_type_id":"4","last_reported":1744196896,"current_range_meters":17600,"station_id":"ce4bgk12rcd13ifvqbi0","pricing_plan_id":"cebpf4jnsgd1na2vs0mg"},{"bike_id":"0a698d41-ade8-4db1-9f07-c82da1b9f441","system_id":"levelo_inurba_marseille","lat":43.31222,"lon":5.36865,"is_reserved":false,"is_disabled":false,"rental_uris":{"android":"levelo://app?vid=0a698d41-ade8-4db1-9f07-c82da1b9f441","ios":"levelo://app?vid=0a698d41-ade8-4db1-9f07-c82da1b9f441"},"vehicle_type_id":"4","last_reported":1744196896,"current_range_meters":18000,"station_id":"ce4bgl92rcd13ifvqbq0","pricing_plan_id":"cebpf4jnsgd1na2vs0mg"},{"bike_id":"b0e7c080-9b32-4fb1-ae6b-91b2f1cae096","system_id":"levelo_inurba_marseille","lat":43.305597,"lon":5.365569,"is_reserved":false,"is_disabled":false,"rental_uris":{"android":"levelo://app?vid=b0e7c080-9b32-4fb1-ae6b-91b2f1cae096","ios":"levelo://app?vid=b0e7c080-9b32-4fb1-ae6b-91b2f1cae096"},"vehicle_type_id":"4","last_reported":1744196896,"current_range_meters":18000,"station_id":"ce4bgs12rcd13ifvqcag","pricing_plan_id":"cebpf4jnsgd1na2vs0mg"},{"bike_id":"6294d077-a1c6-47b9-a2d8-034e54997a93","system_id":"levelo_inurba_marseille","lat":43.2963,"lon":5.37727,"is_reserved":false,"is_disabled":false,"rental_uris":{"android":"levelo://app?vid=6294d077-a1c6-47b9-a2d8-034e54997a93","ios":"levelo://app?vid=6294d077-a1c6-47b9-a2d8-034e54997a93"},"vehicle_type_id":"4","last_reported":1744196896,"current_range_meters":18000,"station_id":"ce4bgi92rcd13ifvqb90","pricing_plan_id":"cebpf4jnsgd1na2vs0mg"},{"bike_id":"560b73b2-c27b-4cfe-a69d-c093c96650ce","system_id":"levelo_inurba_marseille","lat":43.30131,"lon":5.37433,"is_reserved":false,"is_disabled":false,"rental_uris":{"android":"levelo://app?vid=560b73b2-c27b-4cfe-a69d-c093c96650ce","ios":"levelo://app?vid=560b73b2-c27b-4cfe-a69d-c093c96650ce"},"vehicle_type_id":"4","last_reported":1744196896,"current_range_meters":18000,"station_id":"ce4bgs92rcd13ifvqcc0","pricing_plan_id":"cebpf4jnsgd1na2vs0mg"},{"bike_id":"ceb42bda-17b0-473f-a990-ea6bbdd336ff","system_id":"levelo_inurba_marseille","lat":43.21747,"lon":5.34611,"is_reserved":false,"is_disabled":false,"rental_uris":{"android":"levelo://app?vid=ceb42bda-17b0-473f-a990-ea6bbdd336ff","ios":"levelo://app?vid=ceb42bda-17b0-473f-a990-ea6bbdd336ff"},"vehicle_type_id":"4","last_reported":1744196896,"current_range_meters":18000,"station_id":"st_cvj6r9ubvosntc0bgbag","pricing_plan_id":"cebpf4jnsgd1na2vs0mg"},{"bike_id":"a4703af2-c345-42d9-ba75-d4af5c29bce6","system_id":"levelo_inurba_marseille","lat":43.30508,"lon":5.36539,"is_reserved":false,"is_disabled":false,"rental_uris":{"android":"levelo://app?vid=a4703af2-c345-42d9-ba75-d4af5c29bce6","ios":"levelo://app?vid=a4703af2-c345-42d9-ba75-d4af5c29bce6"},"vehicle_type_id":"4","last_reported":1744196896,"current_range_meters":18000,"station_id":"","pricing_plan_id":"cebpf4jnsgd1na2vs0mg"},{"bike_id":"ee3c03b2-9a4c-4654-a28e-7388f571d9cb","system_id":"levelo_inurba_marseille","lat":43.320024,"lon":5.38156,"is_reserved":false,"is_disabled":true,"rental_uris":{"android":"levelo://app?vid=ee3c03b2-9a4c-4654-a28e-7388f571d9cb","ios":"levelo://app?vid=ee3c03b2-9a4c-4654-a28e-7388f571d9cb"},"vehicle_type_id":"4","last_reported":1744196896,"current_range_meters":18800,"station_id":"ce4bhr12rcd13ifvqhpg","pricing_plan_id":"cebpf4jnsgd1na2vs0mg"},{"bike_id":"a1d31b68-22ae-427c-a361-76c698230638","system_id":"levelo_inurba_marseille","lat":43.24159,"lon":5.39728,"is_reserved":false,"is_disabled":false,"rental_uris":{"android":"levelo://app?vid=a1d31b68-22ae-427c-a361-76c698230638","ios":"levelo://app?vid=a1d31b68-22ae-427c-a361-76c698230638"},"vehicle_type_id":"4","last_reported":1744196896,"current_range_meters":18800,"station_id":"ce4bhn12rcd13ifvqgpg","pricing_plan_id":"cebpf4jnsgd1na2vs0mg"},{"bike_id":"2ab54020-df93-4f6b-8cd1-9b0e84795bda","system_id":"levelo_inurba_marseille","lat":43.30548,"lon":5.36554,"is_reserved":false,"is_disabled":false,"rental_uris":{"android":"levelo://app?vid=2ab54020-df93-4f6b-8cd1-9b0e84795bda","ios":"levelo://app?vid=2ab54020-df93-4f6b-8cd1-9b0e84795bda"},"vehicle_type_id":"4","last_reported":1744196896,"current_range_meters":18800,"station_id":"ce4bgs12rcd13ifvqcag","pricing_plan_id":"cebpf4jnsgd1na2vs0mg"},{"bike_id":"c3a91a3d-a4ac-4d56-8185-8b1560aef698","system_id":"levelo_inurba_marseille","lat":43.28698,"lon":5.4,"is_reserved":false,"is_disabled":false,"rental_uris":{"android":"levelo://app?vid=c3a91a3d-a4ac-4d56-8185-8b1560aef698","ios":"levelo://app?vid=c3a91a3d-a4ac-4d56-8185-8b1560aef698"},"vehicle_type_id":"4","last_reported":1744196896,"current_range_meters":18800,"station_id":"ce4bho92rcd13ifvqh3g","pricing_plan_id":"cebpf4jnsgd1na2vs0mg"},{"bike_id":"e3c3a051-8134-4ed3-913b-374aa217874c","system_id":"levelo_inurba_marseille","lat":43.2559,"lon":5.40455,"is_reserved":false,"is_disabled":false,"rental_uris":{"android":"levelo://app?vid=e3c3a051-8134-4ed3-913b-374aa217874c","ios":"levelo://app?vid=e3c3a051-8134-4ed3-913b-374aa217874c"},"vehicle_type_id":"4","last_reported":1744196896,"current_range_meters":19200,"station_id":"","pricing_plan_id":"cebpf4jnsgd1na2vs0mg"},{"bike_id":"ed32de37-66e8-4fe8-b613-74f9e5810cd6","system_id":"levelo_inurba_marseille","lat":43.31204,"lon":5.37356,"is_reserved":false,"is_disabled":false,"rental_uris":{"android":"levelo://app?vid=ed32de37-66e8-4fe8-b613-74f9e5810cd6","ios":"levelo://app?vid=ed32de37-66e8-4fe8-b613-74f9e5810cd6"},"vehicle_type_id":"4","last_reported":1744196896,"current_range_meters":19200,"station_id":"","pricing_plan_id":"cebpf4jnsgd1na2vs0mg"},{"bike_id":"0027df12-6120-4ba4-8d4d-b90b0200c718","system_id":"levelo_inurba_marseille","lat":43.28852,"lon":5.39317,"is_reserved":false,"is_disabled":false,"rental_uris":{"android":"levelo://app?vid=0027df12-6120-4ba4-8d4d-b90b0200c718","ios":"levelo://app?vid=0027df12-6120-4ba4-8d4d-b90b0200c718"},"vehicle_type_id":"4","last_reported":1744196896,"current_range_meters":19200,"station_id":"ce4bh2p2rcd13ifvqdi0","pricing_plan_id":"cebpf4jnsgd1na2vs0mg"},{"bike_id":"35648edf-5b72-4c83-a25a-28f9cda4c923","system_id":"levelo_inurba_marseille","lat":43.29422,"lon":5.38611,"is_reserved":false,"is_disabled":false,"rental_uris":{"android":"levelo://app?vid=35648edf-5b72-4c83-a25a-28f9cda4c923","ios":"levelo://app?vid=35648edf-5b72-4c83-a25a-28f9cda4c923"},"vehicle_type_id":"4","last_reported":1744196896,"current_range_meters":19200,"station_id":"ce4bh2h2rcd13ifvqdh0","pricing_plan_id":"cebpf4jnsgd1na2vs0mg"},{"bike_id":"3d6a70d1-024e-43cd-8106-6b19466843dc","system_id":"levelo_inurba_marseille","lat":43.25501,"lon":5.37652,"is_reserved":false,"is_disabled":false,"rental_uris":{"android":"levelo://app?vid=3d6a70d1-024e-43cd-8106-6b19466843dc","ios":"levelo://app?vid=3d6a70d1-024e-43cd-8106-6b19466843dc"},"vehicle_type_id":"4","last_reported":1744196896,"current_range_meters":19200,"station_id":"ce4bhh12rcd13ifvqff0","pricing_plan_id":"cebpf4jnsgd1na2vs0mg"},{"bike_id":"d1f92f28-9609-4256-bd4a-880c7b09d4e8","system_id":"levelo_inurba_marseille","lat":43.29325,"lon":5.41161,"is_reserved":false,"is_disabled":false,"rental_uris":{"android":"levelo://app?vid=d1f92f28-9609-4256-bd4a-880c7b09d4e8","ios":"levelo://app?vid=d1f92f28-9609-4256-bd4a-880c7b09d4e8"},"vehicle_type_id":"4","last_reported":1744196896,"current_range_meters":19200,"station_id":"","pricing_plan_id":"cebpf4jnsgd1na2vs0mg"},{"bike_id":"0af41378-490b-4082-a76f-6598e96ab451","system_id":"levelo_inurba_marseille","lat":43.24151,"lon":5.39743,"is_reserved":false,"is_disabled":false,"rental_uris":{"android":"levelo://app?vid=0af41378-490b-4082-a76f-6598e96ab451","ios":"levelo://app?vid=0af41378-490b-4082-a76f-6598e96ab451"},"vehicle_type_id":"4","last_reported":1744196896,"current_range_meters":19600,"station_id":"ce4bhn12rcd13ifvqgpg","pricing_plan_id":"cebpf4jnsgd1na2vs0mg"},{"bike_id":"4fa957ac-d7d7-49fe-8622-794155ae1ccf","system_id":"levelo_inurba_marseille","lat":43.26205,"lon":5.374494,"is_reserved":false,"is_disabled":false,"rental_uris":{"android":"levelo://app?vid=4fa957ac-d7d7-49fe-8622-794155ae1ccf","ios":"levelo://app?vid=4fa957ac-d7d7-49fe-8622-794155ae1ccf"},"vehicle_type_id":"4","last_reported":1744196896,"current_range_meters":19600,"station_id":"ce4bhgp2rcd13ifvqfc0","pricing_plan_id":"cebpf4jnsgd1na2vs0mg"},{"bike_id":"a71f2a5a-68cc-4ba4-ba37-497c0c906866","system_id":"levelo_inurba_marseille","lat":43.26238,"lon":5.40428,"is_reserved":false,"is_disabled":false,"rental_uris":{"android":"levelo://app?vid=a71f2a5a-68cc-4ba4-ba37-497c0c906866","ios":"levelo://app?vid=a71f2a5a-68cc-4ba4-ba37-497c0c906866"},"vehicle_type_id":"4","last_reported":1744196896,"current_range_meters":19600,"station_id":"ce4bhmh2rcd13ifvqgmg","pricing_plan_id":"cebpf4jnsgd1na2vs0mg"},{"bike_id":"cf6f2d0c-4a6d-4b4a-a48f-935433adbf7a","system_id":"levelo_inurba_marseille","lat":43.297953,"lon":5.381243,"is_reserved":false,"is_disabled":false,"rental_uris":{"android":"levelo://app?vid=cf6f2d0c-4a6d-4b4a-a48f-935433adbf7a","ios":"levelo://app?vid=cf6f2d0c-4a6d-4b4a-a48f-935433adbf7a"},"vehicle_type_id":"4","last_reported":1744196896,"current_range_meters":19600,"station_id":"ce4bgip2rcd13ifvqbb0","pricing_plan_id":"cebpf4jnsgd1na2vs0mg"},{"bike_id":"104d585f-97e0-4661-a100-d00a89c82bfa","system_id":"levelo_inurba_marseille","lat":43.29519,"lon":5.38547,"is_reserved":false,"is_disabled":false,"rental_uris":{"android":"levelo://app?vid=104d585f-97e0-4661-a100-d00a89c82bfa","ios":"levelo://app?vid=104d585f-97e0-4661-a100-d00a89c82bfa"},"vehicle_type_id":"4","last_reported":1744196896,"current_range_meters":19600,"station_id":"ce4bgih2rcd13ifvqba0","pricing_plan_id":"cebpf4jnsgd1na2vs0mg"},{"bike_id":"aa8f7ea3-d3f3-480a-bdfb-d5b9efc66a70","system_id":"levelo_inurba_marseille","lat":43.27434,"lon":5.39428,"is_reserved":false,"is_disabled":false,"rental_uris":{"android":"levelo://app?vid=aa8f7ea3-d3f3-480a-bdfb-d5b9efc66a70","ios":"levelo://app?vid=aa8f7ea3-d3f3-480a-bdfb-d5b9efc66a70"},"vehicle_type_id":"4","last_reported":1744196896,"current_range_meters":19600,"station_id":"ce4bhdp2rcd13ifvqf20","pricing_plan_id":"cebpf4jnsgd1na2vs0mg"},{"bike_id":"ef291804-1477-432e-b153-82ea15725418","system_id":"levelo_inurba_marseille","lat":43.33763,"lon":5.37468,"is_reserved":false,"is_disabled":false,"rental_uris":{"android":"levelo://app?vid=ef291804-1477-432e-b153-82ea15725418","ios":"levelo://app?vid=ef291804-1477-432e-b153-82ea15725418"},"vehicle_type_id":"4","last_reported":1744196896,"current_range_meters":19600,"station_id":"","pricing_plan_id":"cebpf4jnsgd1na2vs0mg"},{"bike_id":"322304d1-7d02-4c63-ab56-b472942145f1","system_id":"levelo_inurba_marseille","lat":43.32661,"lon":5.40999,"is_reserved":false,"is_disabled":false,"rental_uris":{"android":"levelo://app?vid=322304d1-7d02-4c63-ab56-b472942145f1","ios":"levelo://app?vid=322304d1-7d02-4c63-ab56-b472942145f1"},"vehicle_type_id":"4","last_reported":1744196896,"current_range_meters":19600,"station_id":"ce4bhpp2rcd13ifvqhgg","pricing_plan_id":"cebpf4jnsgd1na2vs0mg"},{"bike_id":"39d569f2-804d-4c1f-93cb-ffdd8bba0563","system_id":"levelo_inurba_marseille","lat":43.30551,"lon":5.38451,"is_reserved":false,"is_disabled":true,"rental_uris":{"android":"levelo://app?vid=39d569f2-804d-4c1f-93cb-ffdd8bba0563","ios":"levelo://app?vid=39d569f2-804d-4c1f-93cb-ffdd8bba0563"},"vehicle_type_id":"4","last_reported":1744196896,"current_range_meters":20000,"station_id":"ce4bgg92rcd13ifvqb30","pricing_plan_id":"cebpf4jnsgd1na2vs0mg"},{"bike_id":"abff00cb-ecb1-46d5-a2bc-212df9bb5977","system_id":"levelo_inurba_marseille","lat":43.29031,"lon":5.3865,"is_reserved":false,"is_disabled":false,"rental_uris":{"android":"levelo://app?vid=abff00cb-ecb1-46d5-a2bc-212df9bb5977","ios":"levelo://app?vid=abff00cb-ecb1-46d5-a2bc-212df9bb5977"},"vehicle_type_id":"4","last_reported":1744196896,"current_range_meters":19600,"station_id":"ce4bh4p2rcd13ifvqe0g","pricing_plan_id":"cebpf4jnsgd1na2vs0mg"},{"bike_id":"231aaa88-1e79-4a74-a543-651d8fd5a027","system_id":"levelo_inurba_marseille","lat":43.33126,"lon":5.40516,"is_reserved":false,"is_disabled":false,"rental_uris":{"android":"levelo://app?vid=231aaa88-1e79-4a74-a543-651d8fd5a027","ios":"levelo://app?vid=231aaa88-1e79-4a74-a543-651d8fd5a027"},"vehicle_type_id":"4","last_reported":1744196896,"current_range_meters":20000,"station_id":"","pricing_plan_id":"cebpf4jnsgd1na2vs0mg"},{"bike_id":"2b54a496-5bb2-42c4-bb01-6f1e5c2215a7","system_id":"levelo_inurba_marseille","lat":43.30802,"lon":5.37768,"is_reserved":false,"is_disabled":true,"rental_uris":{"android":"levelo://app?vid=2b54a496-5bb2-42c4-bb01-6f1e5c2215a7","ios":"levelo://app?vid=2b54a496-5bb2-42c4-bb01-6f1e5c2215a7"},"vehicle_type_id":"4","last_reported":1744196896,"current_range_meters":20000,"station_id":"","pricing_plan_id":"cebpf4jnsgd1na2vs0mg"},{"bike_id":"40443b42-a6e5-4e21-9f25-dff0f07682c0","system_id":"levelo_inurba_marseille","lat":43.3095,"lon":5.39031,"is_reserved":false,"is_disabled":false,"rental_uris":{"android":"levelo://app?vid=40443b42-a6e5-4e21-9f25-dff0f07682c0","ios":"levelo://app?vid=40443b42-a6e5-4e21-9f25-dff0f07682c0"},"vehicle_type_id":"4","last_reported":1744196896,"current_range_meters":20000,"station_id":"ce4bgup2rcd13ifvqco0","pricing_plan_id":"cebpf4jnsgd1na2vs0mg"},{"bike_id":"b1ec28b5-1589-4987-a872-646946577f09","system_id":"levelo_inurba_marseille","lat":43.275,"lon":5.42454,"is_reserved":false,"is_disabled":false,"rental_uris":{"android":"levelo://app?vid=b1ec28b5-1589-4987-a872-646946577f09","ios":"levelo://app?vid=b1ec28b5-1589-4987-a872-646946577f09"},"vehicle_type_id":"4","last_reported":1744196896,"current_range_meters":20000,"station_id":"ce4bhn92rcd13ifvqgrg","pricing_plan_id":"cebpf4jnsgd1na2vs0mg"},{"bike_id":"01e8afc9-b963-4a9d-8f00-0de96c1dfc93","system_id":"levelo_inurba_marseille","lat":43.24182,"lon":5.36388,"is_reserved":false,"is_disabled":false,"rental_uris":{"android":"levelo://app?vid=01e8afc9-b963-4a9d-8f00-0de96c1dfc93","ios":"levelo://app?vid=01e8afc9-b963-4a9d-8f00-0de96c1dfc93"},"vehicle_type_id":"4","last_reported":1744196896,"current_range_meters":20000,"station_id":"cpo36qri1sfpv3e86is0","pricing_plan_id":"cebpf4jnsgd1na2vs0mg"},{"bike_id":"8be53587-a8bb-4ec3-bc6a-54bf6a77cdc9","system_id":"levelo_inurba_marseille","lat":43.30543,"lon":5.36553,"is_reserved":false,"is_disabled":false,"rental_uris":{"android":"levelo://app?vid=8be53587-a8bb-4ec3-bc6a-54bf6a77cdc9","ios":"levelo://app?vid=8be53587-a8bb-4ec3-bc6a-54bf6a77cdc9"},"vehicle_type_id":"4","last_reported":1744196896,"current_range_meters":20400,"station_id":"ce4bgs12rcd13ifvqcag","pricing_plan_id":"cebpf4jnsgd1na2vs0mg"},{"bike_id":"75b89c8f-84ce-48fd-acbb-d0c44dbe44ca","system_id":"levelo_inurba_marseille","lat":43.2903,"lon":5.38644,"is_reserved":false,"is_disabled":false,"rental_uris":{"android":"levelo://app?vid=75b89c8f-84ce-48fd-acbb-d0c44dbe44ca","ios":"levelo://app?vid=75b89c8f-84ce-48fd-acbb-d0c44dbe44ca"},"vehicle_type_id":"4","last_reported":1744196896,"current_range_meters":20800,"station_id":"ce4bh4p2rcd13ifvqe0g","pricing_plan_id":"cebpf4jnsgd1na2vs0mg"},{"bike_id":"c82301b0-5444-4b57-857d-5892ead6c4aa","system_id":"levelo_inurba_marseille","lat":43.29882,"lon":5.38898,"is_reserved":false,"is_disabled":false,"rental_uris":{"android":"levelo://app?vid=c82301b0-5444-4b57-857d-5892ead6c4aa","ios":"levelo://app?vid=c82301b0-5444-4b57-857d-5892ead6c4aa"},"vehicle_type_id":"4","last_reported":1744196896,"current_range_meters":20400,"station_id":"ce4bh392rcd13ifvqdl0","pricing_plan_id":"cebpf4jnsgd1na2vs0mg"},{"bike_id":"9dd4623a-1856-4da1-b6f2-575f4b7a0640","system_id":"levelo_inurba_marseille","lat":43.23159,"lon":5.43719,"is_reserved":false,"is_disabled":false,"rental_uris":{"android":"levelo://app?vid=9dd4623a-1856-4da1-b6f2-575f4b7a0640","ios":"levelo://app?vid=9dd4623a-1856-4da1-b6f2-575f4b7a0640"},"vehicle_type_id":"4","last_reported":1744196896,"current_range_meters":20400,"station_id":"ce4bhmp2rcd13ifvqgog","pricing_plan_id":"cebpf4jnsgd1na2vs0mg"},{"bike_id":"d0ad0a8e-d38f-4dac-8263-897aee14ba5d","system_id":"levelo_inurba_marseille","lat":43.2894,"lon":5.3639,"is_reserved":false,"is_disabled":false,"rental_uris":{"android":"levelo://app?vid=d0ad0a8e-d38f-4dac-8263-897aee14ba5d","ios":"levelo://app?vid=d0ad0a8e-d38f-4dac-8263-897aee14ba5d"},"vehicle_type_id":"4","last_reported":1744196896,"current_range_meters":20400,"station_id":"ce4bhc92rcd13ifvqetg","pricing_plan_id":"cebpf4jnsgd1na2vs0mg"},{"bike_id":"6c63e1cd-38d4-4380-9c7d-06de55597b25","system_id":"levelo_inurba_marseille","lat":43.231503,"lon":5.437184,"is_reserved":false,"is_disabled":false,"rental_uris":{"android":"levelo://app?vid=6c63e1cd-38d4-4380-9c7d-06de55597b25","ios":"levelo://app?vid=6c63e1cd-38d4-4380-9c7d-06de55597b25"},"vehicle_type_id":"4","last_reported":1744196896,"current_range_meters":20800,"station_id":"ce4bhmp2rcd13ifvqgog","pricing_plan_id":"cebpf4jnsgd1na2vs0mg"},{"bike_id":"1006b375-f33b-4d86-9c2d-a03b2c58365f","system_id":"levelo_inurba_marseille","lat":43.29275,"lon":5.37603,"is_reserved":false,"is_disabled":false,"rental_uris":{"android":"levelo://app?vid=1006b375-f33b-4d86-9c2d-a03b2c58365f","ios":"levelo://app?vid=1006b375-f33b-4d86-9c2d-a03b2c58365f"},"vehicle_type_id":"4","last_reported":1744196896,"current_range_meters":20800,"station_id":"ce4bgi12rcd13ifvqb80","pricing_plan_id":"cebpf4jnsgd1na2vs0mg"},{"bike_id":"19443872-cf37-4841-92d4-1f06ca7f5e37","system_id":"levelo_inurba_marseille","lat":43.28701,"lon":5.37404,"is_reserved":false,"is_disabled":false,"rental_uris":{"android":"levelo://app?vid=19443872-cf37-4841-92d4-1f06ca7f5e37","ios":"levelo://app?vid=19443872-cf37-4841-92d4-1f06ca7f5e37"},"vehicle_type_id":"4","last_reported":1744196896,"current_range_meters":20800,"station_id":"ce4bh3p2rcd13ifvqdq0","pricing_plan_id":"cebpf4jnsgd1na2vs0mg"},{"bike_id":"d64648ad-988e-4859-9e47-00782dbc6c22","system_id":"levelo_inurba_marseille","lat":43.231396,"lon":5.437256,"is_reserved":false,"is_disabled":false,"rental_uris":{"android":"levelo://app?vid=d64648ad-988e-4859-9e47-00782dbc6c22","ios":"levelo://app?vid=d64648ad-988e-4859-9e47-00782dbc6c22"},"vehicle_type_id":"4","last_reported":1744196896,"current_range_meters":20800,"station_id":"ce4bhmp2rcd13ifvqgog","pricing_plan_id":"cebpf4jnsgd1na2vs0mg"},{"bike_id":"deff944e-3d9d-408f-b481-2ca618c41980","system_id":"levelo_inurba_marseille","lat":43.28459,"lon":5.35885,"is_reserved":false,"is_disabled":false,"rental_uris":{"android":"levelo://app?vid=deff944e-3d9d-408f-b481-2ca618c41980","ios":"levelo://app?vid=deff944e-3d9d-408f-b481-2ca618c41980"},"vehicle_type_id":"4","last_reported":1744196896,"current_range_meters":20800,"station_id":"ce4bhah2rcd13ifvqei0","pricing_plan_id":"cebpf4jnsgd1na2vs0mg"},{"bike_id":"e81a1bbc-4aab-42ab-a9b4-4a73fe4a3759","system_id":"levelo_inurba_marseille","lat":43.29621,"lon":5.37157,"is_reserved":false,"is_disabled":false,"rental_uris":{"android":"levelo://app?vid=e81a1bbc-4aab-42ab-a9b4-4a73fe4a3759","ios":"levelo://app?vid=e81a1bbc-4aab-42ab-a9b4-4a73fe4a3759"},"vehicle_type_id":"4","last_reported":1744196896,"current_range_meters":20800,"station_id":"ce4bgnh2rcd13ifvqc0g","pricing_plan_id":"cebpf4jnsgd1na2vs0mg"},{"bike_id":"4cbf3669-ff34-4131-a319-9e114fbaefd0","system_id":"levelo_inurba_marseille","lat":43.28415,"lon":5.37507,"is_reserved":false,"is_disabled":false,"rental_uris":{"android":"levelo://app?vid=4cbf3669-ff34-4131-a319-9e114fbaefd0","ios":"levelo://app?vid=4cbf3669-ff34-4131-a319-9e114fbaefd0"},"vehicle_type_id":"4","last_reported":1744196896,"current_range_meters":20800,"station_id":"ce4bh412rcd13ifvqds0","pricing_plan_id":"cebpf4jnsgd1na2vs0mg"},{"bike_id":"b5e4438f-d942-444d-8724-ea5468be5782","system_id":"levelo_inurba_marseille","lat":43.28164,"lon":5.42649,"is_reserved":false,"is_disabled":false,"rental_uris":{"android":"levelo://app?vid=b5e4438f-d942-444d-8724-ea5468be5782","ios":"levelo://app?vid=b5e4438f-d942-444d-8724-ea5468be5782"},"vehicle_type_id":"4","last_reported":1744196896,"current_range_meters":20800,"station_id":"ce4bhnh2rcd13ifvqgug","pricing_plan_id":"cebpf4jnsgd1na2vs0mg"},{"bike_id":"36883057-499b-458b-9f5f-5bf3c0f09345","system_id":"levelo_inurba_marseille","lat":43.30472,"lon":5.36767,"is_reserved":false,"is_disabled":false,"rental_uris":{"android":"levelo://app?vid=36883057-499b-458b-9f5f-5bf3c0f09345","ios":"levelo://app?vid=36883057-499b-458b-9f5f-5bf3c0f09345"},"vehicle_type_id":"4","last_reported":1744196896,"current_range_meters":20800,"station_id":"","pricing_plan_id":"cebpf4jnsgd1na2vs0mg"},{"bike_id":"07c9e7ed-78f1-4c9b-82d2-ad403b42dd03","system_id":"levelo_inurba_marseille","lat":43.30945,"lon":5.39046,"is_reserved":false,"is_disabled":false,"rental_uris":{"android":"levelo://app?vid=07c9e7ed-78f1-4c9b-82d2-ad403b42dd03","ios":"levelo://app?vid=07c9e7ed-78f1-4c9b-82d2-ad403b42dd03"},"vehicle_type_id":"4","last_reported":1744196896,"current_range_meters":20800,"station_id":"ce4bgup2rcd13ifvqco0","pricing_plan_id":"cebpf4jnsgd1na2vs0mg"},{"bike_id":"08484b23-4182-4ecc-8ab4-6db27939690e","system_id":"levelo_inurba_marseille","lat":43.30548,"lon":5.36556,"is_reserved":false,"is_disabled":false,"rental_uris":{"android":"levelo://app?vid=08484b23-4182-4ecc-8ab4-6db27939690e","ios":"levelo://app?vid=08484b23-4182-4ecc-8ab4-6db27939690e"},"vehicle_type_id":"4","last_reported":1744196896,"current_range_meters":20800,"station_id":"ce4bgs12rcd13ifvqcag","pricing_plan_id":"cebpf4jnsgd1na2vs0mg"},{"bike_id":"4ca2db1b-09d2-4c26-abec-da11e951e6be","system_id":"levelo_inurba_marseille","lat":43.29967,"lon":5.37184,"is_reserved":false,"is_disabled":false,"rental_uris":{"android":"levelo://app?vid=4ca2db1b-09d2-4c26-abec-da11e951e6be","ios":"levelo://app?vid=4ca2db1b-09d2-4c26-abec-da11e951e6be"},"vehicle_type_id":"4","last_reported":1744196896,"current_range_meters":21600,"station_id":"ce4bgr92rcd13ifvqc7g","pricing_plan_id":"cebpf4jnsgd1na2vs0mg"},{"bike_id":"ac09d3d9-626a-4e64-aa0c-ced75a91dafa","system_id":"levelo_inurba_marseille","lat":43.29029,"lon":5.38647,"is_reserved":false,"is_disabled":false,"rental_uris":{"android":"levelo://app?vid=ac09d3d9-626a-4e64-aa0c-ced75a91dafa","ios":"levelo://app?vid=ac09d3d9-626a-4e64-aa0c-ced75a91dafa"},"vehicle_type_id":"4","last_reported":1744196896,"current_range_meters":21600,"station_id":"ce4bh4p2rcd13ifvqe0g","pricing_plan_id":"cebpf4jnsgd1na2vs0mg"},{"bike_id":"d11d5168-bd84-4e43-9290-72ebc57b649d","system_id":"levelo_inurba_marseille","lat":43.28935,"lon":5.36381,"is_reserved":false,"is_disabled":false,"rental_uris":{"android":"levelo://app?vid=d11d5168-bd84-4e43-9290-72ebc57b649d","ios":"levelo://app?vid=d11d5168-bd84-4e43-9290-72ebc57b649d"},"vehicle_type_id":"4","last_reported":1744196896,"current_range_meters":21600,"station_id":"ce4bhc92rcd13ifvqetg","pricing_plan_id":"cebpf4jnsgd1na2vs0mg"},{"bike_id":"3a54aeb8-c965-4b7c-afae-7941433d9352","system_id":"levelo_inurba_marseille","lat":43.30152,"lon":5.37416,"is_reserved":false,"is_disabled":false,"rental_uris":{"android":"levelo://app?vid=3a54aeb8-c965-4b7c-afae-7941433d9352","ios":"levelo://app?vid=3a54aeb8-c965-4b7c-afae-7941433d9352"},"vehicle_type_id":"4","last_reported":1744196896,"current_range_meters":22000,"station_id":"ce4bgs92rcd13ifvqcc0","pricing_plan_id":"cebpf4jnsgd1na2vs0mg"},{"bike_id":"01630ea0-5332-433a-a16e-6f3673dfcb0c","system_id":"levelo_inurba_marseille","lat":43.24175,"lon":5.39736,"is_reserved":false,"is_disabled":false,"rental_uris":{"android":"levelo://app?vid=01630ea0-5332-433a-a16e-6f3673dfcb0c","ios":"levelo://app?vid=01630ea0-5332-433a-a16e-6f3673dfcb0c"},"vehicle_type_id":"4","last_reported":1744196896,"current_range_meters":22000,"station_id":"ce4bhn12rcd13ifvqgpg","pricing_plan_id":"cebpf4jnsgd1na2vs0mg"},{"bike_id":"9a05cd8b-1b36-454b-99b6-dd766cff4eb4","system_id":"levelo_inurba_marseille","lat":43.30951,"lon":5.39034,"is_reserved":false,"is_disabled":false,"rental_uris":{"android":"levelo://app?vid=9a05cd8b-1b36-454b-99b6-dd766cff4eb4","ios":"levelo://app?vid=9a05cd8b-1b36-454b-99b6-dd766cff4eb4"},"vehicle_type_id":"4","last_reported":1744196896,"current_range_meters":22000,"station_id":"ce4bgup2rcd13ifvqco0","pricing_plan_id":"cebpf4jnsgd1na2vs0mg"},{"bike_id":"265fc631-e306-4e55-9d00-9e22ece7fd49","system_id":"levelo_inurba_marseille","lat":43.29171,"lon":5.37167,"is_reserved":false,"is_disabled":false,"rental_uris":{"android":"levelo://app?vid=265fc631-e306-4e55-9d00-9e22ece7fd49","ios":"levelo://app?vid=265fc631-e306-4e55-9d00-9e22ece7fd49"},"vehicle_type_id":"4","last_reported":1744196896,"current_range_meters":22000,"station_id":"ce4bha92rcd13ifvqeh0","pricing_plan_id":"cebpf4jnsgd1na2vs0mg"},{"bike_id":"4cf95882-642d-4b05-aa18-69288dc09e47","system_id":"levelo_inurba_marseille","lat":43.291022,"lon":5.37985,"is_reserved":false,"is_disabled":false,"rental_uris":{"android":"levelo://app?vid=4cf95882-642d-4b05-aa18-69288dc09e47","ios":"levelo://app?vid=4cf95882-642d-4b05-aa18-69288dc09e47"},"vehicle_type_id":"4","last_reported":1744196896,"current_range_meters":22000,"station_id":"ce4bgjh2rcd13ifvqbf0","pricing_plan_id":"cebpf4jnsgd1na2vs0mg"},{"bike_id":"b6d46619-3a85-480d-8456-dc9b472c1fa0","system_id":"levelo_inurba_marseille","lat":43.27315,"lon":5.39078,"is_reserved":false,"is_disabled":false,"rental_uris":{"android":"levelo://app?vid=b6d46619-3a85-480d-8456-dc9b472c1fa0","ios":"levelo://app?vid=b6d46619-3a85-480d-8456-dc9b472c1fa0"},"vehicle_type_id":"4","last_reported":1744196896,"current_range_meters":21600,"station_id":"ce4bhgp2rcd13ifvqfe0","pricing_plan_id":"cebpf4jnsgd1na2vs0mg"},{"bike_id":"0ebc145c-46ca-4a2c-af28-a94b62128406","system_id":"levelo_inurba_marseille","lat":43.29571,"lon":5.37526,"is_reserved":false,"is_disabled":false,"rental_uris":{"android":"levelo://app?vid=0ebc145c-46ca-4a2c-af28-a94b62128406","ios":"levelo://app?vid=0ebc145c-46ca-4a2c-af28-a94b62128406"},"vehicle_type_id":"4","last_reported":1744196896,"current_range_meters":22400,"station_id":"ce4bgh92rcd13ifvqb50","pricing_plan_id":"cebpf4jnsgd1na2vs0mg"},{"bike_id":"593cc697-220e-4df3-9f2b-b1793070fa32","system_id":"levelo_inurba_marseille","lat":43.30562,"lon":5.365265,"is_reserved":false,"is_disabled":true,"rental_uris":{"android":"levelo://app?vid=593cc697-220e-4df3-9f2b-b1793070fa32","ios":"levelo://app?vid=593cc697-220e-4df3-9f2b-b1793070fa32"},"vehicle_type_id":"4","last_reported":1744196896,"current_range_meters":22400,"station_id":"ce4bgs12rcd13ifvqcag","pricing_plan_id":"cebpf4jnsgd1na2vs0mg"},{"bike_id":"d969e685-f34a-42a9-91ad-1618b39d5e03","system_id":"levelo_inurba_marseille","lat":43.2315,"lon":5.43726,"is_reserved":false,"is_disabled":false,"rental_uris":{"android":"levelo://app?vid=d969e685-f34a-42a9-91ad-1618b39d5e03","ios":"levelo://app?vid=d969e685-f34a-42a9-91ad-1618b39d5e03"},"vehicle_type_id":"4","last_reported":1744196896,"current_range_meters":22400,"station_id":"ce4bhl92rcd13ifvqghg","pricing_plan_id":"cebpf4jnsgd1na2vs0mg"},{"bike_id":"5a049d65-3f59-4898-bfd6-1aeb68342e64","system_id":"levelo_inurba_marseille","lat":43.30306,"lon":5.36906,"is_reserved":false,"is_disabled":false,"rental_uris":{"android":"levelo://app?vid=5a049d65-3f59-4898-bfd6-1aeb68342e64","ios":"levelo://app?vid=5a049d65-3f59-4898-bfd6-1aeb68342e64"},"vehicle_type_id":"4","last_reported":1744196896,"current_range_meters":22400,"station_id":"ce4bgqh2rcd13ifvqc5g","pricing_plan_id":"cebpf4jnsgd1na2vs0mg"},{"bike_id":"ba260f6b-2639-4114-9db6-72595b2bb3f5","system_id":"levelo_inurba_marseille","lat":43.31684,"lon":5.40477,"is_reserved":false,"is_disabled":false,"rental_uris":{"android":"levelo://app?vid=ba260f6b-2639-4114-9db6-72595b2bb3f5","ios":"levelo://app?vid=ba260f6b-2639-4114-9db6-72595b2bb3f5"},"vehicle_type_id":"4","last_reported":1744196896,"current_range_meters":22400,"station_id":"ce4bh012rcd13ifvqd00","pricing_plan_id":"cebpf4jnsgd1na2vs0mg"},{"bike_id":"248e6f2f-2e1e-4e0a-bdb3-badd9dc01398","system_id":"levelo_inurba_marseille","lat":43.28053,"lon":5.40883,"is_reserved":false,"is_disabled":false,"rental_uris":{"android":"levelo://app?vid=248e6f2f-2e1e-4e0a-bdb3-badd9dc01398","ios":"levelo://app?vid=248e6f2f-2e1e-4e0a-bdb3-badd9dc01398"},"vehicle_type_id":"4","last_reported":1744196896,"current_range_meters":22400,"station_id":"","pricing_plan_id":"cebpf4jnsgd1na2vs0mg"},{"bike_id":"50deb72e-5960-4e77-b6ad-907fdfa7b57d","system_id":"levelo_inurba_marseille","lat":43.29584,"lon":5.37499,"is_reserved":false,"is_disabled":true,"rental_uris":{"android":"levelo://app?vid=50deb72e-5960-4e77-b6ad-907fdfa7b57d","ios":"levelo://app?vid=50deb72e-5960-4e77-b6ad-907fdfa7b57d"},"vehicle_type_id":"4","last_reported":1744196896,"current_range_meters":22400,"station_id":"ce4bgh92rcd13ifvqb50","pricing_plan_id":"cebpf4jnsgd1na2vs0mg"},{"bike_id":"a8743262-23dc-4e5b-bd83-130a71653aa8","system_id":"levelo_inurba_marseille","lat":43.32666,"lon":5.40997,"is_reserved":false,"is_disabled":false,"rental_uris":{"android":"levelo://app?vid=a8743262-23dc-4e5b-bd83-130a71653aa8","ios":"levelo://app?vid=a8743262-23dc-4e5b-bd83-130a71653aa8"},"vehicle_type_id":"4","last_reported":1744196896,"current_range_meters":22400,"station_id":"ce4bhpp2rcd13ifvqhgg","pricing_plan_id":"cebpf4jnsgd1na2vs0mg"},{"bike_id":"f9fde33d-3e05-4f24-9670-2ad2d1cacdc1","system_id":"levelo_inurba_marseille","lat":43.28831,"lon":5.37284,"is_reserved":false,"is_disabled":true,"rental_uris":{"android":"levelo://app?vid=f9fde33d-3e05-4f24-9670-2ad2d1cacdc1","ios":"levelo://app?vid=f9fde33d-3e05-4f24-9670-2ad2d1cacdc1"},"vehicle_type_id":"4","last_reported":1744196896,"current_range_meters":22400,"station_id":"","pricing_plan_id":"cebpf4jnsgd1na2vs0mg"},{"bike_id":"d5e984d3-343e-4e16-bd54-bc3ebbd48639","system_id":"levelo_inurba_marseille","lat":43.301404,"lon":5.387848,"is_reserved":false,"is_disabled":true,"rental_uris":{"android":"levelo://app?vid=d5e984d3-343e-4e16-bd54-bc3ebbd48639","ios":"levelo://app?vid=d5e984d3-343e-4e16-bd54-bc3ebbd48639"},"vehicle_type_id":"4","last_reported":1744196896,"current_range_meters":22800,"station_id":"ce4bghh2rcd13ifvqb60","pricing_plan_id":"cebpf4jnsgd1na2vs0mg"},{"bike_id":"509b175b-3c7c-49aa-9e2c-ce922a8006af","system_id":"levelo_inurba_marseille","lat":43.2316,"lon":5.43713,"is_reserved":false,"is_disabled":false,"rental_uris":{"android":"levelo://app?vid=509b175b-3c7c-49aa-9e2c-ce922a8006af","ios":"levelo://app?vid=509b175b-3c7c-49aa-9e2c-ce922a8006af"},"vehicle_type_id":"4","last_reported":1744196896,"current_range_meters":22800,"station_id":"ce4bhmp2rcd13ifvqgog","pricing_plan_id":"cebpf4jnsgd1na2vs0mg"},{"bike_id":"e2c7d61d-28b9-4eae-9531-c9da5c27e6c3","system_id":"levelo_inurba_marseille","lat":43.32854,"lon":5.42635,"is_reserved":false,"is_disabled":true,"rental_uris":{"android":"levelo://app?vid=e2c7d61d-28b9-4eae-9531-c9da5c27e6c3","ios":"levelo://app?vid=e2c7d61d-28b9-4eae-9531-c9da5c27e6c3"},"vehicle_type_id":"4","last_reported":1744196896,"current_range_meters":22800,"station_id":"","pricing_plan_id":"cebpf4jnsgd1na2vs0mg"},{"bike_id":"f79efb64-3ff3-446c-b3a2-c024dadec618","system_id":"levelo_inurba_marseille","lat":43.23166,"lon":5.43713,"is_reserved":false,"is_disabled":false,"rental_uris":{"android":"levelo://app?vid=f79efb64-3ff3-446c-b3a2-c024dadec618","ios":"levelo://app?vid=f79efb64-3ff3-446c-b3a2-c024dadec618"},"vehicle_type_id":"4","last_reported":1744196896,"current_range_meters":22800,"station_id":"ce4bhmp2rcd13ifvqgog","pricing_plan_id":"cebpf4jnsgd1na2vs0mg"},{"bike_id":"4366da72-88b8-4d20-af8a-b8d3fa5ee243","system_id":"levelo_inurba_marseille","lat":43.33722,"lon":5.39199,"is_reserved":false,"is_disabled":false,"rental_uris":{"android":"levelo://app?vid=4366da72-88b8-4d20-af8a-b8d3fa5ee243","ios":"levelo://app?vid=4366da72-88b8-4d20-af8a-b8d3fa5ee243"},"vehicle_type_id":"4","last_reported":1744196896,"current_range_meters":22400,"station_id":"ce4bhr92rcd13ifvqhsg","pricing_plan_id":"cebpf4jnsgd1na2vs0mg"},{"bike_id":"df4107bf-29a3-47b1-beb7-a93b6f7c2045","system_id":"levelo_inurba_marseille","lat":43.28461,"lon":5.35889,"is_reserved":false,"is_disabled":false,"rental_uris":{"android":"levelo://app?vid=df4107bf-29a3-47b1-beb7-a93b6f7c2045","ios":"levelo://app?vid=df4107bf-29a3-47b1-beb7-a93b6f7c2045"},"vehicle_type_id":"4","last_reported":1744196896,"current_range_meters":22800,"station_id":"ce4bhah2rcd13ifvqei0","pricing_plan_id":"cebpf4jnsgd1na2vs0mg"},{"bike_id":"eab6cbfa-cb8e-47d7-b0d6-226ab7facec7","system_id":"levelo_inurba_marseille","lat":43.31716,"lon":5.42415,"is_reserved":false,"is_disabled":true,"rental_uris":{"android":"levelo://app?vid=eab6cbfa-cb8e-47d7-b0d6-226ab7facec7","ios":"levelo://app?vid=eab6cbfa-cb8e-47d7-b0d6-226ab7facec7"},"vehicle_type_id":"4","last_reported":1744196896,"current_range_meters":22800,"station_id":"ce4bhp92rcd13ifvqhbg","pricing_plan_id":"cebpf4jnsgd1na2vs0mg"},{"bike_id":"96252fc2-856c-4f33-8c35-0d9ed003b6db","system_id":"levelo_inurba_marseille","lat":43.31248,"lon":5.3685,"is_reserved":false,"is_disabled":false,"rental_uris":{"android":"levelo://app?vid=96252fc2-856c-4f33-8c35-0d9ed003b6db","ios":"levelo://app?vid=96252fc2-856c-4f33-8c35-0d9ed003b6db"},"vehicle_type_id":"4","last_reported":1744196896,"current_range_meters":23200,"station_id":"ce4bgl92rcd13ifvqbq0","pricing_plan_id":"cebpf4jnsgd1na2vs0mg"},{"bike_id":"fa399542-243e-4d1f-bddc-f382feb81957","system_id":"levelo_inurba_marseille","lat":43.32656,"lon":5.40992,"is_reserved":false,"is_disabled":false,"rental_uris":{"android":"levelo://app?vid=fa399542-243e-4d1f-bddc-f382feb81957","ios":"levelo://app?vid=fa399542-243e-4d1f-bddc-f382feb81957"},"vehicle_type_id":"4","last_reported":1744196896,"current_range_meters":23200,"station_id":"ce4bhpp2rcd13ifvqhgg","pricing_plan_id":"cebpf4jnsgd1na2vs0mg"},{"bike_id":"86c09796-436c-4277-9510-d181add87a25","system_id":"levelo_inurba_marseille","lat":43.31203,"lon":5.36852,"is_reserved":false,"is_disabled":false,"rental_uris":{"android":"levelo://app?vid=86c09796-436c-4277-9510-d181add87a25","ios":"levelo://app?vid=86c09796-436c-4277-9510-d181add87a25"},"vehicle_type_id":"4","last_reported":1744196896,"current_range_meters":23200,"station_id":"ce4bgl92rcd13ifvqbq0","pricing_plan_id":"cebpf4jnsgd1na2vs0mg"},{"bike_id":"23718e9a-5ce7-4d28-99a5-8f754f56e13c","system_id":"levelo_inurba_marseille","lat":43.22522,"lon":5.34765,"is_reserved":false,"is_disabled":false,"rental_uris":{"android":"levelo://app?vid=23718e9a-5ce7-4d28-99a5-8f754f56e13c","ios":"levelo://app?vid=23718e9a-5ce7-4d28-99a5-8f754f56e13c"},"vehicle_type_id":"4","last_reported":1744196896,"current_range_meters":23200,"station_id":"","pricing_plan_id":"cebpf4jnsgd1na2vs0mg"},{"bike_id":"3778712b-6cdf-448a-b1cd-308ea2c90d1b","system_id":"levelo_inurba_marseille","lat":43.303,"lon":5.37718,"is_reserved":false,"is_disabled":false,"rental_uris":{"android":"levelo://app?vid=3778712b-6cdf-448a-b1cd-308ea2c90d1b","ios":"levelo://app?vid=3778712b-6cdf-448a-b1cd-308ea2c90d1b"},"vehicle_type_id":"4","last_reported":1744196896,"current_range_meters":23200,"station_id":"ce4bguh2rcd13ifvqcj0","pricing_plan_id":"cebpf4jnsgd1na2vs0mg"},{"bike_id":"e36716cc-58b0-4aba-9e44-2b4fbe305d2e","system_id":"levelo_inurba_marseille","lat":43.301,"lon":5.38797,"is_reserved":false,"is_disabled":true,"rental_uris":{"android":"levelo://app?vid=e36716cc-58b0-4aba-9e44-2b4fbe305d2e","ios":"levelo://app?vid=e36716cc-58b0-4aba-9e44-2b4fbe305d2e"},"vehicle_type_id":"4","last_reported":1744196896,"current_range_meters":23200,"station_id":"ce4bghh2rcd13ifvqb60","pricing_plan_id":"cebpf4jnsgd1na2vs0mg"},{"bike_id":"840427a7-3a1f-4760-8487-8086251243c2","system_id":"levelo_inurba_marseille","lat":43.29932,"lon":5.3651,"is_reserved":false,"is_disabled":false,"rental_uris":{"android":"levelo://app?vid=840427a7-3a1f-4760-8487-8086251243c2","ios":"levelo://app?vid=840427a7-3a1f-4760-8487-8086251243c2"},"vehicle_type_id":"4","last_reported":1744196896,"current_range_meters":23200,"station_id":"ce4bgm92rcd13ifvqbr0","pricing_plan_id":"cebpf4jnsgd1na2vs0mg"},{"bike_id":"6125ddfd-95ef-4a70-a9b9-c5500f0917b8","system_id":"levelo_inurba_marseille","lat":43.31289,"lon":5.38679,"is_reserved":false,"is_disabled":false,"rental_uris":{"android":"levelo://app?vid=6125ddfd-95ef-4a70-a9b9-c5500f0917b8","ios":"levelo://app?vid=6125ddfd-95ef-4a70-a9b9-c5500f0917b8"},"vehicle_type_id":"4","last_reported":1744196896,"current_range_meters":23200,"station_id":"","pricing_plan_id":"cebpf4jnsgd1na2vs0mg"},{"bike_id":"94455896-0f19-4fae-bd72-9879f01fcd6e","system_id":"levelo_inurba_marseille","lat":43.29559,"lon":5.42287,"is_reserved":false,"is_disabled":true,"rental_uris":{"android":"levelo://app?vid=94455896-0f19-4fae-bd72-9879f01fcd6e","ios":"levelo://app?vid=94455896-0f19-4fae-bd72-9879f01fcd6e"},"vehicle_type_id":"4","last_reported":1744196896,"current_range_meters":23200,"station_id":"ce4bhph2rcd13ifvqhdg","pricing_plan_id":"cebpf4jnsgd1na2vs0mg"},{"bike_id":"105cb53d-3f22-4207-8cf5-c06e5f06439b","system_id":"levelo_inurba_marseille","lat":43.25877,"lon":5.39906,"is_reserved":false,"is_disabled":false,"rental_uris":{"android":"levelo://app?vid=105cb53d-3f22-4207-8cf5-c06e5f06439b","ios":"levelo://app?vid=105cb53d-3f22-4207-8cf5-c06e5f06439b"},"vehicle_type_id":"4","last_reported":1744196896,"current_range_meters":23200,"station_id":"ce4bhl92rcd13ifvqghg","pricing_plan_id":"cebpf4jnsgd1na2vs0mg"},{"bike_id":"182650a6-9433-4951-80ba-44b6e3878dab","system_id":"levelo_inurba_marseille","lat":43.30545,"lon":5.38435,"is_reserved":false,"is_disabled":true,"rental_uris":{"android":"levelo://app?vid=182650a6-9433-4951-80ba-44b6e3878dab","ios":"levelo://app?vid=182650a6-9433-4951-80ba-44b6e3878dab"},"vehicle_type_id":"4","last_reported":1744196896,"current_range_meters":23200,"station_id":"ce4bgg92rcd13ifvqb30","pricing_plan_id":"cebpf4jnsgd1na2vs0mg"},{"bike_id":"1c6758df-1dec-402b-8cbf-a82c76304e5d","system_id":"levelo_inurba_marseille","lat":43.24165,"lon":5.39736,"is_reserved":false,"is_disabled":false,"rental_uris":{"android":"levelo://app?vid=1c6758df-1dec-402b-8cbf-a82c76304e5d","ios":"levelo://app?vid=1c6758df-1dec-402b-8cbf-a82c76304e5d"},"vehicle_type_id":"4","last_reported":1744196896,"current_range_meters":23200,"station_id":"ce4bhn12rcd13ifvqgpg","pricing_plan_id":"cebpf4jnsgd1na2vs0mg"},{"bike_id":"383e0525-3596-41bd-b85a-cabea2d330ad","system_id":"levelo_inurba_marseille","lat":43.29302,"lon":5.3716,"is_reserved":false,"is_disabled":false,"rental_uris":{"android":"levelo://app?vid=383e0525-3596-41bd-b85a-cabea2d330ad","ios":"levelo://app?vid=383e0525-3596-41bd-b85a-cabea2d330ad"},"vehicle_type_id":"4","last_reported":1744196896,"current_range_meters":24000,"station_id":"ce4bgh92rcd13ifvqb40","pricing_plan_id":"cebpf4jnsgd1na2vs0mg"},{"bike_id":"0de0284b-1e41-47fa-b2be-6fcb62839fc7","system_id":"levelo_inurba_marseille","lat":43.290791,"lon":5.371452,"is_reserved":false,"is_disabled":false,"rental_uris":{"android":"levelo://app?vid=0de0284b-1e41-47fa-b2be-6fcb62839fc7","ios":"levelo://app?vid=0de0284b-1e41-47fa-b2be-6fcb62839fc7"},"vehicle_type_id":"4","last_reported":1744196896,"current_range_meters":24000,"station_id":"ce4bh5p2rcd13ifvqe4g","pricing_plan_id":"cebpf4jnsgd1na2vs0mg"},{"bike_id":"1d81f59d-e09e-4c72-8595-786f6966c8d0","system_id":"levelo_inurba_marseille","lat":43.29614,"lon":5.37708,"is_reserved":false,"is_disabled":true,"rental_uris":{"android":"levelo://app?vid=1d81f59d-e09e-4c72-8595-786f6966c8d0","ios":"levelo://app?vid=1d81f59d-e09e-4c72-8595-786f6966c8d0"},"vehicle_type_id":"4","last_reported":1744196896,"current_range_meters":24000,"station_id":"ce4bgi92rcd13ifvqb90","pricing_plan_id":"cebpf4jnsgd1na2vs0mg"},{"bike_id":"512644c1-f401-415a-839c-5a1bae85c3e6","system_id":"levelo_inurba_marseille","lat":43.31358,"lon":5.36727,"is_reserved":false,"is_disabled":false,"rental_uris":{"android":"levelo://app?vid=512644c1-f401-415a-839c-5a1bae85c3e6","ios":"levelo://app?vid=512644c1-f401-415a-839c-5a1bae85c3e6"},"vehicle_type_id":"4","last_reported":1744196896,"current_range_meters":24000,"station_id":"ce4bgr92rcd13ifvqc6g","pricing_plan_id":"cebpf4jnsgd1na2vs0mg"},{"bike_id":"651ebb6d-1401-4455-852d-d5179f27c483","system_id":"levelo_inurba_marseille","lat":43.3058,"lon":5.36506,"is_reserved":false,"is_disabled":false,"rental_uris":{"android":"levelo://app?vid=651ebb6d-1401-4455-852d-d5179f27c483","ios":"levelo://app?vid=651ebb6d-1401-4455-852d-d5179f27c483"},"vehicle_type_id":"4","last_reported":1744196896,"current_range_meters":24000,"station_id":"ce4bgs12rcd13ifvqcag","pricing_plan_id":"cebpf4jnsgd1na2vs0mg"},{"bike_id":"28e3645d-aabb-4335-907e-e39d07228180","system_id":"levelo_inurba_marseille","lat":43.31746,"lon":5.4239,"is_reserved":false,"is_disabled":false,"rental_uris":{"android":"levelo://app?vid=28e3645d-aabb-4335-907e-e39d07228180","ios":"levelo://app?vid=28e3645d-aabb-4335-907e-e39d07228180"},"vehicle_type_id":"4","last_reported":1744196896,"current_range_meters":24000,"station_id":"ce4bhp92rcd13ifvqhbg","pricing_plan_id":"cebpf4jnsgd1na2vs0mg"},{"bike_id":"ed1e6cd2-6867-47bd-8ea5-ee4411392d0c","system_id":"levelo_inurba_marseille","lat":43.28429,"lon":5.34987,"is_reserved":false,"is_disabled":false,"rental_uris":{"android":"levelo://app?vid=ed1e6cd2-6867-47bd-8ea5-ee4411392d0c","ios":"levelo://app?vid=ed1e6cd2-6867-47bd-8ea5-ee4411392d0c"},"vehicle_type_id":"4","last_reported":1744196896,"current_range_meters":24000,"station_id":"ce4bhbh2rcd13ifvqepg","pricing_plan_id":"cebpf4jnsgd1na2vs0mg"},{"bike_id":"b39d27e4-e288-42d2-9cd8-dd3479220888","system_id":"levelo_inurba_marseille","lat":43.29534,"lon":5.38557,"is_reserved":false,"is_disabled":true,"rental_uris":{"android":"levelo://app?vid=b39d27e4-e288-42d2-9cd8-dd3479220888","ios":"levelo://app?vid=b39d27e4-e288-42d2-9cd8-dd3479220888"},"vehicle_type_id":"4","last_reported":1744196896,"current_range_meters":24000,"station_id":"ce4bgih2rcd13ifvqba0","pricing_plan_id":"cebpf4jnsgd1na2vs0mg"},{"bike_id":"307a2ea6-9334-49b1-b42f-b9212bd7bb4e","system_id":"levelo_inurba_marseille","lat":43.30218,"lon":5.39457,"is_reserved":false,"is_disabled":true,"rental_uris":{"android":"levelo://app?vid=307a2ea6-9334-49b1-b42f-b9212bd7bb4e","ios":"levelo://app?vid=307a2ea6-9334-49b1-b42f-b9212bd7bb4e"},"vehicle_type_id":"4","last_reported":1744196896,"current_range_meters":24400,"station_id":"ce4bh0p2rcd13ifvqd70","pricing_plan_id":"cebpf4jnsgd1na2vs0mg"},{"bike_id":"4e8e179e-c3fe-4dd7-a674-1964b1f9c809","system_id":"levelo_inurba_marseille","lat":43.24684,"lon":5.38122,"is_reserved":false,"is_disabled":false,"rental_uris":{"android":"levelo://app?vid=4e8e179e-c3fe-4dd7-a674-1964b1f9c809","ios":"levelo://app?vid=4e8e179e-c3fe-4dd7-a674-1964b1f9c809"},"vehicle_type_id":"4","last_reported":1744196896,"current_range_meters":24400,"station_id":"ce4bhih2rcd13ifvqfr0","pricing_plan_id":"cebpf4jnsgd1na2vs0mg"},{"bike_id":"b92a3715-a4a4-49c0-bba0-4a24302829de","system_id":"levelo_inurba_marseille","lat":43.2981,"lon":5.38072,"is_reserved":false,"is_disabled":false,"rental_uris":{"android":"levelo://app?vid=b92a3715-a4a4-49c0-bba0-4a24302829de","ios":"levelo://app?vid=b92a3715-a4a4-49c0-bba0-4a24302829de"},"vehicle_type_id":"4","last_reported":1744196896,"current_range_meters":24400,"station_id":"ce4bgip2rcd13ifvqbb0","pricing_plan_id":"cebpf4jnsgd1na2vs0mg"},{"bike_id":"5c6901a8-0c27-4bce-99f2-8481fd784e3d","system_id":"levelo_inurba_marseille","lat":43.25926,"lon":5.4089,"is_reserved":false,"is_disabled":true,"rental_uris":{"android":"levelo://app?vid=5c6901a8-0c27-4bce-99f2-8481fd784e3d","ios":"levelo://app?vid=5c6901a8-0c27-4bce-99f2-8481fd784e3d"},"vehicle_type_id":"4","last_reported":1744196896,"current_range_meters":24400,"station_id":"ce4bhm92rcd13ifvqglg","pricing_plan_id":"cebpf4jnsgd1na2vs0mg"},{"bike_id":"463b41fd-37bb-48c0-a6e4-12f737a3d7cf","system_id":"levelo_inurba_marseille","lat":43.26945,"lon":5.40265,"is_reserved":false,"is_disabled":true,"rental_uris":{"android":"levelo://app?vid=463b41fd-37bb-48c0-a6e4-12f737a3d7cf","ios":"levelo://app?vid=463b41fd-37bb-48c0-a6e4-12f737a3d7cf"},"vehicle_type_id":"4","last_reported":1744196896,"current_range_meters":24400,"station_id":"cjm6bp8fraef2m0cb0m0","pricing_plan_id":"cebpf4jnsgd1na2vs0mg"},{"bike_id":"c97711d0-066b-48ea-a17d-cda0fac521c4","system_id":"levelo_inurba_marseille","lat":43.29297,"lon":5.37441,"is_reserved":false,"is_disabled":false,"rental_uris":{"android":"levelo://app?vid=c97711d0-066b-48ea-a17d-cda0fac521c4","ios":"levelo://app?vid=c97711d0-066b-48ea-a17d-cda0fac521c4"},"vehicle_type_id":"4","last_reported":1744196896,"current_range_meters":24400,"station_id":"ce4bgi12rcd13ifvqb70","pricing_plan_id":"cebpf4jnsgd1na2vs0mg"},{"bike_id":"84ba2882-2055-4e82-85f7-88bb718ca0fc","system_id":"levelo_inurba_marseille","lat":43.21758,"lon":5.34592,"is_reserved":false,"is_disabled":false,"rental_uris":{"android":"levelo://app?vid=84ba2882-2055-4e82-85f7-88bb718ca0fc","ios":"levelo://app?vid=84ba2882-2055-4e82-85f7-88bb718ca0fc"},"vehicle_type_id":"4","last_reported":1744196896,"current_range_meters":24400,"station_id":"cpo3532slgdg3j2ikp40","pricing_plan_id":"cebpf4jnsgd1na2vs0mg"},{"bike_id":"cb08be54-142a-4bed-bb72-e2556b6c9aba","system_id":"levelo_inurba_marseille","lat":43.2957,"lon":5.39977,"is_reserved":false,"is_disabled":false,"rental_uris":{"android":"levelo://app?vid=cb08be54-142a-4bed-bb72-e2556b6c9aba","ios":"levelo://app?vid=cb08be54-142a-4bed-bb72-e2556b6c9aba"},"vehicle_type_id":"4","last_reported":1744196896,"current_range_meters":24400,"station_id":"ce4bh312rcd13ifvqdj0","pricing_plan_id":"cebpf4jnsgd1na2vs0mg"},{"bike_id":"59852b06-c5d3-4702-b90f-98eea8f96ee8","system_id":"levelo_inurba_marseille","lat":43.24173,"lon":5.3638,"is_reserved":false,"is_disabled":false,"rental_uris":{"android":"levelo://app?vid=59852b06-c5d3-4702-b90f-98eea8f96ee8","ios":"levelo://app?vid=59852b06-c5d3-4702-b90f-98eea8f96ee8"},"vehicle_type_id":"4","last_reported":1744196896,"current_range_meters":24400,"station_id":"cpo36qri1sfpv3e86is0","pricing_plan_id":"cebpf4jnsgd1na2vs0mg"},{"bike_id":"27835000-9c86-4274-bf14-aa3fac2eb86d","system_id":"levelo_inurba_marseille","lat":43.32097,"lon":5.36803,"is_reserved":false,"is_disabled":false,"rental_uris":{"android":"levelo://app?vid=27835000-9c86-4274-bf14-aa3fac2eb86d","ios":"levelo://app?vid=27835000-9c86-4274-bf14-aa3fac2eb86d"},"vehicle_type_id":"4","last_reported":1744196896,"current_range_meters":24400,"station_id":"ce4bhrh2rcd13ifvqhug","pricing_plan_id":"cebpf4jnsgd1na2vs0mg"},