{"last_updated":1774361529,"ttl":60,"version":"2.2","data":{"bikes":[{"bike_id":"7d0e7181-3a70-4370-9354-bef3948a92c8","system_id":"levelo_inurba_marseille","lat":43.29959,"lon":5.41327,"is_reserved":false,"is_disabled":false,"rental_uris":{"android":"levelo://app?vid=7d0e7181-3a70-4370-9354-bef3948a92c8","ios":"levelo://app?vid=7d0e7181-3a70-4370-9354-bef3948a92c8"},"vehicle_type_id":"4","last_reported":1774361530,"current_range_meters":2800,"station_id":"ce4bhp12rcd13ifvqh9g","pricing_plan_id":"cebpf4jnsgd1na2vs0mg"},{"bike_id":"00f4039c-838f-43a1-a71b-6c5b9693f44f","system_id":"levelo_inurba_marseille","lat":43.26812,"lon":5.39422,"is_reserved":false,"is_disabled":false,"rental_uris":{"android":"levelo://app?vid=00f4039c-838f-43a1-a71b-6c5b9693f44f","ios":"levelo://app?vid=00f4039c-838f-43a1-a71b-6c5b9693f44f"},"vehicle_type_id":"4","last_reported":1774361530,"current_range_meters":2800,"station_id":"ce4bhh12rcd13ifvqfg0","pricing_plan_id":"cebpf4jnsgd1na2vs0mg"},{"bike_id":"0f88d6b7-883f-4b13-98ff-b1b3b7d422a5","system_id":"levelo_inurba_marseille","lat":43.25925,"lon":5.40904,"is_reserved":false,"is_disabled":true,"rental_uris":{"android":"levelo://app?vid=0f88d6b7-883f-4b13-98ff-b1b3b7d422a5","ios":"levelo://app?vid=0f88d6b7-883f-4b13-98ff-b1b3b7d422a5"},"vehicle_type_id":"4","last_reported":1774361530,"current_range_meters":2800,"station_id":"ce4bhm92rcd13ifvqglg","pricing_plan_id":"cebpf4jnsgd1na2vs0mg"},{"bike_id":"82d19d95-2492-495d-b746-799a9f30f6d5","system_id":"levelo_inurba_marseille","lat":43.2823,"lon":5.40834,"is_reserved":false,"is_disabled":false,"rental_uris":{"android":"levelo://app?vid=82d19d95-2492-495d-b746-799a9f30f6d5","ios":"levelo://app?vid=82d19d95-2492-495d-b746-799a9f30f6d5"},"vehicle_type_id":"4","last_reported":1774361530,"current_range_meters":2800,"station_id":"","pricing_plan_id":"cebpf4jnsgd1na2vs0mg"},{"bike_id":"6f3fdbf9-917f-421d-aa86-02187d7ba65c","system_id":"levelo_inurba_marseille","lat":43.2848,"lon":5.4837,"is_reserved":false,"is_disabled":false,"rental_uris":{"android":"levelo://app?vid=6f3fdbf9-917f-421d-aa86-02187d7ba65c","ios":"levelo://app?vid=6f3fdbf9-917f-421d-aa86-02187d7ba65c"},"vehicle_type_id":"4","last_reported":1774361530,"current_range_meters":2800,"station_id":"st_d3svhcjqgbts73a3dn0g","pricing_plan_id":"cebpf4jnsgd1na2vs0mg"},{"bike_id":"c387c570-459d-499b-b3cc-2f670b65c333","system_id":"levelo_inurba_marseille","lat":43.28476,"lon":5.384277,"is_reserved":false,"is_disabled":false,"rental_uris":{"android":"levelo://app?vid=c387c570-459d-499b-b3cc-2f670b65c333","ios":"levelo://app?vid=c387c570-459d-499b-b3cc-2f670b65c333"},"vehicle_type_id":"4","last_reported":1774361530,"current_range_meters":2800,"station_id":"ce4bh512rcd13ifvqe3g","pricing_plan_id":"cebpf4jnsgd1na2vs0mg"},{"bike_id":"a0ded1fa-8134-4455-ac32-70d2c7cb25ad","system_id":"levelo_inurba_marseille","lat":43.30949,"lon":5.39032,"is_reserved":false,"is_disabled":false,"rental_uris":{"android":"levelo://app?vid=a0ded1fa-8134-4455-ac32-70d2c7cb25ad","ios":"levelo://app?vid=a0ded1fa-8134-4455-ac32-70d2c7cb25ad"},"vehicle_type_id":"4","last_reported":1774361530,"current_range_meters":2800,"station_id":"ce4bgup2rcd13ifvqco0","pricing_plan_id":"cebpf4jnsgd1na2vs0mg"},{"bike_id":"2c848293-6125-4b9b-ad7b-b3551fac917a","system_id":"levelo_inurba_marseille","lat":43.23048,"lon":5.35506,"is_reserved":false,"is_disabled":false,"rental_uris":{"android":"levelo://app?vid=2c848293-6125-4b9b-ad7b-b3551fac917a","ios":"levelo://app?vid=2c848293-6125-4b9b-ad7b-b3551fac917a"},"vehicle_type_id":"4","last_reported":1774361530,"current_range_meters":2800,"station_id":"cpo3342slgdg3j2ifvpg","pricing_plan_id":"cebpf4jnsgd1na2vs0mg"},{"bike_id":"80cf8148-1672-42c0-90a8-ea52b8fe6927","system_id":"levelo_inurba_marseille","lat":43.29051,"lon":5.39948,"is_reserved":false,"is_disabled":false,"rental_uris":{"android":"levelo://app?vid=80cf8148-1672-42c0-90a8-ea52b8fe6927","ios":"levelo://app?vid=80cf8148-1672-42c0-90a8-ea52b8fe6927"},"vehicle_type_id":"4","last_reported":1774361530,"current_range_meters":2800,"station_id":"ce4bh392rcd13ifvqdm0","pricing_plan_id":"cebpf4jnsgd1na2vs0mg"},{"bike_id":"6a361988-483c-4fea-b668-fae45fefb959","system_id":"levelo_inurba_marseille","lat":43.3213,"lon":5.36743,"is_reserved":false,"is_disabled":false,"rental_uris":{"android":"levelo://app?vid=6a361988-483c-4fea-b668-fae45fefb959","ios":"levelo://app?vid=6a361988-483c-4fea-b668-fae45fefb959"},"vehicle_type_id":"4","last_reported":1774361530,"current_range_meters":3200,"station_id":"ce4bhrh2rcd13ifvqhug","pricing_plan_id":"cebpf4jnsgd1na2vs0mg"},{"bike_id":"cd35adea-cd63-4b70-bb35-6957bdac627c","system_id":"levelo_inurba_marseille","lat":43.29525,"lon":5.39051,"is_reserved":false,"is_disabled":false,"rental_uris":{"android":"levelo://app?vid=cd35adea-cd63-4b70-bb35-6957bdac627c","ios":"levelo://app?vid=cd35adea-cd63-4b70-bb35-6957bdac627c"},"vehicle_type_id":"4","last_reported":1774361530,"current_range_meters":3200,"station_id":"ce4bh3p2rcd13ifvqdp0","pricing_plan_id":"cebpf4jnsgd1na2vs0mg"},{"bike_id":"ca3d447d-9f8c-4f7a-a703-f554fa5e4c40","system_id":"levelo_inurba_marseille","lat":43.26516,"lon":5.39498,"is_reserved":false,"is_disabled":false,"rental_uris":{"android":"levelo://app?vid=ca3d447d-9f8c-4f7a-a703-f554fa5e4c40","ios":"levelo://app?vid=ca3d447d-9f8c-4f7a-a703-f554fa5e4c40"},"vehicle_type_id":"4","last_reported":1774361530,"current_range_meters":3200,"station_id":"ce4bhi12rcd13ifvqfq0","pricing_plan_id":"cebpf4jnsgd1na2vs0mg"},{"bike_id":"f554888c-9515-430c-b3e9-327a4cc15db0","system_id":"levelo_inurba_marseille","lat":43.2964,"lon":5.42423,"is_reserved":false,"is_disabled":false,"rental_uris":{"android":"levelo://app?vid=f554888c-9515-430c-b3e9-327a4cc15db0","ios":"levelo://app?vid=f554888c-9515-430c-b3e9-327a4cc15db0"},"vehicle_type_id":"4","last_reported":1774361530,"current_range_meters":3200,"station_id":"","pricing_plan_id":"cebpf4jnsgd1na2vs0mg"},{"bike_id":"5fe1ff9e-b74f-4981-a3d7-891d0df4a8be","system_id":"levelo_inurba_marseille","lat":43.29981,"lon":5.3851,"is_reserved":false,"is_disabled":false,"rental_uris":{"android":"levelo://app?vid=5fe1ff9e-b74f-4981-a3d7-891d0df4a8be","ios":"levelo://app?vid=5fe1ff9e-b74f-4981-a3d7-891d0df4a8be"},"vehicle_type_id":"4","last_reported":1774361530,"current_range_meters":3200,"station_id":"ce4bgj92rcd13ifvqbd0","pricing_plan_id":"cebpf4jnsgd1na2vs0mg"},{"bike_id":"bc27e809-afb9-4b67-90c4-fb613e66e8ac","system_id":"levelo_inurba_marseille","lat":43.32501,"lon":5.36552,"is_reserved":false,"is_disabled":false,"rental_uris":{"android":"levelo://app?vid=bc27e809-afb9-4b67-90c4-fb613e66e8ac","ios":"levelo://app?vid=bc27e809-afb9-4b67-90c4-fb613e66e8ac"},"vehicle_type_id":"4","last_reported":1774361530,"current_range_meters":3600,"station_id":"ce4bhs12rcd13ifvqhvg","pricing_plan_id":"cebpf4jnsgd1na2vs0mg"},{"bike_id":"bf5af6f8-69a5-4b76-be3f-994c76781739","system_id":"levelo_inurba_marseille","lat":43.26552,"lon":5.39007,"is_reserved":false,"is_disabled":true,"rental_uris":{"android":"levelo://app?vid=bf5af6f8-69a5-4b76-be3f-994c76781739","ios":"levelo://app?vid=bf5af6f8-69a5-4b76-be3f-994c76781739"},"vehicle_type_id":"4","last_reported":1774361530,"current_range_meters":3600,"station_id":"ce4bhe12rcd13ifvqf30","pricing_plan_id":"cebpf4jnsgd1na2vs0mg"},{"bike_id":"c49e9578-571f-4887-a4b2-b47715463765","system_id":"levelo_inurba_marseille","lat":43.27366,"lon":5.36252,"is_reserved":false,"is_disabled":false,"rental_uris":{"android":"levelo://app?vid=c49e9578-571f-4887-a4b2-b47715463765","ios":"levelo://app?vid=c49e9578-571f-4887-a4b2-b47715463765"},"vehicle_type_id":"4","last_reported":1774361530,"current_range_meters":3600,"station_id":"ce4bhbh2rcd13ifvqeo0","pricing_plan_id":"cebpf4jnsgd1na2vs0mg"},{"bike_id":"8a067a40-2b29-4806-a830-bffb2dfb8e57","system_id":"levelo_inurba_marseille","lat":43.26555,"lon":5.37288,"is_reserved":false,"is_disabled":false,"rental_uris":{"android":"levelo://app?vid=8a067a40-2b29-4806-a830-bffb2dfb8e57","ios":"levelo://app?vid=8a067a40-2b29-4806-a830-bffb2dfb8e57"},"vehicle_type_id":"4","last_reported":1774361530,"current_range_meters":3600,"station_id":"ce4bhg12rcd13ifvqf70","pricing_plan_id":"cebpf4jnsgd1na2vs0mg"},{"bike_id":"134ec09b-de3e-41f0-93c9-aa86737c6894","system_id":"levelo_inurba_marseille","lat":43.32496,"lon":5.38287,"is_reserved":false,"is_disabled":false,"rental_uris":{"android":"levelo://app?vid=134ec09b-de3e-41f0-93c9-aa86737c6894","ios":"levelo://app?vid=134ec09b-de3e-41f0-93c9-aa86737c6894"},"vehicle_type_id":"4","last_reported":1774361530,"current_range_meters":3600,"station_id":"st_d4asgbiv49dc73anf9m0","pricing_plan_id":"cebpf4jnsgd1na2vs0mg"},{"bike_id":"36419004-ed5f-4ddc-983e-175180c228c2","system_id":"levelo_inurba_marseille","lat":43.29008,"lon":5.35607,"is_reserved":false,"is_disabled":false,"rental_uris":{"android":"levelo://app?vid=36419004-ed5f-4ddc-983e-175180c228c2","ios":"levelo://app?vid=36419004-ed5f-4ddc-983e-175180c228c2"},"vehicle_type_id":"4","last_reported":1774361530,"current_range_meters":3600,"station_id":"ce4bhb92rcd13ifvqen0","pricing_plan_id":"cebpf4jnsgd1na2vs0mg"},{"bike_id":"87cab354-e36c-4dc9-949d-1832434988fa","system_id":"levelo_inurba_marseille","lat":43.31308,"lon":5.38442,"is_reserved":false,"is_disabled":false,"rental_uris":{"android":"levelo://app?vid=87cab354-e36c-4dc9-949d-1832434988fa","ios":"levelo://app?vid=87cab354-e36c-4dc9-949d-1832434988fa"},"vehicle_type_id":"4","last_reported":1774361530,"current_range_meters":3600,"station_id":"","pricing_plan_id":"cebpf4jnsgd1na2vs0mg"},{"bike_id":"4d88734a-162e-4307-92a3-61e5ee7aa63f","system_id":"levelo_inurba_marseille","lat":43.29205,"lon":5.42586,"is_reserved":false,"is_disabled":true,"rental_uris":{"android":"levelo://app?vid=4d88734a-162e-4307-92a3-61e5ee7aa63f","ios":"levelo://app?vid=4d88734a-162e-4307-92a3-61e5ee7aa63f"},"vehicle_type_id":"4","last_reported":1774361530,"current_range_meters":3600,"station_id":"","pricing_plan_id":"cebpf4jnsgd1na2vs0mg"},{"bike_id":"9f8c5aae-214b-4b16-b28e-49c211477f37","system_id":"levelo_inurba_marseille","lat":43.28536,"lon":5.44098,"is_reserved":false,"is_disabled":false,"rental_uris":{"android":"levelo://app?vid=9f8c5aae-214b-4b16-b28e-49c211477f37","ios":"levelo://app?vid=9f8c5aae-214b-4b16-b28e-49c211477f37"},"vehicle_type_id":"4","last_reported":1774361530,"current_range_meters":3600,"station_id":"st_d3j3df2ikq2c7380ej80","pricing_plan_id":"cebpf4jnsgd1na2vs0mg"},{"bike_id":"2e4f0acd-6bbe-47f3-9440-ace6e3914cef","system_id":"levelo_inurba_marseille","lat":43.26558,"lon":5.39011,"is_reserved":false,"is_disabled":false,"rental_uris":{"android":"levelo://app?vid=2e4f0acd-6bbe-47f3-9440-ace6e3914cef","ios":"levelo://app?vid=2e4f0acd-6bbe-47f3-9440-ace6e3914cef"},"vehicle_type_id":"4","last_reported":1774361530,"current_range_meters":3600,"station_id":"ce4bhe12rcd13ifvqf30","pricing_plan_id":"cebpf4jnsgd1na2vs0mg"},{"bike_id":"43e533cf-9b26-44c4-be7e-ee1dae392786","system_id":"levelo_inurba_marseille","lat":43.26361,"lon":5.41094,"is_reserved":false,"is_disabled":false,"rental_uris":{"android":"levelo://app?vid=43e533cf-9b26-44c4-be7e-ee1dae392786","ios":"levelo://app?vid=43e533cf-9b26-44c4-be7e-ee1dae392786"},"vehicle_type_id":"4","last_reported":1774361530,"current_range_meters":3600,"station_id":"st_d4e5ca6na9uc73bfl5fg","pricing_plan_id":"cebpf4jnsgd1na2vs0mg"},{"bike_id":"2a5f80a6-a530-40e8-8b57-fb3c7d7e0c72","system_id":"levelo_inurba_marseille","lat":43.25941,"lon":5.40878,"is_reserved":false,"is_disabled":false,"rental_uris":{"android":"levelo://app?vid=2a5f80a6-a530-40e8-8b57-fb3c7d7e0c72","ios":"levelo://app?vid=2a5f80a6-a530-40e8-8b57-fb3c7d7e0c72"},"vehicle_type_id":"4","last_reported":1774361530,"current_range_meters":4000,"station_id":"ce4bhm92rcd13ifvqglg","pricing_plan_id":"cebpf4jnsgd1na2vs0mg"},{"bike_id":"bbb20be4-a4e3-4756-bf9e-de6efa0abbb9","system_id":"levelo_inurba_marseille","lat":43.29196,"lon":5.42567,"is_reserved":false,"is_disabled":false,"rental_uris":{"android":"levelo://app?vid=bbb20be4-a4e3-4756-bf9e-de6efa0abbb9","ios":"levelo://app?vid=bbb20be4-a4e3-4756-bf9e-de6efa0abbb9"},"vehicle_type_id":"4","last_reported":1774361530,"current_range_meters":4000,"station_id":"","pricing_plan_id":"cebpf4jnsgd1na2vs0mg"},{"bike_id":"c0ede030-ab9a-4615-a9c7-01479ac5ac50","system_id":"levelo_inurba_marseille","lat":43.26687,"lon":5.3825,"is_reserved":false,"is_disabled":false,"rental_uris":{"android":"levelo://app?vid=c0ede030-ab9a-4615-a9c7-01479ac5ac50","ios":"levelo://app?vid=c0ede030-ab9a-4615-a9c7-01479ac5ac50"},"vehicle_type_id":"4","last_reported":1774361530,"current_range_meters":4000,"station_id":"ce4bhg92rcd13ifvqf90","pricing_plan_id":"cebpf4jnsgd1na2vs0mg"},{"bike_id":"d54fd65a-b53f-45cb-be71-8956162ea6e2","system_id":"levelo_inurba_marseille","lat":43.27374,"lon":5.36274,"is_reserved":false,"is_disabled":false,"rental_uris":{"android":"levelo://app?vid=d54fd65a-b53f-45cb-be71-8956162ea6e2","ios":"levelo://app?vid=d54fd65a-b53f-45cb-be71-8956162ea6e2"},"vehicle_type_id":"4","last_reported":1774361530,"current_range_meters":4000,"station_id":"ce4bhbh2rcd13ifvqeo0","pricing_plan_id":"cebpf4jnsgd1na2vs0mg"},{"bike_id":"0add2a96-b6be-483b-ad2e-88265dc5481b","system_id":"levelo_inurba_marseille","lat":43.23891,"lon":5.37465,"is_reserved":false,"is_disabled":false,"rental_uris":{"android":"levelo://app?vid=0add2a96-b6be-483b-ad2e-88265dc5481b","ios":"levelo://app?vid=0add2a96-b6be-483b-ad2e-88265dc5481b"},"vehicle_type_id":"4","last_reported":1774361530,"current_range_meters":4000,"station_id":"st_d6sm7csbq4hs73f8fpjg","pricing_plan_id":"cebpf4jnsgd1na2vs0mg"},{"bike_id":"ecbe9c4b-9c5c-41fa-ac82-21ab421a8014","system_id":"levelo_inurba_marseille","lat":43.26689,"lon":5.38269,"is_reserved":false,"is_disabled":false,"rental_uris":{"android":"levelo://app?vid=ecbe9c4b-9c5c-41fa-ac82-21ab421a8014","ios":"levelo://app?vid=ecbe9c4b-9c5c-41fa-ac82-21ab421a8014"},"vehicle_type_id":"4","last_reported":1774361530,"current_range_meters":4000,"station_id":"ce4bhg92rcd13ifvqf90","pricing_plan_id":"cebpf4jnsgd1na2vs0mg"},{"bike_id":"ec27914b-d7a3-4300-ab8a-b0ea2df85204","system_id":"levelo_inurba_marseille","lat":43.28959,"lon":5.37831,"is_reserved":false,"is_disabled":false,"rental_uris":{"android":"levelo://app?vid=ec27914b-d7a3-4300-ab8a-b0ea2df85204","ios":"levelo://app?vid=ec27914b-d7a3-4300-ab8a-b0ea2df85204"},"vehicle_type_id":"4","last_reported":1774361530,"current_range_meters":4400,"station_id":"ce4bh9p2rcd13ifvqed0","pricing_plan_id":"cebpf4jnsgd1na2vs0mg"},{"bike_id":"f7fa1ad5-099f-49b7-ba3e-26442c9181b9","system_id":"levelo_inurba_marseille","lat":43.305398,"lon":5.365535,"is_reserved":false,"is_disabled":true,"rental_uris":{"android":"levelo://app?vid=f7fa1ad5-099f-49b7-ba3e-26442c9181b9","ios":"levelo://app?vid=f7fa1ad5-099f-49b7-ba3e-26442c9181b9"},"vehicle_type_id":"4","last_reported":1774361530,"current_range_meters":4400,"station_id":"ce4bgs12rcd13ifvqcag","pricing_plan_id":"cebpf4jnsgd1na2vs0mg"},{"bike_id":"c7ddde35-21a1-4b97-8790-550004c0ea87","system_id":"levelo_inurba_marseille","lat":43.30954,"lon":5.39051,"is_reserved":false,"is_disabled":false,"rental_uris":{"android":"levelo://app?vid=c7ddde35-21a1-4b97-8790-550004c0ea87","ios":"levelo://app?vid=c7ddde35-21a1-4b97-8790-550004c0ea87"},"vehicle_type_id":"4","last_reported":1774361530,"current_range_meters":4400,"station_id":"ce4bgup2rcd13ifvqco0","pricing_plan_id":"cebpf4jnsgd1na2vs0mg"},{"bike_id":"9ee9e783-2c85-4849-91db-12992211c84e","system_id":"levelo_inurba_marseille","lat":43.23154,"lon":5.437,"is_reserved":false,"is_disabled":false,"rental_uris":{"android":"levelo://app?vid=9ee9e783-2c85-4849-91db-12992211c84e","ios":"levelo://app?vid=9ee9e783-2c85-4849-91db-12992211c84e"},"vehicle_type_id":"4","last_reported":1774361530,"current_range_meters":4800,"station_id":"ce4bhmp2rcd13ifvqgog","pricing_plan_id":"cebpf4jnsgd1na2vs0mg"},{"bike_id":"e41c893a-4032-48f3-bf3a-8efcbfe1465c","system_id":"levelo_inurba_marseille","lat":43.25872,"lon":5.39384,"is_reserved":false,"is_disabled":true,"rental_uris":{"android":"levelo://app?vid=e41c893a-4032-48f3-bf3a-8efcbfe1465c","ios":"levelo://app?vid=e41c893a-4032-48f3-bf3a-8efcbfe1465c"},"vehicle_type_id":"4","last_reported":1774361530,"current_range_meters":4800,"station_id":"","pricing_plan_id":"cebpf4jnsgd1na2vs0mg"},{"bike_id":"7f8fb115-abde-4880-9a00-1089095cf253","system_id":"levelo_inurba_marseille","lat":43.29885,"lon":5.38891,"is_reserved":false,"is_disabled":true,"rental_uris":{"android":"levelo://app?vid=7f8fb115-abde-4880-9a00-1089095cf253","ios":"levelo://app?vid=7f8fb115-abde-4880-9a00-1089095cf253"},"vehicle_type_id":"4","last_reported":1774361530,"current_range_meters":4800,"station_id":"ce4bh392rcd13ifvqdl0","pricing_plan_id":"cebpf4jnsgd1na2vs0mg"},{"bike_id":"b58aac32-a4d3-4c57-9606-83cff14b3e79","system_id":"levelo_inurba_marseille","lat":43.2733,"lon":5.36264,"is_reserved":false,"is_disabled":false,"rental_uris":{"android":"levelo://app?vid=b58aac32-a4d3-4c57-9606-83cff14b3e79","ios":"levelo://app?vid=b58aac32-a4d3-4c57-9606-83cff14b3e79"},"vehicle_type_id":"4","last_reported":1774361530,"current_range_meters":4800,"station_id":"ce4bhbh2rcd13ifvqeo0","pricing_plan_id":"cebpf4jnsgd1na2vs0mg"},{"bike_id":"c26d1e8d-e1e1-44c7-a2d2-8212f8041b99","system_id":"levelo_inurba_marseille","lat":43.28417,"lon":5.34987,"is_reserved":false,"is_disabled":false,"rental_uris":{"android":"levelo://app?vid=c26d1e8d-e1e1-44c7-a2d2-8212f8041b99","ios":"levelo://app?vid=c26d1e8d-e1e1-44c7-a2d2-8212f8041b99"},"vehicle_type_id":"4","last_reported":1774361530,"current_range_meters":4800,"station_id":"ce4bhbh2rcd13ifvqepg","pricing_plan_id":"cebpf4jnsgd1na2vs0mg"},{"bike_id":"d2260517-36eb-498b-95a6-a249410b03cf","system_id":"levelo_inurba_marseille","lat":43.26585,"lon":5.39795,"is_reserved":false,"is_disabled":false,"rental_uris":{"android":"levelo://app?vid=d2260517-36eb-498b-95a6-a249410b03cf","ios":"levelo://app?vid=d2260517-36eb-498b-95a6-a249410b03cf"},"vehicle_type_id":"4","last_reported":1774361530,"current_range_meters":4800,"station_id":"","pricing_plan_id":"cebpf4jnsgd1na2vs0mg"},{"bike_id":"e18f758a-2632-4401-ae9c-681568266fad","system_id":"levelo_inurba_marseille","lat":43.27821,"lon":5.40704,"is_reserved":false,"is_disabled":false,"rental_uris":{"android":"levelo://app?vid=e18f758a-2632-4401-ae9c-681568266fad","ios":"levelo://app?vid=e18f758a-2632-4401-ae9c-681568266fad"},"vehicle_type_id":"4","last_reported":1774361530,"current_range_meters":4800,"station_id":"ce4bhnh2rcd13ifvqgtg","pricing_plan_id":"cebpf4jnsgd1na2vs0mg"},{"bike_id":"40906df4-17dd-4d9f-ac1f-0880c5eb117e","system_id":"levelo_inurba_marseille","lat":43.32354,"lon":5.36745,"is_reserved":false,"is_disabled":false,"rental_uris":{"android":"levelo://app?vid=40906df4-17dd-4d9f-ac1f-0880c5eb117e","ios":"levelo://app?vid=40906df4-17dd-4d9f-ac1f-0880c5eb117e"},"vehicle_type_id":"4","last_reported":1774361530,"current_range_meters":5600,"station_id":"ce4bhsh2rcd13ifvqi2g","pricing_plan_id":"cebpf4jnsgd1na2vs0mg"},{"bike_id":"a2fabdf4-bd61-4352-82b4-201f5349c59d","system_id":"levelo_inurba_marseille","lat":43.26559,"lon":5.39015,"is_reserved":false,"is_disabled":true,"rental_uris":{"android":"levelo://app?vid=a2fabdf4-bd61-4352-82b4-201f5349c59d","ios":"levelo://app?vid=a2fabdf4-bd61-4352-82b4-201f5349c59d"},"vehicle_type_id":"4","last_reported":1774361530,"current_range_meters":5600,"station_id":"ce4bhe12rcd13ifvqf30","pricing_plan_id":"cebpf4jnsgd1na2vs0mg"},{"bike_id":"256b161c-b142-4bd9-a3a8-1e9e29a5e07f","system_id":"levelo_inurba_marseille","lat":43.24072,"lon":5.37759,"is_reserved":false,"is_disabled":false,"rental_uris":{"android":"levelo://app?vid=256b161c-b142-4bd9-a3a8-1e9e29a5e07f","ios":"levelo://app?vid=256b161c-b142-4bd9-a3a8-1e9e29a5e07f"},"vehicle_type_id":"4","last_reported":1774361530,"current_range_meters":5600,"station_id":"ce4bhnp2rcd13ifvqgvg","pricing_plan_id":"cebpf4jnsgd1na2vs0mg"},{"bike_id":"1d0f3067-7ca2-4fbd-8b40-b921c6748a4a","system_id":"levelo_inurba_marseille","lat":43.28476,"lon":5.48396,"is_reserved":false,"is_disabled":false,"rental_uris":{"android":"levelo://app?vid=1d0f3067-7ca2-4fbd-8b40-b921c6748a4a","ios":"levelo://app?vid=1d0f3067-7ca2-4fbd-8b40-b921c6748a4a"},"vehicle_type_id":"4","last_reported":1774361530,"current_range_meters":5600,"station_id":"","pricing_plan_id":"cebpf4jnsgd1na2vs0mg"},{"bike_id":"69a34fac-fc80-43dc-bb66-91eee3bdfb90","system_id":"levelo_inurba_marseille","lat":43.2877,"lon":5.3529,"is_reserved":false,"is_disabled":false,"rental_uris":{"android":"levelo://app?vid=69a34fac-fc80-43dc-bb66-91eee3bdfb90","ios":"levelo://app?vid=69a34fac-fc80-43dc-bb66-91eee3bdfb90"},"vehicle_type_id":"4","last_reported":1774361530,"current_range_meters":5600,"station_id":"","pricing_plan_id":"cebpf4jnsgd1na2vs0mg"},{"bike_id":"ddd19851-2813-4f37-ad2a-16ff941ac458","system_id":"levelo_inurba_marseille","lat":43.26944,"lon":5.40247,"is_reserved":false,"is_disabled":false,"rental_uris":{"android":"levelo://app?vid=ddd19851-2813-4f37-ad2a-16ff941ac458","ios":"levelo://app?vid=ddd19851-2813-4f37-ad2a-16ff941ac458"},"vehicle_type_id":"4","last_reported":1774361530,"current_range_meters":5600,"station_id":"cjm6bp8fraef2m0cb0m0","pricing_plan_id":"cebpf4jnsgd1na2vs0mg"},{"bike_id":"6e12c744-c386-4fad-befe-29eb201902c0","system_id":"levelo_inurba_marseille","lat":43.25339,"lon":5.42178,"is_reserved":false,"is_disabled":false,"rental_uris":{"android":"levelo://app?vid=6e12c744-c386-4fad-befe-29eb201902c0","ios":"levelo://app?vid=6e12c744-c386-4fad-befe-29eb201902c0"},"vehicle_type_id":"4","last_reported":1774361530,"current_range_meters":5600,"station_id":"st_d2m65c5bi1j21697t3ng","pricing_plan_id":"cebpf4jnsgd1na2vs0mg"},{"bike_id":"bbcec521-b2cb-4752-a30b-3cc813f9ce07","system_id":"levelo_inurba_marseille","lat":43.28751,"lon":5.44834,"is_reserved":false,"is_disabled":false,"rental_uris":{"android":"levelo://app?vid=bbcec521-b2cb-4752-a30b-3cc813f9ce07","ios":"levelo://app?vid=bbcec521-b2cb-4752-a30b-3cc813f9ce07"},"vehicle_type_id":"4","last_reported":1774361530,"current_range_meters":5600,"station_id":"","pricing_plan_id":"cebpf4jnsgd1na2vs0mg"},{"bike_id":"a9fcd02c-7b6b-4ad8-a39d-d88606ee3ac0","system_id":"levelo_inurba_marseille","lat":43.25012,"lon":5.3891,"is_reserved":false,"is_disabled":true,"rental_uris":{"android":"levelo://app?vid=a9fcd02c-7b6b-4ad8-a39d-d88606ee3ac0","ios":"levelo://app?vid=a9fcd02c-7b6b-4ad8-a39d-d88606ee3ac0"},"vehicle_type_id":"4","last_reported":1774361530,"current_range_meters":6000,"station_id":"ce4bhgp2rcd13ifvqfd0","pricing_plan_id":"cebpf4jnsgd1na2vs0mg"},{"bike_id":"eda060ae-fe0d-49ba-b74a-bf7fc5ae3c12","system_id":"levelo_inurba_marseille","lat":43.22933,"lon":5.35376,"is_reserved":false,"is_disabled":false,"rental_uris":{"android":"levelo://app?vid=eda060ae-fe0d-49ba-b74a-bf7fc5ae3c12","ios":"levelo://app?vid=eda060ae-fe0d-49ba-b74a-bf7fc5ae3c12"},"vehicle_type_id":"4","last_reported":1774361530,"current_range_meters":6000,"station_id":"cpo3532slgdg3j2ikp40","pricing_plan_id":"cebpf4jnsgd1na2vs0mg"},{"bike_id":"2eb44159-3f75-4b02-8183-34e12ab331da","system_id":"levelo_inurba_marseille","lat":43.29958,"lon":5.38496,"is_reserved":false,"is_disabled":false,"rental_uris":{"android":"levelo://app?vid=2eb44159-3f75-4b02-8183-34e12ab331da","ios":"levelo://app?vid=2eb44159-3f75-4b02-8183-34e12ab331da"},"vehicle_type_id":"4","last_reported":1774361530,"current_range_meters":6000,"station_id":"ce4bgj92rcd13ifvqbd0","pricing_plan_id":"cebpf4jnsgd1na2vs0mg"},{"bike_id":"35e769cd-fdcf-4eab-8f31-cef70b80b595","system_id":"levelo_inurba_marseille","lat":43.254954,"lon":5.376475,"is_reserved":false,"is_disabled":false,"rental_uris":{"android":"levelo://app?vid=35e769cd-fdcf-4eab-8f31-cef70b80b595","ios":"levelo://app?vid=35e769cd-fdcf-4eab-8f31-cef70b80b595"},"vehicle_type_id":"4","last_reported":1774361530,"current_range_meters":6000,"station_id":"ce4bhh12rcd13ifvqff0","pricing_plan_id":"cebpf4jnsgd1na2vs0mg"},{"bike_id":"aa929685-e4dd-4a31-a1c6-979463fa81a3","system_id":"levelo_inurba_marseille","lat":43.28483,"lon":5.48392,"is_reserved":false,"is_disabled":false,"rental_uris":{"android":"levelo://app?vid=aa929685-e4dd-4a31-a1c6-979463fa81a3","ios":"levelo://app?vid=aa929685-e4dd-4a31-a1c6-979463fa81a3"},"vehicle_type_id":"4","last_reported":1774361530,"current_range_meters":6000,"station_id":"st_d3svhcjqgbts73a3dn0g","pricing_plan_id":"cebpf4jnsgd1na2vs0mg"},{"bike_id":"4ce98637-072f-4197-bd69-11f207a88eab","system_id":"levelo_inurba_marseille","lat":43.28496,"lon":5.47279,"is_reserved":false,"is_disabled":false,"rental_uris":{"android":"levelo://app?vid=4ce98637-072f-4197-bd69-11f207a88eab","ios":"levelo://app?vid=4ce98637-072f-4197-bd69-11f207a88eab"},"vehicle_type_id":"4","last_reported":1774361530,"current_range_meters":6000,"station_id":"","pricing_plan_id":"cebpf4jnsgd1na2vs0mg"},{"bike_id":"e7e262f3-b2c6-4e8a-bd41-980a64a95a6b","system_id":"levelo_inurba_marseille","lat":43.31192,"lon":5.40136,"is_reserved":false,"is_disabled":false,"rental_uris":{"android":"levelo://app?vid=e7e262f3-b2c6-4e8a-bd41-980a64a95a6b","ios":"levelo://app?vid=e7e262f3-b2c6-4e8a-bd41-980a64a95a6b"},"vehicle_type_id":"4","last_reported":1774361530,"current_range_meters":6000,"station_id":"","pricing_plan_id":"cebpf4jnsgd1na2vs0mg"},{"bike_id":"d619bd8d-ec2b-4e14-8594-ffa8fcde912d","system_id":"levelo_inurba_marseille","lat":43.29254,"lon":5.38452,"is_reserved":false,"is_disabled":false,"rental_uris":{"android":"levelo://app?vid=d619bd8d-ec2b-4e14-8594-ffa8fcde912d","ios":"levelo://app?vid=d619bd8d-ec2b-4e14-8594-ffa8fcde912d"},"vehicle_type_id":"4","last_reported":1774361530,"current_range_meters":6000,"station_id":"ce4bh692rcd13ifvqea0","pricing_plan_id":"cebpf4jnsgd1na2vs0mg"},{"bike_id":"d89b1915-483d-4d09-b44a-47b8df915eef","system_id":"levelo_inurba_marseille","lat":43.23091,"lon":5.35483,"is_reserved":false,"is_disabled":false,"rental_uris":{"android":"levelo://app?vid=d89b1915-483d-4d09-b44a-47b8df915eef","ios":"levelo://app?vid=d89b1915-483d-4d09-b44a-47b8df915eef"},"vehicle_type_id":"4","last_reported":1774361530,"current_range_meters":6000,"station_id":"cpo3342slgdg3j2ifvpg","pricing_plan_id":"cebpf4jnsgd1na2vs0mg"},{"bike_id":"ffc185c0-98d1-4605-afd4-4c865b0e83a1","system_id":"levelo_inurba_marseille","lat":43.29573,"lon":5.37505,"is_reserved":false,"is_disabled":false,"rental_uris":{"android":"levelo://app?vid=ffc185c0-98d1-4605-afd4-4c865b0e83a1","ios":"levelo://app?vid=ffc185c0-98d1-4605-afd4-4c865b0e83a1"},"vehicle_type_id":"4","last_reported":1774361530,"current_range_meters":6400,"station_id":"ce4bgh92rcd13ifvqb50","pricing_plan_id":"cebpf4jnsgd1na2vs0mg"},{"bike_id":"2f502975-a390-4073-b153-a56892e056fa","system_id":"levelo_inurba_marseille","lat":43.33775,"lon":5.37428,"is_reserved":false,"is_disabled":false,"rental_uris":{"android":"levelo://app?vid=2f502975-a390-4073-b153-a56892e056fa","ios":"levelo://app?vid=2f502975-a390-4073-b153-a56892e056fa"},"vehicle_type_id":"4","last_reported":1774361530,"current_range_meters":6400,"station_id":"","pricing_plan_id":"cebpf4jnsgd1na2vs0mg"},{"bike_id":"f910acab-e234-4475-91c9-ec3fea6d1bf3","system_id":"levelo_inurba_marseille","lat":43.29887,"lon":5.43641,"is_reserved":false,"is_disabled":false,"rental_uris":{"android":"levelo://app?vid=f910acab-e234-4475-91c9-ec3fea6d1bf3","ios":"levelo://app?vid=f910acab-e234-4475-91c9-ec3fea6d1bf3"},"vehicle_type_id":"4","last_reported":1774361530,"current_range_meters":6400,"station_id":"ce4bhpp2rcd13ifvqhfg","pricing_plan_id":"cebpf4jnsgd1na2vs0mg"},{"bike_id":"e777dc2e-9308-43c6-a6be-09685ee35cc2","system_id":"levelo_inurba_marseille","lat":43.28539,"lon":5.44099,"is_reserved":false,"is_disabled":false,"rental_uris":{"android":"levelo://app?vid=e777dc2e-9308-43c6-a6be-09685ee35cc2","ios":"levelo://app?vid=e777dc2e-9308-43c6-a6be-09685ee35cc2"},"vehicle_type_id":"4","last_reported":1774361530,"current_range_meters":6400,"station_id":"st_d3j3df2ikq2c7380ej80","pricing_plan_id":"cebpf4jnsgd1na2vs0mg"},{"bike_id":"6da70a64-04e2-4cdc-8b10-82d63c888071","system_id":"levelo_inurba_marseille","lat":43.31174,"lon":5.38724,"is_reserved":false,"is_disabled":false,"rental_uris":{"android":"levelo://app?vid=6da70a64-04e2-4cdc-8b10-82d63c888071","ios":"levelo://app?vid=6da70a64-04e2-4cdc-8b10-82d63c888071"},"vehicle_type_id":"4","last_reported":1774361530,"current_range_meters":6400,"station_id":"ce4bgv12rcd13ifvqcp0","pricing_plan_id":"cebpf4jnsgd1na2vs0mg"},{"bike_id":"27a8af3f-7682-4429-85af-8d74282bd1de","system_id":"levelo_inurba_marseille","lat":43.30531,"lon":5.36522,"is_reserved":false,"is_disabled":false,"rental_uris":{"android":"levelo://app?vid=27a8af3f-7682-4429-85af-8d74282bd1de","ios":"levelo://app?vid=27a8af3f-7682-4429-85af-8d74282bd1de"},"vehicle_type_id":"4","last_reported":1774361530,"current_range_meters":6400,"station_id":"ce4bgs12rcd13ifvqcag","pricing_plan_id":"cebpf4jnsgd1na2vs0mg"},{"bike_id":"333141c0-69bf-4e43-82c7-d76da565f4e0","system_id":"levelo_inurba_marseille","lat":43.30952,"lon":5.39036,"is_reserved":false,"is_disabled":false,"rental_uris":{"android":"levelo://app?vid=333141c0-69bf-4e43-82c7-d76da565f4e0","ios":"levelo://app?vid=333141c0-69bf-4e43-82c7-d76da565f4e0"},"vehicle_type_id":"4","last_reported":1774361530,"current_range_meters":6400,"station_id":"ce4bgup2rcd13ifvqco0","pricing_plan_id":"cebpf4jnsgd1na2vs0mg"},{"bike_id":"a8b2630b-baa8-4ca5-ae8c-2e09b7efb766","system_id":"levelo_inurba_marseille","lat":43.298,"lon":5.38096,"is_reserved":false,"is_disabled":false,"rental_uris":{"android":"levelo://app?vid=a8b2630b-baa8-4ca5-ae8c-2e09b7efb766","ios":"levelo://app?vid=a8b2630b-baa8-4ca5-ae8c-2e09b7efb766"},"vehicle_type_id":"4","last_reported":1774361530,"current_range_meters":6400,"station_id":"ce4bgip2rcd13ifvqbb0","pricing_plan_id":"cebpf4jnsgd1na2vs0mg"},{"bike_id":"98aa1c8a-7d98-4320-b367-9e51480a2f7e","system_id":"levelo_inurba_marseille","lat":43.33537,"lon":5.37463,"is_reserved":false,"is_disabled":false,"rental_uris":{"android":"levelo://app?vid=98aa1c8a-7d98-4320-b367-9e51480a2f7e","ios":"levelo://app?vid=98aa1c8a-7d98-4320-b367-9e51480a2f7e"},"vehicle_type_id":"4","last_reported":1774361530,"current_range_meters":6400,"station_id":"st_d46tts09ee8s73dlu43g","pricing_plan_id":"cebpf4jnsgd1na2vs0mg"},{"bike_id":"0e2f4137-e82a-401c-945f-6a1c7c098239","system_id":"levelo_inurba_marseille","lat":43.29618,"lon":5.37142,"is_reserved":false,"is_disabled":false,"rental_uris":{"android":"levelo://app?vid=0e2f4137-e82a-401c-945f-6a1c7c098239","ios":"levelo://app?vid=0e2f4137-e82a-401c-945f-6a1c7c098239"},"vehicle_type_id":"4","last_reported":1774361530,"current_range_meters":6800,"station_id":"ce4bgnh2rcd13ifvqc0g","pricing_plan_id":"cebpf4jnsgd1na2vs0mg"},{"bike_id":"b75036ac-d81d-4bfd-a9c8-a051a6ff39fe","system_id":"levelo_inurba_marseille","lat":43.28529,"lon":5.44126,"is_reserved":false,"is_disabled":false,"rental_uris":{"android":"levelo://app?vid=b75036ac-d81d-4bfd-a9c8-a051a6ff39fe","ios":"levelo://app?vid=b75036ac-d81d-4bfd-a9c8-a051a6ff39fe"},"vehicle_type_id":"4","last_reported":1774361530,"current_range_meters":6800,"station_id":"st_d3j3df2ikq2c7380ej80","pricing_plan_id":"cebpf4jnsgd1na2vs0mg"},{"bike_id":"a3f1ee20-cd8e-46c8-b16a-dc7230c0c965","system_id":"levelo_inurba_marseille","lat":43.26783,"lon":5.39414,"is_reserved":false,"is_disabled":false,"rental_uris":{"android":"levelo://app?vid=a3f1ee20-cd8e-46c8-b16a-dc7230c0c965","ios":"levelo://app?vid=a3f1ee20-cd8e-46c8-b16a-dc7230c0c965"},"vehicle_type_id":"4","last_reported":1774361530,"current_range_meters":6800,"station_id":"ce4bhh12rcd13ifvqfg0","pricing_plan_id":"cebpf4jnsgd1na2vs0mg"},{"bike_id":"294a0ae4-8dd5-42da-b113-f8ac9debf169","system_id":"levelo_inurba_marseille","lat":43.29977,"lon":5.3849,"is_reserved":false,"is_disabled":true,"rental_uris":{"android":"levelo://app?vid=294a0ae4-8dd5-42da-b113-f8ac9debf169","ios":"levelo://app?vid=294a0ae4-8dd5-42da-b113-f8ac9debf169"},"vehicle_type_id":"4","last_reported":1774361530,"current_range_meters":6800,"station_id":"ce4bgj92rcd13ifvqbd0","pricing_plan_id":"cebpf4jnsgd1na2vs0mg"},{"bike_id":"77deb619-deef-42c1-ade2-8dca83a843fb","system_id":"levelo_inurba_marseille","lat":43.29483,"lon":5.43321,"is_reserved":false,"is_disabled":false,"rental_uris":{"android":"levelo://app?vid=77deb619-deef-42c1-ade2-8dca83a843fb","ios":"levelo://app?vid=77deb619-deef-42c1-ade2-8dca83a843fb"},"vehicle_type_id":"4","last_reported":1774361530,"current_range_meters":6800,"station_id":"st_d3j5ugp08ojc73fj9d10","pricing_plan_id":"cebpf4jnsgd1na2vs0mg"},{"bike_id":"5cca4b32-612b-471f-a02d-66912cbe70ff","system_id":"levelo_inurba_marseille","lat":43.21184,"lon":5.35086,"is_reserved":false,"is_disabled":false,"rental_uris":{"android":"levelo://app?vid=5cca4b32-612b-471f-a02d-66912cbe70ff","ios":"levelo://app?vid=5cca4b32-612b-471f-a02d-66912cbe70ff"},"vehicle_type_id":"4","last_reported":1774361530,"current_range_meters":6800,"station_id":"st_cvj6sg6p6f1abm77japg","pricing_plan_id":"cebpf4jnsgd1na2vs0mg"},{"bike_id":"c3fb6ac0-526f-4836-98cf-d46bdb9ad792","system_id":"levelo_inurba_marseille","lat":43.31051,"lon":5.37169,"is_reserved":false,"is_disabled":false,"rental_uris":{"android":"levelo://app?vid=c3fb6ac0-526f-4836-98cf-d46bdb9ad792","ios":"levelo://app?vid=c3fb6ac0-526f-4836-98cf-d46bdb9ad792"},"vehicle_type_id":"4","last_reported":1774361530,"current_range_meters":6800,"station_id":"st_d4kl2rp97mjs73e7tdfg","pricing_plan_id":"cebpf4jnsgd1na2vs0mg"},{"bike_id":"9be37a25-79de-43c2-b934-7db63853cf20","system_id":"levelo_inurba_marseille","lat":43.26548,"lon":5.37296,"is_reserved":false,"is_disabled":false,"rental_uris":{"android":"levelo://app?vid=9be37a25-79de-43c2-b934-7db63853cf20","ios":"levelo://app?vid=9be37a25-79de-43c2-b934-7db63853cf20"},"vehicle_type_id":"4","last_reported":1774361530,"current_range_meters":6800,"station_id":"ce4bhg12rcd13ifvqf70","pricing_plan_id":"cebpf4jnsgd1na2vs0mg"},{"bike_id":"f35a9644-f102-427c-8b00-579a35988db3","system_id":"levelo_inurba_marseille","lat":43.21196,"lon":5.3505,"is_reserved":false,"is_disabled":false,"rental_uris":{"android":"levelo://app?vid=f35a9644-f102-427c-8b00-579a35988db3","ios":"levelo://app?vid=f35a9644-f102-427c-8b00-579a35988db3"},"vehicle_type_id":"4","last_reported":1774361530,"current_range_meters":6800,"station_id":"st_cvj6sg6p6f1abm77japg","pricing_plan_id":"cebpf4jnsgd1na2vs0mg"},{"bike_id":"fea2f68b-f7ef-4be6-a90b-9e7d3292c0ac","system_id":"levelo_inurba_marseille","lat":43.26219,"lon":5.37431,"is_reserved":false,"is_disabled":false,"rental_uris":{"android":"levelo://app?vid=fea2f68b-f7ef-4be6-a90b-9e7d3292c0ac","ios":"levelo://app?vid=fea2f68b-f7ef-4be6-a90b-9e7d3292c0ac"},"vehicle_type_id":"4","last_reported":1774361530,"current_range_meters":6800,"station_id":"ce4bhgp2rcd13ifvqfc0","pricing_plan_id":"cebpf4jnsgd1na2vs0mg"},{"bike_id":"44fa29ca-b862-4a84-b5f1-7a9b20cec0fc","system_id":"levelo_inurba_marseille","lat":43.23151,"lon":5.43709,"is_reserved":false,"is_disabled":false,"rental_uris":{"android":"levelo://app?vid=44fa29ca-b862-4a84-b5f1-7a9b20cec0fc","ios":"levelo://app?vid=44fa29ca-b862-4a84-b5f1-7a9b20cec0fc"},"vehicle_type_id":"4","last_reported":1774361530,"current_range_meters":6800,"station_id":"ce4bhmp2rcd13ifvqgog","pricing_plan_id":"cebpf4jnsgd1na2vs0mg"},{"bike_id":"54b14a59-4559-4a1f-bcd4-47ca100e150d","system_id":"levelo_inurba_marseille","lat":43.23899,"lon":5.37452,"is_reserved":false,"is_disabled":false,"rental_uris":{"android":"levelo://app?vid=54b14a59-4559-4a1f-bcd4-47ca100e150d","ios":"levelo://app?vid=54b14a59-4559-4a1f-bcd4-47ca100e150d"},"vehicle_type_id":"4","last_reported":1774361530,"current_range_meters":6800,"station_id":"st_d6sm7csbq4hs73f8fpjg","pricing_plan_id":"cebpf4jnsgd1na2vs0mg"},{"bike_id":"29a311a2-8c83-4778-b76c-56070b790302","system_id":"levelo_inurba_marseille","lat":43.27064,"lon":5.42272,"is_reserved":false,"is_disabled":false,"rental_uris":{"android":"levelo://app?vid=29a311a2-8c83-4778-b76c-56070b790302","ios":"levelo://app?vid=29a311a2-8c83-4778-b76c-56070b790302"},"vehicle_type_id":"4","last_reported":1774361530,"current_range_meters":6800,"station_id":"ce4bhk92rcd13ifvqgb0","pricing_plan_id":"cebpf4jnsgd1na2vs0mg"},{"bike_id":"9af8139f-4079-4d55-b09e-97fb89803a03","system_id":"levelo_inurba_marseille","lat":43.24549,"lon":5.39521,"is_reserved":false,"is_disabled":false,"rental_uris":{"android":"levelo://app?vid=9af8139f-4079-4d55-b09e-97fb89803a03","ios":"levelo://app?vid=9af8139f-4079-4d55-b09e-97fb89803a03"},"vehicle_type_id":"4","last_reported":1774361530,"current_range_meters":6800,"station_id":"ce4bhlp2rcd13ifvqgjg","pricing_plan_id":"cebpf4jnsgd1na2vs0mg"},{"bike_id":"7e03e45c-d69c-4371-8267-aa26cde43729","system_id":"levelo_inurba_marseille","lat":43.25561,"lon":5.38244,"is_reserved":false,"is_disabled":true,"rental_uris":{"android":"levelo://app?vid=7e03e45c-d69c-4371-8267-aa26cde43729","ios":"levelo://app?vid=7e03e45c-d69c-4371-8267-aa26cde43729"},"vehicle_type_id":"4","last_reported":1774361530,"current_range_meters":6800,"station_id":"ce4bhih2rcd13ifvqfs0","pricing_plan_id":"cebpf4jnsgd1na2vs0mg"},{"bike_id":"a9cf656d-017c-4001-ab51-66a11dcfd826","system_id":"levelo_inurba_marseille","lat":43.27684,"lon":5.38891,"is_reserved":false,"is_disabled":false,"rental_uris":{"android":"levelo://app?vid=a9cf656d-017c-4001-ab51-66a11dcfd826","ios":"levelo://app?vid=a9cf656d-017c-4001-ab51-66a11dcfd826"},"vehicle_type_id":"4","last_reported":1774361530,"current_range_meters":6800,"station_id":"ce4bhi12rcd13ifvqfo0","pricing_plan_id":"cebpf4jnsgd1na2vs0mg"},{"bike_id":"0c1af71c-ad3d-4cf7-9f47-43fef6dbb5a3","system_id":"levelo_inurba_marseille","lat":43.31117,"lon":5.38627,"is_reserved":false,"is_disabled":false,"rental_uris":{"android":"levelo://app?vid=0c1af71c-ad3d-4cf7-9f47-43fef6dbb5a3","ios":"levelo://app?vid=0c1af71c-ad3d-4cf7-9f47-43fef6dbb5a3"},"vehicle_type_id":"4","last_reported":1774361530,"current_range_meters":6800,"station_id":"","pricing_plan_id":"cebpf4jnsgd1na2vs0mg"},{"bike_id":"08ff4d9c-a1c2-49e2-9bf8-2b8fe2cb7a1a","system_id":"levelo_inurba_marseille","lat":43.29035,"lon":5.35905,"is_reserved":false,"is_disabled":false,"rental_uris":{"android":"levelo://app?vid=08ff4d9c-a1c2-49e2-9bf8-2b8fe2cb7a1a","ios":"levelo://app?vid=08ff4d9c-a1c2-49e2-9bf8-2b8fe2cb7a1a"},"vehicle_type_id":"4","last_reported":1774361530,"current_range_meters":6800,"station_id":"ce4bha92rcd13ifvqeg0","pricing_plan_id":"cebpf4jnsgd1na2vs0mg"},{"bike_id":"9c134060-ad13-414a-9d07-f82217cebe13","system_id":"levelo_inurba_marseille","lat":43.23901,"lon":5.37442,"is_reserved":false,"is_disabled":false,"rental_uris":{"android":"levelo://app?vid=9c134060-ad13-414a-9d07-f82217cebe13","ios":"levelo://app?vid=9c134060-ad13-414a-9d07-f82217cebe13"},"vehicle_type_id":"4","last_reported":1774361530,"current_range_meters":6800,"station_id":"st_d6sm7csbq4hs73f8fpjg","pricing_plan_id":"cebpf4jnsgd1na2vs0mg"},{"bike_id":"aac16f30-8732-48f4-bb17-1bd0acbb479e","system_id":"levelo_inurba_marseille","lat":43.26561,"lon":5.37289,"is_reserved":false,"is_disabled":false,"rental_uris":{"android":"levelo://app?vid=aac16f30-8732-48f4-bb17-1bd0acbb479e","ios":"levelo://app?vid=aac16f30-8732-48f4-bb17-1bd0acbb479e"},"vehicle_type_id":"4","last_reported":1774361530,"current_range_meters":7200,"station_id":"ce4bhg12rcd13ifvqf70","pricing_plan_id":"cebpf4jnsgd1na2vs0mg"},{"bike_id":"ff47fefb-b748-4cb1-b5ff-b0a348769fe4","system_id":"levelo_inurba_marseille","lat":43.30135,"lon":5.38093,"is_reserved":false,"is_disabled":false,"rental_uris":{"android":"levelo://app?vid=ff47fefb-b748-4cb1-b5ff-b0a348769fe4","ios":"levelo://app?vid=ff47fefb-b748-4cb1-b5ff-b0a348769fe4"},"vehicle_type_id":"4","last_reported":1774361530,"current_range_meters":7200,"station_id":"ce4bgjp2rcd13ifvqbh0","pricing_plan_id":"cebpf4jnsgd1na2vs0mg"},{"bike_id":"098144e5-733b-42c7-b084-7ac44619c48e","system_id":"levelo_inurba_marseille","lat":43.3055,"lon":5.36539,"is_reserved":false,"is_disabled":false,"rental_uris":{"android":"levelo://app?vid=098144e5-733b-42c7-b084-7ac44619c48e","ios":"levelo://app?vid=098144e5-733b-42c7-b084-7ac44619c48e"},"vehicle_type_id":"4","last_reported":1774361530,"current_range_meters":7200,"station_id":"ce4bgs12rcd13ifvqcag","pricing_plan_id":"cebpf4jnsgd1na2vs0mg"},{"bike_id":"253bfbd1-c3f6-4b72-a716-55890f3b4db7","system_id":"levelo_inurba_marseille","lat":43.2848,"lon":5.48394,"is_reserved":false,"is_disabled":false,"rental_uris":{"android":"levelo://app?vid=253bfbd1-c3f6-4b72-a716-55890f3b4db7","ios":"levelo://app?vid=253bfbd1-c3f6-4b72-a716-55890f3b4db7"},"vehicle_type_id":"4","last_reported":1774361530,"current_range_meters":7200,"station_id":"","pricing_plan_id":"cebpf4jnsgd1na2vs0mg"},{"bike_id":"ef8fd86f-6320-42e7-9274-bc445679c5fa","system_id":"levelo_inurba_marseille","lat":43.29915,"lon":5.37485,"is_reserved":false,"is_disabled":false,"rental_uris":{"android":"levelo://app?vid=ef8fd86f-6320-42e7-9274-bc445679c5fa","ios":"levelo://app?vid=ef8fd86f-6320-42e7-9274-bc445679c5fa"},"vehicle_type_id":"4","last_reported":1774361530,"current_range_meters":7200,"station_id":"ce4bgjh2rcd13ifvqbg0","pricing_plan_id":"cebpf4jnsgd1na2vs0mg"},{"bike_id":"d34ac1d2-69f0-45ef-84e6-97470a0d87e2","system_id":"levelo_inurba_marseille","lat":43.27222,"lon":5.39177,"is_reserved":false,"is_disabled":false,"rental_uris":{"android":"levelo://app?vid=d34ac1d2-69f0-45ef-84e6-97470a0d87e2","ios":"levelo://app?vid=d34ac1d2-69f0-45ef-84e6-97470a0d87e2"},"vehicle_type_id":"4","last_reported":1774361530,"current_range_meters":7200,"station_id":"ce4bhhp2rcd13ifvqfm0","pricing_plan_id":"cebpf4jnsgd1na2vs0mg"},{"bike_id":"95d78345-9b45-47be-bc5f-a3a018544110","system_id":"levelo_inurba_marseille","lat":43.22621,"lon":5.34829,"is_reserved":false,"is_disabled":false,"rental_uris":{"android":"levelo://app?vid=95d78345-9b45-47be-bc5f-a3a018544110","ios":"levelo://app?vid=95d78345-9b45-47be-bc5f-a3a018544110"},"vehicle_type_id":"4","last_reported":1774361530,"current_range_meters":7200,"station_id":"","pricing_plan_id":"cebpf4jnsgd1na2vs0mg"},{"bike_id":"1e1db994-b280-49e0-bd9d-89157eb4f87b","system_id":"levelo_inurba_marseille","lat":43.29931,"lon":5.37465,"is_reserved":false,"is_disabled":false,"rental_uris":{"android":"levelo://app?vid=1e1db994-b280-49e0-bd9d-89157eb4f87b","ios":"levelo://app?vid=1e1db994-b280-49e0-bd9d-89157eb4f87b"},"vehicle_type_id":"4","last_reported":1774361530,"current_range_meters":7200,"station_id":"ce4bgjh2rcd13ifvqbg0","pricing_plan_id":"cebpf4jnsgd1na2vs0mg"},{"bike_id":"0b786319-6d9f-4d1c-890a-5150198e272a","system_id":"levelo_inurba_marseille","lat":43.28482,"lon":5.48404,"is_reserved":false,"is_disabled":false,"rental_uris":{"android":"levelo://app?vid=0b786319-6d9f-4d1c-890a-5150198e272a","ios":"levelo://app?vid=0b786319-6d9f-4d1c-890a-5150198e272a"},"vehicle_type_id":"4","last_reported":1774361530,"current_range_meters":7200,"station_id":"st_d3svhcjqgbts73a3dn0g","pricing_plan_id":"cebpf4jnsgd1na2vs0mg"},{"bike_id":"28b95423-d37a-47e4-9e51-41e404c94080","system_id":"levelo_inurba_marseille","lat":43.269414,"lon":5.392553,"is_reserved":false,"is_disabled":false,"rental_uris":{"android":"levelo://app?vid=28b95423-d37a-47e4-9e51-41e404c94080","ios":"levelo://app?vid=28b95423-d37a-47e4-9e51-41e404c94080"},"vehicle_type_id":"4","last_reported":1774361530,"current_range_meters":7200,"station_id":"ce4bhh12rcd13ifvqfg0","pricing_plan_id":"cebpf4jnsgd1na2vs0mg"},{"bike_id":"70b8e44e-cfc1-4472-86aa-e11dd7ef8721","system_id":"levelo_inurba_marseille","lat":43.24996,"lon":5.38929,"is_reserved":false,"is_disabled":false,"rental_uris":{"android":"levelo://app?vid=70b8e44e-cfc1-4472-86aa-e11dd7ef8721","ios":"levelo://app?vid=70b8e44e-cfc1-4472-86aa-e11dd7ef8721"},"vehicle_type_id":"4","last_reported":1774361530,"current_range_meters":7200,"station_id":"ce4bhgp2rcd13ifvqfd0","pricing_plan_id":"cebpf4jnsgd1na2vs0mg"},{"bike_id":"04e42d2b-817b-4033-8935-148ae7f53cb4","system_id":"levelo_inurba_marseille","lat":43.28215,"lon":5.39051,"is_reserved":false,"is_disabled":true,"rental_uris":{"android":"levelo://app?vid=04e42d2b-817b-4033-8935-148ae7f53cb4","ios":"levelo://app?vid=04e42d2b-817b-4033-8935-148ae7f53cb4"},"vehicle_type_id":"4","last_reported":1774361530,"current_range_meters":7200,"station_id":"ce4bhn92rcd13ifvqgsg","pricing_plan_id":"cebpf4jnsgd1na2vs0mg"},{"bike_id":"e3639a64-f841-40c2-9d27-776257788ada","system_id":"levelo_inurba_marseille","lat":43.2315,"lon":5.43719,"is_reserved":false,"is_disabled":false,"rental_uris":{"android":"levelo://app?vid=e3639a64-f841-40c2-9d27-776257788ada","ios":"levelo://app?vid=e3639a64-f841-40c2-9d27-776257788ada"},"vehicle_type_id":"4","last_reported":1774361530,"current_range_meters":7200,"station_id":"ce4bhmp2rcd13ifvqgog","pricing_plan_id":"cebpf4jnsgd1na2vs0mg"},{"bike_id":"f3dccb27-25f8-415f-8a8c-207408b72398","system_id":"levelo_inurba_marseille","lat":43.32078,"lon":5.36795,"is_reserved":false,"is_disabled":false,"rental_uris":{"android":"levelo://app?vid=f3dccb27-25f8-415f-8a8c-207408b72398","ios":"levelo://app?vid=f3dccb27-25f8-415f-8a8c-207408b72398"},"vehicle_type_id":"4","last_reported":1774361530,"current_range_meters":7200,"station_id":"ce4bhrh2rcd13ifvqhug","pricing_plan_id":"cebpf4jnsgd1na2vs0mg"},{"bike_id":"4ec93c6b-5cc8-422c-a84b-902cdcfa8fbd","system_id":"levelo_inurba_marseille","lat":43.29437,"lon":5.39751,"is_reserved":false,"is_disabled":false,"rental_uris":{"android":"levelo://app?vid=4ec93c6b-5cc8-422c-a84b-902cdcfa8fbd","ios":"levelo://app?vid=4ec93c6b-5cc8-422c-a84b-902cdcfa8fbd"},"vehicle_type_id":"4","last_reported":1774361530,"current_range_meters":7200,"station_id":"ce4bh3h2rcd13ifvqdo0","pricing_plan_id":"cebpf4jnsgd1na2vs0mg"},{"bike_id":"4f06a371-7894-43bb-9d4e-34d0b92ced52","system_id":"levelo_inurba_marseille","lat":43.23207,"lon":5.39966,"is_reserved":false,"is_disabled":false,"rental_uris":{"android":"levelo://app?vid=4f06a371-7894-43bb-9d4e-34d0b92ced52","ios":"levelo://app?vid=4f06a371-7894-43bb-9d4e-34d0b92ced52"},"vehicle_type_id":"4","last_reported":1774361530,"current_range_meters":7200,"station_id":"ce4bhn12rcd13ifvqgqg","pricing_plan_id":"cebpf4jnsgd1na2vs0mg"},{"bike_id":"07fb6d35-f0b9-4eac-b049-993768182fef","system_id":"levelo_inurba_marseille","lat":43.23205,"lon":5.35547,"is_reserved":false,"is_disabled":false,"rental_uris":{"android":"levelo://app?vid=07fb6d35-f0b9-4eac-b049-993768182fef","ios":"levelo://app?vid=07fb6d35-f0b9-4eac-b049-993768182fef"},"vehicle_type_id":"4","last_reported":1774361530,"current_range_meters":7200,"station_id":"ce4bhu92rcd13ifvqi70","pricing_plan_id":"cebpf4jnsgd1na2vs0mg"},{"bike_id":"17ecb8f1-df4c-49b8-9174-4fdee094aaf6","system_id":"levelo_inurba_marseille","lat":43.26553,"lon":5.37267,"is_reserved":false,"is_disabled":false,"rental_uris":{"android":"levelo://app?vid=17ecb8f1-df4c-49b8-9174-4fdee094aaf6","ios":"levelo://app?vid=17ecb8f1-df4c-49b8-9174-4fdee094aaf6"},"vehicle_type_id":"4","last_reported":1774361530,"current_range_meters":7200,"station_id":"ce4bhg12rcd13ifvqf70","pricing_plan_id":"cebpf4jnsgd1na2vs0mg"},{"bike_id":"7b6c8f1e-bc5a-4218-9383-b05da73318e0","system_id":"levelo_inurba_marseille","lat":43.32356,"lon":5.36741,"is_reserved":false,"is_disabled":false,"rental_uris":{"android":"levelo://app?vid=7b6c8f1e-bc5a-4218-9383-b05da73318e0","ios":"levelo://app?vid=7b6c8f1e-bc5a-4218-9383-b05da73318e0"},"vehicle_type_id":"4","last_reported":1774361530,"current_range_meters":8000,"station_id":"ce4bhsh2rcd13ifvqi2g","pricing_plan_id":"cebpf4jnsgd1na2vs0mg"},{"bike_id":"21212254-e5a0-4af6-a45f-ed4c631ca773","system_id":"levelo_inurba_marseille","lat":43.2552,"lon":5.37654,"is_reserved":false,"is_disabled":false,"rental_uris":{"android":"levelo://app?vid=21212254-e5a0-4af6-a45f-ed4c631ca773","ios":"levelo://app?vid=21212254-e5a0-4af6-a45f-ed4c631ca773"},"vehicle_type_id":"4","last_reported":1774361530,"current_range_meters":8000,"station_id":"ce4bhh12rcd13ifvqff0","pricing_plan_id":"cebpf4jnsgd1na2vs0mg"},{"bike_id":"a14d2edd-85c5-4116-8db5-355e3fb2ddbe","system_id":"levelo_inurba_marseille","lat":43.33542,"lon":5.37458,"is_reserved":false,"is_disabled":false,"rental_uris":{"android":"levelo://app?vid=a14d2edd-85c5-4116-8db5-355e3fb2ddbe","ios":"levelo://app?vid=a14d2edd-85c5-4116-8db5-355e3fb2ddbe"},"vehicle_type_id":"4","last_reported":1774361530,"current_range_meters":8000,"station_id":"st_d46tts09ee8s73dlu43g","pricing_plan_id":"cebpf4jnsgd1na2vs0mg"},{"bike_id":"5c941c2b-f0fa-4f64-af96-831f9028136a","system_id":"levelo_inurba_marseille","lat":43.32258,"lon":5.37049,"is_reserved":false,"is_disabled":false,"rental_uris":{"android":"levelo://app?vid=5c941c2b-f0fa-4f64-af96-831f9028136a","ios":"levelo://app?vid=5c941c2b-f0fa-4f64-af96-831f9028136a"},"vehicle_type_id":"4","last_reported":1774361530,"current_range_meters":8000,"station_id":"","pricing_plan_id":"cebpf4jnsgd1na2vs0mg"},{"bike_id":"8e331d09-f777-47e4-a327-164db2e188a9","system_id":"levelo_inurba_marseille","lat":43.2656,"lon":5.40319,"is_reserved":false,"is_disabled":true,"rental_uris":{"android":"levelo://app?vid=8e331d09-f777-47e4-a327-164db2e188a9","ios":"levelo://app?vid=8e331d09-f777-47e4-a327-164db2e188a9"},"vehicle_type_id":"4","last_reported":1774361530,"current_range_meters":8000,"station_id":"ce4bhmp2rcd13ifvqgng","pricing_plan_id":"cebpf4jnsgd1na2vs0mg"},{"bike_id":"066cfe81-714d-4a28-ba8d-e13baf5bbb1b","system_id":"levelo_inurba_marseille","lat":43.27266,"lon":5.41147,"is_reserved":false,"is_disabled":false,"rental_uris":{"android":"levelo://app?vid=066cfe81-714d-4a28-ba8d-e13baf5bbb1b","ios":"levelo://app?vid=066cfe81-714d-4a28-ba8d-e13baf5bbb1b"},"vehicle_type_id":"4","last_reported":1774361530,"current_range_meters":8000,"station_id":"","pricing_plan_id":"cebpf4jnsgd1na2vs0mg"},{"bike_id":"7f97ff93-a465-4a12-958c-3f0f1e1d17e6","system_id":"levelo_inurba_marseille","lat":43.23925,"lon":5.37392,"is_reserved":false,"is_disabled":false,"rental_uris":{"android":"levelo://app?vid=7f97ff93-a465-4a12-958c-3f0f1e1d17e6","ios":"levelo://app?vid=7f97ff93-a465-4a12-958c-3f0f1e1d17e6"},"vehicle_type_id":"4","last_reported":1774361530,"current_range_meters":8000,"station_id":"","pricing_plan_id":"cebpf4jnsgd1na2vs0mg"},{"bike_id":"a9ec82e5-093a-4542-9f2f-44e506af087d","system_id":"levelo_inurba_marseille","lat":43.28416,"lon":5.34997,"is_reserved":false,"is_disabled":false,"rental_uris":{"android":"levelo://app?vid=a9ec82e5-093a-4542-9f2f-44e506af087d","ios":"levelo://app?vid=a9ec82e5-093a-4542-9f2f-44e506af087d"},"vehicle_type_id":"4","last_reported":1774361530,"current_range_meters":8000,"station_id":"ce4bhbh2rcd13ifvqepg","pricing_plan_id":"cebpf4jnsgd1na2vs0mg"},{"bike_id":"43599ecc-4558-40d3-a1b7-555b4b242b9a","system_id":"levelo_inurba_marseille","lat":43.3084,"lon":5.38311,"is_reserved":false,"is_disabled":false,"rental_uris":{"android":"levelo://app?vid=43599ecc-4558-40d3-a1b7-555b4b242b9a","ios":"levelo://app?vid=43599ecc-4558-40d3-a1b7-555b4b242b9a"},"vehicle_type_id":"4","last_reported":1774361530,"current_range_meters":8000,"station_id":"","pricing_plan_id":"cebpf4jnsgd1na2vs0mg"},{"bike_id":"0d489b01-590f-434e-9649-624f92bba9bb","system_id":"levelo_inurba_marseille","lat":43.23191,"lon":5.35558,"is_reserved":false,"is_disabled":false,"rental_uris":{"android":"levelo://app?vid=0d489b01-590f-434e-9649-624f92bba9bb","ios":"levelo://app?vid=0d489b01-590f-434e-9649-624f92bba9bb"},"vehicle_type_id":"4","last_reported":1774361530,"current_range_meters":8000,"station_id":"ce4bhu92rcd13ifvqi70","pricing_plan_id":"cebpf4jnsgd1na2vs0mg"},{"bike_id":"19f1add8-fb4d-4df2-9f34-3abb6a2112fe","system_id":"levelo_inurba_marseille","lat":43.212,"lon":5.35049,"is_reserved":false,"is_disabled":false,"rental_uris":{"android":"levelo://app?vid=19f1add8-fb4d-4df2-9f34-3abb6a2112fe","ios":"levelo://app?vid=19f1add8-fb4d-4df2-9f34-3abb6a2112fe"},"vehicle_type_id":"4","last_reported":1774361530,"current_range_meters":8000,"station_id":"st_cvj6sg6p6f1abm77japg","pricing_plan_id":"cebpf4jnsgd1na2vs0mg"},{"bike_id":"6711ca2b-9a4e-46b1-892e-1007cc2a656e","system_id":"levelo_inurba_marseille","lat":43.28545,"lon":5.44114,"is_reserved":false,"is_disabled":false,"rental_uris":{"android":"levelo://app?vid=6711ca2b-9a4e-46b1-892e-1007cc2a656e","ios":"levelo://app?vid=6711ca2b-9a4e-46b1-892e-1007cc2a656e"},"vehicle_type_id":"4","last_reported":1774361530,"current_range_meters":8000,"station_id":"st_d3j3df2ikq2c7380ej80","pricing_plan_id":"cebpf4jnsgd1na2vs0mg"},{"bike_id":"5208ee98-7e4f-445b-9dbc-5d8fbec80d74","system_id":"levelo_inurba_marseille","lat":43.23375,"lon":5.41209,"is_reserved":false,"is_disabled":false,"rental_uris":{"android":"levelo://app?vid=5208ee98-7e4f-445b-9dbc-5d8fbec80d74","ios":"levelo://app?vid=5208ee98-7e4f-445b-9dbc-5d8fbec80d74"},"vehicle_type_id":"4","last_reported":1774361530,"current_range_meters":8000,"station_id":"","pricing_plan_id":"cebpf4jnsgd1na2vs0mg"},{"bike_id":"29115683-bfad-416b-8d94-eb2d0d84ddd8","system_id":"levelo_inurba_marseille","lat":43.30138,"lon":5.39868,"is_reserved":false,"is_disabled":false,"rental_uris":{"android":"levelo://app?vid=29115683-bfad-416b-8d94-eb2d0d84ddd8","ios":"levelo://app?vid=29115683-bfad-416b-8d94-eb2d0d84ddd8"},"vehicle_type_id":"4","last_reported":1774361530,"current_range_meters":8000,"station_id":"ce4bh0h2rcd13ifvqd40","pricing_plan_id":"cebpf4jnsgd1na2vs0mg"},{"bike_id":"86505783-449b-4bb9-8eac-db967f966361","system_id":"levelo_inurba_marseille","lat":43.3053,"lon":5.36713,"is_reserved":false,"is_disabled":false,"rental_uris":{"android":"levelo://app?vid=86505783-449b-4bb9-8eac-db967f966361","ios":"levelo://app?vid=86505783-449b-4bb9-8eac-db967f966361"},"vehicle_type_id":"4","last_reported":1774361530,"current_range_meters":8000,"station_id":"","pricing_plan_id":"cebpf4jnsgd1na2vs0mg"},{"bike_id":"e3f886a8-5ab4-45f3-9b3b-ccb5c60cb84a","system_id":"levelo_inurba_marseille","lat":43.25588,"lon":5.38223,"is_reserved":false,"is_disabled":false,"rental_uris":{"android":"levelo://app?vid=e3f886a8-5ab4-45f3-9b3b-ccb5c60cb84a","ios":"levelo://app?vid=e3f886a8-5ab4-45f3-9b3b-ccb5c60cb84a"},"vehicle_type_id":"4","last_reported":1774361530,"current_range_meters":8000,"station_id":"ce4bhih2rcd13ifvqfs0","pricing_plan_id":"cebpf4jnsgd1na2vs0mg"},{"bike_id":"02a29044-af44-4ad0-ad60-be49d8de6622","system_id":"levelo_inurba_marseille","lat":43.29772,"lon":5.42775,"is_reserved":false,"is_disabled":false,"rental_uris":{"android":"levelo://app?vid=02a29044-af44-4ad0-ad60-be49d8de6622","ios":"levelo://app?vid=02a29044-af44-4ad0-ad60-be49d8de6622"},"vehicle_type_id":"4","last_reported":1774361530,"current_range_meters":8400,"station_id":"st_d3md5207bmas73dh9klg","pricing_plan_id":"cebpf4jnsgd1na2vs0mg"},{"bike_id":"4078e5c4-b784-4a81-827e-b1a58b5db34d","system_id":"levelo_inurba_marseille","lat":43.30544,"lon":5.36526,"is_reserved":false,"is_disabled":false,"rental_uris":{"android":"levelo://app?vid=4078e5c4-b784-4a81-827e-b1a58b5db34d","ios":"levelo://app?vid=4078e5c4-b784-4a81-827e-b1a58b5db34d"},"vehicle_type_id":"4","last_reported":1774361530,"current_range_meters":8400,"station_id":"ce4bgs12rcd13ifvqcag","pricing_plan_id":"cebpf4jnsgd1na2vs0mg"},{"bike_id":"66a43d55-32c7-48fb-b013-3d7574d12857","system_id":"levelo_inurba_marseille","lat":43.25017,"lon":5.38906,"is_reserved":false,"is_disabled":true,"rental_uris":{"android":"levelo://app?vid=66a43d55-32c7-48fb-b013-3d7574d12857","ios":"levelo://app?vid=66a43d55-32c7-48fb-b013-3d7574d12857"},"vehicle_type_id":"4","last_reported":1774361530,"current_range_meters":8400,"station_id":"ce4bhgp2rcd13ifvqfd0","pricing_plan_id":"cebpf4jnsgd1na2vs0mg"},{"bike_id":"f7e664bc-8cfe-465d-9dbe-128ca982aa9c","system_id":"levelo_inurba_marseille","lat":43.24993,"lon":5.38918,"is_reserved":false,"is_disabled":false,"rental_uris":{"android":"levelo://app?vid=f7e664bc-8cfe-465d-9dbe-128ca982aa9c","ios":"levelo://app?vid=f7e664bc-8cfe-465d-9dbe-128ca982aa9c"},"vehicle_type_id":"4","last_reported":1774361530,"current_range_meters":8400,"station_id":"ce4bhgp2rcd13ifvqfd0","pricing_plan_id":"cebpf4jnsgd1na2vs0mg"},{"bike_id":"ee0008af-b338-43bd-8cd8-01b4212c701e","system_id":"levelo_inurba_marseille","lat":43.30948,"lon":5.39033,"is_reserved":false,"is_disabled":false,"rental_uris":{"android":"levelo://app?vid=ee0008af-b338-43bd-8cd8-01b4212c701e","ios":"levelo://app?vid=ee0008af-b338-43bd-8cd8-01b4212c701e"},"vehicle_type_id":"4","last_reported":1774361530,"current_range_meters":8400,"station_id":"ce4bgup2rcd13ifvqco0","pricing_plan_id":"cebpf4jnsgd1na2vs0mg"},{"bike_id":"445a363e-6635-4c6f-9d9b-6ed1d223c4e8","system_id":"levelo_inurba_marseille","lat":43.29553,"lon":5.43889,"is_reserved":false,"is_disabled":false,"rental_uris":{"android":"levelo://app?vid=445a363e-6635-4c6f-9d9b-6ed1d223c4e8","ios":"levelo://app?vid=445a363e-6635-4c6f-9d9b-6ed1d223c4e8"},"vehicle_type_id":"4","last_reported":1774361530,"current_range_meters":8400,"station_id":"","pricing_plan_id":"cebpf4jnsgd1na2vs0mg"},{"bike_id":"5bd9aec4-f639-4190-9ebd-ffd6e8dfa9b4","system_id":"levelo_inurba_marseille","lat":43.3105,"lon":5.37162,"is_reserved":false,"is_disabled":false,"rental_uris":{"android":"levelo://app?vid=5bd9aec4-f639-4190-9ebd-ffd6e8dfa9b4","ios":"levelo://app?vid=5bd9aec4-f639-4190-9ebd-ffd6e8dfa9b4"},"vehicle_type_id":"4","last_reported":1774361530,"current_range_meters":8400,"station_id":"st_d4kl2rp97mjs73e7tdfg","pricing_plan_id":"cebpf4jnsgd1na2vs0mg"},{"bike_id":"4a18c60e-9656-48db-8a80-b15397c2ac33","system_id":"levelo_inurba_marseille","lat":43.31364,"lon":5.36727,"is_reserved":false,"is_disabled":false,"rental_uris":{"android":"levelo://app?vid=4a18c60e-9656-48db-8a80-b15397c2ac33","ios":"levelo://app?vid=4a18c60e-9656-48db-8a80-b15397c2ac33"},"vehicle_type_id":"4","last_reported":1774361530,"current_range_meters":8400,"station_id":"ce4bgr92rcd13ifvqc6g","pricing_plan_id":"cebpf4jnsgd1na2vs0mg"},{"bike_id":"8e49ce8c-da19-4375-860d-9abeee4c1191","system_id":"levelo_inurba_marseille","lat":43.29534,"lon":5.40663,"is_reserved":false,"is_disabled":false,"rental_uris":{"android":"levelo://app?vid=8e49ce8c-da19-4375-860d-9abeee4c1191","ios":"levelo://app?vid=8e49ce8c-da19-4375-860d-9abeee4c1191"},"vehicle_type_id":"4","last_reported":1774361530,"current_range_meters":8400,"station_id":"","pricing_plan_id":"cebpf4jnsgd1na2vs0mg"},{"bike_id":"7c59c074-6646-4968-803b-ea035a59d3f4","system_id":"levelo_inurba_marseille","lat":43.23793,"lon":5.36622,"is_reserved":false,"is_disabled":false,"rental_uris":{"android":"levelo://app?vid=7c59c074-6646-4968-803b-ea035a59d3f4","ios":"levelo://app?vid=7c59c074-6646-4968-803b-ea035a59d3f4"},"vehicle_type_id":"4","last_reported":1774361530,"current_range_meters":8400,"station_id":"st_d3nk18o9ro0c73en2l3g","pricing_plan_id":"cebpf4jnsgd1na2vs0mg"},{"bike_id":"e6349eb3-2730-461c-ae14-f386689052fa","system_id":"levelo_inurba_marseille","lat":43.31624,"lon":5.37805,"is_reserved":false,"is_disabled":true,"rental_uris":{"android":"levelo://app?vid=e6349eb3-2730-461c-ae14-f386689052fa","ios":"levelo://app?vid=e6349eb3-2730-461c-ae14-f386689052fa"},"vehicle_type_id":"4","last_reported":1774361530,"current_range_meters":8400,"station_id":"","pricing_plan_id":"cebpf4jnsgd1na2vs0mg"},{"bike_id":"8aa507e7-e6bd-4861-b754-6c06023061cc","system_id":"levelo_inurba_marseille","lat":43.2971,"lon":5.38282,"is_reserved":false,"is_disabled":false,"rental_uris":{"android":"levelo://app?vid=8aa507e7-e6bd-4861-b754-6c06023061cc","ios":"levelo://app?vid=8aa507e7-e6bd-4861-b754-6c06023061cc"},"vehicle_type_id":"4","last_reported":1774361530,"current_range_meters":8400,"station_id":"","pricing_plan_id":"cebpf4jnsgd1na2vs0mg"},{"bike_id":"cbe143e8-3e8d-46c8-8239-3389a4661d28","system_id":"levelo_inurba_marseille","lat":43.30303,"lon":5.36918,"is_reserved":false,"is_disabled":false,"rental_uris":{"android":"levelo://app?vid=cbe143e8-3e8d-46c8-8239-3389a4661d28","ios":"levelo://app?vid=cbe143e8-3e8d-46c8-8239-3389a4661d28"},"vehicle_type_id":"4","last_reported":1774361530,"current_range_meters":8400,"station_id":"ce4bgqh2rcd13ifvqc5g","pricing_plan_id":"cebpf4jnsgd1na2vs0mg"},{"bike_id":"0edb33a8-c0c9-43cb-9d1e-abc2c62cd077","system_id":"levelo_inurba_marseille","lat":43.30956,"lon":5.39041,"is_reserved":false,"is_disabled":false,"rental_uris":{"android":"levelo://app?vid=0edb33a8-c0c9-43cb-9d1e-abc2c62cd077","ios":"levelo://app?vid=0edb33a8-c0c9-43cb-9d1e-abc2c62cd077"},"vehicle_type_id":"4","last_reported":1774361530,"current_range_meters":8400,"station_id":"ce4bgup2rcd13ifvqco0","pricing_plan_id":"cebpf4jnsgd1na2vs0mg"},{"bike_id":"49ce49ca-1b6e-4c55-b71c-9f6cd84960c9","system_id":"levelo_inurba_marseille","lat":43.27367,"lon":5.36249,"is_reserved":false,"is_disabled":false,"rental_uris":{"android":"levelo://app?vid=49ce49ca-1b6e-4c55-b71c-9f6cd84960c9","ios":"levelo://app?vid=49ce49ca-1b6e-4c55-b71c-9f6cd84960c9"},"vehicle_type_id":"4","last_reported":1774361530,"current_range_meters":8400,"station_id":"ce4bhbh2rcd13ifvqeo0","pricing_plan_id":"cebpf4jnsgd1na2vs0mg"},{"bike_id":"5ecae002-d94a-48c0-9c56-03698e32a88c","system_id":"levelo_inurba_marseille","lat":43.23898,"lon":5.37458,"is_reserved":false,"is_disabled":false,"rental_uris":{"android":"levelo://app?vid=5ecae002-d94a-48c0-9c56-03698e32a88c","ios":"levelo://app?vid=5ecae002-d94a-48c0-9c56-03698e32a88c"},"vehicle_type_id":"4","last_reported":1774361530,"current_range_meters":8400,"station_id":"st_d6sm7csbq4hs73f8fpjg","pricing_plan_id":"cebpf4jnsgd1na2vs0mg"},{"bike_id":"6006e25d-41fb-44b0-97d9-eb152e464909","system_id":"levelo_inurba_marseille","lat":43.28156,"lon":5.42626,"is_reserved":false,"is_disabled":false,"rental_uris":{"android":"levelo://app?vid=6006e25d-41fb-44b0-97d9-eb152e464909","ios":"levelo://app?vid=6006e25d-41fb-44b0-97d9-eb152e464909"},"vehicle_type_id":"4","last_reported":1774361530,"current_range_meters":8400,"station_id":"ce4bhnh2rcd13ifvqgug","pricing_plan_id":"cebpf4jnsgd1na2vs0mg"},{"bike_id":"1349780c-c695-4323-a34e-bcdb1047155a","system_id":"levelo_inurba_marseille","lat":43.28417,"lon":5.34982,"is_reserved":false,"is_disabled":false,"rental_uris":{"android":"levelo://app?vid=1349780c-c695-4323-a34e-bcdb1047155a","ios":"levelo://app?vid=1349780c-c695-4323-a34e-bcdb1047155a"},"vehicle_type_id":"4","last_reported":1774361530,"current_range_meters":8800,"station_id":"ce4bhbh2rcd13ifvqepg","pricing_plan_id":"cebpf4jnsgd1na2vs0mg"},{"bike_id":"e0dfd533-af70-4356-b761-e1b91e9e88b2","system_id":"levelo_inurba_marseille","lat":43.29563,"lon":5.3753,"is_reserved":false,"is_disabled":false,"rental_uris":{"android":"levelo://app?vid=e0dfd533-af70-4356-b761-e1b91e9e88b2","ios":"levelo://app?vid=e0dfd533-af70-4356-b761-e1b91e9e88b2"},"vehicle_type_id":"4","last_reported":1774361530,"current_range_meters":8800,"station_id":"ce4bgh92rcd13ifvqb50","pricing_plan_id":"cebpf4jnsgd1na2vs0mg"},{"bike_id":"53ec7a19-0c61-45d6-a917-8b8beacb9865","system_id":"levelo_inurba_marseille","lat":43.27678,"lon":5.3888,"is_reserved":false,"is_disabled":false,"rental_uris":{"android":"levelo://app?vid=53ec7a19-0c61-45d6-a917-8b8beacb9865","ios":"levelo://app?vid=53ec7a19-0c61-45d6-a917-8b8beacb9865"},"vehicle_type_id":"4","last_reported":1774361530,"current_range_meters":8800,"station_id":"ce4bhi12rcd13ifvqfo0","pricing_plan_id":"cebpf4jnsgd1na2vs0mg"},{"bike_id":"a9abd8af-8bd4-41e9-9b12-068972ec99fa","system_id":"levelo_inurba_marseille","lat":43.33601,"lon":5.37397,"is_reserved":false,"is_disabled":false,"rental_uris":{"android":"levelo://app?vid=a9abd8af-8bd4-41e9-9b12-068972ec99fa","ios":"levelo://app?vid=a9abd8af-8bd4-41e9-9b12-068972ec99fa"},"vehicle_type_id":"4","last_reported":1774361530,"current_range_meters":8800,"station_id":"","pricing_plan_id":"cebpf4jnsgd1na2vs0mg"},{"bike_id":"da6972b3-b161-480b-8ef0-1ff556fc7299","system_id":"levelo_inurba_marseille","lat":43.23802,"lon":5.36621,"is_reserved":false,"is_disabled":false,"rental_uris":{"android":"levelo://app?vid=da6972b3-b161-480b-8ef0-1ff556fc7299","ios":"levelo://app?vid=da6972b3-b161-480b-8ef0-1ff556fc7299"},"vehicle_type_id":"4","last_reported":1774361530,"current_range_meters":8800,"station_id":"st_d3nk18o9ro0c73en2l3g","pricing_plan_id":"cebpf4jnsgd1na2vs0mg"},{"bike_id":"22a24422-8367-44e3-afc2-fd1672c2c7f5","system_id":"levelo_inurba_marseille","lat":43.28483,"lon":5.48396,"is_reserved":false,"is_disabled":false,"rental_uris":{"android":"levelo://app?vid=22a24422-8367-44e3-afc2-fd1672c2c7f5","ios":"levelo://app?vid=22a24422-8367-44e3-afc2-fd1672c2c7f5"},"vehicle_type_id":"4","last_reported":1774361530,"current_range_meters":8800,"station_id":"","pricing_plan_id":"cebpf4jnsgd1na2vs0mg"},{"bike_id":"f5c03b01-d29b-4410-a5f0-a0b3d299600e","system_id":"levelo_inurba_marseille","lat":43.27506,"lon":5.42442,"is_reserved":false,"is_disabled":false,"rental_uris":{"android":"levelo://app?vid=f5c03b01-d29b-4410-a5f0-a0b3d299600e","ios":"levelo://app?vid=f5c03b01-d29b-4410-a5f0-a0b3d299600e"},"vehicle_type_id":"4","last_reported":1774361530,"current_range_meters":8800,"station_id":"","pricing_plan_id":"cebpf4jnsgd1na2vs0mg"},{"bike_id":"275c8b80-8045-424b-9bd9-7e646e316c8e","system_id":"levelo_inurba_marseille","lat":43.27375,"lon":5.36251,"is_reserved":false,"is_disabled":false,"rental_uris":{"android":"levelo://app?vid=275c8b80-8045-424b-9bd9-7e646e316c8e","ios":"levelo://app?vid=275c8b80-8045-424b-9bd9-7e646e316c8e"},"vehicle_type_id":"4","last_reported":1774361530,"current_range_meters":8800,"station_id":"ce4bhbh2rcd13ifvqeo0","pricing_plan_id":"cebpf4jnsgd1na2vs0mg"},{"bike_id":"1a751648-291f-4319-a34f-249a761c3662","system_id":"levelo_inurba_marseille","lat":43.33613,"lon":5.36303,"is_reserved":false,"is_disabled":false,"rental_uris":{"android":"levelo://app?vid=1a751648-291f-4319-a34f-249a761c3662","ios":"levelo://app?vid=1a751648-291f-4319-a34f-249a761c3662"},"vehicle_type_id":"4","last_reported":1774361530,"current_range_meters":8800,"station_id":"","pricing_plan_id":"cebpf4jnsgd1na2vs0mg"},{"bike_id":"b9f4b4e6-6ac3-4cc0-89a2-9dbe60ce4641","system_id":"levelo_inurba_marseille","lat":43.31779,"lon":5.4454,"is_reserved":false,"is_disabled":false,"rental_uris":{"android":"levelo://app?vid=b9f4b4e6-6ac3-4cc0-89a2-9dbe60ce4641","ios":"levelo://app?vid=b9f4b4e6-6ac3-4cc0-89a2-9dbe60ce4641"},"vehicle_type_id":"4","last_reported":1774361530,"current_range_meters":8800,"station_id":"","pricing_plan_id":"cebpf4jnsgd1na2vs0mg"},{"bike_id":"03394cc4-9f83-46b9-9edc-9e258f5f55ad","system_id":"levelo_inurba_marseille","lat":43.21751,"lon":5.34609,"is_reserved":false,"is_disabled":false,"rental_uris":{"android":"levelo://app?vid=03394cc4-9f83-46b9-9edc-9e258f5f55ad","ios":"levelo://app?vid=03394cc4-9f83-46b9-9edc-9e258f5f55ad"},"vehicle_type_id":"4","last_reported":1774361530,"current_range_meters":8800,"station_id":"st_cvj6r9ubvosntc0bgbag","pricing_plan_id":"cebpf4jnsgd1na2vs0mg"},{"bike_id":"4229694b-b19a-4a4d-8d3c-1edd83c52c96","system_id":"levelo_inurba_marseille","lat":43.27371,"lon":5.36244,"is_reserved":false,"is_disabled":false,"rental_uris":{"android":"levelo://app?vid=4229694b-b19a-4a4d-8d3c-1edd83c52c96","ios":"levelo://app?vid=4229694b-b19a-4a4d-8d3c-1edd83c52c96"},"vehicle_type_id":"4","last_reported":1774361530,"current_range_meters":8800,"station_id":"ce4bhbh2rcd13ifvqeo0","pricing_plan_id":"cebpf4jnsgd1na2vs0mg"},{"bike_id":"b9aea8ba-2403-4d20-8b77-976bdda254b2","system_id":"levelo_inurba_marseille","lat":43.30572,"lon":5.36529,"is_reserved":false,"is_disabled":false,"rental_uris":{"android":"levelo://app?vid=b9aea8ba-2403-4d20-8b77-976bdda254b2","ios":"levelo://app?vid=b9aea8ba-2403-4d20-8b77-976bdda254b2"},"vehicle_type_id":"4","last_reported":1774361530,"current_range_meters":8800,"station_id":"ce4bgs12rcd13ifvqcag","pricing_plan_id":"cebpf4jnsgd1na2vs0mg"},{"bike_id":"762eba06-8520-41c7-b0b4-8147df78de21","system_id":"levelo_inurba_marseille","lat":43.33166,"lon":5.37674,"is_reserved":false,"is_disabled":false,"rental_uris":{"android":"levelo://app?vid=762eba06-8520-41c7-b0b4-8147df78de21","ios":"levelo://app?vid=762eba06-8520-41c7-b0b4-8147df78de21"},"vehicle_type_id":"4","last_reported":1774361530,"current_range_meters":8800,"station_id":"st_d46cu089ee8s73dldbu0","pricing_plan_id":"cebpf4jnsgd1na2vs0mg"},{"bike_id":"8edde19f-14bb-4a9f-b9ee-19b95f05ec2f","system_id":"levelo_inurba_marseille","lat":43.3354,"lon":5.37464,"is_reserved":false,"is_disabled":false,"rental_uris":{"android":"levelo://app?vid=8edde19f-14bb-4a9f-b9ee-19b95f05ec2f","ios":"levelo://app?vid=8edde19f-14bb-4a9f-b9ee-19b95f05ec2f"},"vehicle_type_id":"4","last_reported":1774361530,"current_range_meters":8800,"station_id":"st_d46tts09ee8s73dlu43g","pricing_plan_id":"cebpf4jnsgd1na2vs0mg"},{"bike_id":"8d8566de-f03a-4e5e-aa8c-ad2e3c17ab03","system_id":"levelo_inurba_marseille","lat":43.3139,"lon":5.37396,"is_reserved":false,"is_disabled":false,"rental_uris":{"android":"levelo://app?vid=8d8566de-f03a-4e5e-aa8c-ad2e3c17ab03","ios":"levelo://app?vid=8d8566de-f03a-4e5e-aa8c-ad2e3c17ab03"},"vehicle_type_id":"4","last_reported":1774361530,"current_range_meters":8800,"station_id":"","pricing_plan_id":"cebpf4jnsgd1na2vs0mg"},{"bike_id":"a53bbf80-b92c-4f79-a32d-40218c182a39","system_id":"levelo_inurba_marseille","lat":43.26576,"lon":5.39008,"is_reserved":false,"is_disabled":false,"rental_uris":{"android":"levelo://app?vid=a53bbf80-b92c-4f79-a32d-40218c182a39","ios":"levelo://app?vid=a53bbf80-b92c-4f79-a32d-40218c182a39"},"vehicle_type_id":"4","last_reported":1774361530,"current_range_meters":8800,"station_id":"ce4bhe12rcd13ifvqf30","pricing_plan_id":"cebpf4jnsgd1na2vs0mg"},{"bike_id":"11b8cbde-e615-4b59-b692-670c1cafad4a","system_id":"levelo_inurba_marseille","lat":43.28702,"lon":5.39971,"is_reserved":false,"is_disabled":false,"rental_uris":{"android":"levelo://app?vid=11b8cbde-e615-4b59-b692-670c1cafad4a","ios":"levelo://app?vid=11b8cbde-e615-4b59-b692-670c1cafad4a"},"vehicle_type_id":"4","last_reported":1774361530,"current_range_meters":8800,"station_id":"ce4bho92rcd13ifvqh3g","pricing_plan_id":"cebpf4jnsgd1na2vs0mg"},{"bike_id":"58ffaec0-b69b-4d6c-a8e9-571aeb7e8baf","system_id":"levelo_inurba_marseille","lat":43.24663,"lon":5.38161,"is_reserved":false,"is_disabled":false,"rental_uris":{"android":"levelo://app?vid=58ffaec0-b69b-4d6c-a8e9-571aeb7e8baf","ios":"levelo://app?vid=58ffaec0-b69b-4d6c-a8e9-571aeb7e8baf"},"vehicle_type_id":"4","last_reported":1774361530,"current_range_meters":8800,"station_id":"ce4bhih2rcd13ifvqfr0","pricing_plan_id":"cebpf4jnsgd1na2vs0mg"},{"bike_id":"966ed813-86e1-4363-8eb2-94023a2528c3","system_id":"levelo_inurba_marseille","lat":43.28613,"lon":5.35108,"is_reserved":false,"is_disabled":false,"rental_uris":{"android":"levelo://app?vid=966ed813-86e1-4363-8eb2-94023a2528c3","ios":"levelo://app?vid=966ed813-86e1-4363-8eb2-94023a2528c3"},"vehicle_type_id":"4","last_reported":1774361530,"current_range_meters":8800,"station_id":"ce4bhch2rcd13ifvqeug","pricing_plan_id":"cebpf4jnsgd1na2vs0mg"},{"bike_id":"5cbb6b33-cd42-48cd-ad8f-b3cedeba4f97","system_id":"levelo_inurba_marseille","lat":43.23898,"lon":5.37455,"is_reserved":false,"is_disabled":false,"rental_uris":{"android":"levelo://app?vid=5cbb6b33-cd42-48cd-ad8f-b3cedeba4f97","ios":"levelo://app?vid=5cbb6b33-cd42-48cd-ad8f-b3cedeba4f97"},"vehicle_type_id":"4","last_reported":1774361530,"current_range_meters":9200,"station_id":"st_d6sm7csbq4hs73f8fpjg","pricing_plan_id":"cebpf4jnsgd1na2vs0mg"},{"bike_id":"5cbe01e8-b395-4927-aee5-70510e2b85a4","system_id":"levelo_inurba_marseille","lat":43.26547,"lon":5.37278,"is_reserved":false,"is_disabled":false,"rental_uris":{"android":"levelo://app?vid=5cbe01e8-b395-4927-aee5-70510e2b85a4","ios":"levelo://app?vid=5cbe01e8-b395-4927-aee5-70510e2b85a4"},"vehicle_type_id":"4","last_reported":1774361530,"current_range_meters":9200,"station_id":"ce4bhg12rcd13ifvqf70","pricing_plan_id":"cebpf4jnsgd1na2vs0mg"},{"bike_id":"59d94dc8-27a0-438c-8331-53908444c487","system_id":"levelo_inurba_marseille","lat":43.23192,"lon":5.3555,"is_reserved":false,"is_disabled":false,"rental_uris":{"android":"levelo://app?vid=59d94dc8-27a0-438c-8331-53908444c487","ios":"levelo://app?vid=59d94dc8-27a0-438c-8331-53908444c487"},"vehicle_type_id":"4","last_reported":1774361530,"current_range_meters":9200,"station_id":"ce4bhu92rcd13ifvqi70","pricing_plan_id":"cebpf4jnsgd1na2vs0mg"},{"bike_id":"fadd83d2-5a56-4dab-abd3-4fc024887366","system_id":"levelo_inurba_marseille","lat":43.28479,"lon":5.48394,"is_reserved":false,"is_disabled":false,"rental_uris":{"android":"levelo://app?vid=fadd83d2-5a56-4dab-abd3-4fc024887366","ios":"levelo://app?vid=fadd83d2-5a56-4dab-abd3-4fc024887366"},"vehicle_type_id":"4","last_reported":1774361530,"current_range_meters":9200,"station_id":"","pricing_plan_id":"cebpf4jnsgd1na2vs0mg"},{"bike_id":"29f49a32-ba08-40ef-839e-89650b416d04","system_id":"levelo_inurba_marseille","lat":43.31018,"lon":5.37915,"is_reserved":false,"is_disabled":false,"rental_uris":{"android":"levelo://app?vid=29f49a32-ba08-40ef-839e-89650b416d04","ios":"levelo://app?vid=29f49a32-ba08-40ef-839e-89650b416d04"},"vehicle_type_id":"4","last_reported":1774361530,"current_range_meters":9200,"station_id":"","pricing_plan_id":"cebpf4jnsgd1na2vs0mg"},{"bike_id":"62c0eda8-c666-40c1-b62d-71242266f316","system_id":"levelo_inurba_marseille","lat":43.28444,"lon":5.39179,"is_reserved":false,"is_disabled":true,"rental_uris":{"android":"levelo://app?vid=62c0eda8-c666-40c1-b62d-71242266f316","ios":"levelo://app?vid=62c0eda8-c666-40c1-b62d-71242266f316"},"vehicle_type_id":"4","last_reported":1774361530,"current_range_meters":9200,"station_id":"ce4bhoh2rcd13ifvqh5g","pricing_plan_id":"cebpf4jnsgd1na2vs0mg"},{"bike_id":"e8428cd4-c8c7-4157-bdf7-045d0e008d43","system_id":"levelo_inurba_marseille","lat":43.24132,"lon":5.39807,"is_reserved":false,"is_disabled":false,"rental_uris":{"android":"levelo://app?vid=e8428cd4-c8c7-4157-bdf7-045d0e008d43","ios":"levelo://app?vid=e8428cd4-c8c7-4157-bdf7-045d0e008d43"},"vehicle_type_id":"4","last_reported":1774361530,"current_range_meters":9200,"station_id":"ce4bhn12rcd13ifvqgpg","pricing_plan_id":"cebpf4jnsgd1na2vs0mg"},{"bike_id":"46384b64-0a38-4765-bd3e-bea9815912a2","system_id":"levelo_inurba_marseille","lat":43.23775,"lon":5.3663,"is_reserved":false,"is_disabled":false,"rental_uris":{"android":"levelo://app?vid=46384b64-0a38-4765-bd3e-bea9815912a2","ios":"levelo://app?vid=46384b64-0a38-4765-bd3e-bea9815912a2"},"vehicle_type_id":"4","last_reported":1774361530,"current_range_meters":9200,"station_id":"st_d3nk18o9ro0c73en2l3g","pricing_plan_id":"cebpf4jnsgd1na2vs0mg"},{"bike_id":"6d914d32-dc46-4800-88c0-1bb6dc1399b7","system_id":"levelo_inurba_marseille","lat":43.26214,"lon":5.37414,"is_reserved":false,"is_disabled":false,"rental_uris":{"android":"levelo://app?vid=6d914d32-dc46-4800-88c0-1bb6dc1399b7","ios":"levelo://app?vid=6d914d32-dc46-4800-88c0-1bb6dc1399b7"},"vehicle_type_id":"4","last_reported":1774361530,"current_range_meters":9200,"station_id":"","pricing_plan_id":"cebpf4jnsgd1na2vs0mg"},{"bike_id":"82555c77-61ae-4a1b-bb5d-44a30f778f02","system_id":"levelo_inurba_marseille","lat":43.24655,"lon":5.38897,"is_reserved":false,"is_disabled":false,"rental_uris":{"android":"levelo://app?vid=82555c77-61ae-4a1b-bb5d-44a30f778f02","ios":"levelo://app?vid=82555c77-61ae-4a1b-bb5d-44a30f778f02"},"vehicle_type_id":"4","last_reported":1774361530,"current_range_meters":9200,"station_id":"ce4bhg12rcd13ifvqf60","pricing_plan_id":"cebpf4jnsgd1na2vs0mg"},{"bike_id":"d520c672-a946-4bd2-bc2d-9a95f6b0b226","system_id":"levelo_inurba_marseille","lat":43.2389,"lon":5.37458,"is_reserved":false,"is_disabled":false,"rental_uris":{"android":"levelo://app?vid=d520c672-a946-4bd2-bc2d-9a95f6b0b226","ios":"levelo://app?vid=d520c672-a946-4bd2-bc2d-9a95f6b0b226"},"vehicle_type_id":"4","last_reported":1774361530,"current_range_meters":9200,"station_id":"st_d6sm7csbq4hs73f8fpjg","pricing_plan_id":"cebpf4jnsgd1na2vs0mg"},{"bike_id":"b9d157e4-adb0-4d64-b93d-349f42c39fcf","system_id":"levelo_inurba_marseille","lat":43.31893,"lon":5.36813,"is_reserved":false,"is_disabled":false,"rental_uris":{"android":"levelo://app?vid=b9d157e4-adb0-4d64-b93d-349f42c39fcf","ios":"levelo://app?vid=b9d157e4-adb0-4d64-b93d-349f42c39fcf"},"vehicle_type_id":"4","last_reported":1774361530,"current_range_meters":9200,"station_id":"st_d6o2h0d0559c73evc1b0","pricing_plan_id":"cebpf4jnsgd1na2vs0mg"},{"bike_id":"96ef8b23-5054-4ed2-9788-4da8cf353732","system_id":"levelo_inurba_marseille","lat":43.25924,"lon":5.40891,"is_reserved":false,"is_disabled":false,"rental_uris":{"android":"levelo://app?vid=96ef8b23-5054-4ed2-9788-4da8cf353732","ios":"levelo://app?vid=96ef8b23-5054-4ed2-9788-4da8cf353732"},"vehicle_type_id":"4","last_reported":1774361530,"current_range_meters":9200,"station_id":"ce4bhm92rcd13ifvqglg","pricing_plan_id":"cebpf4jnsgd1na2vs0mg"},{"bike_id":"6a1484c3-22f4-4c09-87f6-373bf684c388","system_id":"levelo_inurba_marseille","lat":43.27211,"lon":5.39173,"is_reserved":false,"is_disabled":false,"rental_uris":{"android":"levelo://app?vid=6a1484c3-22f4-4c09-87f6-373bf684c388","ios":"levelo://app?vid=6a1484c3-22f4-4c09-87f6-373bf684c388"},"vehicle_type_id":"4","last_reported":1774361530,"current_range_meters":9200,"station_id":"ce4bhhp2rcd13ifvqfm0","pricing_plan_id":"cebpf4jnsgd1na2vs0mg"},{"bike_id":"34092ada-d338-4cdd-b261-4a35252d5ee6","system_id":"levelo_inurba_marseille","lat":43.30151,"lon":5.38086,"is_reserved":false,"is_disabled":false,"rental_uris":{"android":"levelo://app?vid=34092ada-d338-4cdd-b261-4a35252d5ee6","ios":"levelo://app?vid=34092ada-d338-4cdd-b261-4a35252d5ee6"},"vehicle_type_id":"4","last_reported":1774361530,"current_range_meters":9600,"station_id":"ce4bgjp2rcd13ifvqbh0","pricing_plan_id":"cebpf4jnsgd1na2vs0mg"},{"bike_id":"f80d7cb3-57a2-4e61-a9d9-d2c6a2ce4bdc","system_id":"levelo_inurba_marseille","lat":43.26367,"lon":5.40999,"is_reserved":false,"is_disabled":false,"rental_uris":{"android":"levelo://app?vid=f80d7cb3-57a2-4e61-a9d9-d2c6a2ce4bdc","ios":"levelo://app?vid=f80d7cb3-57a2-4e61-a9d9-d2c6a2ce4bdc"},"vehicle_type_id":"4","last_reported":1774361530,"current_range_meters":9600,"station_id":"st_d4e5ca6na9uc73bfl5fg","pricing_plan_id":"cebpf4jnsgd1na2vs0mg"},{"bike_id":"992d461f-8839-4086-b27a-9edc1d38b03d","system_id":"levelo_inurba_marseille","lat":43.3355,"lon":5.37465,"is_reserved":false,"is_disabled":false,"rental_uris":{"android":"levelo://app?vid=992d461f-8839-4086-b27a-9edc1d38b03d","ios":"levelo://app?vid=992d461f-8839-4086-b27a-9edc1d38b03d"},"vehicle_type_id":"4","last_reported":1774361530,"current_range_meters":9600,"station_id":"st_d46tts09ee8s73dlu43g","pricing_plan_id":"cebpf4jnsgd1na2vs0mg"},{"bike_id":"906f17c0-60c6-4dfc-84c3-93d15fbf23d8","system_id":"levelo_inurba_marseille","lat":43.26606,"lon":5.38293,"is_reserved":false,"is_disabled":false,"rental_uris":{"android":"levelo://app?vid=906f17c0-60c6-4dfc-84c3-93d15fbf23d8","ios":"levelo://app?vid=906f17c0-60c6-4dfc-84c3-93d15fbf23d8"},"vehicle_type_id":"4","last_reported":1774361530,"current_range_meters":9600,"station_id":"","pricing_plan_id":"cebpf4jnsgd1na2vs0mg"},{"bike_id":"070d2dcc-f805-42fb-9266-98aae6dd314b","system_id":"levelo_inurba_marseille","lat":43.28462,"lon":5.35888,"is_reserved":false,"is_disabled":false,"rental_uris":{"android":"levelo://app?vid=070d2dcc-f805-42fb-9266-98aae6dd314b","ios":"levelo://app?vid=070d2dcc-f805-42fb-9266-98aae6dd314b"},"vehicle_type_id":"4","last_reported":1774361530,"current_range_meters":9600,"station_id":"ce4bhah2rcd13ifvqei0","pricing_plan_id":"cebpf4jnsgd1na2vs0mg"},{"bike_id":"659460d5-1083-48ca-9799-b96962297f2a","system_id":"levelo_inurba_marseille","lat":43.31372,"lon":5.38485,"is_reserved":false,"is_disabled":false,"rental_uris":{"android":"levelo://app?vid=659460d5-1083-48ca-9799-b96962297f2a","ios":"levelo://app?vid=659460d5-1083-48ca-9799-b96962297f2a"},"vehicle_type_id":"4","last_reported":1774361530,"current_range_meters":9600,"station_id":"ce4bgt92rcd13ifvqcf0","pricing_plan_id":"cebpf4jnsgd1na2vs0mg"},{"bike_id":"afe0a86a-bdb1-4d45-9157-9ef00bbb9918","system_id":"levelo_inurba_marseille","lat":43.26776,"lon":5.39443,"is_reserved":false,"is_disabled":false,"rental_uris":{"android":"levelo://app?vid=afe0a86a-bdb1-4d45-9157-9ef00bbb9918","ios":"levelo://app?vid=afe0a86a-bdb1-4d45-9157-9ef00bbb9918"},"vehicle_type_id":"4","last_reported":1774361530,"current_range_meters":9600,"station_id":"ce4bhh12rcd13ifvqfg0","pricing_plan_id":"cebpf4jnsgd1na2vs0mg"},{"bike_id":"adaf8e00-ca2c-49b5-9b35-6749da32aa87","system_id":"levelo_inurba_marseille","lat":43.33543,"lon":5.37454,"is_reserved":false,"is_disabled":false,"rental_uris":{"android":"levelo://app?vid=adaf8e00-ca2c-49b5-9b35-6749da32aa87","ios":"levelo://app?vid=adaf8e00-ca2c-49b5-9b35-6749da32aa87"},"vehicle_type_id":"4","last_reported":1774361530,"current_range_meters":9600,"station_id":"st_d46tts09ee8s73dlu43g","pricing_plan_id":"cebpf4jnsgd1na2vs0mg"},{"bike_id":"489b1f47-9bf9-4f10-90f5-3b4dff230700","system_id":"levelo_inurba_marseille","lat":43.23782,"lon":5.36627,"is_reserved":false,"is_disabled":false,"rental_uris":{"android":"levelo://app?vid=489b1f47-9bf9-4f10-90f5-3b4dff230700","ios":"levelo://app?vid=489b1f47-9bf9-4f10-90f5-3b4dff230700"},"vehicle_type_id":"4","last_reported":1774361530,"current_range_meters":9600,"station_id":"st_d3nk18o9ro0c73en2l3g","pricing_plan_id":"cebpf4jnsgd1na2vs0mg"},{"bike_id":"db23ebda-ef7b-4738-b1a2-70195b447c20","system_id":"levelo_inurba_marseille","lat":43.22571,"lon":5.41621,"is_reserved":false,"is_disabled":false,"rental_uris":{"android":"levelo://app?vid=db23ebda-ef7b-4738-b1a2-70195b447c20","ios":"levelo://app?vid=db23ebda-ef7b-4738-b1a2-70195b447c20"},"vehicle_type_id":"4","last_reported":1774361530,"current_range_meters":9600,"station_id":"st_d2o4gvlbi1j2169b742g","pricing_plan_id":"cebpf4jnsgd1na2vs0mg"},{"bike_id":"70c095d3-fc46-4e62-8f2b-2032da64f438","system_id":"levelo_inurba_marseille","lat":43.26489,"lon":5.39537,"is_reserved":false,"is_disabled":false,"rental_uris":{"android":"levelo://app?vid=70c095d3-fc46-4e62-8f2b-2032da64f438","ios":"levelo://app?vid=70c095d3-fc46-4e62-8f2b-2032da64f438"},"vehicle_type_id":"4","last_reported":1774361530,"current_range_meters":9600,"station_id":"ce4bhi12rcd13ifvqfq0","pricing_plan_id":"cebpf4jnsgd1na2vs0mg"},{"bike_id":"fa1cda98-6fa6-42a9-ae0a-4d0ed02bb2ca","system_id":"levelo_inurba_marseille","lat":43.29891,"lon":5.38138,"is_reserved":false,"is_disabled":false,"rental_uris":{"android":"levelo://app?vid=fa1cda98-6fa6-42a9-ae0a-4d0ed02bb2ca","ios":"levelo://app?vid=fa1cda98-6fa6-42a9-ae0a-4d0ed02bb2ca"},"vehicle_type_id":"4","last_reported":1774361530,"current_range_meters":10000,"station_id":"ce4bgj12rcd13ifvqbc0","pricing_plan_id":"cebpf4jnsgd1na2vs0mg"},{"bike_id":"3c68b8c9-7b48-4a5e-96da-c48a047e8ef3","system_id":"levelo_inurba_marseille","lat":43.32513,"lon":5.36553,"is_reserved":false,"is_disabled":false,"rental_uris":{"android":"levelo://app?vid=3c68b8c9-7b48-4a5e-96da-c48a047e8ef3","ios":"levelo://app?vid=3c68b8c9-7b48-4a5e-96da-c48a047e8ef3"},"vehicle_type_id":"4","last_reported":1774361530,"current_range_meters":10000,"station_id":"ce4bhs12rcd13ifvqhvg","pricing_plan_id":"cebpf4jnsgd1na2vs0mg"},{"bike_id":"59497350-a8e4-444d-a75a-adc773d641b6","system_id":"levelo_inurba_marseille","lat":43.30146,"lon":5.3809,"is_reserved":false,"is_disabled":false,"rental_uris":{"android":"levelo://app?vid=59497350-a8e4-444d-a75a-adc773d641b6","ios":"levelo://app?vid=59497350-a8e4-444d-a75a-adc773d641b6"},"vehicle_type_id":"4","last_reported":1774361530,"current_range_meters":10000,"station_id":"ce4bgjp2rcd13ifvqbh0","pricing_plan_id":"cebpf4jnsgd1na2vs0mg"},{"bike_id":"fdd8bf84-b2fe-4508-9572-06ea662fa5ac","system_id":"levelo_inurba_marseille","lat":43.2848,"lon":5.48395,"is_reserved":false,"is_disabled":false,"rental_uris":{"android":"levelo://app?vid=fdd8bf84-b2fe-4508-9572-06ea662fa5ac","ios":"levelo://app?vid=fdd8bf84-b2fe-4508-9572-06ea662fa5ac"},"vehicle_type_id":"4","last_reported":1774361530,"current_range_meters":10000,"station_id":"","pricing_plan_id":"cebpf4jnsgd1na2vs0mg"},{"bike_id":"00632196-0233-4f69-90af-0a36bab1dde0","system_id":"levelo_inurba_marseille","lat":43.22542,"lon":5.34824,"is_reserved":false,"is_disabled":false,"rental_uris":{"android":"levelo://app?vid=00632196-0233-4f69-90af-0a36bab1dde0","ios":"levelo://app?vid=00632196-0233-4f69-90af-0a36bab1dde0"},"vehicle_type_id":"4","last_reported":1774361530,"current_range_meters":10000,"station_id":"","pricing_plan_id":"cebpf4jnsgd1na2vs0mg"},{"bike_id":"526f2898-bc02-4198-9596-2aa2b29dfa51","system_id":"levelo_inurba_marseille","lat":43.23205,"lon":5.39981,"is_reserved":false,"is_disabled":false,"rental_uris":{"android":"levelo://app?vid=526f2898-bc02-4198-9596-2aa2b29dfa51","ios":"levelo://app?vid=526f2898-bc02-4198-9596-2aa2b29dfa51"},"vehicle_type_id":"4","last_reported":1774361530,"current_range_meters":10000,"station_id":"ce4bhn12rcd13ifvqgqg","pricing_plan_id":"cebpf4jnsgd1na2vs0mg"},{"bike_id":"8926c4c4-5f6a-4e55-a77a-ca8a5ff700ce","system_id":"levelo_inurba_marseille","lat":43.30474,"lon":5.37911,"is_reserved":false,"is_disabled":true,"rental_uris":{"android":"levelo://app?vid=8926c4c4-5f6a-4e55-a77a-ca8a5ff700ce","ios":"levelo://app?vid=8926c4c4-5f6a-4e55-a77a-ca8a5ff700ce"},"vehicle_type_id":"4","last_reported":1774361530,"current_range_meters":10000,"station_id":"","pricing_plan_id":"cebpf4jnsgd1na2vs0mg"},{"bike_id":"d9762b28-65d1-4114-9609-5a7f09174170","system_id":"levelo_inurba_marseille","lat":43.24075,"lon":5.37749,"is_reserved":false,"is_disabled":false,"rental_uris":{"android":"levelo://app?vid=d9762b28-65d1-4114-9609-5a7f09174170","ios":"levelo://app?vid=d9762b28-65d1-4114-9609-5a7f09174170"},"vehicle_type_id":"4","last_reported":1774361530,"current_range_meters":10000,"station_id":"ce4bhnp2rcd13ifvqgvg","pricing_plan_id":"cebpf4jnsgd1na2vs0mg"},{"bike_id":"36c30ee7-542d-41db-b84b-a18e4b79c37e","system_id":"levelo_inurba_marseille","lat":43.27933,"lon":5.39559,"is_reserved":false,"is_disabled":true,"rental_uris":{"android":"levelo://app?vid=36c30ee7-542d-41db-b84b-a18e4b79c37e","ios":"levelo://app?vid=36c30ee7-542d-41db-b84b-a18e4b79c37e"},"vehicle_type_id":"4","last_reported":1774361530,"current_range_meters":10000,"station_id":"ce4bhf92rcd13ifvqf40","pricing_plan_id":"cebpf4jnsgd1na2vs0mg"},{"bike_id":"15d831ef-badb-4f45-b239-1425c86c71c4","system_id":"levelo_inurba_marseille","lat":43.30551,"lon":5.38435,"is_reserved":false,"is_disabled":false,"rental_uris":{"android":"levelo://app?vid=15d831ef-badb-4f45-b239-1425c86c71c4","ios":"levelo://app?vid=15d831ef-badb-4f45-b239-1425c86c71c4"},"vehicle_type_id":"4","last_reported":1774361530,"current_range_meters":10000,"station_id":"ce4bgg92rcd13ifvqb30","pricing_plan_id":"cebpf4jnsgd1na2vs0mg"},{"bike_id":"451e822b-d17c-41b3-aa86-e9da4e66ded2","system_id":"levelo_inurba_marseille","lat":43.23971,"lon":5.36629,"is_reserved":false,"is_disabled":false,"rental_uris":{"android":"levelo://app?vid=451e822b-d17c-41b3-aa86-e9da4e66ded2","ios":"levelo://app?vid=451e822b-d17c-41b3-aa86-e9da4e66ded2"},"vehicle_type_id":"4","last_reported":1774361530,"current_range_meters":10000,"station_id":"ce4bhi12rcd13ifvqfp0","pricing_plan_id":"cebpf4jnsgd1na2vs0mg"},{"bike_id":"81afbade-9b61-4865-965d-d9c81a599521","system_id":"levelo_inurba_marseille","lat":43.23775,"lon":5.36635,"is_reserved":false,"is_disabled":false,"rental_uris":{"android":"levelo://app?vid=81afbade-9b61-4865-965d-d9c81a599521","ios":"levelo://app?vid=81afbade-9b61-4865-965d-d9c81a599521"},"vehicle_type_id":"4","last_reported":1774361530,"current_range_meters":10000,"station_id":"st_d3nk18o9ro0c73en2l3g","pricing_plan_id":"cebpf4jnsgd1na2vs0mg"},{"bike_id":"2ffcc2dd-acc7-4c1f-83fe-76a51bfe4c59","system_id":"levelo_inurba_marseille","lat":43.23791,"lon":5.3662,"is_reserved":false,"is_disabled":false,"rental_uris":{"android":"levelo://app?vid=2ffcc2dd-acc7-4c1f-83fe-76a51bfe4c59","ios":"levelo://app?vid=2ffcc2dd-acc7-4c1f-83fe-76a51bfe4c59"},"vehicle_type_id":"4","last_reported":1774361530,"current_range_meters":10000,"station_id":"st_d3nk18o9ro0c73en2l3g","pricing_plan_id":"cebpf4jnsgd1na2vs0mg"},{"bike_id":"3969d9ff-e51e-44fd-8e71-b3c87bcabc26","system_id":"levelo_inurba_marseille","lat":43.25828,"lon":5.39435,"is_reserved":false,"is_disabled":false,"rental_uris":{"android":"levelo://app?vid=3969d9ff-e51e-44fd-8e71-b3c87bcabc26","ios":"levelo://app?vid=3969d9ff-e51e-44fd-8e71-b3c87bcabc26"},"vehicle_type_id":"4","last_reported":1774361530,"current_range_meters":10000,"station_id":"ce4bhip2rcd13ifvqft0","pricing_plan_id":"cebpf4jnsgd1na2vs0mg"},{"bike_id":"7d169033-115d-43ef-8cad-c345fdb0342f","system_id":"levelo_inurba_marseille","lat":43.23156,"lon":5.43705,"is_reserved":false,"is_disabled":false,"rental_uris":{"android":"levelo://app?vid=7d169033-115d-43ef-8cad-c345fdb0342f","ios":"levelo://app?vid=7d169033-115d-43ef-8cad-c345fdb0342f"},"vehicle_type_id":"4","last_reported":1774361530,"current_range_meters":10000,"station_id":"ce4bhmp2rcd13ifvqgog","pricing_plan_id":"cebpf4jnsgd1na2vs0mg"},{"bike_id":"18203fc1-bc8e-439c-98e0-6c00835502d9","system_id":"levelo_inurba_marseille","lat":43.28415,"lon":5.34998,"is_reserved":false,"is_disabled":false,"rental_uris":{"android":"levelo://app?vid=18203fc1-bc8e-439c-98e0-6c00835502d9","ios":"levelo://app?vid=18203fc1-bc8e-439c-98e0-6c00835502d9"},"vehicle_type_id":"4","last_reported":1774361530,"current_range_meters":10000,"station_id":"ce4bhbh2rcd13ifvqepg","pricing_plan_id":"cebpf4jnsgd1na2vs0mg"},{"bike_id":"425b83ad-3851-462d-a5f9-0b6dfcd36afc","system_id":"levelo_inurba_marseille","lat":43.32071,"lon":5.41533,"is_reserved":false,"is_disabled":false,"rental_uris":{"android":"levelo://app?vid=425b83ad-3851-462d-a5f9-0b6dfcd36afc","ios":"levelo://app?vid=425b83ad-3851-462d-a5f9-0b6dfcd36afc"},"vehicle_type_id":"4","last_reported":1774361530,"current_range_meters":10800,"station_id":"ce4bhq92rcd13ifvqhkg","pricing_plan_id":"cebpf4jnsgd1na2vs0mg"},{"bike_id":"f7964fa2-d7a6-41b0-97f9-1f4fa6b33c53","system_id":"levelo_inurba_marseille","lat":43.25332,"lon":5.42172,"is_reserved":false,"is_disabled":false,"rental_uris":{"android":"levelo://app?vid=f7964fa2-d7a6-41b0-97f9-1f4fa6b33c53","ios":"levelo://app?vid=f7964fa2-d7a6-41b0-97f9-1f4fa6b33c53"},"vehicle_type_id":"4","last_reported":1774361530,"current_range_meters":10800,"station_id":"","pricing_plan_id":"cebpf4jnsgd1na2vs0mg"},{"bike_id":"f4e12de3-12ee-449c-bb7b-82b4b799a0fa","system_id":"levelo_inurba_marseille","lat":43.246511,"lon":5.388933,"is_reserved":false,"is_disabled":true,"rental_uris":{"android":"levelo://app?vid=f4e12de3-12ee-449c-bb7b-82b4b799a0fa","ios":"levelo://app?vid=f4e12de3-12ee-449c-bb7b-82b4b799a0fa"},"vehicle_type_id":"4","last_reported":1774361530,"current_range_meters":10800,"station_id":"ce4bgg92rcd13ifvqb30","pricing_plan_id":"cebpf4jnsgd1na2vs0mg"},{"bike_id":"a42d69ec-9635-477a-a61d-5301e4f014fe","system_id":"levelo_inurba_marseille","lat":43.30578,"lon":5.3668,"is_reserved":false,"is_disabled":false,"rental_uris":{"android":"levelo://app?vid=a42d69ec-9635-477a-a61d-5301e4f014fe","ios":"levelo://app?vid=a42d69ec-9635-477a-a61d-5301e4f014fe"},"vehicle_type_id":"4","last_reported":1774361530,"current_range_meters":10800,"station_id":"","pricing_plan_id":"cebpf4jnsgd1na2vs0mg"},{"bike_id":"7ea6fdc2-331a-49a0-86c0-bac72acd4c08","system_id":"levelo_inurba_marseille","lat":43.28863,"lon":5.42499,"is_reserved":false,"is_disabled":false,"rental_uris":{"android":"levelo://app?vid=7ea6fdc2-331a-49a0-86c0-bac72acd4c08","ios":"levelo://app?vid=7ea6fdc2-331a-49a0-86c0-bac72acd4c08"},"vehicle_type_id":"4","last_reported":1774361530,"current_range_meters":10800,"station_id":"","pricing_plan_id":"cebpf4jnsgd1na2vs0mg"},{"bike_id":"5487f2c1-c4a8-4daf-8490-88d7b84744cf","system_id":"levelo_inurba_marseille","lat":43.30302,"lon":5.36914,"is_reserved":false,"is_disabled":false,"rental_uris":{"android":"levelo://app?vid=5487f2c1-c4a8-4daf-8490-88d7b84744cf","ios":"levelo://app?vid=5487f2c1-c4a8-4daf-8490-88d7b84744cf"},"vehicle_type_id":"4","last_reported":1774361530,"current_range_meters":10800,"station_id":"ce4bgqh2rcd13ifvqc5g","pricing_plan_id":"cebpf4jnsgd1na2vs0mg"},{"bike_id":"484f2abe-81d9-4c3a-92bb-99d4e164fc66","system_id":"levelo_inurba_marseille","lat":43.27494,"lon":5.41682,"is_reserved":false,"is_disabled":false,"rental_uris":{"android":"levelo://app?vid=484f2abe-81d9-4c3a-92bb-99d4e164fc66","ios":"levelo://app?vid=484f2abe-81d9-4c3a-92bb-99d4e164fc66"},"vehicle_type_id":"4","last_reported":1774361530,"current_range_meters":10800,"station_id":"st_d6im8g6chgec73a5pndg","pricing_plan_id":"cebpf4jnsgd1na2vs0mg"},{"bike_id":"526b1a54-1174-47a5-b5d7-e3da14731487","system_id":"levelo_inurba_marseille","lat":43.2694,"lon":5.40241,"is_reserved":false,"is_disabled":false,"rental_uris":{"android":"levelo://app?vid=526b1a54-1174-47a5-b5d7-e3da14731487","ios":"levelo://app?vid=526b1a54-1174-47a5-b5d7-e3da14731487"},"vehicle_type_id":"4","last_reported":1774361530,"current_range_meters":10800,"station_id":"cjm6bp8fraef2m0cb0m0","pricing_plan_id":"cebpf4jnsgd1na2vs0mg"},{"bike_id":"8f9f7620-9242-4d4f-a4b5-edf78d9544f8","system_id":"levelo_inurba_marseille","lat":43.24369,"lon":5.3706,"is_reserved":false,"is_disabled":false,"rental_uris":{"android":"levelo://app?vid=8f9f7620-9242-4d4f-a4b5-edf78d9544f8","ios":"levelo://app?vid=8f9f7620-9242-4d4f-a4b5-edf78d9544f8"},"vehicle_type_id":"4","last_reported":1774361530,"current_range_meters":10800,"station_id":"ce4bhhh2rcd13ifvqfk0","pricing_plan_id":"cebpf4jnsgd1na2vs0mg"},{"bike_id":"34a36d18-ae2d-479f-aac0-c387918978af","system_id":"levelo_inurba_marseille","lat":43.33608,"lon":5.40996,"is_reserved":false,"is_disabled":false,"rental_uris":{"android":"levelo://app?vid=34a36d18-ae2d-479f-aac0-c387918978af","ios":"levelo://app?vid=34a36d18-ae2d-479f-aac0-c387918978af"},"vehicle_type_id":"4","last_reported":1774361530,"current_range_meters":10800,"station_id":"ce4bhqh2rcd13ifvqhmg","pricing_plan_id":"cebpf4jnsgd1na2vs0mg"},{"bike_id":"235c07dc-c1ab-4206-a2d6-4c5071e6faf9","system_id":"levelo_inurba_marseille","lat":43.28853,"lon":5.39304,"is_reserved":false,"is_disabled":false,"rental_uris":{"android":"levelo://app?vid=235c07dc-c1ab-4206-a2d6-4c5071e6faf9","ios":"levelo://app?vid=235c07dc-c1ab-4206-a2d6-4c5071e6faf9"},"vehicle_type_id":"4","last_reported":1774361530,"current_range_meters":10800,"station_id":"ce4bh2p2rcd13ifvqdi0","pricing_plan_id":"cebpf4jnsgd1na2vs0mg"},{"bike_id":"dab02ad8-0cfd-4ffd-913e-9ecb1a7f7b24","system_id":"levelo_inurba_marseille","lat":43.30893,"lon":5.396548,"is_reserved":false,"is_disabled":false,"rental_uris":{"android":"levelo://app?vid=dab02ad8-0cfd-4ffd-913e-9ecb1a7f7b24","ios":"levelo://app?vid=dab02ad8-0cfd-4ffd-913e-9ecb1a7f7b24"},"vehicle_type_id":"4","last_reported":1774361530,"current_range_meters":10800,"station_id":"ce4bh012rcd13ifvqcv0","pricing_plan_id":"cebpf4jnsgd1na2vs0mg"},{"bike_id":"c00614de-fb45-42a8-b0b6-775dc2afa204","system_id":"levelo_inurba_marseille","lat":43.30563,"lon":5.36705,"is_reserved":false,"is_disabled":false,"rental_uris":{"android":"levelo://app?vid=c00614de-fb45-42a8-b0b6-775dc2afa204","ios":"levelo://app?vid=c00614de-fb45-42a8-b0b6-775dc2afa204"},"vehicle_type_id":"4","last_reported":1774361530,"current_range_meters":10800,"station_id":"ce4bgrp2rcd13ifvqc9g","pricing_plan_id":"cebpf4jnsgd1na2vs0mg"},{"bike_id":"21800d29-3481-4758-b7e9-e138cc33b063","system_id":"levelo_inurba_marseille","lat":43.29911,"lon":5.37472,"is_reserved":false,"is_disabled":false,"rental_uris":{"android":"levelo://app?vid=21800d29-3481-4758-b7e9-e138cc33b063","ios":"levelo://app?vid=21800d29-3481-4758-b7e9-e138cc33b063"},"vehicle_type_id":"4","last_reported":1774361530,"current_range_meters":10800,"station_id":"ce4bgjh2rcd13ifvqbg0","pricing_plan_id":"cebpf4jnsgd1na2vs0mg"},{"bike_id":"ec898cf3-ffa6-436f-b016-61468420c9a1","system_id":"levelo_inurba_marseille","lat":43.27091,"lon":5.42264,"is_reserved":false,"is_disabled":false,"rental_uris":{"android":"levelo://app?vid=ec898cf3-ffa6-436f-b016-61468420c9a1","ios":"levelo://app?vid=ec898cf3-ffa6-436f-b016-61468420c9a1"},"vehicle_type_id":"4","last_reported":1774361530,"current_range_meters":10800,"station_id":"ce4bhk92rcd13ifvqgb0","pricing_plan_id":"cebpf4jnsgd1na2vs0mg"},{"bike_id":"bc26fc3b-e48d-4214-8562-f08e6a753452","system_id":"levelo_inurba_marseille","lat":43.28929,"lon":5.38404,"is_reserved":false,"is_disabled":false,"rental_uris":{"android":"levelo://app?vid=bc26fc3b-e48d-4214-8562-f08e6a753452","ios":"levelo://app?vid=bc26fc3b-e48d-4214-8562-f08e6a753452"},"vehicle_type_id":"4","last_reported":1774361530,"current_range_meters":10800,"station_id":"ce4bh612rcd13ifvqe6g","pricing_plan_id":"cebpf4jnsgd1na2vs0mg"},{"bike_id":"0483e660-b7ec-4061-bd5d-8e1b6a2b8aa8","system_id":"levelo_inurba_marseille","lat":43.27355,"lon":5.42394,"is_reserved":false,"is_disabled":false,"rental_uris":{"android":"levelo://app?vid=0483e660-b7ec-4061-bd5d-8e1b6a2b8aa8","ios":"levelo://app?vid=0483e660-b7ec-4061-bd5d-8e1b6a2b8aa8"},"vehicle_type_id":"4","last_reported":1774361530,"current_range_meters":10800,"station_id":"","pricing_plan_id":"cebpf4jnsgd1na2vs0mg"},{"bike_id":"6bce5f22-cb32-4f44-b883-dd984e48b6d9","system_id":"levelo_inurba_marseille","lat":43.29002,"lon":5.35612,"is_reserved":false,"is_disabled":false,"rental_uris":{"android":"levelo://app?vid=6bce5f22-cb32-4f44-b883-dd984e48b6d9","ios":"levelo://app?vid=6bce5f22-cb32-4f44-b883-dd984e48b6d9"},"vehicle_type_id":"4","last_reported":1774361530,"current_range_meters":10800,"station_id":"ce4bhb92rcd13ifvqen0","pricing_plan_id":"cebpf4jnsgd1na2vs0mg"},{"bike_id":"24ea973b-0779-49bb-973a-08439ad2e4fe","system_id":"levelo_inurba_marseille","lat":43.28947,"lon":5.4012,"is_reserved":false,"is_disabled":false,"rental_uris":{"android":"levelo://app?vid=24ea973b-0779-49bb-973a-08439ad2e4fe","ios":"levelo://app?vid=24ea973b-0779-49bb-973a-08439ad2e4fe"},"vehicle_type_id":"4","last_reported":1774361530,"current_range_meters":11200,"station_id":"","pricing_plan_id":"cebpf4jnsgd1na2vs0mg"},{"bike_id":"390642d5-ebc3-4bda-abf8-55b0c8070dc5","system_id":"levelo_inurba_marseille","lat":43.26677,"lon":5.38271,"is_reserved":false,"is_disabled":true,"rental_uris":{"android":"levelo://app?vid=390642d5-ebc3-4bda-abf8-55b0c8070dc5","ios":"levelo://app?vid=390642d5-ebc3-4bda-abf8-55b0c8070dc5"},"vehicle_type_id":"4","last_reported":1774361530,"current_range_meters":11200,"station_id":"ce4bhg92rcd13ifvqf90","pricing_plan_id":"cebpf4jnsgd1na2vs0mg"},{"bike_id":"d64c94f3-e268-41de-bac3-5a218887d9b5","system_id":"levelo_inurba_marseille","lat":43.2848,"lon":5.48402,"is_reserved":false,"is_disabled":false,"rental_uris":{"android":"levelo://app?vid=d64c94f3-e268-41de-bac3-5a218887d9b5","ios":"levelo://app?vid=d64c94f3-e268-41de-bac3-5a218887d9b5"},"vehicle_type_id":"4","last_reported":1774361530,"current_range_meters":11200,"station_id":"","pricing_plan_id":"cebpf4jnsgd1na2vs0mg"},{"bike_id":"89673b48-b93e-49b1-91bc-4a5460ed425e","system_id":"levelo_inurba_marseille","lat":43.29898,"lon":5.43637,"is_reserved":false,"is_disabled":false,"rental_uris":{"android":"levelo://app?vid=89673b48-b93e-49b1-91bc-4a5460ed425e","ios":"levelo://app?vid=89673b48-b93e-49b1-91bc-4a5460ed425e"},"vehicle_type_id":"4","last_reported":1774361530,"current_range_meters":11200,"station_id":"ce4bhpp2rcd13ifvqhfg","pricing_plan_id":"cebpf4jnsgd1na2vs0mg"},{"bike_id":"01408631-542f-4416-b793-8c09827eec32","system_id":"levelo_inurba_marseille","lat":43.29846,"lon":5.36267,"is_reserved":false,"is_disabled":false,"rental_uris":{"android":"levelo://app?vid=01408631-542f-4416-b793-8c09827eec32","ios":"levelo://app?vid=01408631-542f-4416-b793-8c09827eec32"},