{"last_updated":1774819343,"ttl":60,"version":"2.2","data":{"bikes":[{"bike_id":"7ab644fa-9a7b-4c7d-98c9-5e93a8ff09db","system_id":"levelo_inurba_marseille","lat":43.2621,"lon":5.37436,"is_reserved":false,"is_disabled":false,"rental_uris":{"android":"levelo://app?vid=7ab644fa-9a7b-4c7d-98c9-5e93a8ff09db","ios":"levelo://app?vid=7ab644fa-9a7b-4c7d-98c9-5e93a8ff09db"},"vehicle_type_id":"4","last_reported":1774819344,"current_range_meters":2800,"station_id":"ce4bhgp2rcd13ifvqfc0","pricing_plan_id":"cebpf4jnsgd1na2vs0mg"},{"bike_id":"47b7b901-4676-4661-9e62-e7c0e993c9d9","system_id":"levelo_inurba_marseille","lat":43.29546,"lon":5.38706,"is_reserved":false,"is_disabled":false,"rental_uris":{"android":"levelo://app?vid=47b7b901-4676-4661-9e62-e7c0e993c9d9","ios":"levelo://app?vid=47b7b901-4676-4661-9e62-e7c0e993c9d9"},"vehicle_type_id":"4","last_reported":1774819344,"current_range_meters":2800,"station_id":"","pricing_plan_id":"cebpf4jnsgd1na2vs0mg"},{"bike_id":"c8e3f134-bd1d-4bd8-925f-75061382b49c","system_id":"levelo_inurba_marseille","lat":43.2954,"lon":5.38652,"is_reserved":false,"is_disabled":false,"rental_uris":{"android":"levelo://app?vid=c8e3f134-bd1d-4bd8-925f-75061382b49c","ios":"levelo://app?vid=c8e3f134-bd1d-4bd8-925f-75061382b49c"},"vehicle_type_id":"4","last_reported":1774819344,"current_range_meters":2800,"station_id":"","pricing_plan_id":"cebpf4jnsgd1na2vs0mg"},{"bike_id":"50693894-5423-4c6e-b768-118b0d4ec01c","system_id":"levelo_inurba_marseille","lat":43.29288,"lon":5.40875,"is_reserved":false,"is_disabled":false,"rental_uris":{"android":"levelo://app?vid=50693894-5423-4c6e-b768-118b0d4ec01c","ios":"levelo://app?vid=50693894-5423-4c6e-b768-118b0d4ec01c"},"vehicle_type_id":"4","last_reported":1774819344,"current_range_meters":2800,"station_id":"ce4bh192rcd13ifvqdc0","pricing_plan_id":"cebpf4jnsgd1na2vs0mg"},{"bike_id":"446c0570-a148-40d5-b8d2-cd5cee05d6f3","system_id":"levelo_inurba_marseille","lat":43.21752,"lon":5.34544,"is_reserved":false,"is_disabled":false,"rental_uris":{"android":"levelo://app?vid=446c0570-a148-40d5-b8d2-cd5cee05d6f3","ios":"levelo://app?vid=446c0570-a148-40d5-b8d2-cd5cee05d6f3"},"vehicle_type_id":"4","last_reported":1774819344,"current_range_meters":2800,"station_id":"st_cvj6r9ubvosntc0bgbag","pricing_plan_id":"cebpf4jnsgd1na2vs0mg"},{"bike_id":"f057f137-0cac-4b50-91e6-948f8581886d","system_id":"levelo_inurba_marseille","lat":43.2465,"lon":5.38161,"is_reserved":false,"is_disabled":false,"rental_uris":{"android":"levelo://app?vid=f057f137-0cac-4b50-91e6-948f8581886d","ios":"levelo://app?vid=f057f137-0cac-4b50-91e6-948f8581886d"},"vehicle_type_id":"4","last_reported":1774819344,"current_range_meters":2800,"station_id":"ce4bhih2rcd13ifvqfr0","pricing_plan_id":"cebpf4jnsgd1na2vs0mg"},{"bike_id":"44e6ef2e-f582-4dae-8b58-95600b73b872","system_id":"levelo_inurba_marseille","lat":43.33545,"lon":5.37462,"is_reserved":false,"is_disabled":false,"rental_uris":{"android":"levelo://app?vid=44e6ef2e-f582-4dae-8b58-95600b73b872","ios":"levelo://app?vid=44e6ef2e-f582-4dae-8b58-95600b73b872"},"vehicle_type_id":"4","last_reported":1774819344,"current_range_meters":2800,"station_id":"st_d46tts09ee8s73dlu43g","pricing_plan_id":"cebpf4jnsgd1na2vs0mg"},{"bike_id":"6b3b17e7-edde-417e-88c3-a1ab8c417ca6","system_id":"levelo_inurba_marseille","lat":43.2509,"lon":5.39507,"is_reserved":false,"is_disabled":false,"rental_uris":{"android":"levelo://app?vid=6b3b17e7-edde-417e-88c3-a1ab8c417ca6","ios":"levelo://app?vid=6b3b17e7-edde-417e-88c3-a1ab8c417ca6"},"vehicle_type_id":"4","last_reported":1774819344,"current_range_meters":2800,"station_id":"ce4bhm12rcd13ifvqgkg","pricing_plan_id":"cebpf4jnsgd1na2vs0mg"},{"bike_id":"cc9d52d4-4d9a-4e4a-bcc8-a354b3d5c07c","system_id":"levelo_inurba_marseille","lat":43.24169,"lon":5.36391,"is_reserved":false,"is_disabled":false,"rental_uris":{"android":"levelo://app?vid=cc9d52d4-4d9a-4e4a-bcc8-a354b3d5c07c","ios":"levelo://app?vid=cc9d52d4-4d9a-4e4a-bcc8-a354b3d5c07c"},"vehicle_type_id":"4","last_reported":1774819344,"current_range_meters":2800,"station_id":"cpo36qri1sfpv3e86is0","pricing_plan_id":"cebpf4jnsgd1na2vs0mg"},{"bike_id":"2e53549b-d158-45c8-8445-9251670f6964","system_id":"levelo_inurba_marseille","lat":43.27665,"lon":5.38914,"is_reserved":false,"is_disabled":false,"rental_uris":{"android":"levelo://app?vid=2e53549b-d158-45c8-8445-9251670f6964","ios":"levelo://app?vid=2e53549b-d158-45c8-8445-9251670f6964"},"vehicle_type_id":"4","last_reported":1774819344,"current_range_meters":2800,"station_id":"ce4bhi12rcd13ifvqfo0","pricing_plan_id":"cebpf4jnsgd1na2vs0mg"},{"bike_id":"80ad1176-7e15-4e9c-ae83-2fc76b9d1a73","system_id":"levelo_inurba_marseille","lat":43.24391,"lon":5.37059,"is_reserved":false,"is_disabled":true,"rental_uris":{"android":"levelo://app?vid=80ad1176-7e15-4e9c-ae83-2fc76b9d1a73","ios":"levelo://app?vid=80ad1176-7e15-4e9c-ae83-2fc76b9d1a73"},"vehicle_type_id":"4","last_reported":1774819344,"current_range_meters":2800,"station_id":"ce4bhhh2rcd13ifvqfk0","pricing_plan_id":"cebpf4jnsgd1na2vs0mg"},{"bike_id":"907ad386-d8e2-473d-95d6-81a93b71b191","system_id":"levelo_inurba_marseille","lat":43.25555,"lon":5.38257,"is_reserved":false,"is_disabled":false,"rental_uris":{"android":"levelo://app?vid=907ad386-d8e2-473d-95d6-81a93b71b191","ios":"levelo://app?vid=907ad386-d8e2-473d-95d6-81a93b71b191"},"vehicle_type_id":"4","last_reported":1774819344,"current_range_meters":3200,"station_id":"ce4bhih2rcd13ifvqfs0","pricing_plan_id":"cebpf4jnsgd1na2vs0mg"},{"bike_id":"b6993027-358e-45ef-80aa-036d800d393f","system_id":"levelo_inurba_marseille","lat":43.31173,"lon":5.38716,"is_reserved":false,"is_disabled":true,"rental_uris":{"android":"levelo://app?vid=b6993027-358e-45ef-80aa-036d800d393f","ios":"levelo://app?vid=b6993027-358e-45ef-80aa-036d800d393f"},"vehicle_type_id":"4","last_reported":1774819344,"current_range_meters":3200,"station_id":"ce4bgv12rcd13ifvqcp0","pricing_plan_id":"cebpf4jnsgd1na2vs0mg"},{"bike_id":"f5885509-58fd-4d4c-978e-0471d9854836","system_id":"levelo_inurba_marseille","lat":43.24075,"lon":5.37746,"is_reserved":false,"is_disabled":false,"rental_uris":{"android":"levelo://app?vid=f5885509-58fd-4d4c-978e-0471d9854836","ios":"levelo://app?vid=f5885509-58fd-4d4c-978e-0471d9854836"},"vehicle_type_id":"4","last_reported":1774819344,"current_range_meters":3200,"station_id":"ce4bhnp2rcd13ifvqgvg","pricing_plan_id":"cebpf4jnsgd1na2vs0mg"},{"bike_id":"79617619-758e-4618-a537-5d31399e9d58","system_id":"levelo_inurba_marseille","lat":43.2481,"lon":5.37443,"is_reserved":false,"is_disabled":false,"rental_uris":{"android":"levelo://app?vid=79617619-758e-4618-a537-5d31399e9d58","ios":"levelo://app?vid=79617619-758e-4618-a537-5d31399e9d58"},"vehicle_type_id":"4","last_reported":1774819344,"current_range_meters":3200,"station_id":"ce4bhgh2rcd13ifvqfb0","pricing_plan_id":"cebpf4jnsgd1na2vs0mg"},{"bike_id":"899c9f36-9b83-4ce9-bd7d-0f95dd541b6a","system_id":"levelo_inurba_marseille","lat":43.32355,"lon":5.36749,"is_reserved":false,"is_disabled":false,"rental_uris":{"android":"levelo://app?vid=899c9f36-9b83-4ce9-bd7d-0f95dd541b6a","ios":"levelo://app?vid=899c9f36-9b83-4ce9-bd7d-0f95dd541b6a"},"vehicle_type_id":"4","last_reported":1774819344,"current_range_meters":3200,"station_id":"ce4bhsh2rcd13ifvqi2g","pricing_plan_id":"cebpf4jnsgd1na2vs0mg"},{"bike_id":"f8d401ea-d032-4e17-b855-b6e19a8fece9","system_id":"levelo_inurba_marseille","lat":43.21758,"lon":5.34598,"is_reserved":false,"is_disabled":false,"rental_uris":{"android":"levelo://app?vid=f8d401ea-d032-4e17-b855-b6e19a8fece9","ios":"levelo://app?vid=f8d401ea-d032-4e17-b855-b6e19a8fece9"},"vehicle_type_id":"4","last_reported":1774819344,"current_range_meters":3200,"station_id":"st_cvj6r9ubvosntc0bgbag","pricing_plan_id":"cebpf4jnsgd1na2vs0mg"},{"bike_id":"2194c3e1-98f8-47bc-a8ab-c697b71e9c69","system_id":"levelo_inurba_marseille","lat":43.24557,"lon":5.3954,"is_reserved":false,"is_disabled":false,"rental_uris":{"android":"levelo://app?vid=2194c3e1-98f8-47bc-a8ab-c697b71e9c69","ios":"levelo://app?vid=2194c3e1-98f8-47bc-a8ab-c697b71e9c69"},"vehicle_type_id":"4","last_reported":1774819344,"current_range_meters":3200,"station_id":"ce4bhlp2rcd13ifvqgjg","pricing_plan_id":"cebpf4jnsgd1na2vs0mg"},{"bike_id":"d3072164-5c43-4020-ab56-450bf7287703","system_id":"levelo_inurba_marseille","lat":43.2417,"lon":5.36397,"is_reserved":false,"is_disabled":false,"rental_uris":{"android":"levelo://app?vid=d3072164-5c43-4020-ab56-450bf7287703","ios":"levelo://app?vid=d3072164-5c43-4020-ab56-450bf7287703"},"vehicle_type_id":"4","last_reported":1774819344,"current_range_meters":3200,"station_id":"cpo36qri1sfpv3e86is0","pricing_plan_id":"cebpf4jnsgd1na2vs0mg"},{"bike_id":"df9a1c97-189d-479f-ae35-3e5259f7fa46","system_id":"levelo_inurba_marseille","lat":43.2504,"lon":5.38901,"is_reserved":false,"is_disabled":false,"rental_uris":{"android":"levelo://app?vid=df9a1c97-189d-479f-ae35-3e5259f7fa46","ios":"levelo://app?vid=df9a1c97-189d-479f-ae35-3e5259f7fa46"},"vehicle_type_id":"4","last_reported":1774819344,"current_range_meters":3200,"station_id":"ce4bhgp2rcd13ifvqfd0","pricing_plan_id":"cebpf4jnsgd1na2vs0mg"},{"bike_id":"34c6ce22-869d-4547-b7bc-9ba18b8261b8","system_id":"levelo_inurba_marseille","lat":43.23782,"lon":5.3663,"is_reserved":false,"is_disabled":false,"rental_uris":{"android":"levelo://app?vid=34c6ce22-869d-4547-b7bc-9ba18b8261b8","ios":"levelo://app?vid=34c6ce22-869d-4547-b7bc-9ba18b8261b8"},"vehicle_type_id":"4","last_reported":1774819344,"current_range_meters":3200,"station_id":"st_d3nk18o9ro0c73en2l3g","pricing_plan_id":"cebpf4jnsgd1na2vs0mg"},{"bike_id":"9de656c9-477e-4d1a-8377-24f3a10e7183","system_id":"levelo_inurba_marseille","lat":43.29758,"lon":5.37115,"is_reserved":false,"is_disabled":false,"rental_uris":{"android":"levelo://app?vid=9de656c9-477e-4d1a-8377-24f3a10e7183","ios":"levelo://app?vid=9de656c9-477e-4d1a-8377-24f3a10e7183"},"vehicle_type_id":"4","last_reported":1774819344,"current_range_meters":3200,"station_id":"ce4bgop2rcd13ifvqc1g","pricing_plan_id":"cebpf4jnsgd1na2vs0mg"},{"bike_id":"3ff24676-23bf-45ec-b0f9-26c82beab495","system_id":"levelo_inurba_marseille","lat":43.2466,"lon":5.38149,"is_reserved":false,"is_disabled":false,"rental_uris":{"android":"levelo://app?vid=3ff24676-23bf-45ec-b0f9-26c82beab495","ios":"levelo://app?vid=3ff24676-23bf-45ec-b0f9-26c82beab495"},"vehicle_type_id":"4","last_reported":1774819344,"current_range_meters":3200,"station_id":"ce4bhih2rcd13ifvqfr0","pricing_plan_id":"cebpf4jnsgd1na2vs0mg"},{"bike_id":"5d490b95-0f21-4f16-b6a0-c5beac32f58f","system_id":"levelo_inurba_marseille","lat":43.30959,"lon":5.3903,"is_reserved":false,"is_disabled":true,"rental_uris":{"android":"levelo://app?vid=5d490b95-0f21-4f16-b6a0-c5beac32f58f","ios":"levelo://app?vid=5d490b95-0f21-4f16-b6a0-c5beac32f58f"},"vehicle_type_id":"4","last_reported":1774819344,"current_range_meters":3600,"station_id":"ce4bgup2rcd13ifvqco0","pricing_plan_id":"cebpf4jnsgd1na2vs0mg"},{"bike_id":"1ca67a24-3f53-42bd-9558-b4f57347ec75","system_id":"levelo_inurba_marseille","lat":43.3118,"lon":5.38673,"is_reserved":false,"is_disabled":false,"rental_uris":{"android":"levelo://app?vid=1ca67a24-3f53-42bd-9558-b4f57347ec75","ios":"levelo://app?vid=1ca67a24-3f53-42bd-9558-b4f57347ec75"},"vehicle_type_id":"4","last_reported":1774819344,"current_range_meters":3600,"station_id":"ce4bgv12rcd13ifvqcp0","pricing_plan_id":"cebpf4jnsgd1na2vs0mg"},{"bike_id":"1bebdd87-eb20-43f1-8d96-9fdb37cf655b","system_id":"levelo_inurba_marseille","lat":43.2953,"lon":5.38667,"is_reserved":false,"is_disabled":false,"rental_uris":{"android":"levelo://app?vid=1bebdd87-eb20-43f1-8d96-9fdb37cf655b","ios":"levelo://app?vid=1bebdd87-eb20-43f1-8d96-9fdb37cf655b"},"vehicle_type_id":"4","last_reported":1774819344,"current_range_meters":3600,"station_id":"","pricing_plan_id":"cebpf4jnsgd1na2vs0mg"},{"bike_id":"f0803856-82d5-4e22-95c8-44389c240d27","system_id":"levelo_inurba_marseille","lat":43.23195,"lon":5.35544,"is_reserved":false,"is_disabled":false,"rental_uris":{"android":"levelo://app?vid=f0803856-82d5-4e22-95c8-44389c240d27","ios":"levelo://app?vid=f0803856-82d5-4e22-95c8-44389c240d27"},"vehicle_type_id":"4","last_reported":1774819344,"current_range_meters":3600,"station_id":"ce4bhu92rcd13ifvqi70","pricing_plan_id":"cebpf4jnsgd1na2vs0mg"},{"bike_id":"e5d65210-51fb-4dae-98e3-f4d7bb1a8005","system_id":"levelo_inurba_marseille","lat":43.24606,"lon":5.38164,"is_reserved":false,"is_disabled":false,"rental_uris":{"android":"levelo://app?vid=e5d65210-51fb-4dae-98e3-f4d7bb1a8005","ios":"levelo://app?vid=e5d65210-51fb-4dae-98e3-f4d7bb1a8005"},"vehicle_type_id":"4","last_reported":1774819344,"current_range_meters":3600,"station_id":"ce4bhih2rcd13ifvqfr0","pricing_plan_id":"cebpf4jnsgd1na2vs0mg"},{"bike_id":"59318a58-c089-464f-98e4-70cd9b5deb84","system_id":"levelo_inurba_marseille","lat":43.23783,"lon":5.36626,"is_reserved":false,"is_disabled":false,"rental_uris":{"android":"levelo://app?vid=59318a58-c089-464f-98e4-70cd9b5deb84","ios":"levelo://app?vid=59318a58-c089-464f-98e4-70cd9b5deb84"},"vehicle_type_id":"4","last_reported":1774819344,"current_range_meters":3600,"station_id":"st_d3nk18o9ro0c73en2l3g","pricing_plan_id":"cebpf4jnsgd1na2vs0mg"},{"bike_id":"9bc0b937-b0d9-43c5-9555-6ff47bb13b73","system_id":"levelo_inurba_marseille","lat":43.33161,"lon":5.37691,"is_reserved":false,"is_disabled":false,"rental_uris":{"android":"levelo://app?vid=9bc0b937-b0d9-43c5-9555-6ff47bb13b73","ios":"levelo://app?vid=9bc0b937-b0d9-43c5-9555-6ff47bb13b73"},"vehicle_type_id":"4","last_reported":1774819344,"current_range_meters":3600,"station_id":"st_d46cu089ee8s73dldbu0","pricing_plan_id":"cebpf4jnsgd1na2vs0mg"},{"bike_id":"9c90e154-1ad6-4039-8066-16f77ee3b88c","system_id":"levelo_inurba_marseille","lat":43.29535,"lon":5.38654,"is_reserved":false,"is_disabled":false,"rental_uris":{"android":"levelo://app?vid=9c90e154-1ad6-4039-8066-16f77ee3b88c","ios":"levelo://app?vid=9c90e154-1ad6-4039-8066-16f77ee3b88c"},"vehicle_type_id":"4","last_reported":1774819344,"current_range_meters":3600,"station_id":"","pricing_plan_id":"cebpf4jnsgd1na2vs0mg"},{"bike_id":"dfe502c8-352d-40fb-8f46-79565ee4e4f3","system_id":"levelo_inurba_marseille","lat":43.31029,"lon":5.3935,"is_reserved":false,"is_disabled":false,"rental_uris":{"android":"levelo://app?vid=dfe502c8-352d-40fb-8f46-79565ee4e4f3","ios":"levelo://app?vid=dfe502c8-352d-40fb-8f46-79565ee4e4f3"},"vehicle_type_id":"4","last_reported":1774819344,"current_range_meters":3600,"station_id":"","pricing_plan_id":"cebpf4jnsgd1na2vs0mg"},{"bike_id":"b1e731c5-a019-40fb-b94c-b458e0eddb64","system_id":"levelo_inurba_marseille","lat":43.23749,"lon":5.38527,"is_reserved":false,"is_disabled":false,"rental_uris":{"android":"levelo://app?vid=b1e731c5-a019-40fb-b94c-b458e0eddb64","ios":"levelo://app?vid=b1e731c5-a019-40fb-b94c-b458e0eddb64"},"vehicle_type_id":"4","last_reported":1774819344,"current_range_meters":4000,"station_id":"","pricing_plan_id":"cebpf4jnsgd1na2vs0mg"},{"bike_id":"44b061ea-ac90-4ccb-8d43-7cab8ff1f0e0","system_id":"levelo_inurba_marseille","lat":43.26063,"lon":5.39386,"is_reserved":false,"is_disabled":false,"rental_uris":{"android":"levelo://app?vid=44b061ea-ac90-4ccb-8d43-7cab8ff1f0e0","ios":"levelo://app?vid=44b061ea-ac90-4ccb-8d43-7cab8ff1f0e0"},"vehicle_type_id":"4","last_reported":1774819344,"current_range_meters":4000,"station_id":"ce4bhh92rcd13ifvqfj0","pricing_plan_id":"cebpf4jnsgd1na2vs0mg"},{"bike_id":"9e385910-d196-42f8-b678-ec50b050a12e","system_id":"levelo_inurba_marseille","lat":43.31164,"lon":5.38735,"is_reserved":false,"is_disabled":false,"rental_uris":{"android":"levelo://app?vid=9e385910-d196-42f8-b678-ec50b050a12e","ios":"levelo://app?vid=9e385910-d196-42f8-b678-ec50b050a12e"},"vehicle_type_id":"4","last_reported":1774819344,"current_range_meters":4000,"station_id":"ce4bgv12rcd13ifvqcp0","pricing_plan_id":"cebpf4jnsgd1na2vs0mg"},{"bike_id":"5228593b-f41f-4b93-8705-559ca7d2f063","system_id":"levelo_inurba_marseille","lat":43.3136,"lon":5.37765,"is_reserved":false,"is_disabled":false,"rental_uris":{"android":"levelo://app?vid=5228593b-f41f-4b93-8705-559ca7d2f063","ios":"levelo://app?vid=5228593b-f41f-4b93-8705-559ca7d2f063"},"vehicle_type_id":"4","last_reported":1774819344,"current_range_meters":4000,"station_id":"","pricing_plan_id":"cebpf4jnsgd1na2vs0mg"},{"bike_id":"67c1c6e6-4211-4250-be02-a52880e1c23a","system_id":"levelo_inurba_marseille","lat":43.26502,"lon":5.40706,"is_reserved":false,"is_disabled":false,"rental_uris":{"android":"levelo://app?vid=67c1c6e6-4211-4250-be02-a52880e1c23a","ios":"levelo://app?vid=67c1c6e6-4211-4250-be02-a52880e1c23a"},"vehicle_type_id":"4","last_reported":1774819344,"current_range_meters":4000,"station_id":"","pricing_plan_id":"cebpf4jnsgd1na2vs0mg"},{"bike_id":"88af6038-cb27-40e5-8f53-7f4fc435bb60","system_id":"levelo_inurba_marseille","lat":43.31234,"lon":5.40196,"is_reserved":false,"is_disabled":false,"rental_uris":{"android":"levelo://app?vid=88af6038-cb27-40e5-8f53-7f4fc435bb60","ios":"levelo://app?vid=88af6038-cb27-40e5-8f53-7f4fc435bb60"},"vehicle_type_id":"4","last_reported":1774819344,"current_range_meters":4000,"station_id":"ce4bh092rcd13ifvqd30","pricing_plan_id":"cebpf4jnsgd1na2vs0mg"},{"bike_id":"49440f96-ba95-4c66-9233-2b71a0d8f44e","system_id":"levelo_inurba_marseille","lat":43.21204,"lon":5.35068,"is_reserved":false,"is_disabled":true,"rental_uris":{"android":"levelo://app?vid=49440f96-ba95-4c66-9233-2b71a0d8f44e","ios":"levelo://app?vid=49440f96-ba95-4c66-9233-2b71a0d8f44e"},"vehicle_type_id":"4","last_reported":1774819344,"current_range_meters":4000,"station_id":"st_cvj6sg6p6f1abm77japg","pricing_plan_id":"cebpf4jnsgd1na2vs0mg"},{"bike_id":"2c76498e-1409-4d1d-aa11-912dd68ff926","system_id":"levelo_inurba_marseille","lat":43.2854,"lon":5.44104,"is_reserved":false,"is_disabled":false,"rental_uris":{"android":"levelo://app?vid=2c76498e-1409-4d1d-aa11-912dd68ff926","ios":"levelo://app?vid=2c76498e-1409-4d1d-aa11-912dd68ff926"},"vehicle_type_id":"4","last_reported":1774819344,"current_range_meters":4400,"station_id":"st_d3j3df2ikq2c7380ej80","pricing_plan_id":"cebpf4jnsgd1na2vs0mg"},{"bike_id":"92cb4986-12bc-44d4-ad49-496427bf2b45","system_id":"levelo_inurba_marseille","lat":43.28546,"lon":5.44105,"is_reserved":false,"is_disabled":false,"rental_uris":{"android":"levelo://app?vid=92cb4986-12bc-44d4-ad49-496427bf2b45","ios":"levelo://app?vid=92cb4986-12bc-44d4-ad49-496427bf2b45"},"vehicle_type_id":"4","last_reported":1774819344,"current_range_meters":4400,"station_id":"st_d3j3df2ikq2c7380ej80","pricing_plan_id":"cebpf4jnsgd1na2vs0mg"},{"bike_id":"5ef168d4-9c50-415f-bcaa-8c91935a3a23","system_id":"levelo_inurba_marseille","lat":43.31243,"lon":5.41331,"is_reserved":false,"is_disabled":false,"rental_uris":{"android":"levelo://app?vid=5ef168d4-9c50-415f-bcaa-8c91935a3a23","ios":"levelo://app?vid=5ef168d4-9c50-415f-bcaa-8c91935a3a23"},"vehicle_type_id":"4","last_reported":1774819344,"current_range_meters":4400,"station_id":"","pricing_plan_id":"cebpf4jnsgd1na2vs0mg"},{"bike_id":"76201515-ae70-408c-82ba-b2d7c39b0327","system_id":"levelo_inurba_marseille","lat":43.25119,"lon":5.40322,"is_reserved":false,"is_disabled":false,"rental_uris":{"android":"levelo://app?vid=76201515-ae70-408c-82ba-b2d7c39b0327","ios":"levelo://app?vid=76201515-ae70-408c-82ba-b2d7c39b0327"},"vehicle_type_id":"4","last_reported":1774819344,"current_range_meters":4400,"station_id":"ce4bhlh2rcd13ifvqgig","pricing_plan_id":"cebpf4jnsgd1na2vs0mg"},{"bike_id":"ce4bb8b5-8a16-4588-8ca5-c266a05621c6","system_id":"levelo_inurba_marseille","lat":43.23895,"lon":5.3746,"is_reserved":false,"is_disabled":false,"rental_uris":{"android":"levelo://app?vid=ce4bb8b5-8a16-4588-8ca5-c266a05621c6","ios":"levelo://app?vid=ce4bb8b5-8a16-4588-8ca5-c266a05621c6"},"vehicle_type_id":"4","last_reported":1774819344,"current_range_meters":4400,"station_id":"st_d6sm7csbq4hs73f8fpjg","pricing_plan_id":"cebpf4jnsgd1na2vs0mg"},{"bike_id":"1b52061f-2407-41b6-9fde-eceac5ab1e54","system_id":"levelo_inurba_marseille","lat":43.21198,"lon":5.35061,"is_reserved":false,"is_disabled":false,"rental_uris":{"android":"levelo://app?vid=1b52061f-2407-41b6-9fde-eceac5ab1e54","ios":"levelo://app?vid=1b52061f-2407-41b6-9fde-eceac5ab1e54"},"vehicle_type_id":"4","last_reported":1774819344,"current_range_meters":4400,"station_id":"st_cvj6sg6p6f1abm77japg","pricing_plan_id":"cebpf4jnsgd1na2vs0mg"},{"bike_id":"49328f4c-1eb8-4248-b509-addd3ebe9329","system_id":"levelo_inurba_marseille","lat":43.26373,"lon":5.41071,"is_reserved":false,"is_disabled":false,"rental_uris":{"android":"levelo://app?vid=49328f4c-1eb8-4248-b509-addd3ebe9329","ios":"levelo://app?vid=49328f4c-1eb8-4248-b509-addd3ebe9329"},"vehicle_type_id":"4","last_reported":1774819344,"current_range_meters":4400,"station_id":"st_d4e5ca6na9uc73bfl5fg","pricing_plan_id":"cebpf4jnsgd1na2vs0mg"},{"bike_id":"baf7c004-e890-47af-ba3f-3dcb4a5e4db3","system_id":"levelo_inurba_marseille","lat":43.24645,"lon":5.38884,"is_reserved":false,"is_disabled":false,"rental_uris":{"android":"levelo://app?vid=baf7c004-e890-47af-ba3f-3dcb4a5e4db3","ios":"levelo://app?vid=baf7c004-e890-47af-ba3f-3dcb4a5e4db3"},"vehicle_type_id":"4","last_reported":1774819344,"current_range_meters":4400,"station_id":"ce4bhg12rcd13ifvqf60","pricing_plan_id":"cebpf4jnsgd1na2vs0mg"},{"bike_id":"6e101c79-358e-44e4-94d6-f2ef12758f52","system_id":"levelo_inurba_marseille","lat":43.27489,"lon":5.42445,"is_reserved":false,"is_disabled":false,"rental_uris":{"android":"levelo://app?vid=6e101c79-358e-44e4-94d6-f2ef12758f52","ios":"levelo://app?vid=6e101c79-358e-44e4-94d6-f2ef12758f52"},"vehicle_type_id":"4","last_reported":1774819344,"current_range_meters":4400,"station_id":"ce4bhn92rcd13ifvqgrg","pricing_plan_id":"cebpf4jnsgd1na2vs0mg"},{"bike_id":"f6fd1ca3-60e1-4284-8246-73f0df9abb16","system_id":"levelo_inurba_marseille","lat":43.25333,"lon":5.42161,"is_reserved":false,"is_disabled":false,"rental_uris":{"android":"levelo://app?vid=f6fd1ca3-60e1-4284-8246-73f0df9abb16","ios":"levelo://app?vid=f6fd1ca3-60e1-4284-8246-73f0df9abb16"},"vehicle_type_id":"4","last_reported":1774819344,"current_range_meters":4400,"station_id":"st_d2m65c5bi1j21697t3ng","pricing_plan_id":"cebpf4jnsgd1na2vs0mg"},{"bike_id":"dd53e447-889e-4b25-b7f7-eee2bc059db2","system_id":"levelo_inurba_marseille","lat":43.22566,"lon":5.41619,"is_reserved":false,"is_disabled":false,"rental_uris":{"android":"levelo://app?vid=dd53e447-889e-4b25-b7f7-eee2bc059db2","ios":"levelo://app?vid=dd53e447-889e-4b25-b7f7-eee2bc059db2"},"vehicle_type_id":"4","last_reported":1774819344,"current_range_meters":4400,"station_id":"st_d2o4gvlbi1j2169b742g","pricing_plan_id":"cebpf4jnsgd1na2vs0mg"},{"bike_id":"a667f7c5-221e-4dc9-a553-7e24b43d2a64","system_id":"levelo_inurba_marseille","lat":43.25095,"lon":5.39499,"is_reserved":false,"is_disabled":false,"rental_uris":{"android":"levelo://app?vid=a667f7c5-221e-4dc9-a553-7e24b43d2a64","ios":"levelo://app?vid=a667f7c5-221e-4dc9-a553-7e24b43d2a64"},"vehicle_type_id":"4","last_reported":1774819344,"current_range_meters":4400,"station_id":"ce4bhm12rcd13ifvqgkg","pricing_plan_id":"cebpf4jnsgd1na2vs0mg"},{"bike_id":"0f430097-8d5e-4a5a-9147-4fc5e40a362e","system_id":"levelo_inurba_marseille","lat":43.33602,"lon":5.37411,"is_reserved":false,"is_disabled":false,"rental_uris":{"android":"levelo://app?vid=0f430097-8d5e-4a5a-9147-4fc5e40a362e","ios":"levelo://app?vid=0f430097-8d5e-4a5a-9147-4fc5e40a362e"},"vehicle_type_id":"4","last_reported":1774819344,"current_range_meters":4800,"station_id":"st_d46tts09ee8s73dlu43g","pricing_plan_id":"cebpf4jnsgd1na2vs0mg"},{"bike_id":"2763e749-a978-4c6e-9800-a97ca5a408c3","system_id":"levelo_inurba_marseille","lat":43.29619,"lon":5.37164,"is_reserved":false,"is_disabled":false,"rental_uris":{"android":"levelo://app?vid=2763e749-a978-4c6e-9800-a97ca5a408c3","ios":"levelo://app?vid=2763e749-a978-4c6e-9800-a97ca5a408c3"},"vehicle_type_id":"4","last_reported":1774819344,"current_range_meters":4800,"station_id":"ce4bgnh2rcd13ifvqc0g","pricing_plan_id":"cebpf4jnsgd1na2vs0mg"},{"bike_id":"d4ad862a-fce5-47ba-864d-22ddf5f2bad0","system_id":"levelo_inurba_marseille","lat":43.31104,"lon":5.38526,"is_reserved":false,"is_disabled":false,"rental_uris":{"android":"levelo://app?vid=d4ad862a-fce5-47ba-864d-22ddf5f2bad0","ios":"levelo://app?vid=d4ad862a-fce5-47ba-864d-22ddf5f2bad0"},"vehicle_type_id":"4","last_reported":1774819344,"current_range_meters":4800,"station_id":"","pricing_plan_id":"cebpf4jnsgd1na2vs0mg"},{"bike_id":"ab1291b4-d3cd-4716-85ac-dee7716419f7","system_id":"levelo_inurba_marseille","lat":43.29758,"lon":5.42776,"is_reserved":false,"is_disabled":false,"rental_uris":{"android":"levelo://app?vid=ab1291b4-d3cd-4716-85ac-dee7716419f7","ios":"levelo://app?vid=ab1291b4-d3cd-4716-85ac-dee7716419f7"},"vehicle_type_id":"4","last_reported":1774819344,"current_range_meters":5600,"station_id":"st_d3md5207bmas73dh9klg","pricing_plan_id":"cebpf4jnsgd1na2vs0mg"},{"bike_id":"02f24484-d422-40d6-996e-505884b43ff9","system_id":"levelo_inurba_marseille","lat":43.24545,"lon":5.39516,"is_reserved":false,"is_disabled":false,"rental_uris":{"android":"levelo://app?vid=02f24484-d422-40d6-996e-505884b43ff9","ios":"levelo://app?vid=02f24484-d422-40d6-996e-505884b43ff9"},"vehicle_type_id":"4","last_reported":1774819344,"current_range_meters":5600,"station_id":"ce4bhlp2rcd13ifvqgjg","pricing_plan_id":"cebpf4jnsgd1na2vs0mg"},{"bike_id":"642d4a0a-9244-40de-a88d-fa8fb9f60477","system_id":"levelo_inurba_marseille","lat":43.2667,"lon":5.38263,"is_reserved":false,"is_disabled":false,"rental_uris":{"android":"levelo://app?vid=642d4a0a-9244-40de-a88d-fa8fb9f60477","ios":"levelo://app?vid=642d4a0a-9244-40de-a88d-fa8fb9f60477"},"vehicle_type_id":"4","last_reported":1774819344,"current_range_meters":5600,"station_id":"ce4bhg92rcd13ifvqf90","pricing_plan_id":"cebpf4jnsgd1na2vs0mg"},{"bike_id":"d0eed567-65f1-4e79-a8a4-01256c3b54d9","system_id":"levelo_inurba_marseille","lat":43.28625,"lon":5.39517,"is_reserved":false,"is_disabled":false,"rental_uris":{"android":"levelo://app?vid=d0eed567-65f1-4e79-a8a4-01256c3b54d9","ios":"levelo://app?vid=d0eed567-65f1-4e79-a8a4-01256c3b54d9"},"vehicle_type_id":"4","last_reported":1774819344,"current_range_meters":5600,"station_id":"","pricing_plan_id":"cebpf4jnsgd1na2vs0mg"},{"bike_id":"56603236-0b6d-44e6-924a-3489e7c8fead","system_id":"levelo_inurba_marseille","lat":43.25712,"lon":5.38712,"is_reserved":false,"is_disabled":false,"rental_uris":{"android":"levelo://app?vid=56603236-0b6d-44e6-924a-3489e7c8fead","ios":"levelo://app?vid=56603236-0b6d-44e6-924a-3489e7c8fead"},"vehicle_type_id":"4","last_reported":1774819344,"current_range_meters":5600,"station_id":"","pricing_plan_id":"cebpf4jnsgd1na2vs0mg"},{"bike_id":"9bb9ad9d-b712-4dfe-9714-07b0595f38ac","system_id":"levelo_inurba_marseille","lat":43.29795,"lon":5.38098,"is_reserved":false,"is_disabled":false,"rental_uris":{"android":"levelo://app?vid=9bb9ad9d-b712-4dfe-9714-07b0595f38ac","ios":"levelo://app?vid=9bb9ad9d-b712-4dfe-9714-07b0595f38ac"},"vehicle_type_id":"4","last_reported":1774819344,"current_range_meters":5600,"station_id":"ce4bgip2rcd13ifvqbb0","pricing_plan_id":"cebpf4jnsgd1na2vs0mg"},{"bike_id":"a8b532ef-1501-4cdc-9e29-c48d3582c3a0","system_id":"levelo_inurba_marseille","lat":43.28935,"lon":5.36632,"is_reserved":false,"is_disabled":false,"rental_uris":{"android":"levelo://app?vid=a8b532ef-1501-4cdc-9e29-c48d3582c3a0","ios":"levelo://app?vid=a8b532ef-1501-4cdc-9e29-c48d3582c3a0"},"vehicle_type_id":"4","last_reported":1774819344,"current_range_meters":5600,"station_id":"ce4bhap2rcd13ifvqek0","pricing_plan_id":"cebpf4jnsgd1na2vs0mg"},{"bike_id":"a446e8d7-9e16-4ace-8ce5-b4f1bf21bf44","system_id":"levelo_inurba_marseille","lat":43.26222,"lon":5.37424,"is_reserved":false,"is_disabled":false,"rental_uris":{"android":"levelo://app?vid=a446e8d7-9e16-4ace-8ce5-b4f1bf21bf44","ios":"levelo://app?vid=a446e8d7-9e16-4ace-8ce5-b4f1bf21bf44"},"vehicle_type_id":"4","last_reported":1774819344,"current_range_meters":5600,"station_id":"ce4bhgp2rcd13ifvqfc0","pricing_plan_id":"cebpf4jnsgd1na2vs0mg"},{"bike_id":"659ccfdf-569f-4f01-84dd-6c9bbfa33ac4","system_id":"levelo_inurba_marseille","lat":43.23762,"lon":5.36607,"is_reserved":false,"is_disabled":false,"rental_uris":{"android":"levelo://app?vid=659ccfdf-569f-4f01-84dd-6c9bbfa33ac4","ios":"levelo://app?vid=659ccfdf-569f-4f01-84dd-6c9bbfa33ac4"},"vehicle_type_id":"4","last_reported":1774819344,"current_range_meters":5600,"station_id":"st_d3nk18o9ro0c73en2l3g","pricing_plan_id":"cebpf4jnsgd1na2vs0mg"},{"bike_id":"b8394b2d-a1de-4bd2-9f24-92a64dcc9e4c","system_id":"levelo_inurba_marseille","lat":43.29533,"lon":5.38548,"is_reserved":false,"is_disabled":false,"rental_uris":{"android":"levelo://app?vid=b8394b2d-a1de-4bd2-9f24-92a64dcc9e4c","ios":"levelo://app?vid=b8394b2d-a1de-4bd2-9f24-92a64dcc9e4c"},"vehicle_type_id":"4","last_reported":1774819344,"current_range_meters":5600,"station_id":"","pricing_plan_id":"cebpf4jnsgd1na2vs0mg"},{"bike_id":"e91b73ac-290d-4780-907f-3f19c100873b","system_id":"levelo_inurba_marseille","lat":43.2785,"lon":5.392,"is_reserved":false,"is_disabled":false,"rental_uris":{"android":"levelo://app?vid=e91b73ac-290d-4780-907f-3f19c100873b","ios":"levelo://app?vid=e91b73ac-290d-4780-907f-3f19c100873b"},"vehicle_type_id":"4","last_reported":1774819344,"current_range_meters":6000,"station_id":"ce4bhjp2rcd13ifvqga0","pricing_plan_id":"cebpf4jnsgd1na2vs0mg"},{"bike_id":"71a44c2a-b5fa-4989-91b9-9bead61d4c3e","system_id":"levelo_inurba_marseille","lat":43.24078,"lon":5.37071,"is_reserved":false,"is_disabled":false,"rental_uris":{"android":"levelo://app?vid=71a44c2a-b5fa-4989-91b9-9bead61d4c3e","ios":"levelo://app?vid=71a44c2a-b5fa-4989-91b9-9bead61d4c3e"},"vehicle_type_id":"4","last_reported":1774819344,"current_range_meters":6000,"station_id":"","pricing_plan_id":"cebpf4jnsgd1na2vs0mg"},{"bike_id":"22f19f3e-ab21-460a-b2f5-d0c6d4cfe337","system_id":"levelo_inurba_marseille","lat":43.26197,"lon":5.40394,"is_reserved":false,"is_disabled":false,"rental_uris":{"android":"levelo://app?vid=22f19f3e-ab21-460a-b2f5-d0c6d4cfe337","ios":"levelo://app?vid=22f19f3e-ab21-460a-b2f5-d0c6d4cfe337"},"vehicle_type_id":"4","last_reported":1774819344,"current_range_meters":6000,"station_id":"ce4bhmh2rcd13ifvqgmg","pricing_plan_id":"cebpf4jnsgd1na2vs0mg"},{"bike_id":"345872dc-6cdd-47db-a22e-41d392ca5071","system_id":"levelo_inurba_marseille","lat":43.29554,"lon":5.42289,"is_reserved":false,"is_disabled":false,"rental_uris":{"android":"levelo://app?vid=345872dc-6cdd-47db-a22e-41d392ca5071","ios":"levelo://app?vid=345872dc-6cdd-47db-a22e-41d392ca5071"},"vehicle_type_id":"4","last_reported":1774819344,"current_range_meters":6000,"station_id":"ce4bhph2rcd13ifvqhdg","pricing_plan_id":"cebpf4jnsgd1na2vs0mg"},{"bike_id":"2d0fdc3d-338a-4727-826c-caea44a0cbfa","system_id":"levelo_inurba_marseille","lat":43.29815,"lon":5.44061,"is_reserved":false,"is_disabled":false,"rental_uris":{"android":"levelo://app?vid=2d0fdc3d-338a-4727-826c-caea44a0cbfa","ios":"levelo://app?vid=2d0fdc3d-338a-4727-826c-caea44a0cbfa"},"vehicle_type_id":"4","last_reported":1774819344,"current_range_meters":6000,"station_id":"st_d3jp68qikq2c7381ktn0","pricing_plan_id":"cebpf4jnsgd1na2vs0mg"},{"bike_id":"b7ab0452-5ce4-413a-beb0-4e909253350f","system_id":"levelo_inurba_marseille","lat":43.31157,"lon":5.38723,"is_reserved":false,"is_disabled":false,"rental_uris":{"android":"levelo://app?vid=b7ab0452-5ce4-413a-beb0-4e909253350f","ios":"levelo://app?vid=b7ab0452-5ce4-413a-beb0-4e909253350f"},"vehicle_type_id":"4","last_reported":1774819344,"current_range_meters":6000,"station_id":"ce4bgv12rcd13ifvqcp0","pricing_plan_id":"cebpf4jnsgd1na2vs0mg"},{"bike_id":"907ae532-aa61-4b3c-af67-14218d0cabb0","system_id":"levelo_inurba_marseille","lat":43.24807,"lon":5.37468,"is_reserved":false,"is_disabled":false,"rental_uris":{"android":"levelo://app?vid=907ae532-aa61-4b3c-af67-14218d0cabb0","ios":"levelo://app?vid=907ae532-aa61-4b3c-af67-14218d0cabb0"},"vehicle_type_id":"4","last_reported":1774819344,"current_range_meters":6000,"station_id":"ce4bhgh2rcd13ifvqfb0","pricing_plan_id":"cebpf4jnsgd1na2vs0mg"},{"bike_id":"5f57e920-97b3-4bce-8f8e-ab15eed2bd1c","system_id":"levelo_inurba_marseille","lat":43.27805,"lon":5.40713,"is_reserved":false,"is_disabled":false,"rental_uris":{"android":"levelo://app?vid=5f57e920-97b3-4bce-8f8e-ab15eed2bd1c","ios":"levelo://app?vid=5f57e920-97b3-4bce-8f8e-ab15eed2bd1c"},"vehicle_type_id":"4","last_reported":1774819344,"current_range_meters":6000,"station_id":"ce4bhnh2rcd13ifvqgtg","pricing_plan_id":"cebpf4jnsgd1na2vs0mg"},{"bike_id":"5dc7a0c1-467a-4151-97ef-a8a655c4f7a5","system_id":"levelo_inurba_marseille","lat":43.28475,"lon":5.48392,"is_reserved":false,"is_disabled":false,"rental_uris":{"android":"levelo://app?vid=5dc7a0c1-467a-4151-97ef-a8a655c4f7a5","ios":"levelo://app?vid=5dc7a0c1-467a-4151-97ef-a8a655c4f7a5"},"vehicle_type_id":"4","last_reported":1774819344,"current_range_meters":6000,"station_id":"","pricing_plan_id":"cebpf4jnsgd1na2vs0mg"},{"bike_id":"f31d687b-f39f-4799-a123-ec0aec4b625b","system_id":"levelo_inurba_marseille","lat":43.306,"lon":5.37142,"is_reserved":false,"is_disabled":true,"rental_uris":{"android":"levelo://app?vid=f31d687b-f39f-4799-a123-ec0aec4b625b","ios":"levelo://app?vid=f31d687b-f39f-4799-a123-ec0aec4b625b"},"vehicle_type_id":"4","last_reported":1774819344,"current_range_meters":6000,"station_id":"","pricing_plan_id":"cebpf4jnsgd1na2vs0mg"},{"bike_id":"b2af3459-6f49-4471-899c-c0d380564712","system_id":"levelo_inurba_marseille","lat":43.25568,"lon":5.3824,"is_reserved":false,"is_disabled":false,"rental_uris":{"android":"levelo://app?vid=b2af3459-6f49-4471-899c-c0d380564712","ios":"levelo://app?vid=b2af3459-6f49-4471-899c-c0d380564712"},"vehicle_type_id":"4","last_reported":1774819344,"current_range_meters":6000,"station_id":"ce4bhih2rcd13ifvqfs0","pricing_plan_id":"cebpf4jnsgd1na2vs0mg"},{"bike_id":"86158243-0de7-41f0-b955-e75f48e85b06","system_id":"levelo_inurba_marseille","lat":43.302592,"lon":5.400803,"is_reserved":false,"is_disabled":false,"rental_uris":{"android":"levelo://app?vid=86158243-0de7-41f0-b955-e75f48e85b06","ios":"levelo://app?vid=86158243-0de7-41f0-b955-e75f48e85b06"},"vehicle_type_id":"4","last_reported":1774819344,"current_range_meters":6000,"station_id":"ce4bgt92rcd13ifvqcg0","pricing_plan_id":"cebpf4jnsgd1na2vs0mg"},{"bike_id":"22de67e1-b112-41ea-8ecd-3ce01238a932","system_id":"levelo_inurba_marseille","lat":43.23065,"lon":5.35493,"is_reserved":false,"is_disabled":false,"rental_uris":{"android":"levelo://app?vid=22de67e1-b112-41ea-8ecd-3ce01238a932","ios":"levelo://app?vid=22de67e1-b112-41ea-8ecd-3ce01238a932"},"vehicle_type_id":"4","last_reported":1774819344,"current_range_meters":6000,"station_id":"cpo3342slgdg3j2ifvpg","pricing_plan_id":"cebpf4jnsgd1na2vs0mg"},{"bike_id":"c3ad9aae-2095-478f-b355-43899e698b74","system_id":"levelo_inurba_marseille","lat":43.29531,"lon":5.38666,"is_reserved":false,"is_disabled":false,"rental_uris":{"android":"levelo://app?vid=c3ad9aae-2095-478f-b355-43899e698b74","ios":"levelo://app?vid=c3ad9aae-2095-478f-b355-43899e698b74"},"vehicle_type_id":"4","last_reported":1774819344,"current_range_meters":6400,"station_id":"","pricing_plan_id":"cebpf4jnsgd1na2vs0mg"},{"bike_id":"09f2281d-f1d0-43be-9569-e4a88fb5b27b","system_id":"levelo_inurba_marseille","lat":43.24946,"lon":5.40504,"is_reserved":false,"is_disabled":false,"rental_uris":{"android":"levelo://app?vid=09f2281d-f1d0-43be-9569-e4a88fb5b27b","ios":"levelo://app?vid=09f2281d-f1d0-43be-9569-e4a88fb5b27b"},"vehicle_type_id":"4","last_reported":1774819344,"current_range_meters":6400,"station_id":"st_d2ngiaodas8pm72gd1h0","pricing_plan_id":"cebpf4jnsgd1na2vs0mg"},{"bike_id":"2457fc1b-679d-4a71-90e9-ad408ab6ed9d","system_id":"levelo_inurba_marseille","lat":43.33269,"lon":5.37919,"is_reserved":false,"is_disabled":false,"rental_uris":{"android":"levelo://app?vid=2457fc1b-679d-4a71-90e9-ad408ab6ed9d","ios":"levelo://app?vid=2457fc1b-679d-4a71-90e9-ad408ab6ed9d"},"vehicle_type_id":"4","last_reported":1774819344,"current_range_meters":6400,"station_id":"","pricing_plan_id":"cebpf4jnsgd1na2vs0mg"},{"bike_id":"2cb2fac0-f8b0-456d-aa3c-89b44b007830","system_id":"levelo_inurba_marseille","lat":43.24677,"lon":5.38135,"is_reserved":false,"is_disabled":false,"rental_uris":{"android":"levelo://app?vid=2cb2fac0-f8b0-456d-aa3c-89b44b007830","ios":"levelo://app?vid=2cb2fac0-f8b0-456d-aa3c-89b44b007830"},"vehicle_type_id":"4","last_reported":1774819344,"current_range_meters":6400,"station_id":"ce4bhih2rcd13ifvqfr0","pricing_plan_id":"cebpf4jnsgd1na2vs0mg"},{"bike_id":"b058e7a9-1943-4c57-8722-2d983b6c29e4","system_id":"levelo_inurba_marseille","lat":43.28026,"lon":5.3695,"is_reserved":false,"is_disabled":false,"rental_uris":{"android":"levelo://app?vid=b058e7a9-1943-4c57-8722-2d983b6c29e4","ios":"levelo://app?vid=b058e7a9-1943-4c57-8722-2d983b6c29e4"},"vehicle_type_id":"4","last_reported":1774819344,"current_range_meters":6400,"station_id":"ce4bha12rcd13ifvqef0","pricing_plan_id":"cebpf4jnsgd1na2vs0mg"},{"bike_id":"c5c996ca-ce98-469b-9558-4be0bbc5991f","system_id":"levelo_inurba_marseille","lat":43.3067,"lon":5.40068,"is_reserved":false,"is_disabled":false,"rental_uris":{"android":"levelo://app?vid=c5c996ca-ce98-469b-9558-4be0bbc5991f","ios":"levelo://app?vid=c5c996ca-ce98-469b-9558-4be0bbc5991f"},"vehicle_type_id":"4","last_reported":1774819344,"current_range_meters":6400,"station_id":"ce4bh112rcd13ifvqda0","pricing_plan_id":"cebpf4jnsgd1na2vs0mg"},{"bike_id":"c609aa61-79d9-47bd-b7b7-62d640d7b9ef","system_id":"levelo_inurba_marseille","lat":43.2654,"lon":5.37311,"is_reserved":false,"is_disabled":true,"rental_uris":{"android":"levelo://app?vid=c609aa61-79d9-47bd-b7b7-62d640d7b9ef","ios":"levelo://app?vid=c609aa61-79d9-47bd-b7b7-62d640d7b9ef"},"vehicle_type_id":"4","last_reported":1774819344,"current_range_meters":6400,"station_id":"ce4bhg12rcd13ifvqf70","pricing_plan_id":"cebpf4jnsgd1na2vs0mg"},{"bike_id":"8ebdddeb-65fa-4a6a-a7a1-243a6f4f1f0d","system_id":"levelo_inurba_marseille","lat":43.30406,"lon":5.39752,"is_reserved":false,"is_disabled":true,"rental_uris":{"android":"levelo://app?vid=8ebdddeb-65fa-4a6a-a7a1-243a6f4f1f0d","ios":"levelo://app?vid=8ebdddeb-65fa-4a6a-a7a1-243a6f4f1f0d"},"vehicle_type_id":"4","last_reported":1774819344,"current_range_meters":6400,"station_id":"ce4bh092rcd13ifvqd20","pricing_plan_id":"cebpf4jnsgd1na2vs0mg"},{"bike_id":"06ee5aa4-3afd-47a3-ae85-dab4995d4568","system_id":"levelo_inurba_marseille","lat":43.28237,"lon":5.39051,"is_reserved":false,"is_disabled":false,"rental_uris":{"android":"levelo://app?vid=06ee5aa4-3afd-47a3-ae85-dab4995d4568","ios":"levelo://app?vid=06ee5aa4-3afd-47a3-ae85-dab4995d4568"},"vehicle_type_id":"4","last_reported":1774819344,"current_range_meters":6400,"station_id":"ce4bhn92rcd13ifvqgsg","pricing_plan_id":"cebpf4jnsgd1na2vs0mg"},{"bike_id":"c7455337-418f-4584-b005-28037aae8e12","system_id":"levelo_inurba_marseille","lat":43.28534,"lon":5.44105,"is_reserved":false,"is_disabled":false,"rental_uris":{"android":"levelo://app?vid=c7455337-418f-4584-b005-28037aae8e12","ios":"levelo://app?vid=c7455337-418f-4584-b005-28037aae8e12"},"vehicle_type_id":"4","last_reported":1774819344,"current_range_meters":6400,"station_id":"st_d3j3df2ikq2c7380ej80","pricing_plan_id":"cebpf4jnsgd1na2vs0mg"},{"bike_id":"56ed71d3-4f24-4bcb-9e63-f10b7aa4866e","system_id":"levelo_inurba_marseille","lat":43.28492,"lon":5.34796,"is_reserved":false,"is_disabled":false,"rental_uris":{"android":"levelo://app?vid=56ed71d3-4f24-4bcb-9e63-f10b7aa4866e","ios":"levelo://app?vid=56ed71d3-4f24-4bcb-9e63-f10b7aa4866e"},"vehicle_type_id":"4","last_reported":1774819344,"current_range_meters":6400,"station_id":"","pricing_plan_id":"cebpf4jnsgd1na2vs0mg"},{"bike_id":"fe46a177-f80a-4d69-b2ae-915d23543f7e","system_id":"levelo_inurba_marseille","lat":43.30369,"lon":5.4189,"is_reserved":false,"is_disabled":false,"rental_uris":{"android":"levelo://app?vid=fe46a177-f80a-4d69-b2ae-915d23543f7e","ios":"levelo://app?vid=fe46a177-f80a-4d69-b2ae-915d23543f7e"},"vehicle_type_id":"4","last_reported":1774819344,"current_range_meters":6400,"station_id":"ce4bhop2rcd13ifvqh7g","pricing_plan_id":"cebpf4jnsgd1na2vs0mg"},{"bike_id":"b41a87b1-597a-4152-9739-c4817c08f6ab","system_id":"levelo_inurba_marseille","lat":43.32662,"lon":5.4099,"is_reserved":false,"is_disabled":false,"rental_uris":{"android":"levelo://app?vid=b41a87b1-597a-4152-9739-c4817c08f6ab","ios":"levelo://app?vid=b41a87b1-597a-4152-9739-c4817c08f6ab"},"vehicle_type_id":"4","last_reported":1774819344,"current_range_meters":6400,"station_id":"ce4bhpp2rcd13ifvqhgg","pricing_plan_id":"cebpf4jnsgd1na2vs0mg"},{"bike_id":"8291faaf-9299-4c17-bd32-1a91a7c30ee5","system_id":"levelo_inurba_marseille","lat":43.23959,"lon":5.36649,"is_reserved":false,"is_disabled":false,"rental_uris":{"android":"levelo://app?vid=8291faaf-9299-4c17-bd32-1a91a7c30ee5","ios":"levelo://app?vid=8291faaf-9299-4c17-bd32-1a91a7c30ee5"},"vehicle_type_id":"4","last_reported":1774819344,"current_range_meters":6400,"station_id":"ce4bhi12rcd13ifvqfp0","pricing_plan_id":"cebpf4jnsgd1na2vs0mg"},{"bike_id":"ea163735-6164-4750-9396-78202209c782","system_id":"levelo_inurba_marseille","lat":43.28457,"lon":5.35893,"is_reserved":false,"is_disabled":false,"rental_uris":{"android":"levelo://app?vid=ea163735-6164-4750-9396-78202209c782","ios":"levelo://app?vid=ea163735-6164-4750-9396-78202209c782"},"vehicle_type_id":"4","last_reported":1774819344,"current_range_meters":6400,"station_id":"ce4bhah2rcd13ifvqei0","pricing_plan_id":"cebpf4jnsgd1na2vs0mg"},{"bike_id":"ac1d55f0-81a6-4ee6-a492-e62942743297","system_id":"levelo_inurba_marseille","lat":43.2655,"lon":5.37274,"is_reserved":false,"is_disabled":false,"rental_uris":{"android":"levelo://app?vid=ac1d55f0-81a6-4ee6-a492-e62942743297","ios":"levelo://app?vid=ac1d55f0-81a6-4ee6-a492-e62942743297"},"vehicle_type_id":"4","last_reported":1774819344,"current_range_meters":6400,"station_id":"ce4bhg12rcd13ifvqf70","pricing_plan_id":"cebpf4jnsgd1na2vs0mg"},{"bike_id":"8d66cc39-5ed5-47a8-a961-3918fbe2b17e","system_id":"levelo_inurba_marseille","lat":43.24181,"lon":5.39728,"is_reserved":false,"is_disabled":false,"rental_uris":{"android":"levelo://app?vid=8d66cc39-5ed5-47a8-a961-3918fbe2b17e","ios":"levelo://app?vid=8d66cc39-5ed5-47a8-a961-3918fbe2b17e"},"vehicle_type_id":"4","last_reported":1774819344,"current_range_meters":6400,"station_id":"ce4bhn12rcd13ifvqgpg","pricing_plan_id":"cebpf4jnsgd1na2vs0mg"},{"bike_id":"5260ba91-ce8d-4ba8-bac2-e9f0eb95adcb","system_id":"levelo_inurba_marseille","lat":43.31175,"lon":5.38709,"is_reserved":false,"is_disabled":false,"rental_uris":{"android":"levelo://app?vid=5260ba91-ce8d-4ba8-bac2-e9f0eb95adcb","ios":"levelo://app?vid=5260ba91-ce8d-4ba8-bac2-e9f0eb95adcb"},"vehicle_type_id":"4","last_reported":1774819344,"current_range_meters":6800,"station_id":"ce4bgv12rcd13ifvqcp0","pricing_plan_id":"cebpf4jnsgd1na2vs0mg"},{"bike_id":"83dfe231-85b3-4c93-a74e-b9e58135627b","system_id":"levelo_inurba_marseille","lat":43.28711,"lon":5.39981,"is_reserved":false,"is_disabled":false,"rental_uris":{"android":"levelo://app?vid=83dfe231-85b3-4c93-a74e-b9e58135627b","ios":"levelo://app?vid=83dfe231-85b3-4c93-a74e-b9e58135627b"},"vehicle_type_id":"4","last_reported":1774819344,"current_range_meters":6800,"station_id":"ce4bho92rcd13ifvqh3g","pricing_plan_id":"cebpf4jnsgd1na2vs0mg"},{"bike_id":"2de38fd0-4d56-4129-8633-4ee1741a5e1b","system_id":"levelo_inurba_marseille","lat":43.21192,"lon":5.3507,"is_reserved":false,"is_disabled":false,"rental_uris":{"android":"levelo://app?vid=2de38fd0-4d56-4129-8633-4ee1741a5e1b","ios":"levelo://app?vid=2de38fd0-4d56-4129-8633-4ee1741a5e1b"},"vehicle_type_id":"4","last_reported":1774819344,"current_range_meters":6800,"station_id":"st_cvj6sg6p6f1abm77japg","pricing_plan_id":"cebpf4jnsgd1na2vs0mg"},{"bike_id":"3f200426-1eba-4d5e-acb1-a1a43666133b","system_id":"levelo_inurba_marseille","lat":43.21182,"lon":5.35072,"is_reserved":false,"is_disabled":false,"rental_uris":{"android":"levelo://app?vid=3f200426-1eba-4d5e-acb1-a1a43666133b","ios":"levelo://app?vid=3f200426-1eba-4d5e-acb1-a1a43666133b"},"vehicle_type_id":"4","last_reported":1774819344,"current_range_meters":6800,"station_id":"st_cvj6sg6p6f1abm77japg","pricing_plan_id":"cebpf4jnsgd1na2vs0mg"},{"bike_id":"855896c7-1d47-46c5-847f-925777f9ad5c","system_id":"levelo_inurba_marseille","lat":43.30046,"lon":5.38429,"is_reserved":false,"is_disabled":true,"rental_uris":{"android":"levelo://app?vid=855896c7-1d47-46c5-847f-925777f9ad5c","ios":"levelo://app?vid=855896c7-1d47-46c5-847f-925777f9ad5c"},"vehicle_type_id":"4","last_reported":1774819344,"current_range_meters":6800,"station_id":"","pricing_plan_id":"cebpf4jnsgd1na2vs0mg"},{"bike_id":"83c421a9-58a3-4017-9a24-08613107f879","system_id":"levelo_inurba_marseille","lat":43.30127,"lon":5.39873,"is_reserved":false,"is_disabled":true,"rental_uris":{"android":"levelo://app?vid=83c421a9-58a3-4017-9a24-08613107f879","ios":"levelo://app?vid=83c421a9-58a3-4017-9a24-08613107f879"},"vehicle_type_id":"4","last_reported":1774819344,"current_range_meters":6800,"station_id":"ce4bh0h2rcd13ifvqd40","pricing_plan_id":"cebpf4jnsgd1na2vs0mg"},{"bike_id":"a51fda02-3d55-4588-8f9e-9aae3d21e201","system_id":"levelo_inurba_marseille","lat":43.24173,"lon":5.36392,"is_reserved":false,"is_disabled":false,"rental_uris":{"android":"levelo://app?vid=a51fda02-3d55-4588-8f9e-9aae3d21e201","ios":"levelo://app?vid=a51fda02-3d55-4588-8f9e-9aae3d21e201"},"vehicle_type_id":"4","last_reported":1774819344,"current_range_meters":6800,"station_id":"cpo36qri1sfpv3e86is0","pricing_plan_id":"cebpf4jnsgd1na2vs0mg"},{"bike_id":"90aaae4f-4bea-44a9-9991-726dd88eccf2","system_id":"levelo_inurba_marseille","lat":43.2337,"lon":5.41284,"is_reserved":false,"is_disabled":true,"rental_uris":{"android":"levelo://app?vid=90aaae4f-4bea-44a9-9991-726dd88eccf2","ios":"levelo://app?vid=90aaae4f-4bea-44a9-9991-726dd88eccf2"},"vehicle_type_id":"4","last_reported":1774819344,"current_range_meters":6800,"station_id":"","pricing_plan_id":"cebpf4jnsgd1na2vs0mg"},{"bike_id":"32a7a92c-b34f-4be3-bc6d-bf21d2e60027","system_id":"levelo_inurba_marseille","lat":43.32534,"lon":5.36557,"is_reserved":false,"is_disabled":true,"rental_uris":{"android":"levelo://app?vid=32a7a92c-b34f-4be3-bc6d-bf21d2e60027","ios":"levelo://app?vid=32a7a92c-b34f-4be3-bc6d-bf21d2e60027"},"vehicle_type_id":"4","last_reported":1774819344,"current_range_meters":6800,"station_id":"","pricing_plan_id":"cebpf4jnsgd1na2vs0mg"},{"bike_id":"97f2ecb3-2988-4d3a-af3e-72415a3303da","system_id":"levelo_inurba_marseille","lat":43.237879,"lon":5.414489,"is_reserved":false,"is_disabled":false,"rental_uris":{"android":"levelo://app?vid=97f2ecb3-2988-4d3a-af3e-72415a3303da","ios":"levelo://app?vid=97f2ecb3-2988-4d3a-af3e-72415a3303da"},"vehicle_type_id":"4","last_reported":1774819344,"current_range_meters":6800,"station_id":"","pricing_plan_id":"cebpf4jnsgd1na2vs0mg"},{"bike_id":"bfddc201-8f4a-483c-9f8e-b5162374e5bb","system_id":"levelo_inurba_marseille","lat":43.29077,"lon":5.43088,"is_reserved":false,"is_disabled":false,"rental_uris":{"android":"levelo://app?vid=bfddc201-8f4a-483c-9f8e-b5162374e5bb","ios":"levelo://app?vid=bfddc201-8f4a-483c-9f8e-b5162374e5bb"},"vehicle_type_id":"4","last_reported":1774819344,"current_range_meters":6800,"station_id":"","pricing_plan_id":"cebpf4jnsgd1na2vs0mg"},{"bike_id":"b8bf157e-659b-4230-b7a5-7abce9abcca2","system_id":"levelo_inurba_marseille","lat":43.24633,"lon":5.38231,"is_reserved":false,"is_disabled":false,"rental_uris":{"android":"levelo://app?vid=b8bf157e-659b-4230-b7a5-7abce9abcca2","ios":"levelo://app?vid=b8bf157e-659b-4230-b7a5-7abce9abcca2"},"vehicle_type_id":"4","last_reported":1774819344,"current_range_meters":6800,"station_id":"","pricing_plan_id":"cebpf4jnsgd1na2vs0mg"},{"bike_id":"f08ee2a8-6c42-4d54-9536-c5407a6b0ffb","system_id":"levelo_inurba_marseille","lat":43.28592,"lon":5.399,"is_reserved":false,"is_disabled":false,"rental_uris":{"android":"levelo://app?vid=f08ee2a8-6c42-4d54-9536-c5407a6b0ffb","ios":"levelo://app?vid=f08ee2a8-6c42-4d54-9536-c5407a6b0ffb"},"vehicle_type_id":"4","last_reported":1774819344,"current_range_meters":6800,"station_id":"st_d4a7ka997mjs738ck50g","pricing_plan_id":"cebpf4jnsgd1na2vs0mg"},{"bike_id":"f8cd0d4b-7589-4c15-ba3c-8dc514ab19e1","system_id":"levelo_inurba_marseille","lat":43.23892,"lon":5.37459,"is_reserved":false,"is_disabled":false,"rental_uris":{"android":"levelo://app?vid=f8cd0d4b-7589-4c15-ba3c-8dc514ab19e1","ios":"levelo://app?vid=f8cd0d4b-7589-4c15-ba3c-8dc514ab19e1"},"vehicle_type_id":"4","last_reported":1774819344,"current_range_meters":6800,"station_id":"st_d6sm7csbq4hs73f8fpjg","pricing_plan_id":"cebpf4jnsgd1na2vs0mg"},{"bike_id":"8b9653e9-0cd1-4b04-9fdf-0cafa9a7188c","system_id":"levelo_inurba_marseille","lat":43.25898,"lon":5.39875,"is_reserved":false,"is_disabled":false,"rental_uris":{"android":"levelo://app?vid=8b9653e9-0cd1-4b04-9fdf-0cafa9a7188c","ios":"levelo://app?vid=8b9653e9-0cd1-4b04-9fdf-0cafa9a7188c"},"vehicle_type_id":"4","last_reported":1774819344,"current_range_meters":6800,"station_id":"ce4bhl92rcd13ifvqghg","pricing_plan_id":"cebpf4jnsgd1na2vs0mg"},{"bike_id":"46bb9afb-d992-44a4-99ee-ee51ed8b5091","system_id":"levelo_inurba_marseille","lat":43.30784,"lon":5.37652,"is_reserved":false,"is_disabled":false,"rental_uris":{"android":"levelo://app?vid=46bb9afb-d992-44a4-99ee-ee51ed8b5091","ios":"levelo://app?vid=46bb9afb-d992-44a4-99ee-ee51ed8b5091"},"vehicle_type_id":"4","last_reported":1774819344,"current_range_meters":6800,"station_id":"ce4bgv92rcd13ifvqcq0","pricing_plan_id":"cebpf4jnsgd1na2vs0mg"},{"bike_id":"de8350e8-ac4e-4373-af95-967e62437d53","system_id":"levelo_inurba_marseille","lat":43.28615,"lon":5.39875,"is_reserved":false,"is_disabled":false,"rental_uris":{"android":"levelo://app?vid=de8350e8-ac4e-4373-af95-967e62437d53","ios":"levelo://app?vid=de8350e8-ac4e-4373-af95-967e62437d53"},"vehicle_type_id":"4","last_reported":1774819344,"current_range_meters":6800,"station_id":"st_d4a7ka997mjs738ck50g","pricing_plan_id":"cebpf4jnsgd1na2vs0mg"},{"bike_id":"084b5983-e802-433c-b10b-2748ae39f02e","system_id":"levelo_inurba_marseille","lat":43.21725,"lon":5.34611,"is_reserved":false,"is_disabled":false,"rental_uris":{"android":"levelo://app?vid=084b5983-e802-433c-b10b-2748ae39f02e","ios":"levelo://app?vid=084b5983-e802-433c-b10b-2748ae39f02e"},"vehicle_type_id":"4","last_reported":1774819344,"current_range_meters":6800,"station_id":"st_cvj6r9ubvosntc0bgbag","pricing_plan_id":"cebpf4jnsgd1na2vs0mg"},{"bike_id":"6dd85ea7-57fd-40b5-9acc-09101e2a8697","system_id":"levelo_inurba_marseille","lat":43.22546,"lon":5.41655,"is_reserved":false,"is_disabled":false,"rental_uris":{"android":"levelo://app?vid=6dd85ea7-57fd-40b5-9acc-09101e2a8697","ios":"levelo://app?vid=6dd85ea7-57fd-40b5-9acc-09101e2a8697"},"vehicle_type_id":"4","last_reported":1774819344,"current_range_meters":6800,"station_id":"st_d2o4gvlbi1j2169b742g","pricing_plan_id":"cebpf4jnsgd1na2vs0mg"},{"bike_id":"75eb5de0-d99f-4f91-8f59-9ea4eaaeb52c","system_id":"levelo_inurba_marseille","lat":43.29706,"lon":5.36563,"is_reserved":false,"is_disabled":false,"rental_uris":{"android":"levelo://app?vid=75eb5de0-d99f-4f91-8f59-9ea4eaaeb52c","ios":"levelo://app?vid=75eb5de0-d99f-4f91-8f59-9ea4eaaeb52c"},"vehicle_type_id":"4","last_reported":1774819344,"current_range_meters":7200,"station_id":"ce4bgn12rcd13ifvqbt0","pricing_plan_id":"cebpf4jnsgd1na2vs0mg"},{"bike_id":"860407bc-513f-4910-b3a0-87ea13c637b1","system_id":"levelo_inurba_marseille","lat":43.28537,"lon":5.44092,"is_reserved":false,"is_disabled":false,"rental_uris":{"android":"levelo://app?vid=860407bc-513f-4910-b3a0-87ea13c637b1","ios":"levelo://app?vid=860407bc-513f-4910-b3a0-87ea13c637b1"},"vehicle_type_id":"4","last_reported":1774819344,"current_range_meters":7200,"station_id":"st_d3j3df2ikq2c7380ej80","pricing_plan_id":"cebpf4jnsgd1na2vs0mg"},{"bike_id":"1e277aa3-56f0-4d5c-afb5-54d03e53ef89","system_id":"levelo_inurba_marseille","lat":43.29368,"lon":5.38357,"is_reserved":false,"is_disabled":false,"rental_uris":{"android":"levelo://app?vid=1e277aa3-56f0-4d5c-afb5-54d03e53ef89","ios":"levelo://app?vid=1e277aa3-56f0-4d5c-afb5-54d03e53ef89"},"vehicle_type_id":"4","last_reported":1774819344,"current_range_meters":7200,"station_id":"","pricing_plan_id":"cebpf4jnsgd1na2vs0mg"},{"bike_id":"de035e89-cc8f-40eb-94b0-e26c6a88d31f","system_id":"levelo_inurba_marseille","lat":43.28614,"lon":5.39852,"is_reserved":false,"is_disabled":false,"rental_uris":{"android":"levelo://app?vid=de035e89-cc8f-40eb-94b0-e26c6a88d31f","ios":"levelo://app?vid=de035e89-cc8f-40eb-94b0-e26c6a88d31f"},"vehicle_type_id":"4","last_reported":1774819344,"current_range_meters":7200,"station_id":"st_d4a7ka997mjs738ck50g","pricing_plan_id":"cebpf4jnsgd1na2vs0mg"},{"bike_id":"0088d526-948c-4ce3-a24e-e59c94ce1fc4","system_id":"levelo_inurba_marseille","lat":43.30646,"lon":5.40061,"is_reserved":false,"is_disabled":false,"rental_uris":{"android":"levelo://app?vid=0088d526-948c-4ce3-a24e-e59c94ce1fc4","ios":"levelo://app?vid=0088d526-948c-4ce3-a24e-e59c94ce1fc4"},"vehicle_type_id":"4","last_reported":1774819344,"current_range_meters":7200,"station_id":"ce4bh112rcd13ifvqda0","pricing_plan_id":"cebpf4jnsgd1na2vs0mg"},{"bike_id":"48b10325-e627-4d78-9562-439ad710d583","system_id":"levelo_inurba_marseille","lat":43.26948,"lon":5.40242,"is_reserved":false,"is_disabled":false,"rental_uris":{"android":"levelo://app?vid=48b10325-e627-4d78-9562-439ad710d583","ios":"levelo://app?vid=48b10325-e627-4d78-9562-439ad710d583"},"vehicle_type_id":"4","last_reported":1774819344,"current_range_meters":7200,"station_id":"cjm6bp8fraef2m0cb0m0","pricing_plan_id":"cebpf4jnsgd1na2vs0mg"},{"bike_id":"8b21ac48-466c-4ed6-92ae-f569a5a73ca9","system_id":"levelo_inurba_marseille","lat":43.28475,"lon":5.48394,"is_reserved":false,"is_disabled":false,"rental_uris":{"android":"levelo://app?vid=8b21ac48-466c-4ed6-92ae-f569a5a73ca9","ios":"levelo://app?vid=8b21ac48-466c-4ed6-92ae-f569a5a73ca9"},"vehicle_type_id":"4","last_reported":1774819344,"current_range_meters":7200,"station_id":"","pricing_plan_id":"cebpf4jnsgd1na2vs0mg"},{"bike_id":"4263df33-1587-4e6f-90b2-85dabcc21251","system_id":"levelo_inurba_marseille","lat":43.31438,"lon":5.39265,"is_reserved":false,"is_disabled":false,"rental_uris":{"android":"levelo://app?vid=4263df33-1587-4e6f-90b2-85dabcc21251","ios":"levelo://app?vid=4263df33-1587-4e6f-90b2-85dabcc21251"},"vehicle_type_id":"4","last_reported":1774819344,"current_range_meters":7200,"station_id":"","pricing_plan_id":"cebpf4jnsgd1na2vs0mg"},{"bike_id":"f9606047-6649-413b-af42-16d9b44d4046","system_id":"levelo_inurba_marseille","lat":43.25838,"lon":5.39429,"is_reserved":false,"is_disabled":false,"rental_uris":{"android":"levelo://app?vid=f9606047-6649-413b-af42-16d9b44d4046","ios":"levelo://app?vid=f9606047-6649-413b-af42-16d9b44d4046"},"vehicle_type_id":"4","last_reported":1774819344,"current_range_meters":7200,"station_id":"ce4bhip2rcd13ifvqft0","pricing_plan_id":"cebpf4jnsgd1na2vs0mg"},{"bike_id":"25a215c0-6185-4988-a946-459e463e94c2","system_id":"levelo_inurba_marseille","lat":43.28589,"lon":5.3515,"is_reserved":false,"is_disabled":false,"rental_uris":{"android":"levelo://app?vid=25a215c0-6185-4988-a946-459e463e94c2","ios":"levelo://app?vid=25a215c0-6185-4988-a946-459e463e94c2"},"vehicle_type_id":"4","last_reported":1774819344,"current_range_meters":7200,"station_id":"","pricing_plan_id":"cebpf4jnsgd1na2vs0mg"},{"bike_id":"a64d95de-8cdd-4e07-956a-ae66f0205dba","system_id":"levelo_inurba_marseille","lat":43.28415,"lon":5.34979,"is_reserved":false,"is_disabled":false,"rental_uris":{"android":"levelo://app?vid=a64d95de-8cdd-4e07-956a-ae66f0205dba","ios":"levelo://app?vid=a64d95de-8cdd-4e07-956a-ae66f0205dba"},"vehicle_type_id":"4","last_reported":1774819344,"current_range_meters":7200,"station_id":"ce4bhbh2rcd13ifvqepg","pricing_plan_id":"cebpf4jnsgd1na2vs0mg"},{"bike_id":"db8ef000-0e95-46db-a22e-6c21eb8c132d","system_id":"levelo_inurba_marseille","lat":43.23376,"lon":5.41246,"is_reserved":false,"is_disabled":false,"rental_uris":{"android":"levelo://app?vid=db8ef000-0e95-46db-a22e-6c21eb8c132d","ios":"levelo://app?vid=db8ef000-0e95-46db-a22e-6c21eb8c132d"},"vehicle_type_id":"4","last_reported":1774819344,"current_range_meters":7200,"station_id":"","pricing_plan_id":"cebpf4jnsgd1na2vs0mg"},{"bike_id":"1322a4a2-def5-4fe3-a647-3b999c70c193","system_id":"levelo_inurba_marseille","lat":43.25074,"lon":5.39494,"is_reserved":false,"is_disabled":false,"rental_uris":{"android":"levelo://app?vid=1322a4a2-def5-4fe3-a647-3b999c70c193","ios":"levelo://app?vid=1322a4a2-def5-4fe3-a647-3b999c70c193"},"vehicle_type_id":"4","last_reported":1774819344,"current_range_meters":7200,"station_id":"ce4bhm12rcd13ifvqgkg","pricing_plan_id":"cebpf4jnsgd1na2vs0mg"},{"bike_id":"81a724d8-b5c7-4734-9fbf-0f91a6971117","system_id":"levelo_inurba_marseille","lat":43.2854,"lon":5.44093,"is_reserved":false,"is_disabled":false,"rental_uris":{"android":"levelo://app?vid=81a724d8-b5c7-4734-9fbf-0f91a6971117","ios":"levelo://app?vid=81a724d8-b5c7-4734-9fbf-0f91a6971117"},"vehicle_type_id":"4","last_reported":1774819344,"current_range_meters":7200,"station_id":"st_d3j3df2ikq2c7380ej80","pricing_plan_id":"cebpf4jnsgd1na2vs0mg"},{"bike_id":"76cca9fd-3b26-4efa-8c42-95d1d95d54d2","system_id":"levelo_inurba_marseille","lat":43.31183,"lon":5.38715,"is_reserved":false,"is_disabled":false,"rental_uris":{"android":"levelo://app?vid=76cca9fd-3b26-4efa-8c42-95d1d95d54d2","ios":"levelo://app?vid=76cca9fd-3b26-4efa-8c42-95d1d95d54d2"},"vehicle_type_id":"4","last_reported":1774819344,"current_range_meters":7200,"station_id":"ce4bgv12rcd13ifvqcp0","pricing_plan_id":"cebpf4jnsgd1na2vs0mg"},{"bike_id":"7448b7b3-912b-4a27-b213-db0177a710eb","system_id":"levelo_inurba_marseille","lat":43.23915,"lon":5.37457,"is_reserved":false,"is_disabled":false,"rental_uris":{"android":"levelo://app?vid=7448b7b3-912b-4a27-b213-db0177a710eb","ios":"levelo://app?vid=7448b7b3-912b-4a27-b213-db0177a710eb"},"vehicle_type_id":"4","last_reported":1774819344,"current_range_meters":7200,"station_id":"st_d6sm7csbq4hs73f8fpjg","pricing_plan_id":"cebpf4jnsgd1na2vs0mg"},{"bike_id":"6f3bdd32-f2b5-4e15-97f6-11c9c87f6895","system_id":"levelo_inurba_marseille","lat":43.24064,"lon":5.37762,"is_reserved":false,"is_disabled":false,"rental_uris":{"android":"levelo://app?vid=6f3bdd32-f2b5-4e15-97f6-11c9c87f6895","ios":"levelo://app?vid=6f3bdd32-f2b5-4e15-97f6-11c9c87f6895"},"vehicle_type_id":"4","last_reported":1774819344,"current_range_meters":7200,"station_id":"ce4bhnp2rcd13ifvqgvg","pricing_plan_id":"cebpf4jnsgd1na2vs0mg"},{"bike_id":"fee6536c-6c89-4ab2-a4dc-f8491ca403ba","system_id":"levelo_inurba_marseille","lat":43.25002,"lon":5.38927,"is_reserved":false,"is_disabled":false,"rental_uris":{"android":"levelo://app?vid=fee6536c-6c89-4ab2-a4dc-f8491ca403ba","ios":"levelo://app?vid=fee6536c-6c89-4ab2-a4dc-f8491ca403ba"},"vehicle_type_id":"4","last_reported":1774819344,"current_range_meters":8000,"station_id":"ce4bhgp2rcd13ifvqfd0","pricing_plan_id":"cebpf4jnsgd1na2vs0mg"},{"bike_id":"e7748134-61a0-40ea-8c74-d4dd3b6d234d","system_id":"levelo_inurba_marseille","lat":43.2379,"lon":5.3662,"is_reserved":false,"is_disabled":false,"rental_uris":{"android":"levelo://app?vid=e7748134-61a0-40ea-8c74-d4dd3b6d234d","ios":"levelo://app?vid=e7748134-61a0-40ea-8c74-d4dd3b6d234d"},"vehicle_type_id":"4","last_reported":1774819344,"current_range_meters":8000,"station_id":"st_d3nk18o9ro0c73en2l3g","pricing_plan_id":"cebpf4jnsgd1na2vs0mg"},{"bike_id":"f66113de-f3fb-4667-a759-f56810ed7f83","system_id":"levelo_inurba_marseille","lat":43.23893,"lon":5.37669,"is_reserved":false,"is_disabled":false,"rental_uris":{"android":"levelo://app?vid=f66113de-f3fb-4667-a759-f56810ed7f83","ios":"levelo://app?vid=f66113de-f3fb-4667-a759-f56810ed7f83"},"vehicle_type_id":"4","last_reported":1774819344,"current_range_meters":8000,"station_id":"","pricing_plan_id":"cebpf4jnsgd1na2vs0mg"},{"bike_id":"aeca9453-ce08-40c1-8c68-c50a96f12fa4","system_id":"levelo_inurba_marseille","lat":43.2863,"lon":5.35131,"is_reserved":false,"is_disabled":false,"rental_uris":{"android":"levelo://app?vid=aeca9453-ce08-40c1-8c68-c50a96f12fa4","ios":"levelo://app?vid=aeca9453-ce08-40c1-8c68-c50a96f12fa4"},"vehicle_type_id":"4","last_reported":1774819344,"current_range_meters":8000,"station_id":"ce4bhch2rcd13ifvqeug","pricing_plan_id":"cebpf4jnsgd1na2vs0mg"},{"bike_id":"87c74c5e-feb8-4d42-ba82-09129c1d5c81","system_id":"levelo_inurba_marseille","lat":43.28614,"lon":5.35109,"is_reserved":false,"is_disabled":false,"rental_uris":{"android":"levelo://app?vid=87c74c5e-feb8-4d42-ba82-09129c1d5c81","ios":"levelo://app?vid=87c74c5e-feb8-4d42-ba82-09129c1d5c81"},"vehicle_type_id":"4","last_reported":1774819344,"current_range_meters":8000,"station_id":"ce4bhch2rcd13ifvqeug","pricing_plan_id":"cebpf4jnsgd1na2vs0mg"},{"bike_id":"2806c744-432f-4b93-b461-4453c281e532","system_id":"levelo_inurba_marseille","lat":43.29532,"lon":5.39007,"is_reserved":false,"is_disabled":true,"rental_uris":{"android":"levelo://app?vid=2806c744-432f-4b93-b461-4453c281e532","ios":"levelo://app?vid=2806c744-432f-4b93-b461-4453c281e532"},"vehicle_type_id":"4","last_reported":1774819344,"current_range_meters":8000,"station_id":"ce4bh3p2rcd13ifvqdp0","pricing_plan_id":"cebpf4jnsgd1na2vs0mg"},{"bike_id":"b4dd00eb-e494-45a6-9b0b-914f0da4cc47","system_id":"levelo_inurba_marseille","lat":43.31178,"lon":5.36871,"is_reserved":false,"is_disabled":false,"rental_uris":{"android":"levelo://app?vid=b4dd00eb-e494-45a6-9b0b-914f0da4cc47","ios":"levelo://app?vid=b4dd00eb-e494-45a6-9b0b-914f0da4cc47"},"vehicle_type_id":"4","last_reported":1774819344,"current_range_meters":8000,"station_id":"","pricing_plan_id":"cebpf4jnsgd1na2vs0mg"},{"bike_id":"a58d9778-65e0-40de-91c3-998abbb91b2d","system_id":"levelo_inurba_marseille","lat":43.28182,"lon":5.39049,"is_reserved":false,"is_disabled":false,"rental_uris":{"android":"levelo://app?vid=a58d9778-65e0-40de-91c3-998abbb91b2d","ios":"levelo://app?vid=a58d9778-65e0-40de-91c3-998abbb91b2d"},"vehicle_type_id":"4","last_reported":1774819344,"current_range_meters":8000,"station_id":"","pricing_plan_id":"cebpf4jnsgd1na2vs0mg"},{"bike_id":"b236f643-53ba-43fa-b29d-c90773116eb2","system_id":"levelo_inurba_marseille","lat":43.24497,"lon":5.42526,"is_reserved":false,"is_disabled":false,"rental_uris":{"android":"levelo://app?vid=b236f643-53ba-43fa-b29d-c90773116eb2","ios":"levelo://app?vid=b236f643-53ba-43fa-b29d-c90773116eb2"},"vehicle_type_id":"4","last_reported":1774819344,"current_range_meters":8000,"station_id":"st_d4a3vfp97mjs738cd8kg","pricing_plan_id":"cebpf4jnsgd1na2vs0mg"},{"bike_id":"48c12b74-6f3a-40a8-94b3-e62be28f6fcf","system_id":"levelo_inurba_marseille","lat":43.32353,"lon":5.36737,"is_reserved":false,"is_disabled":false,"rental_uris":{"android":"levelo://app?vid=48c12b74-6f3a-40a8-94b3-e62be28f6fcf","ios":"levelo://app?vid=48c12b74-6f3a-40a8-94b3-e62be28f6fcf"},"vehicle_type_id":"4","last_reported":1774819344,"current_range_meters":8000,"station_id":"ce4bhsh2rcd13ifvqi2g","pricing_plan_id":"cebpf4jnsgd1na2vs0mg"},{"bike_id":"8fffd0a7-7ac9-406d-8bd4-c6989456d7c6","system_id":"levelo_inurba_marseille","lat":43.2821,"lon":5.3907,"is_reserved":false,"is_disabled":false,"rental_uris":{"android":"levelo://app?vid=8fffd0a7-7ac9-406d-8bd4-c6989456d7c6","ios":"levelo://app?vid=8fffd0a7-7ac9-406d-8bd4-c6989456d7c6"},"vehicle_type_id":"4","last_reported":1774819344,"current_range_meters":8000,"station_id":"ce4bhn92rcd13ifvqgsg","pricing_plan_id":"cebpf4jnsgd1na2vs0mg"},{"bike_id":"ba481b47-1e62-47f3-9d06-b30ab0e65b34","system_id":"levelo_inurba_marseille","lat":43.24466,"lon":5.42533,"is_reserved":false,"is_disabled":false,"rental_uris":{"android":"levelo://app?vid=ba481b47-1e62-47f3-9d06-b30ab0e65b34","ios":"levelo://app?vid=ba481b47-1e62-47f3-9d06-b30ab0e65b34"},"vehicle_type_id":"4","last_reported":1774819344,"current_range_meters":8000,"station_id":"st_d4a3vfp97mjs738cd8kg","pricing_plan_id":"cebpf4jnsgd1na2vs0mg"},{"bike_id":"81f3c139-98d4-4f32-a7df-9bf2946249c1","system_id":"levelo_inurba_marseille","lat":43.27377,"lon":5.36248,"is_reserved":false,"is_disabled":false,"rental_uris":{"android":"levelo://app?vid=81f3c139-98d4-4f32-a7df-9bf2946249c1","ios":"levelo://app?vid=81f3c139-98d4-4f32-a7df-9bf2946249c1"},"vehicle_type_id":"4","last_reported":1774819344,"current_range_meters":8000,"station_id":"ce4bhbh2rcd13ifvqeo0","pricing_plan_id":"cebpf4jnsgd1na2vs0mg"},{"bike_id":"f65f9ba1-6303-4d94-8334-3ce721a50aca","system_id":"levelo_inurba_marseille","lat":43.25828,"lon":5.39416,"is_reserved":false,"is_disabled":false,"rental_uris":{"android":"levelo://app?vid=f65f9ba1-6303-4d94-8334-3ce721a50aca","ios":"levelo://app?vid=f65f9ba1-6303-4d94-8334-3ce721a50aca"},"vehicle_type_id":"4","last_reported":1774819344,"current_range_meters":8000,"station_id":"ce4bhip2rcd13ifvqft0","pricing_plan_id":"cebpf4jnsgd1na2vs0mg"},{"bike_id":"90306366-9674-44f8-b77e-8578245e54c5","system_id":"levelo_inurba_marseille","lat":43.28562,"lon":5.39499,"is_reserved":false,"is_disabled":false,"rental_uris":{"android":"levelo://app?vid=90306366-9674-44f8-b77e-8578245e54c5","ios":"levelo://app?vid=90306366-9674-44f8-b77e-8578245e54c5"},"vehicle_type_id":"4","last_reported":1774819344,"current_range_meters":8000,"station_id":"ce4bh292rcd13ifvqdg0","pricing_plan_id":"cebpf4jnsgd1na2vs0mg"},{"bike_id":"dace812d-b1bd-4d8e-9f03-42b3e0c73c20","system_id":"levelo_inurba_marseille","lat":43.26561,"lon":5.39038,"is_reserved":false,"is_disabled":false,"rental_uris":{"android":"levelo://app?vid=dace812d-b1bd-4d8e-9f03-42b3e0c73c20","ios":"levelo://app?vid=dace812d-b1bd-4d8e-9f03-42b3e0c73c20"},"vehicle_type_id":"4","last_reported":1774819344,"current_range_meters":8400,"station_id":"ce4bhe12rcd13ifvqf30","pricing_plan_id":"cebpf4jnsgd1na2vs0mg"},{"bike_id":"98a9a293-d5f0-47c1-998a-f5c140bee451","system_id":"levelo_inurba_marseille","lat":43.27824,"lon":5.40707,"is_reserved":false,"is_disabled":false,"rental_uris":{"android":"levelo://app?vid=98a9a293-d5f0-47c1-998a-f5c140bee451","ios":"levelo://app?vid=98a9a293-d5f0-47c1-998a-f5c140bee451"},"vehicle_type_id":"4","last_reported":1774819344,"current_range_meters":8400,"station_id":"ce4bhnh2rcd13ifvqgtg","pricing_plan_id":"cebpf4jnsgd1na2vs0mg"},{"bike_id":"27ac35be-77f8-4ff4-a308-72978d021a26","system_id":"levelo_inurba_marseille","lat":43.29814,"lon":5.40402,"is_reserved":false,"is_disabled":false,"rental_uris":{"android":"levelo://app?vid=27ac35be-77f8-4ff4-a308-72978d021a26","ios":"levelo://app?vid=27ac35be-77f8-4ff4-a308-72978d021a26"},"vehicle_type_id":"4","last_reported":1774819344,"current_range_meters":8400,"station_id":"ce4bh112rcd13ifvqd90","pricing_plan_id":"cebpf4jnsgd1na2vs0mg"},{"bike_id":"238f9b98-c095-4fa4-bba5-47396b3d6b05","system_id":"levelo_inurba_marseille","lat":43.30944,"lon":5.39009,"is_reserved":false,"is_disabled":false,"rental_uris":{"android":"levelo://app?vid=238f9b98-c095-4fa4-bba5-47396b3d6b05","ios":"levelo://app?vid=238f9b98-c095-4fa4-bba5-47396b3d6b05"},"vehicle_type_id":"4","last_reported":1774819344,"current_range_meters":8400,"station_id":"ce4bgup2rcd13ifvqco0","pricing_plan_id":"cebpf4jnsgd1na2vs0mg"},{"bike_id":"29011b7e-b394-462a-b0fb-6c414a5128a5","system_id":"levelo_inurba_marseille","lat":43.28703,"lon":5.39975,"is_reserved":false,"is_disabled":false,"rental_uris":{"android":"levelo://app?vid=29011b7e-b394-462a-b0fb-6c414a5128a5","ios":"levelo://app?vid=29011b7e-b394-462a-b0fb-6c414a5128a5"},"vehicle_type_id":"4","last_reported":1774819344,"current_range_meters":8400,"station_id":"ce4bho92rcd13ifvqh3g","pricing_plan_id":"cebpf4jnsgd1na2vs0mg"},{"bike_id":"b1cbf460-56cf-47f4-9cfc-cba147627bd7","system_id":"levelo_inurba_marseille","lat":43.21263,"lon":5.35067,"is_reserved":false,"is_disabled":false,"rental_uris":{"android":"levelo://app?vid=b1cbf460-56cf-47f4-9cfc-cba147627bd7","ios":"levelo://app?vid=b1cbf460-56cf-47f4-9cfc-cba147627bd7"},"vehicle_type_id":"4","last_reported":1774819344,"current_range_meters":8400,"station_id":"","pricing_plan_id":"cebpf4jnsgd1na2vs0mg"},{"bike_id":"73eb2552-7b27-4e3e-936a-2dc4c2a07c41","system_id":"levelo_inurba_marseille","lat":43.337444,"lon":5.374475,"is_reserved":false,"is_disabled":false,"rental_uris":{"android":"levelo://app?vid=73eb2552-7b27-4e3e-936a-2dc4c2a07c41","ios":"levelo://app?vid=73eb2552-7b27-4e3e-936a-2dc4c2a07c41"},"vehicle_type_id":"4","last_reported":1774819344,"current_range_meters":8400,"station_id":"","pricing_plan_id":"cebpf4jnsgd1na2vs0mg"},{"bike_id":"ffe03ff3-adc2-40d1-8efe-4ce795ab3944","system_id":"levelo_inurba_marseille","lat":43.28624,"lon":5.35105,"is_reserved":false,"is_disabled":false,"rental_uris":{"android":"levelo://app?vid=ffe03ff3-adc2-40d1-8efe-4ce795ab3944","ios":"levelo://app?vid=ffe03ff3-adc2-40d1-8efe-4ce795ab3944"},"vehicle_type_id":"4","last_reported":1774819344,"current_range_meters":8400,"station_id":"ce4bhch2rcd13ifvqeug","pricing_plan_id":"cebpf4jnsgd1na2vs0mg"},{"bike_id":"1b42944a-8e9d-43e4-8c02-34640e302b7a","system_id":"levelo_inurba_marseille","lat":43.29869,"lon":5.38865,"is_reserved":false,"is_disabled":true,"rental_uris":{"android":"levelo://app?vid=1b42944a-8e9d-43e4-8c02-34640e302b7a","ios":"levelo://app?vid=1b42944a-8e9d-43e4-8c02-34640e302b7a"},"vehicle_type_id":"4","last_reported":1774819344,"current_range_meters":8400,"station_id":"ce4bh392rcd13ifvqdl0","pricing_plan_id":"cebpf4jnsgd1na2vs0mg"},{"bike_id":"04e8a4a4-0417-4bbb-aa20-632e0a07f97a","system_id":"levelo_inurba_marseille","lat":43.29258,"lon":5.40908,"is_reserved":false,"is_disabled":false,"rental_uris":{"android":"levelo://app?vid=04e8a4a4-0417-4bbb-aa20-632e0a07f97a","ios":"levelo://app?vid=04e8a4a4-0417-4bbb-aa20-632e0a07f97a"},"vehicle_type_id":"4","last_reported":1774819344,"current_range_meters":8400,"station_id":"ce4bh192rcd13ifvqdc0","pricing_plan_id":"cebpf4jnsgd1na2vs0mg"},{"bike_id":"3ae5c6b7-7fb3-4f0e-9ab8-6af86bbe463b","system_id":"levelo_inurba_marseille","lat":43.29272,"lon":5.36838,"is_reserved":false,"is_disabled":false,"rental_uris":{"android":"levelo://app?vid=3ae5c6b7-7fb3-4f0e-9ab8-6af86bbe463b","ios":"levelo://app?vid=3ae5c6b7-7fb3-4f0e-9ab8-6af86bbe463b"},"vehicle_type_id":"4","last_reported":1774819344,"current_range_meters":8400,"station_id":"ce4bhbp2rcd13ifvqesg","pricing_plan_id":"cebpf4jnsgd1na2vs0mg"},{"bike_id":"0a7592be-d296-4e5e-b93f-f019570d4ca8","system_id":"levelo_inurba_marseille","lat":43.28923,"lon":5.36628,"is_reserved":false,"is_disabled":false,"rental_uris":{"android":"levelo://app?vid=0a7592be-d296-4e5e-b93f-f019570d4ca8","ios":"levelo://app?vid=0a7592be-d296-4e5e-b93f-f019570d4ca8"},"vehicle_type_id":"4","last_reported":1774819344,"current_range_meters":8400,"station_id":"ce4bhap2rcd13ifvqek0","pricing_plan_id":"cebpf4jnsgd1na2vs0mg"},{"bike_id":"fc712493-2bd2-45f1-b3bb-8e05a42b9280","system_id":"levelo_inurba_marseille","lat":43.2895,"lon":5.36398,"is_reserved":false,"is_disabled":false,"rental_uris":{"android":"levelo://app?vid=fc712493-2bd2-45f1-b3bb-8e05a42b9280","ios":"levelo://app?vid=fc712493-2bd2-45f1-b3bb-8e05a42b9280"},"vehicle_type_id":"4","last_reported":1774819344,"current_range_meters":8400,"station_id":"ce4bhc92rcd13ifvqetg","pricing_plan_id":"cebpf4jnsgd1na2vs0mg"},{"bike_id":"436a14e6-8c4f-48b5-acc8-deed1975664e","system_id":"levelo_inurba_marseille","lat":43.28407,"lon":5.34976,"is_reserved":false,"is_disabled":false,"rental_uris":{"android":"levelo://app?vid=436a14e6-8c4f-48b5-acc8-deed1975664e","ios":"levelo://app?vid=436a14e6-8c4f-48b5-acc8-deed1975664e"},"vehicle_type_id":"4","last_reported":1774819344,"current_range_meters":8400,"station_id":"ce4bhbh2rcd13ifvqepg","pricing_plan_id":"cebpf4jnsgd1na2vs0mg"},{"bike_id":"eb1230f0-c5e4-4dc8-b0e6-2e79cb351ed4","system_id":"levelo_inurba_marseille","lat":43.23069,"lon":5.35476,"is_reserved":false,"is_disabled":false,"rental_uris":{"android":"levelo://app?vid=eb1230f0-c5e4-4dc8-b0e6-2e79cb351ed4","ios":"levelo://app?vid=eb1230f0-c5e4-4dc8-b0e6-2e79cb351ed4"},"vehicle_type_id":"4","last_reported":1774819344,"current_range_meters":8400,"station_id":"cpo3342slgdg3j2ifvpg","pricing_plan_id":"cebpf4jnsgd1na2vs0mg"},{"bike_id":"8efaf94a-553c-4be0-aacc-a876b10b3ac1","system_id":"levelo_inurba_marseille","lat":43.32395,"lon":5.3666,"is_reserved":false,"is_disabled":false,"rental_uris":{"android":"levelo://app?vid=8efaf94a-553c-4be0-aacc-a876b10b3ac1","ios":"levelo://app?vid=8efaf94a-553c-4be0-aacc-a876b10b3ac1"},"vehicle_type_id":"4","last_reported":1774819344,"current_range_meters":8400,"station_id":"","pricing_plan_id":"cebpf4jnsgd1na2vs0mg"},{"bike_id":"06fa9c00-d59d-438e-9dbe-bb0f09cb7ca2","system_id":"levelo_inurba_marseille","lat":43.23195,"lon":5.35552,"is_reserved":false,"is_disabled":false,"rental_uris":{"android":"levelo://app?vid=06fa9c00-d59d-438e-9dbe-bb0f09cb7ca2","ios":"levelo://app?vid=06fa9c00-d59d-438e-9dbe-bb0f09cb7ca2"},"vehicle_type_id":"4","last_reported":1774819344,"current_range_meters":8400,"station_id":"ce4bhu92rcd13ifvqi70","pricing_plan_id":"cebpf4jnsgd1na2vs0mg"},{"bike_id":"aea41b74-0875-4007-a8fe-66599b4e59e6","system_id":"levelo_inurba_marseille","lat":43.28894,"lon":5.45686,"is_reserved":false,"is_disabled":false,"rental_uris":{"android":"levelo://app?vid=aea41b74-0875-4007-a8fe-66599b4e59e6","ios":"levelo://app?vid=aea41b74-0875-4007-a8fe-66599b4e59e6"},"vehicle_type_id":"4","last_reported":1774819344,"current_range_meters":8400,"station_id":"","pricing_plan_id":"cebpf4jnsgd1na2vs0mg"},{"bike_id":"97990e52-b961-402d-a2c4-c5add6043159","system_id":"levelo_inurba_marseille","lat":43.26362,"lon":5.41082,"is_reserved":false,"is_disabled":false,"rental_uris":{"android":"levelo://app?vid=97990e52-b961-402d-a2c4-c5add6043159","ios":"levelo://app?vid=97990e52-b961-402d-a2c4-c5add6043159"},"vehicle_type_id":"4","last_reported":1774819344,"current_range_meters":8400,"station_id":"st_d4e5ca6na9uc73bfl5fg","pricing_plan_id":"cebpf4jnsgd1na2vs0mg"},{"bike_id":"446a3c3c-3e0a-4bf9-8ce3-2ab4c663eafd","system_id":"levelo_inurba_marseille","lat":43.24155,"lon":5.36403,"is_reserved":false,"is_disabled":false,"rental_uris":{"android":"levelo://app?vid=446a3c3c-3e0a-4bf9-8ce3-2ab4c663eafd","ios":"levelo://app?vid=446a3c3c-3e0a-4bf9-8ce3-2ab4c663eafd"},"vehicle_type_id":"4","last_reported":1774819344,"current_range_meters":8400,"station_id":"cpo36qri1sfpv3e86is0","pricing_plan_id":"cebpf4jnsgd1na2vs0mg"},{"bike_id":"05dda9cc-eb65-4d1b-8611-0428c302b8dc","system_id":"levelo_inurba_marseille","lat":43.27503,"lon":5.42443,"is_reserved":false,"is_disabled":false,"rental_uris":{"android":"levelo://app?vid=05dda9cc-eb65-4d1b-8611-0428c302b8dc","ios":"levelo://app?vid=05dda9cc-eb65-4d1b-8611-0428c302b8dc"},"vehicle_type_id":"4","last_reported":1774819344,"current_range_meters":8400,"station_id":"ce4bhn92rcd13ifvqgrg","pricing_plan_id":"cebpf4jnsgd1na2vs0mg"},{"bike_id":"bd5cbf56-8589-4e6e-ad8f-c6ec7f102449","system_id":"levelo_inurba_marseille","lat":43.28734,"lon":5.37382,"is_reserved":false,"is_disabled":false,"rental_uris":{"android":"levelo://app?vid=bd5cbf56-8589-4e6e-ad8f-c6ec7f102449","ios":"levelo://app?vid=bd5cbf56-8589-4e6e-ad8f-c6ec7f102449"},"vehicle_type_id":"4","last_reported":1774819344,"current_range_meters":8800,"station_id":"ce4bh3p2rcd13ifvqdq0","pricing_plan_id":"cebpf4jnsgd1na2vs0mg"},{"bike_id":"2afbec2b-a06e-4e33-9eed-368850ffcbbc","system_id":"levelo_inurba_marseille","lat":43.28388,"lon":5.37524,"is_reserved":false,"is_disabled":false,"rental_uris":{"android":"levelo://app?vid=2afbec2b-a06e-4e33-9eed-368850ffcbbc","ios":"levelo://app?vid=2afbec2b-a06e-4e33-9eed-368850ffcbbc"},"vehicle_type_id":"4","last_reported":1774819344,"current_range_meters":8800,"station_id":"ce4bh412rcd13ifvqds0","pricing_plan_id":"cebpf4jnsgd1na2vs0mg"},{"bike_id":"53110675-e2e8-439f-b733-501832057a6e","system_id":"levelo_inurba_marseille","lat":43.28414,"lon":5.34977,"is_reserved":false,"is_disabled":false,"rental_uris":{"android":"levelo://app?vid=53110675-e2e8-439f-b733-501832057a6e","ios":"levelo://app?vid=53110675-e2e8-439f-b733-501832057a6e"},"vehicle_type_id":"4","last_reported":1774819344,"current_range_meters":8800,"station_id":"ce4bhbh2rcd13ifvqepg","pricing_plan_id":"cebpf4jnsgd1na2vs0mg"},{"bike_id":"caf54512-8bd5-44e0-83e0-5bc86c120c76","system_id":"levelo_inurba_marseille","lat":43.28627,"lon":5.3507,"is_reserved":false,"is_disabled":false,"rental_uris":{"android":"levelo://app?vid=caf54512-8bd5-44e0-83e0-5bc86c120c76","ios":"levelo://app?vid=caf54512-8bd5-44e0-83e0-5bc86c120c76"},"vehicle_type_id":"4","last_reported":1774819344,"current_range_meters":8800,"station_id":"ce4bhch2rcd13ifvqeug","pricing_plan_id":"cebpf4jnsgd1na2vs0mg"},{"bike_id":"3e822faa-a448-49d6-85cd-48f9afbee739","system_id":"levelo_inurba_marseille","lat":43.3191,"lon":5.4374,"is_reserved":false,"is_disabled":false,"rental_uris":{"android":"levelo://app?vid=3e822faa-a448-49d6-85cd-48f9afbee739","ios":"levelo://app?vid=3e822faa-a448-49d6-85cd-48f9afbee739"},"vehicle_type_id":"4","last_reported":1774819344,"current_range_meters":8800,"station_id":"ce4bhp92rcd13ifvqhcg","pricing_plan_id":"cebpf4jnsgd1na2vs0mg"},{"bike_id":"8b26d475-adfb-43a5-b19c-caf4f104de28","system_id":"levelo_inurba_marseille","lat":43.2326,"lon":5.35597,"is_reserved":false,"is_disabled":false,"rental_uris":{"android":"levelo://app?vid=8b26d475-adfb-43a5-b19c-caf4f104de28","ios":"levelo://app?vid=8b26d475-adfb-43a5-b19c-caf4f104de28"},"vehicle_type_id":"4","last_reported":1774819344,"current_range_meters":8800,"station_id":"","pricing_plan_id":"cebpf4jnsgd1na2vs0mg"},{"bike_id":"8eb433e2-99ff-4186-9b79-fd6535098fae","system_id":"levelo_inurba_marseille","lat":43.22533,"lon":5.34797,"is_reserved":false,"is_disabled":false,"rental_uris":{"android":"levelo://app?vid=8eb433e2-99ff-4186-9b79-fd6535098fae","ios":"levelo://app?vid=8eb433e2-99ff-4186-9b79-fd6535098fae"},"vehicle_type_id":"4","last_reported":1774819344,"current_range_meters":8800,"station_id":"","pricing_plan_id":"cebpf4jnsgd1na2vs0mg"},{"bike_id":"10f001e3-1b5e-4722-bd6e-1cdc4b551001","system_id":"levelo_inurba_marseille","lat":43.28414,"lon":5.34981,"is_reserved":false,"is_disabled":false,"rental_uris":{"android":"levelo://app?vid=10f001e3-1b5e-4722-bd6e-1cdc4b551001","ios":"levelo://app?vid=10f001e3-1b5e-4722-bd6e-1cdc4b551001"},"vehicle_type_id":"4","last_reported":1774819344,"current_range_meters":8800,"station_id":"ce4bhbh2rcd13ifvqepg","pricing_plan_id":"cebpf4jnsgd1na2vs0mg"},{"bike_id":"b159cfdc-4e3d-42c0-b5ef-43f4122d544b","system_id":"levelo_inurba_marseille","lat":43.31405,"lon":5.36723,"is_reserved":false,"is_disabled":false,"rental_uris":{"android":"levelo://app?vid=b159cfdc-4e3d-42c0-b5ef-43f4122d544b","ios":"levelo://app?vid=b159cfdc-4e3d-42c0-b5ef-43f4122d544b"},"vehicle_type_id":"4","last_reported":1774819344,"current_range_meters":8800,"station_id":"","pricing_plan_id":"cebpf4jnsgd1na2vs0mg"},{"bike_id":"01095b3d-90a6-498c-9936-5c0313abdcd7","system_id":"levelo_inurba_marseille","lat":43.21194,"lon":5.35066,"is_reserved":false,"is_disabled":false,"rental_uris":{"android":"levelo://app?vid=01095b3d-90a6-498c-9936-5c0313abdcd7","ios":"levelo://app?vid=01095b3d-90a6-498c-9936-5c0313abdcd7"},"vehicle_type_id":"4","last_reported":1774819344,"current_range_meters":8800,"station_id":"st_cvj6sg6p6f1abm77japg","pricing_plan_id":"cebpf4jnsgd1na2vs0mg"},{"bike_id":"0ff59502-5826-4c8c-9a1c-aee26c6db4e6","system_id":"levelo_inurba_marseille","lat":43.27508,"lon":5.41568,"is_reserved":false,"is_disabled":false,"rental_uris":{"android":"levelo://app?vid=0ff59502-5826-4c8c-9a1c-aee26c6db4e6","ios":"levelo://app?vid=0ff59502-5826-4c8c-9a1c-aee26c6db4e6"},"vehicle_type_id":"4","last_reported":1774819344,"current_range_meters":8800,"station_id":"st_d6im8g6chgec73a5pndg","pricing_plan_id":"cebpf4jnsgd1na2vs0mg"},{"bike_id":"8598c885-1783-4afd-845e-1ab3c5222bfc","system_id":"levelo_inurba_marseille","lat":43.31508,"lon":5.38075,"is_reserved":false,"is_disabled":false,"rental_uris":{"android":"levelo://app?vid=8598c885-1783-4afd-845e-1ab3c5222bfc","ios":"levelo://app?vid=8598c885-1783-4afd-845e-1ab3c5222bfc"},"vehicle_type_id":"4","last_reported":1774819344,"current_range_meters":8800,"station_id":"ce4bhsp2rcd13ifvqi50","pricing_plan_id":"cebpf4jnsgd1na2vs0mg"},{"bike_id":"6d189367-b1da-46a7-b7d8-cc2f6c5c510a","system_id":"levelo_inurba_marseille","lat":43.24076,"lon":5.3775,"is_reserved":false,"is_disabled":false,"rental_uris":{"android":"levelo://app?vid=6d189367-b1da-46a7-b7d8-cc2f6c5c510a","ios":"levelo://app?vid=6d189367-b1da-46a7-b7d8-cc2f6c5c510a"},"vehicle_type_id":"4","last_reported":1774819344,"current_range_meters":8800,"station_id":"ce4bhnp2rcd13ifvqgvg","pricing_plan_id":"cebpf4jnsgd1na2vs0mg"},{"bike_id":"397278e0-440c-401a-b00e-94a337b5111d","system_id":"levelo_inurba_marseille","lat":43.28539,"lon":5.44094,"is_reserved":false,"is_disabled":false,"rental_uris":{"android":"levelo://app?vid=397278e0-440c-401a-b00e-94a337b5111d","ios":"levelo://app?vid=397278e0-440c-401a-b00e-94a337b5111d"},"vehicle_type_id":"4","last_reported":1774819344,"current_range_meters":8800,"station_id":"st_d3j3df2ikq2c7380ej80","pricing_plan_id":"cebpf4jnsgd1na2vs0mg"},{"bike_id":"360cc1bb-ea03-4ff2-ae19-1fc21079e50c","system_id":"levelo_inurba_marseille","lat":43.21164,"lon":5.35093,"is_reserved":false,"is_disabled":false,"rental_uris":{"android":"levelo://app?vid=360cc1bb-ea03-4ff2-ae19-1fc21079e50c","ios":"levelo://app?vid=360cc1bb-ea03-4ff2-ae19-1fc21079e50c"},"vehicle_type_id":"4","last_reported":1774819344,"current_range_meters":8800,"station_id":"st_cvj6sg6p6f1abm77japg","pricing_plan_id":"cebpf4jnsgd1na2vs0mg"},{"bike_id":"aa096f04-9bc4-4c84-b180-63b983513b22","system_id":"levelo_inurba_marseille","lat":43.32511,"lon":5.38311,"is_reserved":false,"is_disabled":false,"rental_uris":{"android":"levelo://app?vid=aa096f04-9bc4-4c84-b180-63b983513b22","ios":"levelo://app?vid=aa096f04-9bc4-4c84-b180-63b983513b22"},"vehicle_type_id":"4","last_reported":1774819344,"current_range_meters":8800,"station_id":"st_d4asgbiv49dc73anf9m0","pricing_plan_id":"cebpf4jnsgd1na2vs0mg"},{"bike_id":"c448a442-30a4-4284-b827-ae08009e43b4","system_id":"levelo_inurba_marseille","lat":43.296,"lon":5.38107,"is_reserved":false,"is_disabled":true,"rental_uris":{"android":"levelo://app?vid=c448a442-30a4-4284-b827-ae08009e43b4","ios":"levelo://app?vid=c448a442-30a4-4284-b827-ae08009e43b4"},"vehicle_type_id":"4","last_reported":1774819344,"current_range_meters":8800,"station_id":"ce4bgl12rcd13ifvqbo0","pricing_plan_id":"cebpf4jnsgd1na2vs0mg"},{"bike_id":"cf895956-b469-43d4-816c-a7d211507799","system_id":"levelo_inurba_marseille","lat":43.29729,"lon":5.37031,"is_reserved":false,"is_disabled":false,"rental_uris":{"android":"levelo://app?vid=cf895956-b469-43d4-816c-a7d211507799","ios":"levelo://app?vid=cf895956-b469-43d4-816c-a7d211507799"},"vehicle_type_id":"4","last_reported":1774819344,"current_range_meters":8800,"station_id":"","pricing_plan_id":"cebpf4jnsgd1na2vs0mg"},{"bike_id":"5f1a297c-01eb-46bd-af35-511921964f6c","system_id":"levelo_inurba_marseille","lat":43.28792,"lon":5.35994,"is_reserved":false,"is_disabled":false,"rental_uris":{"android":"levelo://app?vid=5f1a297c-01eb-46bd-af35-511921964f6c","ios":"levelo://app?vid=5f1a297c-01eb-46bd-af35-511921964f6c"},"vehicle_type_id":"4","last_reported":1774819344,"current_range_meters":8800,"station_id":"","pricing_plan_id":"cebpf4jnsgd1na2vs0mg"},{"bike_id":"f80b49c2-904e-47b6-8d38-d811b0e62949","system_id":"levelo_inurba_marseille","lat":43.26405,"lon":5.39868,"is_reserved":false,"is_disabled":false,"rental_uris":{"android":"levelo://app?vid=f80b49c2-904e-47b6-8d38-d811b0e62949","ios":"levelo://app?vid=f80b49c2-904e-47b6-8d38-d811b0e62949"},"vehicle_type_id":"4","last_reported":1774819344,"current_range_meters":8800,"station_id":"","pricing_plan_id":"cebpf4jnsgd1na2vs0mg"},{"bike_id":"d4cb0fd3-cf82-4920-8821-5ce3fb43cc53","system_id":"levelo_inurba_marseille","lat":43.24172,"lon":5.36387,"is_reserved":false,"is_disabled":false,"rental_uris":{"android":"levelo://app?vid=d4cb0fd3-cf82-4920-8821-5ce3fb43cc53","ios":"levelo://app?vid=d4cb0fd3-cf82-4920-8821-5ce3fb43cc53"},"vehicle_type_id":"4","last_reported":1774819344,"current_range_meters":8800,"station_id":"cpo36qri1sfpv3e86is0","pricing_plan_id":"cebpf4jnsgd1na2vs0mg"},{"bike_id":"532c5324-fb16-4a5e-b25b-a57e56be9441","system_id":"levelo_inurba_marseille","lat":43.28402,"lon":5.34999,"is_reserved":false,"is_disabled":false,"rental_uris":{"android":"levelo://app?vid=532c5324-fb16-4a5e-b25b-a57e56be9441","ios":"levelo://app?vid=532c5324-fb16-4a5e-b25b-a57e56be9441"},"vehicle_type_id":"4","last_reported":1774819344,"current_range_meters":8800,"station_id":"ce4bhbh2rcd13ifvqepg","pricing_plan_id":"cebpf4jnsgd1na2vs0mg"},{"bike_id":"0925c61b-b75a-446d-b2b4-2ad479bfedc4","system_id":"levelo_inurba_marseille","lat":43.26549,"lon":5.39036,"is_reserved":false,"is_disabled":false,"rental_uris":{"android":"levelo://app?vid=0925c61b-b75a-446d-b2b4-2ad479bfedc4","ios":"levelo://app?vid=0925c61b-b75a-446d-b2b4-2ad479bfedc4"},"vehicle_type_id":"4","last_reported":1774819344,"current_range_meters":8800,"station_id":"ce4bhe12rcd13ifvqf30","pricing_plan_id":"cebpf4jnsgd1na2vs0mg"},{"bike_id":"072b156d-8d25-48cf-bfc6-48dd6bf3f27b","system_id":"levelo_inurba_marseille","lat":43.29965,"lon":5.41313,"is_reserved":false,"is_disabled":false,"rental_uris":{"android":"levelo://app?vid=072b156d-8d25-48cf-bfc6-48dd6bf3f27b","ios":"levelo://app?vid=072b156d-8d25-48cf-bfc6-48dd6bf3f27b"},"vehicle_type_id":"4","last_reported":1774819344,"current_range_meters":9200,"station_id":"ce4bhp12rcd13ifvqh9g","pricing_plan_id":"cebpf4jnsgd1na2vs0mg"},{"bike_id":"9d805782-2350-4e56-b117-cef8a8ea3fef","system_id":"levelo_inurba_marseille","lat":43.24788,"lon":5.37447,"is_reserved":false,"is_disabled":false,"rental_uris":{"android":"levelo://app?vid=9d805782-2350-4e56-b117-cef8a8ea3fef","ios":"levelo://app?vid=9d805782-2350-4e56-b117-cef8a8ea3fef"},"vehicle_type_id":"4","last_reported":1774819344,"current_range_meters":9200,"station_id":"ce4bhgh2rcd13ifvqfb0","pricing_plan_id":"cebpf4jnsgd1na2vs0mg"},{"bike_id":"081396a9-4582-40d9-8629-4006a7a9aaee","system_id":"levelo_inurba_marseille","lat":43.2848,"lon":5.48386,"is_reserved":false,"is_disabled":false,"rental_uris":{"android":"levelo://app?vid=081396a9-4582-40d9-8629-4006a7a9aaee","ios":"levelo://app?vid=081396a9-4582-40d9-8629-4006a7a9aaee"},"vehicle_type_id":"4","last_reported":1774819344,"current_range_meters":9200,"station_id":"","pricing_plan_id":"cebpf4jnsgd1na2vs0mg"},{"bike_id":"7b9f344a-bd16-4230-92d9-311c0b386f94","system_id":"levelo_inurba_marseille","lat":43.24154,"lon":5.3974,"is_reserved":false,"is_disabled":false,"rental_uris":{"android":"levelo://app?vid=7b9f344a-bd16-4230-92d9-311c0b386f94","ios":"levelo://app?vid=7b9f344a-bd16-4230-92d9-311c0b386f94"},"vehicle_type_id":"4","last_reported":1774819344,"current_range_meters":9200,"station_id":"ce4bhn12rcd13ifvqgpg","pricing_plan_id":"cebpf4jnsgd1na2vs0mg"},{"bike_id":"0bdabd4d-4018-4492-a8a7-c06fe8b40a89","system_id":"levelo_inurba_marseille","lat":43.29975,"lon":5.38504,"is_reserved":false,"is_disabled":true,"rental_uris":{"android":"levelo://app?vid=0bdabd4d-4018-4492-a8a7-c06fe8b40a89","ios":"levelo://app?vid=0bdabd4d-4018-4492-a8a7-c06fe8b40a89"},"vehicle_type_id":"4","last_reported":1774819344,"current_range_meters":9200,"station_id":"ce4bgj92rcd13ifvqbd0","pricing_plan_id":"cebpf4jnsgd1na2vs0mg"},{"bike_id":"f0db4efa-72c0-428b-8c8f-1f820281eb84","system_id":"levelo_inurba_marseille","lat":43.3139,"lon":5.36759,"is_reserved":false,"is_disabled":false,"rental_uris":{"android":"levelo://app?vid=f0db4efa-72c0-428b-8c8f-1f820281eb84","ios":"levelo://app?vid=f0db4efa-72c0-428b-8c8f-1f820281eb84"},"vehicle_type_id":"4","last_reported":1774819344,"current_range_meters":9200,"station_id":"","pricing_plan_id":"cebpf4jnsgd1na2vs0mg"},{"bike_id":"17bbfc92-0fe7-4ff8-bbe2-886418dd4b06","system_id":"levelo_inurba_marseille","lat":43.31159,"lon":5.38716,"is_reserved":false,"is_disabled":false,"rental_uris":{"android":"levelo://app?vid=17bbfc92-0fe7-4ff8-bbe2-886418dd4b06","ios":"levelo://app?vid=17bbfc92-0fe7-4ff8-bbe2-886418dd4b06"},"vehicle_type_id":"4","last_reported":1774819344,"current_range_meters":9200,"station_id":"ce4bgv12rcd13ifvqcp0","pricing_plan_id":"cebpf4jnsgd1na2vs0mg"},{"bike_id":"5c4058ac-b231-433f-9345-a2389dd03893","system_id":"levelo_inurba_marseille","lat":43.27392,"lon":5.36274,"is_reserved":false,"is_disabled":false,"rental_uris":{"android":"levelo://app?vid=5c4058ac-b231-433f-9345-a2389dd03893","ios":"levelo://app?vid=5c4058ac-b231-433f-9345-a2389dd03893"},"vehicle_type_id":"4","last_reported":1774819344,"current_range_meters":9200,"station_id":"ce4bhbh2rcd13ifvqeo0","pricing_plan_id":"cebpf4jnsgd1na2vs0mg"},{"bike_id":"478e8fea-cc8f-45cf-bafa-237520a640a8","system_id":"levelo_inurba_marseille","lat":43.24464,"lon":5.42538,"is_reserved":false,"is_disabled":false,"rental_uris":{"android":"levelo://app?vid=478e8fea-cc8f-45cf-bafa-237520a640a8","ios":"levelo://app?vid=478e8fea-cc8f-45cf-bafa-237520a640a8"},"vehicle_type_id":"4","last_reported":1774819344,"current_range_meters":9200,"station_id":"st_d4a3vfp97mjs738cd8kg","pricing_plan_id":"cebpf4jnsgd1na2vs0mg"},{"bike_id":"0aaeb449-948c-496a-b713-c028b991b7ea","system_id":"levelo_inurba_marseille","lat":43.2845,"lon":5.48397,"is_reserved":false,"is_disabled":false,"rental_uris":{"android":"levelo://app?vid=0aaeb449-948c-496a-b713-c028b991b7ea","ios":"levelo://app?vid=0aaeb449-948c-496a-b713-c028b991b7ea"},"vehicle_type_id":"4","last_reported":1774819344,"current_range_meters":9200,"station_id":"st_d3svhcjqgbts73a3dn0g","pricing_plan_id":"cebpf4jnsgd1na2vs0mg"},{"bike_id":"8b26bf4b-d22d-4d9a-ba09-1b9b3fbb86d9","system_id":"levelo_inurba_marseille","lat":43.24163,"lon":5.36388,"is_reserved":false,"is_disabled":false,"rental_uris":{"android":"levelo://app?vid=8b26bf4b-d22d-4d9a-ba09-1b9b3fbb86d9","ios":"levelo://app?vid=8b26bf4b-d22d-4d9a-ba09-1b9b3fbb86d9"},"vehicle_type_id":"4","last_reported":1774819344,"current_range_meters":9200,"station_id":"cpo36qri1sfpv3e86is0","pricing_plan_id":"cebpf4jnsgd1na2vs0mg"},{"bike_id":"d1feea73-92fd-42db-9e4a-21f243332e21","system_id":"levelo_inurba_marseille","lat":43.23777,"lon":5.3662,"is_reserved":false,"is_disabled":false,"rental_uris":{"android":"levelo://app?vid=d1feea73-92fd-42db-9e4a-21f243332e21","ios":"levelo://app?vid=d1feea73-92fd-42db-9e4a-21f243332e21"},"vehicle_type_id":"4","last_reported":1774819344,"current_range_meters":9200,"station_id":"st_d3nk18o9ro0c73en2l3g","pricing_plan_id":"cebpf4jnsgd1na2vs0mg"},{"bike_id":"b9627cb9-011f-4199-8571-eb4ff120a84c","system_id":"levelo_inurba_marseille","lat":43.33743,"lon":5.39184,"is_reserved":false,"is_disabled":false,"rental_uris":{"android":"levelo://app?vid=b9627cb9-011f-4199-8571-eb4ff120a84c","ios":"levelo://app?vid=b9627cb9-011f-4199-8571-eb4ff120a84c"},"vehicle_type_id":"4","last_reported":1774819344,"current_range_meters":9200,"station_id":"ce4bhr92rcd13ifvqhsg","pricing_plan_id":"cebpf4jnsgd1na2vs0mg"},{"bike_id":"8de278e2-e816-48b7-b9f8-61d77c6dddb0","system_id":"levelo_inurba_marseille","lat":43.23944,"lon":5.36652,"is_reserved":false,"is_disabled":false,"rental_uris":{"android":"levelo://app?vid=8de278e2-e816-48b7-b9f8-61d77c6dddb0","ios":"levelo://app?vid=8de278e2-e816-48b7-b9f8-61d77c6dddb0"},"vehicle_type_id":"4","last_reported":1774819344,"current_range_meters":9200,"station_id":"ce4bhi12rcd13ifvqfp0","pricing_plan_id":"cebpf4jnsgd1na2vs0mg"},{"bike_id":"262224aa-5cb1-4c15-8791-83b647f81270","system_id":"levelo_inurba_marseille","lat":43.21195,"lon":5.35069,"is_reserved":false,"is_disabled":false,"rental_uris":{"android":"levelo://app?vid=262224aa-5cb1-4c15-8791-83b647f81270","ios":"levelo://app?vid=262224aa-5cb1-4c15-8791-83b647f81270"},"vehicle_type_id":"4","last_reported":1774819344,"current_range_meters":9200,"station_id":"st_cvj6sg6p6f1abm77japg","pricing_plan_id":"cebpf4jnsgd1na2vs0mg"},{"bike_id":"3e14eafa-0254-4f03-9b87-b8a8c3b3ca65","system_id":"levelo_inurba_marseille","lat":43.2846,"lon":5.4839,"is_reserved":false,"is_disabled":false,"rental_uris":{"android":"levelo://app?vid=3e14eafa-0254-4f03-9b87-b8a8c3b3ca65","ios":"levelo://app?vid=3e14eafa-0254-4f03-9b87-b8a8c3b3ca65"},"vehicle_type_id":"4","last_reported":1774819344,"current_range_meters":9200,"station_id":"","pricing_plan_id":"cebpf4jnsgd1na2vs0mg"},{"bike_id":"9f8cbcc4-4cc5-4c66-88a4-bfa99c8315f9","system_id":"levelo_inurba_marseille","lat":43.30459,"lon":5.38873,"is_reserved":false,"is_disabled":true,"rental_uris":{"android":"levelo://app?vid=9f8cbcc4-4cc5-4c66-88a4-bfa99c8315f9","ios":"levelo://app?vid=9f8cbcc4-4cc5-4c66-88a4-bfa99c8315f9"},"vehicle_type_id":"4","last_reported":1774819344,"current_range_meters":9200,"station_id":"ce4bgk12rcd13ifvqbi0","pricing_plan_id":"cebpf4jnsgd1na2vs0mg"},{"bike_id":"a0999d65-1a64-4644-b073-a899770e589a","system_id":"levelo_inurba_marseille","lat":43.23866,"lon":5.3646,"is_reserved":false,"is_disabled":false,"rental_uris":{"android":"levelo://app?vid=a0999d65-1a64-4644-b073-a899770e589a","ios":"levelo://app?vid=a0999d65-1a64-4644-b073-a899770e589a"},"vehicle_type_id":"4","last_reported":1774819344,"current_range_meters":9200,"station_id":"","pricing_plan_id":"cebpf4jnsgd1na2vs0mg"},{"bike_id":"3ea6a8bf-cead-4b22-9862-d8dace3fd1b4","system_id":"levelo_inurba_marseille","lat":43.28619,"lon":5.39859,"is_reserved":false,"is_disabled":false,"rental_uris":{"android":"levelo://app?vid=3ea6a8bf-cead-4b22-9862-d8dace3fd1b4","ios":"levelo://app?vid=3ea6a8bf-cead-4b22-9862-d8dace3fd1b4"},"vehicle_type_id":"4","last_reported":1774819344,"current_range_meters":9200,"station_id":"st_d4a7ka997mjs738ck50g","pricing_plan_id":"cebpf4jnsgd1na2vs0mg"},{"bike_id":"64520afc-2104-4c0a-b4fd-b3f342d15b6b","system_id":"levelo_inurba_marseille","lat":43.2853,"lon":5.44101,"is_reserved":false,"is_disabled":false,"rental_uris":{"android":"levelo://app?vid=64520afc-2104-4c0a-b4fd-b3f342d15b6b","ios":"levelo://app?vid=64520afc-2104-4c0a-b4fd-b3f342d15b6b"},"vehicle_type_id":"4","last_reported":1774819344,"current_range_meters":9200,"station_id":"st_d3j3df2ikq2c7380ej80","pricing_plan_id":"cebpf4jnsgd1na2vs0mg"},{"bike_id":"8cbb0bf9-50ad-43a9-b406-5657210978e4","system_id":"levelo_inurba_marseille","lat":43.29058,"lon":5.3994,"is_reserved":false,"is_disabled":false,"rental_uris":{"android":"levelo://app?vid=8cbb0bf9-50ad-43a9-b406-5657210978e4","ios":"levelo://app?vid=8cbb0bf9-50ad-43a9-b406-5657210978e4"},"vehicle_type_id":"4","last_reported":1774819344,"current_range_meters":9200,"station_id":"ce4bh392rcd13ifvqdm0","pricing_plan_id":"cebpf4jnsgd1na2vs0mg"},{"bike_id":"5cd86f4e-c5d8-4ff1-ba09-621dac041865","system_id":"levelo_inurba_marseille","lat":43.24336,"lon":5.40854,"is_reserved":false,"is_disabled":false,"rental_uris":{"android":"levelo://app?vid=5cd86f4e-c5d8-4ff1-ba09-621dac041865","ios":"levelo://app?vid=5cd86f4e-c5d8-4ff1-ba09-621dac041865"},"vehicle_type_id":"4","last_reported":1774819344,"current_range_meters":9200,"station_id":"","pricing_plan_id":"cebpf4jnsgd1na2vs0mg"},{"bike_id":"4cf43f35-8451-4d33-a27e-48b8f0d8cc62","system_id":"levelo_inurba_marseille","lat":43.28471,"lon":5.48395,"is_reserved":false,"is_disabled":false,"rental_uris":{"android":"levelo://app?vid=4cf43f35-8451-4d33-a27e-48b8f0d8cc62","ios":"levelo://app?vid=4cf43f35-8451-4d33-a27e-48b8f0d8cc62"},"vehicle_type_id":"4","last_reported":1774819344,"current_range_meters":9600,"station_id":"st_d3svhcjqgbts73a3dn0g","pricing_plan_id":"cebpf4jnsgd1na2vs0mg"},{"bike_id":"b1cbee6f-5252-47e1-abc8-2154ff88b339","system_id":"levelo_inurba_marseille","lat":43.32342,"lon":5.36733,"is_reserved":false,"is_disabled":false,"rental_uris":{"android":"levelo://app?vid=b1cbee6f-5252-47e1-abc8-2154ff88b339","ios":"levelo://app?vid=b1cbee6f-5252-47e1-abc8-2154ff88b339"},"vehicle_type_id":"4","last_reported":1774819344,"current_range_meters":9600,"station_id":"ce4bhsh2rcd13ifvqi2g","pricing_plan_id":"cebpf4jnsgd1na2vs0mg"},{"bike_id":"60005e45-ad33-4e76-a3db-619cd42aec5f","system_id":"levelo_inurba_marseille","lat":43.28435,"lon":5.34973,"is_reserved":false,"is_disabled":false,"rental_uris":{"android":"levelo://app?vid=60005e45-ad33-4e76-a3db-619cd42aec5f","ios":"levelo://app?vid=60005e45-ad33-4e76-a3db-619cd42aec5f"},"vehicle_type_id":"4","last_reported":1774819344,"current_range_meters":9600,"station_id":"ce4bhbh2rcd13ifvqepg","pricing_plan_id":"cebpf4jnsgd1na2vs0mg"},{"bike_id":"457aec3a-d117-4537-966f-028d02d2e377","system_id":"levelo_inurba_marseille","lat":43.31133,"lon":5.37746,"is_reserved":false,"is_disabled":false,"rental_uris":{"android":"levelo://app?vid=457aec3a-d117-4537-966f-028d02d2e377","ios":"levelo://app?vid=457aec3a-d117-4537-966f-028d02d2e377"},"vehicle_type_id":"4","last_reported":1774819344,"current_range_meters":9600,"station_id":"ce4bgt92rcd13ifvqcg0","pricing_plan_id":"cebpf4jnsgd1na2vs0mg"},{"bike_id":"f2be668f-3e4c-4b42-b51a-a916a69cd9f9","system_id":"levelo_inurba_marseille","lat":43.3056,"lon":5.36708,"is_reserved":false,"is_disabled":false,"rental_uris":{"android":"levelo://app?vid=f2be668f-3e4c-4b42-b51a-a916a69cd9f9","ios":"levelo://app?vid=f2be668f-3e4c-4b42-b51a-a916a69cd9f9"},"vehicle_type_id":"4","last_reported":1774819344,"current_range_meters":9600,"station_id":"ce4bgrp2rcd13ifvqc9g","pricing_plan_id":"cebpf4jnsgd1na2vs0mg"},{"bike_id":"187d1a64-b2fa-470c-8121-9d8cd418c343","system_id":"levelo_inurba_marseille","lat":43.29539,"lon":5.39021,"is_reserved":false,"is_disabled":true,"rental_uris":{"android":"levelo://app?vid=187d1a64-b2fa-470c-8121-9d8cd418c343","ios":"levelo://app?vid=187d1a64-b2fa-470c-8121-9d8cd418c343"},"vehicle_type_id":"4","last_reported":1774819344,"current_range_meters":9600,"station_id":"ce4bh3p2rcd13ifvqdp0","pricing_plan_id":"cebpf4jnsgd1na2vs0mg"},{"bike_id":"075c0aed-46d6-4ee9-be46-8882f803e7da","system_id":"levelo_inurba_marseille","lat":43.28607,"lon":5.39876,"is_reserved":false,"is_disabled":false,"rental_uris":{"android":"levelo://app?vid=075c0aed-46d6-4ee9-be46-8882f803e7da","ios":"levelo://app?vid=075c0aed-46d6-4ee9-be46-8882f803e7da"},"vehicle_type_id":"4","last_reported":1774819344,"current_range_meters":9600,"station_id":"st_d4a7ka997mjs738ck50g","pricing_plan_id":"cebpf4jnsgd1na2vs0mg"},{"bike_id":"288dad8c-a346-4fdd-ae68-61ddb58d71ae","system_id":"levelo_inurba_marseille","lat":43.29174,"lon":5.42755,"is_reserved":false,"is_disabled":false,"rental_uris":{"android":"levelo://app?vid=288dad8c-a346-4fdd-ae68-61ddb58d71ae","ios":"levelo://app?vid=288dad8c-a346-4fdd-ae68-61ddb58d71ae"},"vehicle_type_id":"4","last_reported":1774819344,"current_range_meters":9600,"station_id":"","pricing_plan_id":"cebpf4jnsgd1na2vs0mg"},{"bike_id":"22bcf79a-965d-4116-82ac-fa7ce8e1956b","system_id":"levelo_inurba_marseille","lat":43.24166,"lon":5.36404,"is_reserved":false,"is_disabled":false,"rental_uris":{"android":"levelo://app?vid=22bcf79a-965d-4116-82ac-fa7ce8e1956b","ios":"levelo://app?vid=22bcf79a-965d-4116-82ac-fa7ce8e1956b"},"vehicle_type_id":"4","last_reported":1774819344,"current_range_meters":9600,"station_id":"cpo36qri1sfpv3e86is0","pricing_plan_id":"cebpf4jnsgd1na2vs0mg"},{"bike_id":"a8dcaae3-6604-450c-bfc5-d46f06b67c85","system_id":"levelo_inurba_marseille","lat":43.28449,"lon":5.34973,"is_reserved":false,"is_disabled":false,"rental_uris":{"android":"levelo://app?vid=a8dcaae3-6604-450c-bfc5-d46f06b67c85","ios":"levelo://app?vid=a8dcaae3-6604-450c-bfc5-d46f06b67c85"},"vehicle_type_id":"4","last_reported":1774819344,"current_range_meters":9600,"station_id":"ce4bhbh2rcd13ifvqepg","pricing_plan_id":"cebpf4jnsgd1na2vs0mg"},