{"last_updated":1700786052,"ttl":30,"version":"2.2","data":{"bikes":[{"bike_id":"9837f166-8d51-4e12-ac8d-9fc69593bea5","system_id":"levelo_inurba_marseille","lat":43.314811,"lon":5.373103,"is_reserved":false,"is_disabled":false,"rental_uris":{"android":"levelo://app?vid=9837f166-8d51-4e12-ac8d-9fc69593bea5","ios":"levelo://app?vid=9837f166-8d51-4e12-ac8d-9fc69593bea5"},"vehicle_type_id":"4","last_reported":1700786052,"current_range_meters":22400,"station_id":"ce4bgt12rcd13ifvqcd0","pricing_plan_id":"free"},{"bike_id":"1c8c3828-b68a-493e-a9d9-87b4bb81e704","system_id":"levelo_inurba_marseille","lat":43.314811,"lon":5.373103,"is_reserved":false,"is_disabled":false,"rental_uris":{"android":"levelo://app?vid=1c8c3828-b68a-493e-a9d9-87b4bb81e704","ios":"levelo://app?vid=1c8c3828-b68a-493e-a9d9-87b4bb81e704"},"vehicle_type_id":"4","last_reported":1700786052,"current_range_meters":24800,"station_id":"ce4bgt12rcd13ifvqcd0","pricing_plan_id":"free"},{"bike_id":"9eab8e50-e1c1-4776-bd28-a41792ea82c5","system_id":"levelo_inurba_marseille","lat":43.314811,"lon":5.373104,"is_reserved":false,"is_disabled":false,"rental_uris":{"android":"levelo://app?vid=9eab8e50-e1c1-4776-bd28-a41792ea82c5","ios":"levelo://app?vid=9eab8e50-e1c1-4776-bd28-a41792ea82c5"},"vehicle_type_id":"4","last_reported":1700786052,"current_range_meters":10400,"station_id":"ce4bgt12rcd13ifvqcd0","pricing_plan_id":"free"},{"bike_id":"132a8c32-b43d-4284-b7ad-03b5d012dd34","system_id":"levelo_inurba_marseille","lat":43.314811,"lon":5.373103,"is_reserved":false,"is_disabled":false,"rental_uris":{"android":"levelo://app?vid=132a8c32-b43d-4284-b7ad-03b5d012dd34","ios":"levelo://app?vid=132a8c32-b43d-4284-b7ad-03b5d012dd34"},"vehicle_type_id":"4","last_reported":1700786052,"current_range_meters":27600,"station_id":"ce4bgt12rcd13ifvqcd0","pricing_plan_id":"free"},{"bike_id":"24d65b7b-db6d-4560-881c-a1ff31c2bb4f","system_id":"levelo_inurba_marseille","lat":43.314811,"lon":5.373104,"is_reserved":false,"is_disabled":false,"rental_uris":{"android":"levelo://app?vid=24d65b7b-db6d-4560-881c-a1ff31c2bb4f","ios":"levelo://app?vid=24d65b7b-db6d-4560-881c-a1ff31c2bb4f"},"vehicle_type_id":"4","last_reported":1700786052,"current_range_meters":16000,"station_id":"ce4bgt12rcd13ifvqcd0","pricing_plan_id":"free"},{"bike_id":"69aef4f0-afae-465d-8980-86bd95bb5632","system_id":"levelo_inurba_marseille","lat":43.309039,"lon":5.371797,"is_reserved":false,"is_disabled":false,"rental_uris":{"android":"levelo://app?vid=69aef4f0-afae-465d-8980-86bd95bb5632","ios":"levelo://app?vid=69aef4f0-afae-465d-8980-86bd95bb5632"},"vehicle_type_id":"4","last_reported":1700786052,"current_range_meters":28800,"station_id":"ce4bguh2rcd13ifvqckg","pricing_plan_id":"free"},{"bike_id":"25ffc339-0ce5-45e3-854f-b78f1a6261fb","system_id":"levelo_inurba_marseille","lat":43.305989,"lon":5.37225,"is_reserved":false,"is_disabled":false,"rental_uris":{"android":"levelo://app?vid=25ffc339-0ce5-45e3-854f-b78f1a6261fb","ios":"levelo://app?vid=25ffc339-0ce5-45e3-854f-b78f1a6261fb"},"vehicle_type_id":"4","last_reported":1700786052,"current_range_meters":21600,"station_id":"ce4bgqh2rcd13ifvqc4g","pricing_plan_id":"free"},{"bike_id":"0aecedf2-8249-4f6b-8e37-1cdde6ee1ab8","system_id":"levelo_inurba_marseille","lat":43.311125,"lon":5.377624,"is_reserved":false,"is_disabled":false,"rental_uris":{"android":"levelo://app?vid=0aecedf2-8249-4f6b-8e37-1cdde6ee1ab8","ios":"levelo://app?vid=0aecedf2-8249-4f6b-8e37-1cdde6ee1ab8"},"vehicle_type_id":"4","last_reported":1700786052,"current_range_meters":26800,"station_id":"ce4bgt92rcd13ifvqcg0","pricing_plan_id":"free"},{"bike_id":"ef07fcf3-fe1b-4047-a24b-35dacd695eee","system_id":"levelo_inurba_marseille","lat":43.311131,"lon":5.377651,"is_reserved":false,"is_disabled":false,"rental_uris":{"android":"levelo://app?vid=ef07fcf3-fe1b-4047-a24b-35dacd695eee","ios":"levelo://app?vid=ef07fcf3-fe1b-4047-a24b-35dacd695eee"},"vehicle_type_id":"4","last_reported":1700786052,"current_range_meters":21200,"station_id":"ce4bgt92rcd13ifvqcg0","pricing_plan_id":"free"},{"bike_id":"13fb2fc7-096f-498d-8543-85c9f78bd644","system_id":"levelo_inurba_marseille","lat":43.311131,"lon":5.377651,"is_reserved":false,"is_disabled":false,"rental_uris":{"android":"levelo://app?vid=13fb2fc7-096f-498d-8543-85c9f78bd644","ios":"levelo://app?vid=13fb2fc7-096f-498d-8543-85c9f78bd644"},"vehicle_type_id":"4","last_reported":1700786052,"current_range_meters":0,"station_id":"ce4bgt92rcd13ifvqcg0","pricing_plan_id":"free"},{"bike_id":"acf2e61c-da7a-4535-afce-6dae5cd5d176","system_id":"levelo_inurba_marseille","lat":43.308182,"lon":5.376493,"is_reserved":false,"is_disabled":false,"rental_uris":{"android":"levelo://app?vid=acf2e61c-da7a-4535-afce-6dae5cd5d176","ios":"levelo://app?vid=acf2e61c-da7a-4535-afce-6dae5cd5d176"},"vehicle_type_id":"4","last_reported":1700786052,"current_range_meters":5600,"station_id":"ce4bgv92rcd13ifvqcq0","pricing_plan_id":"free"},{"bike_id":"bf9b963a-fc7a-4818-ae07-3d139b4dd181","system_id":"levelo_inurba_marseille","lat":43.307945,"lon":5.376487,"is_reserved":false,"is_disabled":false,"rental_uris":{"android":"levelo://app?vid=bf9b963a-fc7a-4818-ae07-3d139b4dd181","ios":"levelo://app?vid=bf9b963a-fc7a-4818-ae07-3d139b4dd181"},"vehicle_type_id":"4","last_reported":1700786052,"current_range_meters":27600,"station_id":"ce4bgv92rcd13ifvqcq0","pricing_plan_id":"free"},{"bike_id":"58490dd7-2976-4b13-bdb4-051cf0bde315","system_id":"levelo_inurba_marseille","lat":43.307945,"lon":5.376487,"is_reserved":false,"is_disabled":false,"rental_uris":{"android":"levelo://app?vid=58490dd7-2976-4b13-bdb4-051cf0bde315","ios":"levelo://app?vid=58490dd7-2976-4b13-bdb4-051cf0bde315"},"vehicle_type_id":"4","last_reported":1700786052,"current_range_meters":29200,"station_id":"ce4bgv92rcd13ifvqcq0","pricing_plan_id":"free"},{"bike_id":"e63b7326-70a2-469d-98a5-e2759a710c41","system_id":"levelo_inurba_marseille","lat":43.307945,"lon":5.376487,"is_reserved":false,"is_disabled":false,"rental_uris":{"android":"levelo://app?vid=e63b7326-70a2-469d-98a5-e2759a710c41","ios":"levelo://app?vid=e63b7326-70a2-469d-98a5-e2759a710c41"},"vehicle_type_id":"4","last_reported":1700786052,"current_range_meters":24400,"station_id":"ce4bgv92rcd13ifvqcq0","pricing_plan_id":"free"},{"bike_id":"d8b67b59-983c-4f7e-b00e-95d254b0ce7a","system_id":"levelo_inurba_marseille","lat":43.307945,"lon":5.376487,"is_reserved":false,"is_disabled":false,"rental_uris":{"android":"levelo://app?vid=d8b67b59-983c-4f7e-b00e-95d254b0ce7a","ios":"levelo://app?vid=d8b67b59-983c-4f7e-b00e-95d254b0ce7a"},"vehicle_type_id":"4","last_reported":1700786052,"current_range_meters":31600,"station_id":"ce4bgv92rcd13ifvqcq0","pricing_plan_id":"free"},{"bike_id":"a0c6969c-d735-43f8-9a40-7425d758f3e6","system_id":"levelo_inurba_marseille","lat":43.303046,"lon":5.368981,"is_reserved":false,"is_disabled":false,"rental_uris":{"android":"levelo://app?vid=a0c6969c-d735-43f8-9a40-7425d758f3e6","ios":"levelo://app?vid=a0c6969c-d735-43f8-9a40-7425d758f3e6"},"vehicle_type_id":"4","last_reported":1700786052,"current_range_meters":29600,"station_id":"ce4bgqh2rcd13ifvqc5g","pricing_plan_id":"free"},{"bike_id":"f643db10-ee33-4d98-85d7-c408eb1a80ce","system_id":"levelo_inurba_marseille","lat":43.315293,"lon":5.380349,"is_reserved":false,"is_disabled":false,"rental_uris":{"android":"levelo://app?vid=f643db10-ee33-4d98-85d7-c408eb1a80ce","ios":"levelo://app?vid=f643db10-ee33-4d98-85d7-c408eb1a80ce"},"vehicle_type_id":"4","last_reported":1700786052,"current_range_meters":1600,"station_id":"ce4bhsp2rcd13ifvqi50","pricing_plan_id":"free"},{"bike_id":"72e8f02a-e991-439d-9aca-ed75afc42fc4","system_id":"levelo_inurba_marseille","lat":43.301939,"lon":5.366286,"is_reserved":false,"is_disabled":false,"rental_uris":{"android":"levelo://app?vid=72e8f02a-e991-439d-9aca-ed75afc42fc4","ios":"levelo://app?vid=72e8f02a-e991-439d-9aca-ed75afc42fc4"},"vehicle_type_id":"4","last_reported":1700786052,"current_range_meters":22000,"station_id":"ce4bgrh2rcd13ifvqc8g","pricing_plan_id":"free"},{"bike_id":"79853e5e-cd49-4458-a891-a55d3ba7599a","system_id":"levelo_inurba_marseille","lat":43.30788,"lon":5.38155,"is_reserved":false,"is_disabled":false,"rental_uris":{"android":"levelo://app?vid=79853e5e-cd49-4458-a891-a55d3ba7599a","ios":"levelo://app?vid=79853e5e-cd49-4458-a891-a55d3ba7599a"},"vehicle_type_id":"4","last_reported":1700786052,"current_range_meters":24400,"station_id":"ce4bgt12rcd13ifvqce0","pricing_plan_id":"free"},{"bike_id":"045fb978-106d-4f92-a3eb-eb2742ad314e","system_id":"levelo_inurba_marseille","lat":43.302784,"lon":5.377158,"is_reserved":false,"is_disabled":false,"rental_uris":{"android":"levelo://app?vid=045fb978-106d-4f92-a3eb-eb2742ad314e","ios":"levelo://app?vid=045fb978-106d-4f92-a3eb-eb2742ad314e"},"vehicle_type_id":"4","last_reported":1700786052,"current_range_meters":29200,"station_id":"ce4bguh2rcd13ifvqcj0","pricing_plan_id":"free"},{"bike_id":"4a9c6fa3-235e-483e-9e8f-e82d12d74620","system_id":"levelo_inurba_marseille","lat":43.302784,"lon":5.377158,"is_reserved":false,"is_disabled":false,"rental_uris":{"android":"levelo://app?vid=4a9c6fa3-235e-483e-9e8f-e82d12d74620","ios":"levelo://app?vid=4a9c6fa3-235e-483e-9e8f-e82d12d74620"},"vehicle_type_id":"4","last_reported":1700786052,"current_range_meters":4000,"station_id":"ce4bguh2rcd13ifvqcj0","pricing_plan_id":"free"},{"bike_id":"b3a8c1d7-5920-48a8-a230-db64da99892d","system_id":"levelo_inurba_marseille","lat":43.302784,"lon":5.377158,"is_reserved":false,"is_disabled":false,"rental_uris":{"android":"levelo://app?vid=b3a8c1d7-5920-48a8-a230-db64da99892d","ios":"levelo://app?vid=b3a8c1d7-5920-48a8-a230-db64da99892d"},"vehicle_type_id":"4","last_reported":1700786052,"current_range_meters":10000,"station_id":"ce4bguh2rcd13ifvqcj0","pricing_plan_id":"free"},{"bike_id":"d37bc3cd-2110-4b66-9a06-091b8ba4a451","system_id":"levelo_inurba_marseille","lat":43.302784,"lon":5.377158,"is_reserved":false,"is_disabled":false,"rental_uris":{"android":"levelo://app?vid=d37bc3cd-2110-4b66-9a06-091b8ba4a451","ios":"levelo://app?vid=d37bc3cd-2110-4b66-9a06-091b8ba4a451"},"vehicle_type_id":"4","last_reported":1700786052,"current_range_meters":0,"station_id":"ce4bguh2rcd13ifvqcj0","pricing_plan_id":"free"},{"bike_id":"fb7c273d-4a3e-47c3-ac11-cf2b25f9ed02","system_id":"levelo_inurba_marseille","lat":43.30233,"lon":5.37685,"is_reserved":false,"is_disabled":false,"rental_uris":{"android":"levelo://app?vid=fb7c273d-4a3e-47c3-ac11-cf2b25f9ed02","ios":"levelo://app?vid=fb7c273d-4a3e-47c3-ac11-cf2b25f9ed02"},"vehicle_type_id":"4","last_reported":1700786052,"current_range_meters":2800,"station_id":"","pricing_plan_id":"free"},{"bike_id":"ddcd8fb5-e6f9-4509-b663-a5f016a9be0b","system_id":"levelo_inurba_marseille","lat":43.32004,"lon":5.38157,"is_reserved":false,"is_disabled":false,"rental_uris":{"android":"levelo://app?vid=ddcd8fb5-e6f9-4509-b663-a5f016a9be0b","ios":"levelo://app?vid=ddcd8fb5-e6f9-4509-b663-a5f016a9be0b"},"vehicle_type_id":"4","last_reported":1700786052,"current_range_meters":6000,"station_id":"ce4bhr12rcd13ifvqhpg","pricing_plan_id":"free"},{"bike_id":"724e860d-0f04-4f9d-99a6-aff54148ef0d","system_id":"levelo_inurba_marseille","lat":43.31357,"lon":5.38493,"is_reserved":false,"is_disabled":false,"rental_uris":{"android":"levelo://app?vid=724e860d-0f04-4f9d-99a6-aff54148ef0d","ios":"levelo://app?vid=724e860d-0f04-4f9d-99a6-aff54148ef0d"},"vehicle_type_id":"4","last_reported":1700786052,"current_range_meters":22000,"station_id":"ce4bgt92rcd13ifvqcf0","pricing_plan_id":"free"},{"bike_id":"2151413c-a3b0-423d-93c3-e4cfdcc1a5ac","system_id":"levelo_inurba_marseille","lat":43.313571,"lon":5.384829,"is_reserved":false,"is_disabled":false,"rental_uris":{"android":"levelo://app?vid=2151413c-a3b0-423d-93c3-e4cfdcc1a5ac","ios":"levelo://app?vid=2151413c-a3b0-423d-93c3-e4cfdcc1a5ac"},"vehicle_type_id":"4","last_reported":1700786052,"current_range_meters":17200,"station_id":"ce4bgt92rcd13ifvqcf0","pricing_plan_id":"free"},{"bike_id":"2f49a74b-dc83-497d-9fba-f04b5ac0b238","system_id":"levelo_inurba_marseille","lat":43.313688,"lon":5.385002,"is_reserved":false,"is_disabled":false,"rental_uris":{"android":"levelo://app?vid=2f49a74b-dc83-497d-9fba-f04b5ac0b238","ios":"levelo://app?vid=2f49a74b-dc83-497d-9fba-f04b5ac0b238"},"vehicle_type_id":"4","last_reported":1700786052,"current_range_meters":12800,"station_id":"ce4bgt92rcd13ifvqcf0","pricing_plan_id":"free"},{"bike_id":"40388ece-9b2c-4fc6-9f55-3cafeb576410","system_id":"levelo_inurba_marseille","lat":43.299222,"lon":5.365554,"is_reserved":false,"is_disabled":false,"rental_uris":{"android":"levelo://app?vid=40388ece-9b2c-4fc6-9f55-3cafeb576410","ios":"levelo://app?vid=40388ece-9b2c-4fc6-9f55-3cafeb576410"},"vehicle_type_id":"4","last_reported":1700786052,"current_range_meters":16000,"station_id":"ce4bgm92rcd13ifvqbr0","pricing_plan_id":"free"},{"bike_id":"72628ee5-6dff-4a8e-9c6f-cbb02f0dd96b","system_id":"levelo_inurba_marseille","lat":43.311722,"lon":5.387247,"is_reserved":false,"is_disabled":false,"rental_uris":{"android":"levelo://app?vid=72628ee5-6dff-4a8e-9c6f-cbb02f0dd96b","ios":"levelo://app?vid=72628ee5-6dff-4a8e-9c6f-cbb02f0dd96b"},"vehicle_type_id":"4","last_reported":1700786052,"current_range_meters":29600,"station_id":"ce4bgv12rcd13ifvqcp0","pricing_plan_id":"free"},{"bike_id":"7d7917b8-a478-40eb-9d97-3c29db83fe89","system_id":"levelo_inurba_marseille","lat":43.311722,"lon":5.387247,"is_reserved":false,"is_disabled":false,"rental_uris":{"android":"levelo://app?vid=7d7917b8-a478-40eb-9d97-3c29db83fe89","ios":"levelo://app?vid=7d7917b8-a478-40eb-9d97-3c29db83fe89"},"vehicle_type_id":"4","last_reported":1700786052,"current_range_meters":28000,"station_id":"ce4bgv12rcd13ifvqcp0","pricing_plan_id":"free"},{"bike_id":"daeb90ed-1744-4d8b-b9bb-00f0736cbe10","system_id":"levelo_inurba_marseille","lat":43.311722,"lon":5.387247,"is_reserved":false,"is_disabled":false,"rental_uris":{"android":"levelo://app?vid=daeb90ed-1744-4d8b-b9bb-00f0736cbe10","ios":"levelo://app?vid=daeb90ed-1744-4d8b-b9bb-00f0736cbe10"},"vehicle_type_id":"4","last_reported":1700786052,"current_range_meters":30400,"station_id":"ce4bgv12rcd13ifvqcp0","pricing_plan_id":"free"},{"bike_id":"6c8815d2-e69d-4ea2-93f2-13e13754bf40","system_id":"levelo_inurba_marseille","lat":43.311722,"lon":5.387247,"is_reserved":false,"is_disabled":false,"rental_uris":{"android":"levelo://app?vid=6c8815d2-e69d-4ea2-93f2-13e13754bf40","ios":"levelo://app?vid=6c8815d2-e69d-4ea2-93f2-13e13754bf40"},"vehicle_type_id":"4","last_reported":1700786052,"current_range_meters":28000,"station_id":"ce4bgv12rcd13ifvqcp0","pricing_plan_id":"free"},{"bike_id":"d53e9b40-d6d4-47e5-9936-344164111802","system_id":"levelo_inurba_marseille","lat":43.311722,"lon":5.387247,"is_reserved":false,"is_disabled":false,"rental_uris":{"android":"levelo://app?vid=d53e9b40-d6d4-47e5-9936-344164111802","ios":"levelo://app?vid=d53e9b40-d6d4-47e5-9936-344164111802"},"vehicle_type_id":"4","last_reported":1700786052,"current_range_meters":14800,"station_id":"ce4bgv12rcd13ifvqcp0","pricing_plan_id":"free"},{"bike_id":"7263550a-732f-4c74-8c8a-3ec225b5f907","system_id":"levelo_inurba_marseille","lat":43.299243,"lon":5.37481,"is_reserved":false,"is_disabled":false,"rental_uris":{"android":"levelo://app?vid=7263550a-732f-4c74-8c8a-3ec225b5f907","ios":"levelo://app?vid=7263550a-732f-4c74-8c8a-3ec225b5f907"},"vehicle_type_id":"4","last_reported":1700786052,"current_range_meters":28000,"station_id":"ce4bgjh2rcd13ifvqbg0","pricing_plan_id":"free"},{"bike_id":"5a877054-2cf2-41cb-b572-968f14afeb92","system_id":"levelo_inurba_marseille","lat":43.322872,"lon":5.382756,"is_reserved":false,"is_disabled":false,"rental_uris":{"android":"levelo://app?vid=5a877054-2cf2-41cb-b572-968f14afeb92","ios":"levelo://app?vid=5a877054-2cf2-41cb-b572-968f14afeb92"},"vehicle_type_id":"4","last_reported":1700786052,"current_range_meters":28000,"station_id":"ce4bhr12rcd13ifvqhqg","pricing_plan_id":"free"},{"bike_id":"e20278c6-b58d-4286-b77b-9f26462eade6","system_id":"levelo_inurba_marseille","lat":43.322872,"lon":5.382756,"is_reserved":false,"is_disabled":false,"rental_uris":{"android":"levelo://app?vid=e20278c6-b58d-4286-b77b-9f26462eade6","ios":"levelo://app?vid=e20278c6-b58d-4286-b77b-9f26462eade6"},"vehicle_type_id":"4","last_reported":1700786052,"current_range_meters":31200,"station_id":"ce4bhr12rcd13ifvqhqg","pricing_plan_id":"free"},{"bike_id":"ddd3fff7-fc57-48f9-825f-f47d18d1dbee","system_id":"levelo_inurba_marseille","lat":43.328371,"lon":5.366909,"is_reserved":false,"is_disabled":false,"rental_uris":{"android":"levelo://app?vid=ddd3fff7-fc57-48f9-825f-f47d18d1dbee","ios":"levelo://app?vid=ddd3fff7-fc57-48f9-825f-f47d18d1dbee"},"vehicle_type_id":"4","last_reported":1700786052,"current_range_meters":2400,"station_id":"ce4bhs92rcd13ifvqi0g","pricing_plan_id":"free"},{"bike_id":"4d7509f5-9559-42ca-a60d-bef9e80f0981","system_id":"levelo_inurba_marseille","lat":43.29958,"lon":5.37914,"is_reserved":false,"is_disabled":false,"rental_uris":{"android":"levelo://app?vid=4d7509f5-9559-42ca-a60d-bef9e80f0981","ios":"levelo://app?vid=4d7509f5-9559-42ca-a60d-bef9e80f0981"},"vehicle_type_id":"4","last_reported":1700786052,"current_range_meters":0,"station_id":"","pricing_plan_id":"free"},{"bike_id":"ce134bc8-1078-4a15-b28e-d94d66dd997f","system_id":"levelo_inurba_marseille","lat":43.309589,"lon":5.390258,"is_reserved":false,"is_disabled":false,"rental_uris":{"android":"levelo://app?vid=ce134bc8-1078-4a15-b28e-d94d66dd997f","ios":"levelo://app?vid=ce134bc8-1078-4a15-b28e-d94d66dd997f"},"vehicle_type_id":"4","last_reported":1700786052,"current_range_meters":10000,"station_id":"ce4bgup2rcd13ifvqco0","pricing_plan_id":"free"},{"bike_id":"77b20085-64aa-42a2-9011-25d377da02d5","system_id":"levelo_inurba_marseille","lat":43.317557,"lon":5.390173,"is_reserved":false,"is_disabled":false,"rental_uris":{"android":"levelo://app?vid=77b20085-64aa-42a2-9011-25d377da02d5","ios":"levelo://app?vid=77b20085-64aa-42a2-9011-25d377da02d5"},"vehicle_type_id":"4","last_reported":1700786052,"current_range_meters":29200,"station_id":"ce4bhqp2rcd13ifvqhng","pricing_plan_id":"free"},{"bike_id":"a1bdb89d-3c72-4b37-88bf-c040491b8d68","system_id":"levelo_inurba_marseille","lat":43.317557,"lon":5.390173,"is_reserved":false,"is_disabled":false,"rental_uris":{"android":"levelo://app?vid=a1bdb89d-3c72-4b37-88bf-c040491b8d68","ios":"levelo://app?vid=a1bdb89d-3c72-4b37-88bf-c040491b8d68"},"vehicle_type_id":"4","last_reported":1700786052,"current_range_meters":31600,"station_id":"ce4bhqp2rcd13ifvqhng","pricing_plan_id":"free"},{"bike_id":"e870a805-2fbd-40ae-aeb8-108dc772ed5d","system_id":"levelo_inurba_marseille","lat":43.317587,"lon":5.390272,"is_reserved":false,"is_disabled":false,"rental_uris":{"android":"levelo://app?vid=e870a805-2fbd-40ae-aeb8-108dc772ed5d","ios":"levelo://app?vid=e870a805-2fbd-40ae-aeb8-108dc772ed5d"},"vehicle_type_id":"4","last_reported":1700786052,"current_range_meters":1600,"station_id":"ce4bhqp2rcd13ifvqhng","pricing_plan_id":"free"},{"bike_id":"baf97c54-2713-4b20-904c-6d97b29966fa","system_id":"levelo_inurba_marseille","lat":43.298037,"lon":5.381066,"is_reserved":false,"is_disabled":false,"rental_uris":{"android":"levelo://app?vid=baf97c54-2713-4b20-904c-6d97b29966fa","ios":"levelo://app?vid=baf97c54-2713-4b20-904c-6d97b29966fa"},"vehicle_type_id":"4","last_reported":1700786052,"current_range_meters":20400,"station_id":"ce4bgip2rcd13ifvqbb0","pricing_plan_id":"free"},{"bike_id":"ec1f7b09-97e2-473e-8f16-5173f3fd4bb2","system_id":"levelo_inurba_marseille","lat":43.30441,"lon":5.38886,"is_reserved":false,"is_disabled":false,"rental_uris":{"android":"levelo://app?vid=ec1f7b09-97e2-473e-8f16-5173f3fd4bb2","ios":"levelo://app?vid=ec1f7b09-97e2-473e-8f16-5173f3fd4bb2"},"vehicle_type_id":"4","last_reported":1700786052,"current_range_meters":0,"station_id":"ce4bgk12rcd13ifvqbi0","pricing_plan_id":"free"},{"bike_id":"8de78233-ae16-48b6-ae9d-8edc74058c2e","system_id":"levelo_inurba_marseille","lat":43.30442,"lon":5.38889,"is_reserved":false,"is_disabled":false,"rental_uris":{"android":"levelo://app?vid=8de78233-ae16-48b6-ae9d-8edc74058c2e","ios":"levelo://app?vid=8de78233-ae16-48b6-ae9d-8edc74058c2e"},"vehicle_type_id":"4","last_reported":1700786052,"current_range_meters":3600,"station_id":"ce4bgk12rcd13ifvqbi0","pricing_plan_id":"free"},{"bike_id":"c6b7b949-1abe-4897-9547-61ec1c2a7dd3","system_id":"levelo_inurba_marseille","lat":43.296263,"lon":5.377094,"is_reserved":false,"is_disabled":false,"rental_uris":{"android":"levelo://app?vid=c6b7b949-1abe-4897-9547-61ec1c2a7dd3","ios":"levelo://app?vid=c6b7b949-1abe-4897-9547-61ec1c2a7dd3"},"vehicle_type_id":"4","last_reported":1700786052,"current_range_meters":0,"station_id":"ce4bgi92rcd13ifvqb90","pricing_plan_id":"free"},{"bike_id":"c7404532-9796-4173-b2e6-2235b9ede2b1","system_id":"levelo_inurba_marseille","lat":43.30086,"lon":5.38696,"is_reserved":false,"is_disabled":false,"rental_uris":{"android":"levelo://app?vid=c7404532-9796-4173-b2e6-2235b9ede2b1","ios":"levelo://app?vid=c7404532-9796-4173-b2e6-2235b9ede2b1"},"vehicle_type_id":"4","last_reported":1700786052,"current_range_meters":0,"station_id":"","pricing_plan_id":"free"},{"bike_id":"6b621983-5e9e-42f7-990d-ad5a093820d2","system_id":"levelo_inurba_marseille","lat":43.293801,"lon":5.363066,"is_reserved":false,"is_disabled":false,"rental_uris":{"android":"levelo://app?vid=6b621983-5e9e-42f7-990d-ad5a093820d2","ios":"levelo://app?vid=6b621983-5e9e-42f7-990d-ad5a093820d2"},"vehicle_type_id":"4","last_reported":1700786052,"current_range_meters":6400,"station_id":"","pricing_plan_id":"free"},{"bike_id":"14a21fb5-25fc-445c-954d-134a7eed4929","system_id":"levelo_inurba_marseille","lat":43.32364,"lon":5.38881,"is_reserved":false,"is_disabled":false,"rental_uris":{"android":"levelo://app?vid=14a21fb5-25fc-445c-954d-134a7eed4929","ios":"levelo://app?vid=14a21fb5-25fc-445c-954d-134a7eed4929"},"vehicle_type_id":"4","last_reported":1700786052,"current_range_meters":4800,"station_id":"ce4bhqp2rcd13ifvqhog","pricing_plan_id":"free"},{"bike_id":"59398d6a-1eaf-4e92-b0ad-03db71680ea9","system_id":"levelo_inurba_marseille","lat":43.32367,"lon":5.388836,"is_reserved":false,"is_disabled":false,"rental_uris":{"android":"levelo://app?vid=59398d6a-1eaf-4e92-b0ad-03db71680ea9","ios":"levelo://app?vid=59398d6a-1eaf-4e92-b0ad-03db71680ea9"},"vehicle_type_id":"4","last_reported":1700786052,"current_range_meters":3600,"station_id":"ce4bhqp2rcd13ifvqhog","pricing_plan_id":"free"},{"bike_id":"3b5ce91f-4509-4d53-8414-319f702fbfed","system_id":"levelo_inurba_marseille","lat":43.32367,"lon":5.388836,"is_reserved":false,"is_disabled":false,"rental_uris":{"android":"levelo://app?vid=3b5ce91f-4509-4d53-8414-319f702fbfed","ios":"levelo://app?vid=3b5ce91f-4509-4d53-8414-319f702fbfed"},"vehicle_type_id":"4","last_reported":1700786052,"current_range_meters":6000,"station_id":"ce4bhqp2rcd13ifvqhog","pricing_plan_id":"free"},{"bike_id":"6dc0778c-d74c-419b-82de-139a2a736522","system_id":"levelo_inurba_marseille","lat":43.29268,"lon":5.36849,"is_reserved":false,"is_disabled":false,"rental_uris":{"android":"levelo://app?vid=6dc0778c-d74c-419b-82de-139a2a736522","ios":"levelo://app?vid=6dc0778c-d74c-419b-82de-139a2a736522"},"vehicle_type_id":"4","last_reported":1700786052,"current_range_meters":18000,"station_id":"ce4bhbp2rcd13ifvqesg","pricing_plan_id":"free"},{"bike_id":"c4ae45a7-adb2-4b5a-8b06-20a64bc7bd7c","system_id":"levelo_inurba_marseille","lat":43.292311,"lon":5.360731,"is_reserved":false,"is_disabled":false,"rental_uris":{"android":"levelo://app?vid=c4ae45a7-adb2-4b5a-8b06-20a64bc7bd7c","ios":"levelo://app?vid=c4ae45a7-adb2-4b5a-8b06-20a64bc7bd7c"},"vehicle_type_id":"4","last_reported":1700786052,"current_range_meters":28800,"station_id":"ce4bhbh2rcd13ifvqeqg","pricing_plan_id":"free"},{"bike_id":"ffeb7563-29ca-4914-aa55-48dde226176a","system_id":"levelo_inurba_marseille","lat":43.291671,"lon":5.371575,"is_reserved":false,"is_disabled":false,"rental_uris":{"android":"levelo://app?vid=ffeb7563-29ca-4914-aa55-48dde226176a","ios":"levelo://app?vid=ffeb7563-29ca-4914-aa55-48dde226176a"},"vehicle_type_id":"4","last_reported":1700786052,"current_range_meters":1200,"station_id":"ce4bha92rcd13ifvqeh0","pricing_plan_id":"free"},{"bike_id":"2f1bfd2d-9692-47f4-b7ed-6a818948afc3","system_id":"levelo_inurba_marseille","lat":43.291994,"lon":5.357886,"is_reserved":false,"is_disabled":false,"rental_uris":{"android":"levelo://app?vid=2f1bfd2d-9692-47f4-b7ed-6a818948afc3","ios":"levelo://app?vid=2f1bfd2d-9692-47f4-b7ed-6a818948afc3"},"vehicle_type_id":"4","last_reported":1700786052,"current_range_meters":0,"station_id":"ce4bhb12rcd13ifvqel0","pricing_plan_id":"free"},{"bike_id":"95f1c94f-3f4b-4a0a-adc0-24221fcd6548","system_id":"levelo_inurba_marseille","lat":43.313187,"lon":5.39685,"is_reserved":false,"is_disabled":false,"rental_uris":{"android":"levelo://app?vid=95f1c94f-3f4b-4a0a-adc0-24221fcd6548","ios":"levelo://app?vid=95f1c94f-3f4b-4a0a-adc0-24221fcd6548"},"vehicle_type_id":"4","last_reported":1700786052,"current_range_meters":18400,"station_id":"ce4bgvp2rcd13ifvqcu0","pricing_plan_id":"free"},{"bike_id":"65488e66-41ec-4b9a-a8ee-38dbbff7faed","system_id":"levelo_inurba_marseille","lat":43.313291,"lon":5.396838,"is_reserved":false,"is_disabled":false,"rental_uris":{"android":"levelo://app?vid=65488e66-41ec-4b9a-a8ee-38dbbff7faed","ios":"levelo://app?vid=65488e66-41ec-4b9a-a8ee-38dbbff7faed"},"vehicle_type_id":"4","last_reported":1700786052,"current_range_meters":18800,"station_id":"ce4bgvp2rcd13ifvqcu0","pricing_plan_id":"free"},{"bike_id":"26e807fd-59c1-46e5-ab9a-d4bbb6af95d0","system_id":"levelo_inurba_marseille","lat":43.313306,"lon":5.396918,"is_reserved":false,"is_disabled":false,"rental_uris":{"android":"levelo://app?vid=26e807fd-59c1-46e5-ab9a-d4bbb6af95d0","ios":"levelo://app?vid=26e807fd-59c1-46e5-ab9a-d4bbb6af95d0"},"vehicle_type_id":"4","last_reported":1700786052,"current_range_meters":29600,"station_id":"ce4bgvp2rcd13ifvqcu0","pricing_plan_id":"free"},{"bike_id":"d449de61-9601-45a0-b3f8-eda74045c90b","system_id":"levelo_inurba_marseille","lat":43.31329,"lon":5.39693,"is_reserved":false,"is_disabled":false,"rental_uris":{"android":"levelo://app?vid=d449de61-9601-45a0-b3f8-eda74045c90b","ios":"levelo://app?vid=d449de61-9601-45a0-b3f8-eda74045c90b"},"vehicle_type_id":"4","last_reported":1700786052,"current_range_meters":30400,"station_id":"ce4bgvp2rcd13ifvqcu0","pricing_plan_id":"free"},{"bike_id":"a7bda7b1-13d0-4c2e-bf9c-8e6136c75ca0","system_id":"levelo_inurba_marseille","lat":43.309047,"lon":5.396551,"is_reserved":false,"is_disabled":false,"rental_uris":{"android":"levelo://app?vid=a7bda7b1-13d0-4c2e-bf9c-8e6136c75ca0","ios":"levelo://app?vid=a7bda7b1-13d0-4c2e-bf9c-8e6136c75ca0"},"vehicle_type_id":"4","last_reported":1700786052,"current_range_meters":28400,"station_id":"ce4bh012rcd13ifvqcv0","pricing_plan_id":"free"},{"bike_id":"6c2baf84-7580-408d-90f0-3a280a35177f","system_id":"levelo_inurba_marseille","lat":43.313291,"lon":5.396838,"is_reserved":false,"is_disabled":false,"rental_uris":{"android":"levelo://app?vid=6c2baf84-7580-408d-90f0-3a280a35177f","ios":"levelo://app?vid=6c2baf84-7580-408d-90f0-3a280a35177f"},"vehicle_type_id":"4","last_reported":1700786052,"current_range_meters":4800,"station_id":"ce4bgvp2rcd13ifvqcu0","pricing_plan_id":"free"},{"bike_id":"bfeda098-ec27-4ff7-ba82-cc314a7b5c10","system_id":"levelo_inurba_marseille","lat":43.31331,"lon":5.39694,"is_reserved":false,"is_disabled":false,"rental_uris":{"android":"levelo://app?vid=bfeda098-ec27-4ff7-ba82-cc314a7b5c10","ios":"levelo://app?vid=bfeda098-ec27-4ff7-ba82-cc314a7b5c10"},"vehicle_type_id":"4","last_reported":1700786052,"current_range_meters":17200,"station_id":"ce4bgvp2rcd13ifvqcu0","pricing_plan_id":"free"},{"bike_id":"05921b31-a307-42e4-8a25-d0dfff60651e","system_id":"levelo_inurba_marseille","lat":43.309038,"lon":5.396546,"is_reserved":false,"is_disabled":false,"rental_uris":{"android":"levelo://app?vid=05921b31-a307-42e4-8a25-d0dfff60651e","ios":"levelo://app?vid=05921b31-a307-42e4-8a25-d0dfff60651e"},"vehicle_type_id":"4","last_reported":1700786052,"current_range_meters":17600,"station_id":"ce4bh012rcd13ifvqcv0","pricing_plan_id":"free"},{"bike_id":"4a266fcd-a599-4a24-a850-2abb9c2898ba","system_id":"levelo_inurba_marseille","lat":43.309038,"lon":5.396546,"is_reserved":false,"is_disabled":false,"rental_uris":{"android":"levelo://app?vid=4a266fcd-a599-4a24-a850-2abb9c2898ba","ios":"levelo://app?vid=4a266fcd-a599-4a24-a850-2abb9c2898ba"},"vehicle_type_id":"4","last_reported":1700786052,"current_range_meters":2800,"station_id":"ce4bh012rcd13ifvqcv0","pricing_plan_id":"free"},{"bike_id":"1d4213e4-e6eb-4c81-8721-fe22f361d186","system_id":"levelo_inurba_marseille","lat":43.313291,"lon":5.396838,"is_reserved":false,"is_disabled":false,"rental_uris":{"android":"levelo://app?vid=1d4213e4-e6eb-4c81-8721-fe22f361d186","ios":"levelo://app?vid=1d4213e4-e6eb-4c81-8721-fe22f361d186"},"vehicle_type_id":"4","last_reported":1700786052,"current_range_meters":12000,"station_id":"ce4bgvp2rcd13ifvqcu0","pricing_plan_id":"free"},{"bike_id":"c902acec-accf-4204-9f79-d9a9d15fab65","system_id":"levelo_inurba_marseille","lat":43.31318,"lon":5.39699,"is_reserved":false,"is_disabled":false,"rental_uris":{"android":"levelo://app?vid=c902acec-accf-4204-9f79-d9a9d15fab65","ios":"levelo://app?vid=c902acec-accf-4204-9f79-d9a9d15fab65"},"vehicle_type_id":"4","last_reported":1700786052,"current_range_meters":6400,"station_id":"ce4bgvp2rcd13ifvqcu0","pricing_plan_id":"free"},{"bike_id":"f2fe511d-3f89-4a46-974a-a264b2745faa","system_id":"levelo_inurba_marseille","lat":43.31319,"lon":5.39699,"is_reserved":false,"is_disabled":false,"rental_uris":{"android":"levelo://app?vid=f2fe511d-3f89-4a46-974a-a264b2745faa","ios":"levelo://app?vid=f2fe511d-3f89-4a46-974a-a264b2745faa"},"vehicle_type_id":"4","last_reported":1700786052,"current_range_meters":17600,"station_id":"ce4bgvp2rcd13ifvqcu0","pricing_plan_id":"free"},{"bike_id":"0e8ddf2c-ea88-4fdf-a759-96a98966c001","system_id":"levelo_inurba_marseille","lat":43.309038,"lon":5.396546,"is_reserved":false,"is_disabled":false,"rental_uris":{"android":"levelo://app?vid=0e8ddf2c-ea88-4fdf-a759-96a98966c001","ios":"levelo://app?vid=0e8ddf2c-ea88-4fdf-a759-96a98966c001"},"vehicle_type_id":"4","last_reported":1700786052,"current_range_meters":17600,"station_id":"ce4bh012rcd13ifvqcv0","pricing_plan_id":"free"},{"bike_id":"110757b0-4a47-418d-80b3-8b3289c85749","system_id":"levelo_inurba_marseille","lat":43.309038,"lon":5.396546,"is_reserved":false,"is_disabled":false,"rental_uris":{"android":"levelo://app?vid=110757b0-4a47-418d-80b3-8b3289c85749","ios":"levelo://app?vid=110757b0-4a47-418d-80b3-8b3289c85749"},"vehicle_type_id":"4","last_reported":1700786052,"current_range_meters":26000,"station_id":"ce4bh012rcd13ifvqcv0","pricing_plan_id":"free"},{"bike_id":"1d10a1b1-d55f-4279-928a-9c6858f32ca9","system_id":"levelo_inurba_marseille","lat":43.33211,"lon":5.38112,"is_reserved":false,"is_disabled":false,"rental_uris":{"android":"levelo://app?vid=1d10a1b1-d55f-4279-928a-9c6858f32ca9","ios":"levelo://app?vid=1d10a1b1-d55f-4279-928a-9c6858f32ca9"},"vehicle_type_id":"4","last_reported":1700786052,"current_range_meters":0,"station_id":"","pricing_plan_id":"free"},{"bike_id":"08e4d0df-0224-4663-80a8-8d40db1f66d4","system_id":"levelo_inurba_marseille","lat":43.29026,"lon":5.366405,"is_reserved":false,"is_disabled":false,"rental_uris":{"android":"levelo://app?vid=08e4d0df-0224-4663-80a8-8d40db1f66d4","ios":"levelo://app?vid=08e4d0df-0224-4663-80a8-8d40db1f66d4"},"vehicle_type_id":"4","last_reported":1700786052,"current_range_meters":0,"station_id":"","pricing_plan_id":"free"},{"bike_id":"14fc1ff8-d19b-48e8-9599-d27c7e220523","system_id":"levelo_inurba_marseille","lat":43.302008,"lon":5.394694,"is_reserved":false,"is_disabled":false,"rental_uris":{"android":"levelo://app?vid=14fc1ff8-d19b-48e8-9599-d27c7e220523","ios":"levelo://app?vid=14fc1ff8-d19b-48e8-9599-d27c7e220523"},"vehicle_type_id":"4","last_reported":1700786052,"current_range_meters":1200,"station_id":"ce4bh0p2rcd13ifvqd70","pricing_plan_id":"free"},{"bike_id":"12c25994-1955-4f30-ac35-76858d63fe9b","system_id":"levelo_inurba_marseille","lat":43.290624,"lon":5.359245,"is_reserved":false,"is_disabled":false,"rental_uris":{"android":"levelo://app?vid=12c25994-1955-4f30-ac35-76858d63fe9b","ios":"levelo://app?vid=12c25994-1955-4f30-ac35-76858d63fe9b"},"vehicle_type_id":"4","last_reported":1700786052,"current_range_meters":30000,"station_id":"ce4bha92rcd13ifvqeg0","pricing_plan_id":"free"},{"bike_id":"31c1e1c2-82b6-4c90-8694-42a6a6b7d7b6","system_id":"levelo_inurba_marseille","lat":43.290631,"lon":5.359244,"is_reserved":false,"is_disabled":false,"rental_uris":{"android":"levelo://app?vid=31c1e1c2-82b6-4c90-8694-42a6a6b7d7b6","ios":"levelo://app?vid=31c1e1c2-82b6-4c90-8694-42a6a6b7d7b6"},"vehicle_type_id":"4","last_reported":1700786052,"current_range_meters":30000,"station_id":"ce4bha92rcd13ifvqeg0","pricing_plan_id":"free"},{"bike_id":"353cfd9e-5057-4b08-bdfb-e420a95bfb56","system_id":"levelo_inurba_marseille","lat":43.290631,"lon":5.359244,"is_reserved":false,"is_disabled":false,"rental_uris":{"android":"levelo://app?vid=353cfd9e-5057-4b08-bdfb-e420a95bfb56","ios":"levelo://app?vid=353cfd9e-5057-4b08-bdfb-e420a95bfb56"},"vehicle_type_id":"4","last_reported":1700786052,"current_range_meters":28800,"station_id":"ce4bha92rcd13ifvqeg0","pricing_plan_id":"free"},{"bike_id":"a538ab40-5009-4930-ac8e-7567cd6125a0","system_id":"levelo_inurba_marseille","lat":43.290631,"lon":5.359244,"is_reserved":false,"is_disabled":false,"rental_uris":{"android":"levelo://app?vid=a538ab40-5009-4930-ac8e-7567cd6125a0","ios":"levelo://app?vid=a538ab40-5009-4930-ac8e-7567cd6125a0"},"vehicle_type_id":"4","last_reported":1700786052,"current_range_meters":16800,"station_id":"ce4bha92rcd13ifvqeg0","pricing_plan_id":"free"},{"bike_id":"3e1128ea-a1c3-483d-9e91-c3637ba84d5f","system_id":"levelo_inurba_marseille","lat":43.28941,"lon":5.366375,"is_reserved":false,"is_disabled":false,"rental_uris":{"android":"levelo://app?vid=3e1128ea-a1c3-483d-9e91-c3637ba84d5f","ios":"levelo://app?vid=3e1128ea-a1c3-483d-9e91-c3637ba84d5f"},"vehicle_type_id":"4","last_reported":1700786052,"current_range_meters":0,"station_id":"ce4bhap2rcd13ifvqek0","pricing_plan_id":"free"},{"bike_id":"48ff5181-53e9-44bb-b177-dfa179908734","system_id":"levelo_inurba_marseille","lat":43.289468,"lon":5.363719,"is_reserved":false,"is_disabled":false,"rental_uris":{"android":"levelo://app?vid=48ff5181-53e9-44bb-b177-dfa179908734","ios":"levelo://app?vid=48ff5181-53e9-44bb-b177-dfa179908734"},"vehicle_type_id":"4","last_reported":1700786052,"current_range_meters":22000,"station_id":"ce4bhc92rcd13ifvqetg","pricing_plan_id":"free"},{"bike_id":"741242c1-6c32-453e-9345-7376206fd7bc","system_id":"levelo_inurba_marseille","lat":43.289362,"lon":5.364018,"is_reserved":false,"is_disabled":false,"rental_uris":{"android":"levelo://app?vid=741242c1-6c32-453e-9345-7376206fd7bc","ios":"levelo://app?vid=741242c1-6c32-453e-9345-7376206fd7bc"},"vehicle_type_id":"4","last_reported":1700786052,"current_range_meters":25200,"station_id":"ce4bhc92rcd13ifvqetg","pricing_plan_id":"free"},{"bike_id":"c52fec84-ac80-4310-9828-e5df8ec6c70b","system_id":"levelo_inurba_marseille","lat":43.289468,"lon":5.363719,"is_reserved":false,"is_disabled":false,"rental_uris":{"android":"levelo://app?vid=c52fec84-ac80-4310-9828-e5df8ec6c70b","ios":"levelo://app?vid=c52fec84-ac80-4310-9828-e5df8ec6c70b"},"vehicle_type_id":"4","last_reported":1700786052,"current_range_meters":28000,"station_id":"ce4bhc92rcd13ifvqetg","pricing_plan_id":"free"},{"bike_id":"0e65eb6a-bd1b-4126-bdae-e42b05b9fe43","system_id":"levelo_inurba_marseille","lat":43.30414,"lon":5.39754,"is_reserved":false,"is_disabled":false,"rental_uris":{"android":"levelo://app?vid=0e65eb6a-bd1b-4126-bdae-e42b05b9fe43","ios":"levelo://app?vid=0e65eb6a-bd1b-4126-bdae-e42b05b9fe43"},"vehicle_type_id":"4","last_reported":1700786052,"current_range_meters":26400,"station_id":"ce4bh092rcd13ifvqd20","pricing_plan_id":"free"},{"bike_id":"701670d6-fc97-4b89-9c5e-0bd96ccc65c6","system_id":"levelo_inurba_marseille","lat":43.290103,"lon":5.356114,"is_reserved":false,"is_disabled":false,"rental_uris":{"android":"levelo://app?vid=701670d6-fc97-4b89-9c5e-0bd96ccc65c6","ios":"levelo://app?vid=701670d6-fc97-4b89-9c5e-0bd96ccc65c6"},"vehicle_type_id":"4","last_reported":1700786052,"current_range_meters":24800,"station_id":"ce4bhb92rcd13ifvqen0","pricing_plan_id":"free"},{"bike_id":"0095e0ed-7d27-4762-9636-69b606f14ea0","system_id":"levelo_inurba_marseille","lat":43.33043,"lon":5.38919,"is_reserved":false,"is_disabled":false,"rental_uris":{"android":"levelo://app?vid=0095e0ed-7d27-4762-9636-69b606f14ea0","ios":"levelo://app?vid=0095e0ed-7d27-4762-9636-69b606f14ea0"},"vehicle_type_id":"4","last_reported":1700786052,"current_range_meters":800,"station_id":"ce4bhr92rcd13ifvqhrg","pricing_plan_id":"free"},{"bike_id":"e585230a-53f5-4f7d-bf93-fe2d5c446e87","system_id":"levelo_inurba_marseille","lat":43.33044,"lon":5.38918,"is_reserved":false,"is_disabled":false,"rental_uris":{"android":"levelo://app?vid=e585230a-53f5-4f7d-bf93-fe2d5c446e87","ios":"levelo://app?vid=e585230a-53f5-4f7d-bf93-fe2d5c446e87"},"vehicle_type_id":"4","last_reported":1700786052,"current_range_meters":0,"station_id":"ce4bhr92rcd13ifvqhrg","pricing_plan_id":"free"},{"bike_id":"9747ff73-7f10-452c-b7ea-4f413d418e69","system_id":"levelo_inurba_marseille","lat":43.290103,"lon":5.356114,"is_reserved":false,"is_disabled":false,"rental_uris":{"android":"levelo://app?vid=9747ff73-7f10-452c-b7ea-4f413d418e69","ios":"levelo://app?vid=9747ff73-7f10-452c-b7ea-4f413d418e69"},"vehicle_type_id":"4","last_reported":1700786052,"current_range_meters":27600,"station_id":"ce4bhb92rcd13ifvqen0","pricing_plan_id":"free"},{"bike_id":"9affd314-0c44-4942-9735-312093611a47","system_id":"levelo_inurba_marseille","lat":43.290104,"lon":5.356111,"is_reserved":false,"is_disabled":false,"rental_uris":{"android":"levelo://app?vid=9affd314-0c44-4942-9735-312093611a47","ios":"levelo://app?vid=9affd314-0c44-4942-9735-312093611a47"},"vehicle_type_id":"4","last_reported":1700786052,"current_range_meters":25600,"station_id":"ce4bhb92rcd13ifvqen0","pricing_plan_id":"free"},{"bike_id":"5399cd2d-7357-4711-811a-df0d424096c3","system_id":"levelo_inurba_marseille","lat":43.29792,"lon":5.393596,"is_reserved":false,"is_disabled":false,"rental_uris":{"android":"levelo://app?vid=5399cd2d-7357-4711-811a-df0d424096c3","ios":"levelo://app?vid=5399cd2d-7357-4711-811a-df0d424096c3"},"vehicle_type_id":"4","last_reported":1700786052,"current_range_meters":0,"station_id":"chh1huq6cuj3fo74tm60","pricing_plan_id":"free"},{"bike_id":"24a24372-5b8f-4a4a-b514-6aae93fd3c96","system_id":"levelo_inurba_marseille","lat":43.297815,"lon":5.393548,"is_reserved":false,"is_disabled":false,"rental_uris":{"android":"levelo://app?vid=24a24372-5b8f-4a4a-b514-6aae93fd3c96","ios":"levelo://app?vid=24a24372-5b8f-4a4a-b514-6aae93fd3c96"},"vehicle_type_id":"4","last_reported":1700786052,"current_range_meters":2400,"station_id":"chh1huq6cuj3fo74tm60","pricing_plan_id":"free"},{"bike_id":"a98d3146-7eed-466b-9fe5-96c74f9a412c","system_id":"levelo_inurba_marseille","lat":43.2901,"lon":5.381269,"is_reserved":false,"is_disabled":false,"rental_uris":{"android":"levelo://app?vid=a98d3146-7eed-466b-9fe5-96c74f9a412c","ios":"levelo://app?vid=a98d3146-7eed-466b-9fe5-96c74f9a412c"},"vehicle_type_id":"4","last_reported":1700786052,"current_range_meters":5200,"station_id":"ce4bh4p2rcd13ifvqe1g","pricing_plan_id":"free"},{"bike_id":"05a66525-a622-4ae0-bcfd-3bdc44028202","system_id":"levelo_inurba_marseille","lat":43.28856,"lon":5.358371,"is_reserved":false,"is_disabled":false,"rental_uris":{"android":"levelo://app?vid=05a66525-a622-4ae0-bcfd-3bdc44028202","ios":"levelo://app?vid=05a66525-a622-4ae0-bcfd-3bdc44028202"},"vehicle_type_id":"4","last_reported":1700786052,"current_range_meters":5200,"station_id":"ce4bhb12rcd13ifvqem0","pricing_plan_id":"free"},{"bike_id":"f5593e47-2a04-4df6-8f74-6e7fd26c90fb","system_id":"levelo_inurba_marseille","lat":43.28856,"lon":5.358371,"is_reserved":false,"is_disabled":false,"rental_uris":{"android":"levelo://app?vid=f5593e47-2a04-4df6-8f74-6e7fd26c90fb","ios":"levelo://app?vid=f5593e47-2a04-4df6-8f74-6e7fd26c90fb"},"vehicle_type_id":"4","last_reported":1700786052,"current_range_meters":27200,"station_id":"ce4bhb12rcd13ifvqem0","pricing_plan_id":"free"},{"bike_id":"c43df7d2-4ab7-4878-a501-629d451379ab","system_id":"levelo_inurba_marseille","lat":43.312609,"lon":5.401662,"is_reserved":false,"is_disabled":false,"rental_uris":{"android":"levelo://app?vid=c43df7d2-4ab7-4878-a501-629d451379ab","ios":"levelo://app?vid=c43df7d2-4ab7-4878-a501-629d451379ab"},"vehicle_type_id":"4","last_reported":1700786052,"current_range_meters":9200,"station_id":"ce4bh092rcd13ifvqd30","pricing_plan_id":"free"},{"bike_id":"ccbb5111-4430-4065-a336-fcbb847ac794","system_id":"levelo_inurba_marseille","lat":43.309371,"lon":5.401449,"is_reserved":false,"is_disabled":false,"rental_uris":{"android":"levelo://app?vid=ccbb5111-4430-4065-a336-fcbb847ac794","ios":"levelo://app?vid=ccbb5111-4430-4065-a336-fcbb847ac794"},"vehicle_type_id":"4","last_reported":1700786052,"current_range_meters":23600,"station_id":"ce4bgvp2rcd13ifvqct0","pricing_plan_id":"free"},{"bike_id":"872532d4-8ac2-4459-ada0-84761155a88b","system_id":"levelo_inurba_marseille","lat":43.30921,"lon":5.40142,"is_reserved":false,"is_disabled":false,"rental_uris":{"android":"levelo://app?vid=872532d4-8ac2-4459-ada0-84761155a88b","ios":"levelo://app?vid=872532d4-8ac2-4459-ada0-84761155a88b"},"vehicle_type_id":"4","last_reported":1700786052,"current_range_meters":24000,"station_id":"ce4bgvp2rcd13ifvqct0","pricing_plan_id":"free"},{"bike_id":"fcf9ec2b-5e18-4931-b190-65780f466146","system_id":"levelo_inurba_marseille","lat":43.33754,"lon":5.37457,"is_reserved":false,"is_disabled":false,"rental_uris":{"android":"levelo://app?vid=fcf9ec2b-5e18-4931-b190-65780f466146","ios":"levelo://app?vid=fcf9ec2b-5e18-4931-b190-65780f466146"},"vehicle_type_id":"4","last_reported":1700786052,"current_range_meters":28000,"station_id":"","pricing_plan_id":"free"},{"bike_id":"7c4bb654-590a-4a45-8819-bc3207159329","system_id":"levelo_inurba_marseille","lat":43.306412,"lon":5.401035,"is_reserved":false,"is_disabled":false,"rental_uris":{"android":"levelo://app?vid=7c4bb654-590a-4a45-8819-bc3207159329","ios":"levelo://app?vid=7c4bb654-590a-4a45-8819-bc3207159329"},"vehicle_type_id":"4","last_reported":1700786052,"current_range_meters":20400,"station_id":"ce4bh112rcd13ifvqda0","pricing_plan_id":"free"},{"bike_id":"a893e8a4-4ad4-4559-9b44-43a3796f5654","system_id":"levelo_inurba_marseille","lat":43.3376,"lon":5.37492,"is_reserved":false,"is_disabled":false,"rental_uris":{"android":"levelo://app?vid=a893e8a4-4ad4-4559-9b44-43a3796f5654","ios":"levelo://app?vid=a893e8a4-4ad4-4559-9b44-43a3796f5654"},"vehicle_type_id":"4","last_reported":1700786052,"current_range_meters":24400,"station_id":"","pricing_plan_id":"free"},{"bike_id":"59fbc07d-7269-4e00-be0e-5b9ad5861555","system_id":"levelo_inurba_marseille","lat":43.301117,"lon":5.398795,"is_reserved":false,"is_disabled":false,"rental_uris":{"android":"levelo://app?vid=59fbc07d-7269-4e00-be0e-5b9ad5861555","ios":"levelo://app?vid=59fbc07d-7269-4e00-be0e-5b9ad5861555"},"vehicle_type_id":"4","last_reported":1700786052,"current_range_meters":16400,"station_id":"ce4bh0h2rcd13ifvqd40","pricing_plan_id":"free"},{"bike_id":"da30ff6b-869b-4ef8-a4c3-cacbb73f9f18","system_id":"levelo_inurba_marseille","lat":43.28727,"lon":5.36078,"is_reserved":false,"is_disabled":false,"rental_uris":{"android":"levelo://app?vid=da30ff6b-869b-4ef8-a4c3-cacbb73f9f18","ios":"levelo://app?vid=da30ff6b-869b-4ef8-a4c3-cacbb73f9f18"},"vehicle_type_id":"4","last_reported":1700786052,"current_range_meters":3600,"station_id":"cki0cbj6b192h4jlfktg","pricing_plan_id":"free"},{"bike_id":"e94d67f6-db72-46f9-b690-d295ed8db4ff","system_id":"levelo_inurba_marseille","lat":43.28727,"lon":5.36078,"is_reserved":false,"is_disabled":false,"rental_uris":{"android":"levelo://app?vid=e94d67f6-db72-46f9-b690-d295ed8db4ff","ios":"levelo://app?vid=e94d67f6-db72-46f9-b690-d295ed8db4ff"},"vehicle_type_id":"4","last_reported":1700786052,"current_range_meters":21200,"station_id":"cki0cbj6b192h4jlfktg","pricing_plan_id":"free"},{"bike_id":"72d7d503-d45b-4049-bca9-999c55c09ada","system_id":"levelo_inurba_marseille","lat":43.298681,"lon":5.397225,"is_reserved":false,"is_disabled":false,"rental_uris":{"android":"levelo://app?vid=72d7d503-d45b-4049-bca9-999c55c09ada","ios":"levelo://app?vid=72d7d503-d45b-4049-bca9-999c55c09ada"},"vehicle_type_id":"4","last_reported":1700786052,"current_range_meters":30000,"station_id":"ce4bh0h2rcd13ifvqd50","pricing_plan_id":"free"},{"bike_id":"63b71efd-2ca9-4d7c-92cb-eb0a53b9baf8","system_id":"levelo_inurba_marseille","lat":43.28573,"lon":5.394992,"is_reserved":false,"is_disabled":false,"rental_uris":{"android":"levelo://app?vid=63b71efd-2ca9-4d7c-92cb-eb0a53b9baf8","ios":"levelo://app?vid=63b71efd-2ca9-4d7c-92cb-eb0a53b9baf8"},"vehicle_type_id":"4","last_reported":1700786052,"current_range_meters":30400,"station_id":"ce4bh292rcd13ifvqdg0","pricing_plan_id":"free"},{"bike_id":"8c68fe79-df8c-464a-b88a-9f9e7304a23e","system_id":"levelo_inurba_marseille","lat":43.286903,"lon":5.37401,"is_reserved":false,"is_disabled":false,"rental_uris":{"android":"levelo://app?vid=8c68fe79-df8c-464a-b88a-9f9e7304a23e","ios":"levelo://app?vid=8c68fe79-df8c-464a-b88a-9f9e7304a23e"},"vehicle_type_id":"4","last_reported":1700786052,"current_range_meters":30400,"station_id":"ce4bh3p2rcd13ifvqdq0","pricing_plan_id":"free"},{"bike_id":"7a363a39-a638-4309-bcbc-a334706df507","system_id":"levelo_inurba_marseille","lat":43.289307,"lon":5.38406,"is_reserved":false,"is_disabled":false,"rental_uris":{"android":"levelo://app?vid=7a363a39-a638-4309-bcbc-a334706df507","ios":"levelo://app?vid=7a363a39-a638-4309-bcbc-a334706df507"},"vehicle_type_id":"4","last_reported":1700786052,"current_range_meters":12000,"station_id":"ce4bh612rcd13ifvqe6g","pricing_plan_id":"free"},{"bike_id":"7dba2660-490b-4535-85d3-2d684a3f03a7","system_id":"levelo_inurba_marseille","lat":43.300781,"lon":5.399614,"is_reserved":false,"is_disabled":false,"rental_uris":{"android":"levelo://app?vid=7dba2660-490b-4535-85d3-2d684a3f03a7","ios":"levelo://app?vid=7dba2660-490b-4535-85d3-2d684a3f03a7"},"vehicle_type_id":"4","last_reported":1700786052,"current_range_meters":0,"station_id":"","pricing_plan_id":"free"},{"bike_id":"765e0b53-d05f-4448-a803-eb4f62cfdc09","system_id":"levelo_inurba_marseille","lat":43.299677,"lon":5.398837,"is_reserved":false,"is_disabled":false,"rental_uris":{"android":"levelo://app?vid=765e0b53-d05f-4448-a803-eb4f62cfdc09","ios":"levelo://app?vid=765e0b53-d05f-4448-a803-eb4f62cfdc09"},"vehicle_type_id":"4","last_reported":1700786052,"current_range_meters":17600,"station_id":"","pricing_plan_id":"free"},{"bike_id":"5fc4ac78-da03-41ba-9032-8b1230db40f5","system_id":"levelo_inurba_marseille","lat":43.302759,"lon":5.400793,"is_reserved":false,"is_disabled":false,"rental_uris":{"android":"levelo://app?vid=5fc4ac78-da03-41ba-9032-8b1230db40f5","ios":"levelo://app?vid=5fc4ac78-da03-41ba-9032-8b1230db40f5"},"vehicle_type_id":"4","last_reported":1700786052,"current_range_meters":20800,"station_id":"ce4bgvh2rcd13ifvqcs0","pricing_plan_id":"free"},{"bike_id":"6f9c330e-3b4b-4ec7-8ede-ad09d1ac6681","system_id":"levelo_inurba_marseille","lat":43.302759,"lon":5.400793,"is_reserved":false,"is_disabled":false,"rental_uris":{"android":"levelo://app?vid=6f9c330e-3b4b-4ec7-8ede-ad09d1ac6681","ios":"levelo://app?vid=6f9c330e-3b4b-4ec7-8ede-ad09d1ac6681"},"vehicle_type_id":"4","last_reported":1700786052,"current_range_meters":25200,"station_id":"ce4bgvh2rcd13ifvqcs0","pricing_plan_id":"free"},{"bike_id":"b664086b-eac2-4b9a-8068-eaed9265637d","system_id":"levelo_inurba_marseille","lat":43.287899,"lon":5.382657,"is_reserved":false,"is_disabled":false,"rental_uris":{"android":"levelo://app?vid=b664086b-eac2-4b9a-8068-eaed9265637d","ios":"levelo://app?vid=b664086b-eac2-4b9a-8068-eaed9265637d"},"vehicle_type_id":"4","last_reported":1700786052,"current_range_meters":3600,"station_id":"","pricing_plan_id":"free"},{"bike_id":"a743f456-5a41-43d8-9e15-7dda4b853e2e","system_id":"levelo_inurba_marseille","lat":43.284538,"lon":5.358657,"is_reserved":false,"is_disabled":false,"rental_uris":{"android":"levelo://app?vid=a743f456-5a41-43d8-9e15-7dda4b853e2e","ios":"levelo://app?vid=a743f456-5a41-43d8-9e15-7dda4b853e2e"},"vehicle_type_id":"4","last_reported":1700786052,"current_range_meters":6400,"station_id":"ce4bhah2rcd13ifvqei0","pricing_plan_id":"free"},{"bike_id":"65536051-c83d-4e02-b4dd-4f1f369445db","system_id":"levelo_inurba_marseille","lat":43.284538,"lon":5.358657,"is_reserved":false,"is_disabled":false,"rental_uris":{"android":"levelo://app?vid=65536051-c83d-4e02-b4dd-4f1f369445db","ios":"levelo://app?vid=65536051-c83d-4e02-b4dd-4f1f369445db"},"vehicle_type_id":"4","last_reported":1700786052,"current_range_meters":21600,"station_id":"ce4bhah2rcd13ifvqei0","pricing_plan_id":"free"},{"bike_id":"34229c22-6060-49b5-82ec-c616f1f6c96f","system_id":"levelo_inurba_marseille","lat":43.284538,"lon":5.358657,"is_reserved":false,"is_disabled":false,"rental_uris":{"android":"levelo://app?vid=34229c22-6060-49b5-82ec-c616f1f6c96f","ios":"levelo://app?vid=34229c22-6060-49b5-82ec-c616f1f6c96f"},"vehicle_type_id":"4","last_reported":1700786052,"current_range_meters":31200,"station_id":"ce4bhah2rcd13ifvqei0","pricing_plan_id":"free"},{"bike_id":"7361be71-ad00-4c2e-95fa-00cdcb911106","system_id":"levelo_inurba_marseille","lat":43.284612,"lon":5.358991,"is_reserved":false,"is_disabled":false,"rental_uris":{"android":"levelo://app?vid=7361be71-ad00-4c2e-95fa-00cdcb911106","ios":"levelo://app?vid=7361be71-ad00-4c2e-95fa-00cdcb911106"},"vehicle_type_id":"4","last_reported":1700786052,"current_range_meters":13600,"station_id":"ce4bhah2rcd13ifvqei0","pricing_plan_id":"free"},{"bike_id":"100a7510-514e-41ac-8ae4-f9103fee39e9","system_id":"levelo_inurba_marseille","lat":43.28463,"lon":5.35885,"is_reserved":false,"is_disabled":false,"rental_uris":{"android":"levelo://app?vid=100a7510-514e-41ac-8ae4-f9103fee39e9","ios":"levelo://app?vid=100a7510-514e-41ac-8ae4-f9103fee39e9"},"vehicle_type_id":"4","last_reported":1700786052,"current_range_meters":25600,"station_id":"ce4bhah2rcd13ifvqei0","pricing_plan_id":"free"},{"bike_id":"740f9c17-1e68-41cb-8a69-ab31f3921aad","system_id":"levelo_inurba_marseille","lat":43.284534,"lon":5.358662,"is_reserved":false,"is_disabled":false,"rental_uris":{"android":"levelo://app?vid=740f9c17-1e68-41cb-8a69-ab31f3921aad","ios":"levelo://app?vid=740f9c17-1e68-41cb-8a69-ab31f3921aad"},"vehicle_type_id":"4","last_reported":1700786052,"current_range_meters":7200,"station_id":"ce4bhah2rcd13ifvqei0","pricing_plan_id":"free"},{"bike_id":"bb23c365-8d4d-456e-b94a-f09375cb591e","system_id":"levelo_inurba_marseille","lat":43.284534,"lon":5.358662,"is_reserved":false,"is_disabled":false,"rental_uris":{"android":"levelo://app?vid=bb23c365-8d4d-456e-b94a-f09375cb591e","ios":"levelo://app?vid=bb23c365-8d4d-456e-b94a-f09375cb591e"},"vehicle_type_id":"4","last_reported":1700786052,"current_range_meters":26000,"station_id":"ce4bhah2rcd13ifvqei0","pricing_plan_id":"free"},{"bike_id":"5adad94a-a6bc-4944-a8aa-264ec23de7ca","system_id":"levelo_inurba_marseille","lat":43.284538,"lon":5.358657,"is_reserved":false,"is_disabled":false,"rental_uris":{"android":"levelo://app?vid=5adad94a-a6bc-4944-a8aa-264ec23de7ca","ios":"levelo://app?vid=5adad94a-a6bc-4944-a8aa-264ec23de7ca"},"vehicle_type_id":"4","last_reported":1700786052,"current_range_meters":25200,"station_id":"ce4bhah2rcd13ifvqei0","pricing_plan_id":"free"},{"bike_id":"3a6fe209-cb39-4ae8-8e68-8efb8756b9e2","system_id":"levelo_inurba_marseille","lat":43.28456,"lon":5.35877,"is_reserved":false,"is_disabled":false,"rental_uris":{"android":"levelo://app?vid=3a6fe209-cb39-4ae8-8e68-8efb8756b9e2","ios":"levelo://app?vid=3a6fe209-cb39-4ae8-8e68-8efb8756b9e2"},"vehicle_type_id":"4","last_reported":1700786052,"current_range_meters":20400,"station_id":"ce4bhah2rcd13ifvqei0","pricing_plan_id":"free"},{"bike_id":"7959b209-d234-4f24-9317-d5882be11c3d","system_id":"levelo_inurba_marseille","lat":43.283998,"lon":5.375062,"is_reserved":false,"is_disabled":false,"rental_uris":{"android":"levelo://app?vid=7959b209-d234-4f24-9317-d5882be11c3d","ios":"levelo://app?vid=7959b209-d234-4f24-9317-d5882be11c3d"},"vehicle_type_id":"4","last_reported":1700786052,"current_range_meters":25200,"station_id":"ce4bh412rcd13ifvqds0","pricing_plan_id":"free"},{"bike_id":"1245fa8c-6dd6-4ec7-b558-6de202b0026f","system_id":"levelo_inurba_marseille","lat":43.283998,"lon":5.375062,"is_reserved":false,"is_disabled":false,"rental_uris":{"android":"levelo://app?vid=1245fa8c-6dd6-4ec7-b558-6de202b0026f","ios":"levelo://app?vid=1245fa8c-6dd6-4ec7-b558-6de202b0026f"},"vehicle_type_id":"4","last_reported":1700786052,"current_range_meters":15600,"station_id":"ce4bh412rcd13ifvqds0","pricing_plan_id":"free"},{"bike_id":"e7b16bb0-8dc4-447b-a16c-c403ed56db28","system_id":"levelo_inurba_marseille","lat":43.337168,"lon":5.391825,"is_reserved":false,"is_disabled":false,"rental_uris":{"android":"levelo://app?vid=e7b16bb0-8dc4-447b-a16c-c403ed56db28","ios":"levelo://app?vid=e7b16bb0-8dc4-447b-a16c-c403ed56db28"},"vehicle_type_id":"4","last_reported":1700786052,"current_range_meters":27600,"station_id":"ce4bhr92rcd13ifvqhsg","pricing_plan_id":"free"},{"bike_id":"d9785b0c-0523-4b8b-9f28-f29210b1a5eb","system_id":"levelo_inurba_marseille","lat":43.323359,"lon":5.406193,"is_reserved":false,"is_disabled":false,"rental_uris":{"android":"levelo://app?vid=d9785b0c-0523-4b8b-9f28-f29210b1a5eb","ios":"levelo://app?vid=d9785b0c-0523-4b8b-9f28-f29210b1a5eb"},"vehicle_type_id":"4","last_reported":1700786052,"current_range_meters":28800,"station_id":"ce4bhq92rcd13ifvqhjg","pricing_plan_id":"free"},{"bike_id":"b09fa450-34b5-46c0-91d8-d79dd6152538","system_id":"levelo_inurba_marseille","lat":43.284793,"lon":5.384119,"is_reserved":false,"is_disabled":false,"rental_uris":{"android":"levelo://app?vid=b09fa450-34b5-46c0-91d8-d79dd6152538","ios":"levelo://app?vid=b09fa450-34b5-46c0-91d8-d79dd6152538"},"vehicle_type_id":"4","last_reported":1700786052,"current_range_meters":25600,"station_id":"ce4bh512rcd13ifvqe3g","pricing_plan_id":"free"},{"bike_id":"e2284003-4e46-4e0a-93e7-73d05c3666d9","system_id":"levelo_inurba_marseille","lat":43.33479,"lon":5.39788,"is_reserved":false,"is_disabled":false,"rental_uris":{"android":"levelo://app?vid=e2284003-4e46-4e0a-93e7-73d05c3666d9","ios":"levelo://app?vid=e2284003-4e46-4e0a-93e7-73d05c3666d9"},"vehicle_type_id":"4","last_reported":1700786052,"current_range_meters":25200,"station_id":"","pricing_plan_id":"free"},{"bike_id":"5f60d334-ee06-49ce-a037-e3a29343909f","system_id":"levelo_inurba_marseille","lat":43.289363,"lon":5.396322,"is_reserved":false,"is_disabled":false,"rental_uris":{"android":"levelo://app?vid=5f60d334-ee06-49ce-a037-e3a29343909f","ios":"levelo://app?vid=5f60d334-ee06-49ce-a037-e3a29343909f"},"vehicle_type_id":"4","last_reported":1700786052,"current_range_meters":7200,"station_id":"ce4bh3h2rcd13ifvqdn0","pricing_plan_id":"free"},{"bike_id":"b4bc6c19-20e6-4b1e-b989-40d4ba171e93","system_id":"levelo_inurba_marseille","lat":43.335224,"lon":5.397573,"is_reserved":false,"is_disabled":false,"rental_uris":{"android":"levelo://app?vid=b4bc6c19-20e6-4b1e-b989-40d4ba171e93","ios":"levelo://app?vid=b4bc6c19-20e6-4b1e-b989-40d4ba171e93"},"vehicle_type_id":"4","last_reported":1700786052,"current_range_meters":7200,"station_id":"","pricing_plan_id":"free"},{"bike_id":"5bd64c01-7024-4992-89f7-444df0fb7af5","system_id":"levelo_inurba_marseille","lat":43.282754,"lon":5.350519,"is_reserved":false,"is_disabled":false,"rental_uris":{"android":"levelo://app?vid=5bd64c01-7024-4992-89f7-444df0fb7af5","ios":"levelo://app?vid=5bd64c01-7024-4992-89f7-444df0fb7af5"},"vehicle_type_id":"4","last_reported":1700786052,"current_range_meters":31600,"station_id":"ce4bhbp2rcd13ifvqerg","pricing_plan_id":"free"},{"bike_id":"20f5d6c2-8e8d-4ab2-91eb-d6d4f0485cbe","system_id":"levelo_inurba_marseille","lat":43.282744,"lon":5.350533,"is_reserved":false,"is_disabled":false,"rental_uris":{"android":"levelo://app?vid=20f5d6c2-8e8d-4ab2-91eb-d6d4f0485cbe","ios":"levelo://app?vid=20f5d6c2-8e8d-4ab2-91eb-d6d4f0485cbe"},"vehicle_type_id":"4","last_reported":1700786052,"current_range_meters":28400,"station_id":"ce4bhbp2rcd13ifvqerg","pricing_plan_id":"free"},{"bike_id":"db927534-230a-4c4e-ba4b-6e34d5468c87","system_id":"levelo_inurba_marseille","lat":43.282754,"lon":5.350519,"is_reserved":false,"is_disabled":false,"rental_uris":{"android":"levelo://app?vid=db927534-230a-4c4e-ba4b-6e34d5468c87","ios":"levelo://app?vid=db927534-230a-4c4e-ba4b-6e34d5468c87"},"vehicle_type_id":"4","last_reported":1700786052,"current_range_meters":7600,"station_id":"ce4bhbp2rcd13ifvqerg","pricing_plan_id":"free"},{"bike_id":"cc85afd8-23f2-4489-be9e-43dde56b8c74","system_id":"levelo_inurba_marseille","lat":43.282754,"lon":5.350519,"is_reserved":false,"is_disabled":false,"rental_uris":{"android":"levelo://app?vid=cc85afd8-23f2-4489-be9e-43dde56b8c74","ios":"levelo://app?vid=cc85afd8-23f2-4489-be9e-43dde56b8c74"},"vehicle_type_id":"4","last_reported":1700786052,"current_range_meters":26400,"station_id":"ce4bhbp2rcd13ifvqerg","pricing_plan_id":"free"},{"bike_id":"857c10bc-5c00-4848-aed1-ce3268427462","system_id":"levelo_inurba_marseille","lat":43.28039,"lon":5.369297,"is_reserved":false,"is_disabled":false,"rental_uris":{"android":"levelo://app?vid=857c10bc-5c00-4848-aed1-ce3268427462","ios":"levelo://app?vid=857c10bc-5c00-4848-aed1-ce3268427462"},"vehicle_type_id":"4","last_reported":1700786052,"current_range_meters":28400,"station_id":"ce4bha12rcd13ifvqef0","pricing_plan_id":"free"},{"bike_id":"d3563ad8-da2c-464a-83a9-df1757509cf7","system_id":"levelo_inurba_marseille","lat":43.280382,"lon":5.369291,"is_reserved":false,"is_disabled":false,"rental_uris":{"android":"levelo://app?vid=d3563ad8-da2c-464a-83a9-df1757509cf7","ios":"levelo://app?vid=d3563ad8-da2c-464a-83a9-df1757509cf7"},"vehicle_type_id":"4","last_reported":1700786052,"current_range_meters":28000,"station_id":"ce4bha12rcd13ifvqef0","pricing_plan_id":"free"},{"bike_id":"9ff350e0-938d-4ef8-81e3-2e41785c57d3","system_id":"levelo_inurba_marseille","lat":43.281044,"lon":5.378308,"is_reserved":false,"is_disabled":false,"rental_uris":{"android":"levelo://app?vid=9ff350e0-938d-4ef8-81e3-2e41785c57d3","ios":"levelo://app?vid=9ff350e0-938d-4ef8-81e3-2e41785c57d3"},"vehicle_type_id":"4","last_reported":1700786052,"current_range_meters":30800,"station_id":"ce4bha12rcd13ifvqee0","pricing_plan_id":"free"},{"bike_id":"099b481f-e727-4d08-a69d-626f0208bde7","system_id":"levelo_inurba_marseille","lat":43.281044,"lon":5.378308,"is_reserved":false,"is_disabled":false,"rental_uris":{"android":"levelo://app?vid=099b481f-e727-4d08-a69d-626f0208bde7","ios":"levelo://app?vid=099b481f-e727-4d08-a69d-626f0208bde7"},"vehicle_type_id":"4","last_reported":1700786052,"current_range_meters":30000,"station_id":"ce4bha12rcd13ifvqee0","pricing_plan_id":"free"},{"bike_id":"9944a477-c69b-40a2-8e67-0658fc75a8a1","system_id":"levelo_inurba_marseille","lat":43.281044,"lon":5.378308,"is_reserved":false,"is_disabled":false,"rental_uris":{"android":"levelo://app?vid=9944a477-c69b-40a2-8e67-0658fc75a8a1","ios":"levelo://app?vid=9944a477-c69b-40a2-8e67-0658fc75a8a1"},"vehicle_type_id":"4","last_reported":1700786052,"current_range_meters":30400,"station_id":"ce4bha12rcd13ifvqee0","pricing_plan_id":"free"},{"bike_id":"d6bd80e8-e13e-405f-a793-9493afc89f46","system_id":"levelo_inurba_marseille","lat":43.284462,"lon":5.392121,"is_reserved":false,"is_disabled":false,"rental_uris":{"android":"levelo://app?vid=d6bd80e8-e13e-405f-a793-9493afc89f46","ios":"levelo://app?vid=d6bd80e8-e13e-405f-a793-9493afc89f46"},"vehicle_type_id":"4","last_reported":1700786052,"current_range_meters":16000,"station_id":"ce4bhoh2rcd13ifvqh5g","pricing_plan_id":"free"},{"bike_id":"54c767a6-b15d-42ef-a9d2-184a15ec96d5","system_id":"levelo_inurba_marseille","lat":43.284462,"lon":5.392121,"is_reserved":false,"is_disabled":false,"rental_uris":{"android":"levelo://app?vid=54c767a6-b15d-42ef-a9d2-184a15ec96d5","ios":"levelo://app?vid=54c767a6-b15d-42ef-a9d2-184a15ec96d5"},"vehicle_type_id":"4","last_reported":1700786052,"current_range_meters":31600,"station_id":"ce4bhoh2rcd13ifvqh5g","pricing_plan_id":"free"},{"bike_id":"42d0a86a-269a-433c-901f-35b3cdabe607","system_id":"levelo_inurba_marseille","lat":43.284462,"lon":5.392121,"is_reserved":false,"is_disabled":false,"rental_uris":{"android":"levelo://app?vid=42d0a86a-269a-433c-901f-35b3cdabe607","ios":"levelo://app?vid=42d0a86a-269a-433c-901f-35b3cdabe607"},"vehicle_type_id":"4","last_reported":1700786052,"current_range_meters":24400,"station_id":"ce4bhoh2rcd13ifvqh5g","pricing_plan_id":"free"},{"bike_id":"c0683100-95f2-4af9-9081-261b687d8643","system_id":"levelo_inurba_marseille","lat":43.28573,"lon":5.394992,"is_reserved":false,"is_disabled":false,"rental_uris":{"android":"levelo://app?vid=c0683100-95f2-4af9-9081-261b687d8643","ios":"levelo://app?vid=c0683100-95f2-4af9-9081-261b687d8643"},"vehicle_type_id":"4","last_reported":1700786052,"current_range_meters":12400,"station_id":"ce4bh292rcd13ifvqdg0","pricing_plan_id":"free"},{"bike_id":"3a26fe18-494c-4d34-8460-bc835cfd3ea9","system_id":"levelo_inurba_marseille","lat":43.28573,"lon":5.394992,"is_reserved":false,"is_disabled":false,"rental_uris":{"android":"levelo://app?vid=3a26fe18-494c-4d34-8460-bc835cfd3ea9","ios":"levelo://app?vid=3a26fe18-494c-4d34-8460-bc835cfd3ea9"},"vehicle_type_id":"4","last_reported":1700786052,"current_range_meters":31200,"station_id":"ce4bh292rcd13ifvqdg0","pricing_plan_id":"free"},{"bike_id":"a305dda0-8f61-4249-b5bf-4408f5b03a88","system_id":"levelo_inurba_marseille","lat":43.285742,"lon":5.395004,"is_reserved":false,"is_disabled":false,"rental_uris":{"android":"levelo://app?vid=a305dda0-8f61-4249-b5bf-4408f5b03a88","ios":"levelo://app?vid=a305dda0-8f61-4249-b5bf-4408f5b03a88"},"vehicle_type_id":"4","last_reported":1700786052,"current_range_meters":26000,"station_id":"ce4bh292rcd13ifvqdg0","pricing_plan_id":"free"},{"bike_id":"db563756-c108-4bef-a217-b096ebb2383a","system_id":"levelo_inurba_marseille","lat":43.285742,"lon":5.395004,"is_reserved":false,"is_disabled":false,"rental_uris":{"android":"levelo://app?vid=db563756-c108-4bef-a217-b096ebb2383a","ios":"levelo://app?vid=db563756-c108-4bef-a217-b096ebb2383a"},"vehicle_type_id":"4","last_reported":1700786052,"current_range_meters":24400,"station_id":"ce4bh292rcd13ifvqdg0","pricing_plan_id":"free"},{"bike_id":"4d2c4986-a797-4c4a-b1ef-86d4126b90fd","system_id":"levelo_inurba_marseille","lat":43.285742,"lon":5.395004,"is_reserved":false,"is_disabled":false,"rental_uris":{"android":"levelo://app?vid=4d2c4986-a797-4c4a-b1ef-86d4126b90fd","ios":"levelo://app?vid=4d2c4986-a797-4c4a-b1ef-86d4126b90fd"},"vehicle_type_id":"4","last_reported":1700786052,"current_range_meters":28800,"station_id":"ce4bh292rcd13ifvqdg0","pricing_plan_id":"free"},{"bike_id":"a351e45d-a762-4399-b301-7e9d3e69e10b","system_id":"levelo_inurba_marseille","lat":43.304188,"lon":5.412904,"is_reserved":false,"is_disabled":false,"rental_uris":{"android":"levelo://app?vid=a351e45d-a762-4399-b301-7e9d3e69e10b","ios":"levelo://app?vid=a351e45d-a762-4399-b301-7e9d3e69e10b"},"vehicle_type_id":"4","last_reported":1700786052,"current_range_meters":26000,"station_id":"ce4bhop2rcd13ifvqh8g","pricing_plan_id":"free"},{"bike_id":"f003abf0-1cca-4ebc-9140-33ea78deba5f","system_id":"levelo_inurba_marseille","lat":43.287133,"lon":5.399573,"is_reserved":false,"is_disabled":false,"rental_uris":{"android":"levelo://app?vid=f003abf0-1cca-4ebc-9140-33ea78deba5f","ios":"levelo://app?vid=f003abf0-1cca-4ebc-9140-33ea78deba5f"},"vehicle_type_id":"4","last_reported":1700786052,"current_range_meters":29600,"station_id":"ce4bho92rcd13ifvqh3g","pricing_plan_id":"free"},{"bike_id":"4989a061-819e-4989-812f-08946c6f6655","system_id":"levelo_inurba_marseille","lat":43.279087,"lon":5.380114,"is_reserved":false,"is_disabled":false,"rental_uris":{"android":"levelo://app?vid=4989a061-819e-4989-812f-08946c6f6655","ios":"levelo://app?vid=4989a061-819e-4989-812f-08946c6f6655"},"vehicle_type_id":"4","last_reported":1700786052,"current_range_meters":27600,"station_id":"ce4bhf92rcd13ifvqf50","pricing_plan_id":"free"},{"bike_id":"c5aca309-bd09-439b-be91-7d42a9aad69a","system_id":"levelo_inurba_marseille","lat":43.287154,"lon":5.399979,"is_reserved":false,"is_disabled":false,"rental_uris":{"android":"levelo://app?vid=c5aca309-bd09-439b-be91-7d42a9aad69a","ios":"levelo://app?vid=c5aca309-bd09-439b-be91-7d42a9aad69a"},"vehicle_type_id":"4","last_reported":1700786052,"current_range_meters":29600,"station_id":"ce4bho92rcd13ifvqh3g","pricing_plan_id":"free"},{"bike_id":"d0b256c3-a820-4626-9638-acf54e4f2e35","system_id":"levelo_inurba_marseille","lat":43.287154,"lon":5.399979,"is_reserved":false,"is_disabled":false,"rental_uris":{"android":"levelo://app?vid=d0b256c3-a820-4626-9638-acf54e4f2e35","ios":"levelo://app?vid=d0b256c3-a820-4626-9638-acf54e4f2e35"},"vehicle_type_id":"4","last_reported":1700786052,"current_range_meters":31200,"station_id":"ce4bho92rcd13ifvqh3g","pricing_plan_id":"free"},{"bike_id":"2d9a3100-0477-4a21-9bde-b1dfb3371532","system_id":"levelo_inurba_marseille","lat":43.28705,"lon":5.3999,"is_reserved":false,"is_disabled":false,"rental_uris":{"android":"levelo://app?vid=2d9a3100-0477-4a21-9bde-b1dfb3371532","ios":"levelo://app?vid=2d9a3100-0477-4a21-9bde-b1dfb3371532"},"vehicle_type_id":"4","last_reported":1700786052,"current_range_meters":18800,"station_id":"ce4bho92rcd13ifvqh3g","pricing_plan_id":"free"},{"bike_id":"e717f248-147f-4846-a979-7cb00cabfe54","system_id":"levelo_inurba_marseille","lat":43.28702,"lon":5.39988,"is_reserved":false,"is_disabled":false,"rental_uris":{"android":"levelo://app?vid=e717f248-147f-4846-a979-7cb00cabfe54","ios":"levelo://app?vid=e717f248-147f-4846-a979-7cb00cabfe54"},"vehicle_type_id":"4","last_reported":1700786052,"current_range_meters":31200,"station_id":"ce4bho92rcd13ifvqh3g","pricing_plan_id":"free"},{"bike_id":"e5756e26-576b-4b95-8791-eea787a22a5d","system_id":"levelo_inurba_marseille","lat":43.28707,"lon":5.39996,"is_reserved":false,"is_disabled":false,"rental_uris":{"android":"levelo://app?vid=e5756e26-576b-4b95-8791-eea787a22a5d","ios":"levelo://app?vid=e5756e26-576b-4b95-8791-eea787a22a5d"},"vehicle_type_id":"4","last_reported":1700786052,"current_range_meters":4400,"station_id":"ce4bho92rcd13ifvqh3g","pricing_plan_id":"free"},{"bike_id":"12435695-d196-43de-bd4f-2e00ce948330","system_id":"levelo_inurba_marseille","lat":43.28698,"lon":5.39984,"is_reserved":false,"is_disabled":false,"rental_uris":{"android":"levelo://app?vid=12435695-d196-43de-bd4f-2e00ce948330","ios":"levelo://app?vid=12435695-d196-43de-bd4f-2e00ce948330"},"vehicle_type_id":"4","last_reported":1700786052,"current_range_meters":21200,"station_id":"ce4bho92rcd13ifvqh3g","pricing_plan_id":"free"},{"bike_id":"feab1dc9-83df-4d87-af4d-c93102d482d6","system_id":"levelo_inurba_marseille","lat":43.287154,"lon":5.399979,"is_reserved":false,"is_disabled":false,"rental_uris":{"android":"levelo://app?vid=feab1dc9-83df-4d87-af4d-c93102d482d6","ios":"levelo://app?vid=feab1dc9-83df-4d87-af4d-c93102d482d6"},"vehicle_type_id":"4","last_reported":1700786052,"current_range_meters":31200,"station_id":"ce4bho92rcd13ifvqh3g","pricing_plan_id":"free"},{"bike_id":"a8e2b52b-9ba9-4b70-bcb4-1e1ad46ab6fe","system_id":"levelo_inurba_marseille","lat":43.29939,"lon":5.41321,"is_reserved":false,"is_disabled":false,"rental_uris":{"android":"levelo://app?vid=a8e2b52b-9ba9-4b70-bcb4-1e1ad46ab6fe","ios":"levelo://app?vid=a8e2b52b-9ba9-4b70-bcb4-1e1ad46ab6fe"},"vehicle_type_id":"4","last_reported":1700786052,"current_range_meters":29600,"station_id":"ce4bhp12rcd13ifvqh9g","pricing_plan_id":"free"},{"bike_id":"cf7c6503-d761-4e4a-b826-f55f74848caf","system_id":"levelo_inurba_marseille","lat":43.34882,"lon":5.37507,"is_reserved":false,"is_disabled":false,"rental_uris":{"android":"levelo://app?vid=cf7c6503-d761-4e4a-b826-f55f74848caf","ios":"levelo://app?vid=cf7c6503-d761-4e4a-b826-f55f74848caf"},"vehicle_type_id":"4","last_reported":1700786052,"current_range_meters":0,"station_id":"","pricing_plan_id":"free"},{"bike_id":"761f5fc0-5ebd-4489-9887-274408c435b1","system_id":"levelo_inurba_marseille","lat":43.292571,"lon":5.409107,"is_reserved":false,"is_disabled":false,"rental_uris":{"android":"levelo://app?vid=761f5fc0-5ebd-4489-9887-274408c435b1","ios":"levelo://app?vid=761f5fc0-5ebd-4489-9887-274408c435b1"},"vehicle_type_id":"4","last_reported":1700786052,"current_range_meters":27200,"station_id":"ce4bh192rcd13ifvqdc0","pricing_plan_id":"free"},{"bike_id":"6724d5d7-7cc9-452a-9c59-23617405b0bb","system_id":"levelo_inurba_marseille","lat":43.325233,"lon":5.414318,"is_reserved":false,"is_disabled":false,"rental_uris":{"android":"levelo://app?vid=6724d5d7-7cc9-452a-9c59-23617405b0bb","ios":"levelo://app?vid=6724d5d7-7cc9-452a-9c59-23617405b0bb"},"vehicle_type_id":"4","last_reported":1700786052,"current_range_meters":28000,"station_id":"ce4bhq12rcd13ifvqhhg","pricing_plan_id":"free"},{"bike_id":"ae9ebd41-ca9a-4f54-b255-893c01b1ebe3","system_id":"levelo_inurba_marseille","lat":43.276179,"lon":5.361009,"is_reserved":false,"is_disabled":false,"rental_uris":{"android":"levelo://app?vid=ae9ebd41-ca9a-4f54-b255-893c01b1ebe3","ios":"levelo://app?vid=ae9ebd41-ca9a-4f54-b255-893c01b1ebe3"},"vehicle_type_id":"4","last_reported":1700786052,"current_range_meters":3200,"station_id":"ce4bgj92rcd13ifvqbe0","pricing_plan_id":"free"},{"bike_id":"9bc4d199-515b-4acd-bcc0-06e5f5cfccd2","system_id":"levelo_inurba_marseille","lat":43.31748,"lon":5.41711,"is_reserved":false,"is_disabled":false,"rental_uris":{"android":"levelo://app?vid=9bc4d199-515b-4acd-bcc0-06e5f5cfccd2","ios":"levelo://app?vid=9bc4d199-515b-4acd-bcc0-06e5f5cfccd2"},"vehicle_type_id":"4","last_reported":1700786052,"current_range_meters":6800,"station_id":"","pricing_plan_id":"free"},{"bike_id":"563285db-6557-4448-8666-b35ac0c9e09c","system_id":"levelo_inurba_marseille","lat":43.280784,"lon":5.396622,"is_reserved":false,"is_disabled":false,"rental_uris":{"android":"levelo://app?vid=563285db-6557-4448-8666-b35ac0c9e09c","ios":"levelo://app?vid=563285db-6557-4448-8666-b35ac0c9e09c"},"vehicle_type_id":"4","last_reported":1700786052,"current_range_meters":30400,"station_id":"ce4bho12rcd13ifvqh2g","pricing_plan_id":"free"},{"bike_id":"fd7f13fc-edeb-4ac7-9bb9-d9e589e08f38","system_id":"levelo_inurba_marseille","lat":43.303837,"lon":5.418724,"is_reserved":false,"is_disabled":false,"rental_uris":{"android":"levelo://app?vid=fd7f13fc-edeb-4ac7-9bb9-d9e589e08f38","ios":"levelo://app?vid=fd7f13fc-edeb-4ac7-9bb9-d9e589e08f38"},"vehicle_type_id":"4","last_reported":1700786052,"current_range_meters":9200,"station_id":"ce4bhop2rcd13ifvqh7g","pricing_plan_id":"free"},{"bike_id":"99cdfccc-b6d1-4d42-a20b-b719e8222b3e","system_id":"levelo_inurba_marseille","lat":43.33612,"lon":5.410321,"is_reserved":false,"is_disabled":false,"rental_uris":{"android":"levelo://app?vid=99cdfccc-b6d1-4d42-a20b-b719e8222b3e","ios":"levelo://app?vid=99cdfccc-b6d1-4d42-a20b-b719e8222b3e"},"vehicle_type_id":"4","last_reported":1700786052,"current_range_meters":7600,"station_id":"ce4bhqh2rcd13ifvqhmg","pricing_plan_id":"free"},{"bike_id":"9a8f26ec-f183-465f-9363-2c44d4d80177","system_id":"levelo_inurba_marseille","lat":43.33612,"lon":5.410321,"is_reserved":false,"is_disabled":false,"rental_uris":{"android":"levelo://app?vid=9a8f26ec-f183-465f-9363-2c44d4d80177","ios":"levelo://app?vid=9a8f26ec-f183-465f-9363-2c44d4d80177"},"vehicle_type_id":"4","last_reported":1700786052,"current_range_meters":10800,"station_id":"ce4bhqh2rcd13ifvqhmg","pricing_plan_id":"free"},{"bike_id":"27ecb065-6c46-4fb1-b2f9-6ac22d921424","system_id":"levelo_inurba_marseille","lat":43.33612,"lon":5.410321,"is_reserved":false,"is_disabled":false,"rental_uris":{"android":"levelo://app?vid=27ecb065-6c46-4fb1-b2f9-6ac22d921424","ios":"levelo://app?vid=27ecb065-6c46-4fb1-b2f9-6ac22d921424"},"vehicle_type_id":"4","last_reported":1700786052,"current_range_meters":7200,"station_id":"ce4bhqh2rcd13ifvqhmg","pricing_plan_id":"free"},{"bike_id":"b7ec749c-e206-49a9-85f1-90aade14f096","system_id":"levelo_inurba_marseille","lat":43.336134,"lon":5.410341,"is_reserved":false,"is_disabled":false,"rental_uris":{"android":"levelo://app?vid=b7ec749c-e206-49a9-85f1-90aade14f096","ios":"levelo://app?vid=b7ec749c-e206-49a9-85f1-90aade14f096"},"vehicle_type_id":"4","last_reported":1700786052,"current_range_meters":31600,"station_id":"ce4bhqh2rcd13ifvqhmg","pricing_plan_id":"free"},{"bike_id":"c3dc31b6-736e-47f2-8d6b-bf390f3f2b60","system_id":"levelo_inurba_marseille","lat":43.317121,"lon":5.423936,"is_reserved":false,"is_disabled":false,"rental_uris":{"android":"levelo://app?vid=c3dc31b6-736e-47f2-8d6b-bf390f3f2b60","ios":"levelo://app?vid=c3dc31b6-736e-47f2-8d6b-bf390f3f2b60"},"vehicle_type_id":"4","last_reported":1700786052,"current_range_meters":18800,"station_id":"ce4bhp92rcd13ifvqhbg","pricing_plan_id":"free"},{"bike_id":"0b677ab6-a93b-4e0b-a612-efec26874138","system_id":"levelo_inurba_marseille","lat":43.317121,"lon":5.423936,"is_reserved":false,"is_disabled":false,"rental_uris":{"android":"levelo://app?vid=0b677ab6-a93b-4e0b-a612-efec26874138","ios":"levelo://app?vid=0b677ab6-a93b-4e0b-a612-efec26874138"},"vehicle_type_id":"4","last_reported":1700786052,"current_range_meters":30400,"station_id":"ce4bhp92rcd13ifvqhbg","pricing_plan_id":"free"},{"bike_id":"dba2a6d6-d761-45cc-b813-582eee1b06d9","system_id":"levelo_inurba_marseille","lat":43.340804,"lon":5.410219,"is_reserved":false,"is_disabled":false,"rental_uris":{"android":"levelo://app?vid=dba2a6d6-d761-45cc-b813-582eee1b06d9","ios":"levelo://app?vid=dba2a6d6-d761-45cc-b813-582eee1b06d9"},"vehicle_type_id":"4","last_reported":1700786052,"current_range_meters":17200,"station_id":"ce4bhqh2rcd13ifvqhlg","pricing_plan_id":"free"},{"bike_id":"422eaa23-7465-45a6-8f34-ef03bb0d0a13","system_id":"levelo_inurba_marseille","lat":43.340804,"lon":5.410219,"is_reserved":false,"is_disabled":false,"rental_uris":{"android":"levelo://app?vid=422eaa23-7465-45a6-8f34-ef03bb0d0a13","ios":"levelo://app?vid=422eaa23-7465-45a6-8f34-ef03bb0d0a13"},"vehicle_type_id":"4","last_reported":1700786052,"current_range_meters":21600,"station_id":"ce4bhqh2rcd13ifvqhlg","pricing_plan_id":"free"},{"bike_id":"ee3353de-ad16-41b2-900b-c0d5b5e68caf","system_id":"levelo_inurba_marseille","lat":43.340804,"lon":5.410219,"is_reserved":false,"is_disabled":false,"rental_uris":{"android":"levelo://app?vid=ee3353de-ad16-41b2-900b-c0d5b5e68caf","ios":"levelo://app?vid=ee3353de-ad16-41b2-900b-c0d5b5e68caf"},"vehicle_type_id":"4","last_reported":1700786052,"current_range_meters":29600,"station_id":"ce4bhqh2rcd13ifvqhlg","pricing_plan_id":"free"},{"bike_id":"48565e36-de67-4c6a-8337-460138cf3900","system_id":"levelo_inurba_marseille","lat":43.340804,"lon":5.410219,"is_reserved":false,"is_disabled":false,"rental_uris":{"android":"levelo://app?vid=48565e36-de67-4c6a-8337-460138cf3900","ios":"levelo://app?vid=48565e36-de67-4c6a-8337-460138cf3900"},"vehicle_type_id":"4","last_reported":1700786052,"current_range_meters":14800,"station_id":"ce4bhqh2rcd13ifvqhlg","pricing_plan_id":"free"},{"bike_id":"f6d19d1b-693b-4963-ba5a-4b930cec88fd","system_id":"levelo_inurba_marseille","lat":43.340804,"lon":5.410219,"is_reserved":false,"is_disabled":false,"rental_uris":{"android":"levelo://app?vid=f6d19d1b-693b-4963-ba5a-4b930cec88fd","ios":"levelo://app?vid=f6d19d1b-693b-4963-ba5a-4b930cec88fd"},"vehicle_type_id":"4","last_reported":1700786052,"current_range_meters":26800,"station_id":"ce4bhqh2rcd13ifvqhlg","pricing_plan_id":"free"},{"bike_id":"845820b4-4ef5-4f31-af43-e31686a99ed4","system_id":"levelo_inurba_marseille","lat":43.274099,"lon":5.394019,"is_reserved":false,"is_disabled":false,"rental_uris":{"android":"levelo://app?vid=845820b4-4ef5-4f31-af43-e31686a99ed4","ios":"levelo://app?vid=845820b4-4ef5-4f31-af43-e31686a99ed4"},"vehicle_type_id":"4","last_reported":1700786052,"current_range_meters":21200,"station_id":"ce4bhdp2rcd13ifvqf20","pricing_plan_id":"free"},{"bike_id":"25930601-41dc-466b-979a-4b5644836b1a","system_id":"levelo_inurba_marseille","lat":43.295523,"lon":5.422926,"is_reserved":false,"is_disabled":false,"rental_uris":{"android":"levelo://app?vid=25930601-41dc-466b-979a-4b5644836b1a","ios":"levelo://app?vid=25930601-41dc-466b-979a-4b5644836b1a"},"vehicle_type_id":"4","last_reported":1700786052,"current_range_meters":27600,"station_id":"ce4bhph2rcd13ifvqhdg","pricing_plan_id":"free"},{"bike_id":"982a651a-ad45-4e13-8550-54129347b513","system_id":"levelo_inurba_marseille","lat":43.295511,"lon":5.422926,"is_reserved":false,"is_disabled":false,"rental_uris":{"android":"levelo://app?vid=982a651a-ad45-4e13-8550-54129347b513","ios":"levelo://app?vid=982a651a-ad45-4e13-8550-54129347b513"},"vehicle_type_id":"4","last_reported":1700786052,"current_range_meters":30800,"station_id":"ce4bhph2rcd13ifvqhdg","pricing_plan_id":"free"},{"bike_id":"c8f1f57d-9903-4f6b-8165-2772da2d446a","system_id":"levelo_inurba_marseille","lat":43.295511,"lon":5.422926,"is_reserved":false,"is_disabled":false,"rental_uris":{"android":"levelo://app?vid=c8f1f57d-9903-4f6b-8165-2772da2d446a","ios":"levelo://app?vid=c8f1f57d-9903-4f6b-8165-2772da2d446a"},"vehicle_type_id":"4","last_reported":1700786052,"current_range_meters":30800,"station_id":"ce4bhph2rcd13ifvqhdg","pricing_plan_id":"free"},{"bike_id":"48c1fbfb-e6c4-4c56-a75c-55416f8bb4c3","system_id":"levelo_inurba_marseille","lat":43.27188,"lon":5.393011,"is_reserved":false,"is_disabled":false,"rental_uris":{"android":"levelo://app?vid=48c1fbfb-e6c4-4c56-a75c-55416f8bb4c3","ios":"levelo://app?vid=48c1fbfb-e6c4-4c56-a75c-55416f8bb4c3"},"vehicle_type_id":"4","last_reported":1700786052,"current_range_meters":24000,"station_id":"","pricing_plan_id":"free"},{"bike_id":"30a3118b-b8f9-4fc1-98b6-e119d9ea32a9","system_id":"levelo_inurba_marseille","lat":43.278152,"lon":5.40717,"is_reserved":false,"is_disabled":false,"rental_uris":{"android":"levelo://app?vid=30a3118b-b8f9-4fc1-98b6-e119d9ea32a9","ios":"levelo://app?vid=30a3118b-b8f9-4fc1-98b6-e119d9ea32a9"},"vehicle_type_id":"4","last_reported":1700786052,"current_range_meters":400,"station_id":"ce4bhnh2rcd13ifvqgtg","pricing_plan_id":"free"},{"bike_id":"be104bc7-81b2-4406-b488-8b2f965daaac","system_id":"levelo_inurba_marseille","lat":43.27812,"lon":5.40714,"is_reserved":false,"is_disabled":false,"rental_uris":{"android":"levelo://app?vid=be104bc7-81b2-4406-b488-8b2f965daaac","ios":"levelo://app?vid=be104bc7-81b2-4406-b488-8b2f965daaac"},"vehicle_type_id":"4","last_reported":1700786052,"current_range_meters":17200,"station_id":"ce4bhnh2rcd13ifvqgtg","pricing_plan_id":"free"},{"bike_id":"f6db109b-b1a5-42a4-9bd3-40618b937f60","system_id":"levelo_inurba_marseille","lat":43.278128,"lon":5.407195,"is_reserved":false,"is_disabled":false,"rental_uris":{"android":"levelo://app?vid=f6db109b-b1a5-42a4-9bd3-40618b937f60","ios":"levelo://app?vid=f6db109b-b1a5-42a4-9bd3-40618b937f60"},"vehicle_type_id":"4","last_reported":1700786052,"current_range_meters":26800,"station_id":"ce4bhnh2rcd13ifvqgtg","pricing_plan_id":"free"},{"bike_id":"c96ed8d2-c10e-46a8-b358-ef93d9048b84","system_id":"levelo_inurba_marseille","lat":43.27945,"lon":5.4105,"is_reserved":false,"is_disabled":false,"rental_uris":{"android":"levelo://app?vid=c96ed8d2-c10e-46a8-b358-ef93d9048b84","ios":"levelo://app?vid=c96ed8d2-c10e-46a8-b358-ef93d9048b84"},"vehicle_type_id":"4","last_reported":1700786052,"current_range_meters":4000,"station_id":"ce4bhnp2rcd13ifvqh0g","pricing_plan_id":"free"},{"bike_id":"9e8d294d-24b3-41bc-8cab-61fd58675f94","system_id":"levelo_inurba_marseille","lat":43.279465,"lon":5.410561,"is_reserved":false,"is_disabled":false,"rental_uris":{"android":"levelo://app?vid=9e8d294d-24b3-41bc-8cab-61fd58675f94","ios":"levelo://app?vid=9e8d294d-24b3-41bc-8cab-61fd58675f94"},"vehicle_type_id":"4","last_reported":1700786052,"current_range_meters":0,"station_id":"ce4bhnp2rcd13ifvqh0g","pricing_plan_id":"free"},{"bike_id":"d5c52b1b-ef9c-4175-8cff-9bc1db3ea023","system_id":"levelo_inurba_marseille","lat":43.279415,"lon":5.410477,"is_reserved":false,"is_disabled":false,"rental_uris":{"android":"levelo://app?vid=d5c52b1b-ef9c-4175-8cff-9bc1db3ea023","ios":"levelo://app?vid=d5c52b1b-ef9c-4175-8cff-9bc1db3ea023"},"vehicle_type_id":"4","last_reported":1700786052,"current_range_meters":15600,"station_id":"ce4bhnp2rcd13ifvqh0g","pricing_plan_id":"free"},{"bike_id":"3384a206-59eb-440f-82a2-14f2dabaa539","system_id":"levelo_inurba_marseille","lat":43.269319,"lon":5.389397,"is_reserved":false,"is_disabled":false,"rental_uris":{"android":"levelo://app?vid=3384a206-59eb-440f-82a2-14f2dabaa539","ios":"levelo://app?vid=3384a206-59eb-440f-82a2-14f2dabaa539"},"vehicle_type_id":"4","last_reported":1700786052,"current_range_meters":27600,"station_id":"ce4bhhh2rcd13ifvqfl0","pricing_plan_id":"free"},{"bike_id":"837391a3-d8f2-400a-868e-59df2fe9b9bc","system_id":"levelo_inurba_marseille","lat":43.26684,"lon":5.38276,"is_reserved":false,"is_disabled":false,"rental_uris":{"android":"levelo://app?vid=837391a3-d8f2-400a-868e-59df2fe9b9bc","ios":"levelo://app?vid=837391a3-d8f2-400a-868e-59df2fe9b9bc"},"vehicle_type_id":"4","last_reported":1700786052,"current_range_meters":15600,"station_id":"ce4bhg92rcd13ifvqf90","pricing_plan_id":"free"},{"bike_id":"ef099993-0d59-491e-8c05-b91d0c79d420","system_id":"levelo_inurba_marseille","lat":43.26555,"lon":5.37283,"is_reserved":false,"is_disabled":false,"rental_uris":{"android":"levelo://app?vid=ef099993-0d59-491e-8c05-b91d0c79d420","ios":"levelo://app?vid=ef099993-0d59-491e-8c05-b91d0c79d420"},"vehicle_type_id":"4","last_reported":1700786052,"current_range_meters":12000,"station_id":"ce4bhg12rcd13ifvqf70","pricing_plan_id":"free"},{"bike_id":"afca0fe0-702c-4607-8149-ab8757df2f63","system_id":"levelo_inurba_marseille","lat":43.26553,"lon":5.37287,"is_reserved":false,"is_disabled":false,"rental_uris":{"android":"levelo://app?vid=afca0fe0-702c-4607-8149-ab8757df2f63","ios":"levelo://app?vid=afca0fe0-702c-4607-8149-ab8757df2f63"},"vehicle_type_id":"4","last_reported":1700786052,"current_range_meters":400,"station_id":"ce4bhg12rcd13ifvqf70","pricing_plan_id":"free"},{"bike_id":"28e8ce00-6b21-4e06-9930-c7c4408cc650","system_id":"levelo_inurba_marseille","lat":43.326174,"lon":5.430584,"is_reserved":false,"is_disabled":false,"rental_uris":{"android":"levelo://app?vid=28e8ce00-6b21-4e06-9930-c7c4408cc650","ios":"levelo://app?vid=28e8ce00-6b21-4e06-9930-c7c4408cc650"},"vehicle_type_id":"4","last_reported":1700786052,"current_range_meters":1200,"station_id":"","pricing_plan_id":"free"},{"bike_id":"2b5f0b27-ae58-4e9e-bd76-c585f78e8a73","system_id":"levelo_inurba_marseille","lat":43.26386,"lon":5.37454,"is_reserved":false,"is_disabled":false,"rental_uris":{"android":"levelo://app?vid=2b5f0b27-ae58-4e9e-bd76-c585f78e8a73","ios":"levelo://app?vid=2b5f0b27-ae58-4e9e-bd76-c585f78e8a73"},"vehicle_type_id":"4","last_reported":1700786052,"current_range_meters":16800,"station_id":"","pricing_plan_id":"free"},{"bike_id":"9e246423-aebf-4935-b376-1f6fffc5a1f6","system_id":"levelo_inurba_marseille","lat":43.26563,"lon":5.39011,"is_reserved":false,"is_disabled":false,"rental_uris":{"android":"levelo://app?vid=9e246423-aebf-4935-b376-1f6fffc5a1f6","ios":"levelo://app?vid=9e246423-aebf-4935-b376-1f6fffc5a1f6"},"vehicle_type_id":"4","last_reported":1700786052,"current_range_meters":16000,"station_id":"ce4bhe12rcd13ifvqf30","pricing_plan_id":"free"},{"bike_id":"fbbd7ec6-9bef-49d9-bb08-6e5c4c4f0543","system_id":"levelo_inurba_marseille","lat":43.317104,"lon":5.436818,"is_reserved":false,"is_disabled":false,"rental_uris":{"android":"levelo://app?vid=fbbd7ec6-9bef-49d9-bb08-6e5c4c4f0543","ios":"levelo://app?vid=fbbd7ec6-9bef-49d9-bb08-6e5c4c4f0543"},"vehicle_type_id":"4","last_reported":1700786052,"current_range_meters":27200,"station_id":"ce4bhp92rcd13ifvqhcg","pricing_plan_id":"free"},{"bike_id":"89f265a3-7340-4995-bd1b-186b8b2d4277","system_id":"levelo_inurba_marseille","lat":43.262012,"lon":5.379307,"is_reserved":false,"is_disabled":false,"rental_uris":{"android":"levelo://app?vid=89f265a3-7340-4995-bd1b-186b8b2d4277","ios":"levelo://app?vid=89f265a3-7340-4995-bd1b-186b8b2d4277"},"vehicle_type_id":"4","last_reported":1700786052,"current_range_meters":20000,"station_id":"ce4bhjp2rcd13ifvqg90","pricing_plan_id":"free"},{"bike_id":"d0bb53f7-f1b8-4609-a668-27efdac67f66","system_id":"levelo_inurba_marseille","lat":43.26301,"lon":5.38842,"is_reserved":false,"is_disabled":false,"rental_uris":{"android":"levelo://app?vid=d0bb53f7-f1b8-4609-a668-27efdac67f66","ios":"levelo://app?vid=d0bb53f7-f1b8-4609-a668-27efdac67f66"},"vehicle_type_id":"4","last_reported":1700786052,"current_range_meters":0,"station_id":"","pricing_plan_id":"free"},{"bike_id":"33aa354a-e7fb-40a8-af71-966737488973","system_id":"levelo_inurba_marseille","lat":43.298768,"lon":5.43643,"is_reserved":false,"is_disabled":false,"rental_uris":{"android":"levelo://app?vid=33aa354a-e7fb-40a8-af71-966737488973","ios":"levelo://app?vid=33aa354a-e7fb-40a8-af71-966737488973"},"vehicle_type_id":"4","last_reported":1700786052,"current_range_meters":17200,"station_id":"ce4bhpp2rcd13ifvqhfg","pricing_plan_id":"free"},{"bike_id":"c8e0aad3-4462-4f8b-93ce-b770998879ce","system_id":"levelo_inurba_marseille","lat":43.298954,"lon":5.436763,"is_reserved":false,"is_disabled":false,"rental_uris":{"android":"levelo://app?vid=c8e0aad3-4462-4f8b-93ce-b770998879ce","ios":"levelo://app?vid=c8e0aad3-4462-4f8b-93ce-b770998879ce"},"vehicle_type_id":"4","last_reported":1700786052,"current_range_meters":30800,"station_id":"ce4bhpp2rcd13ifvqhfg","pricing_plan_id":"free"},{"bike_id":"c6104b18-3ca1-44b4-83eb-3ad8cfbfedd4","system_id":"levelo_inurba_marseille","lat":43.281548,"lon":5.42643,"is_reserved":false,"is_disabled":false,"rental_uris":{"android":"levelo://app?vid=c6104b18-3ca1-44b4-83eb-3ad8cfbfedd4","ios":"levelo://app?vid=c6104b18-3ca1-44b4-83eb-3ad8cfbfedd4"},"vehicle_type_id":"4","last_reported":1700786052,"current_range_meters":28800,"station_id":"ce4bhnh2rcd13ifvqgug","pricing_plan_id":"free"},{"bike_id":"8c64e0a0-5898-44f6-b39e-88afacd1c23b","system_id":"levelo_inurba_marseille","lat":43.281548,"lon":5.42643,"is_reserved":false,"is_disabled":false,"rental_uris":{"android":"levelo://app?vid=8c64e0a0-5898-44f6-b39e-88afacd1c23b","ios":"levelo://app?vid=8c64e0a0-5898-44f6-b39e-88afacd1c23b"},"vehicle_type_id":"4","last_reported":1700786052,"current_range_meters":8400,"station_id":"ce4bhnh2rcd13ifvqgug","pricing_plan_id":"free"},{"bike_id":"f2b94109-5ff9-4676-af18-09568ed4fb8c","system_id":"levelo_inurba_marseille","lat":43.281548,"lon":5.42643,"is_reserved":false,"is_disabled":false,"rental_uris":{"android":"levelo://app?vid=f2b94109-5ff9-4676-af18-09568ed4fb8c","ios":"levelo://app?vid=f2b94109-5ff9-4676-af18-09568ed4fb8c"},"vehicle_type_id":"4","last_reported":1700786052,"current_range_meters":31200,"station_id":"ce4bhnh2rcd13ifvqgug","pricing_plan_id":"free"},{"bike_id":"d4693414-7bbb-4029-a1ea-090c85029439","system_id":"levelo_inurba_marseille","lat":43.258658,"lon":5.398935,"is_reserved":false,"is_disabled":false,"rental_uris":{"android":"levelo://app?vid=d4693414-7bbb-4029-a1ea-090c85029439","ios":"levelo://app?vid=d4693414-7bbb-4029-a1ea-090c85029439"},"vehicle_type_id":"4","last_reported":1700786052,"current_range_meters":13600,"station_id":"ce4bhl92rcd13ifvqghg","pricing_plan_id":"free"},{"bike_id":"de8408b8-3b81-41d8-b73c-bd10f982b9e2","system_id":"levelo_inurba_marseille","lat":43.2607,"lon":5.393983,"is_reserved":false,"is_disabled":false,"rental_uris":{"android":"levelo://app?vid=de8408b8-3b81-41d8-b73c-bd10f982b9e2","ios":"levelo://app?vid=de8408b8-3b81-41d8-b73c-bd10f982b9e2"},"vehicle_type_id":"4","last_reported":1700786052,"current_range_meters":26800,"station_id":"ce4bhh92rcd13ifvqfj0","pricing_plan_id":"free"},{"bike_id":"0b938667-6ce3-4005-a540-9bccfd7ca7d8","system_id":"levelo_inurba_marseille","lat":43.258252,"lon":5.394236,"is_reserved":false,"is_disabled":false,"rental_uris":{"android":"levelo://app?vid=0b938667-6ce3-4005-a540-9bccfd7ca7d8","ios":"levelo://app?vid=0b938667-6ce3-4005-a540-9bccfd7ca7d8"},"vehicle_type_id":"4","last_reported":1700786052,"current_range_meters":0,"station_id":"ce4bhip2rcd13ifvqft0","pricing_plan_id":"free"},{"bike_id":"91fef537-ceb0-4725-94c3-05555ab76ebf","system_id":"levelo_inurba_marseille","lat":43.255756,"lon":5.382303,"is_reserved":false,"is_disabled":false,"rental_uris":{"android":"levelo://app?vid=91fef537-ceb0-4725-94c3-05555ab76ebf","ios":"levelo://app?vid=91fef537-ceb0-4725-94c3-05555ab76ebf"},"vehicle_type_id":"4","last_reported":1700786052,"current_range_meters":19600,"station_id":"ce4bhih2rcd13ifvqfs0","pricing_plan_id":"free"},{"bike_id":"a3989391-6d1c-4821-b8b9-eb7a71eb7238","system_id":"levelo_inurba_marseille","lat":43.270721,"lon":5.422764,"is_reserved":false,"is_disabled":false,"rental_uris":{"android":"levelo://app?vid=a3989391-6d1c-4821-b8b9-eb7a71eb7238","ios":"levelo://app?vid=a3989391-6d1c-4821-b8b9-eb7a71eb7238"},"vehicle_type_id":"4","last_reported":1700786052,"current_range_meters":10800,"station_id":"ce4bhk92rcd13ifvqgb0","pricing_plan_id":"free"},{"bike_id":"062f511b-fd4d-43f8-93cb-4249b15a5c3e","system_id":"levelo_inurba_marseille","lat":43.270721,"lon":5.422764,"is_reserved":false,"is_disabled":false,"rental_uris":{"android":"levelo://app?vid=062f511b-fd4d-43f8-93cb-4249b15a5c3e","ios":"levelo://app?vid=062f511b-fd4d-43f8-93cb-4249b15a5c3e"},"vehicle_type_id":"4","last_reported":1700786052,"current_range_meters":28000,"station_id":"ce4bhk92rcd13ifvqgb0","pricing_plan_id":"free"},{"bike_id":"b15f1979-d5ff-4036-b142-4e14a1597119","system_id":"levelo_inurba_marseille","lat":43.270721,"lon":5.422764,"is_reserved":false,"is_disabled":false,"rental_uris":{"android":"levelo://app?vid=b15f1979-d5ff-4036-b142-4e14a1597119","ios":"levelo://app?vid=b15f1979-d5ff-4036-b142-4e14a1597119"},"vehicle_type_id":"4","last_reported":1700786052,"current_range_meters":30000,"station_id":"ce4bhk92rcd13ifvqgb0","pricing_plan_id":"free"},{"bike_id":"0e7c9fed-8484-4161-9a2c-c940124bce8a","system_id":"levelo_inurba_marseille","lat":43.25715,"lon":5.41113,"is_reserved":false,"is_disabled":false,"rental_uris":{"android":"levelo://app?vid=0e7c9fed-8484-4161-9a2c-c940124bce8a","ios":"levelo://app?vid=0e7c9fed-8484-4161-9a2c-c940124bce8a"},"vehicle_type_id":"4","last_reported":1700786052,"current_range_meters":1600,"station_id":"ce4bhkp2rcd13ifvqgd0","pricing_plan_id":"free"},{"bike_id":"11494382-ce2e-44c2-806d-9f1bc6755b0a","system_id":"levelo_inurba_marseille","lat":43.250009,"lon":5.389195,"is_reserved":false,"is_disabled":false,"rental_uris":{"android":"levelo://app?vid=11494382-ce2e-44c2-806d-9f1bc6755b0a","ios":"levelo://app?vid=11494382-ce2e-44c2-806d-9f1bc6755b0a"},"vehicle_type_id":"4","last_reported":1700786052,"current_range_meters":31600,"station_id":"ce4bhgp2rcd13ifvqfd0","pricing_plan_id":"free"},{"bike_id":"88d7f9e9-bb37-46c1-b9b3-75abffa63e99","system_id":"levelo_inurba_marseille","lat":43.25089,"lon":5.39509,"is_reserved":false,"is_disabled":false,"rental_uris":{"android":"levelo://app?vid=88d7f9e9-bb37-46c1-b9b3-75abffa63e99","ios":"levelo://app?vid=88d7f9e9-bb37-46c1-b9b3-75abffa63e99"},"vehicle_type_id":"4","last_reported":1700786052,"current_range_meters":7600,"station_id":"ce4bhm12rcd13ifvqgkg","pricing_plan_id":"free"},{"bike_id":"efa187b0-d8d1-49c9-acc3-4b60600e5901","system_id":"levelo_inurba_marseille","lat":43.25085,"lon":5.39516,"is_reserved":false,"is_disabled":false,"rental_uris":{"android":"levelo://app?vid=efa187b0-d8d1-49c9-acc3-4b60600e5901","ios":"levelo://app?vid=efa187b0-d8d1-49c9-acc3-4b60600e5901"},"vehicle_type_id":"4","last_reported":1700786052,"current_range_meters":4000,"station_id":"ce4bhm12rcd13ifvqgkg","pricing_plan_id":"free"},{"bike_id":"03a6b57e-196d-4361-a53d-18c000089aa6","system_id":"levelo_inurba_marseille","lat":43.25086,"lon":5.39521,"is_reserved":false,"is_disabled":false,"rental_uris":{"android":"levelo://app?vid=03a6b57e-196d-4361-a53d-18c000089aa6","ios":"levelo://app?vid=03a6b57e-196d-4361-a53d-18c000089aa6"},"vehicle_type_id":"4","last_reported":1700786052,"current_range_meters":9600,"station_id":"ce4bhm12rcd13ifvqgkg","pricing_plan_id":"free"},{"bike_id":"55b15c42-8df3-4567-863a-c495c4dabf69","system_id":"levelo_inurba_marseille","lat":43.24658,"lon":5.3816,"is_reserved":false,"is_disabled":false,"rental_uris":{"android":"levelo://app?vid=55b15c42-8df3-4567-863a-c495c4dabf69","ios":"levelo://app?vid=55b15c42-8df3-4567-863a-c495c4dabf69"},"vehicle_type_id":"4","last_reported":1700786052,"current_range_meters":30000,"station_id":"ce4bhih2rcd13ifvqfr0","pricing_plan_id":"free"},{"bike_id":"d6bff89a-25f9-43cd-9285-99616f473daf","system_id":"levelo_inurba_marseille","lat":43.25112,"lon":5.4032,"is_reserved":false,"is_disabled":false,"rental_uris":{"android":"levelo://app?vid=d6bff89a-25f9-43cd-9285-99616f473daf","ios":"levelo://app?vid=d6bff89a-25f9-43cd-9285-99616f473daf"},"vehicle_type_id":"4","last_reported":1700786052,"current_range_meters":26400,"station_id":"ce4bhlh2rcd13ifvqgig","pricing_plan_id":"free"},{"bike_id":"e68545fb-4ac4-40af-8bbe-e46447688418","system_id":"levelo_inurba_marseille","lat":43.25102,"lon":5.403214,"is_reserved":false,"is_disabled":false,"rental_uris":{"android":"levelo://app?vid=e68545fb-4ac4-40af-8bbe-e46447688418","ios":"levelo://app?vid=e68545fb-4ac4-40af-8bbe-e46447688418"},"vehicle_type_id":"4","last_reported":1700786052,"current_range_meters":27600,"station_id":"ce4bhlh2rcd13ifvqgig","pricing_plan_id":"free"},{"bike_id":"b9d8e704-4d85-471e-8568-3bb46744e40a","system_id":"levelo_inurba_marseille","lat":43.25109,"lon":5.40318,"is_reserved":false,"is_disabled":false,"rental_uris":{"android":"levelo://app?vid=b9d8e704-4d85-471e-8568-3bb46744e40a","ios":"levelo://app?vid=b9d8e704-4d85-471e-8568-3bb46744e40a"},"vehicle_type_id":"4","last_reported":1700786052,"current_range_meters":21200,"station_id":"ce4bhlh2rcd13ifvqgig","pricing_plan_id":"free"},{"bike_id":"9a0b8a9e-4d02-4003-b30f-6acb8c814e3b","system_id":"levelo_inurba_marseille","lat":43.2511,"lon":5.40323,"is_reserved":false,"is_disabled":false,"rental_uris":{"android":"levelo://app?vid=9a0b8a9e-4d02-4003-b30f-6acb8c814e3b","ios":"levelo://app?vid=9a0b8a9e-4d02-4003-b30f-6acb8c814e3b"},"vehicle_type_id":"4","last_reported":1700786052,"current_range_meters":22400,"station_id":"ce4bhlh2rcd13ifvqgig","pricing_plan_id":"free"},{"bike_id":"13073f67-9e92-4973-aa3a-3cd6fb552d78","system_id":"levelo_inurba_marseille","lat":43.25108,"lon":5.40322,"is_reserved":false,"is_disabled":false,"rental_uris":{"android":"levelo://app?vid=13073f67-9e92-4973-aa3a-3cd6fb552d78","ios":"levelo://app?vid=13073f67-9e92-4973-aa3a-3cd6fb552d78"},"vehicle_type_id":"4","last_reported":1700786052,"current_range_meters":30000,"station_id":"ce4bhlh2rcd13ifvqgig","pricing_plan_id":"free"},{"bike_id":"c899d4a5-d11e-4249-a47c-a2a4c5b1fa1d","system_id":"levelo_inurba_marseille","lat":43.25105,"lon":5.40325,"is_reserved":false,"is_disabled":false,"rental_uris":{"android":"levelo://app?vid=c899d4a5-d11e-4249-a47c-a2a4c5b1fa1d","ios":"levelo://app?vid=c899d4a5-d11e-4249-a47c-a2a4c5b1fa1d"},"vehicle_type_id":"4","last_reported":1700786052,"current_range_meters":27600,"station_id":"ce4bhlh2rcd13ifvqgig","pricing_plan_id":"free"},{"bike_id":"ffc11ebd-742a-4b61-8827-a702194ec710","system_id":"levelo_inurba_marseille","lat":43.243884,"lon":5.370737,"is_reserved":false,"is_disabled":false,"rental_uris":{"android":"levelo://app?vid=ffc11ebd-742a-4b61-8827-a702194ec710","ios":"levelo://app?vid=ffc11ebd-742a-4b61-8827-a702194ec710"},"vehicle_type_id":"4","last_reported":1700786052,"current_range_meters":25600,"station_id":"ce4bhhh2rcd13ifvqfk0","pricing_plan_id":"free"},{"bike_id":"6fcab073-849d-40a4-98b4-4bf412eb34ba","system_id":"levelo_inurba_marseille","lat":43.243884,"lon":5.370736,"is_reserved":false,"is_disabled":false,"rental_uris":{"android":"levelo://app?vid=6fcab073-849d-40a4-98b4-4bf412eb34ba","ios":"levelo://app?vid=6fcab073-849d-40a4-98b4-4bf412eb34ba"},"vehicle_type_id":"4","last_reported":1700786052,"current_range_meters":20400,"station_id":"ce4bhhh2rcd13ifvqfk0","pricing_plan_id":"free"},{"bike_id":"9d018334-b60b-4402-98f0-1fca1ba9f8b5","system_id":"levelo_inurba_marseille","lat":43.243884,"lon":5.370737,"is_reserved":false,"is_disabled":false,"rental_uris":{"android":"levelo://app?vid=9d018334-b60b-4402-98f0-1fca1ba9f8b5","ios":"levelo://app?vid=9d018334-b60b-4402-98f0-1fca1ba9f8b5"},"vehicle_type_id":"4","last_reported":1700786052,"current_range_meters":26800,"station_id":"ce4bhhh2rcd13ifvqfk0","pricing_plan_id":"free"},{"bike_id":"26d853d9-1666-4974-b171-789effde2288","system_id":"levelo_inurba_marseille","lat":43.243884,"lon":5.370736,"is_reserved":false,"is_disabled":false,"rental_uris":{"android":"levelo://app?vid=26d853d9-1666-4974-b171-789effde2288","ios":"levelo://app?vid=26d853d9-1666-4974-b171-789effde2288"},"vehicle_type_id":"4","last_reported":1700786052,"current_range_meters":14400,"station_id":"ce4bhhh2rcd13ifvqfk0","pricing_plan_id":"free"},{"bike_id":"15619980-95ac-401f-9294-a8074148c263","system_id":"levelo_inurba_marseille","lat":43.24074,"lon":5.37767,"is_reserved":false,"is_disabled":false,"rental_uris":{"android":"levelo://app?vid=15619980-95ac-401f-9294-a8074148c263","ios":"levelo://app?vid=15619980-95ac-401f-9294-a8074148c263"},"vehicle_type_id":"4","last_reported":1700786052,"current_range_meters":18400,"station_id":"ce4bhnp2rcd13ifvqgvg","pricing_plan_id":"free"},{"bike_id":"e5d9319a-0d59-4eee-95fc-d2c696394cad","system_id":"levelo_inurba_marseille","lat":43.240623,"lon":5.377642,"is_reserved":false,"is_disabled":false,"rental_uris":{"android":"levelo://app?vid=e5d9319a-0d59-4eee-95fc-d2c696394cad","ios":"levelo://app?vid=e5d9319a-0d59-4eee-95fc-d2c696394cad"},"vehicle_type_id":"4","last_reported":1700786052,"current_range_meters":16800,"station_id":"ce4bhnp2rcd13ifvqgvg","pricing_plan_id":"free"},{"bike_id":"7f36ee99-fc39-4607-9af5-7ed0f569f63d","system_id":"levelo_inurba_marseille","lat":43.240623,"lon":5.377642,"is_reserved":false,"is_disabled":false,"rental_uris":{"android":"levelo://app?vid=7f36ee99-fc39-4607-9af5-7ed0f569f63d","ios":"levelo://app?vid=7f36ee99-fc39-4607-9af5-7ed0f569f63d"},"vehicle_type_id":"4","last_reported":1700786052,"current_range_meters":27200,"station_id":"ce4bhnp2rcd13ifvqgvg","pricing_plan_id":"free"},{"bike_id":"9fc31478-5bcb-4ffe-8064-58386a775379","system_id":"levelo_inurba_marseille","lat":43.24071,"lon":5.37762,"is_reserved":false,"is_disabled":false,"rental_uris":{"android":"levelo://app?vid=9fc31478-5bcb-4ffe-8064-58386a775379","ios":"levelo://app?vid=9fc31478-5bcb-4ffe-8064-58386a775379"},"vehicle_type_id":"4","last_reported":1700786052,"current_range_meters":15600,"station_id":"ce4bhnp2rcd13ifvqgvg","pricing_plan_id":"free"},{"bike_id":"a521f606-5701-4030-b4c5-dab33339e8f5","system_id":"levelo_inurba_marseille","lat":43.240623,"lon":5.377642,"is_reserved":false,"is_disabled":false,"rental_uris":{"android":"levelo://app?vid=a521f606-5701-4030-b4c5-dab33339e8f5","ios":"levelo://app?vid=a521f606-5701-4030-b4c5-dab33339e8f5"},"vehicle_type_id":"4","last_reported":1700786052,"current_range_meters":31200,"station_id":"ce4bhnp2rcd13ifvqgvg","pricing_plan_id":"free"},