{"last_updated":1730567211,"ttl":60,"version":"2.2","data":{"bikes":[{"bike_id":"daa5500f-6039-4d77-bf02-00710b3acec6","system_id":"levelo_inurba_marseille","lat":43.25928,"lon":5.40922,"is_reserved":false,"is_disabled":false,"rental_uris":{"android":"levelo://app?vid=daa5500f-6039-4d77-bf02-00710b3acec6","ios":"levelo://app?vid=daa5500f-6039-4d77-bf02-00710b3acec6"},"vehicle_type_id":"4","last_reported":1730567211,"current_range_meters":8800,"station_id":"ce4bhm92rcd13ifvqglg","pricing_plan_id":"cebpf4jnsgd1na2vs0mg"},{"bike_id":"0d55650a-868b-46a8-8171-68699af61bc5","system_id":"levelo_inurba_marseille","lat":43.27944,"lon":5.41049,"is_reserved":false,"is_disabled":false,"rental_uris":{"android":"levelo://app?vid=0d55650a-868b-46a8-8171-68699af61bc5","ios":"levelo://app?vid=0d55650a-868b-46a8-8171-68699af61bc5"},"vehicle_type_id":"4","last_reported":1730567211,"current_range_meters":6400,"station_id":"ce4bhnp2rcd13ifvqh0g","pricing_plan_id":"cebpf4jnsgd1na2vs0mg"},{"bike_id":"bbedcf01-8d16-416e-bedd-d7dbe6c10a70","system_id":"levelo_inurba_marseille","lat":43.29032,"lon":5.38136,"is_reserved":false,"is_disabled":false,"rental_uris":{"android":"levelo://app?vid=bbedcf01-8d16-416e-bedd-d7dbe6c10a70","ios":"levelo://app?vid=bbedcf01-8d16-416e-bedd-d7dbe6c10a70"},"vehicle_type_id":"4","last_reported":1730567211,"current_range_meters":12000,"station_id":"ce4bh4p2rcd13ifvqe1g","pricing_plan_id":"cebpf4jnsgd1na2vs0mg"},{"bike_id":"02fe0e86-bc31-4b56-981a-890ed6cd1c76","system_id":"levelo_inurba_marseille","lat":43.32662,"lon":5.40984,"is_reserved":false,"is_disabled":false,"rental_uris":{"android":"levelo://app?vid=02fe0e86-bc31-4b56-981a-890ed6cd1c76","ios":"levelo://app?vid=02fe0e86-bc31-4b56-981a-890ed6cd1c76"},"vehicle_type_id":"4","last_reported":1730567211,"current_range_meters":7200,"station_id":"ce4bhpp2rcd13ifvqhgg","pricing_plan_id":"cebpf4jnsgd1na2vs0mg"},{"bike_id":"8bc59e1b-bd3e-418b-b1b4-3e3262ba20b2","system_id":"levelo_inurba_marseille","lat":43.27209,"lon":5.39185,"is_reserved":false,"is_disabled":false,"rental_uris":{"android":"levelo://app?vid=8bc59e1b-bd3e-418b-b1b4-3e3262ba20b2","ios":"levelo://app?vid=8bc59e1b-bd3e-418b-b1b4-3e3262ba20b2"},"vehicle_type_id":"4","last_reported":1730567211,"current_range_meters":12800,"station_id":"ce4bhhp2rcd13ifvqfm0","pricing_plan_id":"cebpf4jnsgd1na2vs0mg"},{"bike_id":"9544e8e1-810b-40e5-8e45-0e98bf35fbaa","system_id":"levelo_inurba_marseille","lat":43.30135,"lon":5.37422,"is_reserved":false,"is_disabled":false,"rental_uris":{"android":"levelo://app?vid=9544e8e1-810b-40e5-8e45-0e98bf35fbaa","ios":"levelo://app?vid=9544e8e1-810b-40e5-8e45-0e98bf35fbaa"},"vehicle_type_id":"4","last_reported":1730567211,"current_range_meters":36800,"station_id":"ce4bgs92rcd13ifvqcc0","pricing_plan_id":"cebpf4jnsgd1na2vs0mg"},{"bike_id":"06eeb923-372e-4a07-8390-6294a8f378a2","system_id":"levelo_inurba_marseille","lat":43.29587,"lon":5.37515,"is_reserved":false,"is_disabled":false,"rental_uris":{"android":"levelo://app?vid=06eeb923-372e-4a07-8390-6294a8f378a2","ios":"levelo://app?vid=06eeb923-372e-4a07-8390-6294a8f378a2"},"vehicle_type_id":"4","last_reported":1730567211,"current_range_meters":29600,"station_id":"ce4bgh92rcd13ifvqb50","pricing_plan_id":"cebpf4jnsgd1na2vs0mg"},{"bike_id":"451ddeca-7b19-4bfd-a70b-6f30a67ea9bf","system_id":"levelo_inurba_marseille","lat":43.26558,"lon":5.3729,"is_reserved":false,"is_disabled":false,"rental_uris":{"android":"levelo://app?vid=451ddeca-7b19-4bfd-a70b-6f30a67ea9bf","ios":"levelo://app?vid=451ddeca-7b19-4bfd-a70b-6f30a67ea9bf"},"vehicle_type_id":"4","last_reported":1730567211,"current_range_meters":6800,"station_id":"ce4bhg12rcd13ifvqf70","pricing_plan_id":"cebpf4jnsgd1na2vs0mg"},{"bike_id":"36d67d5e-5dda-4081-9c0a-5acdc43f8564","system_id":"levelo_inurba_marseille","lat":43.30416,"lon":5.38894,"is_reserved":false,"is_disabled":false,"rental_uris":{"android":"levelo://app?vid=36d67d5e-5dda-4081-9c0a-5acdc43f8564","ios":"levelo://app?vid=36d67d5e-5dda-4081-9c0a-5acdc43f8564"},"vehicle_type_id":"4","last_reported":1730567211,"current_range_meters":38800,"station_id":"ce4bgk12rcd13ifvqbi0","pricing_plan_id":"cebpf4jnsgd1na2vs0mg"},{"bike_id":"69eea39f-870a-41f2-8bcc-4fd33fd30f6b","system_id":"levelo_inurba_marseille","lat":43.24646,"lon":5.38894,"is_reserved":false,"is_disabled":false,"rental_uris":{"android":"levelo://app?vid=69eea39f-870a-41f2-8bcc-4fd33fd30f6b","ios":"levelo://app?vid=69eea39f-870a-41f2-8bcc-4fd33fd30f6b"},"vehicle_type_id":"4","last_reported":1730567211,"current_range_meters":19200,"station_id":"ce4bhg12rcd13ifvqf60","pricing_plan_id":"cebpf4jnsgd1na2vs0mg"},{"bike_id":"867988da-115c-449b-aae8-a29b7e2241c3","system_id":"levelo_inurba_marseille","lat":43.29538,"lon":5.37511,"is_reserved":false,"is_disabled":false,"rental_uris":{"android":"levelo://app?vid=867988da-115c-449b-aae8-a29b7e2241c3","ios":"levelo://app?vid=867988da-115c-449b-aae8-a29b7e2241c3"},"vehicle_type_id":"4","last_reported":1730567211,"current_range_meters":36800,"station_id":"ce4bgkp2rcd13ifvqbmg","pricing_plan_id":"cebpf4jnsgd1na2vs0mg"},{"bike_id":"5818a6ac-2d40-4bf0-a920-aefa2e8a89fa","system_id":"levelo_inurba_marseille","lat":43.26474,"lon":5.39558,"is_reserved":false,"is_disabled":false,"rental_uris":{"android":"levelo://app?vid=5818a6ac-2d40-4bf0-a920-aefa2e8a89fa","ios":"levelo://app?vid=5818a6ac-2d40-4bf0-a920-aefa2e8a89fa"},"vehicle_type_id":"4","last_reported":1730567211,"current_range_meters":27600,"station_id":"ce4bhi12rcd13ifvqfq0","pricing_plan_id":"cebpf4jnsgd1na2vs0mg"},{"bike_id":"198657cb-dfe2-4960-98ba-591830066bbd","system_id":"levelo_inurba_marseille","lat":43.28156,"lon":5.42642,"is_reserved":false,"is_disabled":false,"rental_uris":{"android":"levelo://app?vid=198657cb-dfe2-4960-98ba-591830066bbd","ios":"levelo://app?vid=198657cb-dfe2-4960-98ba-591830066bbd"},"vehicle_type_id":"4","last_reported":1730567211,"current_range_meters":8400,"station_id":"ce4bhnh2rcd13ifvqgug","pricing_plan_id":"cebpf4jnsgd1na2vs0mg"},{"bike_id":"3aae935e-f19b-4b82-860a-9e86c4796487","system_id":"levelo_inurba_marseille","lat":43.25868,"lon":5.399,"is_reserved":false,"is_disabled":false,"rental_uris":{"android":"levelo://app?vid=3aae935e-f19b-4b82-860a-9e86c4796487","ios":"levelo://app?vid=3aae935e-f19b-4b82-860a-9e86c4796487"},"vehicle_type_id":"4","last_reported":1730567211,"current_range_meters":16400,"station_id":"ce4bhl92rcd13ifvqghg","pricing_plan_id":"cebpf4jnsgd1na2vs0mg"},{"bike_id":"6aee0ce1-c7a0-45e8-a515-069ca31b3763","system_id":"levelo_inurba_marseille","lat":43.25729,"lon":5.41117,"is_reserved":false,"is_disabled":false,"rental_uris":{"android":"levelo://app?vid=6aee0ce1-c7a0-45e8-a515-069ca31b3763","ios":"levelo://app?vid=6aee0ce1-c7a0-45e8-a515-069ca31b3763"},"vehicle_type_id":"4","last_reported":1730567211,"current_range_meters":37600,"station_id":"ce4bhkp2rcd13ifvqgd0","pricing_plan_id":"cebpf4jnsgd1na2vs0mg"},{"bike_id":"3db3c7c0-9773-45e6-90a8-a4ab8759935e","system_id":"levelo_inurba_marseille","lat":43.31259,"lon":5.36758,"is_reserved":false,"is_disabled":false,"rental_uris":{"android":"levelo://app?vid=3db3c7c0-9773-45e6-90a8-a4ab8759935e","ios":"levelo://app?vid=3db3c7c0-9773-45e6-90a8-a4ab8759935e"},"vehicle_type_id":"4","last_reported":1730567211,"current_range_meters":29600,"station_id":"ce4bgr92rcd13ifvqc6g","pricing_plan_id":"cebpf4jnsgd1na2vs0mg"},{"bike_id":"7f01fda9-488c-42cd-bad3-917b113dfa40","system_id":"levelo_inurba_marseille","lat":43.28856,"lon":5.35852,"is_reserved":false,"is_disabled":false,"rental_uris":{"android":"levelo://app?vid=7f01fda9-488c-42cd-bad3-917b113dfa40","ios":"levelo://app?vid=7f01fda9-488c-42cd-bad3-917b113dfa40"},"vehicle_type_id":"4","last_reported":1730567211,"current_range_meters":6800,"station_id":"ce4bhb12rcd13ifvqem0","pricing_plan_id":"cebpf4jnsgd1na2vs0mg"},{"bike_id":"45af0fd6-1817-4ec1-baf7-84b19d9f2ca7","system_id":"levelo_inurba_marseille","lat":43.2943,"lon":5.38619,"is_reserved":false,"is_disabled":false,"rental_uris":{"android":"levelo://app?vid=45af0fd6-1817-4ec1-baf7-84b19d9f2ca7","ios":"levelo://app?vid=45af0fd6-1817-4ec1-baf7-84b19d9f2ca7"},"vehicle_type_id":"4","last_reported":1730567211,"current_range_meters":22000,"station_id":"ce4bh2h2rcd13ifvqdh0","pricing_plan_id":"cebpf4jnsgd1na2vs0mg"},{"bike_id":"e75954f1-d674-4444-8335-95b5e998c3f6","system_id":"levelo_inurba_marseille","lat":43.27376,"lon":5.36258,"is_reserved":false,"is_disabled":false,"rental_uris":{"android":"levelo://app?vid=e75954f1-d674-4444-8335-95b5e998c3f6","ios":"levelo://app?vid=e75954f1-d674-4444-8335-95b5e998c3f6"},"vehicle_type_id":"4","last_reported":1730567211,"current_range_meters":3600,"station_id":"ce4bhbh2rcd13ifvqeo0","pricing_plan_id":"cebpf4jnsgd1na2vs0mg"},{"bike_id":"af892726-f1ee-40a9-98a5-9b60c2f9efad","system_id":"levelo_inurba_marseille","lat":43.24652,"lon":5.38896,"is_reserved":false,"is_disabled":false,"rental_uris":{"android":"levelo://app?vid=af892726-f1ee-40a9-98a5-9b60c2f9efad","ios":"levelo://app?vid=af892726-f1ee-40a9-98a5-9b60c2f9efad"},"vehicle_type_id":"4","last_reported":1730567211,"current_range_meters":19200,"station_id":"ce4bhg12rcd13ifvqf60","pricing_plan_id":"cebpf4jnsgd1na2vs0mg"},{"bike_id":"d4663c4a-cfcf-47d5-81af-36c19e17b85d","system_id":"levelo_inurba_marseille","lat":43.28366,"lon":5.38104,"is_reserved":false,"is_disabled":false,"rental_uris":{"android":"levelo://app?vid=d4663c4a-cfcf-47d5-81af-36c19e17b85d","ios":"levelo://app?vid=d4663c4a-cfcf-47d5-81af-36c19e17b85d"},"vehicle_type_id":"4","last_reported":1730567211,"current_range_meters":38000,"station_id":"ce4bh412rcd13ifvqdr0","pricing_plan_id":"cebpf4jnsgd1na2vs0mg"},{"bike_id":"7f39b1a9-937f-4de6-9cb9-6fb824b11a9d","system_id":"levelo_inurba_marseille","lat":43.29277,"lon":5.3684,"is_reserved":false,"is_disabled":false,"rental_uris":{"android":"levelo://app?vid=7f39b1a9-937f-4de6-9cb9-6fb824b11a9d","ios":"levelo://app?vid=7f39b1a9-937f-4de6-9cb9-6fb824b11a9d"},"vehicle_type_id":"4","last_reported":1730567211,"current_range_meters":30000,"station_id":"ce4bhbp2rcd13ifvqesg","pricing_plan_id":"cebpf4jnsgd1na2vs0mg"},{"bike_id":"c4a6d302-b3ae-49d6-a830-029d9bcf0cde","system_id":"levelo_inurba_marseille","lat":43.30216,"lon":5.39474,"is_reserved":false,"is_disabled":false,"rental_uris":{"android":"levelo://app?vid=c4a6d302-b3ae-49d6-a830-029d9bcf0cde","ios":"levelo://app?vid=c4a6d302-b3ae-49d6-a830-029d9bcf0cde"},"vehicle_type_id":"4","last_reported":1730567211,"current_range_meters":20400,"station_id":"ce4bh0p2rcd13ifvqd70","pricing_plan_id":"cebpf4jnsgd1na2vs0mg"},{"bike_id":"3f436de5-ecd9-4a33-95ed-a42bece69884","system_id":"levelo_inurba_marseille","lat":43.29532,"lon":5.38553,"is_reserved":false,"is_disabled":false,"rental_uris":{"android":"levelo://app?vid=3f436de5-ecd9-4a33-95ed-a42bece69884","ios":"levelo://app?vid=3f436de5-ecd9-4a33-95ed-a42bece69884"},"vehicle_type_id":"4","last_reported":1730567211,"current_range_meters":4400,"station_id":"ce4bgih2rcd13ifvqba0","pricing_plan_id":"cebpf4jnsgd1na2vs0mg"},{"bike_id":"e03b53fe-fb4e-4773-880e-c5c0c43800ca","system_id":"levelo_inurba_marseille","lat":43.26222,"lon":5.37444,"is_reserved":false,"is_disabled":false,"rental_uris":{"android":"levelo://app?vid=e03b53fe-fb4e-4773-880e-c5c0c43800ca","ios":"levelo://app?vid=e03b53fe-fb4e-4773-880e-c5c0c43800ca"},"vehicle_type_id":"4","last_reported":1730567211,"current_range_meters":19600,"station_id":"ce4bhgp2rcd13ifvqfc0","pricing_plan_id":"cebpf4jnsgd1na2vs0mg"},{"bike_id":"1f343c34-b7a0-4046-a2f9-240e7f058a56","system_id":"levelo_inurba_marseille","lat":43.27378,"lon":5.36256,"is_reserved":false,"is_disabled":false,"rental_uris":{"android":"levelo://app?vid=1f343c34-b7a0-4046-a2f9-240e7f058a56","ios":"levelo://app?vid=1f343c34-b7a0-4046-a2f9-240e7f058a56"},"vehicle_type_id":"4","last_reported":1730567211,"current_range_meters":6400,"station_id":"ce4bhbh2rcd13ifvqeo0","pricing_plan_id":"cebpf4jnsgd1na2vs0mg"},{"bike_id":"87ef2373-94c9-4473-9054-9a95cce49f6b","system_id":"levelo_inurba_marseille","lat":43.28729,"lon":5.36096,"is_reserved":false,"is_disabled":false,"rental_uris":{"android":"levelo://app?vid=87ef2373-94c9-4473-9054-9a95cce49f6b","ios":"levelo://app?vid=87ef2373-94c9-4473-9054-9a95cce49f6b"},"vehicle_type_id":"4","last_reported":1730567211,"current_range_meters":2000,"station_id":"cki0cbj6b192h4jlfktg","pricing_plan_id":"cebpf4jnsgd1na2vs0mg"},{"bike_id":"deea0176-49b1-4141-8101-83b5197c2606","system_id":"levelo_inurba_marseille","lat":43.29277,"lon":5.36846,"is_reserved":false,"is_disabled":false,"rental_uris":{"android":"levelo://app?vid=deea0176-49b1-4141-8101-83b5197c2606","ios":"levelo://app?vid=deea0176-49b1-4141-8101-83b5197c2606"},"vehicle_type_id":"4","last_reported":1730567211,"current_range_meters":8000,"station_id":"ce4bhbp2rcd13ifvqesg","pricing_plan_id":"cebpf4jnsgd1na2vs0mg"},{"bike_id":"7530d91f-efbd-4e89-80f6-a17fa406f975","system_id":"levelo_inurba_marseille","lat":43.31264,"lon":5.40177,"is_reserved":false,"is_disabled":false,"rental_uris":{"android":"levelo://app?vid=7530d91f-efbd-4e89-80f6-a17fa406f975","ios":"levelo://app?vid=7530d91f-efbd-4e89-80f6-a17fa406f975"},"vehicle_type_id":"4","last_reported":1730567211,"current_range_meters":20400,"station_id":"ce4bh092rcd13ifvqd30","pricing_plan_id":"cebpf4jnsgd1na2vs0mg"},{"bike_id":"5478c91d-c355-4f4a-9c3a-6527708c32b4","system_id":"levelo_inurba_marseille","lat":43.31691,"lon":5.40472,"is_reserved":false,"is_disabled":false,"rental_uris":{"android":"levelo://app?vid=5478c91d-c355-4f4a-9c3a-6527708c32b4","ios":"levelo://app?vid=5478c91d-c355-4f4a-9c3a-6527708c32b4"},"vehicle_type_id":"4","last_reported":1730567211,"current_range_meters":38800,"station_id":"ce4bh012rcd13ifvqd00","pricing_plan_id":"cebpf4jnsgd1na2vs0mg"},{"bike_id":"38856dec-162c-4fe5-9bfe-3f3b9f0cdf88","system_id":"levelo_inurba_marseille","lat":43.292023,"lon":5.393287,"is_reserved":false,"is_disabled":false,"rental_uris":{"android":"levelo://app?vid=38856dec-162c-4fe5-9bfe-3f3b9f0cdf88","ios":"levelo://app?vid=38856dec-162c-4fe5-9bfe-3f3b9f0cdf88"},"vehicle_type_id":"4","last_reported":1730567211,"current_range_meters":11600,"station_id":"ce4bh192rcd13ifvqdd0","pricing_plan_id":"cebpf4jnsgd1na2vs0mg"},{"bike_id":"ae64e863-da5b-4d36-90bb-f2349dc8521e","system_id":"levelo_inurba_marseille","lat":43.3149,"lon":5.37304,"is_reserved":false,"is_disabled":false,"rental_uris":{"android":"levelo://app?vid=ae64e863-da5b-4d36-90bb-f2349dc8521e","ios":"levelo://app?vid=ae64e863-da5b-4d36-90bb-f2349dc8521e"},"vehicle_type_id":"4","last_reported":1730567211,"current_range_meters":38800,"station_id":"ce4bgt12rcd13ifvqcd0","pricing_plan_id":"cebpf4jnsgd1na2vs0mg"},{"bike_id":"c264941c-8d81-44c0-829a-239fa10e7322","system_id":"levelo_inurba_marseille","lat":43.290771,"lon":5.381083,"is_reserved":false,"is_disabled":false,"rental_uris":{"android":"levelo://app?vid=c264941c-8d81-44c0-829a-239fa10e7322","ios":"levelo://app?vid=c264941c-8d81-44c0-829a-239fa10e7322"},"vehicle_type_id":"4","last_reported":1730567211,"current_range_meters":38800,"station_id":"ce4bh512rcd13ifvqe2g","pricing_plan_id":"cebpf4jnsgd1na2vs0mg"},{"bike_id":"2f2d493e-7a15-4bfb-a779-eebf87e4f33f","system_id":"levelo_inurba_marseille","lat":43.27804,"lon":5.40717,"is_reserved":false,"is_disabled":false,"rental_uris":{"android":"levelo://app?vid=2f2d493e-7a15-4bfb-a779-eebf87e4f33f","ios":"levelo://app?vid=2f2d493e-7a15-4bfb-a779-eebf87e4f33f"},"vehicle_type_id":"4","last_reported":1730567211,"current_range_meters":16400,"station_id":"ce4bhnh2rcd13ifvqgtg","pricing_plan_id":"cebpf4jnsgd1na2vs0mg"},{"bike_id":"eb6f9db4-39a4-4741-9e58-1dac956564ac","system_id":"levelo_inurba_marseille","lat":43.25574,"lon":5.38248,"is_reserved":false,"is_disabled":false,"rental_uris":{"android":"levelo://app?vid=eb6f9db4-39a4-4741-9e58-1dac956564ac","ios":"levelo://app?vid=eb6f9db4-39a4-4741-9e58-1dac956564ac"},"vehicle_type_id":"4","last_reported":1730567211,"current_range_meters":38800,"station_id":"ce4bhih2rcd13ifvqfs0","pricing_plan_id":"cebpf4jnsgd1na2vs0mg"},{"bike_id":"ad27a309-825b-48cf-b531-54c6b8b4f6b8","system_id":"levelo_inurba_marseille","lat":43.27618,"lon":5.36107,"is_reserved":false,"is_disabled":false,"rental_uris":{"android":"levelo://app?vid=ad27a309-825b-48cf-b531-54c6b8b4f6b8","ios":"levelo://app?vid=ad27a309-825b-48cf-b531-54c6b8b4f6b8"},"vehicle_type_id":"4","last_reported":1730567211,"current_range_meters":11600,"station_id":"ce4bgj92rcd13ifvqbe0","pricing_plan_id":"cebpf4jnsgd1na2vs0mg"},{"bike_id":"fc4b632f-1f59-4517-9c0f-d209472ddf2a","system_id":"levelo_inurba_marseille","lat":43.29032,"lon":5.37555,"is_reserved":false,"is_disabled":false,"rental_uris":{"android":"levelo://app?vid=fc4b632f-1f59-4517-9c0f-d209472ddf2a","ios":"levelo://app?vid=fc4b632f-1f59-4517-9c0f-d209472ddf2a"},"vehicle_type_id":"4","last_reported":1730567211,"current_range_meters":800,"station_id":"ce4bh692rcd13ifvqe90","pricing_plan_id":"cebpf4jnsgd1na2vs0mg"},{"bike_id":"4a76706b-3290-456b-bae0-86b9669c12d5","system_id":"levelo_inurba_marseille","lat":43.30435,"lon":5.38893,"is_reserved":false,"is_disabled":false,"rental_uris":{"android":"levelo://app?vid=4a76706b-3290-456b-bae0-86b9669c12d5","ios":"levelo://app?vid=4a76706b-3290-456b-bae0-86b9669c12d5"},"vehicle_type_id":"4","last_reported":1730567211,"current_range_meters":22000,"station_id":"ce4bgk12rcd13ifvqbi0","pricing_plan_id":"cebpf4jnsgd1na2vs0mg"},{"bike_id":"8316b3f7-b6ea-468d-81da-bf9e8eab05cc","system_id":"levelo_inurba_marseille","lat":43.3027,"lon":5.37721,"is_reserved":false,"is_disabled":false,"rental_uris":{"android":"levelo://app?vid=8316b3f7-b6ea-468d-81da-bf9e8eab05cc","ios":"levelo://app?vid=8316b3f7-b6ea-468d-81da-bf9e8eab05cc"},"vehicle_type_id":"4","last_reported":1730567211,"current_range_meters":11200,"station_id":"ce4bguh2rcd13ifvqcj0","pricing_plan_id":"cebpf4jnsgd1na2vs0mg"},{"bike_id":"079513bb-47da-4791-9c4d-7cb4cc570bdb","system_id":"levelo_inurba_marseille","lat":43.30941,"lon":5.40052,"is_reserved":false,"is_disabled":false,"rental_uris":{"android":"levelo://app?vid=079513bb-47da-4791-9c4d-7cb4cc570bdb","ios":"levelo://app?vid=079513bb-47da-4791-9c4d-7cb4cc570bdb"},"vehicle_type_id":"4","last_reported":1730567211,"current_range_meters":3200,"station_id":"ce4bgvp2rcd13ifvqct0","pricing_plan_id":"cebpf4jnsgd1na2vs0mg"},{"bike_id":"45cbe91d-389f-4aac-889f-133f14307ecf","system_id":"levelo_inurba_marseille","lat":43.290344,"lon":5.37567,"is_reserved":false,"is_disabled":false,"rental_uris":{"android":"levelo://app?vid=45cbe91d-389f-4aac-889f-133f14307ecf","ios":"levelo://app?vid=45cbe91d-389f-4aac-889f-133f14307ecf"},"vehicle_type_id":"4","last_reported":1730567211,"current_range_meters":13600,"station_id":"ce4bh692rcd13ifvqe90","pricing_plan_id":"cebpf4jnsgd1na2vs0mg"},{"bike_id":"ff3ce5eb-7d0a-4d95-ae82-f6f97be1c66a","system_id":"levelo_inurba_marseille","lat":43.28406,"lon":5.37514,"is_reserved":false,"is_disabled":false,"rental_uris":{"android":"levelo://app?vid=ff3ce5eb-7d0a-4d95-ae82-f6f97be1c66a","ios":"levelo://app?vid=ff3ce5eb-7d0a-4d95-ae82-f6f97be1c66a"},"vehicle_type_id":"4","last_reported":1730567211,"current_range_meters":8400,"station_id":"ce4bh412rcd13ifvqds0","pricing_plan_id":"cebpf4jnsgd1na2vs0mg"},{"bike_id":"642f9eb4-53b6-4c2f-8920-dbc91c6efa89","system_id":"levelo_inurba_marseille","lat":43.24181,"lon":5.39737,"is_reserved":false,"is_disabled":false,"rental_uris":{"android":"levelo://app?vid=642f9eb4-53b6-4c2f-8920-dbc91c6efa89","ios":"levelo://app?vid=642f9eb4-53b6-4c2f-8920-dbc91c6efa89"},"vehicle_type_id":"4","last_reported":1730567211,"current_range_meters":11600,"station_id":"ce4bhn12rcd13ifvqgpg","pricing_plan_id":"cebpf4jnsgd1na2vs0mg"},{"bike_id":"d69eef29-33f1-400b-9dbd-e583b4f600d8","system_id":"levelo_inurba_marseille","lat":43.2465,"lon":5.38904,"is_reserved":false,"is_disabled":false,"rental_uris":{"android":"levelo://app?vid=d69eef29-33f1-400b-9dbd-e583b4f600d8","ios":"levelo://app?vid=d69eef29-33f1-400b-9dbd-e583b4f600d8"},"vehicle_type_id":"4","last_reported":1730567211,"current_range_meters":38800,"station_id":"ce4bhg12rcd13ifvqf60","pricing_plan_id":"cebpf4jnsgd1na2vs0mg"},{"bike_id":"52fed23d-645c-4e02-a3f2-03e78e73ae9c","system_id":"levelo_inurba_marseille","lat":43.29306,"lon":5.37183,"is_reserved":false,"is_disabled":false,"rental_uris":{"android":"levelo://app?vid=52fed23d-645c-4e02-a3f2-03e78e73ae9c","ios":"levelo://app?vid=52fed23d-645c-4e02-a3f2-03e78e73ae9c"},"vehicle_type_id":"4","last_reported":1730567211,"current_range_meters":25600,"station_id":"ce4bgh92rcd13ifvqb40","pricing_plan_id":"cebpf4jnsgd1na2vs0mg"},{"bike_id":"ed265b63-1089-49c7-8941-dd78afc42798","system_id":"levelo_inurba_marseille","lat":43.26215,"lon":5.37445,"is_reserved":false,"is_disabled":false,"rental_uris":{"android":"levelo://app?vid=ed265b63-1089-49c7-8941-dd78afc42798","ios":"levelo://app?vid=ed265b63-1089-49c7-8941-dd78afc42798"},"vehicle_type_id":"4","last_reported":1730567211,"current_range_meters":18000,"station_id":"ce4bhgp2rcd13ifvqfc0","pricing_plan_id":"cebpf4jnsgd1na2vs0mg"},{"bike_id":"2121f789-e18d-4b71-9a8f-4579930f44df","system_id":"levelo_inurba_marseille","lat":43.27213,"lon":5.39183,"is_reserved":false,"is_disabled":false,"rental_uris":{"android":"levelo://app?vid=2121f789-e18d-4b71-9a8f-4579930f44df","ios":"levelo://app?vid=2121f789-e18d-4b71-9a8f-4579930f44df"},"vehicle_type_id":"4","last_reported":1730567211,"current_range_meters":37600,"station_id":"ce4bhhp2rcd13ifvqfm0","pricing_plan_id":"cebpf4jnsgd1na2vs0mg"},{"bike_id":"4159855a-a970-48c2-b24c-6f46a7c6c427","system_id":"levelo_inurba_marseille","lat":43.29795,"lon":5.39348,"is_reserved":false,"is_disabled":false,"rental_uris":{"android":"levelo://app?vid=4159855a-a970-48c2-b24c-6f46a7c6c427","ios":"levelo://app?vid=4159855a-a970-48c2-b24c-6f46a7c6c427"},"vehicle_type_id":"4","last_reported":1730567211,"current_range_meters":29600,"station_id":"chh1huq6cuj3fo74tm60","pricing_plan_id":"cebpf4jnsgd1na2vs0mg"},{"bike_id":"3d884069-2833-4d0f-84db-5254160b4f54","system_id":"levelo_inurba_marseille","lat":43.29347,"lon":5.37851,"is_reserved":false,"is_disabled":false,"rental_uris":{"android":"levelo://app?vid=3d884069-2833-4d0f-84db-5254160b4f54","ios":"levelo://app?vid=3d884069-2833-4d0f-84db-5254160b4f54"},"vehicle_type_id":"4","last_reported":1730567211,"current_range_meters":12400,"station_id":"ce4bgjh2rcd13ifvqbf0","pricing_plan_id":"cebpf4jnsgd1na2vs0mg"},{"bike_id":"219a705e-8f0e-45dc-93fa-b6f3a0a19609","system_id":"levelo_inurba_marseille","lat":43.24073,"lon":5.37766,"is_reserved":false,"is_disabled":false,"rental_uris":{"android":"levelo://app?vid=219a705e-8f0e-45dc-93fa-b6f3a0a19609","ios":"levelo://app?vid=219a705e-8f0e-45dc-93fa-b6f3a0a19609"},"vehicle_type_id":"4","last_reported":1730567211,"current_range_meters":8400,"station_id":"ce4bhnp2rcd13ifvqgvg","pricing_plan_id":"cebpf4jnsgd1na2vs0mg"},{"bike_id":"d4986541-9a9b-4a5b-bb55-b01d5cb4582e","system_id":"levelo_inurba_marseille","lat":43.29264,"lon":5.38447,"is_reserved":false,"is_disabled":false,"rental_uris":{"android":"levelo://app?vid=d4986541-9a9b-4a5b-bb55-b01d5cb4582e","ios":"levelo://app?vid=d4986541-9a9b-4a5b-bb55-b01d5cb4582e"},"vehicle_type_id":"4","last_reported":1730567211,"current_range_meters":18000,"station_id":"ce4bh692rcd13ifvqea0","pricing_plan_id":"cebpf4jnsgd1na2vs0mg"},{"bike_id":"d869095d-51f8-4bdb-aef0-73f3312b12fc","system_id":"levelo_inurba_marseille","lat":43.29799,"lon":5.39347,"is_reserved":false,"is_disabled":false,"rental_uris":{"android":"levelo://app?vid=d869095d-51f8-4bdb-aef0-73f3312b12fc","ios":"levelo://app?vid=d869095d-51f8-4bdb-aef0-73f3312b12fc"},"vehicle_type_id":"4","last_reported":1730567211,"current_range_meters":38800,"station_id":"chh1huq6cuj3fo74tm60","pricing_plan_id":"cebpf4jnsgd1na2vs0mg"},{"bike_id":"862abfcc-d325-4518-b262-cdaf78ff41bb","system_id":"levelo_inurba_marseille","lat":43.30787,"lon":5.37644,"is_reserved":false,"is_disabled":false,"rental_uris":{"android":"levelo://app?vid=862abfcc-d325-4518-b262-cdaf78ff41bb","ios":"levelo://app?vid=862abfcc-d325-4518-b262-cdaf78ff41bb"},"vehicle_type_id":"4","last_reported":1730567211,"current_range_meters":24400,"station_id":"ce4bgv92rcd13ifvqcq0","pricing_plan_id":"cebpf4jnsgd1na2vs0mg"},{"bike_id":"9be48050-ed79-4a15-9a73-9254caa56ac2","system_id":"levelo_inurba_marseille","lat":43.267633,"lon":5.394133,"is_reserved":false,"is_disabled":false,"rental_uris":{"android":"levelo://app?vid=9be48050-ed79-4a15-9a73-9254caa56ac2","ios":"levelo://app?vid=9be48050-ed79-4a15-9a73-9254caa56ac2"},"vehicle_type_id":"4","last_reported":1730567211,"current_range_meters":25600,"station_id":"ce4bhh12rcd13ifvqfg0","pricing_plan_id":"cebpf4jnsgd1na2vs0mg"},{"bike_id":"1b760ddd-e34d-491f-9c82-3266310982c8","system_id":"levelo_inurba_marseille","lat":43.26555,"lon":5.37287,"is_reserved":false,"is_disabled":false,"rental_uris":{"android":"levelo://app?vid=1b760ddd-e34d-491f-9c82-3266310982c8","ios":"levelo://app?vid=1b760ddd-e34d-491f-9c82-3266310982c8"},"vehicle_type_id":"4","last_reported":1730567211,"current_range_meters":7200,"station_id":"ce4bhg12rcd13ifvqf70","pricing_plan_id":"cebpf4jnsgd1na2vs0mg"},{"bike_id":"0e7dc9ac-472a-4a66-8349-cd60c3504f74","system_id":"levelo_inurba_marseille","lat":43.29973,"lon":5.38498,"is_reserved":false,"is_disabled":false,"rental_uris":{"android":"levelo://app?vid=0e7dc9ac-472a-4a66-8349-cd60c3504f74","ios":"levelo://app?vid=0e7dc9ac-472a-4a66-8349-cd60c3504f74"},"vehicle_type_id":"4","last_reported":1730567211,"current_range_meters":38800,"station_id":"","pricing_plan_id":"cebpf4jnsgd1na2vs0mg"},{"bike_id":"116d4450-2b1f-4c91-a1dd-14ff79eda634","system_id":"levelo_inurba_marseille","lat":43.24549,"lon":5.39525,"is_reserved":false,"is_disabled":false,"rental_uris":{"android":"levelo://app?vid=116d4450-2b1f-4c91-a1dd-14ff79eda634","ios":"levelo://app?vid=116d4450-2b1f-4c91-a1dd-14ff79eda634"},"vehicle_type_id":"4","last_reported":1730567211,"current_range_meters":8400,"station_id":"ce4bhlp2rcd13ifvqgjg","pricing_plan_id":"cebpf4jnsgd1na2vs0mg"},{"bike_id":"61497ec0-6b91-4085-893e-2dc4cbab5392","system_id":"levelo_inurba_marseille","lat":43.32367,"lon":5.38897,"is_reserved":false,"is_disabled":false,"rental_uris":{"android":"levelo://app?vid=61497ec0-6b91-4085-893e-2dc4cbab5392","ios":"levelo://app?vid=61497ec0-6b91-4085-893e-2dc4cbab5392"},"vehicle_type_id":"4","last_reported":1730567211,"current_range_meters":27200,"station_id":"ce4bhqp2rcd13ifvqhog","pricing_plan_id":"cebpf4jnsgd1na2vs0mg"},{"bike_id":"60b775e0-7d02-40e0-9f2b-83607d01e409","system_id":"levelo_inurba_marseille","lat":43.26195,"lon":5.37454,"is_reserved":false,"is_disabled":false,"rental_uris":{"android":"levelo://app?vid=60b775e0-7d02-40e0-9f2b-83607d01e409","ios":"levelo://app?vid=60b775e0-7d02-40e0-9f2b-83607d01e409"},"vehicle_type_id":"4","last_reported":1730567211,"current_range_meters":9600,"station_id":"ce4bhgp2rcd13ifvqfc0","pricing_plan_id":"cebpf4jnsgd1na2vs0mg"},{"bike_id":"dbf7b4e2-01c1-4b1f-a14c-e4afa889df60","system_id":"levelo_inurba_marseille","lat":43.30143,"lon":5.37434,"is_reserved":false,"is_disabled":false,"rental_uris":{"android":"levelo://app?vid=dbf7b4e2-01c1-4b1f-a14c-e4afa889df60","ios":"levelo://app?vid=dbf7b4e2-01c1-4b1f-a14c-e4afa889df60"},"vehicle_type_id":"4","last_reported":1730567211,"current_range_meters":16800,"station_id":"ce4bgs92rcd13ifvqcc0","pricing_plan_id":"cebpf4jnsgd1na2vs0mg"},{"bike_id":"40b7b26d-ecbd-441d-aa2e-82cdf1d1f7c9","system_id":"levelo_inurba_marseille","lat":43.29915,"lon":5.37456,"is_reserved":false,"is_disabled":false,"rental_uris":{"android":"levelo://app?vid=40b7b26d-ecbd-441d-aa2e-82cdf1d1f7c9","ios":"levelo://app?vid=40b7b26d-ecbd-441d-aa2e-82cdf1d1f7c9"},"vehicle_type_id":"4","last_reported":1730567211,"current_range_meters":17600,"station_id":"ce4bgjh2rcd13ifvqbg0","pricing_plan_id":"cebpf4jnsgd1na2vs0mg"},{"bike_id":"e55d8d6f-7394-4584-af8a-c65aaa7989ef","system_id":"levelo_inurba_marseille","lat":43.26064,"lon":5.39392,"is_reserved":false,"is_disabled":false,"rental_uris":{"android":"levelo://app?vid=e55d8d6f-7394-4584-af8a-c65aaa7989ef","ios":"levelo://app?vid=e55d8d6f-7394-4584-af8a-c65aaa7989ef"},"vehicle_type_id":"4","last_reported":1730567211,"current_range_meters":8800,"station_id":"ce4bhh92rcd13ifvqfj0","pricing_plan_id":"cebpf4jnsgd1na2vs0mg"},{"bike_id":"ede1852f-10df-46f9-98c9-0855d423e691","system_id":"levelo_inurba_marseille","lat":43.29604,"lon":5.37718,"is_reserved":false,"is_disabled":false,"rental_uris":{"android":"levelo://app?vid=ede1852f-10df-46f9-98c9-0855d423e691","ios":"levelo://app?vid=ede1852f-10df-46f9-98c9-0855d423e691"},"vehicle_type_id":"4","last_reported":1730567211,"current_range_meters":36000,"station_id":"ce4bgi92rcd13ifvqb90","pricing_plan_id":"cebpf4jnsgd1na2vs0mg"},{"bike_id":"67ac2cab-56fd-4ea9-971e-6837255a0d64","system_id":"levelo_inurba_marseille","lat":43.27831,"lon":5.42457,"is_reserved":false,"is_disabled":false,"rental_uris":{"android":"levelo://app?vid=67ac2cab-56fd-4ea9-971e-6837255a0d64","ios":"levelo://app?vid=67ac2cab-56fd-4ea9-971e-6837255a0d64"},"vehicle_type_id":"4","last_reported":1730567211,"current_range_meters":28000,"station_id":"ce4bhnh2rcd13ifvqgtg","pricing_plan_id":"cebpf4jnsgd1na2vs0mg"},{"bike_id":"d3f56f17-ac1a-464c-b9d7-9bc3311153ab","system_id":"levelo_inurba_marseille","lat":43.24656,"lon":5.38168,"is_reserved":false,"is_disabled":false,"rental_uris":{"android":"levelo://app?vid=d3f56f17-ac1a-464c-b9d7-9bc3311153ab","ios":"levelo://app?vid=d3f56f17-ac1a-464c-b9d7-9bc3311153ab"},"vehicle_type_id":"4","last_reported":1730567211,"current_range_meters":8800,"station_id":"ce4bhih2rcd13ifvqfr0","pricing_plan_id":"cebpf4jnsgd1na2vs0mg"},{"bike_id":"ee37ea5f-5070-491d-b135-a320012eaeda","system_id":"levelo_inurba_marseille","lat":43.29299,"lon":5.37466,"is_reserved":false,"is_disabled":false,"rental_uris":{"android":"levelo://app?vid=ee37ea5f-5070-491d-b135-a320012eaeda","ios":"levelo://app?vid=ee37ea5f-5070-491d-b135-a320012eaeda"},"vehicle_type_id":"4","last_reported":1730567211,"current_range_meters":31200,"station_id":"ce4bgi12rcd13ifvqb70","pricing_plan_id":"cebpf4jnsgd1na2vs0mg"},{"bike_id":"39c264da-6a23-4fbe-96c1-dcfd98fadf6d","system_id":"levelo_inurba_marseille","lat":43.24661,"lon":5.38164,"is_reserved":false,"is_disabled":false,"rental_uris":{"android":"levelo://app?vid=39c264da-6a23-4fbe-96c1-dcfd98fadf6d","ios":"levelo://app?vid=39c264da-6a23-4fbe-96c1-dcfd98fadf6d"},"vehicle_type_id":"4","last_reported":1730567211,"current_range_meters":22400,"station_id":"ce4bhih2rcd13ifvqfr0","pricing_plan_id":"cebpf4jnsgd1na2vs0mg"},{"bike_id":"2d0655db-1a3a-4d4f-b091-5e974daaf904","system_id":"levelo_inurba_marseille","lat":43.289358,"lon":5.366417,"is_reserved":false,"is_disabled":false,"rental_uris":{"android":"levelo://app?vid=2d0655db-1a3a-4d4f-b091-5e974daaf904","ios":"levelo://app?vid=2d0655db-1a3a-4d4f-b091-5e974daaf904"},"vehicle_type_id":"4","last_reported":1730567211,"current_range_meters":19600,"station_id":"ce4bhap2rcd13ifvqek0","pricing_plan_id":"cebpf4jnsgd1na2vs0mg"},{"bike_id":"e718e6f6-b7cf-4f1b-b05f-5c43aa5e1bff","system_id":"levelo_inurba_marseille","lat":43.2784,"lon":5.39215,"is_reserved":false,"is_disabled":false,"rental_uris":{"android":"levelo://app?vid=e718e6f6-b7cf-4f1b-b05f-5c43aa5e1bff","ios":"levelo://app?vid=e718e6f6-b7cf-4f1b-b05f-5c43aa5e1bff"},"vehicle_type_id":"4","last_reported":1730567211,"current_range_meters":7200,"station_id":"ce4bhjp2rcd13ifvqga0","pricing_plan_id":"cebpf4jnsgd1na2vs0mg"},{"bike_id":"121dd9f2-60d4-4f1d-abff-610136de5bc6","system_id":"levelo_inurba_marseille","lat":43.26558,"lon":5.37288,"is_reserved":false,"is_disabled":false,"rental_uris":{"android":"levelo://app?vid=121dd9f2-60d4-4f1d-abff-610136de5bc6","ios":"levelo://app?vid=121dd9f2-60d4-4f1d-abff-610136de5bc6"},"vehicle_type_id":"4","last_reported":1730567211,"current_range_meters":7200,"station_id":"ce4bhg12rcd13ifvqf70","pricing_plan_id":"cebpf4jnsgd1na2vs0mg"},{"bike_id":"689574c2-49e2-4015-8332-d8dfe6eda125","system_id":"levelo_inurba_marseille","lat":43.28411,"lon":5.37517,"is_reserved":false,"is_disabled":false,"rental_uris":{"android":"levelo://app?vid=689574c2-49e2-4015-8332-d8dfe6eda125","ios":"levelo://app?vid=689574c2-49e2-4015-8332-d8dfe6eda125"},"vehicle_type_id":"4","last_reported":1730567211,"current_range_meters":14800,"station_id":"ce4bh412rcd13ifvqds0","pricing_plan_id":"cebpf4jnsgd1na2vs0mg"},{"bike_id":"3cc80ee9-2790-4698-ba87-e0a476c104f2","system_id":"levelo_inurba_marseille","lat":43.2927,"lon":5.38448,"is_reserved":false,"is_disabled":false,"rental_uris":{"android":"levelo://app?vid=3cc80ee9-2790-4698-ba87-e0a476c104f2","ios":"levelo://app?vid=3cc80ee9-2790-4698-ba87-e0a476c104f2"},"vehicle_type_id":"4","last_reported":1730567211,"current_range_meters":29600,"station_id":"ce4bh692rcd13ifvqea0","pricing_plan_id":"cebpf4jnsgd1na2vs0mg"},{"bike_id":"5deee2f8-848a-457a-92b7-a45d8fa16e3c","system_id":"levelo_inurba_marseille","lat":43.28569,"lon":5.39508,"is_reserved":false,"is_disabled":false,"rental_uris":{"android":"levelo://app?vid=5deee2f8-848a-457a-92b7-a45d8fa16e3c","ios":"levelo://app?vid=5deee2f8-848a-457a-92b7-a45d8fa16e3c"},"vehicle_type_id":"4","last_reported":1730567211,"current_range_meters":38800,"station_id":"ce4bh292rcd13ifvqdg0","pricing_plan_id":"cebpf4jnsgd1na2vs0mg"},{"bike_id":"f965b089-fe56-4efb-9cc7-3867df6772a5","system_id":"levelo_inurba_marseille","lat":43.30268,"lon":5.37722,"is_reserved":false,"is_disabled":false,"rental_uris":{"android":"levelo://app?vid=f965b089-fe56-4efb-9cc7-3867df6772a5","ios":"levelo://app?vid=f965b089-fe56-4efb-9cc7-3867df6772a5"},"vehicle_type_id":"4","last_reported":1730567211,"current_range_meters":38800,"station_id":"ce4bguh2rcd13ifvqcj0","pricing_plan_id":"cebpf4jnsgd1na2vs0mg"},{"bike_id":"a6a7a52e-688b-43bd-ade4-f81fa1f1160f","system_id":"levelo_inurba_marseille","lat":43.294,"lon":5.41244,"is_reserved":false,"is_disabled":false,"rental_uris":{"android":"levelo://app?vid=a6a7a52e-688b-43bd-ade4-f81fa1f1160f","ios":"levelo://app?vid=a6a7a52e-688b-43bd-ade4-f81fa1f1160f"},"vehicle_type_id":"4","last_reported":1730567211,"current_range_meters":2000,"station_id":"","pricing_plan_id":"cebpf4jnsgd1na2vs0mg"},{"bike_id":"69737883-30e2-45bd-9d48-4e8f970460f1","system_id":"levelo_inurba_marseille","lat":43.28837,"lon":5.35869,"is_reserved":false,"is_disabled":false,"rental_uris":{"android":"levelo://app?vid=69737883-30e2-45bd-9d48-4e8f970460f1","ios":"levelo://app?vid=69737883-30e2-45bd-9d48-4e8f970460f1"},"vehicle_type_id":"4","last_reported":1730567211,"current_range_meters":9600,"station_id":"ce4bhb12rcd13ifvqem0","pricing_plan_id":"cebpf4jnsgd1na2vs0mg"},{"bike_id":"375a9cdb-ff52-4ba8-be03-389ba786275e","system_id":"levelo_inurba_marseille","lat":43.32644,"lon":5.40984,"is_reserved":false,"is_disabled":false,"rental_uris":{"android":"levelo://app?vid=375a9cdb-ff52-4ba8-be03-389ba786275e","ios":"levelo://app?vid=375a9cdb-ff52-4ba8-be03-389ba786275e"},"vehicle_type_id":"4","last_reported":1730567211,"current_range_meters":16800,"station_id":"ce4bhpp2rcd13ifvqhgg","pricing_plan_id":"cebpf4jnsgd1na2vs0mg"},{"bike_id":"3e08d59a-decf-4e52-b8ae-947dd230d094","system_id":"levelo_inurba_marseille","lat":43.298706,"lon":5.397322,"is_reserved":false,"is_disabled":false,"rental_uris":{"android":"levelo://app?vid=3e08d59a-decf-4e52-b8ae-947dd230d094","ios":"levelo://app?vid=3e08d59a-decf-4e52-b8ae-947dd230d094"},"vehicle_type_id":"4","last_reported":1730567211,"current_range_meters":2000,"station_id":"ce4bh0h2rcd13ifvqd50","pricing_plan_id":"cebpf4jnsgd1na2vs0mg"},{"bike_id":"7b6f8773-07ff-4796-baa9-a6a189302aff","system_id":"levelo_inurba_marseille","lat":43.30147,"lon":5.3987,"is_reserved":false,"is_disabled":false,"rental_uris":{"android":"levelo://app?vid=7b6f8773-07ff-4796-baa9-a6a189302aff","ios":"levelo://app?vid=7b6f8773-07ff-4796-baa9-a6a189302aff"},"vehicle_type_id":"4","last_reported":1730567211,"current_range_meters":38800,"station_id":"ce4bh0h2rcd13ifvqd40","pricing_plan_id":"cebpf4jnsgd1na2vs0mg"},{"bike_id":"da7413f4-bc26-49a1-8cdd-86b24706c256","system_id":"levelo_inurba_marseille","lat":43.28154,"lon":5.42653,"is_reserved":false,"is_disabled":false,"rental_uris":{"android":"levelo://app?vid=da7413f4-bc26-49a1-8cdd-86b24706c256","ios":"levelo://app?vid=da7413f4-bc26-49a1-8cdd-86b24706c256"},"vehicle_type_id":"4","last_reported":1730567211,"current_range_meters":39200,"station_id":"ce4bhnh2rcd13ifvqgug","pricing_plan_id":"cebpf4jnsgd1na2vs0mg"},{"bike_id":"18402065-9e87-476b-95ad-30853de181a0","system_id":"levelo_inurba_marseille","lat":43.324557,"lon":5.455543,"is_reserved":false,"is_disabled":false,"rental_uris":{"android":"levelo://app?vid=18402065-9e87-476b-95ad-30853de181a0","ios":"levelo://app?vid=18402065-9e87-476b-95ad-30853de181a0"},"vehicle_type_id":"4","last_reported":1730567211,"current_range_meters":7200,"station_id":"","pricing_plan_id":"cebpf4jnsgd1na2vs0mg"},{"bike_id":"a6b7a85e-cd44-4845-b594-b6799949e37e","system_id":"levelo_inurba_marseille","lat":43.31581,"lon":5.41992,"is_reserved":false,"is_disabled":false,"rental_uris":{"android":"levelo://app?vid=a6b7a85e-cd44-4845-b594-b6799949e37e","ios":"levelo://app?vid=a6b7a85e-cd44-4845-b594-b6799949e37e"},"vehicle_type_id":"4","last_reported":1730567211,"current_range_meters":33600,"station_id":"ce4bhp92rcd13ifvqhbg","pricing_plan_id":"cebpf4jnsgd1na2vs0mg"},{"bike_id":"0844125d-e39c-4dbd-9b91-65f2d8244f14","system_id":"levelo_inurba_marseille","lat":43.30901,"lon":5.36845,"is_reserved":false,"is_disabled":false,"rental_uris":{"android":"levelo://app?vid=0844125d-e39c-4dbd-9b91-65f2d8244f14","ios":"levelo://app?vid=0844125d-e39c-4dbd-9b91-65f2d8244f14"},"vehicle_type_id":"4","last_reported":1730567211,"current_range_meters":6800,"station_id":"ce4bgn92rcd13ifvqbvg","pricing_plan_id":"cebpf4jnsgd1na2vs0mg"},{"bike_id":"bbb2b4a1-f589-41be-9eb2-0aaa7cd666f8","system_id":"levelo_inurba_marseille","lat":43.28351,"lon":5.38113,"is_reserved":false,"is_disabled":false,"rental_uris":{"android":"levelo://app?vid=bbb2b4a1-f589-41be-9eb2-0aaa7cd666f8","ios":"levelo://app?vid=bbb2b4a1-f589-41be-9eb2-0aaa7cd666f8"},"vehicle_type_id":"4","last_reported":1730567211,"current_range_meters":16000,"station_id":"ce4bh412rcd13ifvqdr0","pricing_plan_id":"cebpf4jnsgd1na2vs0mg"},{"bike_id":"ff759631-9747-4e89-8485-4a4b07c62c2b","system_id":"levelo_inurba_marseille","lat":43.29422,"lon":5.38621,"is_reserved":false,"is_disabled":false,"rental_uris":{"android":"levelo://app?vid=ff759631-9747-4e89-8485-4a4b07c62c2b","ios":"levelo://app?vid=ff759631-9747-4e89-8485-4a4b07c62c2b"},"vehicle_type_id":"4","last_reported":1730567211,"current_range_meters":36800,"station_id":"ce4bh2h2rcd13ifvqdh0","pricing_plan_id":"cebpf4jnsgd1na2vs0mg"},{"bike_id":"f6214bbc-6c72-4e28-a254-217b0ad27b70","system_id":"levelo_inurba_marseille","lat":43.296326,"lon":5.372206,"is_reserved":false,"is_disabled":false,"rental_uris":{"android":"levelo://app?vid=f6214bbc-6c72-4e28-a254-217b0ad27b70","ios":"levelo://app?vid=f6214bbc-6c72-4e28-a254-217b0ad27b70"},"vehicle_type_id":"4","last_reported":1730567211,"current_range_meters":27600,"station_id":"","pricing_plan_id":"cebpf4jnsgd1na2vs0mg"},{"bike_id":"9f3178e5-569d-4c41-89b0-b8d0ab45dbf4","system_id":"levelo_inurba_marseille","lat":43.318859,"lon":5.407366,"is_reserved":false,"is_disabled":false,"rental_uris":{"android":"levelo://app?vid=9f3178e5-569d-4c41-89b0-b8d0ab45dbf4","ios":"levelo://app?vid=9f3178e5-569d-4c41-89b0-b8d0ab45dbf4"},"vehicle_type_id":"4","last_reported":1730567211,"current_range_meters":35200,"station_id":"ce4bhq12rcd13ifvqhig","pricing_plan_id":"cebpf4jnsgd1na2vs0mg"},{"bike_id":"daf1aba5-bf30-4d1c-93c7-9b3c38edc2b1","system_id":"levelo_inurba_marseille","lat":43.29979,"lon":5.38498,"is_reserved":false,"is_disabled":false,"rental_uris":{"android":"levelo://app?vid=daf1aba5-bf30-4d1c-93c7-9b3c38edc2b1","ios":"levelo://app?vid=daf1aba5-bf30-4d1c-93c7-9b3c38edc2b1"},"vehicle_type_id":"4","last_reported":1730567211,"current_range_meters":37600,"station_id":"ce4bgj92rcd13ifvqbd0","pricing_plan_id":"cebpf4jnsgd1na2vs0mg"},{"bike_id":"c7a6a60a-ebc3-43dc-847c-5817f23f3b49","system_id":"levelo_inurba_marseille","lat":43.25722,"lon":5.41114,"is_reserved":false,"is_disabled":false,"rental_uris":{"android":"levelo://app?vid=c7a6a60a-ebc3-43dc-847c-5817f23f3b49","ios":"levelo://app?vid=c7a6a60a-ebc3-43dc-847c-5817f23f3b49"},"vehicle_type_id":"4","last_reported":1730567211,"current_range_meters":10000,"station_id":"ce4bhkp2rcd13ifvqgd0","pricing_plan_id":"cebpf4jnsgd1na2vs0mg"},{"bike_id":"3f543c0f-35eb-4226-8b8d-ee3376233421","system_id":"levelo_inurba_marseille","lat":43.3031,"lon":5.36889,"is_reserved":false,"is_disabled":false,"rental_uris":{"android":"levelo://app?vid=3f543c0f-35eb-4226-8b8d-ee3376233421","ios":"levelo://app?vid=3f543c0f-35eb-4226-8b8d-ee3376233421"},"vehicle_type_id":"4","last_reported":1730567211,"current_range_meters":6400,"station_id":"ce4bgqh2rcd13ifvqc5g","pricing_plan_id":"cebpf4jnsgd1na2vs0mg"},{"bike_id":"2581b513-ffc8-424f-a44f-6259b96960db","system_id":"levelo_inurba_marseille","lat":43.290833,"lon":5.381242,"is_reserved":false,"is_disabled":false,"rental_uris":{"android":"levelo://app?vid=2581b513-ffc8-424f-a44f-6259b96960db","ios":"levelo://app?vid=2581b513-ffc8-424f-a44f-6259b96960db"},"vehicle_type_id":"4","last_reported":1730567211,"current_range_meters":31200,"station_id":"ce4bh512rcd13ifvqe2g","pricing_plan_id":"cebpf4jnsgd1na2vs0mg"},{"bike_id":"dd0c1f26-7846-4f88-88f5-81e652a8adbb","system_id":"levelo_inurba_marseille","lat":43.28702,"lon":5.37397,"is_reserved":false,"is_disabled":false,"rental_uris":{"android":"levelo://app?vid=dd0c1f26-7846-4f88-88f5-81e652a8adbb","ios":"levelo://app?vid=dd0c1f26-7846-4f88-88f5-81e652a8adbb"},"vehicle_type_id":"4","last_reported":1730567211,"current_range_meters":38800,"station_id":"ce4bh3p2rcd13ifvqdq0","pricing_plan_id":"cebpf4jnsgd1na2vs0mg"},{"bike_id":"1c9f675e-2358-4833-9cd2-57896e79f830","system_id":"levelo_inurba_marseille","lat":43.27992,"lon":5.40021,"is_reserved":false,"is_disabled":false,"rental_uris":{"android":"levelo://app?vid=1c9f675e-2358-4833-9cd2-57896e79f830","ios":"levelo://app?vid=1c9f675e-2358-4833-9cd2-57896e79f830"},"vehicle_type_id":"4","last_reported":1730567211,"current_range_meters":38800,"station_id":"ce4bho92rcd13ifvqh4g","pricing_plan_id":"cebpf4jnsgd1na2vs0mg"},{"bike_id":"410db8ae-ae23-44af-9a18-6ab475466e9f","system_id":"levelo_inurba_marseille","lat":43.24661,"lon":5.38166,"is_reserved":false,"is_disabled":false,"rental_uris":{"android":"levelo://app?vid=410db8ae-ae23-44af-9a18-6ab475466e9f","ios":"levelo://app?vid=410db8ae-ae23-44af-9a18-6ab475466e9f"},"vehicle_type_id":"4","last_reported":1730567211,"current_range_meters":38000,"station_id":"ce4bhih2rcd13ifvqfr0","pricing_plan_id":"cebpf4jnsgd1na2vs0mg"},{"bike_id":"55ddb6ca-19de-44ad-9a42-4b1f3d473815","system_id":"levelo_inurba_marseille","lat":43.28611,"lon":5.37063,"is_reserved":false,"is_disabled":false,"rental_uris":{"android":"levelo://app?vid=55ddb6ca-19de-44ad-9a42-4b1f3d473815","ios":"levelo://app?vid=55ddb6ca-19de-44ad-9a42-4b1f3d473815"},"vehicle_type_id":"4","last_reported":1730567211,"current_range_meters":14000,"station_id":"ce4bht12rcd13ifvqi60","pricing_plan_id":"cebpf4jnsgd1na2vs0mg"},{"bike_id":"ecaa377f-76c5-4234-8f72-e23880c57b21","system_id":"levelo_inurba_marseille","lat":43.29277,"lon":5.36851,"is_reserved":false,"is_disabled":false,"rental_uris":{"android":"levelo://app?vid=ecaa377f-76c5-4234-8f72-e23880c57b21","ios":"levelo://app?vid=ecaa377f-76c5-4234-8f72-e23880c57b21"},"vehicle_type_id":"4","last_reported":1730567211,"current_range_meters":38400,"station_id":"ce4bhbp2rcd13ifvqesg","pricing_plan_id":"cebpf4jnsgd1na2vs0mg"},{"bike_id":"4c957dac-1623-4feb-98bb-d2a2d910cd93","system_id":"levelo_inurba_marseille","lat":43.310918,"lon":5.383653,"is_reserved":false,"is_disabled":false,"rental_uris":{"android":"levelo://app?vid=4c957dac-1623-4feb-98bb-d2a2d910cd93","ios":"levelo://app?vid=4c957dac-1623-4feb-98bb-d2a2d910cd93"},"vehicle_type_id":"4","last_reported":1730567211,"current_range_meters":34000,"station_id":"ce4bgv92rcd13ifvqcr0","pricing_plan_id":"cebpf4jnsgd1na2vs0mg"},{"bike_id":"29b0470a-c2e6-4094-921a-5acb4d29d1c5","system_id":"levelo_inurba_marseille","lat":43.26938,"lon":5.40256,"is_reserved":false,"is_disabled":false,"rental_uris":{"android":"levelo://app?vid=29b0470a-c2e6-4094-921a-5acb4d29d1c5","ios":"levelo://app?vid=29b0470a-c2e6-4094-921a-5acb4d29d1c5"},"vehicle_type_id":"4","last_reported":1730567211,"current_range_meters":37600,"station_id":"cjm6bp8fraef2m0cb0m0","pricing_plan_id":"cebpf4jnsgd1na2vs0mg"},{"bike_id":"f3f2346f-d9a2-410c-a89a-53872c4e2d67","system_id":"levelo_inurba_marseille","lat":43.25573,"lon":5.38241,"is_reserved":false,"is_disabled":false,"rental_uris":{"android":"levelo://app?vid=f3f2346f-d9a2-410c-a89a-53872c4e2d67","ios":"levelo://app?vid=f3f2346f-d9a2-410c-a89a-53872c4e2d67"},"vehicle_type_id":"4","last_reported":1730567211,"current_range_meters":11200,"station_id":"ce4bhih2rcd13ifvqfs0","pricing_plan_id":"cebpf4jnsgd1na2vs0mg"},{"bike_id":"e74f712e-8cad-4a9d-9601-4cfc15e43810","system_id":"levelo_inurba_marseille","lat":43.27177,"lon":5.41002,"is_reserved":false,"is_disabled":false,"rental_uris":{"android":"levelo://app?vid=e74f712e-8cad-4a9d-9601-4cfc15e43810","ios":"levelo://app?vid=e74f712e-8cad-4a9d-9601-4cfc15e43810"},"vehicle_type_id":"4","last_reported":1730567211,"current_range_meters":8400,"station_id":"ce4bhl12rcd13ifvqgf0","pricing_plan_id":"cebpf4jnsgd1na2vs0mg"},{"bike_id":"c64bc634-5699-440b-9029-134a7a65a134","system_id":"levelo_inurba_marseille","lat":43.27378,"lon":5.36266,"is_reserved":false,"is_disabled":false,"rental_uris":{"android":"levelo://app?vid=c64bc634-5699-440b-9029-134a7a65a134","ios":"levelo://app?vid=c64bc634-5699-440b-9029-134a7a65a134"},"vehicle_type_id":"4","last_reported":1730567211,"current_range_meters":38800,"station_id":"ce4bhbh2rcd13ifvqeo0","pricing_plan_id":"cebpf4jnsgd1na2vs0mg"},{"bike_id":"9ce667e2-8e27-4ca7-abe0-003bee27eccd","system_id":"levelo_inurba_marseille","lat":43.30136,"lon":5.39878,"is_reserved":false,"is_disabled":false,"rental_uris":{"android":"levelo://app?vid=9ce667e2-8e27-4ca7-abe0-003bee27eccd","ios":"levelo://app?vid=9ce667e2-8e27-4ca7-abe0-003bee27eccd"},"vehicle_type_id":"4","last_reported":1730567211,"current_range_meters":4400,"station_id":"ce4bh0h2rcd13ifvqd40","pricing_plan_id":"cebpf4jnsgd1na2vs0mg"},{"bike_id":"6317d084-ce0b-485c-860a-480097ecf74e","system_id":"levelo_inurba_marseille","lat":43.29937,"lon":5.36547,"is_reserved":false,"is_disabled":false,"rental_uris":{"android":"levelo://app?vid=6317d084-ce0b-485c-860a-480097ecf74e","ios":"levelo://app?vid=6317d084-ce0b-485c-860a-480097ecf74e"},"vehicle_type_id":"4","last_reported":1730567211,"current_range_meters":38800,"station_id":"ce4bgm92rcd13ifvqbr0","pricing_plan_id":"cebpf4jnsgd1na2vs0mg"},{"bike_id":"b9c605ab-d847-4d81-a947-5a3aa7b39be1","system_id":"levelo_inurba_marseille","lat":43.29883,"lon":5.38895,"is_reserved":false,"is_disabled":false,"rental_uris":{"android":"levelo://app?vid=b9c605ab-d847-4d81-a947-5a3aa7b39be1","ios":"levelo://app?vid=b9c605ab-d847-4d81-a947-5a3aa7b39be1"},"vehicle_type_id":"4","last_reported":1730567211,"current_range_meters":28800,"station_id":"ce4bh392rcd13ifvqdl0","pricing_plan_id":"cebpf4jnsgd1na2vs0mg"},{"bike_id":"92af14d3-b7cc-45da-b3c0-e8f1ec4342e6","system_id":"levelo_inurba_marseille","lat":43.31754,"lon":5.39024,"is_reserved":false,"is_disabled":false,"rental_uris":{"android":"levelo://app?vid=92af14d3-b7cc-45da-b3c0-e8f1ec4342e6","ios":"levelo://app?vid=92af14d3-b7cc-45da-b3c0-e8f1ec4342e6"},"vehicle_type_id":"4","last_reported":1730567211,"current_range_meters":28000,"station_id":"ce4bhqp2rcd13ifvqhng","pricing_plan_id":"cebpf4jnsgd1na2vs0mg"},{"bike_id":"8c67d340-801d-46e5-b910-2f8aff3ff078","system_id":"levelo_inurba_marseille","lat":43.33334,"lon":5.37064,"is_reserved":false,"is_disabled":false,"rental_uris":{"android":"levelo://app?vid=8c67d340-801d-46e5-b910-2f8aff3ff078","ios":"levelo://app?vid=8c67d340-801d-46e5-b910-2f8aff3ff078"},"vehicle_type_id":"4","last_reported":1730567211,"current_range_meters":9600,"station_id":"","pricing_plan_id":"cebpf4jnsgd1na2vs0mg"},{"bike_id":"5acd28b0-96f3-432b-95b3-085d9014154e","system_id":"levelo_inurba_marseille","lat":43.28701,"lon":5.37394,"is_reserved":false,"is_disabled":false,"rental_uris":{"android":"levelo://app?vid=5acd28b0-96f3-432b-95b3-085d9014154e","ios":"levelo://app?vid=5acd28b0-96f3-432b-95b3-085d9014154e"},"vehicle_type_id":"4","last_reported":1730567211,"current_range_meters":10000,"station_id":"ce4bh3p2rcd13ifvqdq0","pricing_plan_id":"cebpf4jnsgd1na2vs0mg"},{"bike_id":"481ceb50-3bb5-46d3-937f-6af1106fbe35","system_id":"levelo_inurba_marseille","lat":43.24654,"lon":5.3817,"is_reserved":false,"is_disabled":false,"rental_uris":{"android":"levelo://app?vid=481ceb50-3bb5-46d3-937f-6af1106fbe35","ios":"levelo://app?vid=481ceb50-3bb5-46d3-937f-6af1106fbe35"},"vehicle_type_id":"4","last_reported":1730567211,"current_range_meters":38800,"station_id":"ce4bhih2rcd13ifvqfr0","pricing_plan_id":"cebpf4jnsgd1na2vs0mg"},{"bike_id":"19e6008c-0743-45ac-b4bf-fc683ef0e14c","system_id":"levelo_inurba_marseille","lat":43.25719,"lon":5.41112,"is_reserved":false,"is_disabled":false,"rental_uris":{"android":"levelo://app?vid=19e6008c-0743-45ac-b4bf-fc683ef0e14c","ios":"levelo://app?vid=19e6008c-0743-45ac-b4bf-fc683ef0e14c"},"vehicle_type_id":"4","last_reported":1730567211,"current_range_meters":24800,"station_id":"ce4bhkp2rcd13ifvqgd0","pricing_plan_id":"cebpf4jnsgd1na2vs0mg"},{"bike_id":"fcd5bacc-5fc4-4b6f-b936-1741a14f4564","system_id":"levelo_inurba_marseille","lat":43.26209,"lon":5.37445,"is_reserved":false,"is_disabled":false,"rental_uris":{"android":"levelo://app?vid=fcd5bacc-5fc4-4b6f-b936-1741a14f4564","ios":"levelo://app?vid=fcd5bacc-5fc4-4b6f-b936-1741a14f4564"},"vehicle_type_id":"4","last_reported":1730567211,"current_range_meters":38800,"station_id":"ce4bhgp2rcd13ifvqfc0","pricing_plan_id":"cebpf4jnsgd1na2vs0mg"},{"bike_id":"a93c236a-7c64-4cfc-8060-bc9296e0086e","system_id":"levelo_inurba_marseille","lat":43.29423,"lon":5.38621,"is_reserved":false,"is_disabled":false,"rental_uris":{"android":"levelo://app?vid=a93c236a-7c64-4cfc-8060-bc9296e0086e","ios":"levelo://app?vid=a93c236a-7c64-4cfc-8060-bc9296e0086e"},"vehicle_type_id":"4","last_reported":1730567211,"current_range_meters":26000,"station_id":"ce4bh2h2rcd13ifvqdh0","pricing_plan_id":"cebpf4jnsgd1na2vs0mg"},{"bike_id":"fd9bbefa-13c7-4796-a3af-0f9a0065c581","system_id":"levelo_inurba_marseille","lat":43.23195,"lon":5.35559,"is_reserved":false,"is_disabled":false,"rental_uris":{"android":"levelo://app?vid=fd9bbefa-13c7-4796-a3af-0f9a0065c581","ios":"levelo://app?vid=fd9bbefa-13c7-4796-a3af-0f9a0065c581"},"vehicle_type_id":"4","last_reported":1730567211,"current_range_meters":7200,"station_id":"ce4bhu92rcd13ifvqi70","pricing_plan_id":"cebpf4jnsgd1na2vs0mg"},{"bike_id":"a4f3ad02-3bc0-48b1-8331-dadf6f45d9e4","system_id":"levelo_inurba_marseille","lat":43.2866,"lon":5.38645,"is_reserved":false,"is_disabled":false,"rental_uris":{"android":"levelo://app?vid=a4f3ad02-3bc0-48b1-8331-dadf6f45d9e4","ios":"levelo://app?vid=a4f3ad02-3bc0-48b1-8331-dadf6f45d9e4"},"vehicle_type_id":"4","last_reported":1730567211,"current_range_meters":33600,"station_id":"ce4bh492rcd13ifvqdug","pricing_plan_id":"cebpf4jnsgd1na2vs0mg"},{"bike_id":"3d805e11-858a-4f90-ad44-23d25cb675f2","system_id":"levelo_inurba_marseille","lat":43.302912,"lon":5.392222,"is_reserved":false,"is_disabled":false,"rental_uris":{"android":"levelo://app?vid=3d805e11-858a-4f90-ad44-23d25cb675f2","ios":"levelo://app?vid=3d805e11-858a-4f90-ad44-23d25cb675f2"},"vehicle_type_id":"4","last_reported":1730567211,"current_range_meters":37600,"station_id":"ce4bgkh2rcd13ifvqbk0","pricing_plan_id":"cebpf4jnsgd1na2vs0mg"},{"bike_id":"3d729d76-b08a-4e33-8bc5-35a6634e205b","system_id":"levelo_inurba_marseille","lat":43.29303,"lon":5.3718,"is_reserved":false,"is_disabled":false,"rental_uris":{"android":"levelo://app?vid=3d729d76-b08a-4e33-8bc5-35a6634e205b","ios":"levelo://app?vid=3d729d76-b08a-4e33-8bc5-35a6634e205b"},"vehicle_type_id":"4","last_reported":1730567211,"current_range_meters":23200,"station_id":"ce4bgh92rcd13ifvqb40","pricing_plan_id":"cebpf4jnsgd1na2vs0mg"},{"bike_id":"77355e31-bb28-4c0a-af87-2edcbc699171","system_id":"levelo_inurba_marseille","lat":43.28853,"lon":5.3585,"is_reserved":false,"is_disabled":false,"rental_uris":{"android":"levelo://app?vid=77355e31-bb28-4c0a-af87-2edcbc699171","ios":"levelo://app?vid=77355e31-bb28-4c0a-af87-2edcbc699171"},"vehicle_type_id":"4","last_reported":1730567211,"current_range_meters":8400,"station_id":"ce4bhb12rcd13ifvqem0","pricing_plan_id":"cebpf4jnsgd1na2vs0mg"},{"bike_id":"dc22685d-d249-444b-82b0-9aab6f239bc9","system_id":"levelo_inurba_marseille","lat":43.273865,"lon":5.362401,"is_reserved":false,"is_disabled":false,"rental_uris":{"android":"levelo://app?vid=dc22685d-d249-444b-82b0-9aab6f239bc9","ios":"levelo://app?vid=dc22685d-d249-444b-82b0-9aab6f239bc9"},"vehicle_type_id":"4","last_reported":1730567211,"current_range_meters":28400,"station_id":"cki0cbj6b192h4jlfktg","pricing_plan_id":"cebpf4jnsgd1na2vs0mg"},{"bike_id":"70b0cfe0-5ebd-452c-a7e3-6af013d3e8b7","system_id":"levelo_inurba_marseille","lat":43.26938,"lon":5.40251,"is_reserved":false,"is_disabled":false,"rental_uris":{"android":"levelo://app?vid=70b0cfe0-5ebd-452c-a7e3-6af013d3e8b7","ios":"levelo://app?vid=70b0cfe0-5ebd-452c-a7e3-6af013d3e8b7"},"vehicle_type_id":"4","last_reported":1730567211,"current_range_meters":35600,"station_id":"cjm6bp8fraef2m0cb0m0","pricing_plan_id":"cebpf4jnsgd1na2vs0mg"},{"bike_id":"104ea528-f8f6-41e2-8e16-e8b381125cc3","system_id":"levelo_inurba_marseille","lat":43.29906,"lon":5.38158,"is_reserved":false,"is_disabled":false,"rental_uris":{"android":"levelo://app?vid=104ea528-f8f6-41e2-8e16-e8b381125cc3","ios":"levelo://app?vid=104ea528-f8f6-41e2-8e16-e8b381125cc3"},"vehicle_type_id":"4","last_reported":1730567211,"current_range_meters":8000,"station_id":"ce4bgj12rcd13ifvqbc0","pricing_plan_id":"cebpf4jnsgd1na2vs0mg"},{"bike_id":"f7433f79-d8b6-4068-99d2-096c7b29e49c","system_id":"levelo_inurba_marseille","lat":43.28492,"lon":5.38564,"is_reserved":false,"is_disabled":false,"rental_uris":{"android":"levelo://app?vid=f7433f79-d8b6-4068-99d2-096c7b29e49c","ios":"levelo://app?vid=f7433f79-d8b6-4068-99d2-096c7b29e49c"},"vehicle_type_id":"4","last_reported":1730567211,"current_range_meters":3600,"station_id":"ce4bh8p2rcd13ifvqeb0","pricing_plan_id":"cebpf4jnsgd1na2vs0mg"},{"bike_id":"7dfac259-0d7a-4851-8dc1-10e4ad4823d3","system_id":"levelo_inurba_marseille","lat":43.29736,"lon":5.37162,"is_reserved":false,"is_disabled":false,"rental_uris":{"android":"levelo://app?vid=7dfac259-0d7a-4851-8dc1-10e4ad4823d3","ios":"levelo://app?vid=7dfac259-0d7a-4851-8dc1-10e4ad4823d3"},"vehicle_type_id":"4","last_reported":1730567211,"current_range_meters":9200,"station_id":"","pricing_plan_id":"cebpf4jnsgd1na2vs0mg"},{"bike_id":"fbdc5e8c-e6c1-4bbf-a78a-28ff7f144605","system_id":"levelo_inurba_marseille","lat":43.30089,"lon":5.3908,"is_reserved":false,"is_disabled":false,"rental_uris":{"android":"levelo://app?vid=fbdc5e8c-e6c1-4bbf-a78a-28ff7f144605","ios":"levelo://app?vid=fbdc5e8c-e6c1-4bbf-a78a-28ff7f144605"},"vehicle_type_id":"4","last_reported":1730567211,"current_range_meters":6800,"station_id":"ce4bh192rcd13ifvqdb0","pricing_plan_id":"cebpf4jnsgd1na2vs0mg"},{"bike_id":"c70c6e4c-7c08-4dca-b232-ae67274fd2a0","system_id":"levelo_inurba_marseille","lat":43.28001,"lon":5.40014,"is_reserved":false,"is_disabled":false,"rental_uris":{"android":"levelo://app?vid=c70c6e4c-7c08-4dca-b232-ae67274fd2a0","ios":"levelo://app?vid=c70c6e4c-7c08-4dca-b232-ae67274fd2a0"},"vehicle_type_id":"4","last_reported":1730567211,"current_range_meters":6000,"station_id":"ce4bho92rcd13ifvqh4g","pricing_plan_id":"cebpf4jnsgd1na2vs0mg"},{"bike_id":"b200b632-c63e-419c-bc43-96f4e3f23cf0","system_id":"levelo_inurba_marseille","lat":43.29576,"lon":5.37513,"is_reserved":false,"is_disabled":false,"rental_uris":{"android":"levelo://app?vid=b200b632-c63e-419c-bc43-96f4e3f23cf0","ios":"levelo://app?vid=b200b632-c63e-419c-bc43-96f4e3f23cf0"},"vehicle_type_id":"4","last_reported":1730567211,"current_range_meters":38800,"station_id":"ce4bgh92rcd13ifvqb50","pricing_plan_id":"cebpf4jnsgd1na2vs0mg"},{"bike_id":"c6426742-f4c8-47b2-8145-20c5c39dcea8","system_id":"levelo_inurba_marseille","lat":43.29425,"lon":5.37407,"is_reserved":false,"is_disabled":false,"rental_uris":{"android":"levelo://app?vid=c6426742-f4c8-47b2-8145-20c5c39dcea8","ios":"levelo://app?vid=c6426742-f4c8-47b2-8145-20c5c39dcea8"},"vehicle_type_id":"4","last_reported":1730567211,"current_range_meters":10000,"station_id":"","pricing_plan_id":"cebpf4jnsgd1na2vs0mg"},{"bike_id":"aea6877e-7988-4006-87d7-08a72f9d3a89","system_id":"levelo_inurba_marseille","lat":43.2953,"lon":5.38548,"is_reserved":false,"is_disabled":false,"rental_uris":{"android":"levelo://app?vid=aea6877e-7988-4006-87d7-08a72f9d3a89","ios":"levelo://app?vid=aea6877e-7988-4006-87d7-08a72f9d3a89"},"vehicle_type_id":"4","last_reported":1730567211,"current_range_meters":28800,"station_id":"ce4bgih2rcd13ifvqba0","pricing_plan_id":"cebpf4jnsgd1na2vs0mg"},{"bike_id":"81c980f2-7828-4083-9785-7b542fefd5c1","system_id":"levelo_inurba_marseille","lat":43.24647,"lon":5.38902,"is_reserved":false,"is_disabled":false,"rental_uris":{"android":"levelo://app?vid=81c980f2-7828-4083-9785-7b542fefd5c1","ios":"levelo://app?vid=81c980f2-7828-4083-9785-7b542fefd5c1"},"vehicle_type_id":"4","last_reported":1730567211,"current_range_meters":38800,"station_id":"ce4bhg12rcd13ifvqf60","pricing_plan_id":"cebpf4jnsgd1na2vs0mg"},{"bike_id":"300378ed-9ba0-4423-98f2-258a90556ec0","system_id":"levelo_inurba_marseille","lat":43.29549,"lon":5.37499,"is_reserved":false,"is_disabled":false,"rental_uris":{"android":"levelo://app?vid=300378ed-9ba0-4423-98f2-258a90556ec0","ios":"levelo://app?vid=300378ed-9ba0-4423-98f2-258a90556ec0"},"vehicle_type_id":"4","last_reported":1730567211,"current_range_meters":38800,"station_id":"ce4bgkp2rcd13ifvqbmg","pricing_plan_id":"cebpf4jnsgd1na2vs0mg"},{"bike_id":"715ca43e-0ff6-4674-a6a9-97920232d968","system_id":"levelo_inurba_marseille","lat":43.2799,"lon":5.41663,"is_reserved":false,"is_disabled":false,"rental_uris":{"android":"levelo://app?vid=715ca43e-0ff6-4674-a6a9-97920232d968","ios":"levelo://app?vid=715ca43e-0ff6-4674-a6a9-97920232d968"},"vehicle_type_id":"4","last_reported":1730567211,"current_range_meters":37600,"station_id":"ce4bho12rcd13ifvqh1g","pricing_plan_id":"cebpf4jnsgd1na2vs0mg"},{"bike_id":"34500b6c-77bc-4857-92a5-400b769515d3","system_id":"levelo_inurba_marseille","lat":43.29294,"lon":5.37459,"is_reserved":false,"is_disabled":false,"rental_uris":{"android":"levelo://app?vid=34500b6c-77bc-4857-92a5-400b769515d3","ios":"levelo://app?vid=34500b6c-77bc-4857-92a5-400b769515d3"},"vehicle_type_id":"4","last_reported":1730567211,"current_range_meters":28000,"station_id":"ce4bgi12rcd13ifvqb70","pricing_plan_id":"cebpf4jnsgd1na2vs0mg"},{"bike_id":"b27b6b18-d801-4b0b-a4e3-bc55bc4a9aed","system_id":"levelo_inurba_marseille","lat":43.25721,"lon":5.41115,"is_reserved":false,"is_disabled":false,"rental_uris":{"android":"levelo://app?vid=b27b6b18-d801-4b0b-a4e3-bc55bc4a9aed","ios":"levelo://app?vid=b27b6b18-d801-4b0b-a4e3-bc55bc4a9aed"},"vehicle_type_id":"4","last_reported":1730567211,"current_range_meters":37600,"station_id":"ce4bhkp2rcd13ifvqgd0","pricing_plan_id":"cebpf4jnsgd1na2vs0mg"},{"bike_id":"bf4fc4b0-da91-4001-b8c3-8696ff4892a9","system_id":"levelo_inurba_marseille","lat":43.29892,"lon":5.38893,"is_reserved":false,"is_disabled":false,"rental_uris":{"android":"levelo://app?vid=bf4fc4b0-da91-4001-b8c3-8696ff4892a9","ios":"levelo://app?vid=bf4fc4b0-da91-4001-b8c3-8696ff4892a9"},"vehicle_type_id":"4","last_reported":1730567211,"current_range_meters":32400,"station_id":"ce4bh392rcd13ifvqdl0","pricing_plan_id":"cebpf4jnsgd1na2vs0mg"},{"bike_id":"3b49d7b0-a603-4319-956e-55d655494b83","system_id":"levelo_inurba_marseille","lat":43.3044,"lon":5.3889,"is_reserved":false,"is_disabled":false,"rental_uris":{"android":"levelo://app?vid=3b49d7b0-a603-4319-956e-55d655494b83","ios":"levelo://app?vid=3b49d7b0-a603-4319-956e-55d655494b83"},"vehicle_type_id":"4","last_reported":1730567211,"current_range_meters":28400,"station_id":"ce4bgk12rcd13ifvqbi0","pricing_plan_id":"cebpf4jnsgd1na2vs0mg"},{"bike_id":"2ddf99e3-1c16-4d04-b533-b52aeb33ad52","system_id":"levelo_inurba_marseille","lat":43.30138,"lon":5.39856,"is_reserved":false,"is_disabled":false,"rental_uris":{"android":"levelo://app?vid=2ddf99e3-1c16-4d04-b533-b52aeb33ad52","ios":"levelo://app?vid=2ddf99e3-1c16-4d04-b533-b52aeb33ad52"},"vehicle_type_id":"4","last_reported":1730567211,"current_range_meters":8800,"station_id":"ce4bh0h2rcd13ifvqd40","pricing_plan_id":"cebpf4jnsgd1na2vs0mg"},{"bike_id":"234295bb-08bb-4db2-b840-90cdd6ca2439","system_id":"levelo_inurba_marseille","lat":43.29276,"lon":5.40118,"is_reserved":false,"is_disabled":false,"rental_uris":{"android":"levelo://app?vid=234295bb-08bb-4db2-b840-90cdd6ca2439","ios":"levelo://app?vid=234295bb-08bb-4db2-b840-90cdd6ca2439"},"vehicle_type_id":"4","last_reported":1730567211,"current_range_meters":10000,"station_id":"ce4bh312rcd13ifvqdk0","pricing_plan_id":"cebpf4jnsgd1na2vs0mg"},{"bike_id":"90d886e3-ce2c-498f-a48d-37d0eb811518","system_id":"levelo_inurba_marseille","lat":43.27623,"lon":5.36111,"is_reserved":false,"is_disabled":false,"rental_uris":{"android":"levelo://app?vid=90d886e3-ce2c-498f-a48d-37d0eb811518","ios":"levelo://app?vid=90d886e3-ce2c-498f-a48d-37d0eb811518"},"vehicle_type_id":"4","last_reported":1730567211,"current_range_meters":20800,"station_id":"ce4bgj92rcd13ifvqbe0","pricing_plan_id":"cebpf4jnsgd1na2vs0mg"},{"bike_id":"5a4e0f0a-669f-4b62-950f-9dedc701e416","system_id":"levelo_inurba_marseille","lat":43.29517,"lon":5.39033,"is_reserved":false,"is_disabled":false,"rental_uris":{"android":"levelo://app?vid=5a4e0f0a-669f-4b62-950f-9dedc701e416","ios":"levelo://app?vid=5a4e0f0a-669f-4b62-950f-9dedc701e416"},"vehicle_type_id":"4","last_reported":1730567211,"current_range_meters":21600,"station_id":"ce4bh3p2rcd13ifvqdp0","pricing_plan_id":"cebpf4jnsgd1na2vs0mg"},{"bike_id":"fcd7f455-d2bc-423b-9805-64ad5a286e69","system_id":"levelo_inurba_marseille","lat":43.29235,"lon":5.36064,"is_reserved":false,"is_disabled":false,"rental_uris":{"android":"levelo://app?vid=fcd7f455-d2bc-423b-9805-64ad5a286e69","ios":"levelo://app?vid=fcd7f455-d2bc-423b-9805-64ad5a286e69"},"vehicle_type_id":"4","last_reported":1730567211,"current_range_meters":38800,"station_id":"ce4bh692rcd13ifvqe90","pricing_plan_id":"cebpf4jnsgd1na2vs0mg"},{"bike_id":"27149ad1-fe6e-490f-b123-c3ca767651d7","system_id":"levelo_inurba_marseille","lat":43.29917,"lon":5.38141,"is_reserved":false,"is_disabled":false,"rental_uris":{"android":"levelo://app?vid=27149ad1-fe6e-490f-b123-c3ca767651d7","ios":"levelo://app?vid=27149ad1-fe6e-490f-b123-c3ca767651d7"},"vehicle_type_id":"4","last_reported":1730567211,"current_range_meters":11600,"station_id":"ce4bgj12rcd13ifvqbc0","pricing_plan_id":"cebpf4jnsgd1na2vs0mg"},{"bike_id":"4aebfd89-0878-4870-884a-fcc29bc1a335","system_id":"levelo_inurba_marseille","lat":43.28453,"lon":5.35886,"is_reserved":false,"is_disabled":false,"rental_uris":{"android":"levelo://app?vid=4aebfd89-0878-4870-884a-fcc29bc1a335","ios":"levelo://app?vid=4aebfd89-0878-4870-884a-fcc29bc1a335"},"vehicle_type_id":"4","last_reported":1730567211,"current_range_meters":32800,"station_id":"ce4bhah2rcd13ifvqei0","pricing_plan_id":"cebpf4jnsgd1na2vs0mg"},{"bike_id":"017d8494-aecc-4d18-8283-0825e7fa7da0","system_id":"levelo_inurba_marseille","lat":43.29706,"lon":5.36619,"is_reserved":false,"is_disabled":false,"rental_uris":{"android":"levelo://app?vid=017d8494-aecc-4d18-8283-0825e7fa7da0","ios":"levelo://app?vid=017d8494-aecc-4d18-8283-0825e7fa7da0"},"vehicle_type_id":"4","last_reported":1730567211,"current_range_meters":15200,"station_id":"ce4bgn12rcd13ifvqbt0","pricing_plan_id":"cebpf4jnsgd1na2vs0mg"},{"bike_id":"0fc83fb6-e5d4-451b-9deb-7a9bafb7dc37","system_id":"levelo_inurba_marseille","lat":43.28411,"lon":5.37513,"is_reserved":false,"is_disabled":false,"rental_uris":{"android":"levelo://app?vid=0fc83fb6-e5d4-451b-9deb-7a9bafb7dc37","ios":"levelo://app?vid=0fc83fb6-e5d4-451b-9deb-7a9bafb7dc37"},"vehicle_type_id":"4","last_reported":1730567211,"current_range_meters":23200,"station_id":"ce4bh412rcd13ifvqds0","pricing_plan_id":"cebpf4jnsgd1na2vs0mg"},{"bike_id":"36dab996-3060-4b83-b9a3-1ad42438d681","system_id":"levelo_inurba_marseille","lat":43.30423,"lon":5.4129,"is_reserved":false,"is_disabled":false,"rental_uris":{"android":"levelo://app?vid=36dab996-3060-4b83-b9a3-1ad42438d681","ios":"levelo://app?vid=36dab996-3060-4b83-b9a3-1ad42438d681"},"vehicle_type_id":"4","last_reported":1730567211,"current_range_meters":34800,"station_id":"ce4bhop2rcd13ifvqh8g","pricing_plan_id":"cebpf4jnsgd1na2vs0mg"},{"bike_id":"1f6e3822-82c1-4868-9992-b9a6403c212e","system_id":"levelo_inurba_marseille","lat":43.30148,"lon":5.37413,"is_reserved":false,"is_disabled":false,"rental_uris":{"android":"levelo://app?vid=1f6e3822-82c1-4868-9992-b9a6403c212e","ios":"levelo://app?vid=1f6e3822-82c1-4868-9992-b9a6403c212e"},"vehicle_type_id":"4","last_reported":1730567211,"current_range_meters":4400,"station_id":"ce4bgs92rcd13ifvqcc0","pricing_plan_id":"cebpf4jnsgd1na2vs0mg"},{"bike_id":"edca4c81-7f4d-4bbe-9bd2-5ce4df69403f","system_id":"levelo_inurba_marseille","lat":43.23193,"lon":5.35548,"is_reserved":false,"is_disabled":false,"rental_uris":{"android":"levelo://app?vid=edca4c81-7f4d-4bbe-9bd2-5ce4df69403f","ios":"levelo://app?vid=edca4c81-7f4d-4bbe-9bd2-5ce4df69403f"},"vehicle_type_id":"4","last_reported":1730567211,"current_range_meters":17600,"station_id":"ce4bhu92rcd13ifvqi70","pricing_plan_id":"cebpf4jnsgd1na2vs0mg"},{"bike_id":"3d5fd697-ff5b-4513-88e2-732c1cb45ced","system_id":"levelo_inurba_marseille","lat":43.29784,"lon":5.39349,"is_reserved":false,"is_disabled":false,"rental_uris":{"android":"levelo://app?vid=3d5fd697-ff5b-4513-88e2-732c1cb45ced","ios":"levelo://app?vid=3d5fd697-ff5b-4513-88e2-732c1cb45ced"},"vehicle_type_id":"4","last_reported":1730567211,"current_range_meters":23200,"station_id":"chh1huq6cuj3fo74tm60","pricing_plan_id":"cebpf4jnsgd1na2vs0mg"},{"bike_id":"57ecf681-964d-47bd-8fbc-d5d7bc531024","system_id":"levelo_inurba_marseille","lat":43.29304,"lon":5.37183,"is_reserved":false,"is_disabled":false,"rental_uris":{"android":"levelo://app?vid=57ecf681-964d-47bd-8fbc-d5d7bc531024","ios":"levelo://app?vid=57ecf681-964d-47bd-8fbc-d5d7bc531024"},"vehicle_type_id":"4","last_reported":1730567211,"current_range_meters":30400,"station_id":"ce4bgh92rcd13ifvqb40","pricing_plan_id":"cebpf4jnsgd1na2vs0mg"},{"bike_id":"5ca2ad48-dd74-40a0-b17c-745245a8f5d6","system_id":"levelo_inurba_marseille","lat":43.27807,"lon":5.40724,"is_reserved":false,"is_disabled":false,"rental_uris":{"android":"levelo://app?vid=5ca2ad48-dd74-40a0-b17c-745245a8f5d6","ios":"levelo://app?vid=5ca2ad48-dd74-40a0-b17c-745245a8f5d6"},"vehicle_type_id":"4","last_reported":1730567211,"current_range_meters":34000,"station_id":"ce4bhnh2rcd13ifvqgtg","pricing_plan_id":"cebpf4jnsgd1na2vs0mg"},{"bike_id":"8ddbc2cd-e2f7-490f-9b8b-d8fb10b721db","system_id":"levelo_inurba_marseille","lat":43.29442,"lon":5.39745,"is_reserved":false,"is_disabled":false,"rental_uris":{"android":"levelo://app?vid=8ddbc2cd-e2f7-490f-9b8b-d8fb10b721db","ios":"levelo://app?vid=8ddbc2cd-e2f7-490f-9b8b-d8fb10b721db"},"vehicle_type_id":"4","last_reported":1730567211,"current_range_meters":2000,"station_id":"ce4bh3h2rcd13ifvqdo0","pricing_plan_id":"cebpf4jnsgd1na2vs0mg"},{"bike_id":"014e5803-d69a-4a50-baf5-6b771357c10d","system_id":"levelo_inurba_marseille","lat":43.2455,"lon":5.39525,"is_reserved":false,"is_disabled":false,"rental_uris":{"android":"levelo://app?vid=014e5803-d69a-4a50-baf5-6b771357c10d","ios":"levelo://app?vid=014e5803-d69a-4a50-baf5-6b771357c10d"},"vehicle_type_id":"4","last_reported":1730567211,"current_range_meters":23200,"station_id":"ce4bhlp2rcd13ifvqgjg","pricing_plan_id":"cebpf4jnsgd1na2vs0mg"},{"bike_id":"b66ece50-bc4f-4a5d-b2a3-ef5f9aba4661","system_id":"levelo_inurba_marseille","lat":43.29273,"lon":5.36846,"is_reserved":false,"is_disabled":false,"rental_uris":{"android":"levelo://app?vid=b66ece50-bc4f-4a5d-b2a3-ef5f9aba4661","ios":"levelo://app?vid=b66ece50-bc4f-4a5d-b2a3-ef5f9aba4661"},"vehicle_type_id":"4","last_reported":1730567211,"current_range_meters":38800,"station_id":"ce4bhbp2rcd13ifvqesg","pricing_plan_id":"cebpf4jnsgd1na2vs0mg"},{"bike_id":"b4d95f00-e4c8-4fcc-bd8b-cd9a91a28df1","system_id":"levelo_inurba_marseille","lat":43.28942,"lon":5.36642,"is_reserved":false,"is_disabled":false,"rental_uris":{"android":"levelo://app?vid=b4d95f00-e4c8-4fcc-bd8b-cd9a91a28df1","ios":"levelo://app?vid=b4d95f00-e4c8-4fcc-bd8b-cd9a91a28df1"},"vehicle_type_id":"4","last_reported":1730567211,"current_range_meters":4400,"station_id":"ce4bhap2rcd13ifvqek0","pricing_plan_id":"cebpf4jnsgd1na2vs0mg"},{"bike_id":"fa0d0175-496c-492e-bcfc-001ea3bdf18e","system_id":"levelo_inurba_marseille","lat":43.29534,"lon":5.37509,"is_reserved":false,"is_disabled":false,"rental_uris":{"android":"levelo://app?vid=fa0d0175-496c-492e-bcfc-001ea3bdf18e","ios":"levelo://app?vid=fa0d0175-496c-492e-bcfc-001ea3bdf18e"},"vehicle_type_id":"4","last_reported":1730567211,"current_range_meters":38000,"station_id":"ce4bgkp2rcd13ifvqbmg","pricing_plan_id":"cebpf4jnsgd1na2vs0mg"},{"bike_id":"a29f9c5a-1d2a-4e72-92f1-1f1075070224","system_id":"levelo_inurba_marseille","lat":43.2928,"lon":5.40118,"is_reserved":false,"is_disabled":false,"rental_uris":{"android":"levelo://app?vid=a29f9c5a-1d2a-4e72-92f1-1f1075070224","ios":"levelo://app?vid=a29f9c5a-1d2a-4e72-92f1-1f1075070224"},"vehicle_type_id":"4","last_reported":1730567211,"current_range_meters":8800,"station_id":"","pricing_plan_id":"cebpf4jnsgd1na2vs0mg"},{"bike_id":"35e60838-a61e-4021-9672-76703fe84c77","system_id":"levelo_inurba_marseille","lat":43.27425,"lon":5.39423,"is_reserved":false,"is_disabled":false,"rental_uris":{"android":"levelo://app?vid=35e60838-a61e-4021-9672-76703fe84c77","ios":"levelo://app?vid=35e60838-a61e-4021-9672-76703fe84c77"},"vehicle_type_id":"4","last_reported":1730567211,"current_range_meters":32400,"station_id":"ce4bhdp2rcd13ifvqf20","pricing_plan_id":"cebpf4jnsgd1na2vs0mg"},{"bike_id":"f4af9b65-ead8-42b6-9aff-96dcb65810b8","system_id":"levelo_inurba_marseille","lat":43.26941,"lon":5.40251,"is_reserved":false,"is_disabled":false,"rental_uris":{"android":"levelo://app?vid=f4af9b65-ead8-42b6-9aff-96dcb65810b8","ios":"levelo://app?vid=f4af9b65-ead8-42b6-9aff-96dcb65810b8"},"vehicle_type_id":"4","last_reported":1730567211,"current_range_meters":30000,"station_id":"cjm6bp8fraef2m0cb0m0","pricing_plan_id":"cebpf4jnsgd1na2vs0mg"},{"bike_id":"b579c690-85f6-4c63-b155-2f76cc230255","system_id":"levelo_inurba_marseille","lat":43.28702,"lon":5.37387,"is_reserved":false,"is_disabled":false,"rental_uris":{"android":"levelo://app?vid=b579c690-85f6-4c63-b155-2f76cc230255","ios":"levelo://app?vid=b579c690-85f6-4c63-b155-2f76cc230255"},"vehicle_type_id":"4","last_reported":1730567211,"current_range_meters":20000,"station_id":"ce4bh3p2rcd13ifvqdq0","pricing_plan_id":"cebpf4jnsgd1na2vs0mg"},{"bike_id":"f74df92c-a0ed-4b11-9a3c-ba9c645703ac","system_id":"levelo_inurba_marseille","lat":43.31267,"lon":5.40177,"is_reserved":false,"is_disabled":false,"rental_uris":{"android":"levelo://app?vid=f74df92c-a0ed-4b11-9a3c-ba9c645703ac","ios":"levelo://app?vid=f74df92c-a0ed-4b11-9a3c-ba9c645703ac"},"vehicle_type_id":"4","last_reported":1730567211,"current_range_meters":27200,"station_id":"ce4bh092rcd13ifvqd30","pricing_plan_id":"cebpf4jnsgd1na2vs0mg"},{"bike_id":"aeae0336-4bf7-4434-afeb-2d2b55c188cc","system_id":"levelo_inurba_marseille","lat":43.29274,"lon":5.36856,"is_reserved":false,"is_disabled":false,"rental_uris":{"android":"levelo://app?vid=aeae0336-4bf7-4434-afeb-2d2b55c188cc","ios":"levelo://app?vid=aeae0336-4bf7-4434-afeb-2d2b55c188cc"},"vehicle_type_id":"4","last_reported":1730567211,"current_range_meters":37600,"station_id":"ce4bhbp2rcd13ifvqesg","pricing_plan_id":"cebpf4jnsgd1na2vs0mg"},{"bike_id":"8883269e-e7d8-4117-8108-10a14097998d","system_id":"levelo_inurba_marseille","lat":43.29309,"lon":5.3746,"is_reserved":false,"is_disabled":false,"rental_uris":{"android":"levelo://app?vid=8883269e-e7d8-4117-8108-10a14097998d","ios":"levelo://app?vid=8883269e-e7d8-4117-8108-10a14097998d"},"vehicle_type_id":"4","last_reported":1730567211,"current_range_meters":22800,"station_id":"ce4bgi12rcd13ifvqb70","pricing_plan_id":"cebpf4jnsgd1na2vs0mg"},{"bike_id":"190461a8-7567-4ce9-b0c2-6d84d5b1becc","system_id":"levelo_inurba_marseille","lat":43.30245,"lon":5.4008,"is_reserved":false,"is_disabled":false,"rental_uris":{"android":"levelo://app?vid=190461a8-7567-4ce9-b0c2-6d84d5b1becc","ios":"levelo://app?vid=190461a8-7567-4ce9-b0c2-6d84d5b1becc"},"vehicle_type_id":"4","last_reported":1730567211,"current_range_meters":32000,"station_id":"ce4bgvh2rcd13ifvqcs0","pricing_plan_id":"cebpf4jnsgd1na2vs0mg"},{"bike_id":"5dc121db-4f9a-4785-9ce1-b973321b8f58","system_id":"levelo_inurba_marseille","lat":43.25573,"lon":5.3824,"is_reserved":false,"is_disabled":false,"rental_uris":{"android":"levelo://app?vid=5dc121db-4f9a-4785-9ce1-b973321b8f58","ios":"levelo://app?vid=5dc121db-4f9a-4785-9ce1-b973321b8f58"},"vehicle_type_id":"4","last_reported":1730567211,"current_range_meters":6400,"station_id":"ce4bhih2rcd13ifvqfs0","pricing_plan_id":"cebpf4jnsgd1na2vs0mg"},{"bike_id":"00e0a0eb-019e-47ad-a13c-417c69f5e553","system_id":"levelo_inurba_marseille","lat":43.29422,"lon":5.38621,"is_reserved":false,"is_disabled":false,"rental_uris":{"android":"levelo://app?vid=00e0a0eb-019e-47ad-a13c-417c69f5e553","ios":"levelo://app?vid=00e0a0eb-019e-47ad-a13c-417c69f5e553"},"vehicle_type_id":"4","last_reported":1730567211,"current_range_meters":26800,"station_id":"ce4bh2h2rcd13ifvqdh0","pricing_plan_id":"cebpf4jnsgd1na2vs0mg"},{"bike_id":"7ddc52eb-129f-4eda-ac92-cd319664f8d3","system_id":"levelo_inurba_marseille","lat":43.29282,"lon":5.40116,"is_reserved":false,"is_disabled":false,"rental_uris":{"android":"levelo://app?vid=7ddc52eb-129f-4eda-ac92-cd319664f8d3","ios":"levelo://app?vid=7ddc52eb-129f-4eda-ac92-cd319664f8d3"},"vehicle_type_id":"4","last_reported":1730567211,"current_range_meters":3200,"station_id":"ce4bh312rcd13ifvqdk0","pricing_plan_id":"cebpf4jnsgd1na2vs0mg"},{"bike_id":"48c21651-046b-4b4f-b840-ebed0084e31b","system_id":"levelo_inurba_marseille","lat":43.29039,"lon":5.38146,"is_reserved":false,"is_disabled":false,"rental_uris":{"android":"levelo://app?vid=48c21651-046b-4b4f-b840-ebed0084e31b","ios":"levelo://app?vid=48c21651-046b-4b4f-b840-ebed0084e31b"},"vehicle_type_id":"4","last_reported":1730567211,"current_range_meters":26800,"station_id":"ce4bh4p2rcd13ifvqe1g","pricing_plan_id":"cebpf4jnsgd1na2vs0mg"},{"bike_id":"dc5cb50b-5a19-4afa-a560-cd182bc09b12","system_id":"levelo_inurba_marseille","lat":43.28476,"lon":5.38417,"is_reserved":false,"is_disabled":false,"rental_uris":{"android":"levelo://app?vid=dc5cb50b-5a19-4afa-a560-cd182bc09b12","ios":"levelo://app?vid=dc5cb50b-5a19-4afa-a560-cd182bc09b12"},"vehicle_type_id":"4","last_reported":1730567211,"current_range_meters":28400,"station_id":"ce4bh512rcd13ifvqe3g","pricing_plan_id":"cebpf4jnsgd1na2vs0mg"},{"bike_id":"b84bd79e-cb84-4b1a-847f-69e9b8c87058","system_id":"levelo_inurba_marseille","lat":43.28927,"lon":5.36646,"is_reserved":false,"is_disabled":false,"rental_uris":{"android":"levelo://app?vid=b84bd79e-cb84-4b1a-847f-69e9b8c87058","ios":"levelo://app?vid=b84bd79e-cb84-4b1a-847f-69e9b8c87058"},"vehicle_type_id":"4","last_reported":1730567211,"current_range_meters":27200,"station_id":"ce4bhap2rcd13ifvqek0","pricing_plan_id":"cebpf4jnsgd1na2vs0mg"},{"bike_id":"3593925e-bb0d-4381-a6df-22f5f6ebf0f8","system_id":"levelo_inurba_marseille","lat":43.31686,"lon":5.40477,"is_reserved":false,"is_disabled":false,"rental_uris":{"android":"levelo://app?vid=3593925e-bb0d-4381-a6df-22f5f6ebf0f8","ios":"levelo://app?vid=3593925e-bb0d-4381-a6df-22f5f6ebf0f8"},"vehicle_type_id":"4","last_reported":1730567211,"current_range_meters":24000,"station_id":"ce4bh012rcd13ifvqd00","pricing_plan_id":"cebpf4jnsgd1na2vs0mg"},{"bike_id":"8874e167-b8e8-4ff4-b23d-f262a15a6394","system_id":"levelo_inurba_marseille","lat":43.26189,"lon":5.37454,"is_reserved":false,"is_disabled":false,"rental_uris":{"android":"levelo://app?vid=8874e167-b8e8-4ff4-b23d-f262a15a6394","ios":"levelo://app?vid=8874e167-b8e8-4ff4-b23d-f262a15a6394"},"vehicle_type_id":"4","last_reported":1730567211,"current_range_meters":38800,"station_id":"ce4bhgp2rcd13ifvqfc0","pricing_plan_id":"cebpf4jnsgd1na2vs0mg"},{"bike_id":"689d2b98-6a32-401d-a7e4-67239a1972fc","system_id":"levelo_inurba_marseille","lat":43.27051,"lon":5.40272,"is_reserved":false,"is_disabled":false,"rental_uris":{"android":"levelo://app?vid=689d2b98-6a32-401d-a7e4-67239a1972fc","ios":"levelo://app?vid=689d2b98-6a32-401d-a7e4-67239a1972fc"},"vehicle_type_id":"4","last_reported":1730567211,"current_range_meters":36400,"station_id":"ce4bhk92rcd13ifvqgc0","pricing_plan_id":"cebpf4jnsgd1na2vs0mg"},{"bike_id":"daa1de7f-c495-49a3-9f5b-d7f38bc5d13a","system_id":"levelo_inurba_marseille","lat":43.30145,"lon":5.3878,"is_reserved":false,"is_disabled":false,"rental_uris":{"android":"levelo://app?vid=daa1de7f-c495-49a3-9f5b-d7f38bc5d13a","ios":"levelo://app?vid=daa1de7f-c495-49a3-9f5b-d7f38bc5d13a"},"vehicle_type_id":"4","last_reported":1730567211,"current_range_meters":24800,"station_id":"ce4bghh2rcd13ifvqb60","pricing_plan_id":"cebpf4jnsgd1na2vs0mg"},{"bike_id":"92f26b0a-794a-4057-a056-ddb869aaa68f","system_id":"levelo_inurba_marseille","lat":43.28475,"lon":5.39281,"is_reserved":false,"is_disabled":false,"rental_uris":{"android":"levelo://app?vid=92f26b0a-794a-4057-a056-ddb869aaa68f","ios":"levelo://app?vid=92f26b0a-794a-4057-a056-ddb869aaa68f"},"vehicle_type_id":"4","last_reported":1730567211,"current_range_meters":26000,"station_id":"","pricing_plan_id":"cebpf4jnsgd1na2vs0mg"},{"bike_id":"4d29aa70-bf2c-4ab7-a853-46db723a8a41","system_id":"levelo_inurba_marseille","lat":43.29022,"lon":5.38135,"is_reserved":false,"is_disabled":false,"rental_uris":{"android":"levelo://app?vid=4d29aa70-bf2c-4ab7-a853-46db723a8a41","ios":"levelo://app?vid=4d29aa70-bf2c-4ab7-a853-46db723a8a41"},"vehicle_type_id":"4","last_reported":1730567211,"current_range_meters":2800,"station_id":"ce4bh4p2rcd13ifvqe1g","pricing_plan_id":"cebpf4jnsgd1na2vs0mg"},{"bike_id":"fafee40b-eacf-42f5-9e7b-221bd2aee36c","system_id":"levelo_inurba_marseille","lat":43.26787,"lon":5.39422,"is_reserved":false,"is_disabled":false,"rental_uris":{"android":"levelo://app?vid=fafee40b-eacf-42f5-9e7b-221bd2aee36c","ios":"levelo://app?vid=fafee40b-eacf-42f5-9e7b-221bd2aee36c"},"vehicle_type_id":"4","last_reported":1730567211,"current_range_meters":15200,"station_id":"ce4bhh12rcd13ifvqfg0","pricing_plan_id":"cebpf4jnsgd1na2vs0mg"},{"bike_id":"0f5f4a5e-d5e5-4f9f-a634-2f9428e83c2c","system_id":"levelo_inurba_marseille","lat":43.27815,"lon":5.40719,"is_reserved":false,"is_disabled":false,"rental_uris":{"android":"levelo://app?vid=0f5f4a5e-d5e5-4f9f-a634-2f9428e83c2c","ios":"levelo://app?vid=0f5f4a5e-d5e5-4f9f-a634-2f9428e83c2c"},"vehicle_type_id":"4","last_reported":1730567211,"current_range_meters":37600,"station_id":"ce4bhnh2rcd13ifvqgtg","pricing_plan_id":"cebpf4jnsgd1na2vs0mg"},{"bike_id":"4bea4540-3067-4d85-b258-77b1bf2197c8","system_id":"levelo_inurba_marseille","lat":43.29874,"lon":5.38911,"is_reserved":false,"is_disabled":false,"rental_uris":{"android":"levelo://app?vid=4bea4540-3067-4d85-b258-77b1bf2197c8","ios":"levelo://app?vid=4bea4540-3067-4d85-b258-77b1bf2197c8"},"vehicle_type_id":"4","last_reported":1730567211,"current_range_meters":36800,"station_id":"ce4bh392rcd13ifvqdl0","pricing_plan_id":"cebpf4jnsgd1na2vs0mg"},{"bike_id":"a736eb14-322a-4db6-8378-3b19b72258b0","system_id":"levelo_inurba_marseille","lat":43.29447,"lon":5.3831,"is_reserved":false,"is_disabled":false,"rental_uris":{"android":"levelo://app?vid=a736eb14-322a-4db6-8378-3b19b72258b0","ios":"levelo://app?vid=a736eb14-322a-4db6-8378-3b19b72258b0"},"vehicle_type_id":"4","last_reported":1730567211,"current_range_meters":28800,"station_id":"","pricing_plan_id":"cebpf4jnsgd1na2vs0mg"},{"bike_id":"1e6f3f19-8644-4cfa-aa68-273fd293401c","system_id":"levelo_inurba_marseille","lat":43.29273,"lon":5.36849,"is_reserved":false,"is_disabled":false,"rental_uris":{"android":"levelo://app?vid=1e6f3f19-8644-4cfa-aa68-273fd293401c","ios":"levelo://app?vid=1e6f3f19-8644-4cfa-aa68-273fd293401c"},"vehicle_type_id":"4","last_reported":1730567211,"current_range_meters":22400,"station_id":"ce4bhbp2rcd13ifvqesg","pricing_plan_id":"cebpf4jnsgd1na2vs0mg"},{"bike_id":"39619002-67ac-40b3-afab-cd1631b93626","system_id":"levelo_inurba_marseille","lat":43.29273,"lon":5.36844,"is_reserved":false,"is_disabled":false,"rental_uris":{"android":"levelo://app?vid=39619002-67ac-40b3-afab-cd1631b93626","ios":"levelo://app?vid=39619002-67ac-40b3-afab-cd1631b93626"},"vehicle_type_id":"4","last_reported":1730567211,"current_range_meters":38000,"station_id":"ce4bhbp2rcd13ifvqesg","pricing_plan_id":"cebpf4jnsgd1na2vs0mg"},{"bike_id":"d35a9a52-8843-4994-8852-8cf470ca31fc","system_id":"levelo_inurba_marseille","lat":43.27426,"lon":5.39415,"is_reserved":false,"is_disabled":false,"rental_uris":{"android":"levelo://app?vid=d35a9a52-8843-4994-8852-8cf470ca31fc","ios":"levelo://app?vid=d35a9a52-8843-4994-8852-8cf470ca31fc"},"vehicle_type_id":"4","last_reported":1730567211,"current_range_meters":9200,"station_id":"ce4bhdp2rcd13ifvqf20","pricing_plan_id":"cebpf4jnsgd1na2vs0mg"},{"bike_id":"5c1853ec-647b-46b2-b5ac-84a9e3365160","system_id":"levelo_inurba_marseille","lat":43.29036,"lon":5.38649,"is_reserved":false,"is_disabled":false,"rental_uris":{"android":"levelo://app?vid=5c1853ec-647b-46b2-b5ac-84a9e3365160","ios":"levelo://app?vid=5c1853ec-647b-46b2-b5ac-84a9e3365160"},"vehicle_type_id":"4","last_reported":1730567211,"current_range_meters":1200,"station_id":"ce4bh4p2rcd13ifvqe0g","pricing_plan_id":"cebpf4jnsgd1na2vs0mg"},{"bike_id":"d937a8da-dd9c-42f4-b789-3a759d1e4dc5","system_id":"levelo_inurba_marseille","lat":43.25572,"lon":5.38242,"is_reserved":false,"is_disabled":false,"rental_uris":{"android":"levelo://app?vid=d937a8da-dd9c-42f4-b789-3a759d1e4dc5","ios":"levelo://app?vid=d937a8da-dd9c-42f4-b789-3a759d1e4dc5"},"vehicle_type_id":"4","last_reported":1730567211,"current_range_meters":38800,"station_id":"ce4bhih2rcd13ifvqfs0","pricing_plan_id":"cebpf4jnsgd1na2vs0mg"},{"bike_id":"bf87a494-d8a2-45c3-947c-b683b282c8d8","system_id":"levelo_inurba_marseille","lat":43.29414,"lon":5.38622,"is_reserved":false,"is_disabled":false,"rental_uris":{"android":"levelo://app?vid=bf87a494-d8a2-45c3-947c-b683b282c8d8","ios":"levelo://app?vid=bf87a494-d8a2-45c3-947c-b683b282c8d8"},"vehicle_type_id":"4","last_reported":1730567211,"current_range_meters":38400,"station_id":"ce4bh2h2rcd13ifvqdh0","pricing_plan_id":"cebpf4jnsgd1na2vs0mg"},{"bike_id":"f733f9c3-9fa4-4f43-8373-60bc43a9dd50","system_id":"levelo_inurba_marseille","lat":43.29297,"lon":5.37441,"is_reserved":false,"is_disabled":false,"rental_uris":{"android":"levelo://app?vid=f733f9c3-9fa4-4f43-8373-60bc43a9dd50","ios":"levelo://app?vid=f733f9c3-9fa4-4f43-8373-60bc43a9dd50"},"vehicle_type_id":"4","last_reported":1730567211,"current_range_meters":32000,"station_id":"ce4bgi12rcd13ifvqb70","pricing_plan_id":"cebpf4jnsgd1na2vs0mg"},{"bike_id":"dd8c515b-ad24-4f33-b1d4-7751356c7050","system_id":"levelo_inurba_marseille","lat":43.30189,"lon":5.36612,"is_reserved":false,"is_disabled":false,"rental_uris":{"android":"levelo://app?vid=dd8c515b-ad24-4f33-b1d4-7751356c7050","ios":"levelo://app?vid=dd8c515b-ad24-4f33-b1d4-7751356c7050"},"vehicle_type_id":"4","last_reported":1730567211,"current_range_meters":19600,"station_id":"ce4bgrh2rcd13ifvqc8g","pricing_plan_id":"cebpf4jnsgd1na2vs0mg"},{"bike_id":"b98450ce-a67c-4f5f-8285-197c41f0f2d7","system_id":"levelo_inurba_marseille","lat":43.24661,"lon":5.38169,"is_reserved":false,"is_disabled":false,"rental_uris":{"android":"levelo://app?vid=b98450ce-a67c-4f5f-8285-197c41f0f2d7","ios":"levelo://app?vid=b98450ce-a67c-4f5f-8285-197c41f0f2d7"},"vehicle_type_id":"4","last_reported":1730567211,"current_range_meters":8000,"station_id":"ce4bhih2rcd13ifvqfr0","pricing_plan_id":"cebpf4jnsgd1na2vs0mg"},{"bike_id":"9b6ac07e-b2cd-40b2-8096-f9828708b689","system_id":"levelo_inurba_marseille","lat":43.27944,"lon":5.41049,"is_reserved":false,"is_disabled":false,"rental_uris":{"android":"levelo://app?vid=9b6ac07e-b2cd-40b2-8096-f9828708b689","ios":"levelo://app?vid=9b6ac07e-b2cd-40b2-8096-f9828708b689"},"vehicle_type_id":"4","last_reported":1730567211,"current_range_meters":28000,"station_id":"ce4bhnp2rcd13ifvqh0g","pricing_plan_id":"cebpf4jnsgd1na2vs0mg"},{"bike_id":"1ff140ef-4a19-46b8-9050-cd38bbd01d8b","system_id":"levelo_inurba_marseille","lat":43.29422,"lon":5.39743,"is_reserved":false,"is_disabled":false,"rental_uris":{"android":"levelo://app?vid=1ff140ef-4a19-46b8-9050-cd38bbd01d8b","ios":"levelo://app?vid=1ff140ef-4a19-46b8-9050-cd38bbd01d8b"},"vehicle_type_id":"4","last_reported":1730567211,"current_range_meters":10800,"station_id":"ce4bh3h2rcd13ifvqdo0","pricing_plan_id":"cebpf4jnsgd1na2vs0mg"},{"bike_id":"dfcedc5b-1e87-49b4-9b13-7d5ae9ea76a8","system_id":"levelo_inurba_marseille","lat":43.30253,"lon":5.40087,"is_reserved":false,"is_disabled":false,"rental_uris":{"android":"levelo://app?vid=dfcedc5b-1e87-49b4-9b13-7d5ae9ea76a8","ios":"levelo://app?vid=dfcedc5b-1e87-49b4-9b13-7d5ae9ea76a8"},"vehicle_type_id":"4","last_reported":1730567211,"current_range_meters":37600,"station_id":"ce4bgvh2rcd13ifvqcs0","pricing_plan_id":"cebpf4jnsgd1na2vs0mg"},{"bike_id":"fe05054e-6c0b-4296-a566-5f2a1981aa53","system_id":"levelo_inurba_marseille","lat":43.27046,"lon":5.4027,"is_reserved":false,"is_disabled":false,"rental_uris":{"android":"levelo://app?vid=fe05054e-6c0b-4296-a566-5f2a1981aa53","ios":"levelo://app?vid=fe05054e-6c0b-4296-a566-5f2a1981aa53"},"vehicle_type_id":"4","last_reported":1730567211,"current_range_meters":38400,"station_id":"ce4bhk92rcd13ifvqgc0","pricing_plan_id":"cebpf4jnsgd1na2vs0mg"},{"bike_id":"82f8b328-2c32-4040-8d45-ff577cb487f7","system_id":"levelo_inurba_marseille","lat":43.29559,"lon":5.37536,"is_reserved":false,"is_disabled":false,"rental_uris":{"android":"levelo://app?vid=82f8b328-2c32-4040-8d45-ff577cb487f7","ios":"levelo://app?vid=82f8b328-2c32-4040-8d45-ff577cb487f7"},"vehicle_type_id":"4","last_reported":1730567211,"current_range_meters":38800,"station_id":"ce4bgh92rcd13ifvqb50","pricing_plan_id":"cebpf4jnsgd1na2vs0mg"},{"bike_id":"86b68dc2-e0d1-4abb-8df2-1daee57f01c3","system_id":"levelo_inurba_marseille","lat":43.26058,"lon":5.39401,"is_reserved":false,"is_disabled":false,"rental_uris":{"android":"levelo://app?vid=86b68dc2-e0d1-4abb-8df2-1daee57f01c3","ios":"levelo://app?vid=86b68dc2-e0d1-4abb-8df2-1daee57f01c3"},"vehicle_type_id":"4","last_reported":1730567211,"current_range_meters":10800,"station_id":"ce4bhh92rcd13ifvqfj0","pricing_plan_id":"cebpf4jnsgd1na2vs0mg"},{"bike_id":"dab62811-90a2-48c3-ace3-18fcdc2f320e","system_id":"levelo_inurba_marseille","lat":43.29426,"lon":5.38625,"is_reserved":false,"is_disabled":false,"rental_uris":{"android":"levelo://app?vid=dab62811-90a2-48c3-ace3-18fcdc2f320e","ios":"levelo://app?vid=dab62811-90a2-48c3-ace3-18fcdc2f320e"},"vehicle_type_id":"4","last_reported":1730567211,"current_range_meters":9200,"station_id":"ce4bh2h2rcd13ifvqdh0","pricing_plan_id":"cebpf4jnsgd1na2vs0mg"},{"bike_id":"3a6a4766-245e-42c7-b3be-8fceddcb866a","system_id":"levelo_inurba_marseille","lat":43.30205,"lon":5.39457,"is_reserved":false,"is_disabled":false,"rental_uris":{"android":"levelo://app?vid=3a6a4766-245e-42c7-b3be-8fceddcb866a","ios":"levelo://app?vid=3a6a4766-245e-42c7-b3be-8fceddcb866a"},"vehicle_type_id":"4","last_reported":1730567211,"current_range_meters":30000,"station_id":"ce4bh0p2rcd13ifvqd70","pricing_plan_id":"cebpf4jnsgd1na2vs0mg"},{"bike_id":"d7010405-5800-48a0-8e77-38c61941634e","system_id":"levelo_inurba_marseille","lat":43.23195,"lon":5.35549,"is_reserved":false,"is_disabled":false,"rental_uris":{"android":"levelo://app?vid=d7010405-5800-48a0-8e77-38c61941634e","ios":"levelo://app?vid=d7010405-5800-48a0-8e77-38c61941634e"},"vehicle_type_id":"4","last_reported":1730567211,"current_range_meters":38800,"station_id":"ce4bhu92rcd13ifvqi70","pricing_plan_id":"cebpf4jnsgd1na2vs0mg"},{"bike_id":"6c7a6c2a-d7fb-40b0-a46e-f3b348e5c810","system_id":"levelo_inurba_marseille","lat":43.29303,"lon":5.37173,"is_reserved":false,"is_disabled":false,"rental_uris":{"android":"levelo://app?vid=6c7a6c2a-d7fb-40b0-a46e-f3b348e5c810","ios":"levelo://app?vid=6c7a6c2a-d7fb-40b0-a46e-f3b348e5c810"},"vehicle_type_id":"4","last_reported":1730567211,"current_range_meters":9200,"station_id":"ce4bgh92rcd13ifvqb40","pricing_plan_id":"cebpf4jnsgd1na2vs0mg"},{"bike_id":"ed6ff77c-da21-44f1-873e-1aff72fc05e6","system_id":"levelo_inurba_marseille","lat":43.27572,"lon":5.38427,"is_reserved":false,"is_disabled":false,"rental_uris":{"android":"levelo://app?vid=ed6ff77c-da21-44f1-873e-1aff72fc05e6","ios":"levelo://app?vid=ed6ff77c-da21-44f1-873e-1aff72fc05e6"},"vehicle_type_id":"4","last_reported":1730567211,"current_range_meters":28400,"station_id":"ce4bhh92rcd13ifvqfi0","pricing_plan_id":"cebpf4jnsgd1na2vs0mg"},{"bike_id":"face4c8f-9a76-4a0a-980c-aece6e8ba4d0","system_id":"levelo_inurba_marseille","lat":43.29273,"lon":5.38456,"is_reserved":false,"is_disabled":false,"rental_uris":{"android":"levelo://app?vid=face4c8f-9a76-4a0a-980c-aece6e8ba4d0","ios":"levelo://app?vid=face4c8f-9a76-4a0a-980c-aece6e8ba4d0"},"vehicle_type_id":"4","last_reported":1730567211,"current_range_meters":30400,"station_id":"ce4bh692rcd13ifvqea0","pricing_plan_id":"cebpf4jnsgd1na2vs0mg"},{"bike_id":"19800b3a-d4e0-48b7-ba87-dd09bee7afd4","system_id":"levelo_inurba_marseille","lat":43.27378,"lon":5.36266,"is_reserved":false,"is_disabled":false,"rental_uris":{"android":"levelo://app?vid=19800b3a-d4e0-48b7-ba87-dd09bee7afd4","ios":"levelo://app?vid=19800b3a-d4e0-48b7-ba87-dd09bee7afd4"},"vehicle_type_id":"4","last_reported":1730567211,"current_range_meters":6800,"station_id":"ce4bhbh2rcd13ifvqeo0","pricing_plan_id":"cebpf4jnsgd1na2vs0mg"},{"bike_id":"ed62e4d1-93bc-429f-bada-e1f1801d6dd5","system_id":"levelo_inurba_marseille","lat":43.299088,"lon":5.381436,"is_reserved":false,"is_disabled":false,"rental_uris":{"android":"levelo://app?vid=ed62e4d1-93bc-429f-bada-e1f1801d6dd5","ios":"levelo://app?vid=ed62e4d1-93bc-429f-bada-e1f1801d6dd5"},"vehicle_type_id":"4","last_reported":1730567211,"current_range_meters":16000,"station_id":"ce4bh312rcd13ifvqdj0","pricing_plan_id":"cebpf4jnsgd1na2vs0mg"},{"bike_id":"9e73b740-00b7-4587-ad69-627856252521","system_id":"levelo_inurba_marseille","lat":43.27061,"lon":5.42284,"is_reserved":false,"is_disabled":false,"rental_uris":{"android":"levelo://app?vid=9e73b740-00b7-4587-ad69-627856252521","ios":"levelo://app?vid=9e73b740-00b7-4587-ad69-627856252521"},"vehicle_type_id":"4","last_reported":1730567211,"current_range_meters":38800,"station_id":"ce4bhk92rcd13ifvqgb0","pricing_plan_id":"cebpf4jnsgd1na2vs0mg"},{"bike_id":"66243fee-58a4-4b2f-8a19-1a453660bb0c","system_id":"levelo_inurba_marseille","lat":43.29307,"lon":5.37179,"is_reserved":false,"is_disabled":false,"rental_uris":{"android":"levelo://app?vid=66243fee-58a4-4b2f-8a19-1a453660bb0c","ios":"levelo://app?vid=66243fee-58a4-4b2f-8a19-1a453660bb0c"},"vehicle_type_id":"4","last_reported":1730567211,"current_range_meters":19600,"station_id":"ce4bgh92rcd13ifvqb40","pricing_plan_id":"cebpf4jnsgd1na2vs0mg"},{"bike_id":"3f5ec045-5578-4e83-8a26-12ccd6e607eb","system_id":"levelo_inurba_marseille","lat":43.29263,"lon":5.38439,"is_reserved":false,"is_disabled":false,"rental_uris":{"android":"levelo://app?vid=3f5ec045-5578-4e83-8a26-12ccd6e607eb","ios":"levelo://app?vid=3f5ec045-5578-4e83-8a26-12ccd6e607eb"},"vehicle_type_id":"4","last_reported":1730567211,"current_range_meters":35600,"station_id":"ce4bh692rcd13ifvqea0","pricing_plan_id":"cebpf4jnsgd1na2vs0mg"},{"bike_id":"4c6bf95f-6fd5-4a6a-a400-98aaf44e4e68","system_id":"levelo_inurba_marseille","lat":43.29283,"lon":5.36856,"is_reserved":false,"is_disabled":false,"rental_uris":{"android":"levelo://app?vid=4c6bf95f-6fd5-4a6a-a400-98aaf44e4e68","ios":"levelo://app?vid=4c6bf95f-6fd5-4a6a-a400-98aaf44e4e68"},"vehicle_type_id":"4","last_reported":1730567211,"current_range_meters":26800,"station_id":"ce4bhbp2rcd13ifvqesg","pricing_plan_id":"cebpf4jnsgd1na2vs0mg"},{"bike_id":"c080a6f1-40a7-450a-92d0-c7ab7d51f9cf","system_id":"levelo_inurba_marseille","lat":43.28151,"lon":5.42651,"is_reserved":false,"is_disabled":false,"rental_uris":{"android":"levelo://app?vid=c080a6f1-40a7-450a-92d0-c7ab7d51f9cf","ios":"levelo://app?vid=c080a6f1-40a7-450a-92d0-c7ab7d51f9cf"},"vehicle_type_id":"4","last_reported":1730567211,"current_range_meters":17600,"station_id":"ce4bhnh2rcd13ifvqgug","pricing_plan_id":"cebpf4jnsgd1na2vs0mg"},{"bike_id":"91f09aa6-53f4-4056-9483-e697d438642b","system_id":"levelo_inurba_marseille","lat":43.29619,"lon":5.37734,"is_reserved":false,"is_disabled":false,"rental_uris":{"android":"levelo://app?vid=91f09aa6-53f4-4056-9483-e697d438642b","ios":"levelo://app?vid=91f09aa6-53f4-4056-9483-e697d438642b"},"vehicle_type_id":"4","last_reported":1730567211,"current_range_meters":38800,"station_id":"ce4bgi92rcd13ifvqb90","pricing_plan_id":"cebpf4jnsgd1na2vs0mg"},{"bike_id":"876d8064-1e37-45a1-a970-2058846a919d","system_id":"levelo_inurba_marseille","lat":43.26681,"lon":5.38268,"is_reserved":false,"is_disabled":false,"rental_uris":{"android":"levelo://app?vid=876d8064-1e37-45a1-a970-2058846a919d","ios":"levelo://app?vid=876d8064-1e37-45a1-a970-2058846a919d"},"vehicle_type_id":"4","last_reported":1730567211,"current_range_meters":18800,"station_id":"ce4bhg92rcd13ifvqf90","pricing_plan_id":"cebpf4jnsgd1na2vs0mg"},{"bike_id":"f09b3fe5-83e5-4b2d-8ee7-3c0b13f0e8ed","system_id":"levelo_inurba_marseille","lat":43.29267,"lon":5.40911,"is_reserved":false,"is_disabled":false,"rental_uris":{"android":"levelo://app?vid=f09b3fe5-83e5-4b2d-8ee7-3c0b13f0e8ed","ios":"levelo://app?vid=f09b3fe5-83e5-4b2d-8ee7-3c0b13f0e8ed"},"vehicle_type_id":"4","last_reported":1730567211,"current_range_meters":25600,"station_id":"ce4bh192rcd13ifvqdc0","pricing_plan_id":"cebpf4jnsgd1na2vs0mg"},{"bike_id":"b181b7da-6462-416f-ac18-f2063c6275d3","system_id":"levelo_inurba_marseille","lat":43.29626,"lon":5.37721,"is_reserved":false,"is_disabled":false,"rental_uris":{"android":"levelo://app?vid=b181b7da-6462-416f-ac18-f2063c6275d3","ios":"levelo://app?vid=b181b7da-6462-416f-ac18-f2063c6275d3"},"vehicle_type_id":"4","last_reported":1730567211,"current_range_meters":24800,"station_id":"ce4bgi92rcd13ifvqb90","pricing_plan_id":"cebpf4jnsgd1na2vs0mg"},{"bike_id":"d982e585-af2a-4e32-9a6f-54c863b57a4c","system_id":"levelo_inurba_marseille","lat":43.26944,"lon":5.40257,"is_reserved":false,"is_disabled":false,"rental_uris":{"android":"levelo://app?vid=d982e585-af2a-4e32-9a6f-54c863b57a4c","ios":"levelo://app?vid=d982e585-af2a-4e32-9a6f-54c863b57a4c"},"vehicle_type_id":"4","last_reported":1730567211,"current_range_meters":38800,"station_id":"cjm6bp8fraef2m0cb0m0","pricing_plan_id":"cebpf4jnsgd1na2vs0mg"},{"bike_id":"06fb2881-4483-49ae-b183-c585808cfeb4","system_id":"levelo_inurba_marseille","lat":43.2957,"lon":5.37519,"is_reserved":false,"is_disabled":false,"rental_uris":{"android":"levelo://app?vid=06fb2881-4483-49ae-b183-c585808cfeb4","ios":"levelo://app?vid=06fb2881-4483-49ae-b183-c585808cfeb4"},"vehicle_type_id":"4","last_reported":1730567211,"current_range_meters":38800,"station_id":"ce4bgh92rcd13ifvqb50","pricing_plan_id":"cebpf4jnsgd1na2vs0mg"},{"bike_id":"38cd3a53-e9e0-405c-b99b-27187e51efc7","system_id":"levelo_inurba_marseille","lat":43.31879,"lon":5.40742,"is_reserved":false,"is_disabled":false,"rental_uris":{"android":"levelo://app?vid=38cd3a53-e9e0-405c-b99b-27187e51efc7","ios":"levelo://app?vid=38cd3a53-e9e0-405c-b99b-27187e51efc7"},"vehicle_type_id":"4","last_reported":1730567211,"current_range_meters":21600,"station_id":"ce4bhq12rcd13ifvqhig","pricing_plan_id":"cebpf4jnsgd1na2vs0mg"},{"bike_id":"902fc22b-24a1-4ba2-a5ff-7284fdaeebc0","system_id":"levelo_inurba_marseille","lat":43.24642,"lon":5.389,"is_reserved":false,"is_disabled":false,"rental_uris":{"android":"levelo://app?vid=902fc22b-24a1-4ba2-a5ff-7284fdaeebc0","ios":"levelo://app?vid=902fc22b-24a1-4ba2-a5ff-7284fdaeebc0"},"vehicle_type_id":"4","last_reported":1730567211,"current_range_meters":38800,"station_id":"ce4bhg12rcd13ifvqf60","pricing_plan_id":"cebpf4jnsgd1na2vs0mg"},{"bike_id":"1ee9cce5-21bf-418a-b899-2c74d4a27fd2","system_id":"levelo_inurba_marseille","lat":43.29798,"lon":5.38102,"is_reserved":false,"is_disabled":false,"rental_uris":{"android":"levelo://app?vid=1ee9cce5-21bf-418a-b899-2c74d4a27fd2","ios":"levelo://app?vid=1ee9cce5-21bf-418a-b899-2c74d4a27fd2"},"vehicle_type_id":"4","last_reported":1730567211,"current_range_meters":38000,"station_id":"ce4bgip2rcd13ifvqbb0","pricing_plan_id":"cebpf4jnsgd1na2vs0mg"},{"bike_id":"904fe36d-a49d-4599-b364-e5bb064d99e2","system_id":"levelo_inurba_marseille","lat":43.29724,"lon":5.3768,"is_reserved":false,"is_disabled":false,"rental_uris":{"android":"levelo://app?vid=904fe36d-a49d-4599-b364-e5bb064d99e2","ios":"levelo://app?vid=904fe36d-a49d-4599-b364-e5bb064d99e2"},"vehicle_type_id":"4","last_reported":1730567211,"current_range_meters":32400,"station_id":"ce4bgkh2rcd13ifvqbl0","pricing_plan_id":"cebpf4jnsgd1na2vs0mg"},{"bike_id":"73edd6cb-bb46-4c22-b32d-baa9c34fb5e3","system_id":"levelo_inurba_marseille","lat":43.290064,"lon":5.356181,"is_reserved":false,"is_disabled":false,"rental_uris":{"android":"levelo://app?vid=73edd6cb-bb46-4c22-b32d-baa9c34fb5e3","ios":"levelo://app?vid=73edd6cb-bb46-4c22-b32d-baa9c34fb5e3"},"vehicle_type_id":"4","last_reported":1730567211,"current_range_meters":20400,"station_id":"ce4bhb92rcd13ifvqen0","pricing_plan_id":"cebpf4jnsgd1na2vs0mg"},{"bike_id":"944fbcff-0f2c-4e4b-9228-3b46dd5ad092","system_id":"levelo_inurba_marseille","lat":43.29717,"lon":5.37704,"is_reserved":false,"is_disabled":false,"rental_uris":{"android":"levelo://app?vid=944fbcff-0f2c-4e4b-9228-3b46dd5ad092","ios":"levelo://app?vid=944fbcff-0f2c-4e4b-9228-3b46dd5ad092"},"vehicle_type_id":"4","last_reported":1730567211,"current_range_meters":37600,"station_id":"ce4bgkh2rcd13ifvqbl0","pricing_plan_id":"cebpf4jnsgd1na2vs0mg"},{"bike_id":"86ad5973-665e-4ee1-97f7-329cbc14c954","system_id":"levelo_inurba_marseille","lat":43.25577,"lon":5.38239,"is_reserved":false,"is_disabled":false,"rental_uris":{"android":"levelo://app?vid=86ad5973-665e-4ee1-97f7-329cbc14c954","ios":"levelo://app?vid=86ad5973-665e-4ee1-97f7-329cbc14c954"},"vehicle_type_id":"4","last_reported":1730567211,"current_range_meters":24800,"station_id":"ce4bhih2rcd13ifvqfs0","pricing_plan_id":"cebpf4jnsgd1na2vs0mg"},{"bike_id":"0b66ced5-b130-4f30-874c-4149dc54a351","system_id":"levelo_inurba_marseille","lat":43.23954,"lon":5.36636,"is_reserved":false,"is_disabled":false,"rental_uris":{"android":"levelo://app?vid=0b66ced5-b130-4f30-874c-4149dc54a351","ios":"levelo://app?vid=0b66ced5-b130-4f30-874c-4149dc54a351"},"vehicle_type_id":"4","last_reported":1730567211,"current_range_meters":39200,"station_id":"ce4bhi12rcd13ifvqfp0","pricing_plan_id":"cebpf4jnsgd1na2vs0mg"},