{"last_updated":1731161279,"ttl":60,"version":"2.2","data":{"bikes":[{"bike_id":"7d4b1cd1-80a3-43c2-9122-e99cfedaa7c6","system_id":"levelo_inurba_marseille","lat":43.27493,"lon":5.42449,"is_reserved":false,"is_disabled":false,"rental_uris":{"android":"levelo://app?vid=7d4b1cd1-80a3-43c2-9122-e99cfedaa7c6","ios":"levelo://app?vid=7d4b1cd1-80a3-43c2-9122-e99cfedaa7c6"},"vehicle_type_id":"4","last_reported":1731161279,"current_range_meters":32400,"station_id":"ce4bhn92rcd13ifvqgrg","pricing_plan_id":"cebpf4jnsgd1na2vs0mg"},{"bike_id":"e94e2327-9eaf-4d26-bd7f-903afa708be6","system_id":"levelo_inurba_marseille","lat":43.33732,"lon":5.392,"is_reserved":false,"is_disabled":false,"rental_uris":{"android":"levelo://app?vid=e94e2327-9eaf-4d26-bd7f-903afa708be6","ios":"levelo://app?vid=e94e2327-9eaf-4d26-bd7f-903afa708be6"},"vehicle_type_id":"4","last_reported":1731161279,"current_range_meters":18800,"station_id":"ce4bhr92rcd13ifvqhsg","pricing_plan_id":"cebpf4jnsgd1na2vs0mg"},{"bike_id":"af27552f-e34f-42d8-b554-88d62e9d2b5c","system_id":"levelo_inurba_marseille","lat":43.2848,"lon":5.38407,"is_reserved":false,"is_disabled":false,"rental_uris":{"android":"levelo://app?vid=af27552f-e34f-42d8-b554-88d62e9d2b5c","ios":"levelo://app?vid=af27552f-e34f-42d8-b554-88d62e9d2b5c"},"vehicle_type_id":"4","last_reported":1731161279,"current_range_meters":39200,"station_id":"ce4bh512rcd13ifvqe3g","pricing_plan_id":"cebpf4jnsgd1na2vs0mg"},{"bike_id":"388e00be-d072-4a5a-824c-17a811b0894a","system_id":"levelo_inurba_marseille","lat":43.30555,"lon":5.36532,"is_reserved":false,"is_disabled":false,"rental_uris":{"android":"levelo://app?vid=388e00be-d072-4a5a-824c-17a811b0894a","ios":"levelo://app?vid=388e00be-d072-4a5a-824c-17a811b0894a"},"vehicle_type_id":"4","last_reported":1731161279,"current_range_meters":8000,"station_id":"ce4bgs12rcd13ifvqcag","pricing_plan_id":"cebpf4jnsgd1na2vs0mg"},{"bike_id":"68bb9078-c705-4e4c-81de-7ae7c7d86c43","system_id":"levelo_inurba_marseille","lat":43.31684,"lon":5.37755,"is_reserved":false,"is_disabled":false,"rental_uris":{"android":"levelo://app?vid=68bb9078-c705-4e4c-81de-7ae7c7d86c43","ios":"levelo://app?vid=68bb9078-c705-4e4c-81de-7ae7c7d86c43"},"vehicle_type_id":"4","last_reported":1731161279,"current_range_meters":28400,"station_id":"ce4bgth2rcd13ifvqch0","pricing_plan_id":"cebpf4jnsgd1na2vs0mg"},{"bike_id":"18102e7a-e3fe-41d8-a668-6d364c73f3e8","system_id":"levelo_inurba_marseille","lat":43.29272,"lon":5.36851,"is_reserved":false,"is_disabled":false,"rental_uris":{"android":"levelo://app?vid=18102e7a-e3fe-41d8-a668-6d364c73f3e8","ios":"levelo://app?vid=18102e7a-e3fe-41d8-a668-6d364c73f3e8"},"vehicle_type_id":"4","last_reported":1731161279,"current_range_meters":36000,"station_id":"ce4bhbp2rcd13ifvqesg","pricing_plan_id":"cebpf4jnsgd1na2vs0mg"},{"bike_id":"df2e79d1-efe6-4a83-b831-8409f5b4006e","system_id":"levelo_inurba_marseille","lat":43.26202,"lon":5.37936,"is_reserved":false,"is_disabled":false,"rental_uris":{"android":"levelo://app?vid=df2e79d1-efe6-4a83-b831-8409f5b4006e","ios":"levelo://app?vid=df2e79d1-efe6-4a83-b831-8409f5b4006e"},"vehicle_type_id":"4","last_reported":1731161279,"current_range_meters":38800,"station_id":"ce4bhjp2rcd13ifvqg90","pricing_plan_id":"cebpf4jnsgd1na2vs0mg"},{"bike_id":"1454e072-b9aa-4bfb-8b3e-afa457118b98","system_id":"levelo_inurba_marseille","lat":43.29288,"lon":5.36789,"is_reserved":false,"is_disabled":false,"rental_uris":{"android":"levelo://app?vid=1454e072-b9aa-4bfb-8b3e-afa457118b98","ios":"levelo://app?vid=1454e072-b9aa-4bfb-8b3e-afa457118b98"},"vehicle_type_id":"4","last_reported":1731161279,"current_range_meters":38800,"station_id":"ce4bhbp2rcd13ifvqesg","pricing_plan_id":"cebpf4jnsgd1na2vs0mg"},{"bike_id":"5cc43f18-2f71-469d-a54f-33dba716b2f2","system_id":"levelo_inurba_marseille","lat":43.29241,"lon":5.36061,"is_reserved":false,"is_disabled":false,"rental_uris":{"android":"levelo://app?vid=5cc43f18-2f71-469d-a54f-33dba716b2f2","ios":"levelo://app?vid=5cc43f18-2f71-469d-a54f-33dba716b2f2"},"vehicle_type_id":"4","last_reported":1731161279,"current_range_meters":29600,"station_id":"ce4bhbh2rcd13ifvqeqg","pricing_plan_id":"cebpf4jnsgd1na2vs0mg"},{"bike_id":"83f78929-c7fd-4f88-a1a7-b0417b2a850c","system_id":"levelo_inurba_marseille","lat":43.29306,"lon":5.37467,"is_reserved":false,"is_disabled":false,"rental_uris":{"android":"levelo://app?vid=83f78929-c7fd-4f88-a1a7-b0417b2a850c","ios":"levelo://app?vid=83f78929-c7fd-4f88-a1a7-b0417b2a850c"},"vehicle_type_id":"4","last_reported":1731161279,"current_range_meters":27200,"station_id":"ce4bgi12rcd13ifvqb70","pricing_plan_id":"cebpf4jnsgd1na2vs0mg"},{"bike_id":"f6c85f00-2e5b-4729-b02d-940cdb7075f6","system_id":"levelo_inurba_marseille","lat":43.32482,"lon":5.3656,"is_reserved":false,"is_disabled":false,"rental_uris":{"android":"levelo://app?vid=f6c85f00-2e5b-4729-b02d-940cdb7075f6","ios":"levelo://app?vid=f6c85f00-2e5b-4729-b02d-940cdb7075f6"},"vehicle_type_id":"4","last_reported":1731161279,"current_range_meters":25600,"station_id":"ce4bhs12rcd13ifvqhvg","pricing_plan_id":"cebpf4jnsgd1na2vs0mg"},{"bike_id":"cd20034e-b421-4446-91e0-7f4ee24db35f","system_id":"levelo_inurba_marseille","lat":43.29945,"lon":5.36552,"is_reserved":false,"is_disabled":false,"rental_uris":{"android":"levelo://app?vid=cd20034e-b421-4446-91e0-7f4ee24db35f","ios":"levelo://app?vid=cd20034e-b421-4446-91e0-7f4ee24db35f"},"vehicle_type_id":"4","last_reported":1731161279,"current_range_meters":30400,"station_id":"ce4bgm92rcd13ifvqbr0","pricing_plan_id":"cebpf4jnsgd1na2vs0mg"},{"bike_id":"b6055c22-1e02-453d-96f7-63433918797c","system_id":"levelo_inurba_marseille","lat":43.289869,"lon":5.366187,"is_reserved":false,"is_disabled":false,"rental_uris":{"android":"levelo://app?vid=b6055c22-1e02-453d-96f7-63433918797c","ios":"levelo://app?vid=b6055c22-1e02-453d-96f7-63433918797c"},"vehicle_type_id":"4","last_reported":1731161279,"current_range_meters":10800,"station_id":"ce4bhah2rcd13ifvqei0","pricing_plan_id":"cebpf4jnsgd1na2vs0mg"},{"bike_id":"01bcc230-3b3a-4550-b79b-d7c533e34c40","system_id":"levelo_inurba_marseille","lat":43.272937,"lon":5.390481,"is_reserved":false,"is_disabled":false,"rental_uris":{"android":"levelo://app?vid=01bcc230-3b3a-4550-b79b-d7c533e34c40","ios":"levelo://app?vid=01bcc230-3b3a-4550-b79b-d7c533e34c40"},"vehicle_type_id":"4","last_reported":1731161279,"current_range_meters":17200,"station_id":"ce4bhgp2rcd13ifvqfe0","pricing_plan_id":"cebpf4jnsgd1na2vs0mg"},{"bike_id":"9efbeabb-6167-4838-af65-204431646610","system_id":"levelo_inurba_marseille","lat":43.24071,"lon":5.37782,"is_reserved":false,"is_disabled":false,"rental_uris":{"android":"levelo://app?vid=9efbeabb-6167-4838-af65-204431646610","ios":"levelo://app?vid=9efbeabb-6167-4838-af65-204431646610"},"vehicle_type_id":"4","last_reported":1731161279,"current_range_meters":26000,"station_id":"ce4bhnp2rcd13ifvqgvg","pricing_plan_id":"cebpf4jnsgd1na2vs0mg"},{"bike_id":"ed244fa1-9de3-4f0f-9d85-ecc7427c0983","system_id":"levelo_inurba_marseille","lat":43.28155,"lon":5.4266,"is_reserved":false,"is_disabled":false,"rental_uris":{"android":"levelo://app?vid=ed244fa1-9de3-4f0f-9d85-ecc7427c0983","ios":"levelo://app?vid=ed244fa1-9de3-4f0f-9d85-ecc7427c0983"},"vehicle_type_id":"4","last_reported":1731161279,"current_range_meters":27200,"station_id":"ce4bhnh2rcd13ifvqgug","pricing_plan_id":"cebpf4jnsgd1na2vs0mg"},{"bike_id":"2fd6dc22-dc4f-436f-8f09-ea747d8c2aa2","system_id":"levelo_inurba_marseille","lat":43.23963,"lon":5.36629,"is_reserved":false,"is_disabled":false,"rental_uris":{"android":"levelo://app?vid=2fd6dc22-dc4f-436f-8f09-ea747d8c2aa2","ios":"levelo://app?vid=2fd6dc22-dc4f-436f-8f09-ea747d8c2aa2"},"vehicle_type_id":"4","last_reported":1731161279,"current_range_meters":38800,"station_id":"ce4bhi12rcd13ifvqfp0","pricing_plan_id":"cebpf4jnsgd1na2vs0mg"},{"bike_id":"96df1ccc-d4ef-486d-810e-b3fe5a15a4be","system_id":"levelo_inurba_marseille","lat":43.28149,"lon":5.42637,"is_reserved":false,"is_disabled":false,"rental_uris":{"android":"levelo://app?vid=96df1ccc-d4ef-486d-810e-b3fe5a15a4be","ios":"levelo://app?vid=96df1ccc-d4ef-486d-810e-b3fe5a15a4be"},"vehicle_type_id":"4","last_reported":1731161279,"current_range_meters":19600,"station_id":"ce4bhnh2rcd13ifvqgug","pricing_plan_id":"cebpf4jnsgd1na2vs0mg"},{"bike_id":"4ba9f3d3-0784-46fb-9d88-16effc8a771c","system_id":"levelo_inurba_marseille","lat":43.29037,"lon":5.39974,"is_reserved":false,"is_disabled":false,"rental_uris":{"android":"levelo://app?vid=4ba9f3d3-0784-46fb-9d88-16effc8a771c","ios":"levelo://app?vid=4ba9f3d3-0784-46fb-9d88-16effc8a771c"},"vehicle_type_id":"4","last_reported":1731161279,"current_range_meters":38800,"station_id":"ce4bh392rcd13ifvqdm0","pricing_plan_id":"cebpf4jnsgd1na2vs0mg"},{"bike_id":"1397e4af-ea21-41fb-b9c7-a239e42e7588","system_id":"levelo_inurba_marseille","lat":43.28154,"lon":5.4264,"is_reserved":false,"is_disabled":false,"rental_uris":{"android":"levelo://app?vid=1397e4af-ea21-41fb-b9c7-a239e42e7588","ios":"levelo://app?vid=1397e4af-ea21-41fb-b9c7-a239e42e7588"},"vehicle_type_id":"4","last_reported":1731161279,"current_range_meters":20800,"station_id":"ce4bhnh2rcd13ifvqgug","pricing_plan_id":"cebpf4jnsgd1na2vs0mg"},{"bike_id":"b9059161-bc2a-4853-8231-de961bd5f1e7","system_id":"levelo_inurba_marseille","lat":43.33714,"lon":5.3918,"is_reserved":false,"is_disabled":false,"rental_uris":{"android":"levelo://app?vid=b9059161-bc2a-4853-8231-de961bd5f1e7","ios":"levelo://app?vid=b9059161-bc2a-4853-8231-de961bd5f1e7"},"vehicle_type_id":"4","last_reported":1731161279,"current_range_meters":22800,"station_id":"ce4bhr92rcd13ifvqhsg","pricing_plan_id":"cebpf4jnsgd1na2vs0mg"},{"bike_id":"40b49fc6-bcea-4a18-b68d-29259e82f668","system_id":"levelo_inurba_marseille","lat":43.24804,"lon":5.37453,"is_reserved":false,"is_disabled":false,"rental_uris":{"android":"levelo://app?vid=40b49fc6-bcea-4a18-b68d-29259e82f668","ios":"levelo://app?vid=40b49fc6-bcea-4a18-b68d-29259e82f668"},"vehicle_type_id":"4","last_reported":1731161279,"current_range_meters":22400,"station_id":"ce4bhgh2rcd13ifvqfb0","pricing_plan_id":"cebpf4jnsgd1na2vs0mg"},{"bike_id":"9d060b47-c978-4432-b622-c8056cdba2bd","system_id":"levelo_inurba_marseille","lat":43.27072,"lon":5.42286,"is_reserved":false,"is_disabled":false,"rental_uris":{"android":"levelo://app?vid=9d060b47-c978-4432-b622-c8056cdba2bd","ios":"levelo://app?vid=9d060b47-c978-4432-b622-c8056cdba2bd"},"vehicle_type_id":"4","last_reported":1731161279,"current_range_meters":16800,"station_id":"ce4bhk92rcd13ifvqgb0","pricing_plan_id":"cebpf4jnsgd1na2vs0mg"},{"bike_id":"7722b10b-908d-42b7-9794-8235ab8c1e5b","system_id":"levelo_inurba_marseille","lat":43.30153,"lon":5.38085,"is_reserved":false,"is_disabled":false,"rental_uris":{"android":"levelo://app?vid=7722b10b-908d-42b7-9794-8235ab8c1e5b","ios":"levelo://app?vid=7722b10b-908d-42b7-9794-8235ab8c1e5b"},"vehicle_type_id":"4","last_reported":1731161279,"current_range_meters":8000,"station_id":"ce4bgjp2rcd13ifvqbh0","pricing_plan_id":"cebpf4jnsgd1na2vs0mg"},{"bike_id":"a26db441-2bab-434c-a7ae-f89595a1b41c","system_id":"levelo_inurba_marseille","lat":43.30954,"lon":5.39032,"is_reserved":false,"is_disabled":false,"rental_uris":{"android":"levelo://app?vid=a26db441-2bab-434c-a7ae-f89595a1b41c","ios":"levelo://app?vid=a26db441-2bab-434c-a7ae-f89595a1b41c"},"vehicle_type_id":"4","last_reported":1731161279,"current_range_meters":38400,"station_id":"ce4bgup2rcd13ifvqco0","pricing_plan_id":"cebpf4jnsgd1na2vs0mg"},{"bike_id":"f4ef053d-e709-4411-bdd9-de1d0f41e46f","system_id":"levelo_inurba_marseille","lat":43.22931,"lon":5.35374,"is_reserved":false,"is_disabled":false,"rental_uris":{"android":"levelo://app?vid=f4ef053d-e709-4411-bdd9-de1d0f41e46f","ios":"levelo://app?vid=f4ef053d-e709-4411-bdd9-de1d0f41e46f"},"vehicle_type_id":"4","last_reported":1731161279,"current_range_meters":39200,"station_id":"cpo3532slgdg3j2ikp40","pricing_plan_id":"cebpf4jnsgd1na2vs0mg"},{"bike_id":"da332a44-2f43-4aa3-9134-85eb800808a0","system_id":"levelo_inurba_marseille","lat":43.28664,"lon":5.36344,"is_reserved":false,"is_disabled":false,"rental_uris":{"android":"levelo://app?vid=da332a44-2f43-4aa3-9134-85eb800808a0","ios":"levelo://app?vid=da332a44-2f43-4aa3-9134-85eb800808a0"},"vehicle_type_id":"4","last_reported":1731161279,"current_range_meters":38400,"station_id":"ce4bhah2rcd13ifvqej0","pricing_plan_id":"cebpf4jnsgd1na2vs0mg"},{"bike_id":"172e363e-8646-4239-a696-a1b13433c416","system_id":"levelo_inurba_marseille","lat":43.27314,"lon":5.3913,"is_reserved":false,"is_disabled":false,"rental_uris":{"android":"levelo://app?vid=172e363e-8646-4239-a696-a1b13433c416","ios":"levelo://app?vid=172e363e-8646-4239-a696-a1b13433c416"},"vehicle_type_id":"4","last_reported":1731161279,"current_range_meters":29600,"station_id":"ce4bhgp2rcd13ifvqfe0","pricing_plan_id":"cebpf4jnsgd1na2vs0mg"},{"bike_id":"94c1a05b-4b06-46ae-a5e4-c6962d31b703","system_id":"levelo_inurba_marseille","lat":43.29277,"lon":5.36854,"is_reserved":false,"is_disabled":false,"rental_uris":{"android":"levelo://app?vid=94c1a05b-4b06-46ae-a5e4-c6962d31b703","ios":"levelo://app?vid=94c1a05b-4b06-46ae-a5e4-c6962d31b703"},"vehicle_type_id":"4","last_reported":1731161279,"current_range_meters":28800,"station_id":"ce4bhbp2rcd13ifvqesg","pricing_plan_id":"cebpf4jnsgd1na2vs0mg"},{"bike_id":"6d24f9b2-b22c-4ed8-9ac0-617f244a95b5","system_id":"levelo_inurba_marseille","lat":43.26027,"lon":5.37549,"is_reserved":false,"is_disabled":false,"rental_uris":{"android":"levelo://app?vid=6d24f9b2-b22c-4ed8-9ac0-617f244a95b5","ios":"levelo://app?vid=6d24f9b2-b22c-4ed8-9ac0-617f244a95b5"},"vehicle_type_id":"4","last_reported":1731161279,"current_range_meters":38800,"station_id":"ce4bhgh2rcd13ifvqfa0","pricing_plan_id":"cebpf4jnsgd1na2vs0mg"},{"bike_id":"ac59b398-a03f-4409-8d13-c4e12f526cfa","system_id":"levelo_inurba_marseille","lat":43.28434,"lon":5.34988,"is_reserved":false,"is_disabled":false,"rental_uris":{"android":"levelo://app?vid=ac59b398-a03f-4409-8d13-c4e12f526cfa","ios":"levelo://app?vid=ac59b398-a03f-4409-8d13-c4e12f526cfa"},"vehicle_type_id":"4","last_reported":1731161279,"current_range_meters":17200,"station_id":"ce4bhbh2rcd13ifvqepg","pricing_plan_id":"cebpf4jnsgd1na2vs0mg"},{"bike_id":"828a5fed-bfbb-4fb7-ac2d-ffaed39a8507","system_id":"levelo_inurba_marseille","lat":43.30481,"lon":5.37897,"is_reserved":false,"is_disabled":false,"rental_uris":{"android":"levelo://app?vid=828a5fed-bfbb-4fb7-ac2d-ffaed39a8507","ios":"levelo://app?vid=828a5fed-bfbb-4fb7-ac2d-ffaed39a8507"},"vehicle_type_id":"4","last_reported":1731161279,"current_range_meters":38800,"station_id":"ce4bgup2rcd13ifvqcn0","pricing_plan_id":"cebpf4jnsgd1na2vs0mg"},{"bike_id":"143f1616-33b9-4a63-8982-4d51cd17bfc0","system_id":"levelo_inurba_marseille","lat":43.2293,"lon":5.35376,"is_reserved":false,"is_disabled":false,"rental_uris":{"android":"levelo://app?vid=143f1616-33b9-4a63-8982-4d51cd17bfc0","ios":"levelo://app?vid=143f1616-33b9-4a63-8982-4d51cd17bfc0"},"vehicle_type_id":"4","last_reported":1731161279,"current_range_meters":24800,"station_id":"cpo3532slgdg3j2ikp40","pricing_plan_id":"cebpf4jnsgd1na2vs0mg"},{"bike_id":"7243fcc8-e91d-49aa-a78b-3d82c9cf3c65","system_id":"levelo_inurba_marseille","lat":43.28592,"lon":5.35078,"is_reserved":false,"is_disabled":false,"rental_uris":{"android":"levelo://app?vid=7243fcc8-e91d-49aa-a78b-3d82c9cf3c65","ios":"levelo://app?vid=7243fcc8-e91d-49aa-a78b-3d82c9cf3c65"},"vehicle_type_id":"4","last_reported":1731161279,"current_range_meters":35200,"station_id":"ce4bhch2rcd13ifvqeug","pricing_plan_id":"cebpf4jnsgd1na2vs0mg"},{"bike_id":"84475a2c-c2ed-417e-bfe2-66fc86dae5b6","system_id":"levelo_inurba_marseille","lat":43.29913,"lon":5.37482,"is_reserved":false,"is_disabled":false,"rental_uris":{"android":"levelo://app?vid=84475a2c-c2ed-417e-bfe2-66fc86dae5b6","ios":"levelo://app?vid=84475a2c-c2ed-417e-bfe2-66fc86dae5b6"},"vehicle_type_id":"4","last_reported":1731161279,"current_range_meters":38400,"station_id":"ce4bgjh2rcd13ifvqbg0","pricing_plan_id":"cebpf4jnsgd1na2vs0mg"},{"bike_id":"71bb50a1-6cdb-4a6f-b24c-1cbd7c603ad3","system_id":"levelo_inurba_marseille","lat":43.314285,"lon":5.373982,"is_reserved":false,"is_disabled":false,"rental_uris":{"android":"levelo://app?vid=71bb50a1-6cdb-4a6f-b24c-1cbd7c603ad3","ios":"levelo://app?vid=71bb50a1-6cdb-4a6f-b24c-1cbd7c603ad3"},"vehicle_type_id":"4","last_reported":1731161279,"current_range_meters":27600,"station_id":"","pricing_plan_id":"cebpf4jnsgd1na2vs0mg"},{"bike_id":"5374d5b4-39be-4f49-9d09-248e7b10ccea","system_id":"levelo_inurba_marseille","lat":43.29568,"lon":5.37516,"is_reserved":false,"is_disabled":false,"rental_uris":{"android":"levelo://app?vid=5374d5b4-39be-4f49-9d09-248e7b10ccea","ios":"levelo://app?vid=5374d5b4-39be-4f49-9d09-248e7b10ccea"},"vehicle_type_id":"4","last_reported":1731161279,"current_range_meters":24800,"station_id":"ce4bgh92rcd13ifvqb50","pricing_plan_id":"cebpf4jnsgd1na2vs0mg"},{"bike_id":"2719b7c4-a4e4-48f6-96d4-b0fa06d5ab3c","system_id":"levelo_inurba_marseille","lat":43.26494,"lon":5.39539,"is_reserved":false,"is_disabled":false,"rental_uris":{"android":"levelo://app?vid=2719b7c4-a4e4-48f6-96d4-b0fa06d5ab3c","ios":"levelo://app?vid=2719b7c4-a4e4-48f6-96d4-b0fa06d5ab3c"},"vehicle_type_id":"4","last_reported":1731161279,"current_range_meters":10000,"station_id":"ce4bhi12rcd13ifvqfq0","pricing_plan_id":"cebpf4jnsgd1na2vs0mg"},{"bike_id":"8079a80d-cc05-416f-b580-f9da994eb595","system_id":"levelo_inurba_marseille","lat":43.29688,"lon":5.37303,"is_reserved":false,"is_disabled":false,"rental_uris":{"android":"levelo://app?vid=8079a80d-cc05-416f-b580-f9da994eb595","ios":"levelo://app?vid=8079a80d-cc05-416f-b580-f9da994eb595"},"vehicle_type_id":"4","last_reported":1731161279,"current_range_meters":35200,"station_id":"ce4bgk12rcd13ifvqbj0","pricing_plan_id":"cebpf4jnsgd1na2vs0mg"},{"bike_id":"b8fdd341-0697-41ca-82c9-e4253415f4e6","system_id":"levelo_inurba_marseille","lat":43.23063,"lon":5.3548,"is_reserved":false,"is_disabled":false,"rental_uris":{"android":"levelo://app?vid=b8fdd341-0697-41ca-82c9-e4253415f4e6","ios":"levelo://app?vid=b8fdd341-0697-41ca-82c9-e4253415f4e6"},"vehicle_type_id":"4","last_reported":1731161279,"current_range_meters":32000,"station_id":"cpo3342slgdg3j2ifvpg","pricing_plan_id":"cebpf4jnsgd1na2vs0mg"},{"bike_id":"1ccfb3ec-43a0-4b29-8ea9-08b0c40eafa6","system_id":"levelo_inurba_marseille","lat":43.284262,"lon":5.391795,"is_reserved":false,"is_disabled":false,"rental_uris":{"android":"levelo://app?vid=1ccfb3ec-43a0-4b29-8ea9-08b0c40eafa6","ios":"levelo://app?vid=1ccfb3ec-43a0-4b29-8ea9-08b0c40eafa6"},"vehicle_type_id":"4","last_reported":1731161279,"current_range_meters":31200,"station_id":"ce4bhoh2rcd13ifvqh5g","pricing_plan_id":"cebpf4jnsgd1na2vs0mg"},{"bike_id":"6e2d14fd-eb01-49b5-bd29-aaa82bfcdea8","system_id":"levelo_inurba_marseille","lat":43.30353,"lon":5.41874,"is_reserved":false,"is_disabled":false,"rental_uris":{"android":"levelo://app?vid=6e2d14fd-eb01-49b5-bd29-aaa82bfcdea8","ios":"levelo://app?vid=6e2d14fd-eb01-49b5-bd29-aaa82bfcdea8"},"vehicle_type_id":"4","last_reported":1731161279,"current_range_meters":25200,"station_id":"ce4bhop2rcd13ifvqh7g","pricing_plan_id":"cebpf4jnsgd1na2vs0mg"},{"bike_id":"f2f5085d-042f-4399-90d0-24f8054adf2f","system_id":"levelo_inurba_marseille","lat":43.30547,"lon":5.36564,"is_reserved":false,"is_disabled":false,"rental_uris":{"android":"levelo://app?vid=f2f5085d-042f-4399-90d0-24f8054adf2f","ios":"levelo://app?vid=f2f5085d-042f-4399-90d0-24f8054adf2f"},"vehicle_type_id":"4","last_reported":1731161279,"current_range_meters":38000,"station_id":"ce4bgs12rcd13ifvqcag","pricing_plan_id":"cebpf4jnsgd1na2vs0mg"},{"bike_id":"d95cc324-32ce-4458-8bff-769027c78260","system_id":"levelo_inurba_marseille","lat":43.29918,"lon":5.37479,"is_reserved":false,"is_disabled":false,"rental_uris":{"android":"levelo://app?vid=d95cc324-32ce-4458-8bff-769027c78260","ios":"levelo://app?vid=d95cc324-32ce-4458-8bff-769027c78260"},"vehicle_type_id":"4","last_reported":1731161279,"current_range_meters":34000,"station_id":"ce4bgjh2rcd13ifvqbg0","pricing_plan_id":"cebpf4jnsgd1na2vs0mg"},{"bike_id":"b1f89a08-0f9d-483f-ac4d-f2f90b504067","system_id":"levelo_inurba_marseille","lat":43.26555,"lon":5.37284,"is_reserved":false,"is_disabled":false,"rental_uris":{"android":"levelo://app?vid=b1f89a08-0f9d-483f-ac4d-f2f90b504067","ios":"levelo://app?vid=b1f89a08-0f9d-483f-ac4d-f2f90b504067"},"vehicle_type_id":"4","last_reported":1731161279,"current_range_meters":29600,"station_id":"ce4bhg12rcd13ifvqf70","pricing_plan_id":"cebpf4jnsgd1na2vs0mg"},{"bike_id":"cc5d9a39-285d-43c9-845d-e46196db0907","system_id":"levelo_inurba_marseille","lat":43.26206,"lon":5.37929,"is_reserved":false,"is_disabled":false,"rental_uris":{"android":"levelo://app?vid=cc5d9a39-285d-43c9-845d-e46196db0907","ios":"levelo://app?vid=cc5d9a39-285d-43c9-845d-e46196db0907"},"vehicle_type_id":"4","last_reported":1731161279,"current_range_meters":24000,"station_id":"ce4bhjp2rcd13ifvqg90","pricing_plan_id":"cebpf4jnsgd1na2vs0mg"},{"bike_id":"b9d0bc02-8b8d-46ee-bb6e-da3b365f1431","system_id":"levelo_inurba_marseille","lat":43.30156,"lon":5.38088,"is_reserved":false,"is_disabled":false,"rental_uris":{"android":"levelo://app?vid=b9d0bc02-8b8d-46ee-bb6e-da3b365f1431","ios":"levelo://app?vid=b9d0bc02-8b8d-46ee-bb6e-da3b365f1431"},"vehicle_type_id":"4","last_reported":1731161279,"current_range_meters":9200,"station_id":"ce4bgjp2rcd13ifvqbh0","pricing_plan_id":"cebpf4jnsgd1na2vs0mg"},{"bike_id":"9b1b35b4-afa8-432a-803e-6b6f99da09f5","system_id":"levelo_inurba_marseille","lat":43.29192,"lon":5.35807,"is_reserved":false,"is_disabled":false,"rental_uris":{"android":"levelo://app?vid=9b1b35b4-afa8-432a-803e-6b6f99da09f5","ios":"levelo://app?vid=9b1b35b4-afa8-432a-803e-6b6f99da09f5"},"vehicle_type_id":"4","last_reported":1731161279,"current_range_meters":33600,"station_id":"ce4bhb12rcd13ifvqel0","pricing_plan_id":"cebpf4jnsgd1na2vs0mg"},{"bike_id":"8d91fbf6-77b9-4f01-9934-4c6b0363c890","system_id":"levelo_inurba_marseille","lat":43.29188,"lon":5.35809,"is_reserved":false,"is_disabled":false,"rental_uris":{"android":"levelo://app?vid=8d91fbf6-77b9-4f01-9934-4c6b0363c890","ios":"levelo://app?vid=8d91fbf6-77b9-4f01-9934-4c6b0363c890"},"vehicle_type_id":"4","last_reported":1731161279,"current_range_meters":20800,"station_id":"ce4bhb12rcd13ifvqel0","pricing_plan_id":"cebpf4jnsgd1na2vs0mg"},{"bike_id":"ad74335a-bb07-44a8-9797-d7192ff2bba2","system_id":"levelo_inurba_marseille","lat":43.30147,"lon":5.38091,"is_reserved":false,"is_disabled":false,"rental_uris":{"android":"levelo://app?vid=ad74335a-bb07-44a8-9797-d7192ff2bba2","ios":"levelo://app?vid=ad74335a-bb07-44a8-9797-d7192ff2bba2"},"vehicle_type_id":"4","last_reported":1731161279,"current_range_meters":34000,"station_id":"ce4bgjp2rcd13ifvqbh0","pricing_plan_id":"cebpf4jnsgd1na2vs0mg"},{"bike_id":"e0f78b73-f123-474f-92a5-29e606937313","system_id":"levelo_inurba_marseille","lat":43.284578,"lon":5.391922,"is_reserved":false,"is_disabled":false,"rental_uris":{"android":"levelo://app?vid=e0f78b73-f123-474f-92a5-29e606937313","ios":"levelo://app?vid=e0f78b73-f123-474f-92a5-29e606937313"},"vehicle_type_id":"4","last_reported":1731161279,"current_range_meters":35200,"station_id":"ce4bhoh2rcd13ifvqh5g","pricing_plan_id":"cebpf4jnsgd1na2vs0mg"},{"bike_id":"818293fa-7bab-4548-8e6d-ceefdd2acfe4","system_id":"levelo_inurba_marseille","lat":43.30642,"lon":5.4007,"is_reserved":false,"is_disabled":false,"rental_uris":{"android":"levelo://app?vid=818293fa-7bab-4548-8e6d-ceefdd2acfe4","ios":"levelo://app?vid=818293fa-7bab-4548-8e6d-ceefdd2acfe4"},"vehicle_type_id":"4","last_reported":1731161279,"current_range_meters":17200,"station_id":"ce4bh112rcd13ifvqda0","pricing_plan_id":"cebpf4jnsgd1na2vs0mg"},{"bike_id":"05633e69-1486-4628-87e9-5e2d97c9c989","system_id":"levelo_inurba_marseille","lat":43.26567,"lon":5.39009,"is_reserved":false,"is_disabled":false,"rental_uris":{"android":"levelo://app?vid=05633e69-1486-4628-87e9-5e2d97c9c989","ios":"levelo://app?vid=05633e69-1486-4628-87e9-5e2d97c9c989"},"vehicle_type_id":"4","last_reported":1731161279,"current_range_meters":22000,"station_id":"ce4bhe12rcd13ifvqf30","pricing_plan_id":"cebpf4jnsgd1na2vs0mg"},{"bike_id":"b46ef96e-d2a2-4c07-a8e9-661445b1de2c","system_id":"levelo_inurba_marseille","lat":43.29906,"lon":5.38169,"is_reserved":false,"is_disabled":false,"rental_uris":{"android":"levelo://app?vid=b46ef96e-d2a2-4c07-a8e9-661445b1de2c","ios":"levelo://app?vid=b46ef96e-d2a2-4c07-a8e9-661445b1de2c"},"vehicle_type_id":"4","last_reported":1731161279,"current_range_meters":22400,"station_id":"ce4bgj12rcd13ifvqbc0","pricing_plan_id":"cebpf4jnsgd1na2vs0mg"},{"bike_id":"1212118d-a033-41c6-a444-dd87bc94a399","system_id":"levelo_inurba_marseille","lat":43.29941,"lon":5.36556,"is_reserved":false,"is_disabled":false,"rental_uris":{"android":"levelo://app?vid=1212118d-a033-41c6-a444-dd87bc94a399","ios":"levelo://app?vid=1212118d-a033-41c6-a444-dd87bc94a399"},"vehicle_type_id":"4","last_reported":1731161279,"current_range_meters":24000,"station_id":"ce4bgm92rcd13ifvqbr0","pricing_plan_id":"cebpf4jnsgd1na2vs0mg"},{"bike_id":"c3fc079f-642d-44dc-87af-d82d8de5ed7e","system_id":"levelo_inurba_marseille","lat":43.29796,"lon":5.38121,"is_reserved":false,"is_disabled":false,"rental_uris":{"android":"levelo://app?vid=c3fc079f-642d-44dc-87af-d82d8de5ed7e","ios":"levelo://app?vid=c3fc079f-642d-44dc-87af-d82d8de5ed7e"},"vehicle_type_id":"4","last_reported":1731161279,"current_range_meters":35600,"station_id":"ce4bgip2rcd13ifvqbb0","pricing_plan_id":"cebpf4jnsgd1na2vs0mg"},{"bike_id":"46eef23f-12d9-472d-bbc8-38bbf585ff1a","system_id":"levelo_inurba_marseille","lat":43.29276,"lon":5.36847,"is_reserved":false,"is_disabled":false,"rental_uris":{"android":"levelo://app?vid=46eef23f-12d9-472d-bbc8-38bbf585ff1a","ios":"levelo://app?vid=46eef23f-12d9-472d-bbc8-38bbf585ff1a"},"vehicle_type_id":"4","last_reported":1731161279,"current_range_meters":17600,"station_id":"ce4bhbp2rcd13ifvqesg","pricing_plan_id":"cebpf4jnsgd1na2vs0mg"},{"bike_id":"3df69f40-de29-4ff2-b7cb-7f00538bc8f0","system_id":"levelo_inurba_marseille","lat":43.31332,"lon":5.39683,"is_reserved":false,"is_disabled":false,"rental_uris":{"android":"levelo://app?vid=3df69f40-de29-4ff2-b7cb-7f00538bc8f0","ios":"levelo://app?vid=3df69f40-de29-4ff2-b7cb-7f00538bc8f0"},"vehicle_type_id":"4","last_reported":1731161279,"current_range_meters":26000,"station_id":"ce4bgvp2rcd13ifvqcu0","pricing_plan_id":"cebpf4jnsgd1na2vs0mg"},{"bike_id":"14ff7f9d-f1a3-43ad-852e-30a59c312b21","system_id":"levelo_inurba_marseille","lat":43.291,"lon":5.38151,"is_reserved":false,"is_disabled":false,"rental_uris":{"android":"levelo://app?vid=14ff7f9d-f1a3-43ad-852e-30a59c312b21","ios":"levelo://app?vid=14ff7f9d-f1a3-43ad-852e-30a59c312b21"},"vehicle_type_id":"4","last_reported":1731161279,"current_range_meters":14800,"station_id":"ce4bh512rcd13ifvqe2g","pricing_plan_id":"cebpf4jnsgd1na2vs0mg"},{"bike_id":"29e7eea2-318e-4349-bb6c-695542e730c7","system_id":"levelo_inurba_marseille","lat":43.30878,"lon":5.37194,"is_reserved":false,"is_disabled":false,"rental_uris":{"android":"levelo://app?vid=29e7eea2-318e-4349-bb6c-695542e730c7","ios":"levelo://app?vid=29e7eea2-318e-4349-bb6c-695542e730c7"},"vehicle_type_id":"4","last_reported":1731161279,"current_range_meters":38000,"station_id":"ce4bguh2rcd13ifvqckg","pricing_plan_id":"cebpf4jnsgd1na2vs0mg"},{"bike_id":"63dc0968-353b-4e34-9942-c2935ce05c98","system_id":"levelo_inurba_marseille","lat":43.30547,"lon":5.3654,"is_reserved":false,"is_disabled":false,"rental_uris":{"android":"levelo://app?vid=63dc0968-353b-4e34-9942-c2935ce05c98","ios":"levelo://app?vid=63dc0968-353b-4e34-9942-c2935ce05c98"},"vehicle_type_id":"4","last_reported":1731161279,"current_range_meters":38800,"station_id":"ce4bgs12rcd13ifvqcag","pricing_plan_id":"cebpf4jnsgd1na2vs0mg"},{"bike_id":"cfa78041-de3b-4602-8220-293b7de562b0","system_id":"levelo_inurba_marseille","lat":43.27213,"lon":5.39188,"is_reserved":false,"is_disabled":false,"rental_uris":{"android":"levelo://app?vid=cfa78041-de3b-4602-8220-293b7de562b0","ios":"levelo://app?vid=cfa78041-de3b-4602-8220-293b7de562b0"},"vehicle_type_id":"4","last_reported":1731161279,"current_range_meters":24800,"station_id":"ce4bhhp2rcd13ifvqfm0","pricing_plan_id":"cebpf4jnsgd1na2vs0mg"},{"bike_id":"8ae42063-413b-4c62-b6e0-317a3937a2ec","system_id":"levelo_inurba_marseille","lat":43.24394,"lon":5.37054,"is_reserved":false,"is_disabled":false,"rental_uris":{"android":"levelo://app?vid=8ae42063-413b-4c62-b6e0-317a3937a2ec","ios":"levelo://app?vid=8ae42063-413b-4c62-b6e0-317a3937a2ec"},"vehicle_type_id":"4","last_reported":1731161279,"current_range_meters":26800,"station_id":"ce4bhhh2rcd13ifvqfk0","pricing_plan_id":"cebpf4jnsgd1na2vs0mg"},{"bike_id":"9a904adb-b78f-42f4-9ed5-4f0af56299a3","system_id":"levelo_inurba_marseille","lat":43.25822,"lon":5.39436,"is_reserved":false,"is_disabled":false,"rental_uris":{"android":"levelo://app?vid=9a904adb-b78f-42f4-9ed5-4f0af56299a3","ios":"levelo://app?vid=9a904adb-b78f-42f4-9ed5-4f0af56299a3"},"vehicle_type_id":"4","last_reported":1731161279,"current_range_meters":30400,"station_id":"ce4bhip2rcd13ifvqft0","pricing_plan_id":"cebpf4jnsgd1na2vs0mg"},{"bike_id":"30529055-368f-432a-b563-7ed12dd2d5af","system_id":"levelo_inurba_marseille","lat":43.32656,"lon":5.40992,"is_reserved":false,"is_disabled":false,"rental_uris":{"android":"levelo://app?vid=30529055-368f-432a-b563-7ed12dd2d5af","ios":"levelo://app?vid=30529055-368f-432a-b563-7ed12dd2d5af"},"vehicle_type_id":"4","last_reported":1731161279,"current_range_meters":29600,"station_id":"ce4bhpp2rcd13ifvqhgg","pricing_plan_id":"cebpf4jnsgd1na2vs0mg"},{"bike_id":"39f17349-ada4-4402-b2d4-f4683db56d2d","system_id":"levelo_inurba_marseille","lat":43.27491,"lon":5.42457,"is_reserved":false,"is_disabled":false,"rental_uris":{"android":"levelo://app?vid=39f17349-ada4-4402-b2d4-f4683db56d2d","ios":"levelo://app?vid=39f17349-ada4-4402-b2d4-f4683db56d2d"},"vehicle_type_id":"4","last_reported":1731161279,"current_range_meters":38800,"station_id":"ce4bhn92rcd13ifvqgrg","pricing_plan_id":"cebpf4jnsgd1na2vs0mg"},{"bike_id":"acca6862-2512-438a-9918-2f9b21a3d14b","system_id":"levelo_inurba_marseille","lat":43.29735,"lon":5.37687,"is_reserved":false,"is_disabled":false,"rental_uris":{"android":"levelo://app?vid=acca6862-2512-438a-9918-2f9b21a3d14b","ios":"levelo://app?vid=acca6862-2512-438a-9918-2f9b21a3d14b"},"vehicle_type_id":"4","last_reported":1731161279,"current_range_meters":36400,"station_id":"ce4bgkh2rcd13ifvqbl0","pricing_plan_id":"cebpf4jnsgd1na2vs0mg"},{"bike_id":"b9478b1d-79e3-44c9-ae60-496dd5151f62","system_id":"levelo_inurba_marseille","lat":43.29167,"lon":5.37153,"is_reserved":false,"is_disabled":false,"rental_uris":{"android":"levelo://app?vid=b9478b1d-79e3-44c9-ae60-496dd5151f62","ios":"levelo://app?vid=b9478b1d-79e3-44c9-ae60-496dd5151f62"},"vehicle_type_id":"4","last_reported":1731161279,"current_range_meters":36800,"station_id":"ce4bha92rcd13ifvqeh0","pricing_plan_id":"cebpf4jnsgd1na2vs0mg"},{"bike_id":"259ac6b3-c948-4c62-b167-931ed2a7069d","system_id":"levelo_inurba_marseille","lat":43.2928,"lon":5.36847,"is_reserved":false,"is_disabled":false,"rental_uris":{"android":"levelo://app?vid=259ac6b3-c948-4c62-b167-931ed2a7069d","ios":"levelo://app?vid=259ac6b3-c948-4c62-b167-931ed2a7069d"},"vehicle_type_id":"4","last_reported":1731161279,"current_range_meters":30400,"station_id":"ce4bhbp2rcd13ifvqesg","pricing_plan_id":"cebpf4jnsgd1na2vs0mg"},{"bike_id":"4204c697-9142-4d6f-a64b-20f319f8c9a7","system_id":"levelo_inurba_marseille","lat":43.2707,"lon":5.42274,"is_reserved":false,"is_disabled":false,"rental_uris":{"android":"levelo://app?vid=4204c697-9142-4d6f-a64b-20f319f8c9a7","ios":"levelo://app?vid=4204c697-9142-4d6f-a64b-20f319f8c9a7"},"vehicle_type_id":"4","last_reported":1731161279,"current_range_meters":14800,"station_id":"ce4bhk92rcd13ifvqgb0","pricing_plan_id":"cebpf4jnsgd1na2vs0mg"},{"bike_id":"06675f04-23fe-4ef8-bbb6-b7e73331c65f","system_id":"levelo_inurba_marseille","lat":43.24816,"lon":5.37459,"is_reserved":false,"is_disabled":false,"rental_uris":{"android":"levelo://app?vid=06675f04-23fe-4ef8-bbb6-b7e73331c65f","ios":"levelo://app?vid=06675f04-23fe-4ef8-bbb6-b7e73331c65f"},"vehicle_type_id":"4","last_reported":1731161279,"current_range_meters":15200,"station_id":"ce4bhgh2rcd13ifvqfb0","pricing_plan_id":"cebpf4jnsgd1na2vs0mg"},{"bike_id":"de15f00a-25b1-4b9b-a102-3b4e4c3a83ba","system_id":"levelo_inurba_marseille","lat":43.30167,"lon":5.38075,"is_reserved":false,"is_disabled":false,"rental_uris":{"android":"levelo://app?vid=de15f00a-25b1-4b9b-a102-3b4e4c3a83ba","ios":"levelo://app?vid=de15f00a-25b1-4b9b-a102-3b4e4c3a83ba"},"vehicle_type_id":"4","last_reported":1731161279,"current_range_meters":30400,"station_id":"ce4bgjp2rcd13ifvqbh0","pricing_plan_id":"cebpf4jnsgd1na2vs0mg"},{"bike_id":"ad556878-4307-4d31-8fa2-29563da5f6b2","system_id":"levelo_inurba_marseille","lat":43.29813,"lon":5.40408,"is_reserved":false,"is_disabled":false,"rental_uris":{"android":"levelo://app?vid=ad556878-4307-4d31-8fa2-29563da5f6b2","ios":"levelo://app?vid=ad556878-4307-4d31-8fa2-29563da5f6b2"},"vehicle_type_id":"4","last_reported":1731161279,"current_range_meters":28400,"station_id":"ce4bh112rcd13ifvqd90","pricing_plan_id":"cebpf4jnsgd1na2vs0mg"},{"bike_id":"d451ea0f-2bb5-421c-ab8d-de9a5e327dcd","system_id":"levelo_inurba_marseille","lat":43.28416,"lon":5.34994,"is_reserved":false,"is_disabled":false,"rental_uris":{"android":"levelo://app?vid=d451ea0f-2bb5-421c-ab8d-de9a5e327dcd","ios":"levelo://app?vid=d451ea0f-2bb5-421c-ab8d-de9a5e327dcd"},"vehicle_type_id":"4","last_reported":1731161279,"current_range_meters":28400,"station_id":"ce4bhbh2rcd13ifvqepg","pricing_plan_id":"cebpf4jnsgd1na2vs0mg"},{"bike_id":"38b32dc5-5147-4c46-b80f-d1586eb1296b","system_id":"levelo_inurba_marseille","lat":43.29911,"lon":5.37473,"is_reserved":false,"is_disabled":false,"rental_uris":{"android":"levelo://app?vid=38b32dc5-5147-4c46-b80f-d1586eb1296b","ios":"levelo://app?vid=38b32dc5-5147-4c46-b80f-d1586eb1296b"},"vehicle_type_id":"4","last_reported":1731161279,"current_range_meters":28800,"station_id":"ce4bgjh2rcd13ifvqbg0","pricing_plan_id":"cebpf4jnsgd1na2vs0mg"},{"bike_id":"80f79e5b-00cc-42d8-85c5-f1d3ff2cd291","system_id":"levelo_inurba_marseille","lat":43.29792,"lon":5.38114,"is_reserved":false,"is_disabled":false,"rental_uris":{"android":"levelo://app?vid=80f79e5b-00cc-42d8-85c5-f1d3ff2cd291","ios":"levelo://app?vid=80f79e5b-00cc-42d8-85c5-f1d3ff2cd291"},"vehicle_type_id":"4","last_reported":1731161279,"current_range_meters":23200,"station_id":"ce4bgip2rcd13ifvqbb0","pricing_plan_id":"cebpf4jnsgd1na2vs0mg"},{"bike_id":"9ef65314-ac8e-4b0e-bb03-018b6b381bed","system_id":"levelo_inurba_marseille","lat":43.28467,"lon":5.38419,"is_reserved":false,"is_disabled":false,"rental_uris":{"android":"levelo://app?vid=9ef65314-ac8e-4b0e-bb03-018b6b381bed","ios":"levelo://app?vid=9ef65314-ac8e-4b0e-bb03-018b6b381bed"},"vehicle_type_id":"4","last_reported":1731161279,"current_range_meters":34000,"station_id":"ce4bh512rcd13ifvqe3g","pricing_plan_id":"cebpf4jnsgd1na2vs0mg"},{"bike_id":"7fc3d16d-a3d7-435a-8a0e-1bf2582e81aa","system_id":"levelo_inurba_marseille","lat":43.26571,"lon":5.39011,"is_reserved":false,"is_disabled":false,"rental_uris":{"android":"levelo://app?vid=7fc3d16d-a3d7-435a-8a0e-1bf2582e81aa","ios":"levelo://app?vid=7fc3d16d-a3d7-435a-8a0e-1bf2582e81aa"},"vehicle_type_id":"4","last_reported":1731161279,"current_range_meters":16400,"station_id":"ce4bhe12rcd13ifvqf30","pricing_plan_id":"cebpf4jnsgd1na2vs0mg"},{"bike_id":"b4de7b9a-6515-49e3-b4f0-3d8149400129","system_id":"levelo_inurba_marseille","lat":43.30161,"lon":5.38079,"is_reserved":false,"is_disabled":false,"rental_uris":{"android":"levelo://app?vid=b4de7b9a-6515-49e3-b4f0-3d8149400129","ios":"levelo://app?vid=b4de7b9a-6515-49e3-b4f0-3d8149400129"},"vehicle_type_id":"4","last_reported":1731161279,"current_range_meters":36400,"station_id":"ce4bgjp2rcd13ifvqbh0","pricing_plan_id":"cebpf4jnsgd1na2vs0mg"},{"bike_id":"05482a76-e46c-4a66-a47c-5c924d295680","system_id":"levelo_inurba_marseille","lat":43.27566,"lon":5.38428,"is_reserved":false,"is_disabled":false,"rental_uris":{"android":"levelo://app?vid=05482a76-e46c-4a66-a47c-5c924d295680","ios":"levelo://app?vid=05482a76-e46c-4a66-a47c-5c924d295680"},"vehicle_type_id":"4","last_reported":1731161279,"current_range_meters":38800,"station_id":"ce4bhh92rcd13ifvqfi0","pricing_plan_id":"cebpf4jnsgd1na2vs0mg"},{"bike_id":"eccb9bf1-4a0c-4df5-8229-bf46f21c4329","system_id":"levelo_inurba_marseille","lat":43.31722,"lon":5.42398,"is_reserved":false,"is_disabled":false,"rental_uris":{"android":"levelo://app?vid=eccb9bf1-4a0c-4df5-8229-bf46f21c4329","ios":"levelo://app?vid=eccb9bf1-4a0c-4df5-8229-bf46f21c4329"},"vehicle_type_id":"4","last_reported":1731161279,"current_range_meters":32800,"station_id":"ce4bhp92rcd13ifvqhbg","pricing_plan_id":"cebpf4jnsgd1na2vs0mg"},{"bike_id":"ef288286-229d-4b9a-a189-8d61840dcffb","system_id":"levelo_inurba_marseille","lat":43.23192,"lon":5.35557,"is_reserved":false,"is_disabled":false,"rental_uris":{"android":"levelo://app?vid=ef288286-229d-4b9a-a189-8d61840dcffb","ios":"levelo://app?vid=ef288286-229d-4b9a-a189-8d61840dcffb"},"vehicle_type_id":"4","last_reported":1731161279,"current_range_meters":33600,"station_id":"ce4bhu92rcd13ifvqi70","pricing_plan_id":"cebpf4jnsgd1na2vs0mg"},{"bike_id":"4ef1737e-7a35-40c1-9b4c-08dfd0b2c0d6","system_id":"levelo_inurba_marseille","lat":43.29221,"lon":5.36059,"is_reserved":false,"is_disabled":false,"rental_uris":{"android":"levelo://app?vid=4ef1737e-7a35-40c1-9b4c-08dfd0b2c0d6","ios":"levelo://app?vid=4ef1737e-7a35-40c1-9b4c-08dfd0b2c0d6"},"vehicle_type_id":"4","last_reported":1731161279,"current_range_meters":10800,"station_id":"ce4bhbh2rcd13ifvqeqg","pricing_plan_id":"cebpf4jnsgd1na2vs0mg"},{"bike_id":"9de9ed00-9f2a-4c39-b6c8-71b9caaebda6","system_id":"levelo_inurba_marseille","lat":43.3361,"lon":5.41049,"is_reserved":false,"is_disabled":false,"rental_uris":{"android":"levelo://app?vid=9de9ed00-9f2a-4c39-b6c8-71b9caaebda6","ios":"levelo://app?vid=9de9ed00-9f2a-4c39-b6c8-71b9caaebda6"},"vehicle_type_id":"4","last_reported":1731161279,"current_range_meters":35200,"station_id":"ce4bhqh2rcd13ifvqhmg","pricing_plan_id":"cebpf4jnsgd1na2vs0mg"},{"bike_id":"f290b2c9-e8f6-4fae-b684-ee5ce73b357c","system_id":"levelo_inurba_marseille","lat":43.31264,"lon":5.40175,"is_reserved":false,"is_disabled":false,"rental_uris":{"android":"levelo://app?vid=f290b2c9-e8f6-4fae-b684-ee5ce73b357c","ios":"levelo://app?vid=f290b2c9-e8f6-4fae-b684-ee5ce73b357c"},"vehicle_type_id":"4","last_reported":1731161279,"current_range_meters":33200,"station_id":"ce4bh092rcd13ifvqd30","pricing_plan_id":"cebpf4jnsgd1na2vs0mg"},{"bike_id":"1b273681-a149-4b44-af0d-27ca962351bc","system_id":"levelo_inurba_marseille","lat":43.2997,"lon":5.41327,"is_reserved":false,"is_disabled":false,"rental_uris":{"android":"levelo://app?vid=1b273681-a149-4b44-af0d-27ca962351bc","ios":"levelo://app?vid=1b273681-a149-4b44-af0d-27ca962351bc"},"vehicle_type_id":"4","last_reported":1731161279,"current_range_meters":36000,"station_id":"ce4bhp12rcd13ifvqh9g","pricing_plan_id":"cebpf4jnsgd1na2vs0mg"},{"bike_id":"3ed67fa7-7588-4d15-a08c-0c6e59a87c16","system_id":"levelo_inurba_marseille","lat":43.27323,"lon":5.39102,"is_reserved":false,"is_disabled":false,"rental_uris":{"android":"levelo://app?vid=3ed67fa7-7588-4d15-a08c-0c6e59a87c16","ios":"levelo://app?vid=3ed67fa7-7588-4d15-a08c-0c6e59a87c16"},"vehicle_type_id":"4","last_reported":1731161279,"current_range_meters":26800,"station_id":"ce4bhgp2rcd13ifvqfe0","pricing_plan_id":"cebpf4jnsgd1na2vs0mg"},{"bike_id":"4844b53f-cf16-4c5d-85e7-a7b57c613cb8","system_id":"levelo_inurba_marseille","lat":43.2455,"lon":5.39524,"is_reserved":false,"is_disabled":false,"rental_uris":{"android":"levelo://app?vid=4844b53f-cf16-4c5d-85e7-a7b57c613cb8","ios":"levelo://app?vid=4844b53f-cf16-4c5d-85e7-a7b57c613cb8"},"vehicle_type_id":"4","last_reported":1731161279,"current_range_meters":8800,"station_id":"ce4bhlp2rcd13ifvqgjg","pricing_plan_id":"cebpf4jnsgd1na2vs0mg"},{"bike_id":"409fce05-1481-4019-8256-b90cec12f96f","system_id":"levelo_inurba_marseille","lat":43.27464,"lon":5.40964,"is_reserved":false,"is_disabled":false,"rental_uris":{"android":"levelo://app?vid=409fce05-1481-4019-8256-b90cec12f96f","ios":"levelo://app?vid=409fce05-1481-4019-8256-b90cec12f96f"},"vehicle_type_id":"4","last_reported":1731161279,"current_range_meters":19200,"station_id":"","pricing_plan_id":"cebpf4jnsgd1na2vs0mg"},{"bike_id":"2fcc5e1a-933e-4794-969d-323eca2ba9cd","system_id":"levelo_inurba_marseille","lat":43.29274,"lon":5.36839,"is_reserved":false,"is_disabled":false,"rental_uris":{"android":"levelo://app?vid=2fcc5e1a-933e-4794-969d-323eca2ba9cd","ios":"levelo://app?vid=2fcc5e1a-933e-4794-969d-323eca2ba9cd"},"vehicle_type_id":"4","last_reported":1731161279,"current_range_meters":28800,"station_id":"ce4bhbp2rcd13ifvqesg","pricing_plan_id":"cebpf4jnsgd1na2vs0mg"},{"bike_id":"3f2f131d-d78a-467b-9fbf-31ee6c64595e","system_id":"levelo_inurba_marseille","lat":43.29685,"lon":5.37304,"is_reserved":false,"is_disabled":false,"rental_uris":{"android":"levelo://app?vid=3f2f131d-d78a-467b-9fbf-31ee6c64595e","ios":"levelo://app?vid=3f2f131d-d78a-467b-9fbf-31ee6c64595e"},"vehicle_type_id":"4","last_reported":1731161279,"current_range_meters":30400,"station_id":"ce4bgk12rcd13ifvqbj0","pricing_plan_id":"cebpf4jnsgd1na2vs0mg"},{"bike_id":"9ae20148-7f84-4ca9-881f-f3cdc365c4d8","system_id":"levelo_inurba_marseille","lat":43.28125,"lon":5.37847,"is_reserved":false,"is_disabled":false,"rental_uris":{"android":"levelo://app?vid=9ae20148-7f84-4ca9-881f-f3cdc365c4d8","ios":"levelo://app?vid=9ae20148-7f84-4ca9-881f-f3cdc365c4d8"},"vehicle_type_id":"4","last_reported":1731161279,"current_range_meters":30000,"station_id":"ce4bha12rcd13ifvqee0","pricing_plan_id":"cebpf4jnsgd1na2vs0mg"},{"bike_id":"eab03ce0-82b9-4ec2-b8fe-c19742e1ceb6","system_id":"levelo_inurba_marseille","lat":43.29283,"lon":5.36844,"is_reserved":false,"is_disabled":false,"rental_uris":{"android":"levelo://app?vid=eab03ce0-82b9-4ec2-b8fe-c19742e1ceb6","ios":"levelo://app?vid=eab03ce0-82b9-4ec2-b8fe-c19742e1ceb6"},"vehicle_type_id":"4","last_reported":1731161279,"current_range_meters":22000,"station_id":"ce4bhbp2rcd13ifvqesg","pricing_plan_id":"cebpf4jnsgd1na2vs0mg"},{"bike_id":"7dea2a02-2426-4d47-8b85-2b224882242e","system_id":"levelo_inurba_marseille","lat":43.2809,"lon":5.39666,"is_reserved":false,"is_disabled":false,"rental_uris":{"android":"levelo://app?vid=7dea2a02-2426-4d47-8b85-2b224882242e","ios":"levelo://app?vid=7dea2a02-2426-4d47-8b85-2b224882242e"},"vehicle_type_id":"4","last_reported":1731161279,"current_range_meters":34800,"station_id":"ce4bho12rcd13ifvqh2g","pricing_plan_id":"cebpf4jnsgd1na2vs0mg"},{"bike_id":"fe98fdc7-0099-4391-95a2-be8ba473cb27","system_id":"levelo_inurba_marseille","lat":43.25501,"lon":5.37648,"is_reserved":false,"is_disabled":false,"rental_uris":{"android":"levelo://app?vid=fe98fdc7-0099-4391-95a2-be8ba473cb27","ios":"levelo://app?vid=fe98fdc7-0099-4391-95a2-be8ba473cb27"},"vehicle_type_id":"4","last_reported":1731161279,"current_range_meters":29600,"station_id":"ce4bhh12rcd13ifvqff0","pricing_plan_id":"cebpf4jnsgd1na2vs0mg"},{"bike_id":"be38e93f-efce-4af4-8792-28bea86b87bd","system_id":"levelo_inurba_marseille","lat":43.2919,"lon":5.35802,"is_reserved":false,"is_disabled":false,"rental_uris":{"android":"levelo://app?vid=be38e93f-efce-4af4-8792-28bea86b87bd","ios":"levelo://app?vid=be38e93f-efce-4af4-8792-28bea86b87bd"},"vehicle_type_id":"4","last_reported":1731161279,"current_range_meters":38800,"station_id":"ce4bhb12rcd13ifvqel0","pricing_plan_id":"cebpf4jnsgd1na2vs0mg"},{"bike_id":"2287456b-3bda-4e56-b211-9a70d4437e24","system_id":"levelo_inurba_marseille","lat":43.30602,"lon":5.37239,"is_reserved":false,"is_disabled":false,"rental_uris":{"android":"levelo://app?vid=2287456b-3bda-4e56-b211-9a70d4437e24","ios":"levelo://app?vid=2287456b-3bda-4e56-b211-9a70d4437e24"},"vehicle_type_id":"4","last_reported":1731161279,"current_range_meters":25600,"station_id":"ce4bgqh2rcd13ifvqc4g","pricing_plan_id":"cebpf4jnsgd1na2vs0mg"},{"bike_id":"fbbe362b-7b29-4c8f-b506-484f07761f02","system_id":"levelo_inurba_marseille","lat":43.29915,"lon":5.37461,"is_reserved":false,"is_disabled":false,"rental_uris":{"android":"levelo://app?vid=fbbe362b-7b29-4c8f-b506-484f07761f02","ios":"levelo://app?vid=fbbe362b-7b29-4c8f-b506-484f07761f02"},"vehicle_type_id":"4","last_reported":1731161279,"current_range_meters":38000,"station_id":"ce4bgjh2rcd13ifvqbg0","pricing_plan_id":"cebpf4jnsgd1na2vs0mg"},{"bike_id":"2f34db93-c0be-4dfa-8c77-cc33d08c312d","system_id":"levelo_inurba_marseille","lat":43.29531,"lon":5.38552,"is_reserved":false,"is_disabled":false,"rental_uris":{"android":"levelo://app?vid=2f34db93-c0be-4dfa-8c77-cc33d08c312d","ios":"levelo://app?vid=2f34db93-c0be-4dfa-8c77-cc33d08c312d"},"vehicle_type_id":"4","last_reported":1731161279,"current_range_meters":8000,"station_id":"ce4bgih2rcd13ifvqba0","pricing_plan_id":"cebpf4jnsgd1na2vs0mg"},{"bike_id":"4d37b810-d4a2-43c9-a8c3-f2ef14dbfd8c","system_id":"levelo_inurba_marseille","lat":43.29268,"lon":5.36854,"is_reserved":false,"is_disabled":false,"rental_uris":{"android":"levelo://app?vid=4d37b810-d4a2-43c9-a8c3-f2ef14dbfd8c","ios":"levelo://app?vid=4d37b810-d4a2-43c9-a8c3-f2ef14dbfd8c"},"vehicle_type_id":"4","last_reported":1731161279,"current_range_meters":38800,"station_id":"ce4bhbp2rcd13ifvqesg","pricing_plan_id":"cebpf4jnsgd1na2vs0mg"},{"bike_id":"1e3733e1-3f23-47ba-b01c-ff51df0ddbfe","system_id":"levelo_inurba_marseille","lat":43.27998,"lon":5.4166,"is_reserved":false,"is_disabled":false,"rental_uris":{"android":"levelo://app?vid=1e3733e1-3f23-47ba-b01c-ff51df0ddbfe","ios":"levelo://app?vid=1e3733e1-3f23-47ba-b01c-ff51df0ddbfe"},"vehicle_type_id":"4","last_reported":1731161279,"current_range_meters":21600,"station_id":"ce4bho12rcd13ifvqh1g","pricing_plan_id":"cebpf4jnsgd1na2vs0mg"},{"bike_id":"32482d31-bce4-411d-8bf4-2cb9b9eed3e7","system_id":"levelo_inurba_marseille","lat":43.29419,"lon":5.38609,"is_reserved":false,"is_disabled":false,"rental_uris":{"android":"levelo://app?vid=32482d31-bce4-411d-8bf4-2cb9b9eed3e7","ios":"levelo://app?vid=32482d31-bce4-411d-8bf4-2cb9b9eed3e7"},"vehicle_type_id":"4","last_reported":1731161279,"current_range_meters":23200,"station_id":"ce4bh2h2rcd13ifvqdh0","pricing_plan_id":"cebpf4jnsgd1na2vs0mg"},{"bike_id":"9c49d0e5-e429-4d18-9e0f-fa188f26c904","system_id":"levelo_inurba_marseille","lat":43.30946,"lon":5.39028,"is_reserved":false,"is_disabled":false,"rental_uris":{"android":"levelo://app?vid=9c49d0e5-e429-4d18-9e0f-fa188f26c904","ios":"levelo://app?vid=9c49d0e5-e429-4d18-9e0f-fa188f26c904"},"vehicle_type_id":"4","last_reported":1731161279,"current_range_meters":28000,"station_id":"ce4bgup2rcd13ifvqco0","pricing_plan_id":"cebpf4jnsgd1na2vs0mg"},{"bike_id":"272dceaa-f641-4314-a4dc-c4e34b6fe0a4","system_id":"levelo_inurba_marseille","lat":43.26214,"lon":5.37442,"is_reserved":false,"is_disabled":false,"rental_uris":{"android":"levelo://app?vid=272dceaa-f641-4314-a4dc-c4e34b6fe0a4","ios":"levelo://app?vid=272dceaa-f641-4314-a4dc-c4e34b6fe0a4"},"vehicle_type_id":"4","last_reported":1731161279,"current_range_meters":18800,"station_id":"ce4bhgp2rcd13ifvqfc0","pricing_plan_id":"cebpf4jnsgd1na2vs0mg"},{"bike_id":"6463664d-8d71-4282-8618-f2c0c195f781","system_id":"levelo_inurba_marseille","lat":43.30145,"lon":5.38111,"is_reserved":false,"is_disabled":false,"rental_uris":{"android":"levelo://app?vid=6463664d-8d71-4282-8618-f2c0c195f781","ios":"levelo://app?vid=6463664d-8d71-4282-8618-f2c0c195f781"},"vehicle_type_id":"4","last_reported":1731161279,"current_range_meters":28000,"station_id":"ce4bgjp2rcd13ifvqbh0","pricing_plan_id":"cebpf4jnsgd1na2vs0mg"},{"bike_id":"7ac22ad6-5c90-426c-9445-b955aa251096","system_id":"levelo_inurba_marseille","lat":43.29187,"lon":5.35807,"is_reserved":false,"is_disabled":false,"rental_uris":{"android":"levelo://app?vid=7ac22ad6-5c90-426c-9445-b955aa251096","ios":"levelo://app?vid=7ac22ad6-5c90-426c-9445-b955aa251096"},"vehicle_type_id":"4","last_reported":1731161279,"current_range_meters":38800,"station_id":"ce4bhb12rcd13ifvqel0","pricing_plan_id":"cebpf4jnsgd1na2vs0mg"},{"bike_id":"e49410ce-09b0-4383-a2ea-f79693d11b9d","system_id":"levelo_inurba_marseille","lat":43.29844,"lon":5.36269,"is_reserved":false,"is_disabled":false,"rental_uris":{"android":"levelo://app?vid=e49410ce-09b0-4383-a2ea-f79693d11b9d","ios":"levelo://app?vid=e49410ce-09b0-4383-a2ea-f79693d11b9d"},"vehicle_type_id":"4","last_reported":1731161279,"current_range_meters":32000,"station_id":"ce4bgpp2rcd13ifvqc3g","pricing_plan_id":"cebpf4jnsgd1na2vs0mg"},{"bike_id":"a2af0eca-530d-4954-b538-26140aa97bc7","system_id":"levelo_inurba_marseille","lat":43.27493,"lon":5.42451,"is_reserved":false,"is_disabled":false,"rental_uris":{"android":"levelo://app?vid=a2af0eca-530d-4954-b538-26140aa97bc7","ios":"levelo://app?vid=a2af0eca-530d-4954-b538-26140aa97bc7"},"vehicle_type_id":"4","last_reported":1731161279,"current_range_meters":26800,"station_id":"ce4bhn92rcd13ifvqgrg","pricing_plan_id":"cebpf4jnsgd1na2vs0mg"},{"bike_id":"ba4e9b3f-2a8e-4431-b57f-f6a1ee8edd37","system_id":"levelo_inurba_marseille","lat":43.30154,"lon":5.38085,"is_reserved":false,"is_disabled":false,"rental_uris":{"android":"levelo://app?vid=ba4e9b3f-2a8e-4431-b57f-f6a1ee8edd37","ios":"levelo://app?vid=ba4e9b3f-2a8e-4431-b57f-f6a1ee8edd37"},"vehicle_type_id":"4","last_reported":1731161279,"current_range_meters":20000,"station_id":"ce4bgjp2rcd13ifvqbh0","pricing_plan_id":"cebpf4jnsgd1na2vs0mg"},{"bike_id":"8b41d3a1-b84e-40de-9b7c-75b2e0d4b0a4","system_id":"levelo_inurba_marseille","lat":43.29897,"lon":5.4367,"is_reserved":false,"is_disabled":false,"rental_uris":{"android":"levelo://app?vid=8b41d3a1-b84e-40de-9b7c-75b2e0d4b0a4","ios":"levelo://app?vid=8b41d3a1-b84e-40de-9b7c-75b2e0d4b0a4"},"vehicle_type_id":"4","last_reported":1731161279,"current_range_meters":8000,"station_id":"ce4bhpp2rcd13ifvqhfg","pricing_plan_id":"cebpf4jnsgd1na2vs0mg"},{"bike_id":"5900cea5-36b9-4188-8887-71675c918c00","system_id":"levelo_inurba_marseille","lat":43.337444,"lon":5.374475,"is_reserved":false,"is_disabled":false,"rental_uris":{"android":"levelo://app?vid=5900cea5-36b9-4188-8887-71675c918c00","ios":"levelo://app?vid=5900cea5-36b9-4188-8887-71675c918c00"},"vehicle_type_id":"4","last_reported":1731161279,"current_range_meters":37600,"station_id":"ce4bgk12rcd13ifvqbi0","pricing_plan_id":"cebpf4jnsgd1na2vs0mg"},{"bike_id":"d6fdae69-642e-4d84-a8fd-edeb75ed0ef4","system_id":"levelo_inurba_marseille","lat":43.22932,"lon":5.35376,"is_reserved":false,"is_disabled":false,"rental_uris":{"android":"levelo://app?vid=d6fdae69-642e-4d84-a8fd-edeb75ed0ef4","ios":"levelo://app?vid=d6fdae69-642e-4d84-a8fd-edeb75ed0ef4"},"vehicle_type_id":"4","last_reported":1731161279,"current_range_meters":39200,"station_id":"cpo3532slgdg3j2ikp40","pricing_plan_id":"cebpf4jnsgd1na2vs0mg"},{"bike_id":"656edd06-c2db-4ad7-9a7b-e91ab147bc8b","system_id":"levelo_inurba_marseille","lat":43.23958,"lon":5.36624,"is_reserved":false,"is_disabled":false,"rental_uris":{"android":"levelo://app?vid=656edd06-c2db-4ad7-9a7b-e91ab147bc8b","ios":"levelo://app?vid=656edd06-c2db-4ad7-9a7b-e91ab147bc8b"},"vehicle_type_id":"4","last_reported":1731161279,"current_range_meters":2800,"station_id":"ce4bhi12rcd13ifvqfp0","pricing_plan_id":"cebpf4jnsgd1na2vs0mg"},{"bike_id":"fa6a0987-224a-4bc2-940a-f29ee1722da6","system_id":"levelo_inurba_marseille","lat":43.28613,"lon":5.35102,"is_reserved":false,"is_disabled":false,"rental_uris":{"android":"levelo://app?vid=fa6a0987-224a-4bc2-940a-f29ee1722da6","ios":"levelo://app?vid=fa6a0987-224a-4bc2-940a-f29ee1722da6"},"vehicle_type_id":"4","last_reported":1731161279,"current_range_meters":38800,"station_id":"ce4bhch2rcd13ifvqeug","pricing_plan_id":"cebpf4jnsgd1na2vs0mg"},{"bike_id":"9f285834-2950-40f2-97f5-d02e66aec9bd","system_id":"levelo_inurba_marseille","lat":43.24395,"lon":5.37057,"is_reserved":false,"is_disabled":false,"rental_uris":{"android":"levelo://app?vid=9f285834-2950-40f2-97f5-d02e66aec9bd","ios":"levelo://app?vid=9f285834-2950-40f2-97f5-d02e66aec9bd"},"vehicle_type_id":"4","last_reported":1731161279,"current_range_meters":39200,"station_id":"ce4bhhh2rcd13ifvqfk0","pricing_plan_id":"cebpf4jnsgd1na2vs0mg"},{"bike_id":"5bb18370-3789-41dc-89e1-bf29c8daab53","system_id":"levelo_inurba_marseille","lat":43.29534,"lon":5.37496,"is_reserved":false,"is_disabled":false,"rental_uris":{"android":"levelo://app?vid=5bb18370-3789-41dc-89e1-bf29c8daab53","ios":"levelo://app?vid=5bb18370-3789-41dc-89e1-bf29c8daab53"},"vehicle_type_id":"4","last_reported":1731161279,"current_range_meters":22800,"station_id":"ce4bgkp2rcd13ifvqbmg","pricing_plan_id":"cebpf4jnsgd1na2vs0mg"},{"bike_id":"d53ac9ad-987c-4c2f-9587-8c4e4c1fab66","system_id":"levelo_inurba_marseille","lat":43.29937,"lon":5.36539,"is_reserved":false,"is_disabled":false,"rental_uris":{"android":"levelo://app?vid=d53ac9ad-987c-4c2f-9587-8c4e4c1fab66","ios":"levelo://app?vid=d53ac9ad-987c-4c2f-9587-8c4e4c1fab66"},"vehicle_type_id":"4","last_reported":1731161279,"current_range_meters":36000,"station_id":"ce4bgm92rcd13ifvqbr0","pricing_plan_id":"cebpf4jnsgd1na2vs0mg"},{"bike_id":"143ee341-428a-4b1f-8bab-06933d15e350","system_id":"levelo_inurba_marseille","lat":43.29972,"lon":5.38489,"is_reserved":false,"is_disabled":false,"rental_uris":{"android":"levelo://app?vid=143ee341-428a-4b1f-8bab-06933d15e350","ios":"levelo://app?vid=143ee341-428a-4b1f-8bab-06933d15e350"},"vehicle_type_id":"4","last_reported":1731161279,"current_range_meters":3200,"station_id":"ce4bgj92rcd13ifvqbd0","pricing_plan_id":"cebpf4jnsgd1na2vs0mg"},{"bike_id":"282e45c6-2fc1-4447-8aa2-2b7fe39482b3","system_id":"levelo_inurba_marseille","lat":43.29568,"lon":5.39976,"is_reserved":false,"is_disabled":false,"rental_uris":{"android":"levelo://app?vid=282e45c6-2fc1-4447-8aa2-2b7fe39482b3","ios":"levelo://app?vid=282e45c6-2fc1-4447-8aa2-2b7fe39482b3"},"vehicle_type_id":"4","last_reported":1731161279,"current_range_meters":27200,"station_id":"ce4bh312rcd13ifvqdj0","pricing_plan_id":"cebpf4jnsgd1na2vs0mg"},{"bike_id":"ed041fb6-af35-4b06-8c0a-964d1a6674b3","system_id":"levelo_inurba_marseille","lat":43.30655,"lon":5.40086,"is_reserved":false,"is_disabled":false,"rental_uris":{"android":"levelo://app?vid=ed041fb6-af35-4b06-8c0a-964d1a6674b3","ios":"levelo://app?vid=ed041fb6-af35-4b06-8c0a-964d1a6674b3"},"vehicle_type_id":"4","last_reported":1731161279,"current_range_meters":35600,"station_id":"ce4bh112rcd13ifvqda0","pricing_plan_id":"cebpf4jnsgd1na2vs0mg"},{"bike_id":"d4e2615a-83f7-44f4-94b2-ee4cf6b17fb3","system_id":"levelo_inurba_marseille","lat":43.25097,"lon":5.39515,"is_reserved":false,"is_disabled":false,"rental_uris":{"android":"levelo://app?vid=d4e2615a-83f7-44f4-94b2-ee4cf6b17fb3","ios":"levelo://app?vid=d4e2615a-83f7-44f4-94b2-ee4cf6b17fb3"},"vehicle_type_id":"4","last_reported":1731161279,"current_range_meters":17600,"station_id":"ce4bhm12rcd13ifvqgkg","pricing_plan_id":"cebpf4jnsgd1na2vs0mg"},{"bike_id":"02bf60fb-8128-4e23-9b13-7587b587712d","system_id":"levelo_inurba_marseille","lat":43.29269,"lon":5.36845,"is_reserved":false,"is_disabled":false,"rental_uris":{"android":"levelo://app?vid=02bf60fb-8128-4e23-9b13-7587b587712d","ios":"levelo://app?vid=02bf60fb-8128-4e23-9b13-7587b587712d"},"vehicle_type_id":"4","last_reported":1731161279,"current_range_meters":24000,"station_id":"ce4bhbp2rcd13ifvqesg","pricing_plan_id":"cebpf4jnsgd1na2vs0mg"},{"bike_id":"565435fb-bbd7-4531-8a45-68a96e5f45b3","system_id":"levelo_inurba_marseille","lat":43.31759,"lon":5.39016,"is_reserved":false,"is_disabled":false,"rental_uris":{"android":"levelo://app?vid=565435fb-bbd7-4531-8a45-68a96e5f45b3","ios":"levelo://app?vid=565435fb-bbd7-4531-8a45-68a96e5f45b3"},"vehicle_type_id":"4","last_reported":1731161279,"current_range_meters":30000,"station_id":"ce4bhqp2rcd13ifvqhng","pricing_plan_id":"cebpf4jnsgd1na2vs0mg"},{"bike_id":"5d3f3f56-450d-49d4-bb62-634aa69059df","system_id":"levelo_inurba_marseille","lat":43.30427,"lon":5.38887,"is_reserved":false,"is_disabled":false,"rental_uris":{"android":"levelo://app?vid=5d3f3f56-450d-49d4-bb62-634aa69059df","ios":"levelo://app?vid=5d3f3f56-450d-49d4-bb62-634aa69059df"},"vehicle_type_id":"4","last_reported":1731161279,"current_range_meters":32000,"station_id":"ce4bgk12rcd13ifvqbi0","pricing_plan_id":"cebpf4jnsgd1na2vs0mg"},{"bike_id":"bb27ca3a-4b9a-4ffd-a019-2380ad9271c8","system_id":"levelo_inurba_marseille","lat":43.27999,"lon":5.40012,"is_reserved":false,"is_disabled":false,"rental_uris":{"android":"levelo://app?vid=bb27ca3a-4b9a-4ffd-a019-2380ad9271c8","ios":"levelo://app?vid=bb27ca3a-4b9a-4ffd-a019-2380ad9271c8"},"vehicle_type_id":"4","last_reported":1731161279,"current_range_meters":17200,"station_id":"ce4bho92rcd13ifvqh4g","pricing_plan_id":"cebpf4jnsgd1na2vs0mg"},{"bike_id":"6fe0b6ea-fed3-4e1b-92d0-a5f3f71ac920","system_id":"levelo_inurba_marseille","lat":43.29522,"lon":5.37505,"is_reserved":false,"is_disabled":false,"rental_uris":{"android":"levelo://app?vid=6fe0b6ea-fed3-4e1b-92d0-a5f3f71ac920","ios":"levelo://app?vid=6fe0b6ea-fed3-4e1b-92d0-a5f3f71ac920"},"vehicle_type_id":"4","last_reported":1731161279,"current_range_meters":38800,"station_id":"ce4bgkp2rcd13ifvqbmg","pricing_plan_id":"cebpf4jnsgd1na2vs0mg"},{"bike_id":"a8d6c4ab-40b8-4cdf-9134-b9616f1ce96b","system_id":"levelo_inurba_marseille","lat":43.27326,"lon":5.39115,"is_reserved":false,"is_disabled":false,"rental_uris":{"android":"levelo://app?vid=a8d6c4ab-40b8-4cdf-9134-b9616f1ce96b","ios":"levelo://app?vid=a8d6c4ab-40b8-4cdf-9134-b9616f1ce96b"},"vehicle_type_id":"4","last_reported":1731161279,"current_range_meters":14800,"station_id":"ce4bhgp2rcd13ifvqfe0","pricing_plan_id":"cebpf4jnsgd1na2vs0mg"},{"bike_id":"a1212e73-b50e-4dda-bd8b-7911a3d27742","system_id":"levelo_inurba_marseille","lat":43.29531,"lon":5.37502,"is_reserved":false,"is_disabled":false,"rental_uris":{"android":"levelo://app?vid=a1212e73-b50e-4dda-bd8b-7911a3d27742","ios":"levelo://app?vid=a1212e73-b50e-4dda-bd8b-7911a3d27742"},"vehicle_type_id":"4","last_reported":1731161279,"current_range_meters":30000,"station_id":"ce4bgkp2rcd13ifvqbmg","pricing_plan_id":"cebpf4jnsgd1na2vs0mg"},{"bike_id":"31029f1f-6cfc-419d-a9af-b9ef9f8935bf","system_id":"levelo_inurba_marseille","lat":43.29912,"lon":5.37475,"is_reserved":false,"is_disabled":false,"rental_uris":{"android":"levelo://app?vid=31029f1f-6cfc-419d-a9af-b9ef9f8935bf","ios":"levelo://app?vid=31029f1f-6cfc-419d-a9af-b9ef9f8935bf"},"vehicle_type_id":"4","last_reported":1731161279,"current_range_meters":39200,"station_id":"ce4bgjh2rcd13ifvqbg0","pricing_plan_id":"cebpf4jnsgd1na2vs0mg"},{"bike_id":"0ca3e6b9-f435-44df-afb5-a1e6819271a2","system_id":"levelo_inurba_marseille","lat":43.29937,"lon":5.36549,"is_reserved":false,"is_disabled":false,"rental_uris":{"android":"levelo://app?vid=0ca3e6b9-f435-44df-afb5-a1e6819271a2","ios":"levelo://app?vid=0ca3e6b9-f435-44df-afb5-a1e6819271a2"},"vehicle_type_id":"4","last_reported":1731161279,"current_range_meters":38800,"station_id":"ce4bgm92rcd13ifvqbr0","pricing_plan_id":"cebpf4jnsgd1na2vs0mg"},{"bike_id":"181fa628-fd06-4339-88f4-5d411c857699","system_id":"levelo_inurba_marseille","lat":43.27069,"lon":5.4228,"is_reserved":false,"is_disabled":false,"rental_uris":{"android":"levelo://app?vid=181fa628-fd06-4339-88f4-5d411c857699","ios":"levelo://app?vid=181fa628-fd06-4339-88f4-5d411c857699"},"vehicle_type_id":"4","last_reported":1731161279,"current_range_meters":14800,"station_id":"ce4bhk92rcd13ifvqgb0","pricing_plan_id":"cebpf4jnsgd1na2vs0mg"},{"bike_id":"d016f485-a04f-490d-a539-5da3c6bfbb73","system_id":"levelo_inurba_marseille","lat":43.2942,"lon":5.3861,"is_reserved":false,"is_disabled":false,"rental_uris":{"android":"levelo://app?vid=d016f485-a04f-490d-a539-5da3c6bfbb73","ios":"levelo://app?vid=d016f485-a04f-490d-a539-5da3c6bfbb73"},"vehicle_type_id":"4","last_reported":1731161279,"current_range_meters":37600,"station_id":"ce4bh2h2rcd13ifvqdh0","pricing_plan_id":"cebpf4jnsgd1na2vs0mg"},{"bike_id":"11d9d71c-db81-4e22-9859-1b0e0bf80624","system_id":"levelo_inurba_marseille","lat":43.31363,"lon":5.38485,"is_reserved":false,"is_disabled":false,"rental_uris":{"android":"levelo://app?vid=11d9d71c-db81-4e22-9859-1b0e0bf80624","ios":"levelo://app?vid=11d9d71c-db81-4e22-9859-1b0e0bf80624"},"vehicle_type_id":"4","last_reported":1731161279,"current_range_meters":22800,"station_id":"ce4bgt92rcd13ifvqcf0","pricing_plan_id":"cebpf4jnsgd1na2vs0mg"},{"bike_id":"0e0a6fd0-bb66-41bd-9ac4-0e8090ee7ea4","system_id":"levelo_inurba_marseille","lat":43.29908,"lon":5.37479,"is_reserved":false,"is_disabled":false,"rental_uris":{"android":"levelo://app?vid=0e0a6fd0-bb66-41bd-9ac4-0e8090ee7ea4","ios":"levelo://app?vid=0e0a6fd0-bb66-41bd-9ac4-0e8090ee7ea4"},"vehicle_type_id":"4","last_reported":1731161279,"current_range_meters":28000,"station_id":"ce4bgjh2rcd13ifvqbg0","pricing_plan_id":"cebpf4jnsgd1na2vs0mg"},{"bike_id":"764ab749-70ca-4b73-a35f-c0abe15547f3","system_id":"levelo_inurba_marseille","lat":43.30161,"lon":5.38084,"is_reserved":false,"is_disabled":false,"rental_uris":{"android":"levelo://app?vid=764ab749-70ca-4b73-a35f-c0abe15547f3","ios":"levelo://app?vid=764ab749-70ca-4b73-a35f-c0abe15547f3"},"vehicle_type_id":"4","last_reported":1731161279,"current_range_meters":34800,"station_id":"ce4bgjp2rcd13ifvqbh0","pricing_plan_id":"cebpf4jnsgd1na2vs0mg"},{"bike_id":"dd02dda1-0cf5-4e23-8f9a-88ca5953c398","system_id":"levelo_inurba_marseille","lat":43.24999,"lon":5.3894,"is_reserved":false,"is_disabled":false,"rental_uris":{"android":"levelo://app?vid=dd02dda1-0cf5-4e23-8f9a-88ca5953c398","ios":"levelo://app?vid=dd02dda1-0cf5-4e23-8f9a-88ca5953c398"},"vehicle_type_id":"4","last_reported":1731161279,"current_range_meters":12400,"station_id":"ce4bhgp2rcd13ifvqfd0","pricing_plan_id":"cebpf4jnsgd1na2vs0mg"},{"bike_id":"27e15419-d9b0-4647-890e-e21a7149b1cd","system_id":"levelo_inurba_marseille","lat":43.27071,"lon":5.42284,"is_reserved":false,"is_disabled":false,"rental_uris":{"android":"levelo://app?vid=27e15419-d9b0-4647-890e-e21a7149b1cd","ios":"levelo://app?vid=27e15419-d9b0-4647-890e-e21a7149b1cd"},"vehicle_type_id":"4","last_reported":1731161279,"current_range_meters":18800,"station_id":"ce4bhk92rcd13ifvqgb0","pricing_plan_id":"cebpf4jnsgd1na2vs0mg"},{"bike_id":"f53be64b-e034-4d1c-8f95-4202d928231d","system_id":"levelo_inurba_marseille","lat":43.32477,"lon":5.36566,"is_reserved":false,"is_disabled":false,"rental_uris":{"android":"levelo://app?vid=f53be64b-e034-4d1c-8f95-4202d928231d","ios":"levelo://app?vid=f53be64b-e034-4d1c-8f95-4202d928231d"},"vehicle_type_id":"4","last_reported":1731161279,"current_range_meters":39200,"station_id":"ce4bhs12rcd13ifvqhvg","pricing_plan_id":"cebpf4jnsgd1na2vs0mg"},{"bike_id":"c11f357c-d79a-45d0-936f-94a77be858bd","system_id":"levelo_inurba_marseille","lat":43.30463,"lon":5.37897,"is_reserved":false,"is_disabled":false,"rental_uris":{"android":"levelo://app?vid=c11f357c-d79a-45d0-936f-94a77be858bd","ios":"levelo://app?vid=c11f357c-d79a-45d0-936f-94a77be858bd"},"vehicle_type_id":"4","last_reported":1731161279,"current_range_meters":27200,"station_id":"ce4bgup2rcd13ifvqcn0","pricing_plan_id":"cebpf4jnsgd1na2vs0mg"},{"bike_id":"1720d302-43f0-4b46-bd4a-36a63bca771b","system_id":"levelo_inurba_marseille","lat":43.28852,"lon":5.35851,"is_reserved":false,"is_disabled":false,"rental_uris":{"android":"levelo://app?vid=1720d302-43f0-4b46-bd4a-36a63bca771b","ios":"levelo://app?vid=1720d302-43f0-4b46-bd4a-36a63bca771b"},"vehicle_type_id":"4","last_reported":1731161279,"current_range_meters":20000,"station_id":"ce4bhb12rcd13ifvqem0","pricing_plan_id":"cebpf4jnsgd1na2vs0mg"},{"bike_id":"10fa25ec-0a67-4900-924a-331c2f0261c7","system_id":"levelo_inurba_marseille","lat":43.29844,"lon":5.36276,"is_reserved":false,"is_disabled":false,"rental_uris":{"android":"levelo://app?vid=10fa25ec-0a67-4900-924a-331c2f0261c7","ios":"levelo://app?vid=10fa25ec-0a67-4900-924a-331c2f0261c7"},"vehicle_type_id":"4","last_reported":1731161279,"current_range_meters":18000,"station_id":"ce4bgpp2rcd13ifvqc3g","pricing_plan_id":"cebpf4jnsgd1na2vs0mg"},{"bike_id":"0d93b31b-854a-4c31-b287-70df5cbe7d07","system_id":"levelo_inurba_marseille","lat":43.24081,"lon":5.37747,"is_reserved":false,"is_disabled":false,"rental_uris":{"android":"levelo://app?vid=0d93b31b-854a-4c31-b287-70df5cbe7d07","ios":"levelo://app?vid=0d93b31b-854a-4c31-b287-70df5cbe7d07"},"vehicle_type_id":"4","last_reported":1731161279,"current_range_meters":16800,"station_id":"ce4bhnp2rcd13ifvqgvg","pricing_plan_id":"cebpf4jnsgd1na2vs0mg"},{"bike_id":"85c204c1-37d6-4b73-b6e0-dc44c53e6048","system_id":"levelo_inurba_marseille","lat":43.25498,"lon":5.37648,"is_reserved":false,"is_disabled":false,"rental_uris":{"android":"levelo://app?vid=85c204c1-37d6-4b73-b6e0-dc44c53e6048","ios":"levelo://app?vid=85c204c1-37d6-4b73-b6e0-dc44c53e6048"},"vehicle_type_id":"4","last_reported":1731161279,"current_range_meters":8400,"station_id":"ce4bhh12rcd13ifvqff0","pricing_plan_id":"cebpf4jnsgd1na2vs0mg"},{"bike_id":"bb485e1c-74be-4742-a871-b4be911e19c0","system_id":"levelo_inurba_marseille","lat":43.29908,"lon":5.38137,"is_reserved":false,"is_disabled":false,"rental_uris":{"android":"levelo://app?vid=bb485e1c-74be-4742-a871-b4be911e19c0","ios":"levelo://app?vid=bb485e1c-74be-4742-a871-b4be911e19c0"},"vehicle_type_id":"4","last_reported":1731161279,"current_range_meters":12000,"station_id":"ce4bgj12rcd13ifvqbc0","pricing_plan_id":"cebpf4jnsgd1na2vs0mg"},{"bike_id":"b34f626a-1201-47fd-919c-02393e0449a2","system_id":"levelo_inurba_marseille","lat":43.292932,"lon":5.379927,"is_reserved":false,"is_disabled":false,"rental_uris":{"android":"levelo://app?vid=b34f626a-1201-47fd-919c-02393e0449a2","ios":"levelo://app?vid=b34f626a-1201-47fd-919c-02393e0449a2"},"vehicle_type_id":"4","last_reported":1731161279,"current_range_meters":2000,"station_id":"ce4bh512rcd13ifvqe2g","pricing_plan_id":"cebpf4jnsgd1na2vs0mg"},{"bike_id":"56523e27-50c2-4906-8b99-a34e3d6e58f9","system_id":"levelo_inurba_marseille","lat":43.27491,"lon":5.42456,"is_reserved":false,"is_disabled":false,"rental_uris":{"android":"levelo://app?vid=56523e27-50c2-4906-8b99-a34e3d6e58f9","ios":"levelo://app?vid=56523e27-50c2-4906-8b99-a34e3d6e58f9"},"vehicle_type_id":"4","last_reported":1731161279,"current_range_meters":6400,"station_id":"ce4bhn92rcd13ifvqgrg","pricing_plan_id":"cebpf4jnsgd1na2vs0mg"},{"bike_id":"e1a051a4-6d61-4756-96b7-cc7aafd72c3a","system_id":"levelo_inurba_marseille","lat":43.29531,"lon":5.38544,"is_reserved":false,"is_disabled":false,"rental_uris":{"android":"levelo://app?vid=e1a051a4-6d61-4756-96b7-cc7aafd72c3a","ios":"levelo://app?vid=e1a051a4-6d61-4756-96b7-cc7aafd72c3a"},"vehicle_type_id":"4","last_reported":1731161279,"current_range_meters":5600,"station_id":"ce4bgih2rcd13ifvqba0","pricing_plan_id":"cebpf4jnsgd1na2vs0mg"},{"bike_id":"bd96776e-3159-4cb3-b783-518e7e2e9636","system_id":"levelo_inurba_marseille","lat":43.28838,"lon":5.3767,"is_reserved":false,"is_disabled":false,"rental_uris":{"android":"levelo://app?vid=bd96776e-3159-4cb3-b783-518e7e2e9636","ios":"levelo://app?vid=bd96776e-3159-4cb3-b783-518e7e2e9636"},"vehicle_type_id":"4","last_reported":1731161279,"current_range_meters":13600,"station_id":"ce4bhgp2rcd13ifvqfc0","pricing_plan_id":"cebpf4jnsgd1na2vs0mg"},{"bike_id":"a3392587-cece-4eea-b872-a19c37dfb476","system_id":"levelo_inurba_marseille","lat":43.28002,"lon":5.40012,"is_reserved":false,"is_disabled":false,"rental_uris":{"android":"levelo://app?vid=a3392587-cece-4eea-b872-a19c37dfb476","ios":"levelo://app?vid=a3392587-cece-4eea-b872-a19c37dfb476"},"vehicle_type_id":"4","last_reported":1731161279,"current_range_meters":28000,"station_id":"ce4bho92rcd13ifvqh4g","pricing_plan_id":"cebpf4jnsgd1na2vs0mg"},{"bike_id":"662a3532-c6a8-4e4b-84a6-63d17435c581","system_id":"levelo_inurba_marseille","lat":43.26203,"lon":5.37439,"is_reserved":false,"is_disabled":false,"rental_uris":{"android":"levelo://app?vid=662a3532-c6a8-4e4b-84a6-63d17435c581","ios":"levelo://app?vid=662a3532-c6a8-4e4b-84a6-63d17435c581"},"vehicle_type_id":"4","last_reported":1731161279,"current_range_meters":17600,"station_id":"ce4bhgp2rcd13ifvqfc0","pricing_plan_id":"cebpf4jnsgd1na2vs0mg"},{"bike_id":"16f0f65c-0669-48c2-8b88-c14a9f2b1043","system_id":"levelo_inurba_marseille","lat":43.29286,"lon":5.37438,"is_reserved":false,"is_disabled":false,"rental_uris":{"android":"levelo://app?vid=16f0f65c-0669-48c2-8b88-c14a9f2b1043","ios":"levelo://app?vid=16f0f65c-0669-48c2-8b88-c14a9f2b1043"},"vehicle_type_id":"4","last_reported":1731161279,"current_range_meters":34800,"station_id":"ce4bgi12rcd13ifvqb70","pricing_plan_id":"cebpf4jnsgd1na2vs0mg"},{"bike_id":"384cb49b-2903-4060-ba45-053ad32bcb68","system_id":"levelo_inurba_marseille","lat":43.29573,"lon":5.37501,"is_reserved":false,"is_disabled":false,"rental_uris":{"android":"levelo://app?vid=384cb49b-2903-4060-ba45-053ad32bcb68","ios":"levelo://app?vid=384cb49b-2903-4060-ba45-053ad32bcb68"},"vehicle_type_id":"4","last_reported":1731161279,"current_range_meters":18000,"station_id":"ce4bgh92rcd13ifvqb50","pricing_plan_id":"cebpf4jnsgd1na2vs0mg"},{"bike_id":"4adc051b-cab2-444f-a4c6-933d4708baf0","system_id":"levelo_inurba_marseille","lat":43.31723,"lon":5.4239,"is_reserved":false,"is_disabled":false,"rental_uris":{"android":"levelo://app?vid=4adc051b-cab2-444f-a4c6-933d4708baf0","ios":"levelo://app?vid=4adc051b-cab2-444f-a4c6-933d4708baf0"},"vehicle_type_id":"4","last_reported":1731161279,"current_range_meters":8400,"station_id":"ce4bhp92rcd13ifvqhbg","pricing_plan_id":"cebpf4jnsgd1na2vs0mg"},{"bike_id":"1314255a-001e-47e2-8b54-38f4da2a0ea9","system_id":"levelo_inurba_marseille","lat":43.30947,"lon":5.39031,"is_reserved":false,"is_disabled":false,"rental_uris":{"android":"levelo://app?vid=1314255a-001e-47e2-8b54-38f4da2a0ea9","ios":"levelo://app?vid=1314255a-001e-47e2-8b54-38f4da2a0ea9"},"vehicle_type_id":"4","last_reported":1731161279,"current_range_meters":22000,"station_id":"ce4bgup2rcd13ifvqco0","pricing_plan_id":"cebpf4jnsgd1na2vs0mg"},{"bike_id":"54f46eca-231b-4d4c-b044-5bfe4abbbaba","system_id":"levelo_inurba_marseille","lat":43.30461,"lon":5.379102,"is_reserved":false,"is_disabled":false,"rental_uris":{"android":"levelo://app?vid=54f46eca-231b-4d4c-b044-5bfe4abbbaba","ios":"levelo://app?vid=54f46eca-231b-4d4c-b044-5bfe4abbbaba"},"vehicle_type_id":"4","last_reported":1731161279,"current_range_meters":38800,"station_id":"ce4bgup2rcd13ifvqcn0","pricing_plan_id":"cebpf4jnsgd1na2vs0mg"},{"bike_id":"a61dfdc8-8032-4e2b-8bea-d0f6a2b05b1f","system_id":"levelo_inurba_marseille","lat":43.2396,"lon":5.3663,"is_reserved":false,"is_disabled":false,"rental_uris":{"android":"levelo://app?vid=a61dfdc8-8032-4e2b-8bea-d0f6a2b05b1f","ios":"levelo://app?vid=a61dfdc8-8032-4e2b-8bea-d0f6a2b05b1f"},"vehicle_type_id":"4","last_reported":1731161279,"current_range_meters":36400,"station_id":"ce4bhi12rcd13ifvqfp0","pricing_plan_id":"cebpf4jnsgd1na2vs0mg"},{"bike_id":"94cde044-789b-4897-959f-4a1e6d2027ca","system_id":"levelo_inurba_marseille","lat":43.31706,"lon":5.37761,"is_reserved":false,"is_disabled":false,"rental_uris":{"android":"levelo://app?vid=94cde044-789b-4897-959f-4a1e6d2027ca","ios":"levelo://app?vid=94cde044-789b-4897-959f-4a1e6d2027ca"},"vehicle_type_id":"4","last_reported":1731161279,"current_range_meters":39200,"station_id":"ce4bgth2rcd13ifvqch0","pricing_plan_id":"cebpf4jnsgd1na2vs0mg"},{"bike_id":"f52e1dc5-9e0a-4918-a85e-0347dc29de69","system_id":"levelo_inurba_marseille","lat":43.23969,"lon":5.36648,"is_reserved":false,"is_disabled":false,"rental_uris":{"android":"levelo://app?vid=f52e1dc5-9e0a-4918-a85e-0347dc29de69","ios":"levelo://app?vid=f52e1dc5-9e0a-4918-a85e-0347dc29de69"},"vehicle_type_id":"4","last_reported":1731161279,"current_range_meters":7200,"station_id":"ce4bhi12rcd13ifvqfp0","pricing_plan_id":"cebpf4jnsgd1na2vs0mg"},{"bike_id":"07704a86-dbed-425a-854d-11b1a4e3d84c","system_id":"levelo_inurba_marseille","lat":43.337444,"lon":5.374475,"is_reserved":false,"is_disabled":false,"rental_uris":{"android":"levelo://app?vid=07704a86-dbed-425a-854d-11b1a4e3d84c","ios":"levelo://app?vid=07704a86-dbed-425a-854d-11b1a4e3d84c"},"vehicle_type_id":"4","last_reported":1731161279,"current_range_meters":34800,"station_id":"","pricing_plan_id":"cebpf4jnsgd1na2vs0mg"},{"bike_id":"79b39923-b687-4420-a58b-1f85feafef16","system_id":"levelo_inurba_marseille","lat":43.29906,"lon":5.37477,"is_reserved":false,"is_disabled":false,"rental_uris":{"android":"levelo://app?vid=79b39923-b687-4420-a58b-1f85feafef16","ios":"levelo://app?vid=79b39923-b687-4420-a58b-1f85feafef16"},"vehicle_type_id":"4","last_reported":1731161279,"current_range_meters":39200,"station_id":"ce4bgjh2rcd13ifvqbg0","pricing_plan_id":"cebpf4jnsgd1na2vs0mg"},{"bike_id":"0f6dc062-e1e0-4046-9d08-d1bd72184d73","system_id":"levelo_inurba_marseille","lat":43.27831,"lon":5.39206,"is_reserved":false,"is_disabled":false,"rental_uris":{"android":"levelo://app?vid=0f6dc062-e1e0-4046-9d08-d1bd72184d73","ios":"levelo://app?vid=0f6dc062-e1e0-4046-9d08-d1bd72184d73"},"vehicle_type_id":"4","last_reported":1731161279,"current_range_meters":32000,"station_id":"ce4bhjp2rcd13ifvqga0","pricing_plan_id":"cebpf4jnsgd1na2vs0mg"},{"bike_id":"6c74243a-8758-497d-88b4-060b6b80df00","system_id":"levelo_inurba_marseille","lat":43.28667,"lon":5.36353,"is_reserved":false,"is_disabled":false,"rental_uris":{"android":"levelo://app?vid=6c74243a-8758-497d-88b4-060b6b80df00","ios":"levelo://app?vid=6c74243a-8758-497d-88b4-060b6b80df00"},"vehicle_type_id":"4","last_reported":1731161279,"current_range_meters":38800,"station_id":"ce4bhah2rcd13ifvqej0","pricing_plan_id":"cebpf4jnsgd1na2vs0mg"},{"bike_id":"0b74ce83-e6b1-4485-8ca6-3897f29a426e","system_id":"levelo_inurba_marseille","lat":43.23961,"lon":5.36622,"is_reserved":false,"is_disabled":false,"rental_uris":{"android":"levelo://app?vid=0b74ce83-e6b1-4485-8ca6-3897f29a426e","ios":"levelo://app?vid=0b74ce83-e6b1-4485-8ca6-3897f29a426e"},"vehicle_type_id":"4","last_reported":1731161279,"current_range_meters":16400,"station_id":"ce4bhi12rcd13ifvqfp0","pricing_plan_id":"cebpf4jnsgd1na2vs0mg"},{"bike_id":"d94a3c1d-dd1c-4011-a4a3-6a73880c276e","system_id":"levelo_inurba_marseille","lat":43.31241,"lon":5.36857,"is_reserved":false,"is_disabled":false,"rental_uris":{"android":"levelo://app?vid=d94a3c1d-dd1c-4011-a4a3-6a73880c276e","ios":"levelo://app?vid=d94a3c1d-dd1c-4011-a4a3-6a73880c276e"},"vehicle_type_id":"4","last_reported":1731161279,"current_range_meters":22000,"station_id":"ce4bgl92rcd13ifvqbq0","pricing_plan_id":"cebpf4jnsgd1na2vs0mg"},{"bike_id":"1c833cb6-08de-4ab9-9196-1dfec70c7a8f","system_id":"levelo_inurba_marseille","lat":43.29081,"lon":5.37177,"is_reserved":false,"is_disabled":false,"rental_uris":{"android":"levelo://app?vid=1c833cb6-08de-4ab9-9196-1dfec70c7a8f","ios":"levelo://app?vid=1c833cb6-08de-4ab9-9196-1dfec70c7a8f"},"vehicle_type_id":"4","last_reported":1731161279,"current_range_meters":16800,"station_id":"ce4bh5p2rcd13ifvqe4g","pricing_plan_id":"cebpf4jnsgd1na2vs0mg"},{"bike_id":"b93674d7-a44c-4497-ae83-ecb2986d7d6a","system_id":"levelo_inurba_marseille","lat":43.29191,"lon":5.3581,"is_reserved":false,"is_disabled":false,"rental_uris":{"android":"levelo://app?vid=b93674d7-a44c-4497-ae83-ecb2986d7d6a","ios":"levelo://app?vid=b93674d7-a44c-4497-ae83-ecb2986d7d6a"},"vehicle_type_id":"4","last_reported":1731161279,"current_range_meters":25600,"station_id":"ce4bhb12rcd13ifvqel0","pricing_plan_id":"cebpf4jnsgd1na2vs0mg"},{"bike_id":"737e318d-f108-4c95-991e-c706599395c0","system_id":"levelo_inurba_marseille","lat":43.30168,"lon":5.38081,"is_reserved":false,"is_disabled":false,"rental_uris":{"android":"levelo://app?vid=737e318d-f108-4c95-991e-c706599395c0","ios":"levelo://app?vid=737e318d-f108-4c95-991e-c706599395c0"},"vehicle_type_id":"4","last_reported":1731161279,"current_range_meters":34000,"station_id":"ce4bgjp2rcd13ifvqbh0","pricing_plan_id":"cebpf4jnsgd1na2vs0mg"},{"bike_id":"35ed6885-1170-4344-9bc7-c22a641b6f70","system_id":"levelo_inurba_marseille","lat":43.29622,"lon":5.40601,"is_reserved":false,"is_disabled":false,"rental_uris":{"android":"levelo://app?vid=35ed6885-1170-4344-9bc7-c22a641b6f70","ios":"levelo://app?vid=35ed6885-1170-4344-9bc7-c22a641b6f70"},"vehicle_type_id":"4","last_reported":1731161279,"current_range_meters":34000,"station_id":"ce4bh0h2rcd13ifvqd60","pricing_plan_id":"cebpf4jnsgd1na2vs0mg"},{"bike_id":"bbb6b2f6-df10-4634-bc55-c84b0dcd2601","system_id":"levelo_inurba_marseille","lat":43.29973,"lon":5.38482,"is_reserved":false,"is_disabled":false,"rental_uris":{"android":"levelo://app?vid=bbb6b2f6-df10-4634-bc55-c84b0dcd2601","ios":"levelo://app?vid=bbb6b2f6-df10-4634-bc55-c84b0dcd2601"},"vehicle_type_id":"4","last_reported":1731161279,"current_range_meters":36000,"station_id":"ce4bgj92rcd13ifvqbd0","pricing_plan_id":"cebpf4jnsgd1na2vs0mg"},{"bike_id":"c9115b4b-f641-470d-a0a4-adcf79866874","system_id":"levelo_inurba_marseille","lat":43.29868,"lon":5.3973,"is_reserved":false,"is_disabled":false,"rental_uris":{"android":"levelo://app?vid=c9115b4b-f641-470d-a0a4-adcf79866874","ios":"levelo://app?vid=c9115b4b-f641-470d-a0a4-adcf79866874"},"vehicle_type_id":"4","last_reported":1731161279,"current_range_meters":27200,"station_id":"ce4bh0h2rcd13ifvqd50","pricing_plan_id":"cebpf4jnsgd1na2vs0mg"},{"bike_id":"71684031-bf95-4fd4-bc38-0f4a696a2564","system_id":"levelo_inurba_marseille","lat":43.28426,"lon":5.34996,"is_reserved":false,"is_disabled":false,"rental_uris":{"android":"levelo://app?vid=71684031-bf95-4fd4-bc38-0f4a696a2564","ios":"levelo://app?vid=71684031-bf95-4fd4-bc38-0f4a696a2564"},"vehicle_type_id":"4","last_reported":1731161279,"current_range_meters":36800,"station_id":"ce4bhbh2rcd13ifvqepg","pricing_plan_id":"cebpf4jnsgd1na2vs0mg"},{"bike_id":"54c2dec2-48c7-432d-aa18-2348428c9daf","system_id":"levelo_inurba_marseille","lat":43.28157,"lon":5.42634,"is_reserved":false,"is_disabled":false,"rental_uris":{"android":"levelo://app?vid=54c2dec2-48c7-432d-aa18-2348428c9daf","ios":"levelo://app?vid=54c2dec2-48c7-432d-aa18-2348428c9daf"},"vehicle_type_id":"4","last_reported":1731161279,"current_range_meters":19600,"station_id":"ce4bhnh2rcd13ifvqgug","pricing_plan_id":"cebpf4jnsgd1na2vs0mg"},{"bike_id":"d7849753-eb42-4f9c-921c-2e220e131546","system_id":"levelo_inurba_marseille","lat":43.306,"lon":5.37218,"is_reserved":false,"is_disabled":false,"rental_uris":{"android":"levelo://app?vid=d7849753-eb42-4f9c-921c-2e220e131546","ios":"levelo://app?vid=d7849753-eb42-4f9c-921c-2e220e131546"},"vehicle_type_id":"4","last_reported":1731161279,"current_range_meters":38800,"station_id":"","pricing_plan_id":"cebpf4jnsgd1na2vs0mg"},{"bike_id":"62205cbd-abf8-4547-bbe9-2495a6f2b2ca","system_id":"levelo_inurba_marseille","lat":43.2731,"lon":5.39091,"is_reserved":false,"is_disabled":false,"rental_uris":{"android":"levelo://app?vid=62205cbd-abf8-4547-bbe9-2495a6f2b2ca","ios":"levelo://app?vid=62205cbd-abf8-4547-bbe9-2495a6f2b2ca"},"vehicle_type_id":"4","last_reported":1731161279,"current_range_meters":33200,"station_id":"ce4bhgp2rcd13ifvqfe0","pricing_plan_id":"cebpf4jnsgd1na2vs0mg"},{"bike_id":"05d797eb-5527-4963-b0b5-9b3a39fd87a5","system_id":"levelo_inurba_marseille","lat":43.28841,"lon":5.393022,"is_reserved":false,"is_disabled":false,"rental_uris":{"android":"levelo://app?vid=05d797eb-5527-4963-b0b5-9b3a39fd87a5","ios":"levelo://app?vid=05d797eb-5527-4963-b0b5-9b3a39fd87a5"},"vehicle_type_id":"4","last_reported":1731161279,"current_range_meters":9200,"station_id":"ce4bh2p2rcd13ifvqdi0","pricing_plan_id":"cebpf4jnsgd1na2vs0mg"},{"bike_id":"588b57e8-53f3-4bdf-a9eb-006ce33eb3cc","system_id":"levelo_inurba_marseille","lat":43.32476,"lon":5.36565,"is_reserved":false,"is_disabled":false,"rental_uris":{"android":"levelo://app?vid=588b57e8-53f3-4bdf-a9eb-006ce33eb3cc","ios":"levelo://app?vid=588b57e8-53f3-4bdf-a9eb-006ce33eb3cc"},"vehicle_type_id":"4","last_reported":1731161279,"current_range_meters":37600,"station_id":"ce4bhs12rcd13ifvqhvg","pricing_plan_id":"cebpf4jnsgd1na2vs0mg"},{"bike_id":"98ffc049-c47e-419a-891a-5c9cb15f0a9f","system_id":"levelo_inurba_marseille","lat":43.30316,"lon":5.39214,"is_reserved":false,"is_disabled":false,"rental_uris":{"android":"levelo://app?vid=98ffc049-c47e-419a-891a-5c9cb15f0a9f","ios":"levelo://app?vid=98ffc049-c47e-419a-891a-5c9cb15f0a9f"},"vehicle_type_id":"4","last_reported":1731161279,"current_range_meters":28800,"station_id":"ce4bgkh2rcd13ifvqbk0","pricing_plan_id":"cebpf4jnsgd1na2vs0mg"},{"bike_id":"cafb8bf6-6520-4ac3-85a1-70585a54c903","system_id":"levelo_inurba_marseille","lat":43.23191,"lon":5.35555,"is_reserved":false,"is_disabled":false,"rental_uris":{"android":"levelo://app?vid=cafb8bf6-6520-4ac3-85a1-70585a54c903","ios":"levelo://app?vid=cafb8bf6-6520-4ac3-85a1-70585a54c903"},"vehicle_type_id":"4","last_reported":1731161279,"current_range_meters":11600,"station_id":"ce4bhu92rcd13ifvqi70","pricing_plan_id":"cebpf4jnsgd1na2vs0mg"},{"bike_id":"cf454004-09d2-4008-8a43-bbfb0f6eea63","system_id":"levelo_inurba_marseille","lat":43.28473,"lon":5.38428,"is_reserved":false,"is_disabled":false,"rental_uris":{"android":"levelo://app?vid=cf454004-09d2-4008-8a43-bbfb0f6eea63","ios":"levelo://app?vid=cf454004-09d2-4008-8a43-bbfb0f6eea63"},"vehicle_type_id":"4","last_reported":1731161279,"current_range_meters":38800,"station_id":"ce4bh512rcd13ifvqe3g","pricing_plan_id":"cebpf4jnsgd1na2vs0mg"},{"bike_id":"69d38419-f915-4ada-a460-f28c05bf4ad2","system_id":"levelo_inurba_marseille","lat":43.27069,"lon":5.42277,"is_reserved":false,"is_disabled":false,"rental_uris":{"android":"levelo://app?vid=69d38419-f915-4ada-a460-f28c05bf4ad2","ios":"levelo://app?vid=69d38419-f915-4ada-a460-f28c05bf4ad2"},"vehicle_type_id":"4","last_reported":1731161279,"current_range_meters":39200,"station_id":"ce4bhk92rcd13ifvqgb0","pricing_plan_id":"cebpf4jnsgd1na2vs0mg"},{"bike_id":"b4eb30bc-dd09-4cbf-8ece-3b8ada662aaf","system_id":"levelo_inurba_marseille","lat":43.25008,"lon":5.38914,"is_reserved":false,"is_disabled":false,"rental_uris":{"android":"levelo://app?vid=b4eb30bc-dd09-4cbf-8ece-3b8ada662aaf","ios":"levelo://app?vid=b4eb30bc-dd09-4cbf-8ece-3b8ada662aaf"},"vehicle_type_id":"4","last_reported":1731161279,"current_range_meters":19600,"station_id":"ce4bhgp2rcd13ifvqfd0","pricing_plan_id":"cebpf4jnsgd1na2vs0mg"},{"bike_id":"ed8c07ca-a872-4518-984b-b1348aa2d3eb","system_id":"levelo_inurba_marseille","lat":43.29023,"lon":5.38141,"is_reserved":false,"is_disabled":false,"rental_uris":{"android":"levelo://app?vid=ed8c07ca-a872-4518-984b-b1348aa2d3eb","ios":"levelo://app?vid=ed8c07ca-a872-4518-984b-b1348aa2d3eb"},"vehicle_type_id":"4","last_reported":1731161279,"current_range_meters":11600,"station_id":"ce4bh4p2rcd13ifvqe1g","pricing_plan_id":"cebpf4jnsgd1na2vs0mg"},{"bike_id":"641bcf54-e133-4c17-a4ab-5916c2acdba1","system_id":"levelo_inurba_marseille","lat":43.31342,"lon":5.36737,"is_reserved":false,"is_disabled":false,"rental_uris":{"android":"levelo://app?vid=641bcf54-e133-4c17-a4ab-5916c2acdba1","ios":"levelo://app?vid=641bcf54-e133-4c17-a4ab-5916c2acdba1"},"vehicle_type_id":"4","last_reported":1731161279,"current_range_meters":38800,"station_id":"ce4bgr92rcd13ifvqc6g","pricing_plan_id":"cebpf4jnsgd1na2vs0mg"},{"bike_id":"92c1c28d-c1db-45c9-9a43-64b04c4125bb","system_id":"levelo_inurba_marseille","lat":43.27565,"lon":5.3842,"is_reserved":false,"is_disabled":false,"rental_uris":{"android":"levelo://app?vid=92c1c28d-c1db-45c9-9a43-64b04c4125bb","ios":"levelo://app?vid=92c1c28d-c1db-45c9-9a43-64b04c4125bb"},"vehicle_type_id":"4","last_reported":1731161279,"current_range_meters":38800,"station_id":"ce4bhh92rcd13ifvqfi0","pricing_plan_id":"cebpf4jnsgd1na2vs0mg"},{"bike_id":"be94c940-c56d-4132-af66-fedb762b3e0f","system_id":"levelo_inurba_marseille","lat":43.23191,"lon":5.35562,"is_reserved":false,"is_disabled":false,"rental_uris":{"android":"levelo://app?vid=be94c940-c56d-4132-af66-fedb762b3e0f","ios":"levelo://app?vid=be94c940-c56d-4132-af66-fedb762b3e0f"},"vehicle_type_id":"4","last_reported":1731161279,"current_range_meters":36800,"station_id":"ce4bhu92rcd13ifvqi70","pricing_plan_id":"cebpf4jnsgd1na2vs0mg"},{"bike_id":"68d7cd72-f6cf-4ac4-9545-9d5302170421","system_id":"levelo_inurba_marseille","lat":43.28863,"lon":5.35861,"is_reserved":false,"is_disabled":false,"rental_uris":{"android":"levelo://app?vid=68d7cd72-f6cf-4ac4-9545-9d5302170421","ios":"levelo://app?vid=68d7cd72-f6cf-4ac4-9545-9d5302170421"},"vehicle_type_id":"4","last_reported":1731161279,"current_range_meters":38400,"station_id":"ce4bhb12rcd13ifvqem0","pricing_plan_id":"cebpf4jnsgd1na2vs0mg"},{"bike_id":"710834b6-dcdd-4260-a60f-81b5b47a7863","system_id":"levelo_inurba_marseille","lat":43.24076,"lon":5.37769,"is_reserved":false,"is_disabled":false,"rental_uris":{"android":"levelo://app?vid=710834b6-dcdd-4260-a60f-81b5b47a7863","ios":"levelo://app?vid=710834b6-dcdd-4260-a60f-81b5b47a7863"},"vehicle_type_id":"4","last_reported":1731161279,"current_range_meters":21600,"station_id":"ce4bhnp2rcd13ifvqgvg","pricing_plan_id":"cebpf4jnsgd1na2vs0mg"},{"bike_id":"458bcab2-92f9-40f9-ac8f-ec6c4b2dfdf0","system_id":"levelo_inurba_marseille","lat":43.243713,"lon":5.370623,"is_reserved":false,"is_disabled":false,"rental_uris":{"android":"levelo://app?vid=458bcab2-92f9-40f9-ac8f-ec6c4b2dfdf0","ios":"levelo://app?vid=458bcab2-92f9-40f9-ac8f-ec6c4b2dfdf0"},"vehicle_type_id":"4","last_reported":1731161279,"current_range_meters":16400,"station_id":"ce4bhhh2rcd13ifvqfk0","pricing_plan_id":"cebpf4jnsgd1na2vs0mg"},{"bike_id":"2e446222-4ce8-40fc-a3a2-8b448957a322","system_id":"levelo_inurba_marseille","lat":43.30538,"lon":5.36549,"is_reserved":false,"is_disabled":false,"rental_uris":{"android":"levelo://app?vid=2e446222-4ce8-40fc-a3a2-8b448957a322","ios":"levelo://app?vid=2e446222-4ce8-40fc-a3a2-8b448957a322"},"vehicle_type_id":"4","last_reported":1731161279,"current_range_meters":38800,"station_id":"ce4bgs12rcd13ifvqcag","pricing_plan_id":"cebpf4jnsgd1na2vs0mg"},{"bike_id":"fd348b13-706e-4ff3-8500-3919757641a0","system_id":"levelo_inurba_marseille","lat":43.29616,"lon":5.3812,"is_reserved":false,"is_disabled":false,"rental_uris":{"android":"levelo://app?vid=fd348b13-706e-4ff3-8500-3919757641a0","ios":"levelo://app?vid=fd348b13-706e-4ff3-8500-3919757641a0"},"vehicle_type_id":"4","last_reported":1731161279,"current_range_meters":25200,"station_id":"ce4bgl12rcd13ifvqbo0","pricing_plan_id":"cebpf4jnsgd1na2vs0mg"},{"bike_id":"3e858ba6-e3fa-4e0e-92fc-adc1b00dee86","system_id":"levelo_inurba_marseille","lat":43.30313,"lon":5.39213,"is_reserved":false,"is_disabled":false,"rental_uris":{"android":"levelo://app?vid=3e858ba6-e3fa-4e0e-92fc-adc1b00dee86","ios":"levelo://app?vid=3e858ba6-e3fa-4e0e-92fc-adc1b00dee86"},"vehicle_type_id":"4","last_reported":1731161279,"current_range_meters":17200,"station_id":"ce4bgkh2rcd13ifvqbk0","pricing_plan_id":"cebpf4jnsgd1na2vs0mg"},{"bike_id":"2b40c41f-9dd1-49d3-8b9c-bb05ff010543","system_id":"levelo_inurba_marseille","lat":43.27209,"lon":5.39188,"is_reserved":false,"is_disabled":false,"rental_uris":{"android":"levelo://app?vid=2b40c41f-9dd1-49d3-8b9c-bb05ff010543","ios":"levelo://app?vid=2b40c41f-9dd1-49d3-8b9c-bb05ff010543"},"vehicle_type_id":"4","last_reported":1731161279,"current_range_meters":38800,"station_id":"ce4bhhp2rcd13ifvqfm0","pricing_plan_id":"cebpf4jnsgd1na2vs0mg"},{"bike_id":"84135bcf-918d-4b03-9327-a561e78a6d1f","system_id":"levelo_inurba_marseille","lat":43.29038,"lon":5.37569,"is_reserved":false,"is_disabled":false,"rental_uris":{"android":"levelo://app?vid=84135bcf-918d-4b03-9327-a561e78a6d1f","ios":"levelo://app?vid=84135bcf-918d-4b03-9327-a561e78a6d1f"},"vehicle_type_id":"4","last_reported":1731161279,"current_range_meters":28800,"station_id":"ce4bh692rcd13ifvqe90","pricing_plan_id":"cebpf4jnsgd1na2vs0mg"},{"bike_id":"42911603-79cc-4bdc-b1af-c2f11553c796","system_id":"levelo_inurba_marseille","lat":43.29727,"lon":5.3769,"is_reserved":false,"is_disabled":false,"rental_uris":{"android":"levelo://app?vid=42911603-79cc-4bdc-b1af-c2f11553c796","ios":"levelo://app?vid=42911603-79cc-4bdc-b1af-c2f11553c796"},"vehicle_type_id":"4","last_reported":1731161279,"current_range_meters":39200,"station_id":"ce4bgkh2rcd13ifvqbl0","pricing_plan_id":"cebpf4jnsgd1na2vs0mg"},{"bike_id":"ad3d9a36-af7c-47b2-bb5a-eaea9d71ec05","system_id":"levelo_inurba_marseille","lat":43.24176,"lon":5.39725,"is_reserved":false,"is_disabled":false,"rental_uris":{"android":"levelo://app?vid=ad3d9a36-af7c-47b2-bb5a-eaea9d71ec05","ios":"levelo://app?vid=ad3d9a36-af7c-47b2-bb5a-eaea9d71ec05"},"vehicle_type_id":"4","last_reported":1731161279,"current_range_meters":27600,"station_id":"ce4bhn12rcd13ifvqgpg","pricing_plan_id":"cebpf4jnsgd1na2vs0mg"},{"bike_id":"17a978ac-569d-41f7-bef1-c99facff84d4","system_id":"levelo_inurba_marseille","lat":43.28717,"lon":5.36074,"is_reserved":false,"is_disabled":false,"rental_uris":{"android":"levelo://app?vid=17a978ac-569d-41f7-bef1-c99facff84d4","ios":"levelo://app?vid=17a978ac-569d-41f7-bef1-c99facff84d4"},"vehicle_type_id":"4","last_reported":1731161279,"current_range_meters":38000,"station_id":"cki0cbj6b192h4jlfktg","pricing_plan_id":"cebpf4jnsgd1na2vs0mg"},{"bike_id":"00bf49d6-ed13-4d37-9010-5df079e1d1f4","system_id":"levelo_inurba_marseille","lat":43.30143,"lon":5.38077,"is_reserved":false,"is_disabled":false,"rental_uris":{"android":"levelo://app?vid=00bf49d6-ed13-4d37-9010-5df079e1d1f4","ios":"levelo://app?vid=00bf49d6-ed13-4d37-9010-5df079e1d1f4"},"vehicle_type_id":"4","last_reported":1731161279,"current_range_meters":36800,"station_id":"ce4bgjp2rcd13ifvqbh0","pricing_plan_id":"cebpf4jnsgd1na2vs0mg"},{"bike_id":"02f3bd69-c440-439f-96d2-1f56246cbb70","system_id":"levelo_inurba_marseille","lat":43.2306,"lon":5.35489,"is_reserved":false,"is_disabled":false,"rental_uris":{"android":"levelo://app?vid=02f3bd69-c440-439f-96d2-1f56246cbb70","ios":"levelo://app?vid=02f3bd69-c440-439f-96d2-1f56246cbb70"},"vehicle_type_id":"4","last_reported":1731161279,"current_range_meters":27600,"station_id":"cpo3342slgdg3j2ifvpg","pricing_plan_id":"cebpf4jnsgd1na2vs0mg"},{"bike_id":"7be60112-f079-4813-8267-7edf586b1d7d","system_id":"levelo_inurba_marseille","lat":43.29372,"lon":5.37857,"is_reserved":false,"is_disabled":false,"rental_uris":{"android":"levelo://app?vid=7be60112-f079-4813-8267-7edf586b1d7d","ios":"levelo://app?vid=7be60112-f079-4813-8267-7edf586b1d7d"},"vehicle_type_id":"4","last_reported":1731161279,"current_range_meters":36800,"station_id":"ce4bgjh2rcd13ifvqbf0","pricing_plan_id":"cebpf4jnsgd1na2vs0mg"},{"bike_id":"a4e75600-1855-4ea2-b151-089cab3b6b2f","system_id":"levelo_inurba_marseille","lat":43.30532,"lon":5.38428,"is_reserved":false,"is_disabled":false,"rental_uris":{"android":"levelo://app?vid=a4e75600-1855-4ea2-b151-089cab3b6b2f","ios":"levelo://app?vid=a4e75600-1855-4ea2-b151-089cab3b6b2f"},"vehicle_type_id":"4","last_reported":1731161279,"current_range_meters":36000,"station_id":"ce4bgg92rcd13ifvqb30","pricing_plan_id":"cebpf4jnsgd1na2vs0mg"},{"bike_id":"5abc852d-f9e5-42be-98e3-5e866cc145a2","system_id":"levelo_inurba_marseille","lat":43.295288,"lon":5.385483,"is_reserved":false,"is_disabled":false,"rental_uris":{"android":"levelo://app?vid=5abc852d-f9e5-42be-98e3-5e866cc145a2","ios":"levelo://app?vid=5abc852d-f9e5-42be-98e3-5e866cc145a2"},"vehicle_type_id":"4","last_reported":1731161279,"current_range_meters":5600,"station_id":"ce4bhnp2rcd13ifvqgvg","pricing_plan_id":"cebpf4jnsgd1na2vs0mg"},{"bike_id":"74faaeec-a0f9-4c84-a535-583c6aecccd1","system_id":"levelo_inurba_marseille","lat":43.24071,"lon":5.37764,"is_reserved":false,"is_disabled":false,"rental_uris":{"android":"levelo://app?vid=74faaeec-a0f9-4c84-a535-583c6aecccd1","ios":"levelo://app?vid=74faaeec-a0f9-4c84-a535-583c6aecccd1"},"vehicle_type_id":"4","last_reported":1731161279,"current_range_meters":11200,"station_id":"ce4bhnp2rcd13ifvqgvg","pricing_plan_id":"cebpf4jnsgd1na2vs0mg"},{"bike_id":"31067b8f-fe7e-42e1-b2c2-e436bf6e9050","system_id":"levelo_inurba_marseille","lat":43.2861,"lon":5.37073,"is_reserved":false,"is_disabled":false,"rental_uris":{"android":"levelo://app?vid=31067b8f-fe7e-42e1-b2c2-e436bf6e9050","ios":"levelo://app?vid=31067b8f-fe7e-42e1-b2c2-e436bf6e9050"},"vehicle_type_id":"4","last_reported":1731161279,"current_range_meters":2000,"station_id":"ce4bht12rcd13ifvqi60","pricing_plan_id":"cebpf4jnsgd1na2vs0mg"},{"bike_id":"6513e010-61f1-48b3-b83a-bc72ba361326","system_id":"levelo_inurba_marseille","lat":43.27205,"lon":5.39187,"is_reserved":false,"is_disabled":false,"rental_uris":{"android":"levelo://app?vid=6513e010-61f1-48b3-b83a-bc72ba361326","ios":"levelo://app?vid=6513e010-61f1-48b3-b83a-bc72ba361326"},"vehicle_type_id":"4","last_reported":1731161279,"current_range_meters":36800,"station_id":"ce4bhhp2rcd13ifvqfm0","pricing_plan_id":"cebpf4jnsgd1na2vs0mg"},{"bike_id":"d70759c1-cec1-4a01-b71c-11405a2ea784","system_id":"levelo_inurba_marseille","lat":43.29183,"lon":5.35799,"is_reserved":false,"is_disabled":false,"rental_uris":{"android":"levelo://app?vid=d70759c1-cec1-4a01-b71c-11405a2ea784","ios":"levelo://app?vid=d70759c1-cec1-4a01-b71c-11405a2ea784"},"vehicle_type_id":"4","last_reported":1731161279,"current_range_meters":38800,"station_id":"ce4bhb12rcd13ifvqel0","pricing_plan_id":"cebpf4jnsgd1na2vs0mg"},{"bike_id":"8a0f65f9-313e-49d8-a854-a17c4b30f274","system_id":"levelo_inurba_marseille","lat":43.30434,"lon":5.3889,"is_reserved":false,"is_disabled":false,"rental_uris":{"android":"levelo://app?vid=8a0f65f9-313e-49d8-a854-a17c4b30f274","ios":"levelo://app?vid=8a0f65f9-313e-49d8-a854-a17c4b30f274"},"vehicle_type_id":"4","last_reported":1731161279,"current_range_meters":19600,"station_id":"ce4bgk12rcd13ifvqbi0","pricing_plan_id":"cebpf4jnsgd1na2vs0mg"},{"bike_id":"75dc5b2f-9ee2-422e-80d6-45d9f3a0c118","system_id":"levelo_inurba_marseille","lat":43.30646,"lon":5.40093,"is_reserved":false,"is_disabled":false,"rental_uris":{"android":"levelo://app?vid=75dc5b2f-9ee2-422e-80d6-45d9f3a0c118","ios":"levelo://app?vid=75dc5b2f-9ee2-422e-80d6-45d9f3a0c118"},"vehicle_type_id":"4","last_reported":1731161279,"current_range_meters":17600,"station_id":"ce4bh112rcd13ifvqda0","pricing_plan_id":"cebpf4jnsgd1na2vs0mg"},{"bike_id":"d3ddac6b-acf6-477b-8daf-ad49aba87662","system_id":"levelo_inurba_marseille","lat":43.27072,"lon":5.42279,"is_reserved":false,"is_disabled":false,"rental_uris":{"android":"levelo://app?vid=d3ddac6b-acf6-477b-8daf-ad49aba87662","ios":"levelo://app?vid=d3ddac6b-acf6-477b-8daf-ad49aba87662"},"vehicle_type_id":"4","last_reported":1731161279,"current_range_meters":25200,"station_id":"ce4bhk92rcd13ifvqgb0","pricing_plan_id":"cebpf4jnsgd1na2vs0mg"},{"bike_id":"ae7ea290-a437-4822-b825-d6c47648cb9d","system_id":"levelo_inurba_marseille","lat":43.302266,"lon":5.369136,"is_reserved":false,"is_disabled":false,"rental_uris":{"android":"levelo://app?vid=ae7ea290-a437-4822-b825-d6c47648cb9d","ios":"levelo://app?vid=ae7ea290-a437-4822-b825-d6c47648cb9d"},"vehicle_type_id":"4","last_reported":1731161279,"current_range_meters":26800,"station_id":"ce4bgk12rcd13ifvqbj0","pricing_plan_id":"cebpf4jnsgd1na2vs0mg"},{"bike_id":"a30775bb-33e3-4425-a80c-7fba1d330054","system_id":"levelo_inurba_marseille","lat":43.29851,"lon":5.36285,"is_reserved":false,"is_disabled":false,"rental_uris":{"android":"levelo://app?vid=a30775bb-33e3-4425-a80c-7fba1d330054","ios":"levelo://app?vid=a30775bb-33e3-4425-a80c-7fba1d330054"},"vehicle_type_id":"4","last_reported":1731161279,"current_range_meters":30400,"station_id":"ce4bgpp2rcd13ifvqc3g","pricing_plan_id":"cebpf4jnsgd1na2vs0mg"},{"bike_id":"b8d522c5-95d0-4c18-be9f-2dac6b3e8804","system_id":"levelo_inurba_marseille","lat":43.29536,"lon":5.3751,"is_reserved":false,"is_disabled":false,"rental_uris":{"android":"levelo://app?vid=b8d522c5-95d0-4c18-be9f-2dac6b3e8804","ios":"levelo://app?vid=b8d522c5-95d0-4c18-be9f-2dac6b3e8804"},"vehicle_type_id":"4","last_reported":1731161279,"current_range_meters":37600,"station_id":"ce4bgkp2rcd13ifvqbmg","pricing_plan_id":"cebpf4jnsgd1na2vs0mg"},{"bike_id":"d2fab2fc-0dfc-4285-8324-8b3977915fe9","system_id":"levelo_inurba_marseille","lat":43.23973,"lon":5.36634,"is_reserved":false,"is_disabled":false,"rental_uris":{"android":"levelo://app?vid=d2fab2fc-0dfc-4285-8324-8b3977915fe9","ios":"levelo://app?vid=d2fab2fc-0dfc-4285-8324-8b3977915fe9"},"vehicle_type_id":"4","last_reported":1731161279,"current_range_meters":20000,"station_id":"ce4bhi12rcd13ifvqfp0","pricing_plan_id":"cebpf4jnsgd1na2vs0mg"},{"bike_id":"5e632782-8dc3-4a9a-8aa9-86e3db5a6689","system_id":"levelo_inurba_marseille","lat":43.30432,"lon":5.3889,"is_reserved":false,"is_disabled":false,"rental_uris":{"android":"levelo://app?vid=5e632782-8dc3-4a9a-8aa9-86e3db5a6689","ios":"levelo://app?vid=5e632782-8dc3-4a9a-8aa9-86e3db5a6689"},"vehicle_type_id":"4","last_reported":1731161279,"current_range_meters":37600,"station_id":"ce4bgk12rcd13ifvqbi0","pricing_plan_id":"cebpf4jnsgd1na2vs0mg"},{"bike_id":"aa9c5834-9a5b-484f-afba-7141737a876b","system_id":"levelo_inurba_marseille","lat":43.24392,"lon":5.37063,"is_reserved":false,"is_disabled":false,"rental_uris":{"android":"levelo://app?vid=aa9c5834-9a5b-484f-afba-7141737a876b","ios":"levelo://app?vid=aa9c5834-9a5b-484f-afba-7141737a876b"},"vehicle_type_id":"4","last_reported":1731161279,"current_range_meters":38400,"station_id":"ce4bhhh2rcd13ifvqfk0","pricing_plan_id":"cebpf4jnsgd1na2vs0mg"},{"bike_id":"63bc1315-8e2f-4c8e-be66-9054a5945e47","system_id":"levelo_inurba_marseille","lat":43.32052,"lon":5.41582,"is_reserved":false,"is_disabled":false,"rental_uris":{"android":"levelo://app?vid=63bc1315-8e2f-4c8e-be66-9054a5945e47","ios":"levelo://app?vid=63bc1315-8e2f-4c8e-be66-9054a5945e47"},"vehicle_type_id":"4","last_reported":1731161279,"current_range_meters":6000,"station_id":"ce4bhq92rcd13ifvqhkg","pricing_plan_id":"cebpf4jnsgd1na2vs0mg"},{"bike_id":"fa2a5e5c-6495-412b-a165-472e0f27db6f","system_id":"levelo_inurba_marseille","lat":43.25499,"lon":5.37653,"is_reserved":false,"is_disabled":false,"rental_uris":{"android":"levelo://app?vid=fa2a5e5c-6495-412b-a165-472e0f27db6f","ios":"levelo://app?vid=fa2a5e5c-6495-412b-a165-472e0f27db6f"},"vehicle_type_id":"4","last_reported":1731161279,"current_range_meters":22400,"station_id":"ce4bhh12rcd13ifvqff0","pricing_plan_id":"cebpf4jnsgd1na2vs0mg"},{"bike_id":"72102d18-76ae-4446-bfc3-54adf7b0e920","system_id":"levelo_inurba_marseille","lat":43.3093,"lon":5.40158,"is_reserved":false,"is_disabled":false,"rental_uris":{"android":"levelo://app?vid=72102d18-76ae-4446-bfc3-54adf7b0e920","ios":"levelo://app?vid=72102d18-76ae-4446-bfc3-54adf7b0e920"},"vehicle_type_id":"4","last_reported":1731161279,"current_range_meters":10000,"station_id":"ce4bgvp2rcd13ifvqct0","pricing_plan_id":"cebpf4jnsgd1na2vs0mg"},{"bike_id":"e2852f52-b1bd-4331-9a82-1175993218a6","system_id":"levelo_inurba_marseille","lat":43.24076,"lon":5.37755,"is_reserved":false,"is_disabled":false,"rental_uris":{"android":"levelo://app?vid=e2852f52-b1bd-4331-9a82-1175993218a6","ios":"levelo://app?vid=e2852f52-b1bd-4331-9a82-1175993218a6"},"vehicle_type_id":"4","last_reported":1731161279,"current_range_meters":17200,"station_id":"ce4bhnp2rcd13ifvqgvg","pricing_plan_id":"cebpf4jnsgd1na2vs0mg"},{"bike_id":"eff8a7cf-cbdb-4a48-80d4-c654d2cc37e8","system_id":"levelo_inurba_marseille","lat":43.3059,"lon":5.39362,"is_reserved":false,"is_disabled":false,"rental_uris":{"android":"levelo://app?vid=eff8a7cf-cbdb-4a48-80d4-c654d2cc37e8","ios":"levelo://app?vid=eff8a7cf-cbdb-4a48-80d4-c654d2cc37e8"},