{"last_updated":1685311529,"ttl":30,"version":"2.2","data":{"bikes":[{"bike_id":"40e0beca-8ccd-468f-a1a0-d1ca79dd5a21","system_id":"levelo_inurba_marseille","lat":43.312239,"lon":5.368562,"is_reserved":false,"is_disabled":false,"rental_uris":{"android":"levelo://app?vid=40e0beca-8ccd-468f-a1a0-d1ca79dd5a21","ios":"levelo://app?vid=40e0beca-8ccd-468f-a1a0-d1ca79dd5a21"},"vehicle_type_id":"4","last_reported":1685311529,"current_range_meters":6400,"station_id":"ce4bgl92rcd13ifvqbq0","pricing_plan_id":"free"},{"bike_id":"1ddad856-9f35-4ff7-b51f-4db2c0bddc93","system_id":"levelo_inurba_marseille","lat":43.312239,"lon":5.368562,"is_reserved":false,"is_disabled":false,"rental_uris":{"android":"levelo://app?vid=1ddad856-9f35-4ff7-b51f-4db2c0bddc93","ios":"levelo://app?vid=1ddad856-9f35-4ff7-b51f-4db2c0bddc93"},"vehicle_type_id":"4","last_reported":1685311529,"current_range_meters":26000,"station_id":"ce4bgl92rcd13ifvqbq0","pricing_plan_id":"free"},{"bike_id":"3f584a0c-a8f5-4160-a580-20eead6f45f9","system_id":"levelo_inurba_marseille","lat":43.30893,"lon":5.37191,"is_reserved":false,"is_disabled":false,"rental_uris":{"android":"levelo://app?vid=3f584a0c-a8f5-4160-a580-20eead6f45f9","ios":"levelo://app?vid=3f584a0c-a8f5-4160-a580-20eead6f45f9"},"vehicle_type_id":"4","last_reported":1685311529,"current_range_meters":31200,"station_id":"ce4bguh2rcd13ifvqckg","pricing_plan_id":"free"},{"bike_id":"09ff56ca-723c-4b20-af2f-491b6f1b8a24","system_id":"levelo_inurba_marseille","lat":43.30889,"lon":5.37188,"is_reserved":false,"is_disabled":false,"rental_uris":{"android":"levelo://app?vid=09ff56ca-723c-4b20-af2f-491b6f1b8a24","ios":"levelo://app?vid=09ff56ca-723c-4b20-af2f-491b6f1b8a24"},"vehicle_type_id":"4","last_reported":1685311529,"current_range_meters":30000,"station_id":"","pricing_plan_id":"free"},{"bike_id":"96ba65e2-2e82-4e19-90c3-74496ba0eede","system_id":"levelo_inurba_marseille","lat":43.30889,"lon":5.37192,"is_reserved":false,"is_disabled":false,"rental_uris":{"android":"levelo://app?vid=96ba65e2-2e82-4e19-90c3-74496ba0eede","ios":"levelo://app?vid=96ba65e2-2e82-4e19-90c3-74496ba0eede"},"vehicle_type_id":"4","last_reported":1685311529,"current_range_meters":28800,"station_id":"","pricing_plan_id":"free"},{"bike_id":"fe083984-66d9-4fd8-8d74-954deb5dbb65","system_id":"levelo_inurba_marseille","lat":43.30885,"lon":5.37198,"is_reserved":false,"is_disabled":false,"rental_uris":{"android":"levelo://app?vid=fe083984-66d9-4fd8-8d74-954deb5dbb65","ios":"levelo://app?vid=fe083984-66d9-4fd8-8d74-954deb5dbb65"},"vehicle_type_id":"4","last_reported":1685311529,"current_range_meters":25200,"station_id":"","pricing_plan_id":"free"},{"bike_id":"3c51afbe-6ccc-439e-ba50-0acb9a18d59b","system_id":"levelo_inurba_marseille","lat":43.317075,"lon":5.377367,"is_reserved":false,"is_disabled":false,"rental_uris":{"android":"levelo://app?vid=3c51afbe-6ccc-439e-ba50-0acb9a18d59b","ios":"levelo://app?vid=3c51afbe-6ccc-439e-ba50-0acb9a18d59b"},"vehicle_type_id":"4","last_reported":1685311529,"current_range_meters":3600,"station_id":"ce4bgth2rcd13ifvqch0","pricing_plan_id":"free"},{"bike_id":"c62862f2-d5d7-4a7f-a0d6-0782f5642e89","system_id":"levelo_inurba_marseille","lat":43.303046,"lon":5.368981,"is_reserved":false,"is_disabled":false,"rental_uris":{"android":"levelo://app?vid=c62862f2-d5d7-4a7f-a0d6-0782f5642e89","ios":"levelo://app?vid=c62862f2-d5d7-4a7f-a0d6-0782f5642e89"},"vehicle_type_id":"4","last_reported":1685311529,"current_range_meters":30800,"station_id":"ce4bgqh2rcd13ifvqc5g","pricing_plan_id":"free"},{"bike_id":"f9c6be89-4427-465a-aec3-401a3c18d01d","system_id":"levelo_inurba_marseille","lat":43.303046,"lon":5.368981,"is_reserved":false,"is_disabled":false,"rental_uris":{"android":"levelo://app?vid=f9c6be89-4427-465a-aec3-401a3c18d01d","ios":"levelo://app?vid=f9c6be89-4427-465a-aec3-401a3c18d01d"},"vehicle_type_id":"4","last_reported":1685311529,"current_range_meters":0,"station_id":"ce4bgqh2rcd13ifvqc5g","pricing_plan_id":"free"},{"bike_id":"1642b0f9-b3f4-4024-a08a-40b3efbfc983","system_id":"levelo_inurba_marseille","lat":43.303046,"lon":5.368981,"is_reserved":false,"is_disabled":false,"rental_uris":{"android":"levelo://app?vid=1642b0f9-b3f4-4024-a08a-40b3efbfc983","ios":"levelo://app?vid=1642b0f9-b3f4-4024-a08a-40b3efbfc983"},"vehicle_type_id":"4","last_reported":1685311529,"current_range_meters":0,"station_id":"ce4bgqh2rcd13ifvqc5g","pricing_plan_id":"free"},{"bike_id":"9a7d1a88-7bc5-4bee-a909-7b1c07088442","system_id":"levelo_inurba_marseille","lat":43.315293,"lon":5.380349,"is_reserved":false,"is_disabled":false,"rental_uris":{"android":"levelo://app?vid=9a7d1a88-7bc5-4bee-a909-7b1c07088442","ios":"levelo://app?vid=9a7d1a88-7bc5-4bee-a909-7b1c07088442"},"vehicle_type_id":"4","last_reported":1685311529,"current_range_meters":26800,"station_id":"ce4bhsp2rcd13ifvqi50","pricing_plan_id":"free"},{"bike_id":"15fb9ac7-321f-485a-8ff5-0325453eec9b","system_id":"levelo_inurba_marseille","lat":43.301939,"lon":5.366286,"is_reserved":false,"is_disabled":false,"rental_uris":{"android":"levelo://app?vid=15fb9ac7-321f-485a-8ff5-0325453eec9b","ios":"levelo://app?vid=15fb9ac7-321f-485a-8ff5-0325453eec9b"},"vehicle_type_id":"4","last_reported":1685311529,"current_range_meters":1200,"station_id":"ce4bgrh2rcd13ifvqc8g","pricing_plan_id":"free"},{"bike_id":"6f68069f-c291-4250-a273-b7294bcfc53e","system_id":"levelo_inurba_marseille","lat":43.301939,"lon":5.366286,"is_reserved":false,"is_disabled":false,"rental_uris":{"android":"levelo://app?vid=6f68069f-c291-4250-a273-b7294bcfc53e","ios":"levelo://app?vid=6f68069f-c291-4250-a273-b7294bcfc53e"},"vehicle_type_id":"4","last_reported":1685311529,"current_range_meters":29600,"station_id":"ce4bgrh2rcd13ifvqc8g","pricing_plan_id":"free"},{"bike_id":"e7bb7172-6450-443c-ac7a-1c9f6d08a904","system_id":"levelo_inurba_marseille","lat":43.308012,"lon":5.381511,"is_reserved":false,"is_disabled":false,"rental_uris":{"android":"levelo://app?vid=e7bb7172-6450-443c-ac7a-1c9f6d08a904","ios":"levelo://app?vid=e7bb7172-6450-443c-ac7a-1c9f6d08a904"},"vehicle_type_id":"4","last_reported":1685311529,"current_range_meters":25600,"station_id":"ce4bgt12rcd13ifvqce0","pricing_plan_id":"free"},{"bike_id":"06193faf-9b70-44e9-bc78-e8654b59e835","system_id":"levelo_inurba_marseille","lat":43.313571,"lon":5.384829,"is_reserved":false,"is_disabled":false,"rental_uris":{"android":"levelo://app?vid=06193faf-9b70-44e9-bc78-e8654b59e835","ios":"levelo://app?vid=06193faf-9b70-44e9-bc78-e8654b59e835"},"vehicle_type_id":"4","last_reported":1685311529,"current_range_meters":19200,"station_id":"ce4bgt92rcd13ifvqcf0","pricing_plan_id":"free"},{"bike_id":"1431ceea-e6b2-4aee-8e38-ba96e4e7d2d2","system_id":"levelo_inurba_marseille","lat":43.313571,"lon":5.384829,"is_reserved":false,"is_disabled":false,"rental_uris":{"android":"levelo://app?vid=1431ceea-e6b2-4aee-8e38-ba96e4e7d2d2","ios":"levelo://app?vid=1431ceea-e6b2-4aee-8e38-ba96e4e7d2d2"},"vehicle_type_id":"4","last_reported":1685311529,"current_range_meters":22000,"station_id":"ce4bgt92rcd13ifvqcf0","pricing_plan_id":"free"},{"bike_id":"7d231273-0a3d-49bb-8de4-857d78771fc5","system_id":"levelo_inurba_marseille","lat":43.298433,"lon":5.362774,"is_reserved":false,"is_disabled":false,"rental_uris":{"android":"levelo://app?vid=7d231273-0a3d-49bb-8de4-857d78771fc5","ios":"levelo://app?vid=7d231273-0a3d-49bb-8de4-857d78771fc5"},"vehicle_type_id":"4","last_reported":1685311529,"current_range_meters":0,"station_id":"ce4bgpp2rcd13ifvqc3g","pricing_plan_id":"free"},{"bike_id":"7e1b2674-ff19-488d-b513-4f5319a69c29","system_id":"levelo_inurba_marseille","lat":43.29847,"lon":5.36273,"is_reserved":false,"is_disabled":false,"rental_uris":{"android":"levelo://app?vid=7e1b2674-ff19-488d-b513-4f5319a69c29","ios":"levelo://app?vid=7e1b2674-ff19-488d-b513-4f5319a69c29"},"vehicle_type_id":"4","last_reported":1685311529,"current_range_meters":2800,"station_id":"ce4bgpp2rcd13ifvqc3g","pricing_plan_id":"free"},{"bike_id":"28ccaf63-2c20-4f48-af81-c1890d5e1e7e","system_id":"levelo_inurba_marseille","lat":43.31178,"lon":5.38706,"is_reserved":false,"is_disabled":false,"rental_uris":{"android":"levelo://app?vid=28ccaf63-2c20-4f48-af81-c1890d5e1e7e","ios":"levelo://app?vid=28ccaf63-2c20-4f48-af81-c1890d5e1e7e"},"vehicle_type_id":"4","last_reported":1685311529,"current_range_meters":26400,"station_id":"ce4bgv12rcd13ifvqcp0","pricing_plan_id":"free"},{"bike_id":"1b064916-ce14-4dd7-8822-0096c3687352","system_id":"levelo_inurba_marseille","lat":43.31184,"lon":5.38712,"is_reserved":false,"is_disabled":false,"rental_uris":{"android":"levelo://app?vid=1b064916-ce14-4dd7-8822-0096c3687352","ios":"levelo://app?vid=1b064916-ce14-4dd7-8822-0096c3687352"},"vehicle_type_id":"4","last_reported":1685311529,"current_range_meters":2800,"station_id":"ce4bgv12rcd13ifvqcp0","pricing_plan_id":"free"},{"bike_id":"c125d695-a76c-428d-9101-a9ed0c6a413d","system_id":"levelo_inurba_marseille","lat":43.311722,"lon":5.387247,"is_reserved":false,"is_disabled":false,"rental_uris":{"android":"levelo://app?vid=c125d695-a76c-428d-9101-a9ed0c6a413d","ios":"levelo://app?vid=c125d695-a76c-428d-9101-a9ed0c6a413d"},"vehicle_type_id":"4","last_reported":1685311529,"current_range_meters":8800,"station_id":"ce4bgv12rcd13ifvqcp0","pricing_plan_id":"free"},{"bike_id":"4812c69f-302d-4ea2-9af7-4b5e469750c8","system_id":"levelo_inurba_marseille","lat":43.311722,"lon":5.387247,"is_reserved":false,"is_disabled":false,"rental_uris":{"android":"levelo://app?vid=4812c69f-302d-4ea2-9af7-4b5e469750c8","ios":"levelo://app?vid=4812c69f-302d-4ea2-9af7-4b5e469750c8"},"vehicle_type_id":"4","last_reported":1685311529,"current_range_meters":12000,"station_id":"ce4bgv12rcd13ifvqcp0","pricing_plan_id":"free"},{"bike_id":"51cf0176-0c97-4194-a204-3ce503c7086d","system_id":"levelo_inurba_marseille","lat":43.311722,"lon":5.387247,"is_reserved":false,"is_disabled":false,"rental_uris":{"android":"levelo://app?vid=51cf0176-0c97-4194-a204-3ce503c7086d","ios":"levelo://app?vid=51cf0176-0c97-4194-a204-3ce503c7086d"},"vehicle_type_id":"4","last_reported":1685311529,"current_range_meters":5200,"station_id":"ce4bgv12rcd13ifvqcp0","pricing_plan_id":"free"},{"bike_id":"2f6c2caf-d87c-4590-88a2-8c511b31b265","system_id":"levelo_inurba_marseille","lat":43.311722,"lon":5.387247,"is_reserved":false,"is_disabled":false,"rental_uris":{"android":"levelo://app?vid=2f6c2caf-d87c-4590-88a2-8c511b31b265","ios":"levelo://app?vid=2f6c2caf-d87c-4590-88a2-8c511b31b265"},"vehicle_type_id":"4","last_reported":1685311529,"current_range_meters":13200,"station_id":"ce4bgv12rcd13ifvqcp0","pricing_plan_id":"free"},{"bike_id":"5895156f-f83a-4b54-a0b5-57f02c18ef1a","system_id":"levelo_inurba_marseille","lat":43.328371,"lon":5.366912,"is_reserved":false,"is_disabled":false,"rental_uris":{"android":"levelo://app?vid=5895156f-f83a-4b54-a0b5-57f02c18ef1a","ios":"levelo://app?vid=5895156f-f83a-4b54-a0b5-57f02c18ef1a"},"vehicle_type_id":"4","last_reported":1685311529,"current_range_meters":24800,"station_id":"ce4bhs92rcd13ifvqi0g","pricing_plan_id":"free"},{"bike_id":"55407799-0793-447b-83c5-15b20315a123","system_id":"levelo_inurba_marseille","lat":43.299028,"lon":5.381509,"is_reserved":false,"is_disabled":false,"rental_uris":{"android":"levelo://app?vid=55407799-0793-447b-83c5-15b20315a123","ios":"levelo://app?vid=55407799-0793-447b-83c5-15b20315a123"},"vehicle_type_id":"4","last_reported":1685311529,"current_range_meters":23600,"station_id":"ce4bgj12rcd13ifvqbc0","pricing_plan_id":"free"},{"bike_id":"beb86c5e-1dc5-4682-abdb-b4f46716c4d0","system_id":"levelo_inurba_marseille","lat":43.30952,"lon":5.39031,"is_reserved":false,"is_disabled":false,"rental_uris":{"android":"levelo://app?vid=beb86c5e-1dc5-4682-abdb-b4f46716c4d0","ios":"levelo://app?vid=beb86c5e-1dc5-4682-abdb-b4f46716c4d0"},"vehicle_type_id":"4","last_reported":1685311529,"current_range_meters":20800,"station_id":"ce4bgup2rcd13ifvqco0","pricing_plan_id":"free"},{"bike_id":"0447ab89-89d6-4711-add1-02b7138d99e6","system_id":"levelo_inurba_marseille","lat":43.30958,"lon":5.39033,"is_reserved":false,"is_disabled":false,"rental_uris":{"android":"levelo://app?vid=0447ab89-89d6-4711-add1-02b7138d99e6","ios":"levelo://app?vid=0447ab89-89d6-4711-add1-02b7138d99e6"},"vehicle_type_id":"4","last_reported":1685311529,"current_range_meters":31200,"station_id":"ce4bgup2rcd13ifvqco0","pricing_plan_id":"free"},{"bike_id":"dd063ab0-6555-4bdb-b947-865d4ee7748f","system_id":"levelo_inurba_marseille","lat":43.299028,"lon":5.381509,"is_reserved":false,"is_disabled":false,"rental_uris":{"android":"levelo://app?vid=dd063ab0-6555-4bdb-b947-865d4ee7748f","ios":"levelo://app?vid=dd063ab0-6555-4bdb-b947-865d4ee7748f"},"vehicle_type_id":"4","last_reported":1685311529,"current_range_meters":27200,"station_id":"ce4bgj12rcd13ifvqbc0","pricing_plan_id":"free"},{"bike_id":"caa867ce-8b87-4cc8-a83e-b5c43244c633","system_id":"levelo_inurba_marseille","lat":43.309589,"lon":5.390258,"is_reserved":false,"is_disabled":false,"rental_uris":{"android":"levelo://app?vid=caa867ce-8b87-4cc8-a83e-b5c43244c633","ios":"levelo://app?vid=caa867ce-8b87-4cc8-a83e-b5c43244c633"},"vehicle_type_id":"4","last_reported":1685311529,"current_range_meters":23200,"station_id":"ce4bgup2rcd13ifvqco0","pricing_plan_id":"free"},{"bike_id":"ffc2ecaf-eaa6-457e-aab8-cc2733ed9ab7","system_id":"levelo_inurba_marseille","lat":43.309589,"lon":5.390258,"is_reserved":false,"is_disabled":false,"rental_uris":{"android":"levelo://app?vid=ffc2ecaf-eaa6-457e-aab8-cc2733ed9ab7","ios":"levelo://app?vid=ffc2ecaf-eaa6-457e-aab8-cc2733ed9ab7"},"vehicle_type_id":"4","last_reported":1685311529,"current_range_meters":22000,"station_id":"ce4bgup2rcd13ifvqco0","pricing_plan_id":"free"},{"bike_id":"857d19d3-1ad1-4abd-a723-e560f557aaef","system_id":"levelo_inurba_marseille","lat":43.317557,"lon":5.390173,"is_reserved":false,"is_disabled":false,"rental_uris":{"android":"levelo://app?vid=857d19d3-1ad1-4abd-a723-e560f557aaef","ios":"levelo://app?vid=857d19d3-1ad1-4abd-a723-e560f557aaef"},"vehicle_type_id":"4","last_reported":1685311529,"current_range_meters":6800,"station_id":"ce4bhqp2rcd13ifvqhng","pricing_plan_id":"free"},{"bike_id":"13405fcc-c8cc-467d-b24a-316b0d27b570","system_id":"levelo_inurba_marseille","lat":43.31761,"lon":5.3902,"is_reserved":false,"is_disabled":false,"rental_uris":{"android":"levelo://app?vid=13405fcc-c8cc-467d-b24a-316b0d27b570","ios":"levelo://app?vid=13405fcc-c8cc-467d-b24a-316b0d27b570"},"vehicle_type_id":"4","last_reported":1685311529,"current_range_meters":0,"station_id":"ce4bhqp2rcd13ifvqhng","pricing_plan_id":"free"},{"bike_id":"e9c1edbf-17bd-4d7f-925e-74dc386058b7","system_id":"levelo_inurba_marseille","lat":43.295748,"lon":5.37522,"is_reserved":false,"is_disabled":false,"rental_uris":{"android":"levelo://app?vid=e9c1edbf-17bd-4d7f-925e-74dc386058b7","ios":"levelo://app?vid=e9c1edbf-17bd-4d7f-925e-74dc386058b7"},"vehicle_type_id":"4","last_reported":1685311529,"current_range_meters":31200,"station_id":"ce4bgh92rcd13ifvqb50","pricing_plan_id":"free"},{"bike_id":"7eb1d300-bdb2-4187-bfab-9052f9de09f9","system_id":"levelo_inurba_marseille","lat":43.295748,"lon":5.37522,"is_reserved":false,"is_disabled":false,"rental_uris":{"android":"levelo://app?vid=7eb1d300-bdb2-4187-bfab-9052f9de09f9","ios":"levelo://app?vid=7eb1d300-bdb2-4187-bfab-9052f9de09f9"},"vehicle_type_id":"4","last_reported":1685311529,"current_range_meters":24800,"station_id":"ce4bgh92rcd13ifvqb50","pricing_plan_id":"free"},{"bike_id":"4fa9a478-099b-4dbe-9e54-1390d21beb2b","system_id":"levelo_inurba_marseille","lat":43.3043,"lon":5.38896,"is_reserved":false,"is_disabled":false,"rental_uris":{"android":"levelo://app?vid=4fa9a478-099b-4dbe-9e54-1390d21beb2b","ios":"levelo://app?vid=4fa9a478-099b-4dbe-9e54-1390d21beb2b"},"vehicle_type_id":"4","last_reported":1685311529,"current_range_meters":0,"station_id":"ce4bgk12rcd13ifvqbi0","pricing_plan_id":"free"},{"bike_id":"6f5c8a62-3385-406d-9b08-96ba929864cc","system_id":"levelo_inurba_marseille","lat":43.304395,"lon":5.389119,"is_reserved":false,"is_disabled":false,"rental_uris":{"android":"levelo://app?vid=6f5c8a62-3385-406d-9b08-96ba929864cc","ios":"levelo://app?vid=6f5c8a62-3385-406d-9b08-96ba929864cc"},"vehicle_type_id":"4","last_reported":1685311529,"current_range_meters":800,"station_id":"ce4bgk12rcd13ifvqbi0","pricing_plan_id":"free"},{"bike_id":"0b99f637-3f31-4af2-83ed-49bab2b8c10e","system_id":"levelo_inurba_marseille","lat":43.295279,"lon":5.375048,"is_reserved":false,"is_disabled":false,"rental_uris":{"android":"levelo://app?vid=0b99f637-3f31-4af2-83ed-49bab2b8c10e","ios":"levelo://app?vid=0b99f637-3f31-4af2-83ed-49bab2b8c10e"},"vehicle_type_id":"4","last_reported":1685311529,"current_range_meters":0,"station_id":"ce4bgkp2rcd13ifvqbmg","pricing_plan_id":"free"},{"bike_id":"df30dba7-0c34-4c6c-8c42-22e2e76dd8f1","system_id":"levelo_inurba_marseille","lat":43.295279,"lon":5.375048,"is_reserved":false,"is_disabled":false,"rental_uris":{"android":"levelo://app?vid=df30dba7-0c34-4c6c-8c42-22e2e76dd8f1","ios":"levelo://app?vid=df30dba7-0c34-4c6c-8c42-22e2e76dd8f1"},"vehicle_type_id":"4","last_reported":1685311529,"current_range_meters":0,"station_id":"ce4bgkp2rcd13ifvqbmg","pricing_plan_id":"free"},{"bike_id":"ddfffe7f-ecf3-4188-879b-1dc09c6ec0d1","system_id":"levelo_inurba_marseille","lat":43.32367,"lon":5.388836,"is_reserved":false,"is_disabled":false,"rental_uris":{"android":"levelo://app?vid=ddfffe7f-ecf3-4188-879b-1dc09c6ec0d1","ios":"levelo://app?vid=ddfffe7f-ecf3-4188-879b-1dc09c6ec0d1"},"vehicle_type_id":"4","last_reported":1685311529,"current_range_meters":14400,"station_id":"ce4bhqp2rcd13ifvqhog","pricing_plan_id":"free"},{"bike_id":"1ddcc1e3-064a-45fe-8548-c3fa9200518e","system_id":"levelo_inurba_marseille","lat":43.29404,"lon":5.3772,"is_reserved":false,"is_disabled":false,"rental_uris":{"android":"levelo://app?vid=1ddcc1e3-064a-45fe-8548-c3fa9200518e","ios":"levelo://app?vid=1ddcc1e3-064a-45fe-8548-c3fa9200518e"},"vehicle_type_id":"4","last_reported":1685311529,"current_range_meters":0,"station_id":"","pricing_plan_id":"free"},{"bike_id":"2628bc6b-4d15-4fed-adc0-829c4af8f3bc","system_id":"levelo_inurba_marseille","lat":43.29332,"lon":5.37459,"is_reserved":false,"is_disabled":false,"rental_uris":{"android":"levelo://app?vid=2628bc6b-4d15-4fed-adc0-829c4af8f3bc","ios":"levelo://app?vid=2628bc6b-4d15-4fed-adc0-829c4af8f3bc"},"vehicle_type_id":"4","last_reported":1685311529,"current_range_meters":0,"station_id":"","pricing_plan_id":"free"},{"bike_id":"90fed9d2-b191-4217-a442-d844bdf45ce4","system_id":"levelo_inurba_marseille","lat":43.305994,"lon":5.393687,"is_reserved":false,"is_disabled":false,"rental_uris":{"android":"levelo://app?vid=90fed9d2-b191-4217-a442-d844bdf45ce4","ios":"levelo://app?vid=90fed9d2-b191-4217-a442-d844bdf45ce4"},"vehicle_type_id":"4","last_reported":1685311529,"current_range_meters":0,"station_id":"ce4bh0p2rcd13ifvqd80","pricing_plan_id":"free"},{"bike_id":"1eeb1383-d329-49ea-89c2-2de14b02c36c","system_id":"levelo_inurba_marseille","lat":43.298764,"lon":5.388973,"is_reserved":false,"is_disabled":false,"rental_uris":{"android":"levelo://app?vid=1eeb1383-d329-49ea-89c2-2de14b02c36c","ios":"levelo://app?vid=1eeb1383-d329-49ea-89c2-2de14b02c36c"},"vehicle_type_id":"4","last_reported":1685311529,"current_range_meters":0,"station_id":"ce4bh392rcd13ifvqdl0","pricing_plan_id":"free"},{"bike_id":"bfadac5a-9815-42c2-9304-b8440150b98e","system_id":"levelo_inurba_marseille","lat":43.298764,"lon":5.388973,"is_reserved":false,"is_disabled":false,"rental_uris":{"android":"levelo://app?vid=bfadac5a-9815-42c2-9304-b8440150b98e","ios":"levelo://app?vid=bfadac5a-9815-42c2-9304-b8440150b98e"},"vehicle_type_id":"4","last_reported":1685311529,"current_range_meters":27200,"station_id":"ce4bh392rcd13ifvqdl0","pricing_plan_id":"free"},{"bike_id":"663d8b28-2908-4448-95e1-c287dbd355e7","system_id":"levelo_inurba_marseille","lat":43.309038,"lon":5.396546,"is_reserved":false,"is_disabled":false,"rental_uris":{"android":"levelo://app?vid=663d8b28-2908-4448-95e1-c287dbd355e7","ios":"levelo://app?vid=663d8b28-2908-4448-95e1-c287dbd355e7"},"vehicle_type_id":"4","last_reported":1685311529,"current_range_meters":5600,"station_id":"ce4bh012rcd13ifvqcv0","pricing_plan_id":"free"},{"bike_id":"ad27dbb9-6a06-425e-931a-974a7f93a3a8","system_id":"levelo_inurba_marseille","lat":43.309038,"lon":5.396546,"is_reserved":false,"is_disabled":false,"rental_uris":{"android":"levelo://app?vid=ad27dbb9-6a06-425e-931a-974a7f93a3a8","ios":"levelo://app?vid=ad27dbb9-6a06-425e-931a-974a7f93a3a8"},"vehicle_type_id":"4","last_reported":1685311529,"current_range_meters":26800,"station_id":"ce4bh012rcd13ifvqcv0","pricing_plan_id":"free"},{"bike_id":"6fd650f0-fe5d-4ee1-a2a0-d388bfaad106","system_id":"levelo_inurba_marseille","lat":43.309038,"lon":5.396546,"is_reserved":false,"is_disabled":false,"rental_uris":{"android":"levelo://app?vid=6fd650f0-fe5d-4ee1-a2a0-d388bfaad106","ios":"levelo://app?vid=6fd650f0-fe5d-4ee1-a2a0-d388bfaad106"},"vehicle_type_id":"4","last_reported":1685311529,"current_range_meters":0,"station_id":"ce4bh012rcd13ifvqcv0","pricing_plan_id":"free"},{"bike_id":"0618f3df-54aa-4ea3-af68-4bd16d61e272","system_id":"levelo_inurba_marseille","lat":43.29529,"lon":5.385581,"is_reserved":false,"is_disabled":false,"rental_uris":{"android":"levelo://app?vid=0618f3df-54aa-4ea3-af68-4bd16d61e272","ios":"levelo://app?vid=0618f3df-54aa-4ea3-af68-4bd16d61e272"},"vehicle_type_id":"4","last_reported":1685311529,"current_range_meters":0,"station_id":"ce4bgih2rcd13ifvqba0","pricing_plan_id":"free"},{"bike_id":"da150a22-ace0-4237-b6b5-0d3f3e15f103","system_id":"levelo_inurba_marseille","lat":43.289184,"lon":5.366408,"is_reserved":false,"is_disabled":false,"rental_uris":{"android":"levelo://app?vid=da150a22-ace0-4237-b6b5-0d3f3e15f103","ios":"levelo://app?vid=da150a22-ace0-4237-b6b5-0d3f3e15f103"},"vehicle_type_id":"4","last_reported":1685311529,"current_range_meters":26400,"station_id":"ce4bhap2rcd13ifvqek0","pricing_plan_id":"free"},{"bike_id":"0413e040-53e1-4639-8c96-44f74393cfda","system_id":"levelo_inurba_marseille","lat":43.294162,"lon":5.386292,"is_reserved":false,"is_disabled":false,"rental_uris":{"android":"levelo://app?vid=0413e040-53e1-4639-8c96-44f74393cfda","ios":"levelo://app?vid=0413e040-53e1-4639-8c96-44f74393cfda"},"vehicle_type_id":"4","last_reported":1685311529,"current_range_meters":15200,"station_id":"ce4bh2h2rcd13ifvqdh0","pricing_plan_id":"free"},{"bike_id":"257533bf-2c82-49f5-b63e-45debb502df0","system_id":"levelo_inurba_marseille","lat":43.294162,"lon":5.386292,"is_reserved":false,"is_disabled":false,"rental_uris":{"android":"levelo://app?vid=257533bf-2c82-49f5-b63e-45debb502df0","ios":"levelo://app?vid=257533bf-2c82-49f5-b63e-45debb502df0"},"vehicle_type_id":"4","last_reported":1685311529,"current_range_meters":0,"station_id":"ce4bh2h2rcd13ifvqdh0","pricing_plan_id":"free"},{"bike_id":"c974b1f1-fa6d-4a76-9925-e9e40b57299f","system_id":"levelo_inurba_marseille","lat":43.289468,"lon":5.363719,"is_reserved":false,"is_disabled":false,"rental_uris":{"android":"levelo://app?vid=c974b1f1-fa6d-4a76-9925-e9e40b57299f","ios":"levelo://app?vid=c974b1f1-fa6d-4a76-9925-e9e40b57299f"},"vehicle_type_id":"4","last_reported":1685311529,"current_range_meters":30000,"station_id":"ce4bhc92rcd13ifvqetg","pricing_plan_id":"free"},{"bike_id":"ee02176e-ee34-433e-b2e2-a156d3f76dd8","system_id":"levelo_inurba_marseille","lat":43.289184,"lon":5.366408,"is_reserved":false,"is_disabled":false,"rental_uris":{"android":"levelo://app?vid=ee02176e-ee34-433e-b2e2-a156d3f76dd8","ios":"levelo://app?vid=ee02176e-ee34-433e-b2e2-a156d3f76dd8"},"vehicle_type_id":"4","last_reported":1685311529,"current_range_meters":26000,"station_id":"ce4bhap2rcd13ifvqek0","pricing_plan_id":"free"},{"bike_id":"39184026-67dc-4e2f-b2b7-1382659b3821","system_id":"levelo_inurba_marseille","lat":43.290104,"lon":5.356111,"is_reserved":false,"is_disabled":false,"rental_uris":{"android":"levelo://app?vid=39184026-67dc-4e2f-b2b7-1382659b3821","ios":"levelo://app?vid=39184026-67dc-4e2f-b2b7-1382659b3821"},"vehicle_type_id":"4","last_reported":1685311529,"current_range_meters":8800,"station_id":"ce4bhb92rcd13ifvqen0","pricing_plan_id":"free"},{"bike_id":"c271fa48-7a89-43b8-ba5b-bd269bf06dae","system_id":"levelo_inurba_marseille","lat":43.290104,"lon":5.356111,"is_reserved":false,"is_disabled":false,"rental_uris":{"android":"levelo://app?vid=c271fa48-7a89-43b8-ba5b-bd269bf06dae","ios":"levelo://app?vid=c271fa48-7a89-43b8-ba5b-bd269bf06dae"},"vehicle_type_id":"4","last_reported":1685311529,"current_range_meters":0,"station_id":"ce4bhb92rcd13ifvqen0","pricing_plan_id":"free"},{"bike_id":"c4b4ae29-e875-4e38-be03-1d83e0ed5efa","system_id":"levelo_inurba_marseille","lat":43.29788,"lon":5.39346,"is_reserved":false,"is_disabled":false,"rental_uris":{"android":"levelo://app?vid=c4b4ae29-e875-4e38-be03-1d83e0ed5efa","ios":"levelo://app?vid=c4b4ae29-e875-4e38-be03-1d83e0ed5efa"},"vehicle_type_id":"4","last_reported":1685311529,"current_range_meters":0,"station_id":"chh1huq6cuj3fo74tm60","pricing_plan_id":"free"},{"bike_id":"8e2777b2-d8ff-49cd-8ec3-e99209dbdb6c","system_id":"levelo_inurba_marseille","lat":43.297814,"lon":5.393513,"is_reserved":false,"is_disabled":false,"rental_uris":{"android":"levelo://app?vid=8e2777b2-d8ff-49cd-8ec3-e99209dbdb6c","ios":"levelo://app?vid=8e2777b2-d8ff-49cd-8ec3-e99209dbdb6c"},"vehicle_type_id":"4","last_reported":1685311529,"current_range_meters":0,"station_id":"chh1huq6cuj3fo74tm60","pricing_plan_id":"free"},{"bike_id":"46f78a8d-9acf-41ce-ada3-9d145d87b9d0","system_id":"levelo_inurba_marseille","lat":43.2901,"lon":5.381269,"is_reserved":false,"is_disabled":false,"rental_uris":{"android":"levelo://app?vid=46f78a8d-9acf-41ce-ada3-9d145d87b9d0","ios":"levelo://app?vid=46f78a8d-9acf-41ce-ada3-9d145d87b9d0"},"vehicle_type_id":"4","last_reported":1685311529,"current_range_meters":7600,"station_id":"ce4bh4p2rcd13ifvqe1g","pricing_plan_id":"free"},{"bike_id":"be8e4278-6a7c-4537-8082-e23bebde2c3a","system_id":"levelo_inurba_marseille","lat":43.28856,"lon":5.358371,"is_reserved":false,"is_disabled":false,"rental_uris":{"android":"levelo://app?vid=be8e4278-6a7c-4537-8082-e23bebde2c3a","ios":"levelo://app?vid=be8e4278-6a7c-4537-8082-e23bebde2c3a"},"vehicle_type_id":"4","last_reported":1685311529,"current_range_meters":20800,"station_id":"ce4bhb12rcd13ifvqem0","pricing_plan_id":"free"},{"bike_id":"141c14ea-594b-43ee-894e-8c44af1dcd73","system_id":"levelo_inurba_marseille","lat":43.33735,"lon":5.37453,"is_reserved":false,"is_disabled":false,"rental_uris":{"android":"levelo://app?vid=141c14ea-594b-43ee-894e-8c44af1dcd73","ios":"levelo://app?vid=141c14ea-594b-43ee-894e-8c44af1dcd73"},"vehicle_type_id":"4","last_reported":1685311529,"current_range_meters":30400,"station_id":"","pricing_plan_id":"free"},{"bike_id":"493860ce-e063-4684-ab33-c360eaf64153","system_id":"levelo_inurba_marseille","lat":43.33744,"lon":5.37451,"is_reserved":false,"is_disabled":false,"rental_uris":{"android":"levelo://app?vid=493860ce-e063-4684-ab33-c360eaf64153","ios":"levelo://app?vid=493860ce-e063-4684-ab33-c360eaf64153"},"vehicle_type_id":"4","last_reported":1685311529,"current_range_meters":16800,"station_id":"","pricing_plan_id":"free"},{"bike_id":"c67b547c-3fcb-4384-8614-e15f558fec55","system_id":"levelo_inurba_marseille","lat":43.33744,"lon":5.37451,"is_reserved":false,"is_disabled":false,"rental_uris":{"android":"levelo://app?vid=c67b547c-3fcb-4384-8614-e15f558fec55","ios":"levelo://app?vid=c67b547c-3fcb-4384-8614-e15f558fec55"},"vehicle_type_id":"4","last_reported":1685311529,"current_range_meters":26000,"station_id":"","pricing_plan_id":"free"},{"bike_id":"556c6db1-2600-4c2b-9521-aae8453517c1","system_id":"levelo_inurba_marseille","lat":43.33758,"lon":5.37442,"is_reserved":false,"is_disabled":false,"rental_uris":{"android":"levelo://app?vid=556c6db1-2600-4c2b-9521-aae8453517c1","ios":"levelo://app?vid=556c6db1-2600-4c2b-9521-aae8453517c1"},"vehicle_type_id":"4","last_reported":1685311529,"current_range_meters":12400,"station_id":"","pricing_plan_id":"free"},{"bike_id":"5aaf445f-f097-4041-99e9-0b2edc8a39b1","system_id":"levelo_inurba_marseille","lat":43.33764,"lon":5.37425,"is_reserved":false,"is_disabled":false,"rental_uris":{"android":"levelo://app?vid=5aaf445f-f097-4041-99e9-0b2edc8a39b1","ios":"levelo://app?vid=5aaf445f-f097-4041-99e9-0b2edc8a39b1"},"vehicle_type_id":"4","last_reported":1685311529,"current_range_meters":27200,"station_id":"","pricing_plan_id":"free"},{"bike_id":"ff1b49ea-4d67-40b1-9bcc-12af1e30efad","system_id":"levelo_inurba_marseille","lat":43.28824,"lon":5.37666,"is_reserved":false,"is_disabled":false,"rental_uris":{"android":"levelo://app?vid=ff1b49ea-4d67-40b1-9bcc-12af1e30efad","ios":"levelo://app?vid=ff1b49ea-4d67-40b1-9bcc-12af1e30efad"},"vehicle_type_id":"4","last_reported":1685311529,"current_range_meters":2400,"station_id":"","pricing_plan_id":"free"},{"bike_id":"41187a05-55ca-4ae5-9bdc-99e833246a07","system_id":"levelo_inurba_marseille","lat":43.301117,"lon":5.398795,"is_reserved":false,"is_disabled":false,"rental_uris":{"android":"levelo://app?vid=41187a05-55ca-4ae5-9bdc-99e833246a07","ios":"levelo://app?vid=41187a05-55ca-4ae5-9bdc-99e833246a07"},"vehicle_type_id":"4","last_reported":1685311529,"current_range_meters":16000,"station_id":"ce4bh0h2rcd13ifvqd40","pricing_plan_id":"free"},{"bike_id":"99834e2d-eb15-4da5-916a-d21a4ab0d958","system_id":"levelo_inurba_marseille","lat":43.301117,"lon":5.398795,"is_reserved":false,"is_disabled":false,"rental_uris":{"android":"levelo://app?vid=99834e2d-eb15-4da5-916a-d21a4ab0d958","ios":"levelo://app?vid=99834e2d-eb15-4da5-916a-d21a4ab0d958"},"vehicle_type_id":"4","last_reported":1685311529,"current_range_meters":400,"station_id":"ce4bh0h2rcd13ifvqd40","pricing_plan_id":"free"},{"bike_id":"ef76fac9-1dbc-4d27-897e-1048cb630683","system_id":"levelo_inurba_marseille","lat":43.286591,"lon":5.363346,"is_reserved":false,"is_disabled":false,"rental_uris":{"android":"levelo://app?vid=ef76fac9-1dbc-4d27-897e-1048cb630683","ios":"levelo://app?vid=ef76fac9-1dbc-4d27-897e-1048cb630683"},"vehicle_type_id":"4","last_reported":1685311529,"current_range_meters":24400,"station_id":"ce4bhah2rcd13ifvqej0","pricing_plan_id":"free"},{"bike_id":"bedde045-8ad7-48fb-9746-256a908e5a96","system_id":"levelo_inurba_marseille","lat":43.29536,"lon":5.39406,"is_reserved":false,"is_disabled":false,"rental_uris":{"android":"levelo://app?vid=bedde045-8ad7-48fb-9746-256a908e5a96","ios":"levelo://app?vid=bedde045-8ad7-48fb-9746-256a908e5a96"},"vehicle_type_id":"4","last_reported":1685311529,"current_range_meters":1200,"station_id":"ce4bh292rcd13ifvqdf0","pricing_plan_id":"free"},{"bike_id":"f06409a1-9bb4-42c9-8546-a578f44626bc","system_id":"levelo_inurba_marseille","lat":43.295194,"lon":5.39397,"is_reserved":false,"is_disabled":false,"rental_uris":{"android":"levelo://app?vid=f06409a1-9bb4-42c9-8546-a578f44626bc","ios":"levelo://app?vid=f06409a1-9bb4-42c9-8546-a578f44626bc"},"vehicle_type_id":"4","last_reported":1685311529,"current_range_meters":4000,"station_id":"ce4bh292rcd13ifvqdf0","pricing_plan_id":"free"},{"bike_id":"61fa0ebe-982b-4cd2-bb25-bb4e636e5531","system_id":"levelo_inurba_marseille","lat":43.295194,"lon":5.39397,"is_reserved":false,"is_disabled":false,"rental_uris":{"android":"levelo://app?vid=61fa0ebe-982b-4cd2-bb25-bb4e636e5531","ios":"levelo://app?vid=61fa0ebe-982b-4cd2-bb25-bb4e636e5531"},"vehicle_type_id":"4","last_reported":1685311529,"current_range_meters":6400,"station_id":"ce4bh292rcd13ifvqdf0","pricing_plan_id":"free"},{"bike_id":"d9213821-c476-478a-97fe-7c3f0bb42d7b","system_id":"levelo_inurba_marseille","lat":43.295196,"lon":5.39397,"is_reserved":false,"is_disabled":false,"rental_uris":{"android":"levelo://app?vid=d9213821-c476-478a-97fe-7c3f0bb42d7b","ios":"levelo://app?vid=d9213821-c476-478a-97fe-7c3f0bb42d7b"},"vehicle_type_id":"4","last_reported":1685311529,"current_range_meters":29200,"station_id":"ce4bh292rcd13ifvqdf0","pricing_plan_id":"free"},{"bike_id":"e05df01a-5e90-42e3-9cd1-b4e7e61a990f","system_id":"levelo_inurba_marseille","lat":43.302759,"lon":5.400793,"is_reserved":false,"is_disabled":false,"rental_uris":{"android":"levelo://app?vid=e05df01a-5e90-42e3-9cd1-b4e7e61a990f","ios":"levelo://app?vid=e05df01a-5e90-42e3-9cd1-b4e7e61a990f"},"vehicle_type_id":"4","last_reported":1685311529,"current_range_meters":29600,"station_id":"ce4bgvh2rcd13ifvqcs0","pricing_plan_id":"free"},{"bike_id":"c3b31434-65f8-4d1f-976d-b8e5029a84d8","system_id":"levelo_inurba_marseille","lat":43.28728,"lon":5.37933,"is_reserved":false,"is_disabled":false,"rental_uris":{"android":"levelo://app?vid=c3b31434-65f8-4d1f-976d-b8e5029a84d8","ios":"levelo://app?vid=c3b31434-65f8-4d1f-976d-b8e5029a84d8"},"vehicle_type_id":"4","last_reported":1685311529,"current_range_meters":24400,"station_id":"ce4bh9p2rcd13ifvqec0","pricing_plan_id":"free"},{"bike_id":"ec02f902-9c39-437b-ac38-0eb440d94cd5","system_id":"levelo_inurba_marseille","lat":43.28723,"lon":5.37937,"is_reserved":false,"is_disabled":false,"rental_uris":{"android":"levelo://app?vid=ec02f902-9c39-437b-ac38-0eb440d94cd5","ios":"levelo://app?vid=ec02f902-9c39-437b-ac38-0eb440d94cd5"},"vehicle_type_id":"4","last_reported":1685311529,"current_range_meters":0,"station_id":"ce4bh9p2rcd13ifvqec0","pricing_plan_id":"free"},{"bike_id":"26e47252-b4dd-4f24-b41a-1c0a452f830a","system_id":"levelo_inurba_marseille","lat":43.316517,"lon":5.404375,"is_reserved":false,"is_disabled":false,"rental_uris":{"android":"levelo://app?vid=26e47252-b4dd-4f24-b41a-1c0a452f830a","ios":"levelo://app?vid=26e47252-b4dd-4f24-b41a-1c0a452f830a"},"vehicle_type_id":"4","last_reported":1685311529,"current_range_meters":2400,"station_id":"ce4bh012rcd13ifvqd00","pricing_plan_id":"free"},{"bike_id":"7e1fe4f5-345b-46bd-ab0e-c6b5a3db933d","system_id":"levelo_inurba_marseille","lat":43.316517,"lon":5.404375,"is_reserved":false,"is_disabled":false,"rental_uris":{"android":"levelo://app?vid=7e1fe4f5-345b-46bd-ab0e-c6b5a3db933d","ios":"levelo://app?vid=7e1fe4f5-345b-46bd-ab0e-c6b5a3db933d"},"vehicle_type_id":"4","last_reported":1685311529,"current_range_meters":0,"station_id":"ce4bh012rcd13ifvqd00","pricing_plan_id":"free"},{"bike_id":"50de3ee7-0f39-403b-a464-5a1ac3a38ff8","system_id":"levelo_inurba_marseille","lat":43.316517,"lon":5.404375,"is_reserved":false,"is_disabled":false,"rental_uris":{"android":"levelo://app?vid=50de3ee7-0f39-403b-a464-5a1ac3a38ff8","ios":"levelo://app?vid=50de3ee7-0f39-403b-a464-5a1ac3a38ff8"},"vehicle_type_id":"4","last_reported":1685311529,"current_range_meters":4400,"station_id":"ce4bh012rcd13ifvqd00","pricing_plan_id":"free"},{"bike_id":"399a568f-226b-4288-b803-8add96160650","system_id":"levelo_inurba_marseille","lat":43.316517,"lon":5.404375,"is_reserved":false,"is_disabled":false,"rental_uris":{"android":"levelo://app?vid=399a568f-226b-4288-b803-8add96160650","ios":"levelo://app?vid=399a568f-226b-4288-b803-8add96160650"},"vehicle_type_id":"4","last_reported":1685311529,"current_range_meters":2400,"station_id":"ce4bh012rcd13ifvqd00","pricing_plan_id":"free"},{"bike_id":"b7ba482b-539c-4a08-955e-0b7e38bb91f3","system_id":"levelo_inurba_marseille","lat":43.29192,"lon":5.39316,"is_reserved":false,"is_disabled":false,"rental_uris":{"android":"levelo://app?vid=b7ba482b-539c-4a08-955e-0b7e38bb91f3","ios":"levelo://app?vid=b7ba482b-539c-4a08-955e-0b7e38bb91f3"},"vehicle_type_id":"4","last_reported":1685311529,"current_range_meters":12000,"station_id":"","pricing_plan_id":"free"},{"bike_id":"8ff04475-70d3-46d1-aa84-bc1907c5f746","system_id":"levelo_inurba_marseille","lat":43.284534,"lon":5.358662,"is_reserved":false,"is_disabled":false,"rental_uris":{"android":"levelo://app?vid=8ff04475-70d3-46d1-aa84-bc1907c5f746","ios":"levelo://app?vid=8ff04475-70d3-46d1-aa84-bc1907c5f746"},"vehicle_type_id":"4","last_reported":1685311529,"current_range_meters":0,"station_id":"ce4bhah2rcd13ifvqei0","pricing_plan_id":"free"},{"bike_id":"6aa0ace1-9004-409f-a870-9ef9048480f0","system_id":"levelo_inurba_marseille","lat":43.2862,"lon":5.35106,"is_reserved":false,"is_disabled":false,"rental_uris":{"android":"levelo://app?vid=6aa0ace1-9004-409f-a870-9ef9048480f0","ios":"levelo://app?vid=6aa0ace1-9004-409f-a870-9ef9048480f0"},"vehicle_type_id":"4","last_reported":1685311529,"current_range_meters":31200,"station_id":"","pricing_plan_id":"free"},{"bike_id":"5089568f-dc33-447b-a558-349a0eb8495c","system_id":"levelo_inurba_marseille","lat":43.28618,"lon":5.35103,"is_reserved":false,"is_disabled":false,"rental_uris":{"android":"levelo://app?vid=5089568f-dc33-447b-a558-349a0eb8495c","ios":"levelo://app?vid=5089568f-dc33-447b-a558-349a0eb8495c"},"vehicle_type_id":"4","last_reported":1685311529,"current_range_meters":31200,"station_id":"","pricing_plan_id":"free"},{"bike_id":"26c9141e-1e63-4741-9e6e-1d6a42ac54f0","system_id":"levelo_inurba_marseille","lat":43.285856,"lon":5.350771,"is_reserved":false,"is_disabled":false,"rental_uris":{"android":"levelo://app?vid=26c9141e-1e63-4741-9e6e-1d6a42ac54f0","ios":"levelo://app?vid=26c9141e-1e63-4741-9e6e-1d6a42ac54f0"},"vehicle_type_id":"4","last_reported":1685311529,"current_range_meters":23200,"station_id":"ce4bhch2rcd13ifvqeug","pricing_plan_id":"free"},{"bike_id":"216ca00d-43df-4205-98f8-0fa0bc615d94","system_id":"levelo_inurba_marseille","lat":43.286151,"lon":5.351076,"is_reserved":false,"is_disabled":false,"rental_uris":{"android":"levelo://app?vid=216ca00d-43df-4205-98f8-0fa0bc615d94","ios":"levelo://app?vid=216ca00d-43df-4205-98f8-0fa0bc615d94"},"vehicle_type_id":"4","last_reported":1685311529,"current_range_meters":31200,"station_id":"","pricing_plan_id":"free"},{"bike_id":"d6d8defe-cf0c-4ec0-9be2-37b947017a88","system_id":"levelo_inurba_marseille","lat":43.285856,"lon":5.350771,"is_reserved":false,"is_disabled":false,"rental_uris":{"android":"levelo://app?vid=d6d8defe-cf0c-4ec0-9be2-37b947017a88","ios":"levelo://app?vid=d6d8defe-cf0c-4ec0-9be2-37b947017a88"},"vehicle_type_id":"4","last_reported":1685311529,"current_range_meters":31200,"station_id":"ce4bhch2rcd13ifvqeug","pricing_plan_id":"free"},{"bike_id":"5db91f20-14ff-43aa-a162-8a380f484e30","system_id":"levelo_inurba_marseille","lat":43.28616,"lon":5.35101,"is_reserved":false,"is_disabled":false,"rental_uris":{"android":"levelo://app?vid=5db91f20-14ff-43aa-a162-8a380f484e30","ios":"levelo://app?vid=5db91f20-14ff-43aa-a162-8a380f484e30"},"vehicle_type_id":"4","last_reported":1685311529,"current_range_meters":31200,"station_id":"","pricing_plan_id":"free"},{"bike_id":"7ff3230f-cb6b-4625-8c75-b5bca1039158","system_id":"levelo_inurba_marseille","lat":43.28614,"lon":5.35101,"is_reserved":false,"is_disabled":false,"rental_uris":{"android":"levelo://app?vid=7ff3230f-cb6b-4625-8c75-b5bca1039158","ios":"levelo://app?vid=7ff3230f-cb6b-4625-8c75-b5bca1039158"},"vehicle_type_id":"4","last_reported":1685311529,"current_range_meters":25200,"station_id":"","pricing_plan_id":"free"},{"bike_id":"2a5c1c9a-24b4-4f47-b6a3-40a7d9c56901","system_id":"levelo_inurba_marseille","lat":43.28614,"lon":5.351,"is_reserved":false,"is_disabled":false,"rental_uris":{"android":"levelo://app?vid=2a5c1c9a-24b4-4f47-b6a3-40a7d9c56901","ios":"levelo://app?vid=2a5c1c9a-24b4-4f47-b6a3-40a7d9c56901"},"vehicle_type_id":"4","last_reported":1685311529,"current_range_meters":31200,"station_id":"","pricing_plan_id":"free"},{"bike_id":"c5d54f17-4a7a-4e80-80dd-90cd0568c560","system_id":"levelo_inurba_marseille","lat":43.295713,"lon":5.399639,"is_reserved":false,"is_disabled":false,"rental_uris":{"android":"levelo://app?vid=c5d54f17-4a7a-4e80-80dd-90cd0568c560","ios":"levelo://app?vid=c5d54f17-4a7a-4e80-80dd-90cd0568c560"},"vehicle_type_id":"4","last_reported":1685311529,"current_range_meters":6800,"station_id":"ce4bh312rcd13ifvqdj0","pricing_plan_id":"free"},{"bike_id":"957a9253-6aad-4cb8-b80b-c0c6dc48ed80","system_id":"levelo_inurba_marseille","lat":43.2866,"lon":5.38666,"is_reserved":false,"is_disabled":false,"rental_uris":{"android":"levelo://app?vid=957a9253-6aad-4cb8-b80b-c0c6dc48ed80","ios":"levelo://app?vid=957a9253-6aad-4cb8-b80b-c0c6dc48ed80"},"vehicle_type_id":"4","last_reported":1685311529,"current_range_meters":28800,"station_id":"ce4bh492rcd13ifvqdug","pricing_plan_id":"free"},{"bike_id":"d8448895-af6b-449a-a80f-16eaa72d2c8d","system_id":"levelo_inurba_marseille","lat":43.286595,"lon":5.386795,"is_reserved":false,"is_disabled":false,"rental_uris":{"android":"levelo://app?vid=d8448895-af6b-449a-a80f-16eaa72d2c8d","ios":"levelo://app?vid=d8448895-af6b-449a-a80f-16eaa72d2c8d"},"vehicle_type_id":"4","last_reported":1685311529,"current_range_meters":31200,"station_id":"ce4bh492rcd13ifvqdug","pricing_plan_id":"free"},{"bike_id":"a06fd93c-ec5e-4396-9b3f-a9049bad7220","system_id":"levelo_inurba_marseille","lat":43.283494,"lon":5.380945,"is_reserved":false,"is_disabled":false,"rental_uris":{"android":"levelo://app?vid=a06fd93c-ec5e-4396-9b3f-a9049bad7220","ios":"levelo://app?vid=a06fd93c-ec5e-4396-9b3f-a9049bad7220"},"vehicle_type_id":"4","last_reported":1685311529,"current_range_meters":30400,"station_id":"ce4bh412rcd13ifvqdr0","pricing_plan_id":"free"},{"bike_id":"25d0ca87-6eac-4e81-9cce-3a07fb9bb0ef","system_id":"levelo_inurba_marseille","lat":43.283494,"lon":5.380945,"is_reserved":false,"is_disabled":false,"rental_uris":{"android":"levelo://app?vid=25d0ca87-6eac-4e81-9cce-3a07fb9bb0ef","ios":"levelo://app?vid=25d0ca87-6eac-4e81-9cce-3a07fb9bb0ef"},"vehicle_type_id":"4","last_reported":1685311529,"current_range_meters":16800,"station_id":"ce4bh412rcd13ifvqdr0","pricing_plan_id":"free"},{"bike_id":"86d503bb-c417-4b4f-8e2a-b7d8690183cf","system_id":"levelo_inurba_marseille","lat":43.283469,"lon":5.381014,"is_reserved":false,"is_disabled":false,"rental_uris":{"android":"levelo://app?vid=86d503bb-c417-4b4f-8e2a-b7d8690183cf","ios":"levelo://app?vid=86d503bb-c417-4b4f-8e2a-b7d8690183cf"},"vehicle_type_id":"4","last_reported":1685311529,"current_range_meters":13600,"station_id":"ce4bh412rcd13ifvqdr0","pricing_plan_id":"free"},{"bike_id":"06200ba7-9e39-4d07-9630-b8cd3d10903f","system_id":"levelo_inurba_marseille","lat":43.292724,"lon":5.401131,"is_reserved":false,"is_disabled":false,"rental_uris":{"android":"levelo://app?vid=06200ba7-9e39-4d07-9630-b8cd3d10903f","ios":"levelo://app?vid=06200ba7-9e39-4d07-9630-b8cd3d10903f"},"vehicle_type_id":"4","last_reported":1685311529,"current_range_meters":16400,"station_id":"ce4bh312rcd13ifvqdk0","pricing_plan_id":"free"},{"bike_id":"af027aa5-cd0d-4466-bafe-b4f39adaf392","system_id":"levelo_inurba_marseille","lat":43.282754,"lon":5.350519,"is_reserved":false,"is_disabled":false,"rental_uris":{"android":"levelo://app?vid=af027aa5-cd0d-4466-bafe-b4f39adaf392","ios":"levelo://app?vid=af027aa5-cd0d-4466-bafe-b4f39adaf392"},"vehicle_type_id":"4","last_reported":1685311529,"current_range_meters":0,"station_id":"ce4bhbp2rcd13ifvqerg","pricing_plan_id":"free"},{"bike_id":"50a35045-7c3f-4fb1-a168-d2e647281c29","system_id":"levelo_inurba_marseille","lat":43.282744,"lon":5.350533,"is_reserved":false,"is_disabled":false,"rental_uris":{"android":"levelo://app?vid=50a35045-7c3f-4fb1-a168-d2e647281c29","ios":"levelo://app?vid=50a35045-7c3f-4fb1-a168-d2e647281c29"},"vehicle_type_id":"4","last_reported":1685311529,"current_range_meters":0,"station_id":"ce4bhbp2rcd13ifvqerg","pricing_plan_id":"free"},{"bike_id":"376863b0-bad5-4cd9-bd91-266f781c544e","system_id":"levelo_inurba_marseille","lat":43.283502,"lon":5.386471,"is_reserved":false,"is_disabled":false,"rental_uris":{"android":"levelo://app?vid=376863b0-bad5-4cd9-bd91-266f781c544e","ios":"levelo://app?vid=376863b0-bad5-4cd9-bd91-266f781c544e"},"vehicle_type_id":"4","last_reported":1685311529,"current_range_meters":6000,"station_id":"ce4bh492rcd13ifvqdvg","pricing_plan_id":"free"},{"bike_id":"cf174ea2-82a8-4661-9052-4c7077bf7693","system_id":"levelo_inurba_marseille","lat":43.283502,"lon":5.386471,"is_reserved":false,"is_disabled":false,"rental_uris":{"android":"levelo://app?vid=cf174ea2-82a8-4661-9052-4c7077bf7693","ios":"levelo://app?vid=cf174ea2-82a8-4661-9052-4c7077bf7693"},"vehicle_type_id":"4","last_reported":1685311529,"current_range_meters":4000,"station_id":"ce4bh492rcd13ifvqdvg","pricing_plan_id":"free"},{"bike_id":"91da9236-6226-441c-830e-ca4782cddc41","system_id":"levelo_inurba_marseille","lat":43.281044,"lon":5.378308,"is_reserved":false,"is_disabled":false,"rental_uris":{"android":"levelo://app?vid=91da9236-6226-441c-830e-ca4782cddc41","ios":"levelo://app?vid=91da9236-6226-441c-830e-ca4782cddc41"},"vehicle_type_id":"4","last_reported":1685311529,"current_range_meters":27200,"station_id":"ce4bha12rcd13ifvqee0","pricing_plan_id":"free"},{"bike_id":"75b20958-2073-4883-8438-9ccaa5291a6b","system_id":"levelo_inurba_marseille","lat":43.281044,"lon":5.378308,"is_reserved":false,"is_disabled":false,"rental_uris":{"android":"levelo://app?vid=75b20958-2073-4883-8438-9ccaa5291a6b","ios":"levelo://app?vid=75b20958-2073-4883-8438-9ccaa5291a6b"},"vehicle_type_id":"4","last_reported":1685311529,"current_range_meters":28800,"station_id":"ce4bha12rcd13ifvqee0","pricing_plan_id":"free"},{"bike_id":"872909a9-eda7-4160-a2b0-09f4f759c9f8","system_id":"levelo_inurba_marseille","lat":43.296263,"lon":5.40601,"is_reserved":false,"is_disabled":false,"rental_uris":{"android":"levelo://app?vid=872909a9-eda7-4160-a2b0-09f4f759c9f8","ios":"levelo://app?vid=872909a9-eda7-4160-a2b0-09f4f759c9f8"},"vehicle_type_id":"4","last_reported":1685311529,"current_range_meters":31200,"station_id":"ce4bh0h2rcd13ifvqd60","pricing_plan_id":"free"},{"bike_id":"9928e20b-0c7b-4a0b-9d84-76d8982997f7","system_id":"levelo_inurba_marseille","lat":43.296263,"lon":5.40601,"is_reserved":false,"is_disabled":false,"rental_uris":{"android":"levelo://app?vid=9928e20b-0c7b-4a0b-9d84-76d8982997f7","ios":"levelo://app?vid=9928e20b-0c7b-4a0b-9d84-76d8982997f7"},"vehicle_type_id":"4","last_reported":1685311529,"current_range_meters":27600,"station_id":"ce4bh0h2rcd13ifvqd60","pricing_plan_id":"free"},{"bike_id":"b710cefa-da63-41b1-9a50-5f629d501381","system_id":"levelo_inurba_marseille","lat":43.296263,"lon":5.40601,"is_reserved":false,"is_disabled":false,"rental_uris":{"android":"levelo://app?vid=b710cefa-da63-41b1-9a50-5f629d501381","ios":"levelo://app?vid=b710cefa-da63-41b1-9a50-5f629d501381"},"vehicle_type_id":"4","last_reported":1685311529,"current_range_meters":31200,"station_id":"ce4bh0h2rcd13ifvqd60","pricing_plan_id":"free"},{"bike_id":"e548e35c-a076-454f-bd89-45d972833809","system_id":"levelo_inurba_marseille","lat":43.28573,"lon":5.394992,"is_reserved":false,"is_disabled":false,"rental_uris":{"android":"levelo://app?vid=e548e35c-a076-454f-bd89-45d972833809","ios":"levelo://app?vid=e548e35c-a076-454f-bd89-45d972833809"},"vehicle_type_id":"4","last_reported":1685311529,"current_range_meters":26400,"station_id":"ce4bh292rcd13ifvqdg0","pricing_plan_id":"free"},{"bike_id":"48cdf7cb-da73-4c99-8df5-f0c860ca97d1","system_id":"levelo_inurba_marseille","lat":43.28573,"lon":5.394992,"is_reserved":false,"is_disabled":false,"rental_uris":{"android":"levelo://app?vid=48cdf7cb-da73-4c99-8df5-f0c860ca97d1","ios":"levelo://app?vid=48cdf7cb-da73-4c99-8df5-f0c860ca97d1"},"vehicle_type_id":"4","last_reported":1685311529,"current_range_meters":27200,"station_id":"ce4bh292rcd13ifvqdg0","pricing_plan_id":"free"},{"bike_id":"84fb31e2-fa2f-49a4-8473-1c7be801f3df","system_id":"levelo_inurba_marseille","lat":43.285742,"lon":5.395004,"is_reserved":false,"is_disabled":false,"rental_uris":{"android":"levelo://app?vid=84fb31e2-fa2f-49a4-8473-1c7be801f3df","ios":"levelo://app?vid=84fb31e2-fa2f-49a4-8473-1c7be801f3df"},"vehicle_type_id":"4","last_reported":1685311529,"current_range_meters":31200,"station_id":"ce4bh292rcd13ifvqdg0","pricing_plan_id":"free"},{"bike_id":"2fc95317-4986-49fe-9356-13c9ae75a35f","system_id":"levelo_inurba_marseille","lat":43.279089,"lon":5.38026,"is_reserved":false,"is_disabled":false,"rental_uris":{"android":"levelo://app?vid=2fc95317-4986-49fe-9356-13c9ae75a35f","ios":"levelo://app?vid=2fc95317-4986-49fe-9356-13c9ae75a35f"},"vehicle_type_id":"4","last_reported":1685311529,"current_range_meters":5200,"station_id":"","pricing_plan_id":"free"},{"bike_id":"970f3cd1-3d58-476f-a521-b9dca6e24829","system_id":"levelo_inurba_marseille","lat":43.287154,"lon":5.399979,"is_reserved":false,"is_disabled":false,"rental_uris":{"android":"levelo://app?vid=970f3cd1-3d58-476f-a521-b9dca6e24829","ios":"levelo://app?vid=970f3cd1-3d58-476f-a521-b9dca6e24829"},"vehicle_type_id":"4","last_reported":1685311529,"current_range_meters":31200,"station_id":"ce4bho92rcd13ifvqh3g","pricing_plan_id":"free"},{"bike_id":"ec2aac22-1fbd-4623-99cf-e9d71480201e","system_id":"levelo_inurba_marseille","lat":43.287154,"lon":5.399979,"is_reserved":false,"is_disabled":false,"rental_uris":{"android":"levelo://app?vid=ec2aac22-1fbd-4623-99cf-e9d71480201e","ios":"levelo://app?vid=ec2aac22-1fbd-4623-99cf-e9d71480201e"},"vehicle_type_id":"4","last_reported":1685311529,"current_range_meters":31200,"station_id":"ce4bho92rcd13ifvqh3g","pricing_plan_id":"free"},{"bike_id":"36dd5ff4-386e-42ed-a89f-d10865188b93","system_id":"levelo_inurba_marseille","lat":43.287154,"lon":5.399979,"is_reserved":false,"is_disabled":false,"rental_uris":{"android":"levelo://app?vid=36dd5ff4-386e-42ed-a89f-d10865188b93","ios":"levelo://app?vid=36dd5ff4-386e-42ed-a89f-d10865188b93"},"vehicle_type_id":"4","last_reported":1685311529,"current_range_meters":31200,"station_id":"ce4bho92rcd13ifvqh3g","pricing_plan_id":"free"},{"bike_id":"23770266-7990-4210-b424-f8fab1d87695","system_id":"levelo_inurba_marseille","lat":43.287154,"lon":5.399979,"is_reserved":false,"is_disabled":false,"rental_uris":{"android":"levelo://app?vid=23770266-7990-4210-b424-f8fab1d87695","ios":"levelo://app?vid=23770266-7990-4210-b424-f8fab1d87695"},"vehicle_type_id":"4","last_reported":1685311529,"current_range_meters":31200,"station_id":"ce4bho92rcd13ifvqh3g","pricing_plan_id":"free"},{"bike_id":"32955096-5754-41eb-8e55-57cb0a701f25","system_id":"levelo_inurba_marseille","lat":43.287154,"lon":5.399979,"is_reserved":false,"is_disabled":false,"rental_uris":{"android":"levelo://app?vid=32955096-5754-41eb-8e55-57cb0a701f25","ios":"levelo://app?vid=32955096-5754-41eb-8e55-57cb0a701f25"},"vehicle_type_id":"4","last_reported":1685311529,"current_range_meters":24000,"station_id":"ce4bho92rcd13ifvqh3g","pricing_plan_id":"free"},{"bike_id":"63154aa4-9c47-4f7b-9726-f6059684ab53","system_id":"levelo_inurba_marseille","lat":43.287154,"lon":5.399979,"is_reserved":false,"is_disabled":false,"rental_uris":{"android":"levelo://app?vid=63154aa4-9c47-4f7b-9726-f6059684ab53","ios":"levelo://app?vid=63154aa4-9c47-4f7b-9726-f6059684ab53"},"vehicle_type_id":"4","last_reported":1685311529,"current_range_meters":2000,"station_id":"ce4bho92rcd13ifvqh3g","pricing_plan_id":"free"},{"bike_id":"133306e4-864e-4bb3-be4f-b8d95d51eac1","system_id":"levelo_inurba_marseille","lat":43.287154,"lon":5.399979,"is_reserved":false,"is_disabled":false,"rental_uris":{"android":"levelo://app?vid=133306e4-864e-4bb3-be4f-b8d95d51eac1","ios":"levelo://app?vid=133306e4-864e-4bb3-be4f-b8d95d51eac1"},"vehicle_type_id":"4","last_reported":1685311529,"current_range_meters":25200,"station_id":"ce4bho92rcd13ifvqh3g","pricing_plan_id":"free"},{"bike_id":"7dd9cab1-18a5-4290-a0af-c5260478c235","system_id":"levelo_inurba_marseille","lat":43.287156,"lon":5.400191,"is_reserved":false,"is_disabled":false,"rental_uris":{"android":"levelo://app?vid=7dd9cab1-18a5-4290-a0af-c5260478c235","ios":"levelo://app?vid=7dd9cab1-18a5-4290-a0af-c5260478c235"},"vehicle_type_id":"4","last_reported":1685311529,"current_range_meters":2000,"station_id":"ce4bho92rcd13ifvqh3g","pricing_plan_id":"free"},{"bike_id":"db1489de-a7c4-4c0f-8abf-73d0898bb77a","system_id":"levelo_inurba_marseille","lat":43.28168,"lon":5.39169,"is_reserved":false,"is_disabled":false,"rental_uris":{"android":"levelo://app?vid=db1489de-a7c4-4c0f-8abf-73d0898bb77a","ios":"levelo://app?vid=db1489de-a7c4-4c0f-8abf-73d0898bb77a"},"vehicle_type_id":"4","last_reported":1685311529,"current_range_meters":16800,"station_id":"","pricing_plan_id":"free"},{"bike_id":"bf190984-fef5-45d5-9138-c0c9d3744f74","system_id":"levelo_inurba_marseille","lat":43.279742,"lon":5.38744,"is_reserved":false,"is_disabled":false,"rental_uris":{"android":"levelo://app?vid=bf190984-fef5-45d5-9138-c0c9d3744f74","ios":"levelo://app?vid=bf190984-fef5-45d5-9138-c0c9d3744f74"},"vehicle_type_id":"4","last_reported":1685311529,"current_range_meters":6800,"station_id":"ce4bhg12rcd13ifvqf80","pricing_plan_id":"free"},{"bike_id":"e782d111-217a-4759-a65e-e1301979f956","system_id":"levelo_inurba_marseille","lat":43.27974,"lon":5.38745,"is_reserved":false,"is_disabled":false,"rental_uris":{"android":"levelo://app?vid=e782d111-217a-4759-a65e-e1301979f956","ios":"levelo://app?vid=e782d111-217a-4759-a65e-e1301979f956"},"vehicle_type_id":"4","last_reported":1685311529,"current_range_meters":0,"station_id":"ce4bhg12rcd13ifvqf80","pricing_plan_id":"free"},{"bike_id":"b8c34378-201f-41e6-a4c9-0f264685fe3a","system_id":"levelo_inurba_marseille","lat":43.279742,"lon":5.38744,"is_reserved":false,"is_disabled":false,"rental_uris":{"android":"levelo://app?vid=b8c34378-201f-41e6-a4c9-0f264685fe3a","ios":"levelo://app?vid=b8c34378-201f-41e6-a4c9-0f264685fe3a"},"vehicle_type_id":"4","last_reported":1685311529,"current_range_meters":2000,"station_id":"ce4bhg12rcd13ifvqf80","pricing_plan_id":"free"},{"bike_id":"2c73e87b-3c7d-4ba3-8edf-648242e62e06","system_id":"levelo_inurba_marseille","lat":43.292571,"lon":5.409107,"is_reserved":false,"is_disabled":false,"rental_uris":{"android":"levelo://app?vid=2c73e87b-3c7d-4ba3-8edf-648242e62e06","ios":"levelo://app?vid=2c73e87b-3c7d-4ba3-8edf-648242e62e06"},"vehicle_type_id":"4","last_reported":1685311529,"current_range_meters":26400,"station_id":"ce4bh192rcd13ifvqdc0","pricing_plan_id":"free"},{"bike_id":"3829f4c2-3a0c-4168-8fb8-ee280339bd4b","system_id":"levelo_inurba_marseille","lat":43.292571,"lon":5.409107,"is_reserved":false,"is_disabled":false,"rental_uris":{"android":"levelo://app?vid=3829f4c2-3a0c-4168-8fb8-ee280339bd4b","ios":"levelo://app?vid=3829f4c2-3a0c-4168-8fb8-ee280339bd4b"},"vehicle_type_id":"4","last_reported":1685311529,"current_range_meters":25600,"station_id":"ce4bh192rcd13ifvqdc0","pricing_plan_id":"free"},{"bike_id":"64fd907c-88bf-49df-9845-471e50783e7c","system_id":"levelo_inurba_marseille","lat":43.292571,"lon":5.409107,"is_reserved":false,"is_disabled":false,"rental_uris":{"android":"levelo://app?vid=64fd907c-88bf-49df-9845-471e50783e7c","ios":"levelo://app?vid=64fd907c-88bf-49df-9845-471e50783e7c"},"vehicle_type_id":"4","last_reported":1685311529,"current_range_meters":31200,"station_id":"ce4bh192rcd13ifvqdc0","pricing_plan_id":"free"},{"bike_id":"48e9dbbf-a20d-4cc4-89e5-f70796641807","system_id":"levelo_inurba_marseille","lat":43.27618,"lon":5.361009,"is_reserved":false,"is_disabled":false,"rental_uris":{"android":"levelo://app?vid=48e9dbbf-a20d-4cc4-89e5-f70796641807","ios":"levelo://app?vid=48e9dbbf-a20d-4cc4-89e5-f70796641807"},"vehicle_type_id":"4","last_reported":1685311529,"current_range_meters":0,"station_id":"ce4bgj92rcd13ifvqbe0","pricing_plan_id":"free"},{"bike_id":"448e1e79-7a00-445f-9439-0c43795fce70","system_id":"levelo_inurba_marseille","lat":43.27614,"lon":5.36104,"is_reserved":false,"is_disabled":false,"rental_uris":{"android":"levelo://app?vid=448e1e79-7a00-445f-9439-0c43795fce70","ios":"levelo://app?vid=448e1e79-7a00-445f-9439-0c43795fce70"},"vehicle_type_id":"4","last_reported":1685311529,"current_range_meters":0,"station_id":"ce4bgj92rcd13ifvqbe0","pricing_plan_id":"free"},{"bike_id":"4d2ddf16-48e5-426b-9f49-7a83729058bc","system_id":"levelo_inurba_marseille","lat":43.28079,"lon":5.396664,"is_reserved":false,"is_disabled":false,"rental_uris":{"android":"levelo://app?vid=4d2ddf16-48e5-426b-9f49-7a83729058bc","ios":"levelo://app?vid=4d2ddf16-48e5-426b-9f49-7a83729058bc"},"vehicle_type_id":"4","last_reported":1685311529,"current_range_meters":1600,"station_id":"ce4bhgp2rcd13ifvqfc0","pricing_plan_id":"free"},{"bike_id":"b825cc48-1e3d-4178-93f6-8fb4d03247ce","system_id":"levelo_inurba_marseille","lat":43.3036,"lon":5.41885,"is_reserved":false,"is_disabled":false,"rental_uris":{"android":"levelo://app?vid=b825cc48-1e3d-4178-93f6-8fb4d03247ce","ios":"levelo://app?vid=b825cc48-1e3d-4178-93f6-8fb4d03247ce"},"vehicle_type_id":"4","last_reported":1685311529,"current_range_meters":0,"station_id":"ce4bhop2rcd13ifvqh7g","pricing_plan_id":"free"},{"bike_id":"3a1c3023-e41a-4b20-b202-416fd3210270","system_id":"levelo_inurba_marseille","lat":43.278401,"lon":5.392152,"is_reserved":false,"is_disabled":false,"rental_uris":{"android":"levelo://app?vid=3a1c3023-e41a-4b20-b202-416fd3210270","ios":"levelo://app?vid=3a1c3023-e41a-4b20-b202-416fd3210270"},"vehicle_type_id":"4","last_reported":1685311529,"current_range_meters":1600,"station_id":"ce4bhjp2rcd13ifvqga0","pricing_plan_id":"free"},{"bike_id":"91b49189-18df-431a-bbbf-f0b2350181de","system_id":"levelo_inurba_marseille","lat":43.28425,"lon":5.40793,"is_reserved":false,"is_disabled":false,"rental_uris":{"android":"levelo://app?vid=91b49189-18df-431a-bbbf-f0b2350181de","ios":"levelo://app?vid=91b49189-18df-431a-bbbf-f0b2350181de"},"vehicle_type_id":"4","last_reported":1685311529,"current_range_meters":5600,"station_id":"","pricing_plan_id":"free"},{"bike_id":"cc1cc54e-1a9a-49f4-a8bd-07697f28e60a","system_id":"levelo_inurba_marseille","lat":43.317121,"lon":5.423936,"is_reserved":false,"is_disabled":false,"rental_uris":{"android":"levelo://app?vid=cc1cc54e-1a9a-49f4-a8bd-07697f28e60a","ios":"levelo://app?vid=cc1cc54e-1a9a-49f4-a8bd-07697f28e60a"},"vehicle_type_id":"4","last_reported":1685311529,"current_range_meters":14000,"station_id":"ce4bhp92rcd13ifvqhbg","pricing_plan_id":"free"},{"bike_id":"6b586849-4cb2-4f0c-a6d8-7549b3a03b77","system_id":"levelo_inurba_marseille","lat":43.310785,"lon":5.424305,"is_reserved":false,"is_disabled":false,"rental_uris":{"android":"levelo://app?vid=6b586849-4cb2-4f0c-a6d8-7549b3a03b77","ios":"levelo://app?vid=6b586849-4cb2-4f0c-a6d8-7549b3a03b77"},"vehicle_type_id":"4","last_reported":1685311529,"current_range_meters":22000,"station_id":"ce4bhp92rcd13ifvqhag","pricing_plan_id":"free"},{"bike_id":"61975327-2901-4c46-99c0-45dcaddab9b1","system_id":"levelo_inurba_marseille","lat":43.27317,"lon":5.39097,"is_reserved":false,"is_disabled":false,"rental_uris":{"android":"levelo://app?vid=61975327-2901-4c46-99c0-45dcaddab9b1","ios":"levelo://app?vid=61975327-2901-4c46-99c0-45dcaddab9b1"},"vehicle_type_id":"4","last_reported":1685311529,"current_range_meters":0,"station_id":"ce4bhgp2rcd13ifvqfe0","pricing_plan_id":"free"},{"bike_id":"d7edb3f7-2835-4cf2-afc5-0c212fb31f47","system_id":"levelo_inurba_marseille","lat":43.295511,"lon":5.422926,"is_reserved":false,"is_disabled":false,"rental_uris":{"android":"levelo://app?vid=d7edb3f7-2835-4cf2-afc5-0c212fb31f47","ios":"levelo://app?vid=d7edb3f7-2835-4cf2-afc5-0c212fb31f47"},"vehicle_type_id":"4","last_reported":1685311529,"current_range_meters":31200,"station_id":"ce4bhph2rcd13ifvqhdg","pricing_plan_id":"free"},{"bike_id":"a429b482-454d-4125-b3ab-2aedb91094d1","system_id":"levelo_inurba_marseille","lat":43.295511,"lon":5.422926,"is_reserved":false,"is_disabled":false,"rental_uris":{"android":"levelo://app?vid=a429b482-454d-4125-b3ab-2aedb91094d1","ios":"levelo://app?vid=a429b482-454d-4125-b3ab-2aedb91094d1"},"vehicle_type_id":"4","last_reported":1685311529,"current_range_meters":31200,"station_id":"ce4bhph2rcd13ifvqhdg","pricing_plan_id":"free"},{"bike_id":"29dd7db9-268d-4e11-9de5-f9528bcd0c2c","system_id":"levelo_inurba_marseille","lat":43.295511,"lon":5.422926,"is_reserved":false,"is_disabled":false,"rental_uris":{"android":"levelo://app?vid=29dd7db9-268d-4e11-9de5-f9528bcd0c2c","ios":"levelo://app?vid=29dd7db9-268d-4e11-9de5-f9528bcd0c2c"},"vehicle_type_id":"4","last_reported":1685311529,"current_range_meters":31200,"station_id":"ce4bhph2rcd13ifvqhdg","pricing_plan_id":"free"},{"bike_id":"abb6f177-15b8-4b2c-a44b-f52bf7fc6daf","system_id":"levelo_inurba_marseille","lat":43.278128,"lon":5.407195,"is_reserved":false,"is_disabled":false,"rental_uris":{"android":"levelo://app?vid=abb6f177-15b8-4b2c-a44b-f52bf7fc6daf","ios":"levelo://app?vid=abb6f177-15b8-4b2c-a44b-f52bf7fc6daf"},"vehicle_type_id":"4","last_reported":1685311529,"current_range_meters":26400,"station_id":"ce4bhnh2rcd13ifvqgtg","pricing_plan_id":"free"},{"bike_id":"ac609e10-d141-4125-9ba6-a2dc58cbb554","system_id":"levelo_inurba_marseille","lat":43.278128,"lon":5.407195,"is_reserved":false,"is_disabled":false,"rental_uris":{"android":"levelo://app?vid=ac609e10-d141-4125-9ba6-a2dc58cbb554","ios":"levelo://app?vid=ac609e10-d141-4125-9ba6-a2dc58cbb554"},"vehicle_type_id":"4","last_reported":1685311529,"current_range_meters":28000,"station_id":"ce4bhnh2rcd13ifvqgtg","pricing_plan_id":"free"},{"bike_id":"c104644d-2d22-412e-896f-c2a46962ad06","system_id":"levelo_inurba_marseille","lat":43.278128,"lon":5.407195,"is_reserved":false,"is_disabled":false,"rental_uris":{"android":"levelo://app?vid=c104644d-2d22-412e-896f-c2a46962ad06","ios":"levelo://app?vid=c104644d-2d22-412e-896f-c2a46962ad06"},"vehicle_type_id":"4","last_reported":1685311529,"current_range_meters":6000,"station_id":"ce4bhnh2rcd13ifvqgtg","pricing_plan_id":"free"},{"bike_id":"ddc95760-a116-4496-99dd-97b4da3c060e","system_id":"levelo_inurba_marseille","lat":43.278128,"lon":5.407195,"is_reserved":false,"is_disabled":false,"rental_uris":{"android":"levelo://app?vid=ddc95760-a116-4496-99dd-97b4da3c060e","ios":"levelo://app?vid=ddc95760-a116-4496-99dd-97b4da3c060e"},"vehicle_type_id":"4","last_reported":1685311529,"current_range_meters":0,"station_id":"ce4bhnh2rcd13ifvqgtg","pricing_plan_id":"free"},{"bike_id":"94fedf5c-534a-43c3-90c9-bac0cdd23207","system_id":"levelo_inurba_marseille","lat":43.269467,"lon":5.386439,"is_reserved":false,"is_disabled":false,"rental_uris":{"android":"levelo://app?vid=94fedf5c-534a-43c3-90c9-bac0cdd23207","ios":"levelo://app?vid=94fedf5c-534a-43c3-90c9-bac0cdd23207"},"vehicle_type_id":"4","last_reported":1685311529,"current_range_meters":0,"station_id":"ce4bhh92rcd13ifvqfh0","pricing_plan_id":"free"},{"bike_id":"97f92444-dc7f-4ac8-885e-43ac50454dc0","system_id":"levelo_inurba_marseille","lat":43.31679,"lon":5.43328,"is_reserved":false,"is_disabled":false,"rental_uris":{"android":"levelo://app?vid=97f92444-dc7f-4ac8-885e-43ac50454dc0","ios":"levelo://app?vid=97f92444-dc7f-4ac8-885e-43ac50454dc0"},"vehicle_type_id":"4","last_reported":1685311529,"current_range_meters":0,"station_id":"","pricing_plan_id":"free"},{"bike_id":"e065ceaf-3d4c-4df5-ab28-155e7ac2b139","system_id":"levelo_inurba_marseille","lat":43.28,"lon":5.41634,"is_reserved":false,"is_disabled":false,"rental_uris":{"android":"levelo://app?vid=e065ceaf-3d4c-4df5-ab28-155e7ac2b139","ios":"levelo://app?vid=e065ceaf-3d4c-4df5-ab28-155e7ac2b139"},"vehicle_type_id":"4","last_reported":1685311529,"current_range_meters":0,"station_id":"ce4bho12rcd13ifvqh1g","pricing_plan_id":"free"},{"bike_id":"8a49813e-1411-4c89-8032-d13c72b96057","system_id":"levelo_inurba_marseille","lat":43.28002,"lon":5.41662,"is_reserved":false,"is_disabled":false,"rental_uris":{"android":"levelo://app?vid=8a49813e-1411-4c89-8032-d13c72b96057","ios":"levelo://app?vid=8a49813e-1411-4c89-8032-d13c72b96057"},"vehicle_type_id":"4","last_reported":1685311529,"current_range_meters":24800,"station_id":"ce4bho12rcd13ifvqh1g","pricing_plan_id":"free"},{"bike_id":"d7cd0521-c2f9-432e-8c89-91d84408c1b8","system_id":"levelo_inurba_marseille","lat":43.27996,"lon":5.416624,"is_reserved":false,"is_disabled":false,"rental_uris":{"android":"levelo://app?vid=d7cd0521-c2f9-432e-8c89-91d84408c1b8","ios":"levelo://app?vid=d7cd0521-c2f9-432e-8c89-91d84408c1b8"},"vehicle_type_id":"4","last_reported":1685311529,"current_range_meters":31200,"station_id":"ce4bho12rcd13ifvqh1g","pricing_plan_id":"free"},{"bike_id":"12828bac-e61d-45b9-80b2-022b9d04575e","system_id":"levelo_inurba_marseille","lat":43.27996,"lon":5.416624,"is_reserved":false,"is_disabled":false,"rental_uris":{"android":"levelo://app?vid=12828bac-e61d-45b9-80b2-022b9d04575e","ios":"levelo://app?vid=12828bac-e61d-45b9-80b2-022b9d04575e"},"vehicle_type_id":"4","last_reported":1685311529,"current_range_meters":31200,"station_id":"ce4bho12rcd13ifvqh1g","pricing_plan_id":"free"},{"bike_id":"a659b602-d511-4ec0-a0d4-2ab3cf469a06","system_id":"levelo_inurba_marseille","lat":43.27988,"lon":5.41654,"is_reserved":false,"is_disabled":false,"rental_uris":{"android":"levelo://app?vid=a659b602-d511-4ec0-a0d4-2ab3cf469a06","ios":"levelo://app?vid=a659b602-d511-4ec0-a0d4-2ab3cf469a06"},"vehicle_type_id":"4","last_reported":1685311529,"current_range_meters":28000,"station_id":"ce4bho12rcd13ifvqh1g","pricing_plan_id":"free"},{"bike_id":"7291c008-ed8b-483d-aab7-eb661f22d003","system_id":"levelo_inurba_marseille","lat":43.2799,"lon":5.41657,"is_reserved":false,"is_disabled":false,"rental_uris":{"android":"levelo://app?vid=7291c008-ed8b-483d-aab7-eb661f22d003","ios":"levelo://app?vid=7291c008-ed8b-483d-aab7-eb661f22d003"},"vehicle_type_id":"4","last_reported":1685311529,"current_range_meters":31200,"station_id":"ce4bho12rcd13ifvqh1g","pricing_plan_id":"free"},{"bike_id":"6e3f955f-5aae-4645-a8bf-8f95a6cda57e","system_id":"levelo_inurba_marseille","lat":43.26364,"lon":5.37529,"is_reserved":false,"is_disabled":false,"rental_uris":{"android":"levelo://app?vid=6e3f955f-5aae-4645-a8bf-8f95a6cda57e","ios":"levelo://app?vid=6e3f955f-5aae-4645-a8bf-8f95a6cda57e"},"vehicle_type_id":"4","last_reported":1685311529,"current_range_meters":400,"station_id":"","pricing_plan_id":"free"},{"bike_id":"b8e07922-f074-4378-9c0d-0a256de36fe0","system_id":"levelo_inurba_marseille","lat":43.308,"lon":5.43522,"is_reserved":false,"is_disabled":false,"rental_uris":{"android":"levelo://app?vid=b8e07922-f074-4378-9c0d-0a256de36fe0","ios":"levelo://app?vid=b8e07922-f074-4378-9c0d-0a256de36fe0"},"vehicle_type_id":"4","last_reported":1685311529,"current_range_meters":12400,"station_id":"","pricing_plan_id":"free"},{"bike_id":"36f97a6f-2c3a-4acc-b923-b69678420acc","system_id":"levelo_inurba_marseille","lat":43.26203,"lon":5.37925,"is_reserved":false,"is_disabled":false,"rental_uris":{"android":"levelo://app?vid=36f97a6f-2c3a-4acc-b923-b69678420acc","ios":"levelo://app?vid=36f97a6f-2c3a-4acc-b923-b69678420acc"},"vehicle_type_id":"4","last_reported":1685311529,"current_range_meters":0,"station_id":"ce4bhjp2rcd13ifvqg90","pricing_plan_id":"free"},{"bike_id":"760bfc38-e96f-40b9-8091-70e7d4460480","system_id":"levelo_inurba_marseille","lat":43.26195,"lon":5.37927,"is_reserved":false,"is_disabled":false,"rental_uris":{"android":"levelo://app?vid=760bfc38-e96f-40b9-8091-70e7d4460480","ios":"levelo://app?vid=760bfc38-e96f-40b9-8091-70e7d4460480"},"vehicle_type_id":"4","last_reported":1685311529,"current_range_meters":0,"station_id":"ce4bhjp2rcd13ifvqg90","pricing_plan_id":"free"},{"bike_id":"df86ea7d-4abf-4c0f-abed-07b5d4036757","system_id":"levelo_inurba_marseille","lat":43.271388,"lon":5.409269,"is_reserved":false,"is_disabled":false,"rental_uris":{"android":"levelo://app?vid=df86ea7d-4abf-4c0f-abed-07b5d4036757","ios":"levelo://app?vid=df86ea7d-4abf-4c0f-abed-07b5d4036757"},"vehicle_type_id":"4","last_reported":1685311529,"current_range_meters":29600,"station_id":"ce4bhl12rcd13ifvqgf0","pricing_plan_id":"free"},{"bike_id":"235d610b-1691-453d-a9b3-720afabdcb53","system_id":"levelo_inurba_marseille","lat":43.271368,"lon":5.40928,"is_reserved":false,"is_disabled":false,"rental_uris":{"android":"levelo://app?vid=235d610b-1691-453d-a9b3-720afabdcb53","ios":"levelo://app?vid=235d610b-1691-453d-a9b3-720afabdcb53"},"vehicle_type_id":"4","last_reported":1685311529,"current_range_meters":28800,"station_id":"ce4bhl12rcd13ifvqgf0","pricing_plan_id":"free"},{"bike_id":"253b37b6-ad5f-4b65-b32b-d4daf3c3dcf1","system_id":"levelo_inurba_marseille","lat":43.267959,"lon":5.402687,"is_reserved":false,"is_disabled":false,"rental_uris":{"android":"levelo://app?vid=253b37b6-ad5f-4b65-b32b-d4daf3c3dcf1","ios":"levelo://app?vid=253b37b6-ad5f-4b65-b32b-d4daf3c3dcf1"},"vehicle_type_id":"4","last_reported":1685311529,"current_range_meters":11600,"station_id":"ce501612rcd8frsf0b60","pricing_plan_id":"free"},{"bike_id":"933f42be-453b-4f51-8fc5-139da5459b29","system_id":"levelo_inurba_marseille","lat":43.28163,"lon":5.42514,"is_reserved":false,"is_disabled":false,"rental_uris":{"android":"levelo://app?vid=933f42be-453b-4f51-8fc5-139da5459b29","ios":"levelo://app?vid=933f42be-453b-4f51-8fc5-139da5459b29"},"vehicle_type_id":"4","last_reported":1685311529,"current_range_meters":3600,"station_id":"","pricing_plan_id":"free"},{"bike_id":"38a00cf5-faa9-4ab7-9359-f11271798cd3","system_id":"levelo_inurba_marseille","lat":43.298768,"lon":5.43643,"is_reserved":false,"is_disabled":false,"rental_uris":{"android":"levelo://app?vid=38a00cf5-faa9-4ab7-9359-f11271798cd3","ios":"levelo://app?vid=38a00cf5-faa9-4ab7-9359-f11271798cd3"},"vehicle_type_id":"4","last_reported":1685311529,"current_range_meters":2800,"station_id":"ce4bhpp2rcd13ifvqhfg","pricing_plan_id":"free"},{"bike_id":"6b404443-757b-4b8d-9a78-a03ca59013fb","system_id":"levelo_inurba_marseille","lat":43.2592,"lon":5.37283,"is_reserved":false,"is_disabled":false,"rental_uris":{"android":"levelo://app?vid=6b404443-757b-4b8d-9a78-a03ca59013fb","ios":"levelo://app?vid=6b404443-757b-4b8d-9a78-a03ca59013fb"},"vehicle_type_id":"4","last_reported":1685311529,"current_range_meters":8800,"station_id":"","pricing_plan_id":"free"},{"bike_id":"b0ea9451-70ee-440a-ae23-470f4f6ac057","system_id":"levelo_inurba_marseille","lat":43.260909,"lon":5.397591,"is_reserved":false,"is_disabled":false,"rental_uris":{"android":"levelo://app?vid=b0ea9451-70ee-440a-ae23-470f4f6ac057","ios":"levelo://app?vid=b0ea9451-70ee-440a-ae23-470f4f6ac057"},"vehicle_type_id":"4","last_reported":1685311529,"current_range_meters":3200,"station_id":"ce4bhi12rcd13ifvqfq0","pricing_plan_id":"free"},{"bike_id":"21a94e83-2bcf-4902-8a6a-85407ac0d3c9","system_id":"levelo_inurba_marseille","lat":43.254952,"lon":5.376471,"is_reserved":false,"is_disabled":false,"rental_uris":{"android":"levelo://app?vid=21a94e83-2bcf-4902-8a6a-85407ac0d3c9","ios":"levelo://app?vid=21a94e83-2bcf-4902-8a6a-85407ac0d3c9"},"vehicle_type_id":"4","last_reported":1685311529,"current_range_meters":0,"station_id":"","pricing_plan_id":"free"},{"bike_id":"b540a9e6-4ea8-44fd-8cc9-9e347866723e","system_id":"levelo_inurba_marseille","lat":43.270721,"lon":5.422764,"is_reserved":false,"is_disabled":false,"rental_uris":{"android":"levelo://app?vid=b540a9e6-4ea8-44fd-8cc9-9e347866723e","ios":"levelo://app?vid=b540a9e6-4ea8-44fd-8cc9-9e347866723e"},"vehicle_type_id":"4","last_reported":1685311529,"current_range_meters":30800,"station_id":"ce4bhk92rcd13ifvqgb0","pricing_plan_id":"free"},{"bike_id":"6e51d88c-8fa3-4680-ba4d-a1ddf8e06ff8","system_id":"levelo_inurba_marseille","lat":43.270721,"lon":5.422764,"is_reserved":false,"is_disabled":false,"rental_uris":{"android":"levelo://app?vid=6e51d88c-8fa3-4680-ba4d-a1ddf8e06ff8","ios":"levelo://app?vid=6e51d88c-8fa3-4680-ba4d-a1ddf8e06ff8"},"vehicle_type_id":"4","last_reported":1685311529,"current_range_meters":31200,"station_id":"ce4bhk92rcd13ifvqgb0","pricing_plan_id":"free"},{"bike_id":"07197c27-49e4-4c65-aea3-184a56157b42","system_id":"levelo_inurba_marseille","lat":43.270721,"lon":5.422764,"is_reserved":false,"is_disabled":false,"rental_uris":{"android":"levelo://app?vid=07197c27-49e4-4c65-aea3-184a56157b42","ios":"levelo://app?vid=07197c27-49e4-4c65-aea3-184a56157b42"},"vehicle_type_id":"4","last_reported":1685311529,"current_range_meters":31200,"station_id":"ce4bhk92rcd13ifvqgb0","pricing_plan_id":"free"},{"bike_id":"f70601b2-90d1-4791-8127-007efe8e864b","system_id":"levelo_inurba_marseille","lat":43.270721,"lon":5.422764,"is_reserved":false,"is_disabled":false,"rental_uris":{"android":"levelo://app?vid=f70601b2-90d1-4791-8127-007efe8e864b","ios":"levelo://app?vid=f70601b2-90d1-4791-8127-007efe8e864b"},"vehicle_type_id":"4","last_reported":1685311529,"current_range_meters":31200,"station_id":"ce4bhk92rcd13ifvqgb0","pricing_plan_id":"free"},{"bike_id":"69a5ecd5-d1b4-46d1-8414-bd8a28d22556","system_id":"levelo_inurba_marseille","lat":43.270721,"lon":5.422764,"is_reserved":false,"is_disabled":false,"rental_uris":{"android":"levelo://app?vid=69a5ecd5-d1b4-46d1-8414-bd8a28d22556","ios":"levelo://app?vid=69a5ecd5-d1b4-46d1-8414-bd8a28d22556"},"vehicle_type_id":"4","last_reported":1685311529,"current_range_meters":31200,"station_id":"ce4bhk92rcd13ifvqgb0","pricing_plan_id":"free"},{"bike_id":"b20ba745-0494-4f3f-b887-31cd8f6f48f0","system_id":"levelo_inurba_marseille","lat":43.258658,"lon":5.398935,"is_reserved":false,"is_disabled":false,"rental_uris":{"android":"levelo://app?vid=b20ba745-0494-4f3f-b887-31cd8f6f48f0","ios":"levelo://app?vid=b20ba745-0494-4f3f-b887-31cd8f6f48f0"},"vehicle_type_id":"4","last_reported":1685311529,"current_range_meters":11600,"station_id":"ce4bhl92rcd13ifvqghg","pricing_plan_id":"free"},{"bike_id":"17ef26ac-7128-4f37-adb6-a2acd52cbb52","system_id":"levelo_inurba_marseille","lat":43.24905,"lon":5.38959,"is_reserved":false,"is_disabled":false,"rental_uris":{"android":"levelo://app?vid=17ef26ac-7128-4f37-adb6-a2acd52cbb52","ios":"levelo://app?vid=17ef26ac-7128-4f37-adb6-a2acd52cbb52"},"vehicle_type_id":"4","last_reported":1685311529,"current_range_meters":11600,"station_id":"","pricing_plan_id":"free"},{"bike_id":"6d2073a6-d325-48b2-a6bc-c5f818f0cdb3","system_id":"levelo_inurba_marseille","lat":43.24662,"lon":5.3816,"is_reserved":false,"is_disabled":false,"rental_uris":{"android":"levelo://app?vid=6d2073a6-d325-48b2-a6bc-c5f818f0cdb3","ios":"levelo://app?vid=6d2073a6-d325-48b2-a6bc-c5f818f0cdb3"},"vehicle_type_id":"4","last_reported":1685311529,"current_range_meters":20400,"station_id":"","pricing_plan_id":"free"},{"bike_id":"737cd956-5fa3-40c9-880b-7a326b63047c","system_id":"levelo_inurba_marseille","lat":43.25102,"lon":5.403214,"is_reserved":false,"is_disabled":false,"rental_uris":{"android":"levelo://app?vid=737cd956-5fa3-40c9-880b-7a326b63047c","ios":"levelo://app?vid=737cd956-5fa3-40c9-880b-7a326b63047c"},"vehicle_type_id":"4","last_reported":1685311529,"current_range_meters":4400,"station_id":"ce4bhlh2rcd13ifvqgig","pricing_plan_id":"free"},{"bike_id":"fe3fc893-b7b8-428c-99e0-e4de8a3e87e7","system_id":"levelo_inurba_marseille","lat":43.25102,"lon":5.403214,"is_reserved":false,"is_disabled":false,"rental_uris":{"android":"levelo://app?vid=fe3fc893-b7b8-428c-99e0-e4de8a3e87e7","ios":"levelo://app?vid=fe3fc893-b7b8-428c-99e0-e4de8a3e87e7"},"vehicle_type_id":"4","last_reported":1685311529,"current_range_meters":18400,"station_id":"ce4bhlh2rcd13ifvqgig","pricing_plan_id":"free"},{"bike_id":"876ffd3f-4509-4eac-b0c0-f23dd82e5740","system_id":"levelo_inurba_marseille","lat":43.25109,"lon":5.40318,"is_reserved":false,"is_disabled":false,"rental_uris":{"android":"levelo://app?vid=876ffd3f-4509-4eac-b0c0-f23dd82e5740","ios":"levelo://app?vid=876ffd3f-4509-4eac-b0c0-f23dd82e5740"},"vehicle_type_id":"4","last_reported":1685311529,"current_range_meters":17200,"station_id":"ce4bhlh2rcd13ifvqgig","pricing_plan_id":"free"},{"bike_id":"a76f476d-2166-4eff-95c6-2c76c18910f8","system_id":"levelo_inurba_marseille","lat":43.25102,"lon":5.403214,"is_reserved":false,"is_disabled":false,"rental_uris":{"android":"levelo://app?vid=a76f476d-2166-4eff-95c6-2c76c18910f8","ios":"levelo://app?vid=a76f476d-2166-4eff-95c6-2c76c18910f8"},"vehicle_type_id":"4","last_reported":1685311529,"current_range_meters":6000,"station_id":"ce4bhlh2rcd13ifvqgig","pricing_plan_id":"free"},{"bike_id":"24fb4b69-2e63-47ee-bf98-1a9a16683dcc","system_id":"levelo_inurba_marseille","lat":43.24083,"lon":5.3776,"is_reserved":false,"is_disabled":false,"rental_uris":{"android":"levelo://app?vid=24fb4b69-2e63-47ee-bf98-1a9a16683dcc","ios":"levelo://app?vid=24fb4b69-2e63-47ee-bf98-1a9a16683dcc"},"vehicle_type_id":"4","last_reported":1685311529,"current_range_meters":26800,"station_id":"","pricing_plan_id":"free"},{"bike_id":"cbbd08c5-0253-46f1-872a-15def88c8d47","system_id":"levelo_inurba_marseille","lat":43.24082,"lon":5.37756,"is_reserved":false,"is_disabled":false,"rental_uris":{"android":"levelo://app?vid=cbbd08c5-0253-46f1-872a-15def88c8d47","ios":"levelo://app?vid=cbbd08c5-0253-46f1-872a-15def88c8d47"},"vehicle_type_id":"4","last_reported":1685311529,"current_range_meters":20400,"station_id":"","pricing_plan_id":"free"},{"bike_id":"936357a5-48fc-44ea-a059-3fbf2761c020","system_id":"levelo_inurba_marseille","lat":43.24079,"lon":5.37756,"is_reserved":false,"is_disabled":false,"rental_uris":{"android":"levelo://app?vid=936357a5-48fc-44ea-a059-3fbf2761c020","ios":"levelo://app?vid=936357a5-48fc-44ea-a059-3fbf2761c020"},"vehicle_type_id":"4","last_reported":1685311529,"current_range_meters":28000,"station_id":"","pricing_plan_id":"free"},{"bike_id":"375bea00-7535-40cf-9db3-726053b2716a","system_id":"levelo_inurba_marseille","lat":43.24078,"lon":5.37749,"is_reserved":false,"is_disabled":false,"rental_uris":{"android":"levelo://app?vid=375bea00-7535-40cf-9db3-726053b2716a","ios":"levelo://app?vid=375bea00-7535-40cf-9db3-726053b2716a"},"vehicle_type_id":"4","last_reported":1685311529,"current_range_meters":27200,"station_id":"","pricing_plan_id":"free"},{"bike_id":"a7496784-6a6e-438b-982b-361a84d337d6","system_id":"levelo_inurba_marseille","lat":43.24079,"lon":5.37762,"is_reserved":false,"is_disabled":false,"rental_uris":{"android":"levelo://app?vid=a7496784-6a6e-438b-982b-361a84d337d6","ios":"levelo://app?vid=a7496784-6a6e-438b-982b-361a84d337d6"},"vehicle_type_id":"4","last_reported":1685311529,"current_range_meters":28000,"station_id":"","pricing_plan_id":"free"},{"bike_id":"3f0a9dc9-0509-4c14-9cde-4da06b6fe1a3","system_id":"levelo_inurba_marseille","lat":43.24078,"lon":5.37751,"is_reserved":false,"is_disabled":false,"rental_uris":{"android":"levelo://app?vid=3f0a9dc9-0509-4c14-9cde-4da06b6fe1a3","ios":"levelo://app?vid=3f0a9dc9-0509-4c14-9cde-4da06b6fe1a3"},"vehicle_type_id":"4","last_reported":1685311529,"current_range_meters":10400,"station_id":"","pricing_plan_id":"free"},{"bike_id":"ceca2ac0-fad6-49a0-803a-c9d0b85268fd","system_id":"levelo_inurba_marseille","lat":43.24078,"lon":5.37755,"is_reserved":false,"is_disabled":false,"rental_uris":{"android":"levelo://app?vid=ceca2ac0-fad6-49a0-803a-c9d0b85268fd","ios":"levelo://app?vid=ceca2ac0-fad6-49a0-803a-c9d0b85268fd"},"vehicle_type_id":"4","last_reported":1685311529,"current_range_meters":29200,"station_id":"","pricing_plan_id":"free"},{"bike_id":"3c0fb543-7d5f-4ba2-a741-510a465558d5","system_id":"levelo_inurba_marseille","lat":43.24077,"lon":5.37744,"is_reserved":false,"is_disabled":false,"rental_uris":{"android":"levelo://app?vid=3c0fb543-7d5f-4ba2-a741-510a465558d5","ios":"levelo://app?vid=3c0fb543-7d5f-4ba2-a741-510a465558d5"},"vehicle_type_id":"4","last_reported":1685311529,"current_range_meters":28800,"station_id":"","pricing_plan_id":"free"},{"bike_id":"9e2be43e-190b-4cc5-8721-cc57121f2777","system_id":"levelo_inurba_marseille","lat":43.24077,"lon":5.37752,"is_reserved":false,"is_disabled":false,"rental_uris":{"android":"levelo://app?vid=9e2be43e-190b-4cc5-8721-cc57121f2777","ios":"levelo://app?vid=9e2be43e-190b-4cc5-8721-cc57121f2777"},"vehicle_type_id":"4","last_reported":1685311529,"current_range_meters":28000,"station_id":"","pricing_plan_id":"free"},{"bike_id":"5a6ad831-7e21-4769-aa74-86357a481a4a","system_id":"levelo_inurba_marseille","lat":43.241782,"lon":5.397261,"is_reserved":false,"is_disabled":false,"rental_uris":{"android":"levelo://app?vid=5a6ad831-7e21-4769-aa74-86357a481a4a","ios":"levelo://app?vid=5a6ad831-7e21-4769-aa74-86357a481a4a"},"vehicle_type_id":"4","last_reported":1685311529,"current_range_meters":4400,"station_id":"ce4bhn12rcd13ifvqgpg","pricing_plan_id":"free"},{"bike_id":"621982c5-7b25-400f-aa65-4fe7485cff67","system_id":"levelo_inurba_marseille","lat":43.30384,"lon":5.47458,"is_reserved":false,"is_disabled":false,"rental_uris":{"android":"levelo://app?vid=621982c5-7b25-400f-aa65-4fe7485cff67","ios":"levelo://app?vid=621982c5-7b25-400f-aa65-4fe7485cff67"},"vehicle_type_id":"4","last_reported":1685311529,"current_range_meters":28400,"station_id":"","pricing_plan_id":"free"},{"bike_id":"9b868617-b176-4e5b-bbf3-d168630e1c9d","system_id":"levelo_inurba_marseille","lat":43.2319,"lon":5.39982,"is_reserved":false,"is_disabled":false,"rental_uris":{"android":"levelo://app?vid=9b868617-b176-4e5b-bbf3-d168630e1c9d","ios":"levelo://app?vid=9b868617-b176-4e5b-bbf3-d168630e1c9d"},"vehicle_type_id":"4","last_reported":1685311529,"current_range_meters":31200,"station_id":"ce4bhn12rcd13ifvqgqg","pricing_plan_id":"free"},{"bike_id":"ddeb217c-c36f-4d9f-a6b7-591bb633c619","system_id":"levelo_inurba_marseille","lat":43.23188,"lon":5.39988,"is_reserved":false,"is_disabled":false,"rental_uris":{"android":"levelo://app?vid=ddeb217c-c36f-4d9f-a6b7-591bb633c619","ios":"levelo://app?vid=ddeb217c-c36f-4d9f-a6b7-591bb633c619"},"vehicle_type_id":"4","last_reported":1685311529,"current_range_meters":31200,"station_id":"ce4bhn12rcd13ifvqgqg","pricing_plan_id":"free"},{"bike_id":"67b77559-a903-49c5-9f37-4b2143617b52","system_id":"levelo_inurba_marseille","lat":43.23186,"lon":5.39989,"is_reserved":false,"is_disabled":false,"rental_uris":{"android":"levelo://app?vid=67b77559-a903-49c5-9f37-4b2143617b52","ios":"levelo://app?vid=67b77559-a903-49c5-9f37-4b2143617b52"},"vehicle_type_id":"4","last_reported":1685311529,"current_range_meters":31200,"station_id":"ce4bhn12rcd13ifvqgqg","pricing_plan_id":"free"},{"bike_id":"523054a1-6a41-4d05-9039-d135dd68ad8d","system_id":"levelo_inurba_marseille","lat":43.23186,"lon":5.3999,"is_reserved":false,"is_disabled":false,"rental_uris":{"android":"levelo://app?vid=523054a1-6a41-4d05-9039-d135dd68ad8d","ios":"levelo://app?vid=523054a1-6a41-4d05-9039-d135dd68ad8d"},"vehicle_type_id":"4","last_reported":1685311529,"current_range_meters":31200,"station_id":"ce4bhn12rcd13ifvqgqg","pricing_plan_id":"free"},{"bike_id":"19780742-7429-46d5-8a21-489604e7e458","system_id":"levelo_inurba_marseille","lat":43.231793,"lon":5.400044,"is_reserved":false,"is_disabled":false,"rental_uris":{"android":"levelo://app?vid=19780742-7429-46d5-8a21-489604e7e458","ios":"levelo://app?vid=19780742-7429-46d5-8a21-489604e7e458"},"vehicle_type_id":"4","last_reported":1685311529,"current_range_meters":30800,"station_id":"ce4bhn12rcd13ifvqgqg","pricing_plan_id":"free"},{"bike_id":"b35c0da7-330d-4e9e-bd1e-9d0408c664b3","system_id":"levelo_inurba_marseille","lat":43.23187,"lon":5.39997,"is_reserved":false,"is_disabled":false,"rental_uris":{"android":"levelo://app?vid=b35c0da7-330d-4e9e-bd1e-9d0408c664b3","ios":"levelo://app?vid=b35c0da7-330d-4e9e-bd1e-9d0408c664b3"},"vehicle_type_id":"4","last_reported":1685311529,"current_range_meters":31200,"station_id":"ce4bhn12rcd13ifvqgqg","pricing_plan_id":"free"},{"bike_id":"a7fbfb05-3a72-4dea-b5c9-12ad7997a8ad","system_id":"levelo_inurba_marseille","lat":43.23184,"lon":5.39989,"is_reserved":false,"is_disabled":false,"rental_uris":{"android":"levelo://app?vid=a7fbfb05-3a72-4dea-b5c9-12ad7997a8ad","ios":"levelo://app?vid=a7fbfb05-3a72-4dea-b5c9-12ad7997a8ad"},"vehicle_type_id":"4","last_reported":1685311529,"current_range_meters":28400,"station_id":"ce4bhn12rcd13ifvqgqg","pricing_plan_id":"free"},{"bike_id":"56230511-dc5b-4d08-9a00-988f627fae27","system_id":"levelo_inurba_marseille","lat":43.23185,"lon":5.39995,"is_reserved":false,"is_disabled":false,"rental_uris":{"android":"levelo://app?vid=56230511-dc5b-4d08-9a00-988f627fae27","ios":"levelo://app?vid=56230511-dc5b-4d08-9a00-988f627fae27"},"vehicle_type_id":"4","last_reported":1685311529,"current_range_meters":31200,"station_id":"ce4bhn12rcd13ifvqgqg","pricing_plan_id":"free"},{"bike_id":"d0b52e7f-623a-4470-b0bc-03da6c1e273a","system_id":"levelo_inurba_marseille","lat":43.23183,"lon":5.39987,"is_reserved":false,"is_disabled":false,"rental_uris":{"android":"levelo://app?vid=d0b52e7f-623a-4470-b0bc-03da6c1e273a","ios":"levelo://app?vid=d0b52e7f-623a-4470-b0bc-03da6c1e273a"},"vehicle_type_id":"4","last_reported":1685311529,"current_range_meters":14000,"station_id":"ce4bhn12rcd13ifvqgqg","pricing_plan_id":"free"},{"bike_id":"95832486-4dae-4689-9c6a-056a60f31c53","system_id":"levelo_inurba_marseille","lat":43.231793,"lon":5.400044,"is_reserved":false,"is_disabled":false,"rental_uris":{"android":"levelo://app?vid=95832486-4dae-4689-9c6a-056a60f31c53","ios":"levelo://app?vid=95832486-4dae-4689-9c6a-056a60f31c53"},"vehicle_type_id":"4","last_reported":1685311529,"current_range_meters":31200,"station_id":"ce4bhn12rcd13ifvqgqg","pricing_plan_id":"free"},{"bike_id":"ae1dde4d-2bf3-4075-a27d-5c93c15f8c70","system_id":"levelo_inurba_marseille","lat":43.23182,"lon":5.39997,"is_reserved":false,"is_disabled":false,"rental_uris":{"android":"levelo://app?vid=ae1dde4d-2bf3-4075-a27d-5c93c15f8c70","ios":"levelo://app?vid=ae1dde4d-2bf3-4075-a27d-5c93c15f8c70"},"vehicle_type_id":"4","last_reported":1685311529,"current_range_meters":25200,"station_id":"ce4bhn12rcd13ifvqgqg","pricing_plan_id":"free"}]}}