{"last_updated":1748113662,"ttl":60,"version":"2.2","data":{"bikes":[{"bike_id":"efc394e6-da7b-4646-98fe-8bee3b6e6d62","system_id":"levelo_inurba_marseille","lat":43.29266,"lon":5.38434,"is_reserved":false,"is_disabled":false,"rental_uris":{"android":"levelo://app?vid=efc394e6-da7b-4646-98fe-8bee3b6e6d62","ios":"levelo://app?vid=efc394e6-da7b-4646-98fe-8bee3b6e6d62"},"vehicle_type_id":"4","last_reported":1748113663,"current_range_meters":2800,"station_id":"ce4bh692rcd13ifvqea0","pricing_plan_id":"cebpf4jnsgd1na2vs0mg"},{"bike_id":"9f2a538d-8b5c-4836-8712-bfd433641dea","system_id":"levelo_inurba_marseille","lat":43.30147,"lon":5.38078,"is_reserved":false,"is_disabled":false,"rental_uris":{"android":"levelo://app?vid=9f2a538d-8b5c-4836-8712-bfd433641dea","ios":"levelo://app?vid=9f2a538d-8b5c-4836-8712-bfd433641dea"},"vehicle_type_id":"4","last_reported":1748113663,"current_range_meters":4800,"station_id":"ce4bgjp2rcd13ifvqbh0","pricing_plan_id":"cebpf4jnsgd1na2vs0mg"},{"bike_id":"510b2e76-a459-4689-8ccf-1c3eeecfa249","system_id":"levelo_inurba_marseille","lat":43.28974,"lon":5.37824,"is_reserved":false,"is_disabled":false,"rental_uris":{"android":"levelo://app?vid=510b2e76-a459-4689-8ccf-1c3eeecfa249","ios":"levelo://app?vid=510b2e76-a459-4689-8ccf-1c3eeecfa249"},"vehicle_type_id":"4","last_reported":1748113663,"current_range_meters":2800,"station_id":"ce4bh9p2rcd13ifvqed0","pricing_plan_id":"cebpf4jnsgd1na2vs0mg"},{"bike_id":"7dfdfdc8-9c79-46b6-9a4b-924773b53f29","system_id":"levelo_inurba_marseille","lat":43.268639,"lon":5.391669,"is_reserved":false,"is_disabled":false,"rental_uris":{"android":"levelo://app?vid=7dfdfdc8-9c79-46b6-9a4b-924773b53f29","ios":"levelo://app?vid=7dfdfdc8-9c79-46b6-9a4b-924773b53f29"},"vehicle_type_id":"4","last_reported":1748113663,"current_range_meters":2800,"station_id":"","pricing_plan_id":"cebpf4jnsgd1na2vs0mg"},{"bike_id":"0bf85b7f-6826-422e-b72b-80c09615ee15","system_id":"levelo_inurba_marseille","lat":43.30333,"lon":5.40434,"is_reserved":false,"is_disabled":false,"rental_uris":{"android":"levelo://app?vid=0bf85b7f-6826-422e-b72b-80c09615ee15","ios":"levelo://app?vid=0bf85b7f-6826-422e-b72b-80c09615ee15"},"vehicle_type_id":"4","last_reported":1748113663,"current_range_meters":2800,"station_id":"ce4bh012rcd13ifvqd10","pricing_plan_id":"cebpf4jnsgd1na2vs0mg"},{"bike_id":"a9e12c51-f7ec-4945-a2a1-0bdd24f322c6","system_id":"levelo_inurba_marseille","lat":43.28924,"lon":5.36619,"is_reserved":false,"is_disabled":false,"rental_uris":{"android":"levelo://app?vid=a9e12c51-f7ec-4945-a2a1-0bdd24f322c6","ios":"levelo://app?vid=a9e12c51-f7ec-4945-a2a1-0bdd24f322c6"},"vehicle_type_id":"4","last_reported":1748113663,"current_range_meters":2800,"station_id":"ce4bhap2rcd13ifvqek0","pricing_plan_id":"cebpf4jnsgd1na2vs0mg"},{"bike_id":"d7ae368f-dd3a-4a33-85a5-e4546789256f","system_id":"levelo_inurba_marseille","lat":43.29048,"lon":5.38646,"is_reserved":false,"is_disabled":false,"rental_uris":{"android":"levelo://app?vid=d7ae368f-dd3a-4a33-85a5-e4546789256f","ios":"levelo://app?vid=d7ae368f-dd3a-4a33-85a5-e4546789256f"},"vehicle_type_id":"4","last_reported":1748113663,"current_range_meters":3200,"station_id":"ce4bh4p2rcd13ifvqe0g","pricing_plan_id":"cebpf4jnsgd1na2vs0mg"},{"bike_id":"df7bb070-bbdc-4319-8f8b-af2d5368d083","system_id":"levelo_inurba_marseille","lat":43.31383,"lon":5.38504,"is_reserved":false,"is_disabled":false,"rental_uris":{"android":"levelo://app?vid=df7bb070-bbdc-4319-8f8b-af2d5368d083","ios":"levelo://app?vid=df7bb070-bbdc-4319-8f8b-af2d5368d083"},"vehicle_type_id":"4","last_reported":1748113663,"current_range_meters":3200,"station_id":"ce4bgt92rcd13ifvqcf0","pricing_plan_id":"cebpf4jnsgd1na2vs0mg"},{"bike_id":"2b0b3446-64fa-4425-b6a6-3881c81a5d9d","system_id":"levelo_inurba_marseille","lat":43.2942,"lon":5.3862,"is_reserved":false,"is_disabled":false,"rental_uris":{"android":"levelo://app?vid=2b0b3446-64fa-4425-b6a6-3881c81a5d9d","ios":"levelo://app?vid=2b0b3446-64fa-4425-b6a6-3881c81a5d9d"},"vehicle_type_id":"4","last_reported":1748113663,"current_range_meters":3200,"station_id":"ce4bh2h2rcd13ifvqdh0","pricing_plan_id":"cebpf4jnsgd1na2vs0mg"},{"bike_id":"c3e95c23-ce21-4807-8667-db36294ba3b1","system_id":"levelo_inurba_marseille","lat":43.309565,"lon":5.390229,"is_reserved":false,"is_disabled":false,"rental_uris":{"android":"levelo://app?vid=c3e95c23-ce21-4807-8667-db36294ba3b1","ios":"levelo://app?vid=c3e95c23-ce21-4807-8667-db36294ba3b1"},"vehicle_type_id":"4","last_reported":1748113663,"current_range_meters":3200,"station_id":"ce4bgup2rcd13ifvqco0","pricing_plan_id":"cebpf4jnsgd1na2vs0mg"},{"bike_id":"e4b8da17-840b-4ce7-bd95-fe86b8710f78","system_id":"levelo_inurba_marseille","lat":43.28993,"lon":5.35609,"is_reserved":false,"is_disabled":true,"rental_uris":{"android":"levelo://app?vid=e4b8da17-840b-4ce7-bd95-fe86b8710f78","ios":"levelo://app?vid=e4b8da17-840b-4ce7-bd95-fe86b8710f78"},"vehicle_type_id":"4","last_reported":1748113663,"current_range_meters":3200,"station_id":"ce4bhb92rcd13ifvqen0","pricing_plan_id":"cebpf4jnsgd1na2vs0mg"},{"bike_id":"b064b945-34c6-4919-90d1-e97c05581540","system_id":"levelo_inurba_marseille","lat":43.29967,"lon":5.38496,"is_reserved":false,"is_disabled":false,"rental_uris":{"android":"levelo://app?vid=b064b945-34c6-4919-90d1-e97c05581540","ios":"levelo://app?vid=b064b945-34c6-4919-90d1-e97c05581540"},"vehicle_type_id":"4","last_reported":1748113663,"current_range_meters":3200,"station_id":"ce4bgj92rcd13ifvqbd0","pricing_plan_id":"cebpf4jnsgd1na2vs0mg"},{"bike_id":"0ea5c52c-ca34-488f-ba5e-9360d8e35172","system_id":"levelo_inurba_marseille","lat":43.23206,"lon":5.35552,"is_reserved":false,"is_disabled":false,"rental_uris":{"android":"levelo://app?vid=0ea5c52c-ca34-488f-ba5e-9360d8e35172","ios":"levelo://app?vid=0ea5c52c-ca34-488f-ba5e-9360d8e35172"},"vehicle_type_id":"4","last_reported":1748113663,"current_range_meters":3200,"station_id":"ce4bhu92rcd13ifvqi70","pricing_plan_id":"cebpf4jnsgd1na2vs0mg"},{"bike_id":"b57dc791-d807-4cd5-a24d-f07754b16f4f","system_id":"levelo_inurba_marseille","lat":43.28443,"lon":5.39206,"is_reserved":false,"is_disabled":false,"rental_uris":{"android":"levelo://app?vid=b57dc791-d807-4cd5-a24d-f07754b16f4f","ios":"levelo://app?vid=b57dc791-d807-4cd5-a24d-f07754b16f4f"},"vehicle_type_id":"4","last_reported":1748113663,"current_range_meters":0,"station_id":"ce4bhoh2rcd13ifvqh5g","pricing_plan_id":"cebpf4jnsgd1na2vs0mg"},{"bike_id":"d084901a-c3be-4ed9-9df6-cfe04dd9dd5e","system_id":"levelo_inurba_marseille","lat":43.32404,"lon":5.38412,"is_reserved":false,"is_disabled":false,"rental_uris":{"android":"levelo://app?vid=d084901a-c3be-4ed9-9df6-cfe04dd9dd5e","ios":"levelo://app?vid=d084901a-c3be-4ed9-9df6-cfe04dd9dd5e"},"vehicle_type_id":"4","last_reported":1748113663,"current_range_meters":3200,"station_id":"","pricing_plan_id":"cebpf4jnsgd1na2vs0mg"},{"bike_id":"557f860b-a82f-484a-a86c-f057c08dd488","system_id":"levelo_inurba_marseille","lat":43.273924,"lon":5.362411,"is_reserved":false,"is_disabled":false,"rental_uris":{"android":"levelo://app?vid=557f860b-a82f-484a-a86c-f057c08dd488","ios":"levelo://app?vid=557f860b-a82f-484a-a86c-f057c08dd488"},"vehicle_type_id":"4","last_reported":1748113663,"current_range_meters":3200,"station_id":"ce4bhbp2rcd13ifvqerg","pricing_plan_id":"cebpf4jnsgd1na2vs0mg"},{"bike_id":"881f41bb-bca6-4608-99c0-21f0f810a2d2","system_id":"levelo_inurba_marseille","lat":43.27496,"lon":5.42448,"is_reserved":false,"is_disabled":false,"rental_uris":{"android":"levelo://app?vid=881f41bb-bca6-4608-99c0-21f0f810a2d2","ios":"levelo://app?vid=881f41bb-bca6-4608-99c0-21f0f810a2d2"},"vehicle_type_id":"4","last_reported":1748113663,"current_range_meters":3600,"station_id":"ce4bhn92rcd13ifvqgrg","pricing_plan_id":"cebpf4jnsgd1na2vs0mg"},{"bike_id":"0f622957-f298-4cfc-b9a6-13139ea40892","system_id":"levelo_inurba_marseille","lat":43.23966,"lon":5.36629,"is_reserved":false,"is_disabled":false,"rental_uris":{"android":"levelo://app?vid=0f622957-f298-4cfc-b9a6-13139ea40892","ios":"levelo://app?vid=0f622957-f298-4cfc-b9a6-13139ea40892"},"vehicle_type_id":"4","last_reported":1748113663,"current_range_meters":3600,"station_id":"ce4bhi12rcd13ifvqfp0","pricing_plan_id":"cebpf4jnsgd1na2vs0mg"},{"bike_id":"a098a16c-e09c-4f2f-9ac5-68fdc0e17c43","system_id":"levelo_inurba_marseille","lat":43.309601,"lon":5.390299,"is_reserved":false,"is_disabled":false,"rental_uris":{"android":"levelo://app?vid=a098a16c-e09c-4f2f-9ac5-68fdc0e17c43","ios":"levelo://app?vid=a098a16c-e09c-4f2f-9ac5-68fdc0e17c43"},"vehicle_type_id":"4","last_reported":1748113663,"current_range_meters":3600,"station_id":"ce4bgup2rcd13ifvqco0","pricing_plan_id":"cebpf4jnsgd1na2vs0mg"},{"bike_id":"ae6e715e-7a03-446a-a72b-3d032b48c3bd","system_id":"levelo_inurba_marseille","lat":43.29538,"lon":5.389979,"is_reserved":false,"is_disabled":false,"rental_uris":{"android":"levelo://app?vid=ae6e715e-7a03-446a-a72b-3d032b48c3bd","ios":"levelo://app?vid=ae6e715e-7a03-446a-a72b-3d032b48c3bd"},"vehicle_type_id":"4","last_reported":1748113663,"current_range_meters":3600,"station_id":"","pricing_plan_id":"cebpf4jnsgd1na2vs0mg"},{"bike_id":"d8288498-f302-4b09-9fc6-042d884cd898","system_id":"levelo_inurba_marseille","lat":43.268172,"lon":5.393978,"is_reserved":false,"is_disabled":false,"rental_uris":{"android":"levelo://app?vid=d8288498-f302-4b09-9fc6-042d884cd898","ios":"levelo://app?vid=d8288498-f302-4b09-9fc6-042d884cd898"},"vehicle_type_id":"4","last_reported":1748113663,"current_range_meters":3600,"station_id":"ce4bhh12rcd13ifvqfg0","pricing_plan_id":"cebpf4jnsgd1na2vs0mg"},{"bike_id":"4bdf3d2d-5a05-433e-94e6-9c9aba40e5eb","system_id":"levelo_inurba_marseille","lat":43.28362,"lon":5.38631,"is_reserved":false,"is_disabled":false,"rental_uris":{"android":"levelo://app?vid=4bdf3d2d-5a05-433e-94e6-9c9aba40e5eb","ios":"levelo://app?vid=4bdf3d2d-5a05-433e-94e6-9c9aba40e5eb"},"vehicle_type_id":"4","last_reported":1748113663,"current_range_meters":3600,"station_id":"ce4bh492rcd13ifvqdvg","pricing_plan_id":"cebpf4jnsgd1na2vs0mg"},{"bike_id":"9e1fa971-373a-4050-8f0b-2e76f97d2fc3","system_id":"levelo_inurba_marseille","lat":43.2588,"lon":5.39893,"is_reserved":false,"is_disabled":false,"rental_uris":{"android":"levelo://app?vid=9e1fa971-373a-4050-8f0b-2e76f97d2fc3","ios":"levelo://app?vid=9e1fa971-373a-4050-8f0b-2e76f97d2fc3"},"vehicle_type_id":"4","last_reported":1748113663,"current_range_meters":3600,"station_id":"ce4bhl92rcd13ifvqghg","pricing_plan_id":"cebpf4jnsgd1na2vs0mg"},{"bike_id":"3b9ef39b-2a3d-491a-91cd-2670298085cf","system_id":"levelo_inurba_marseille","lat":43.25502,"lon":5.37652,"is_reserved":false,"is_disabled":false,"rental_uris":{"android":"levelo://app?vid=3b9ef39b-2a3d-491a-91cd-2670298085cf","ios":"levelo://app?vid=3b9ef39b-2a3d-491a-91cd-2670298085cf"},"vehicle_type_id":"4","last_reported":1748113663,"current_range_meters":3600,"station_id":"ce4bhh12rcd13ifvqff0","pricing_plan_id":"cebpf4jnsgd1na2vs0mg"},{"bike_id":"8bd3df63-4f88-4ffa-9df0-411e53058565","system_id":"levelo_inurba_marseille","lat":43.31498,"lon":5.3731,"is_reserved":false,"is_disabled":false,"rental_uris":{"android":"levelo://app?vid=8bd3df63-4f88-4ffa-9df0-411e53058565","ios":"levelo://app?vid=8bd3df63-4f88-4ffa-9df0-411e53058565"},"vehicle_type_id":"4","last_reported":1748113663,"current_range_meters":3600,"station_id":"ce4bgt12rcd13ifvqcd0","pricing_plan_id":"cebpf4jnsgd1na2vs0mg"},{"bike_id":"b9f5a924-7216-46a9-a955-48c0fa4108ed","system_id":"levelo_inurba_marseille","lat":43.27198,"lon":5.39166,"is_reserved":false,"is_disabled":false,"rental_uris":{"android":"levelo://app?vid=b9f5a924-7216-46a9-a955-48c0fa4108ed","ios":"levelo://app?vid=b9f5a924-7216-46a9-a955-48c0fa4108ed"},"vehicle_type_id":"4","last_reported":1748113663,"current_range_meters":4000,"station_id":"ce4bhhp2rcd13ifvqfm0","pricing_plan_id":"cebpf4jnsgd1na2vs0mg"},{"bike_id":"d5c4fc0b-dc19-4ad7-9f67-ad30870d934a","system_id":"levelo_inurba_marseille","lat":43.27996,"lon":5.40012,"is_reserved":false,"is_disabled":false,"rental_uris":{"android":"levelo://app?vid=d5c4fc0b-dc19-4ad7-9f67-ad30870d934a","ios":"levelo://app?vid=d5c4fc0b-dc19-4ad7-9f67-ad30870d934a"},"vehicle_type_id":"4","last_reported":1748113663,"current_range_meters":4000,"station_id":"ce4bho92rcd13ifvqh4g","pricing_plan_id":"cebpf4jnsgd1na2vs0mg"},{"bike_id":"84d448ee-662f-4016-a3bf-5a6631e68157","system_id":"levelo_inurba_marseille","lat":43.29267,"lon":5.38431,"is_reserved":false,"is_disabled":false,"rental_uris":{"android":"levelo://app?vid=84d448ee-662f-4016-a3bf-5a6631e68157","ios":"levelo://app?vid=84d448ee-662f-4016-a3bf-5a6631e68157"},"vehicle_type_id":"4","last_reported":1748113663,"current_range_meters":4000,"station_id":"ce4bh692rcd13ifvqea0","pricing_plan_id":"cebpf4jnsgd1na2vs0mg"},{"bike_id":"8785c28d-a97b-4a67-994f-4bc4dc967020","system_id":"levelo_inurba_marseille","lat":43.25493,"lon":5.3765,"is_reserved":false,"is_disabled":false,"rental_uris":{"android":"levelo://app?vid=8785c28d-a97b-4a67-994f-4bc4dc967020","ios":"levelo://app?vid=8785c28d-a97b-4a67-994f-4bc4dc967020"},"vehicle_type_id":"4","last_reported":1748113663,"current_range_meters":4000,"station_id":"ce4bhh12rcd13ifvqff0","pricing_plan_id":"cebpf4jnsgd1na2vs0mg"},{"bike_id":"f1c6d019-724a-4d8c-8800-518f39091386","system_id":"levelo_inurba_marseille","lat":43.268642,"lon":5.393956,"is_reserved":false,"is_disabled":false,"rental_uris":{"android":"levelo://app?vid=f1c6d019-724a-4d8c-8800-518f39091386","ios":"levelo://app?vid=f1c6d019-724a-4d8c-8800-518f39091386"},"vehicle_type_id":"4","last_reported":1748113663,"current_range_meters":4000,"station_id":"","pricing_plan_id":"cebpf4jnsgd1na2vs0mg"},{"bike_id":"499c183a-1ca8-42a7-8e8e-f144763da522","system_id":"levelo_inurba_marseille","lat":43.23967,"lon":5.36633,"is_reserved":false,"is_disabled":false,"rental_uris":{"android":"levelo://app?vid=499c183a-1ca8-42a7-8e8e-f144763da522","ios":"levelo://app?vid=499c183a-1ca8-42a7-8e8e-f144763da522"},"vehicle_type_id":"4","last_reported":1748113663,"current_range_meters":4000,"station_id":"ce4bhi12rcd13ifvqfp0","pricing_plan_id":"cebpf4jnsgd1na2vs0mg"},{"bike_id":"2ae9fb87-2d1f-453c-8aeb-4fe69d940abc","system_id":"levelo_inurba_marseille","lat":43.28857,"lon":5.35845,"is_reserved":false,"is_disabled":false,"rental_uris":{"android":"levelo://app?vid=2ae9fb87-2d1f-453c-8aeb-4fe69d940abc","ios":"levelo://app?vid=2ae9fb87-2d1f-453c-8aeb-4fe69d940abc"},"vehicle_type_id":"4","last_reported":1748113663,"current_range_meters":4000,"station_id":"ce4bhb12rcd13ifvqem0","pricing_plan_id":"cebpf4jnsgd1na2vs0mg"},{"bike_id":"c21a33c0-903d-4cfd-8657-9d69db05ac9f","system_id":"levelo_inurba_marseille","lat":43.30134,"lon":5.38781,"is_reserved":false,"is_disabled":false,"rental_uris":{"android":"levelo://app?vid=c21a33c0-903d-4cfd-8657-9d69db05ac9f","ios":"levelo://app?vid=c21a33c0-903d-4cfd-8657-9d69db05ac9f"},"vehicle_type_id":"4","last_reported":1748113663,"current_range_meters":4000,"station_id":"ce4bghh2rcd13ifvqb60","pricing_plan_id":"cebpf4jnsgd1na2vs0mg"},{"bike_id":"c400bfc8-20fc-4542-b6f6-4a481cda4d16","system_id":"levelo_inurba_marseille","lat":43.27078,"lon":5.42266,"is_reserved":false,"is_disabled":false,"rental_uris":{"android":"levelo://app?vid=c400bfc8-20fc-4542-b6f6-4a481cda4d16","ios":"levelo://app?vid=c400bfc8-20fc-4542-b6f6-4a481cda4d16"},"vehicle_type_id":"4","last_reported":1748113663,"current_range_meters":4000,"station_id":"ce4bhk92rcd13ifvqgb0","pricing_plan_id":"cebpf4jnsgd1na2vs0mg"},{"bike_id":"67342383-376f-4702-95ca-7c2ab2d52f9a","system_id":"levelo_inurba_marseille","lat":43.24808,"lon":5.37456,"is_reserved":false,"is_disabled":false,"rental_uris":{"android":"levelo://app?vid=67342383-376f-4702-95ca-7c2ab2d52f9a","ios":"levelo://app?vid=67342383-376f-4702-95ca-7c2ab2d52f9a"},"vehicle_type_id":"4","last_reported":1748113663,"current_range_meters":4000,"station_id":"ce4bhgh2rcd13ifvqfb0","pricing_plan_id":"cebpf4jnsgd1na2vs0mg"},{"bike_id":"f221bf04-a863-4d27-9dd1-6c7e3dc83a75","system_id":"levelo_inurba_marseille","lat":43.291913,"lon":5.357953,"is_reserved":false,"is_disabled":false,"rental_uris":{"android":"levelo://app?vid=f221bf04-a863-4d27-9dd1-6c7e3dc83a75","ios":"levelo://app?vid=f221bf04-a863-4d27-9dd1-6c7e3dc83a75"},"vehicle_type_id":"4","last_reported":1748113663,"current_range_meters":4000,"station_id":"ce4bhb12rcd13ifvqel0","pricing_plan_id":"cebpf4jnsgd1na2vs0mg"},{"bike_id":"c139e568-30e4-4816-a4d0-47133acc2e30","system_id":"levelo_inurba_marseille","lat":43.312706,"lon":5.368396,"is_reserved":false,"is_disabled":false,"rental_uris":{"android":"levelo://app?vid=c139e568-30e4-4816-a4d0-47133acc2e30","ios":"levelo://app?vid=c139e568-30e4-4816-a4d0-47133acc2e30"},"vehicle_type_id":"4","last_reported":1748113663,"current_range_meters":4000,"station_id":"","pricing_plan_id":"cebpf4jnsgd1na2vs0mg"},{"bike_id":"a1933a36-f77f-4668-a08c-639a9bd1a1e8","system_id":"levelo_inurba_marseille","lat":43.23182,"lon":5.39993,"is_reserved":false,"is_disabled":true,"rental_uris":{"android":"levelo://app?vid=a1933a36-f77f-4668-a08c-639a9bd1a1e8","ios":"levelo://app?vid=a1933a36-f77f-4668-a08c-639a9bd1a1e8"},"vehicle_type_id":"4","last_reported":1748113663,"current_range_meters":4000,"station_id":"ce4bhn12rcd13ifvqgqg","pricing_plan_id":"cebpf4jnsgd1na2vs0mg"},{"bike_id":"7033f29b-2f82-40a9-922d-36b6315763bf","system_id":"levelo_inurba_marseille","lat":43.25125,"lon":5.40321,"is_reserved":false,"is_disabled":true,"rental_uris":{"android":"levelo://app?vid=7033f29b-2f82-40a9-922d-36b6315763bf","ios":"levelo://app?vid=7033f29b-2f82-40a9-922d-36b6315763bf"},"vehicle_type_id":"4","last_reported":1748113663,"current_range_meters":4000,"station_id":"ce4bhlh2rcd13ifvqgig","pricing_plan_id":"cebpf4jnsgd1na2vs0mg"},{"bike_id":"c6132309-f2cf-4b52-8410-cc627a8f2b93","system_id":"levelo_inurba_marseille","lat":43.27314,"lon":5.3908,"is_reserved":false,"is_disabled":false,"rental_uris":{"android":"levelo://app?vid=c6132309-f2cf-4b52-8410-cc627a8f2b93","ios":"levelo://app?vid=c6132309-f2cf-4b52-8410-cc627a8f2b93"},"vehicle_type_id":"4","last_reported":1748113663,"current_range_meters":4000,"station_id":"ce4bhgp2rcd13ifvqfe0","pricing_plan_id":"cebpf4jnsgd1na2vs0mg"},{"bike_id":"f9315d3a-9532-456a-8621-844a89828053","system_id":"levelo_inurba_marseille","lat":43.26809,"lon":5.4027,"is_reserved":false,"is_disabled":false,"rental_uris":{"android":"levelo://app?vid=f9315d3a-9532-456a-8621-844a89828053","ios":"levelo://app?vid=f9315d3a-9532-456a-8621-844a89828053"},"vehicle_type_id":"4","last_reported":1748113663,"current_range_meters":4400,"station_id":"ce501612rcd8frsf0b60","pricing_plan_id":"cebpf4jnsgd1na2vs0mg"},{"bike_id":"8c3a242a-2c11-453a-ae9f-a9b05125b2ac","system_id":"levelo_inurba_marseille","lat":43.31081,"lon":5.42429,"is_reserved":false,"is_disabled":false,"rental_uris":{"android":"levelo://app?vid=8c3a242a-2c11-453a-ae9f-a9b05125b2ac","ios":"levelo://app?vid=8c3a242a-2c11-453a-ae9f-a9b05125b2ac"},"vehicle_type_id":"4","last_reported":1748113663,"current_range_meters":4400,"station_id":"ce4bhp92rcd13ifvqhag","pricing_plan_id":"cebpf4jnsgd1na2vs0mg"},{"bike_id":"187fd113-9ac1-4c31-bd45-e1ba0bfb4eb7","system_id":"levelo_inurba_marseille","lat":43.26062,"lon":5.3939,"is_reserved":false,"is_disabled":false,"rental_uris":{"android":"levelo://app?vid=187fd113-9ac1-4c31-bd45-e1ba0bfb4eb7","ios":"levelo://app?vid=187fd113-9ac1-4c31-bd45-e1ba0bfb4eb7"},"vehicle_type_id":"4","last_reported":1748113663,"current_range_meters":4400,"station_id":"ce4bhh92rcd13ifvqfj0","pricing_plan_id":"cebpf4jnsgd1na2vs0mg"},{"bike_id":"d85c177f-4e83-49e4-8876-dcc28e03c14d","system_id":"levelo_inurba_marseille","lat":43.25949,"lon":5.40886,"is_reserved":false,"is_disabled":false,"rental_uris":{"android":"levelo://app?vid=d85c177f-4e83-49e4-8876-dcc28e03c14d","ios":"levelo://app?vid=d85c177f-4e83-49e4-8876-dcc28e03c14d"},"vehicle_type_id":"4","last_reported":1748113663,"current_range_meters":4400,"station_id":"ce4bhm92rcd13ifvqglg","pricing_plan_id":"cebpf4jnsgd1na2vs0mg"},{"bike_id":"164e60a4-05bc-4649-85d4-95b45cbfeab2","system_id":"levelo_inurba_marseille","lat":43.257297,"lon":5.411057,"is_reserved":false,"is_disabled":false,"rental_uris":{"android":"levelo://app?vid=164e60a4-05bc-4649-85d4-95b45cbfeab2","ios":"levelo://app?vid=164e60a4-05bc-4649-85d4-95b45cbfeab2"},"vehicle_type_id":"4","last_reported":1748113663,"current_range_meters":4400,"station_id":"ce4bhkp2rcd13ifvqgd0","pricing_plan_id":"cebpf4jnsgd1na2vs0mg"},{"bike_id":"161b9811-ad79-4c70-b7e6-1e13e2f0951d","system_id":"levelo_inurba_marseille","lat":43.299067,"lon":5.4367,"is_reserved":false,"is_disabled":false,"rental_uris":{"android":"levelo://app?vid=161b9811-ad79-4c70-b7e6-1e13e2f0951d","ios":"levelo://app?vid=161b9811-ad79-4c70-b7e6-1e13e2f0951d"},"vehicle_type_id":"4","last_reported":1748113663,"current_range_meters":4400,"station_id":"ce4bhpp2rcd13ifvqhfg","pricing_plan_id":"cebpf4jnsgd1na2vs0mg"},{"bike_id":"9007c312-34fa-4892-a487-84b5ae3e32b4","system_id":"levelo_inurba_marseille","lat":43.260298,"lon":5.375513,"is_reserved":false,"is_disabled":false,"rental_uris":{"android":"levelo://app?vid=9007c312-34fa-4892-a487-84b5ae3e32b4","ios":"levelo://app?vid=9007c312-34fa-4892-a487-84b5ae3e32b4"},"vehicle_type_id":"4","last_reported":1748113663,"current_range_meters":4400,"station_id":"ce4bhbp2rcd13ifvqerg","pricing_plan_id":"cebpf4jnsgd1na2vs0mg"},{"bike_id":"04e344b8-8ddb-484a-be8e-9f08d7e86e49","system_id":"levelo_inurba_marseille","lat":43.25118,"lon":5.40318,"is_reserved":false,"is_disabled":false,"rental_uris":{"android":"levelo://app?vid=04e344b8-8ddb-484a-be8e-9f08d7e86e49","ios":"levelo://app?vid=04e344b8-8ddb-484a-be8e-9f08d7e86e49"},"vehicle_type_id":"4","last_reported":1748113663,"current_range_meters":4400,"station_id":"ce4bhlh2rcd13ifvqgig","pricing_plan_id":"cebpf4jnsgd1na2vs0mg"},{"bike_id":"d3d6c08d-a76f-4998-b220-6fa4399b3ed0","system_id":"levelo_inurba_marseille","lat":43.29782,"lon":5.3933,"is_reserved":false,"is_disabled":false,"rental_uris":{"android":"levelo://app?vid=d3d6c08d-a76f-4998-b220-6fa4399b3ed0","ios":"levelo://app?vid=d3d6c08d-a76f-4998-b220-6fa4399b3ed0"},"vehicle_type_id":"4","last_reported":1748113663,"current_range_meters":4400,"station_id":"chh1huq6cuj3fo74tm60","pricing_plan_id":"cebpf4jnsgd1na2vs0mg"},{"bike_id":"7c1d8af0-0429-45cc-bee5-1e49aebac6f0","system_id":"levelo_inurba_marseille","lat":43.31485,"lon":5.37308,"is_reserved":false,"is_disabled":false,"rental_uris":{"android":"levelo://app?vid=7c1d8af0-0429-45cc-bee5-1e49aebac6f0","ios":"levelo://app?vid=7c1d8af0-0429-45cc-bee5-1e49aebac6f0"},"vehicle_type_id":"4","last_reported":1748113663,"current_range_meters":4400,"station_id":"ce4bgt12rcd13ifvqcd0","pricing_plan_id":"cebpf4jnsgd1na2vs0mg"},{"bike_id":"bc944097-db07-4005-9895-62b3a577db29","system_id":"levelo_inurba_marseille","lat":43.311047,"lon":5.37769,"is_reserved":false,"is_disabled":false,"rental_uris":{"android":"levelo://app?vid=bc944097-db07-4005-9895-62b3a577db29","ios":"levelo://app?vid=bc944097-db07-4005-9895-62b3a577db29"},"vehicle_type_id":"4","last_reported":1748113663,"current_range_meters":4400,"station_id":"ce4bgt92rcd13ifvqcg0","pricing_plan_id":"cebpf4jnsgd1na2vs0mg"},{"bike_id":"221b41ad-2320-4add-abb4-750bb95c61fe","system_id":"levelo_inurba_marseille","lat":43.27497,"lon":5.42455,"is_reserved":false,"is_disabled":false,"rental_uris":{"android":"levelo://app?vid=221b41ad-2320-4add-abb4-750bb95c61fe","ios":"levelo://app?vid=221b41ad-2320-4add-abb4-750bb95c61fe"},"vehicle_type_id":"4","last_reported":1748113663,"current_range_meters":4800,"station_id":"ce4bhn92rcd13ifvqgrg","pricing_plan_id":"cebpf4jnsgd1na2vs0mg"},{"bike_id":"ccfa1c6b-12b8-4a0c-a26b-736b4e51f0b1","system_id":"levelo_inurba_marseille","lat":43.30144,"lon":5.38774,"is_reserved":false,"is_disabled":false,"rental_uris":{"android":"levelo://app?vid=ccfa1c6b-12b8-4a0c-a26b-736b4e51f0b1","ios":"levelo://app?vid=ccfa1c6b-12b8-4a0c-a26b-736b4e51f0b1"},"vehicle_type_id":"4","last_reported":1748113663,"current_range_meters":4800,"station_id":"ce4bghh2rcd13ifvqb60","pricing_plan_id":"cebpf4jnsgd1na2vs0mg"},{"bike_id":"579e2a6f-aedc-4f9e-8fcd-b76f375c4806","system_id":"levelo_inurba_marseille","lat":43.29259,"lon":5.38442,"is_reserved":false,"is_disabled":false,"rental_uris":{"android":"levelo://app?vid=579e2a6f-aedc-4f9e-8fcd-b76f375c4806","ios":"levelo://app?vid=579e2a6f-aedc-4f9e-8fcd-b76f375c4806"},"vehicle_type_id":"4","last_reported":1748113663,"current_range_meters":4800,"station_id":"ce4bh692rcd13ifvqea0","pricing_plan_id":"cebpf4jnsgd1na2vs0mg"},{"bike_id":"38185732-c7f6-483a-b4b3-2f6864e78816","system_id":"levelo_inurba_marseille","lat":43.30411,"lon":5.41297,"is_reserved":false,"is_disabled":false,"rental_uris":{"android":"levelo://app?vid=38185732-c7f6-483a-b4b3-2f6864e78816","ios":"levelo://app?vid=38185732-c7f6-483a-b4b3-2f6864e78816"},"vehicle_type_id":"4","last_reported":1748113663,"current_range_meters":4800,"station_id":"ce4bhop2rcd13ifvqh8g","pricing_plan_id":"cebpf4jnsgd1na2vs0mg"},{"bike_id":"194666df-d60f-4dbf-918c-87098827f0fb","system_id":"levelo_inurba_marseille","lat":43.29403,"lon":5.37919,"is_reserved":false,"is_disabled":true,"rental_uris":{"android":"levelo://app?vid=194666df-d60f-4dbf-918c-87098827f0fb","ios":"levelo://app?vid=194666df-d60f-4dbf-918c-87098827f0fb"},"vehicle_type_id":"4","last_reported":1748113663,"current_range_meters":4800,"station_id":"","pricing_plan_id":"cebpf4jnsgd1na2vs0mg"},{"bike_id":"9a74538b-8ec7-47e7-a984-8ec7c7fc063c","system_id":"levelo_inurba_marseille","lat":43.28612,"lon":5.37068,"is_reserved":false,"is_disabled":false,"rental_uris":{"android":"levelo://app?vid=9a74538b-8ec7-47e7-a984-8ec7c7fc063c","ios":"levelo://app?vid=9a74538b-8ec7-47e7-a984-8ec7c7fc063c"},"vehicle_type_id":"4","last_reported":1748113663,"current_range_meters":4800,"station_id":"ce4bht12rcd13ifvqi60","pricing_plan_id":"cebpf4jnsgd1na2vs0mg"},{"bike_id":"11fa9e88-eb14-4513-bec9-03f3a1b2637d","system_id":"levelo_inurba_marseille","lat":43.231905,"lon":5.355644,"is_reserved":false,"is_disabled":false,"rental_uris":{"android":"levelo://app?vid=11fa9e88-eb14-4513-bec9-03f3a1b2637d","ios":"levelo://app?vid=11fa9e88-eb14-4513-bec9-03f3a1b2637d"},"vehicle_type_id":"4","last_reported":1748113663,"current_range_meters":4800,"station_id":"ce4bhu92rcd13ifvqi70","pricing_plan_id":"cebpf4jnsgd1na2vs0mg"},{"bike_id":"88caf349-da40-4c5d-b0e5-74f4682ce63a","system_id":"levelo_inurba_marseille","lat":43.30912,"lon":5.36849,"is_reserved":false,"is_disabled":false,"rental_uris":{"android":"levelo://app?vid=88caf349-da40-4c5d-b0e5-74f4682ce63a","ios":"levelo://app?vid=88caf349-da40-4c5d-b0e5-74f4682ce63a"},"vehicle_type_id":"4","last_reported":1748113663,"current_range_meters":4800,"station_id":"ce4bgn92rcd13ifvqbvg","pricing_plan_id":"cebpf4jnsgd1na2vs0mg"},{"bike_id":"e04cbddf-84a3-4550-a882-f39ef1eb3c3a","system_id":"levelo_inurba_marseille","lat":43.2732,"lon":5.39083,"is_reserved":false,"is_disabled":false,"rental_uris":{"android":"levelo://app?vid=e04cbddf-84a3-4550-a882-f39ef1eb3c3a","ios":"levelo://app?vid=e04cbddf-84a3-4550-a882-f39ef1eb3c3a"},"vehicle_type_id":"4","last_reported":1748113663,"current_range_meters":4800,"station_id":"ce4bhgp2rcd13ifvqfe0","pricing_plan_id":"cebpf4jnsgd1na2vs0mg"},{"bike_id":"7097370e-7a0d-4e71-be27-a879020555f9","system_id":"levelo_inurba_marseille","lat":43.2805,"lon":5.39732,"is_reserved":false,"is_disabled":false,"rental_uris":{"android":"levelo://app?vid=7097370e-7a0d-4e71-be27-a879020555f9","ios":"levelo://app?vid=7097370e-7a0d-4e71-be27-a879020555f9"},"vehicle_type_id":"4","last_reported":1748113663,"current_range_meters":5600,"station_id":"","pricing_plan_id":"cebpf4jnsgd1na2vs0mg"},{"bike_id":"a2f1296c-e4fc-45d6-be73-b896b487012e","system_id":"levelo_inurba_marseille","lat":43.2861,"lon":5.350972,"is_reserved":false,"is_disabled":true,"rental_uris":{"android":"levelo://app?vid=a2f1296c-e4fc-45d6-be73-b896b487012e","ios":"levelo://app?vid=a2f1296c-e4fc-45d6-be73-b896b487012e"},"vehicle_type_id":"4","last_reported":1748113663,"current_range_meters":5600,"station_id":"ce4bhch2rcd13ifvqeug","pricing_plan_id":"cebpf4jnsgd1na2vs0mg"},{"bike_id":"e6dddd75-544c-4982-a8d1-0e7c9be80f45","system_id":"levelo_inurba_marseille","lat":43.30544,"lon":5.36533,"is_reserved":false,"is_disabled":false,"rental_uris":{"android":"levelo://app?vid=e6dddd75-544c-4982-a8d1-0e7c9be80f45","ios":"levelo://app?vid=e6dddd75-544c-4982-a8d1-0e7c9be80f45"},"vehicle_type_id":"4","last_reported":1748113663,"current_range_meters":5600,"station_id":"ce4bgs12rcd13ifvqcag","pricing_plan_id":"cebpf4jnsgd1na2vs0mg"},{"bike_id":"4c964f5d-e069-4f21-b01b-d956923b5719","system_id":"levelo_inurba_marseille","lat":43.23194,"lon":5.39986,"is_reserved":false,"is_disabled":false,"rental_uris":{"android":"levelo://app?vid=4c964f5d-e069-4f21-b01b-d956923b5719","ios":"levelo://app?vid=4c964f5d-e069-4f21-b01b-d956923b5719"},"vehicle_type_id":"4","last_reported":1748113663,"current_range_meters":5600,"station_id":"ce4bhn12rcd13ifvqgqg","pricing_plan_id":"cebpf4jnsgd1na2vs0mg"},{"bike_id":"b9746c49-563a-4230-9dd1-4b34c8478654","system_id":"levelo_inurba_marseille","lat":43.27381,"lon":5.36266,"is_reserved":false,"is_disabled":false,"rental_uris":{"android":"levelo://app?vid=b9746c49-563a-4230-9dd1-4b34c8478654","ios":"levelo://app?vid=b9746c49-563a-4230-9dd1-4b34c8478654"},"vehicle_type_id":"4","last_reported":1748113663,"current_range_meters":5600,"station_id":"ce4bhbh2rcd13ifvqeo0","pricing_plan_id":"cebpf4jnsgd1na2vs0mg"},{"bike_id":"17f72ca0-d476-433f-a37e-411ac87d0b65","system_id":"levelo_inurba_marseille","lat":43.26035,"lon":5.37563,"is_reserved":false,"is_disabled":false,"rental_uris":{"android":"levelo://app?vid=17f72ca0-d476-433f-a37e-411ac87d0b65","ios":"levelo://app?vid=17f72ca0-d476-433f-a37e-411ac87d0b65"},"vehicle_type_id":"4","last_reported":1748113663,"current_range_meters":5600,"station_id":"ce4bhgh2rcd13ifvqfa0","pricing_plan_id":"cebpf4jnsgd1na2vs0mg"},{"bike_id":"a62979a0-0552-4914-a9d9-0b028143dcfb","system_id":"levelo_inurba_marseille","lat":43.25583,"lon":5.38219,"is_reserved":false,"is_disabled":false,"rental_uris":{"android":"levelo://app?vid=a62979a0-0552-4914-a9d9-0b028143dcfb","ios":"levelo://app?vid=a62979a0-0552-4914-a9d9-0b028143dcfb"},"vehicle_type_id":"4","last_reported":1748113663,"current_range_meters":5600,"station_id":"ce4bhih2rcd13ifvqfs0","pricing_plan_id":"cebpf4jnsgd1na2vs0mg"},{"bike_id":"dfc12ae8-1c26-45e1-8fd5-25609a6f4238","system_id":"levelo_inurba_marseille","lat":43.27083,"lon":5.42304,"is_reserved":false,"is_disabled":false,"rental_uris":{"android":"levelo://app?vid=dfc12ae8-1c26-45e1-8fd5-25609a6f4238","ios":"levelo://app?vid=dfc12ae8-1c26-45e1-8fd5-25609a6f4238"},"vehicle_type_id":"4","last_reported":1748113663,"current_range_meters":5600,"station_id":"ce4bhk92rcd13ifvqgb0","pricing_plan_id":"cebpf4jnsgd1na2vs0mg"},{"bike_id":"4f0cb057-a2fc-4de4-8f38-334a906217e1","system_id":"levelo_inurba_marseille","lat":43.26565,"lon":5.39014,"is_reserved":false,"is_disabled":false,"rental_uris":{"android":"levelo://app?vid=4f0cb057-a2fc-4de4-8f38-334a906217e1","ios":"levelo://app?vid=4f0cb057-a2fc-4de4-8f38-334a906217e1"},"vehicle_type_id":"4","last_reported":1748113663,"current_range_meters":5600,"station_id":"ce4bhe12rcd13ifvqf30","pricing_plan_id":"cebpf4jnsgd1na2vs0mg"},{"bike_id":"f25110ff-5399-472d-8591-5e7fc75f44d1","system_id":"levelo_inurba_marseille","lat":43.27324,"lon":5.39116,"is_reserved":false,"is_disabled":false,"rental_uris":{"android":"levelo://app?vid=f25110ff-5399-472d-8591-5e7fc75f44d1","ios":"levelo://app?vid=f25110ff-5399-472d-8591-5e7fc75f44d1"},"vehicle_type_id":"4","last_reported":1748113663,"current_range_meters":6000,"station_id":"ce4bhgp2rcd13ifvqfe0","pricing_plan_id":"cebpf4jnsgd1na2vs0mg"},{"bike_id":"23590a5e-6d92-4d25-ad78-8b300b6b8a0e","system_id":"levelo_inurba_marseille","lat":43.31368,"lon":5.38486,"is_reserved":false,"is_disabled":false,"rental_uris":{"android":"levelo://app?vid=23590a5e-6d92-4d25-ad78-8b300b6b8a0e","ios":"levelo://app?vid=23590a5e-6d92-4d25-ad78-8b300b6b8a0e"},"vehicle_type_id":"4","last_reported":1748113663,"current_range_meters":6000,"station_id":"ce4bgt92rcd13ifvqcf0","pricing_plan_id":"cebpf4jnsgd1na2vs0mg"},{"bike_id":"398ac2c0-7185-42b7-b995-ea97c3f0a79d","system_id":"levelo_inurba_marseille","lat":43.23202,"lon":5.35548,"is_reserved":false,"is_disabled":false,"rental_uris":{"android":"levelo://app?vid=398ac2c0-7185-42b7-b995-ea97c3f0a79d","ios":"levelo://app?vid=398ac2c0-7185-42b7-b995-ea97c3f0a79d"},"vehicle_type_id":"4","last_reported":1748113663,"current_range_meters":6000,"station_id":"ce4bhu92rcd13ifvqi70","pricing_plan_id":"cebpf4jnsgd1na2vs0mg"},{"bike_id":"a068e330-fe19-4a05-a16c-f8a9ed510ce6","system_id":"levelo_inurba_marseille","lat":43.230537,"lon":5.354884,"is_reserved":false,"is_disabled":false,"rental_uris":{"android":"levelo://app?vid=a068e330-fe19-4a05-a16c-f8a9ed510ce6","ios":"levelo://app?vid=a068e330-fe19-4a05-a16c-f8a9ed510ce6"},"vehicle_type_id":"4","last_reported":1748113663,"current_range_meters":6000,"station_id":"cpo3342slgdg3j2ifvpg","pricing_plan_id":"cebpf4jnsgd1na2vs0mg"},{"bike_id":"77a16159-0be4-4905-8fe3-97a296f16673","system_id":"levelo_inurba_marseille","lat":43.32369,"lon":5.36749,"is_reserved":false,"is_disabled":false,"rental_uris":{"android":"levelo://app?vid=77a16159-0be4-4905-8fe3-97a296f16673","ios":"levelo://app?vid=77a16159-0be4-4905-8fe3-97a296f16673"},"vehicle_type_id":"4","last_reported":1748113663,"current_range_meters":6000,"station_id":"ce4bhsh2rcd13ifvqi2g","pricing_plan_id":"cebpf4jnsgd1na2vs0mg"},{"bike_id":"d6b3aa62-ecc1-49a9-b948-a65ba53792ad","system_id":"levelo_inurba_marseille","lat":43.28704,"lon":5.39992,"is_reserved":false,"is_disabled":false,"rental_uris":{"android":"levelo://app?vid=d6b3aa62-ecc1-49a9-b948-a65ba53792ad","ios":"levelo://app?vid=d6b3aa62-ecc1-49a9-b948-a65ba53792ad"},"vehicle_type_id":"4","last_reported":1748113663,"current_range_meters":6000,"station_id":"ce4bho92rcd13ifvqh3g","pricing_plan_id":"cebpf4jnsgd1na2vs0mg"},{"bike_id":"2d5c0972-b8cd-42df-9e84-f3d4e76cd458","system_id":"levelo_inurba_marseille","lat":43.29372,"lon":5.37829,"is_reserved":false,"is_disabled":false,"rental_uris":{"android":"levelo://app?vid=2d5c0972-b8cd-42df-9e84-f3d4e76cd458","ios":"levelo://app?vid=2d5c0972-b8cd-42df-9e84-f3d4e76cd458"},"vehicle_type_id":"4","last_reported":1748113663,"current_range_meters":6000,"station_id":"ce4bgjh2rcd13ifvqbf0","pricing_plan_id":"cebpf4jnsgd1na2vs0mg"},{"bike_id":"1b6833f8-3dde-4e3f-9ade-44fc116840f9","system_id":"levelo_inurba_marseille","lat":43.26815,"lon":5.40264,"is_reserved":false,"is_disabled":false,"rental_uris":{"android":"levelo://app?vid=1b6833f8-3dde-4e3f-9ade-44fc116840f9","ios":"levelo://app?vid=1b6833f8-3dde-4e3f-9ade-44fc116840f9"},"vehicle_type_id":"4","last_reported":1748113663,"current_range_meters":6000,"station_id":"ce501612rcd8frsf0b60","pricing_plan_id":"cebpf4jnsgd1na2vs0mg"},{"bike_id":"7582b792-51bb-4e60-9258-c4a2252b170e","system_id":"levelo_inurba_marseille","lat":43.24537,"lon":5.3952,"is_reserved":false,"is_disabled":false,"rental_uris":{"android":"levelo://app?vid=7582b792-51bb-4e60-9258-c4a2252b170e","ios":"levelo://app?vid=7582b792-51bb-4e60-9258-c4a2252b170e"},"vehicle_type_id":"4","last_reported":1748113663,"current_range_meters":6000,"station_id":"ce4bhlp2rcd13ifvqgjg","pricing_plan_id":"cebpf4jnsgd1na2vs0mg"},{"bike_id":"c98e2a1c-dce1-4cb0-9ee4-b3f59a9158d0","system_id":"levelo_inurba_marseille","lat":43.27208,"lon":5.39177,"is_reserved":false,"is_disabled":false,"rental_uris":{"android":"levelo://app?vid=c98e2a1c-dce1-4cb0-9ee4-b3f59a9158d0","ios":"levelo://app?vid=c98e2a1c-dce1-4cb0-9ee4-b3f59a9158d0"},"vehicle_type_id":"4","last_reported":1748113663,"current_range_meters":6000,"station_id":"ce4bhhp2rcd13ifvqfm0","pricing_plan_id":"cebpf4jnsgd1na2vs0mg"},{"bike_id":"649f3998-d941-4487-a720-0df9d3bba68d","system_id":"levelo_inurba_marseille","lat":43.27814,"lon":5.40706,"is_reserved":false,"is_disabled":false,"rental_uris":{"android":"levelo://app?vid=649f3998-d941-4487-a720-0df9d3bba68d","ios":"levelo://app?vid=649f3998-d941-4487-a720-0df9d3bba68d"},"vehicle_type_id":"4","last_reported":1748113663,"current_range_meters":6400,"station_id":"ce4bhnh2rcd13ifvqgtg","pricing_plan_id":"cebpf4jnsgd1na2vs0mg"},{"bike_id":"c6598ba4-e7ca-41c4-9b4d-af7f3e1eb857","system_id":"levelo_inurba_marseille","lat":43.30465,"lon":5.37899,"is_reserved":false,"is_disabled":true,"rental_uris":{"android":"levelo://app?vid=c6598ba4-e7ca-41c4-9b4d-af7f3e1eb857","ios":"levelo://app?vid=c6598ba4-e7ca-41c4-9b4d-af7f3e1eb857"},"vehicle_type_id":"4","last_reported":1748113663,"current_range_meters":6400,"station_id":"ce4bgup2rcd13ifvqcn0","pricing_plan_id":"cebpf4jnsgd1na2vs0mg"},{"bike_id":"3b997ac5-fbf2-4785-aa51-1d1ca51a126f","system_id":"levelo_inurba_marseille","lat":43.293043,"lon":5.374573,"is_reserved":false,"is_disabled":true,"rental_uris":{"android":"levelo://app?vid=3b997ac5-fbf2-4785-aa51-1d1ca51a126f","ios":"levelo://app?vid=3b997ac5-fbf2-4785-aa51-1d1ca51a126f"},"vehicle_type_id":"4","last_reported":1748113663,"current_range_meters":6400,"station_id":"ce4bgi12rcd13ifvqb70","pricing_plan_id":"cebpf4jnsgd1na2vs0mg"},{"bike_id":"555e9cf8-9926-4f76-866a-ad60ae604155","system_id":"levelo_inurba_marseille","lat":43.29255,"lon":5.38449,"is_reserved":false,"is_disabled":false,"rental_uris":{"android":"levelo://app?vid=555e9cf8-9926-4f76-866a-ad60ae604155","ios":"levelo://app?vid=555e9cf8-9926-4f76-866a-ad60ae604155"},"vehicle_type_id":"4","last_reported":1748113663,"current_range_meters":6400,"station_id":"ce4bh692rcd13ifvqea0","pricing_plan_id":"cebpf4jnsgd1na2vs0mg"},{"bike_id":"09ac1aac-8953-4e20-8e55-8b1e0cf88358","system_id":"levelo_inurba_marseille","lat":43.29218,"lon":5.36068,"is_reserved":false,"is_disabled":false,"rental_uris":{"android":"levelo://app?vid=09ac1aac-8953-4e20-8e55-8b1e0cf88358","ios":"levelo://app?vid=09ac1aac-8953-4e20-8e55-8b1e0cf88358"},"vehicle_type_id":"4","last_reported":1748113663,"current_range_meters":6400,"station_id":"ce4bhbh2rcd13ifvqeqg","pricing_plan_id":"cebpf4jnsgd1na2vs0mg"},{"bike_id":"ad03f36d-8c31-469e-bd64-da4d56cf0507","system_id":"levelo_inurba_marseille","lat":43.26781,"lon":5.39417,"is_reserved":false,"is_disabled":false,"rental_uris":{"android":"levelo://app?vid=ad03f36d-8c31-469e-bd64-da4d56cf0507","ios":"levelo://app?vid=ad03f36d-8c31-469e-bd64-da4d56cf0507"},"vehicle_type_id":"4","last_reported":1748113663,"current_range_meters":6400,"station_id":"ce4bhh12rcd13ifvqfg0","pricing_plan_id":"cebpf4jnsgd1na2vs0mg"},{"bike_id":"e9505195-88ff-425f-86b5-6bd921193b8f","system_id":"levelo_inurba_marseille","lat":43.29063,"lon":5.37165,"is_reserved":false,"is_disabled":false,"rental_uris":{"android":"levelo://app?vid=e9505195-88ff-425f-86b5-6bd921193b8f","ios":"levelo://app?vid=e9505195-88ff-425f-86b5-6bd921193b8f"},"vehicle_type_id":"4","last_reported":1748113663,"current_range_meters":6400,"station_id":"ce4bh5p2rcd13ifvqe4g","pricing_plan_id":"cebpf4jnsgd1na2vs0mg"},{"bike_id":"d0eac620-ae1d-485f-aaa2-dc399eecd5d6","system_id":"levelo_inurba_marseille","lat":43.28439,"lon":5.39192,"is_reserved":false,"is_disabled":false,"rental_uris":{"android":"levelo://app?vid=d0eac620-ae1d-485f-aaa2-dc399eecd5d6","ios":"levelo://app?vid=d0eac620-ae1d-485f-aaa2-dc399eecd5d6"},"vehicle_type_id":"4","last_reported":1748113663,"current_range_meters":6400,"station_id":"ce4bhoh2rcd13ifvqh5g","pricing_plan_id":"cebpf4jnsgd1na2vs0mg"},{"bike_id":"c996ed08-1c53-4d27-860f-9a83384d2d86","system_id":"levelo_inurba_marseille","lat":43.29029,"lon":5.38641,"is_reserved":false,"is_disabled":false,"rental_uris":{"android":"levelo://app?vid=c996ed08-1c53-4d27-860f-9a83384d2d86","ios":"levelo://app?vid=c996ed08-1c53-4d27-860f-9a83384d2d86"},"vehicle_type_id":"4","last_reported":1748113663,"current_range_meters":8400,"station_id":"ce4bh4p2rcd13ifvqe0g","pricing_plan_id":"cebpf4jnsgd1na2vs0mg"},{"bike_id":"c933bfb0-68c3-4f32-96b8-e7e9f35b01d3","system_id":"levelo_inurba_marseille","lat":43.29577,"lon":5.37522,"is_reserved":false,"is_disabled":false,"rental_uris":{"android":"levelo://app?vid=c933bfb0-68c3-4f32-96b8-e7e9f35b01d3","ios":"levelo://app?vid=c933bfb0-68c3-4f32-96b8-e7e9f35b01d3"},"vehicle_type_id":"4","last_reported":1748113663,"current_range_meters":6400,"station_id":"","pricing_plan_id":"cebpf4jnsgd1na2vs0mg"},{"bike_id":"3a2244df-611f-4b6d-a778-36b52e274311","system_id":"levelo_inurba_marseille","lat":43.24679,"lon":5.38168,"is_reserved":false,"is_disabled":false,"rental_uris":{"android":"levelo://app?vid=3a2244df-611f-4b6d-a778-36b52e274311","ios":"levelo://app?vid=3a2244df-611f-4b6d-a778-36b52e274311"},"vehicle_type_id":"4","last_reported":1748113663,"current_range_meters":6400,"station_id":"ce4bhih2rcd13ifvqfr0","pricing_plan_id":"cebpf4jnsgd1na2vs0mg"},{"bike_id":"7f578c62-7234-456e-881d-11868aae6500","system_id":"levelo_inurba_marseille","lat":43.30553,"lon":5.36547,"is_reserved":false,"is_disabled":false,"rental_uris":{"android":"levelo://app?vid=7f578c62-7234-456e-881d-11868aae6500","ios":"levelo://app?vid=7f578c62-7234-456e-881d-11868aae6500"},"vehicle_type_id":"4","last_reported":1748113663,"current_range_meters":6400,"station_id":"ce4bgs12rcd13ifvqcag","pricing_plan_id":"cebpf4jnsgd1na2vs0mg"},{"bike_id":"d256c6a4-d35b-4c32-b7db-2bac8ab63b70","system_id":"levelo_inurba_marseille","lat":43.232,"lon":5.35542,"is_reserved":false,"is_disabled":false,"rental_uris":{"android":"levelo://app?vid=d256c6a4-d35b-4c32-b7db-2bac8ab63b70","ios":"levelo://app?vid=d256c6a4-d35b-4c32-b7db-2bac8ab63b70"},"vehicle_type_id":"4","last_reported":1748113663,"current_range_meters":6800,"station_id":"ce4bhu92rcd13ifvqi70","pricing_plan_id":"cebpf4jnsgd1na2vs0mg"},{"bike_id":"cd9d0f3d-50bb-4aa8-bd1a-0f090fd9f175","system_id":"levelo_inurba_marseille","lat":43.2721,"lon":5.39188,"is_reserved":false,"is_disabled":false,"rental_uris":{"android":"levelo://app?vid=cd9d0f3d-50bb-4aa8-bd1a-0f090fd9f175","ios":"levelo://app?vid=cd9d0f3d-50bb-4aa8-bd1a-0f090fd9f175"},"vehicle_type_id":"4","last_reported":1748113663,"current_range_meters":6800,"station_id":"ce4bhhp2rcd13ifvqfm0","pricing_plan_id":"cebpf4jnsgd1na2vs0mg"},{"bike_id":"b1a16faa-b453-4eea-8a38-399de018422c","system_id":"levelo_inurba_marseille","lat":43.24807,"lon":5.3745,"is_reserved":false,"is_disabled":false,"rental_uris":{"android":"levelo://app?vid=b1a16faa-b453-4eea-8a38-399de018422c","ios":"levelo://app?vid=b1a16faa-b453-4eea-8a38-399de018422c"},"vehicle_type_id":"4","last_reported":1748113663,"current_range_meters":6800,"station_id":"ce4bhgh2rcd13ifvqfb0","pricing_plan_id":"cebpf4jnsgd1na2vs0mg"},{"bike_id":"cb86ce5a-11a1-4343-ab8e-e1d9fd01edbc","system_id":"levelo_inurba_marseille","lat":43.28945,"lon":5.36393,"is_reserved":false,"is_disabled":false,"rental_uris":{"android":"levelo://app?vid=cb86ce5a-11a1-4343-ab8e-e1d9fd01edbc","ios":"levelo://app?vid=cb86ce5a-11a1-4343-ab8e-e1d9fd01edbc"},"vehicle_type_id":"4","last_reported":1748113663,"current_range_meters":6800,"station_id":"ce4bhc92rcd13ifvqetg","pricing_plan_id":"cebpf4jnsgd1na2vs0mg"},{"bike_id":"83b8b440-722e-496d-9358-46d8926ec544","system_id":"levelo_inurba_marseille","lat":43.2657,"lon":5.39014,"is_reserved":false,"is_disabled":false,"rental_uris":{"android":"levelo://app?vid=83b8b440-722e-496d-9358-46d8926ec544","ios":"levelo://app?vid=83b8b440-722e-496d-9358-46d8926ec544"},"vehicle_type_id":"4","last_reported":1748113663,"current_range_meters":6800,"station_id":"ce4bhe12rcd13ifvqf30","pricing_plan_id":"cebpf4jnsgd1na2vs0mg"},{"bike_id":"1558526f-5739-49db-a8cb-43d331957259","system_id":"levelo_inurba_marseille","lat":43.32369,"lon":5.36748,"is_reserved":false,"is_disabled":false,"rental_uris":{"android":"levelo://app?vid=1558526f-5739-49db-a8cb-43d331957259","ios":"levelo://app?vid=1558526f-5739-49db-a8cb-43d331957259"},"vehicle_type_id":"4","last_reported":1748113663,"current_range_meters":6800,"station_id":"ce4bhsh2rcd13ifvqi2g","pricing_plan_id":"cebpf4jnsgd1na2vs0mg"},{"bike_id":"fe339bfb-21de-421e-bab1-154c910a6f21","system_id":"levelo_inurba_marseille","lat":43.29217,"lon":5.36058,"is_reserved":false,"is_disabled":false,"rental_uris":{"android":"levelo://app?vid=fe339bfb-21de-421e-bab1-154c910a6f21","ios":"levelo://app?vid=fe339bfb-21de-421e-bab1-154c910a6f21"},"vehicle_type_id":"4","last_reported":1748113663,"current_range_meters":6800,"station_id":"ce4bhbh2rcd13ifvqeqg","pricing_plan_id":"cebpf4jnsgd1na2vs0mg"},{"bike_id":"fa529a29-8d21-4f13-9783-e1708a99c344","system_id":"levelo_inurba_marseille","lat":43.246516,"lon":5.388955,"is_reserved":false,"is_disabled":false,"rental_uris":{"android":"levelo://app?vid=fa529a29-8d21-4f13-9783-e1708a99c344","ios":"levelo://app?vid=fa529a29-8d21-4f13-9783-e1708a99c344"},"vehicle_type_id":"4","last_reported":1748113663,"current_range_meters":7200,"station_id":"ce4bhlh2rcd13ifvqgig","pricing_plan_id":"cebpf4jnsgd1na2vs0mg"},{"bike_id":"2cd435f7-d194-4605-9817-ea65e5015087","system_id":"levelo_inurba_marseille","lat":43.29228,"lon":5.36061,"is_reserved":false,"is_disabled":false,"rental_uris":{"android":"levelo://app?vid=2cd435f7-d194-4605-9817-ea65e5015087","ios":"levelo://app?vid=2cd435f7-d194-4605-9817-ea65e5015087"},"vehicle_type_id":"4","last_reported":1748113663,"current_range_meters":7200,"station_id":"","pricing_plan_id":"cebpf4jnsgd1na2vs0mg"},{"bike_id":"11e7fc4d-32c9-4b6a-952b-a2da8b00d7d9","system_id":"levelo_inurba_marseille","lat":43.289307,"lon":5.366387,"is_reserved":false,"is_disabled":false,"rental_uris":{"android":"levelo://app?vid=11e7fc4d-32c9-4b6a-952b-a2da8b00d7d9","ios":"levelo://app?vid=11e7fc4d-32c9-4b6a-952b-a2da8b00d7d9"},"vehicle_type_id":"4","last_reported":1748113663,"current_range_meters":7200,"station_id":"ce4bhap2rcd13ifvqek0","pricing_plan_id":"cebpf4jnsgd1na2vs0mg"},{"bike_id":"0c3d2f9b-85c5-4a3d-960f-a3e22768bd8b","system_id":"levelo_inurba_marseille","lat":43.28939,"lon":5.36637,"is_reserved":false,"is_disabled":false,"rental_uris":{"android":"levelo://app?vid=0c3d2f9b-85c5-4a3d-960f-a3e22768bd8b","ios":"levelo://app?vid=0c3d2f9b-85c5-4a3d-960f-a3e22768bd8b"},"vehicle_type_id":"4","last_reported":1748113663,"current_range_meters":7200,"station_id":"ce4bhap2rcd13ifvqek0","pricing_plan_id":"cebpf4jnsgd1na2vs0mg"},{"bike_id":"c77798d0-7327-4049-aa19-5dda0027c4b6","system_id":"levelo_inurba_marseille","lat":43.27373,"lon":5.36252,"is_reserved":false,"is_disabled":false,"rental_uris":{"android":"levelo://app?vid=c77798d0-7327-4049-aa19-5dda0027c4b6","ios":"levelo://app?vid=c77798d0-7327-4049-aa19-5dda0027c4b6"},"vehicle_type_id":"4","last_reported":1748113663,"current_range_meters":7200,"station_id":"ce4bhbh2rcd13ifvqeo0","pricing_plan_id":"cebpf4jnsgd1na2vs0mg"},{"bike_id":"70dd2ac9-6ab7-4b8b-87d6-189cb43a5b1b","system_id":"levelo_inurba_marseille","lat":43.26943,"lon":5.40252,"is_reserved":false,"is_disabled":false,"rental_uris":{"android":"levelo://app?vid=70dd2ac9-6ab7-4b8b-87d6-189cb43a5b1b","ios":"levelo://app?vid=70dd2ac9-6ab7-4b8b-87d6-189cb43a5b1b"},"vehicle_type_id":"4","last_reported":1748113663,"current_range_meters":7200,"station_id":"cjm6bp8fraef2m0cb0m0","pricing_plan_id":"cebpf4jnsgd1na2vs0mg"},{"bike_id":"42567f8b-b6ac-499b-bf80-af93fc3cc58f","system_id":"levelo_inurba_marseille","lat":43.2974,"lon":5.37687,"is_reserved":false,"is_disabled":true,"rental_uris":{"android":"levelo://app?vid=42567f8b-b6ac-499b-bf80-af93fc3cc58f","ios":"levelo://app?vid=42567f8b-b6ac-499b-bf80-af93fc3cc58f"},"vehicle_type_id":"4","last_reported":1748113663,"current_range_meters":7200,"station_id":"ce4bgkh2rcd13ifvqbl0","pricing_plan_id":"cebpf4jnsgd1na2vs0mg"},{"bike_id":"a1779ca6-b0f2-45ea-9112-fb8f78246b46","system_id":"levelo_inurba_marseille","lat":43.29111,"lon":5.38111,"is_reserved":false,"is_disabled":false,"rental_uris":{"android":"levelo://app?vid=a1779ca6-b0f2-45ea-9112-fb8f78246b46","ios":"levelo://app?vid=a1779ca6-b0f2-45ea-9112-fb8f78246b46"},"vehicle_type_id":"4","last_reported":1748113663,"current_range_meters":7200,"station_id":"ce4bh512rcd13ifvqe2g","pricing_plan_id":"cebpf4jnsgd1na2vs0mg"},{"bike_id":"cd9ca8e0-1b6f-43d8-a16f-1fd53869d05f","system_id":"levelo_inurba_marseille","lat":43.300181,"lon":5.385911,"is_reserved":false,"is_disabled":false,"rental_uris":{"android":"levelo://app?vid=cd9ca8e0-1b6f-43d8-a16f-1fd53869d05f","ios":"levelo://app?vid=cd9ca8e0-1b6f-43d8-a16f-1fd53869d05f"},"vehicle_type_id":"4","last_reported":1748113663,"current_range_meters":7200,"station_id":"ce4bghh2rcd13ifvqb60","pricing_plan_id":"cebpf4jnsgd1na2vs0mg"},{"bike_id":"0fd8ff20-6e23-4f1c-92c5-7079a751eed3","system_id":"levelo_inurba_marseille","lat":43.23968,"lon":5.36629,"is_reserved":false,"is_disabled":false,"rental_uris":{"android":"levelo://app?vid=0fd8ff20-6e23-4f1c-92c5-7079a751eed3","ios":"levelo://app?vid=0fd8ff20-6e23-4f1c-92c5-7079a751eed3"},"vehicle_type_id":"4","last_reported":1748113663,"current_range_meters":7200,"station_id":"ce4bhi12rcd13ifvqfp0","pricing_plan_id":"cebpf4jnsgd1na2vs0mg"},{"bike_id":"f5aa9c28-1d79-48fe-9196-fed7c6bf92e6","system_id":"levelo_inurba_marseille","lat":43.26949,"lon":5.4024,"is_reserved":false,"is_disabled":false,"rental_uris":{"android":"levelo://app?vid=f5aa9c28-1d79-48fe-9196-fed7c6bf92e6","ios":"levelo://app?vid=f5aa9c28-1d79-48fe-9196-fed7c6bf92e6"},"vehicle_type_id":"4","last_reported":1748113663,"current_range_meters":7200,"station_id":"cjm6bp8fraef2m0cb0m0","pricing_plan_id":"cebpf4jnsgd1na2vs0mg"},{"bike_id":"4baa24f1-d165-4342-b6d5-d4dab9595b1a","system_id":"levelo_inurba_marseille","lat":43.26782,"lon":5.39428,"is_reserved":false,"is_disabled":false,"rental_uris":{"android":"levelo://app?vid=4baa24f1-d165-4342-b6d5-d4dab9595b1a","ios":"levelo://app?vid=4baa24f1-d165-4342-b6d5-d4dab9595b1a"},"vehicle_type_id":"4","last_reported":1748113663,"current_range_meters":7200,"station_id":"ce4bhh12rcd13ifvqfg0","pricing_plan_id":"cebpf4jnsgd1na2vs0mg"},{"bike_id":"b8d7a318-f35e-4b21-8061-7105613ae633","system_id":"levelo_inurba_marseille","lat":43.248075,"lon":5.374555,"is_reserved":false,"is_disabled":false,"rental_uris":{"android":"levelo://app?vid=b8d7a318-f35e-4b21-8061-7105613ae633","ios":"levelo://app?vid=b8d7a318-f35e-4b21-8061-7105613ae633"},"vehicle_type_id":"4","last_reported":1748113663,"current_range_meters":7200,"station_id":"ce4bhgh2rcd13ifvqfb0","pricing_plan_id":"cebpf4jnsgd1na2vs0mg"},{"bike_id":"b5620a56-f85e-42b3-af93-c10badefecd8","system_id":"levelo_inurba_marseille","lat":43.27207,"lon":5.39173,"is_reserved":false,"is_disabled":false,"rental_uris":{"android":"levelo://app?vid=b5620a56-f85e-42b3-af93-c10badefecd8","ios":"levelo://app?vid=b5620a56-f85e-42b3-af93-c10badefecd8"},"vehicle_type_id":"4","last_reported":1748113663,"current_range_meters":8000,"station_id":"ce4bhhp2rcd13ifvqfm0","pricing_plan_id":"cebpf4jnsgd1na2vs0mg"},{"bike_id":"d562ae30-b1e7-4a7a-94ad-92b7cc645da1","system_id":"levelo_inurba_marseille","lat":43.27666,"lon":5.38904,"is_reserved":false,"is_disabled":true,"rental_uris":{"android":"levelo://app?vid=d562ae30-b1e7-4a7a-94ad-92b7cc645da1","ios":"levelo://app?vid=d562ae30-b1e7-4a7a-94ad-92b7cc645da1"},"vehicle_type_id":"4","last_reported":1748113663,"current_range_meters":8000,"station_id":"ce4bhi12rcd13ifvqfo0","pricing_plan_id":"cebpf4jnsgd1na2vs0mg"},{"bike_id":"187b80c6-d7d4-4b50-9ea3-4bcd489aceda","system_id":"levelo_inurba_marseille","lat":43.309513,"lon":5.39032,"is_reserved":false,"is_disabled":false,"rental_uris":{"android":"levelo://app?vid=187b80c6-d7d4-4b50-9ea3-4bcd489aceda","ios":"levelo://app?vid=187b80c6-d7d4-4b50-9ea3-4bcd489aceda"},"vehicle_type_id":"4","last_reported":1748113663,"current_range_meters":8000,"station_id":"ce4bgup2rcd13ifvqco0","pricing_plan_id":"cebpf4jnsgd1na2vs0mg"},{"bike_id":"a23640c9-a423-4a64-b14a-862b0d7d7c59","system_id":"levelo_inurba_marseille","lat":43.27313,"lon":5.39077,"is_reserved":false,"is_disabled":false,"rental_uris":{"android":"levelo://app?vid=a23640c9-a423-4a64-b14a-862b0d7d7c59","ios":"levelo://app?vid=a23640c9-a423-4a64-b14a-862b0d7d7c59"},"vehicle_type_id":"4","last_reported":1748113663,"current_range_meters":8000,"station_id":"ce4bhgp2rcd13ifvqfe0","pricing_plan_id":"cebpf4jnsgd1na2vs0mg"},{"bike_id":"8131fbec-a984-4783-b002-ccc6f46528ed","system_id":"levelo_inurba_marseille","lat":43.31158,"lon":5.38721,"is_reserved":false,"is_disabled":false,"rental_uris":{"android":"levelo://app?vid=8131fbec-a984-4783-b002-ccc6f46528ed","ios":"levelo://app?vid=8131fbec-a984-4783-b002-ccc6f46528ed"},"vehicle_type_id":"4","last_reported":1748113663,"current_range_meters":8000,"station_id":"ce4bgv12rcd13ifvqcp0","pricing_plan_id":"cebpf4jnsgd1na2vs0mg"},{"bike_id":"4121a7b4-5b66-4be6-b308-d174e07d8de1","system_id":"levelo_inurba_marseille","lat":43.27305,"lon":5.39091,"is_reserved":false,"is_disabled":false,"rental_uris":{"android":"levelo://app?vid=4121a7b4-5b66-4be6-b308-d174e07d8de1","ios":"levelo://app?vid=4121a7b4-5b66-4be6-b308-d174e07d8de1"},"vehicle_type_id":"4","last_reported":1748113663,"current_range_meters":8000,"station_id":"ce4bhgp2rcd13ifvqfe0","pricing_plan_id":"cebpf4jnsgd1na2vs0mg"},{"bike_id":"002cbebe-d947-4f4f-ae6f-b2096a3f220f","system_id":"levelo_inurba_marseille","lat":43.25504,"lon":5.37659,"is_reserved":false,"is_disabled":false,"rental_uris":{"android":"levelo://app?vid=002cbebe-d947-4f4f-ae6f-b2096a3f220f","ios":"levelo://app?vid=002cbebe-d947-4f4f-ae6f-b2096a3f220f"},"vehicle_type_id":"4","last_reported":1748113663,"current_range_meters":8000,"station_id":"ce4bhh12rcd13ifvqff0","pricing_plan_id":"cebpf4jnsgd1na2vs0mg"},{"bike_id":"396baf2e-7256-4568-9f0a-e2f3d2f2f7f6","system_id":"levelo_inurba_marseille","lat":43.31697,"lon":5.40449,"is_reserved":false,"is_disabled":false,"rental_uris":{"android":"levelo://app?vid=396baf2e-7256-4568-9f0a-e2f3d2f2f7f6","ios":"levelo://app?vid=396baf2e-7256-4568-9f0a-e2f3d2f2f7f6"},"vehicle_type_id":"4","last_reported":1748113663,"current_range_meters":8000,"station_id":"ce4bh012rcd13ifvqd00","pricing_plan_id":"cebpf4jnsgd1na2vs0mg"},{"bike_id":"83ba3a67-9387-4585-af3c-4e65e23f8215","system_id":"levelo_inurba_marseille","lat":43.25864,"lon":5.39902,"is_reserved":false,"is_disabled":false,"rental_uris":{"android":"levelo://app?vid=83ba3a67-9387-4585-af3c-4e65e23f8215","ios":"levelo://app?vid=83ba3a67-9387-4585-af3c-4e65e23f8215"},"vehicle_type_id":"4","last_reported":1748113663,"current_range_meters":8000,"station_id":"ce4bhl92rcd13ifvqghg","pricing_plan_id":"cebpf4jnsgd1na2vs0mg"},{"bike_id":"d436e57e-3914-4c9e-9b81-70a1d6955211","system_id":"levelo_inurba_marseille","lat":43.29264,"lon":5.38434,"is_reserved":false,"is_disabled":false,"rental_uris":{"android":"levelo://app?vid=d436e57e-3914-4c9e-9b81-70a1d6955211","ios":"levelo://app?vid=d436e57e-3914-4c9e-9b81-70a1d6955211"},"vehicle_type_id":"4","last_reported":1748113663,"current_range_meters":8400,"station_id":"ce4bh692rcd13ifvqea0","pricing_plan_id":"cebpf4jnsgd1na2vs0mg"},{"bike_id":"09a76abc-58bc-449b-ada3-bfe181f9de4d","system_id":"levelo_inurba_marseille","lat":43.27318,"lon":5.390945,"is_reserved":false,"is_disabled":false,"rental_uris":{"android":"levelo://app?vid=09a76abc-58bc-449b-ada3-bfe181f9de4d","ios":"levelo://app?vid=09a76abc-58bc-449b-ada3-bfe181f9de4d"},"vehicle_type_id":"4","last_reported":1748113663,"current_range_meters":8400,"station_id":"ce4bhgp2rcd13ifvqfe0","pricing_plan_id":"cebpf4jnsgd1na2vs0mg"},{"bike_id":"f072c19f-f4d7-4841-bb40-ef7101023122","system_id":"levelo_inurba_marseille","lat":43.287057,"lon":5.373823,"is_reserved":false,"is_disabled":false,"rental_uris":{"android":"levelo://app?vid=f072c19f-f4d7-4841-bb40-ef7101023122","ios":"levelo://app?vid=f072c19f-f4d7-4841-bb40-ef7101023122"},"vehicle_type_id":"4","last_reported":1748113663,"current_range_meters":8400,"station_id":"ce4bh3p2rcd13ifvqdq0","pricing_plan_id":"cebpf4jnsgd1na2vs0mg"},{"bike_id":"dc3ad051-1b22-4353-876d-b42055ec6c3c","system_id":"levelo_inurba_marseille","lat":43.30086,"lon":5.39077,"is_reserved":false,"is_disabled":false,"rental_uris":{"android":"levelo://app?vid=dc3ad051-1b22-4353-876d-b42055ec6c3c","ios":"levelo://app?vid=dc3ad051-1b22-4353-876d-b42055ec6c3c"},"vehicle_type_id":"4","last_reported":1748113663,"current_range_meters":8400,"station_id":"ce4bh192rcd13ifvqdb0","pricing_plan_id":"cebpf4jnsgd1na2vs0mg"},{"bike_id":"ccf8f055-3943-4d1f-8422-80c8d7e361da","system_id":"levelo_inurba_marseille","lat":43.25842,"lon":5.39416,"is_reserved":false,"is_disabled":false,"rental_uris":{"android":"levelo://app?vid=ccf8f055-3943-4d1f-8422-80c8d7e361da","ios":"levelo://app?vid=ccf8f055-3943-4d1f-8422-80c8d7e361da"},"vehicle_type_id":"4","last_reported":1748113663,"current_range_meters":8400,"station_id":"ce4bhip2rcd13ifvqft0","pricing_plan_id":"cebpf4jnsgd1na2vs0mg"},{"bike_id":"dd653451-fa6d-467e-a087-e4adb9580b57","system_id":"levelo_inurba_marseille","lat":43.29322,"lon":5.37169,"is_reserved":false,"is_disabled":false,"rental_uris":{"android":"levelo://app?vid=dd653451-fa6d-467e-a087-e4adb9580b57","ios":"levelo://app?vid=dd653451-fa6d-467e-a087-e4adb9580b57"},"vehicle_type_id":"4","last_reported":1748113663,"current_range_meters":8400,"station_id":"ce4bgh92rcd13ifvqb40","pricing_plan_id":"cebpf4jnsgd1na2vs0mg"},{"bike_id":"a17a842f-ba04-4d0e-9f38-09b9d8144085","system_id":"levelo_inurba_marseille","lat":43.26942,"lon":5.40273,"is_reserved":false,"is_disabled":true,"rental_uris":{"android":"levelo://app?vid=a17a842f-ba04-4d0e-9f38-09b9d8144085","ios":"levelo://app?vid=a17a842f-ba04-4d0e-9f38-09b9d8144085"},"vehicle_type_id":"4","last_reported":1748113663,"current_range_meters":8400,"station_id":"cjm6bp8fraef2m0cb0m0","pricing_plan_id":"cebpf4jnsgd1na2vs0mg"},{"bike_id":"dbaba458-a8d3-4fdd-929b-b9f255209137","system_id":"levelo_inurba_marseille","lat":43.26038,"lon":5.37557,"is_reserved":false,"is_disabled":false,"rental_uris":{"android":"levelo://app?vid=dbaba458-a8d3-4fdd-929b-b9f255209137","ios":"levelo://app?vid=dbaba458-a8d3-4fdd-929b-b9f255209137"},"vehicle_type_id":"4","last_reported":1748113663,"current_range_meters":8400,"station_id":"ce4bhgh2rcd13ifvqfa0","pricing_plan_id":"cebpf4jnsgd1na2vs0mg"},{"bike_id":"570aca94-86f6-4416-a181-6c5a92adccbb","system_id":"levelo_inurba_marseille","lat":43.27316,"lon":5.39086,"is_reserved":false,"is_disabled":false,"rental_uris":{"android":"levelo://app?vid=570aca94-86f6-4416-a181-6c5a92adccbb","ios":"levelo://app?vid=570aca94-86f6-4416-a181-6c5a92adccbb"},"vehicle_type_id":"4","last_reported":1748113663,"current_range_meters":8400,"station_id":"ce4bhgp2rcd13ifvqfe0","pricing_plan_id":"cebpf4jnsgd1na2vs0mg"},{"bike_id":"c90a6ee0-1dbb-46b7-95e2-9e604453fc55","system_id":"levelo_inurba_marseille","lat":43.29281,"lon":5.36837,"is_reserved":false,"is_disabled":false,"rental_uris":{"android":"levelo://app?vid=c90a6ee0-1dbb-46b7-95e2-9e604453fc55","ios":"levelo://app?vid=c90a6ee0-1dbb-46b7-95e2-9e604453fc55"},"vehicle_type_id":"4","last_reported":1748113663,"current_range_meters":8400,"station_id":"ce4bhbp2rcd13ifvqesg","pricing_plan_id":"cebpf4jnsgd1na2vs0mg"},{"bike_id":"86ec20ce-8a5a-45bd-82b6-ba3014028bfe","system_id":"levelo_inurba_marseille","lat":43.29033,"lon":5.38128,"is_reserved":false,"is_disabled":false,"rental_uris":{"android":"levelo://app?vid=86ec20ce-8a5a-45bd-82b6-ba3014028bfe","ios":"levelo://app?vid=86ec20ce-8a5a-45bd-82b6-ba3014028bfe"},"vehicle_type_id":"4","last_reported":1748113663,"current_range_meters":7200,"station_id":"ce4bh4p2rcd13ifvqe1g","pricing_plan_id":"cebpf4jnsgd1na2vs0mg"},{"bike_id":"c16413fd-5d65-4ca2-8681-abb95bdf2d2a","system_id":"levelo_inurba_marseille","lat":43.30959,"lon":5.371439,"is_reserved":false,"is_disabled":false,"rental_uris":{"android":"levelo://app?vid=c16413fd-5d65-4ca2-8681-abb95bdf2d2a","ios":"levelo://app?vid=c16413fd-5d65-4ca2-8681-abb95bdf2d2a"},"vehicle_type_id":"4","last_reported":1748113663,"current_range_meters":8400,"station_id":"","pricing_plan_id":"cebpf4jnsgd1na2vs0mg"},{"bike_id":"dd8fc64d-3a10-43c9-9c41-f2e3f7b477d6","system_id":"levelo_inurba_marseille","lat":43.28363,"lon":5.38636,"is_reserved":false,"is_disabled":false,"rental_uris":{"android":"levelo://app?vid=dd8fc64d-3a10-43c9-9c41-f2e3f7b477d6","ios":"levelo://app?vid=dd8fc64d-3a10-43c9-9c41-f2e3f7b477d6"},"vehicle_type_id":"4","last_reported":1748113663,"current_range_meters":8800,"station_id":"ce4bh492rcd13ifvqdvg","pricing_plan_id":"cebpf4jnsgd1na2vs0mg"},{"bike_id":"428d4047-1f30-41ce-9c55-8cbb66bc86f5","system_id":"levelo_inurba_marseille","lat":43.25005,"lon":5.38928,"is_reserved":false,"is_disabled":false,"rental_uris":{"android":"levelo://app?vid=428d4047-1f30-41ce-9c55-8cbb66bc86f5","ios":"levelo://app?vid=428d4047-1f30-41ce-9c55-8cbb66bc86f5"},"vehicle_type_id":"4","last_reported":1748113663,"current_range_meters":8800,"station_id":"ce4bhgp2rcd13ifvqfd0","pricing_plan_id":"cebpf4jnsgd1na2vs0mg"},{"bike_id":"81d1a3e8-33de-4919-9ab1-082f3854765b","system_id":"levelo_inurba_marseille","lat":43.24808,"lon":5.37448,"is_reserved":false,"is_disabled":false,"rental_uris":{"android":"levelo://app?vid=81d1a3e8-33de-4919-9ab1-082f3854765b","ios":"levelo://app?vid=81d1a3e8-33de-4919-9ab1-082f3854765b"},"vehicle_type_id":"4","last_reported":1748113663,"current_range_meters":8800,"station_id":"ce4bhgh2rcd13ifvqfb0","pricing_plan_id":"cebpf4jnsgd1na2vs0mg"},{"bike_id":"b63998b2-53b5-4781-85c7-e1440be56e06","system_id":"levelo_inurba_marseille","lat":43.25586,"lon":5.38226,"is_reserved":false,"is_disabled":false,"rental_uris":{"android":"levelo://app?vid=b63998b2-53b5-4781-85c7-e1440be56e06","ios":"levelo://app?vid=b63998b2-53b5-4781-85c7-e1440be56e06"},"vehicle_type_id":"4","last_reported":1748113663,"current_range_meters":8800,"station_id":"ce4bhih2rcd13ifvqfs0","pricing_plan_id":"cebpf4jnsgd1na2vs0mg"},{"bike_id":"3d3eaadc-5e07-42aa-bc05-9b2e6e9efae7","system_id":"levelo_inurba_marseille","lat":43.30993,"lon":5.37275,"is_reserved":false,"is_disabled":false,"rental_uris":{"android":"levelo://app?vid=3d3eaadc-5e07-42aa-bc05-9b2e6e9efae7","ios":"levelo://app?vid=3d3eaadc-5e07-42aa-bc05-9b2e6e9efae7"},"vehicle_type_id":"4","last_reported":1748113663,"current_range_meters":8800,"station_id":"","pricing_plan_id":"cebpf4jnsgd1na2vs0mg"},{"bike_id":"09a465a7-ac91-4cce-925e-7ee5c79c6819","system_id":"levelo_inurba_marseille","lat":43.27325,"lon":5.39146,"is_reserved":false,"is_disabled":false,"rental_uris":{"android":"levelo://app?vid=09a465a7-ac91-4cce-925e-7ee5c79c6819","ios":"levelo://app?vid=09a465a7-ac91-4cce-925e-7ee5c79c6819"},"vehicle_type_id":"4","last_reported":1748113663,"current_range_meters":8800,"station_id":"","pricing_plan_id":"cebpf4jnsgd1na2vs0mg"},{"bike_id":"a78226f9-5021-4193-a3ea-b0c4a45459af","system_id":"levelo_inurba_marseille","lat":43.29218,"lon":5.36064,"is_reserved":false,"is_disabled":false,"rental_uris":{"android":"levelo://app?vid=a78226f9-5021-4193-a3ea-b0c4a45459af","ios":"levelo://app?vid=a78226f9-5021-4193-a3ea-b0c4a45459af"},"vehicle_type_id":"4","last_reported":1748113663,"current_range_meters":8800,"station_id":"ce4bhbh2rcd13ifvqeqg","pricing_plan_id":"cebpf4jnsgd1na2vs0mg"},{"bike_id":"30aca330-f893-49b2-9be7-ce949e134d70","system_id":"levelo_inurba_marseille","lat":43.303142,"lon":5.39217,"is_reserved":false,"is_disabled":false,"rental_uris":{"android":"levelo://app?vid=30aca330-f893-49b2-9be7-ce949e134d70","ios":"levelo://app?vid=30aca330-f893-49b2-9be7-ce949e134d70"},"vehicle_type_id":"4","last_reported":1748113663,"current_range_meters":8800,"station_id":"ce4bgkh2rcd13ifvqbk0","pricing_plan_id":"cebpf4jnsgd1na2vs0mg"},{"bike_id":"40d5f5df-f4a7-41a4-b16d-63484ff0379d","system_id":"levelo_inurba_marseille","lat":43.309185,"lon":5.401555,"is_reserved":false,"is_disabled":true,"rental_uris":{"android":"levelo://app?vid=40d5f5df-f4a7-41a4-b16d-63484ff0379d","ios":"levelo://app?vid=40d5f5df-f4a7-41a4-b16d-63484ff0379d"},"vehicle_type_id":"4","last_reported":1748113663,"current_range_meters":8800,"station_id":"ce4bgvp2rcd13ifvqct0","pricing_plan_id":"cebpf4jnsgd1na2vs0mg"},{"bike_id":"e119694c-2e13-4edf-9f2c-fcf221034337","system_id":"levelo_inurba_marseille","lat":43.31164,"lon":5.38721,"is_reserved":false,"is_disabled":false,"rental_uris":{"android":"levelo://app?vid=e119694c-2e13-4edf-9f2c-fcf221034337","ios":"levelo://app?vid=e119694c-2e13-4edf-9f2c-fcf221034337"},"vehicle_type_id":"4","last_reported":1748113663,"current_range_meters":8800,"station_id":"ce4bgv12rcd13ifvqcp0","pricing_plan_id":"cebpf4jnsgd1na2vs0mg"},{"bike_id":"e3d66bde-b1ee-48ca-86a2-a6d49590efde","system_id":"levelo_inurba_marseille","lat":43.29534,"lon":5.38548,"is_reserved":false,"is_disabled":false,"rental_uris":{"android":"levelo://app?vid=e3d66bde-b1ee-48ca-86a2-a6d49590efde","ios":"levelo://app?vid=e3d66bde-b1ee-48ca-86a2-a6d49590efde"},"vehicle_type_id":"4","last_reported":1748113663,"current_range_meters":9200,"station_id":"ce4bgih2rcd13ifvqba0","pricing_plan_id":"cebpf4jnsgd1na2vs0mg"},{"bike_id":"3581c28c-41f2-4cb7-b494-0448776c0438","system_id":"levelo_inurba_marseille","lat":43.29668,"lon":5.36064,"is_reserved":false,"is_disabled":false,"rental_uris":{"android":"levelo://app?vid=3581c28c-41f2-4cb7-b494-0448776c0438","ios":"levelo://app?vid=3581c28c-41f2-4cb7-b494-0448776c0438"},"vehicle_type_id":"4","last_reported":1748113663,"current_range_meters":9200,"station_id":"","pricing_plan_id":"cebpf4jnsgd1na2vs0mg"},{"bike_id":"7af223e6-b1a7-4147-bf75-4bb5d991385c","system_id":"levelo_inurba_marseille","lat":43.2927,"lon":5.38432,"is_reserved":false,"is_disabled":false,"rental_uris":{"android":"levelo://app?vid=7af223e6-b1a7-4147-bf75-4bb5d991385c","ios":"levelo://app?vid=7af223e6-b1a7-4147-bf75-4bb5d991385c"},"vehicle_type_id":"4","last_reported":1748113663,"current_range_meters":9200,"station_id":"ce4bh692rcd13ifvqea0","pricing_plan_id":"cebpf4jnsgd1na2vs0mg"},{"bike_id":"bffaa52c-7481-4a2b-b6e0-8a1cb7a69c73","system_id":"levelo_inurba_marseille","lat":43.24831,"lon":5.37429,"is_reserved":false,"is_disabled":false,"rental_uris":{"android":"levelo://app?vid=bffaa52c-7481-4a2b-b6e0-8a1cb7a69c73","ios":"levelo://app?vid=bffaa52c-7481-4a2b-b6e0-8a1cb7a69c73"},"vehicle_type_id":"4","last_reported":1748113663,"current_range_meters":9200,"station_id":"ce4bhgh2rcd13ifvqfb0","pricing_plan_id":"cebpf4jnsgd1na2vs0mg"},{"bike_id":"8a0258dd-003e-46c0-9fd4-9184547411ba","system_id":"levelo_inurba_marseille","lat":43.27208,"lon":5.39184,"is_reserved":false,"is_disabled":false,"rental_uris":{"android":"levelo://app?vid=8a0258dd-003e-46c0-9fd4-9184547411ba","ios":"levelo://app?vid=8a0258dd-003e-46c0-9fd4-9184547411ba"},"vehicle_type_id":"4","last_reported":1748113663,"current_range_meters":9200,"station_id":"ce4bhhp2rcd13ifvqfm0","pricing_plan_id":"cebpf4jnsgd1na2vs0mg"},{"bike_id":"ff29fada-048a-47b7-b4cf-e14dc4279567","system_id":"levelo_inurba_marseille","lat":43.27313,"lon":5.39086,"is_reserved":false,"is_disabled":false,"rental_uris":{"android":"levelo://app?vid=ff29fada-048a-47b7-b4cf-e14dc4279567","ios":"levelo://app?vid=ff29fada-048a-47b7-b4cf-e14dc4279567"},"vehicle_type_id":"4","last_reported":1748113663,"current_range_meters":9200,"station_id":"ce4bhgp2rcd13ifvqfe0","pricing_plan_id":"cebpf4jnsgd1na2vs0mg"},{"bike_id":"da1eb060-7107-450c-b8bc-56143b2ea638","system_id":"levelo_inurba_marseille","lat":43.24398,"lon":5.37049,"is_reserved":false,"is_disabled":false,"rental_uris":{"android":"levelo://app?vid=da1eb060-7107-450c-b8bc-56143b2ea638","ios":"levelo://app?vid=da1eb060-7107-450c-b8bc-56143b2ea638"},"vehicle_type_id":"4","last_reported":1748113663,"current_range_meters":9200,"station_id":"ce4bhhh2rcd13ifvqfk0","pricing_plan_id":"cebpf4jnsgd1na2vs0mg"},{"bike_id":"09bb191e-40ae-496c-b98c-78abc6e7dce1","system_id":"levelo_inurba_marseille","lat":43.25503,"lon":5.37649,"is_reserved":false,"is_disabled":false,"rental_uris":{"android":"levelo://app?vid=09bb191e-40ae-496c-b98c-78abc6e7dce1","ios":"levelo://app?vid=09bb191e-40ae-496c-b98c-78abc6e7dce1"},"vehicle_type_id":"4","last_reported":1748113663,"current_range_meters":9200,"station_id":"ce4bhh12rcd13ifvqff0","pricing_plan_id":"cebpf4jnsgd1na2vs0mg"},{"bike_id":"a0266583-7b56-4b29-9caa-498cb983b63a","system_id":"levelo_inurba_marseille","lat":43.26481,"lon":5.39539,"is_reserved":false,"is_disabled":false,"rental_uris":{"android":"levelo://app?vid=a0266583-7b56-4b29-9caa-498cb983b63a","ios":"levelo://app?vid=a0266583-7b56-4b29-9caa-498cb983b63a"},"vehicle_type_id":"4","last_reported":1748113663,"current_range_meters":9200,"station_id":"ce4bhi12rcd13ifvqfq0","pricing_plan_id":"cebpf4jnsgd1na2vs0mg"},{"bike_id":"8c79c1ce-a606-4f00-91af-392073174563","system_id":"levelo_inurba_marseille","lat":43.29274,"lon":5.36846,"is_reserved":false,"is_disabled":false,"rental_uris":{"android":"levelo://app?vid=8c79c1ce-a606-4f00-91af-392073174563","ios":"levelo://app?vid=8c79c1ce-a606-4f00-91af-392073174563"},"vehicle_type_id":"4","last_reported":1748113663,"current_range_meters":9200,"station_id":"ce4bhbp2rcd13ifvqesg","pricing_plan_id":"cebpf4jnsgd1na2vs0mg"},{"bike_id":"e1d4dcce-22ad-4d90-8a4c-be76222366c1","system_id":"levelo_inurba_marseille","lat":43.27209,"lon":5.39189,"is_reserved":false,"is_disabled":false,"rental_uris":{"android":"levelo://app?vid=e1d4dcce-22ad-4d90-8a4c-be76222366c1","ios":"levelo://app?vid=e1d4dcce-22ad-4d90-8a4c-be76222366c1"},"vehicle_type_id":"4","last_reported":1748113663,"current_range_meters":9200,"station_id":"ce4bhhp2rcd13ifvqfm0","pricing_plan_id":"cebpf4jnsgd1na2vs0mg"},{"bike_id":"9c04471d-65f9-4e9d-8e05-8598293aa050","system_id":"levelo_inurba_marseille","lat":43.26562,"lon":5.39013,"is_reserved":false,"is_disabled":false,"rental_uris":{"android":"levelo://app?vid=9c04471d-65f9-4e9d-8e05-8598293aa050","ios":"levelo://app?vid=9c04471d-65f9-4e9d-8e05-8598293aa050"},"vehicle_type_id":"4","last_reported":1748113663,"current_range_meters":9600,"station_id":"ce4bhe12rcd13ifvqf30","pricing_plan_id":"cebpf4jnsgd1na2vs0mg"},{"bike_id":"52269cbf-94f1-4b3a-a7ea-52e773ac04c5","system_id":"levelo_inurba_marseille","lat":43.25543,"lon":5.38218,"is_reserved":false,"is_disabled":false,"rental_uris":{"android":"levelo://app?vid=52269cbf-94f1-4b3a-a7ea-52e773ac04c5","ios":"levelo://app?vid=52269cbf-94f1-4b3a-a7ea-52e773ac04c5"},"vehicle_type_id":"4","last_reported":1748113663,"current_range_meters":9600,"station_id":"ce4bhih2rcd13ifvqfs0","pricing_plan_id":"cebpf4jnsgd1na2vs0mg"},{"bike_id":"9546d1ab-1ccb-4fe0-8b3b-7ffc67927051","system_id":"levelo_inurba_marseille","lat":43.2894,"lon":5.36626,"is_reserved":false,"is_disabled":true,"rental_uris":{"android":"levelo://app?vid=9546d1ab-1ccb-4fe0-8b3b-7ffc67927051","ios":"levelo://app?vid=9546d1ab-1ccb-4fe0-8b3b-7ffc67927051"},"vehicle_type_id":"4","last_reported":1748113663,"current_range_meters":9600,"station_id":"ce4bhap2rcd13ifvqek0","pricing_plan_id":"cebpf4jnsgd1na2vs0mg"},{"bike_id":"caf1e107-9dfd-47fc-aae0-9606d8eca857","system_id":"levelo_inurba_marseille","lat":43.27375,"lon":5.36248,"is_reserved":false,"is_disabled":true,"rental_uris":{"android":"levelo://app?vid=caf1e107-9dfd-47fc-aae0-9606d8eca857","ios":"levelo://app?vid=caf1e107-9dfd-47fc-aae0-9606d8eca857"},"vehicle_type_id":"4","last_reported":1748113663,"current_range_meters":9600,"station_id":"ce4bhbh2rcd13ifvqeo0","pricing_plan_id":"cebpf4jnsgd1na2vs0mg"},{"bike_id":"01a53e98-f3ba-46e4-91b2-a748a386d2a3","system_id":"levelo_inurba_marseille","lat":43.258668,"lon":5.398949,"is_reserved":false,"is_disabled":false,"rental_uris":{"android":"levelo://app?vid=01a53e98-f3ba-46e4-91b2-a748a386d2a3","ios":"levelo://app?vid=01a53e98-f3ba-46e4-91b2-a748a386d2a3"},"vehicle_type_id":"4","last_reported":1748113663,"current_range_meters":9600,"station_id":"ce4bhl92rcd13ifvqghg","pricing_plan_id":"cebpf4jnsgd1na2vs0mg"},{"bike_id":"dbb82c81-d32f-4742-a163-e9af3a64b4f8","system_id":"levelo_inurba_marseille","lat":43.25501,"lon":5.37649,"is_reserved":false,"is_disabled":false,"rental_uris":{"android":"levelo://app?vid=dbb82c81-d32f-4742-a163-e9af3a64b4f8","ios":"levelo://app?vid=dbb82c81-d32f-4742-a163-e9af3a64b4f8"},"vehicle_type_id":"4","last_reported":1748113663,"current_range_meters":9600,"station_id":"ce4bhh12rcd13ifvqff0","pricing_plan_id":"cebpf4jnsgd1na2vs0mg"},{"bike_id":"aeb9ef90-389d-4ef3-899b-0a0feff09a32","system_id":"levelo_inurba_marseille","lat":43.31358,"lon":5.38024,"is_reserved":false,"is_disabled":false,"rental_uris":{"android":"levelo://app?vid=aeb9ef90-389d-4ef3-899b-0a0feff09a32","ios":"levelo://app?vid=aeb9ef90-389d-4ef3-899b-0a0feff09a32"},"vehicle_type_id":"4","last_reported":1748113663,"current_range_meters":9600,"station_id":"","pricing_plan_id":"cebpf4jnsgd1na2vs0mg"},{"bike_id":"d68e2dac-b79c-4585-9c95-7bc4ff89f7c0","system_id":"levelo_inurba_marseille","lat":43.30546,"lon":5.36534,"is_reserved":false,"is_disabled":false,"rental_uris":{"android":"levelo://app?vid=d68e2dac-b79c-4585-9c95-7bc4ff89f7c0","ios":"levelo://app?vid=d68e2dac-b79c-4585-9c95-7bc4ff89f7c0"},"vehicle_type_id":"4","last_reported":1748113663,"current_range_meters":9600,"station_id":"ce4bgs12rcd13ifvqcag","pricing_plan_id":"cebpf4jnsgd1na2vs0mg"},{"bike_id":"ea329fe5-7fe6-42aa-bc10-6599622144d7","system_id":"levelo_inurba_marseille","lat":43.27375,"lon":5.36255,"is_reserved":false,"is_disabled":false,"rental_uris":{"android":"levelo://app?vid=ea329fe5-7fe6-42aa-bc10-6599622144d7","ios":"levelo://app?vid=ea329fe5-7fe6-42aa-bc10-6599622144d7"},"vehicle_type_id":"4","last_reported":1748113663,"current_range_meters":9600,"station_id":"ce4bhbh2rcd13ifvqeo0","pricing_plan_id":"cebpf4jnsgd1na2vs0mg"},{"bike_id":"2b1baefa-f84c-42fe-9345-39bffedccbb6","system_id":"levelo_inurba_marseille","lat":43.25117,"lon":5.40317,"is_reserved":false,"is_disabled":false,"rental_uris":{"android":"levelo://app?vid=2b1baefa-f84c-42fe-9345-39bffedccbb6","ios":"levelo://app?vid=2b1baefa-f84c-42fe-9345-39bffedccbb6"},"vehicle_type_id":"4","last_reported":1748113663,"current_range_meters":9600,"station_id":"ce4bhlh2rcd13ifvqgig","pricing_plan_id":"cebpf4jnsgd1na2vs0mg"},{"bike_id":"7c9b143d-e7c8-48b8-a460-e57ab6c66cc5","system_id":"levelo_inurba_marseille","lat":43.266452,"lon":5.382212,"is_reserved":false,"is_disabled":false,"rental_uris":{"android":"levelo://app?vid=7c9b143d-e7c8-48b8-a460-e57ab6c66cc5","ios":"levelo://app?vid=7c9b143d-e7c8-48b8-a460-e57ab6c66cc5"},"vehicle_type_id":"4","last_reported":1748113663,"current_range_meters":9600,"station_id":"ce4bhg92rcd13ifvqf90","pricing_plan_id":"cebpf4jnsgd1na2vs0mg"},{"bike_id":"49ccdfe4-faac-416b-9940-7ab4cd22ed1c","system_id":"levelo_inurba_marseille","lat":43.2694,"lon":5.40264,"is_reserved":false,"is_disabled":false,"rental_uris":{"android":"levelo://app?vid=49ccdfe4-faac-416b-9940-7ab4cd22ed1c","ios":"levelo://app?vid=49ccdfe4-faac-416b-9940-7ab4cd22ed1c"},"vehicle_type_id":"4","last_reported":1748113663,"current_range_meters":9600,"station_id":"cjm6bp8fraef2m0cb0m0","pricing_plan_id":"cebpf4jnsgd1na2vs0mg"},{"bike_id":"9e10a5b8-5080-4f7e-8499-b14ca29da876","system_id":"levelo_inurba_marseille","lat":43.290305,"lon":5.35614,"is_reserved":false,"is_disabled":true,"rental_uris":{"android":"levelo://app?vid=9e10a5b8-5080-4f7e-8499-b14ca29da876","ios":"levelo://app?vid=9e10a5b8-5080-4f7e-8499-b14ca29da876"},"vehicle_type_id":"4","last_reported":1748113663,"current_range_meters":10000,"station_id":"ce4bhb92rcd13ifvqen0","pricing_plan_id":"cebpf4jnsgd1na2vs0mg"},{"bike_id":"fc8c72ad-ca61-42c6-ae90-f61b57e45328","system_id":"levelo_inurba_marseille","lat":43.278954,"lon":5.418606,"is_reserved":false,"is_disabled":false,"rental_uris":{"android":"levelo://app?vid=fc8c72ad-ca61-42c6-ae90-f61b57e45328","ios":"levelo://app?vid=fc8c72ad-ca61-42c6-ae90-f61b57e45328"},"vehicle_type_id":"4","last_reported":1748113663,"current_range_meters":10000,"station_id":"","pricing_plan_id":"cebpf4jnsgd1na2vs0mg"},{"bike_id":"3f6e0c63-7532-4344-a7c3-77443d0e02fb","system_id":"levelo_inurba_marseille","lat":43.25869,"lon":5.39905,"is_reserved":false,"is_disabled":true,"rental_uris":{"android":"levelo://app?vid=3f6e0c63-7532-4344-a7c3-77443d0e02fb","ios":"levelo://app?vid=3f6e0c63-7532-4344-a7c3-77443d0e02fb"},"vehicle_type_id":"4","last_reported":1748113663,"current_range_meters":10000,"station_id":"ce4bhl92rcd13ifvqghg","pricing_plan_id":"cebpf4jnsgd1na2vs0mg"},{"bike_id":"95d7d96c-cf90-4331-97f5-46bd0f1e9205","system_id":"levelo_inurba_marseille","lat":43.28275,"lon":5.35059,"is_reserved":false,"is_disabled":false,"rental_uris":{"android":"levelo://app?vid=95d7d96c-cf90-4331-97f5-46bd0f1e9205","ios":"levelo://app?vid=95d7d96c-cf90-4331-97f5-46bd0f1e9205"},"vehicle_type_id":"4","last_reported":1748113663,"current_range_meters":10000,"station_id":"ce4bhbp2rcd13ifvqerg","pricing_plan_id":"cebpf4jnsgd1na2vs0mg"},{"bike_id":"66757b66-fe71-4178-8fb6-0e2baa0c8743","system_id":"levelo_inurba_marseille","lat":43.26779,"lon":5.39419,"is_reserved":false,"is_disabled":false,"rental_uris":{"android":"levelo://app?vid=66757b66-fe71-4178-8fb6-0e2baa0c8743","ios":"levelo://app?vid=66757b66-fe71-4178-8fb6-0e2baa0c8743"},"vehicle_type_id":"4","last_reported":1748113663,"current_range_meters":10000,"station_id":"ce4bhh12rcd13ifvqfg0","pricing_plan_id":"cebpf4jnsgd1na2vs0mg"},{"bike_id":"87b8832c-df79-41dd-927d-c8f335a755c3","system_id":"levelo_inurba_marseille","lat":43.25577,"lon":5.38244,"is_reserved":false,"is_disabled":false,"rental_uris":{"android":"levelo://app?vid=87b8832c-df79-41dd-927d-c8f335a755c3","ios":"levelo://app?vid=87b8832c-df79-41dd-927d-c8f335a755c3"},"vehicle_type_id":"4","last_reported":1748113663,"current_range_meters":10000,"station_id":"ce4bhih2rcd13ifvqfs0","pricing_plan_id":"cebpf4jnsgd1na2vs0mg"},{"bike_id":"40572cad-a796-4f87-a02c-44bcfdb01f65","system_id":"levelo_inurba_marseille","lat":43.273422,"lon":5.361547,"is_reserved":false,"is_disabled":false,"rental_uris":{"android":"levelo://app?vid=40572cad-a796-4f87-a02c-44bcfdb01f65","ios":"levelo://app?vid=40572cad-a796-4f87-a02c-44bcfdb01f65"},"vehicle_type_id":"4","last_reported":1748113663,"current_range_meters":10000,"station_id":"","pricing_plan_id":"cebpf4jnsgd1na2vs0mg"},{"bike_id":"7c7681ca-6b6f-44d0-b646-bff553a2c6f1","system_id":"levelo_inurba_marseille","lat":43.29535,"lon":5.38531,"is_reserved":false,"is_disabled":false,"rental_uris":{"android":"levelo://app?vid=7c7681ca-6b6f-44d0-b646-bff553a2c6f1","ios":"levelo://app?vid=7c7681ca-6b6f-44d0-b646-bff553a2c6f1"},"vehicle_type_id":"4","last_reported":1748113663,"current_range_meters":10000,"station_id":"ce4bgih2rcd13ifvqba0","pricing_plan_id":"cebpf4jnsgd1na2vs0mg"},{"bike_id":"c0b51b19-5a3c-47b6-a728-20e9b0d3fca2","system_id":"levelo_inurba_marseille","lat":43.21759,"lon":5.34596,"is_reserved":false,"is_disabled":true,"rental_uris":{"android":"levelo://app?vid=c0b51b19-5a3c-47b6-a728-20e9b0d3fca2","ios":"levelo://app?vid=c0b51b19-5a3c-47b6-a728-20e9b0d3fca2"},"vehicle_type_id":"4","last_reported":1748113663,"current_range_meters":10000,"station_id":"st_cvj6r9ubvosntc0bgbag","pricing_plan_id":"cebpf4jnsgd1na2vs0mg"},{"bike_id":"1fc0d832-fe9c-4751-8cf0-57de985f7d7b","system_id":"levelo_inurba_marseille","lat":43.28705,"lon":5.39982,"is_reserved":false,"is_disabled":false,"rental_uris":{"android":"levelo://app?vid=1fc0d832-fe9c-4751-8cf0-57de985f7d7b","ios":"levelo://app?vid=1fc0d832-fe9c-4751-8cf0-57de985f7d7b"},"vehicle_type_id":"4","last_reported":1748113663,"current_range_meters":9600,"station_id":"ce4bho92rcd13ifvqh3g","pricing_plan_id":"cebpf4jnsgd1na2vs0mg"},{"bike_id":"d233e8c8-39f0-4ad7-b9ae-c0a68e5c8718","system_id":"levelo_inurba_marseille","lat":43.26946,"lon":5.40255,"is_reserved":false,"is_disabled":false,"rental_uris":{"android":"levelo://app?vid=d233e8c8-39f0-4ad7-b9ae-c0a68e5c8718","ios":"levelo://app?vid=d233e8c8-39f0-4ad7-b9ae-c0a68e5c8718"},"vehicle_type_id":"4","last_reported":1748113663,"current_range_meters":10800,"station_id":"cjm6bp8fraef2m0cb0m0","pricing_plan_id":"cebpf4jnsgd1na2vs0mg"},{"bike_id":"513daf81-dae3-47ec-8ec5-a66787a8c729","system_id":"levelo_inurba_marseille","lat":43.28937,"lon":5.3664,"is_reserved":false,"is_disabled":false,"rental_uris":{"android":"levelo://app?vid=513daf81-dae3-47ec-8ec5-a66787a8c729","ios":"levelo://app?vid=513daf81-dae3-47ec-8ec5-a66787a8c729"},"vehicle_type_id":"4","last_reported":1748113663,"current_range_meters":10800,"station_id":"ce4bhap2rcd13ifvqek0","pricing_plan_id":"cebpf4jnsgd1na2vs0mg"},{"bike_id":"aa2aee6c-d5a2-4b33-bb06-2abf49f421ae","system_id":"levelo_inurba_marseille","lat":43.28474,"lon":5.38414,"is_reserved":false,"is_disabled":true,"rental_uris":{"android":"levelo://app?vid=aa2aee6c-d5a2-4b33-bb06-2abf49f421ae","ios":"levelo://app?vid=aa2aee6c-d5a2-4b33-bb06-2abf49f421ae"},"vehicle_type_id":"4","last_reported":1748113663,"current_range_meters":10800,"station_id":"ce4bh512rcd13ifvqe3g","pricing_plan_id":"cebpf4jnsgd1na2vs0mg"},{"bike_id":"631364b9-4f5e-4cc8-8e04-6ec26ba24d61","system_id":"levelo_inurba_marseille","lat":43.30139,"lon":5.387805,"is_reserved":false,"is_disabled":true,"rental_uris":{"android":"levelo://app?vid=631364b9-4f5e-4cc8-8e04-6ec26ba24d61","ios":"levelo://app?vid=631364b9-4f5e-4cc8-8e04-6ec26ba24d61"},"vehicle_type_id":"4","last_reported":1748113663,"current_range_meters":10800,"station_id":"ce4bghh2rcd13ifvqb60","pricing_plan_id":"cebpf4jnsgd1na2vs0mg"},{"bike_id":"31278b80-ed14-41f9-8e3d-34c51c3274f8","system_id":"levelo_inurba_marseille","lat":43.26846,"lon":5.40108,"is_reserved":false,"is_disabled":false,"rental_uris":{"android":"levelo://app?vid=31278b80-ed14-41f9-8e3d-34c51c3274f8","ios":"levelo://app?vid=31278b80-ed14-41f9-8e3d-34c51c3274f8"},"vehicle_type_id":"4","last_reported":1748113663,"current_range_meters":10800,"station_id":"","pricing_plan_id":"cebpf4jnsgd1na2vs0mg"},{"bike_id":"59c0f53e-2435-4973-b338-4d5ad79c7d38","system_id":"levelo_inurba_marseille","lat":43.27328,"lon":5.39088,"is_reserved":false,"is_disabled":false,"rental_uris":{"android":"levelo://app?vid=59c0f53e-2435-4973-b338-4d5ad79c7d38","ios":"levelo://app?vid=59c0f53e-2435-4973-b338-4d5ad79c7d38"},"vehicle_type_id":"4","last_reported":1748113663,"current_range_meters":10800,"station_id":"ce4bhgp2rcd13ifvqfe0","pricing_plan_id":"cebpf4jnsgd1na2vs0mg"},{"bike_id":"d1a7d805-8bb7-42c8-af48-f1fef471a804","system_id":"levelo_inurba_marseille","lat":43.29225,"lon":5.36054,"is_reserved":false,"is_disabled":false,"rental_uris":{"android":"levelo://app?vid=d1a7d805-8bb7-42c8-af48-f1fef471a804","ios":"levelo://app?vid=d1a7d805-8bb7-42c8-af48-f1fef471a804"},"vehicle_type_id":"4","last_reported":1748113663,"current_range_meters":10800,"station_id":"","pricing_plan_id":"cebpf4jnsgd1na2vs0mg"},{"bike_id":"c2b16d07-480f-4183-94f3-a64a0bb3df26","system_id":"levelo_inurba_marseille","lat":43.24058,"lon":5.37733,"is_reserved":false,"is_disabled":false,"rental_uris":{"android":"levelo://app?vid=c2b16d07-480f-4183-94f3-a64a0bb3df26","ios":"levelo://app?vid=c2b16d07-480f-4183-94f3-a64a0bb3df26"},"vehicle_type_id":"4","last_reported":1748113663,"current_range_meters":10800,"station_id":"ce4bhnp2rcd13ifvqgvg","pricing_plan_id":"cebpf4jnsgd1na2vs0mg"},{"bike_id":"fc885d41-78e1-4ef0-92df-26517472de7e","system_id":"levelo_inurba_marseille","lat":43.26191,"lon":5.37457,"is_reserved":false,"is_disabled":false,"rental_uris":{"android":"levelo://app?vid=fc885d41-78e1-4ef0-92df-26517472de7e","ios":"levelo://app?vid=fc885d41-78e1-4ef0-92df-26517472de7e"},"vehicle_type_id":"4","last_reported":1748113663,"current_range_meters":11200,"station_id":"ce4bhgp2rcd13ifvqfc0","pricing_plan_id":"cebpf4jnsgd1na2vs0mg"},{"bike_id":"ebe4a89a-4122-42d1-90ee-9d24420e1b7b","system_id":"levelo_inurba_marseille","lat":43.24663,"lon":5.38165,"is_reserved":false,"is_disabled":false,"rental_uris":{"android":"levelo://app?vid=ebe4a89a-4122-42d1-90ee-9d24420e1b7b","ios":"levelo://app?vid=ebe4a89a-4122-42d1-90ee-9d24420e1b7b"},"vehicle_type_id":"4","last_reported":1748113663,"current_range_meters":11200,"station_id":"ce4bhih2rcd13ifvqfr0","pricing_plan_id":"cebpf4jnsgd1na2vs0mg"},{"bike_id":"1651f56d-dc57-4a90-af13-ed23c999a3fd","system_id":"levelo_inurba_marseille","lat":43.29297,"lon":5.37146,"is_reserved":false,"is_disabled":false,"rental_uris":{"android":"levelo://app?vid=1651f56d-dc57-4a90-af13-ed23c999a3fd","ios":"levelo://app?vid=1651f56d-dc57-4a90-af13-ed23c999a3fd"},"vehicle_type_id":"4","last_reported":1748113663,"current_range_meters":11200,"station_id":"ce4bgh92rcd13ifvqb40","pricing_plan_id":"cebpf4jnsgd1na2vs0mg"},{"bike_id":"2798bf6f-52e6-46c1-b8e1-c81a0aa9b995","system_id":"levelo_inurba_marseille","lat":43.30538,"lon":5.36551,"is_reserved":false,"is_disabled":false,"rental_uris":{"android":"levelo://app?vid=2798bf6f-52e6-46c1-b8e1-c81a0aa9b995","ios":"levelo://app?vid=2798bf6f-52e6-46c1-b8e1-c81a0aa9b995"},"vehicle_type_id":"4","last_reported":1748113663,"current_range_meters":11200,"station_id":"ce4bgs12rcd13ifvqcag","pricing_plan_id":"cebpf4jnsgd1na2vs0mg"},{"bike_id":"d29f7571-b565-47ab-b61c-4bd7a01a3934","system_id":"levelo_inurba_marseille","lat":43.2997,"lon":5.38498,"is_reserved":false,"is_disabled":false,"rental_uris":{"android":"levelo://app?vid=d29f7571-b565-47ab-b61c-4bd7a01a3934","ios":"levelo://app?vid=d29f7571-b565-47ab-b61c-4bd7a01a3934"},"vehicle_type_id":"4","last_reported":1748113663,"current_range_meters":11200,"station_id":"ce4bgj92rcd13ifvqbd0","pricing_plan_id":"cebpf4jnsgd1na2vs0mg"},{"bike_id":"88ac5a91-56d3-4573-b0f2-5c6bbb7d986b","system_id":"levelo_inurba_marseille","lat":43.26063,"lon":5.39652,"is_reserved":false,"is_disabled":false,"rental_uris":{"android":"levelo://app?vid=88ac5a91-56d3-4573-b0f2-5c6bbb7d986b","ios":"levelo://app?vid=88ac5a91-56d3-4573-b0f2-5c6bbb7d986b"},"vehicle_type_id":"4","last_reported":1748113663,"current_range_meters":11200,"station_id":"","pricing_plan_id":"cebpf4jnsgd1na2vs0mg"},{"bike_id":"ff98a2c5-c8bb-48d6-a824-5ab281006afb","system_id":"levelo_inurba_marseille","lat":43.31232,"lon":5.3687,"is_reserved":false,"is_disabled":false,"rental_uris":{"android":"levelo://app?vid=ff98a2c5-c8bb-48d6-a824-5ab281006afb","ios":"levelo://app?vid=ff98a2c5-c8bb-48d6-a824-5ab281006afb"},"vehicle_type_id":"4","last_reported":1748113663,"current_range_meters":11200,"station_id":"ce4bgl92rcd13ifvqbq0","pricing_plan_id":"cebpf4jnsgd1na2vs0mg"},{"bike_id":"53fe6966-25ed-4360-ac24-cb7e2572a8f6","system_id":"levelo_inurba_marseille","lat":43.23183,"lon":5.39984,"is_reserved":false,"is_disabled":false,"rental_uris":{"android":"levelo://app?vid=53fe6966-25ed-4360-ac24-cb7e2572a8f6","ios":"levelo://app?vid=53fe6966-25ed-4360-ac24-cb7e2572a8f6"},"vehicle_type_id":"4","last_reported":1748113663,"current_range_meters":11200,"station_id":"ce4bhn12rcd13ifvqgqg","pricing_plan_id":"cebpf4jnsgd1na2vs0mg"},{"bike_id":"58436c7b-a8bf-4595-8413-7814d96fe18a","system_id":"levelo_inurba_marseille","lat":43.29224,"lon":5.36075,"is_reserved":false,"is_disabled":false,"rental_uris":{"android":"levelo://app?vid=58436c7b-a8bf-4595-8413-7814d96fe18a","ios":"levelo://app?vid=58436c7b-a8bf-4595-8413-7814d96fe18a"},"vehicle_type_id":"4","last_reported":1748113663,"current_range_meters":11600,"station_id":"ce4bhbh2rcd13ifvqeqg","pricing_plan_id":"cebpf4jnsgd1na2vs0mg"},{"bike_id":"701b01bf-a84b-4138-868f-1257d150fb2b","system_id":"levelo_inurba_marseille","lat":43.30419,"lon":5.41276,"is_reserved":false,"is_disabled":false,"rental_uris":{"android":"levelo://app?vid=701b01bf-a84b-4138-868f-1257d150fb2b","ios":"levelo://app?vid=701b01bf-a84b-4138-868f-1257d150fb2b"},"vehicle_type_id":"4","last_reported":1748113663,"current_range_meters":11600,"station_id":"ce4bhop2rcd13ifvqh8g","pricing_plan_id":"cebpf4jnsgd1na2vs0mg"},{"bike_id":"0162c4d7-47b3-4daa-9721-fe8ff6722da4","system_id":"levelo_inurba_marseille","lat":43.27371,"lon":5.36259,"is_reserved":false,"is_disabled":false,"rental_uris":{"android":"levelo://app?vid=0162c4d7-47b3-4daa-9721-fe8ff6722da4","ios":"levelo://app?vid=0162c4d7-47b3-4daa-9721-fe8ff6722da4"},"vehicle_type_id":"4","last_reported":1748113663,"current_range_meters":11600,"station_id":"ce4bhbh2rcd13ifvqeo0","pricing_plan_id":"cebpf4jnsgd1na2vs0mg"},{"bike_id":"cb921adf-4df7-4f6c-8a54-535cc1a59099","system_id":"levelo_inurba_marseille","lat":43.29555,"lon":5.42291,"is_reserved":false,"is_disabled":false,"rental_uris":{"android":"levelo://app?vid=cb921adf-4df7-4f6c-8a54-535cc1a59099","ios":"levelo://app?vid=cb921adf-4df7-4f6c-8a54-535cc1a59099"},"vehicle_type_id":"4","last_reported":1748113663,"current_range_meters":11600,"station_id":"ce4bhph2rcd13ifvqhdg","pricing_plan_id":"cebpf4jnsgd1na2vs0mg"},{"bike_id":"b88115e3-be9b-4d7e-9c13-6587a16d02d7","system_id":"levelo_inurba_marseille","lat":43.29262,"lon":5.38444,"is_reserved":false,"is_disabled":false,"rental_uris":{"android":"levelo://app?vid=b88115e3-be9b-4d7e-9c13-6587a16d02d7","ios":"levelo://app?vid=b88115e3-be9b-4d7e-9c13-6587a16d02d7"},"vehicle_type_id":"4","last_reported":1748113663,"current_range_meters":11600,"station_id":"ce4bh692rcd13ifvqea0","pricing_plan_id":"cebpf4jnsgd1na2vs0mg"},{"bike_id":"41e8aa44-92d2-486b-a6d4-64aef19385db","system_id":"levelo_inurba_marseille","lat":43.25555,"lon":5.38234,"is_reserved":false,"is_disabled":false,"rental_uris":{"android":"levelo://app?vid=41e8aa44-92d2-486b-a6d4-64aef19385db","ios":"levelo://app?vid=41e8aa44-92d2-486b-a6d4-64aef19385db"},"vehicle_type_id":"4","last_reported":1748113663,"current_range_meters":11600,"station_id":"ce4bhih2rcd13ifvqfs0","pricing_plan_id":"cebpf4jnsgd1na2vs0mg"},{"bike_id":"7b72dde8-cafa-402b-afac-e883857890d1","system_id":"levelo_inurba_marseille","lat":43.29228,"lon":5.36043,"is_reserved":false,"is_disabled":false,"rental_uris":{"android":"levelo://app?vid=7b72dde8-cafa-402b-afac-e883857890d1","ios":"levelo://app?vid=7b72dde8-cafa-402b-afac-e883857890d1"},"vehicle_type_id":"4","last_reported":1748113663,"current_range_meters":11600,"station_id":"","pricing_plan_id":"cebpf4jnsgd1na2vs0mg"},{"bike_id":"503c0f9a-f286-4182-b2c9-c344518ca4ef","system_id":"levelo_inurba_marseille","lat":43.30307,"lon":5.39199,"is_reserved":false,"is_disabled":false,"rental_uris":{"android":"levelo://app?vid=503c0f9a-f286-4182-b2c9-c344518ca4ef","ios":"levelo://app?vid=503c0f9a-f286-4182-b2c9-c344518ca4ef"},"vehicle_type_id":"4","last_reported":1748113663,"current_range_meters":11600,"station_id":"ce4bgkh2rcd13ifvqbk0","pricing_plan_id":"cebpf4jnsgd1na2vs0mg"},{"bike_id":"b72ccfd1-35cf-4b02-9c1a-90aef7c74e5f","system_id":"levelo_inurba_marseille","lat":43.248629,"lon":5.441983,"is_reserved":false,"is_disabled":false,"rental_uris":{"android":"levelo://app?vid=b72ccfd1-35cf-4b02-9c1a-90aef7c74e5f","ios":"levelo://app?vid=b72ccfd1-35cf-4b02-9c1a-90aef7c74e5f"},"vehicle_type_id":"4","last_reported":1748113663,"current_range_meters":11600,"station_id":"","pricing_plan_id":"cebpf4jnsgd1na2vs0mg"},{"bike_id":"0ee4abd8-31f5-4b2f-b0b9-318d7620d615","system_id":"levelo_inurba_marseille","lat":43.2694,"lon":5.40239,"is_reserved":false,"is_disabled":false,"rental_uris":{"android":"levelo://app?vid=0ee4abd8-31f5-4b2f-b0b9-318d7620d615","ios":"levelo://app?vid=0ee4abd8-31f5-4b2f-b0b9-318d7620d615"},"vehicle_type_id":"4","last_reported":1748113663,"current_range_meters":11600,"station_id":"cjm6bp8fraef2m0cb0m0","pricing_plan_id":"cebpf4jnsgd1na2vs0mg"},{"bike_id":"3ee7a1f2-68af-4055-8b74-2db1ffed97c4","system_id":"levelo_inurba_marseille","lat":43.282713,"lon":5.350627,"is_reserved":false,"is_disabled":false,"rental_uris":{"android":"levelo://app?vid=3ee7a1f2-68af-4055-8b74-2db1ffed97c4","ios":"levelo://app?vid=3ee7a1f2-68af-4055-8b74-2db1ffed97c4"},"vehicle_type_id":"4","last_reported":1748113663,"current_range_meters":12000,"station_id":"ce4bhbp2rcd13ifvqerg","pricing_plan_id":"cebpf4jnsgd1na2vs0mg"},{"bike_id":"171061b3-1094-4aed-8832-5f0762273240","system_id":"levelo_inurba_marseille","lat":43.29227,"lon":5.36029,"is_reserved":false,"is_disabled":true,"rental_uris":{"android":"levelo://app?vid=171061b3-1094-4aed-8832-5f0762273240","ios":"levelo://app?vid=171061b3-1094-4aed-8832-5f0762273240"},"vehicle_type_id":"4","last_reported":1748113663,"current_range_meters":12000,"station_id":"ce4bhbh2rcd13ifvqeqg","pricing_plan_id":"cebpf4jnsgd1na2vs0mg"},{"bike_id":"53a8fa51-7b73-4bc7-923d-43aea42f7a23","system_id":"levelo_inurba_marseille","lat":43.27317,"lon":5.39096,"is_reserved":false,"is_disabled":false,"rental_uris":{"android":"levelo://app?vid=53a8fa51-7b73-4bc7-923d-43aea42f7a23","ios":"levelo://app?vid=53a8fa51-7b73-4bc7-923d-43aea42f7a23"},"vehicle_type_id":"4","last_reported":1748113663,"current_range_meters":12000,"station_id":"ce4bhgp2rcd13ifvqfe0","pricing_plan_id":"cebpf4jnsgd1na2vs0mg"},{"bike_id":"b1c921d9-4f89-40be-8cc2-2d74f3307c2a","system_id":"levelo_inurba_marseille","lat":43.30428,"lon":5.41263,"is_reserved":false,"is_disabled":false,"rental_uris":{"android":"levelo://app?vid=b1c921d9-4f89-40be-8cc2-2d74f3307c2a","ios":"levelo://app?vid=b1c921d9-4f89-40be-8cc2-2d74f3307c2a"},"vehicle_type_id":"4","last_reported":1748113663,"current_range_meters":12000,"station_id":"ce4bhop2rcd13ifvqh8g","pricing_plan_id":"cebpf4jnsgd1na2vs0mg"},{"bike_id":"6abb9ab4-3976-4e3e-b994-f2f72ee02055","system_id":"levelo_inurba_marseille","lat":43.318028,"lon":5.368335,"is_reserved":false,"is_disabled":false,"rental_uris":{"android":"levelo://app?vid=6abb9ab4-3976-4e3e-b994-f2f72ee02055","ios":"levelo://app?vid=6abb9ab4-3976-4e3e-b994-f2f72ee02055"},"vehicle_type_id":"4","last_reported":1748113663,"current_range_meters":12000,"station_id":"","pricing_plan_id":"cebpf4jnsgd1na2vs0mg"},{"bike_id":"956a5acc-12ac-46a5-8287-686092c1108b","system_id":"levelo_inurba_marseille","lat":43.248,"lon":5.37448,"is_reserved":false,"is_disabled":false,"rental_uris":{"android":"levelo://app?vid=956a5acc-12ac-46a5-8287-686092c1108b","ios":"levelo://app?vid=956a5acc-12ac-46a5-8287-686092c1108b"},"vehicle_type_id":"4","last_reported":1748113663,"current_range_meters":12000,"station_id":"ce4bhgh2rcd13ifvqfb0","pricing_plan_id":"cebpf4jnsgd1na2vs0mg"},{"bike_id":"7bb277c8-8548-47e1-8e29-697ca300a8c0","system_id":"levelo_inurba_marseille","lat":43.23057,"lon":5.35493,"is_reserved":false,"is_disabled":false,"rental_uris":{"android":"levelo://app?vid=7bb277c8-8548-47e1-8e29-697ca300a8c0","ios":"levelo://app?vid=7bb277c8-8548-47e1-8e29-697ca300a8c0"},"vehicle_type_id":"4","last_reported":1748113663,"current_range_meters":12000,"station_id":"cpo3342slgdg3j2ifvpg","pricing_plan_id":"cebpf4jnsgd1na2vs0mg"},{"bike_id":"9a1ebc18-6a7a-402b-abd4-b292faede8e0","system_id":"levelo_inurba_marseille","lat":43.28957,"lon":5.36625,"is_reserved":false,"is_disabled":false,"rental_uris":{"android":"levelo://app?vid=9a1ebc18-6a7a-402b-abd4-b292faede8e0","ios":"levelo://app?vid=9a1ebc18-6a7a-402b-abd4-b292faede8e0"},"vehicle_type_id":"4","last_reported":1748113663,"current_range_meters":12400,"station_id":"ce4bhap2rcd13ifvqek0","pricing_plan_id":"cebpf4jnsgd1na2vs0mg"},{"bike_id":"0c96dd96-0ec7-4a59-b5fd-734a753d7f95","system_id":"levelo_inurba_marseille","lat":43.26691,"lon":5.38247,"is_reserved":false,"is_disabled":false,"rental_uris":{"android":"levelo://app?vid=0c96dd96-0ec7-4a59-b5fd-734a753d7f95","ios":"levelo://app?vid=0c96dd96-0ec7-4a59-b5fd-734a753d7f95"},"vehicle_type_id":"4","last_reported":1748113663,"current_range_meters":12400,"station_id":"ce4bhg92rcd13ifvqf90","pricing_plan_id":"cebpf4jnsgd1na2vs0mg"},{"bike_id":"37c8c075-8f82-4272-989a-84f131b3479b","system_id":"levelo_inurba_marseille","lat":43.29223,"lon":5.36033,"is_reserved":false,"is_disabled":true,"rental_uris":{"android":"levelo://app?vid=37c8c075-8f82-4272-989a-84f131b3479b","ios":"levelo://app?vid=37c8c075-8f82-4272-989a-84f131b3479b"},"vehicle_type_id":"4","last_reported":1748113663,"current_range_meters":12400,"station_id":"ce4bhbh2rcd13ifvqeqg","pricing_plan_id":"cebpf4jnsgd1na2vs0mg"},{"bike_id":"014a1465-0218-4f9a-bc37-0ae1401b3e89","system_id":"levelo_inurba_marseille","lat":43.25581,"lon":5.38234,"is_reserved":false,"is_disabled":false,"rental_uris":{"android":"levelo://app?vid=014a1465-0218-4f9a-bc37-0ae1401b3e89","ios":"levelo://app?vid=014a1465-0218-4f9a-bc37-0ae1401b3e89"},"vehicle_type_id":"4","last_reported":1748113663,"current_range_meters":12400,"station_id":"ce4bhih2rcd13ifvqfs0","pricing_plan_id":"cebpf4jnsgd1na2vs0mg"},{"bike_id":"98d55ce1-855c-4828-a0e9-2d5ac8801f93","system_id":"levelo_inurba_marseille","lat":43.30306,"lon":5.39209,"is_reserved":false,"is_disabled":false,"rental_uris":{"android":"levelo://app?vid=98d55ce1-855c-4828-a0e9-2d5ac8801f93","ios":"levelo://app?vid=98d55ce1-855c-4828-a0e9-2d5ac8801f93"},"vehicle_type_id":"4","last_reported":1748113663,"current_range_meters":12400,"station_id":"ce4bgkh2rcd13ifvqbk0","pricing_plan_id":"cebpf4jnsgd1na2vs0mg"},{"bike_id":"f79087fb-d8fa-4503-8005-db32c66a75e1","system_id":"levelo_inurba_marseille","lat":43.28612,"lon":5.37058,"is_reserved":false,"is_disabled":false,"rental_uris":{"android":"levelo://app?vid=f79087fb-d8fa-4503-8005-db32c66a75e1","ios":"levelo://app?vid=f79087fb-d8fa-4503-8005-db32c66a75e1"},"vehicle_type_id":"4","last_reported":1748113663,"current_range_meters":12400,"station_id":"ce4bht12rcd13ifvqi60","pricing_plan_id":"cebpf4jnsgd1na2vs0mg"},{"bike_id":"157754f8-0462-424f-bda8-12a4c17ce26f","system_id":"levelo_inurba_marseille","lat":43.26955,"lon":5.38632,"is_reserved":false,"is_disabled":false,"rental_uris":{"android":"levelo://app?vid=157754f8-0462-424f-bda8-12a4c17ce26f","ios":"levelo://app?vid=157754f8-0462-424f-bda8-12a4c17ce26f"},"vehicle_type_id":"4","last_reported":1748113663,"current_range_meters":12400,"station_id":"ce4bhh92rcd13ifvqfh0","pricing_plan_id":"cebpf4jnsgd1na2vs0mg"},{"bike_id":"efe7c9b3-c7eb-4481-8ae0-e36cced834f6","system_id":"levelo_inurba_marseille","lat":43.304393,"lon":5.388353,"is_reserved":false,"is_disabled":false,"rental_uris":{"android":"levelo://app?vid=efe7c9b3-c7eb-4481-8ae0-e36cced834f6","ios":"levelo://app?vid=efe7c9b3-c7eb-4481-8ae0-e36cced834f6"},"vehicle_type_id":"4","last_reported":1748113663,"current_range_meters":12400,"station_id":"ce4bgk12rcd13ifvqbi0","pricing_plan_id":"cebpf4jnsgd1na2vs0mg"},{"bike_id":"a052980d-e92a-48f7-8ca9-96f212885d9f","system_id":"levelo_inurba_marseille","lat":43.29077,"lon":5.37171,"is_reserved":false,"is_disabled":false,"rental_uris":{"android":"levelo://app?vid=a052980d-e92a-48f7-8ca9-96f212885d9f","ios":"levelo://app?vid=a052980d-e92a-48f7-8ca9-96f212885d9f"},"vehicle_type_id":"4","last_reported":1748113663,"current_range_meters":12400,"station_id":"ce4bh5p2rcd13ifvqe4g","pricing_plan_id":"cebpf4jnsgd1na2vs0mg"},{"bike_id":"d18a5f25-0a86-4b83-9562-944eac61b862","system_id":"levelo_inurba_marseille","lat":43.33721,"lon":5.39185,"is_reserved":false,"is_disabled":false,"rental_uris":{"android":"levelo://app?vid=d18a5f25-0a86-4b83-9562-944eac61b862","ios":"levelo://app?vid=d18a5f25-0a86-4b83-9562-944eac61b862"},"vehicle_type_id":"4","last_reported":1748113663,"current_range_meters":12400,"station_id":"ce4bhr92rcd13ifvqhsg","pricing_plan_id":"cebpf4jnsgd1na2vs0mg"},{"bike_id":"a7fd2216-18ee-4ee6-b9d4-de939c2a58b7","system_id":"levelo_inurba_marseille","lat":43.232006,"lon":5.355464,"is_reserved":false,"is_disabled":false,"rental_uris":{"android":"levelo://app?vid=a7fd2216-18ee-4ee6-b9d4-de939c2a58b7","ios":"levelo://app?vid=a7fd2216-18ee-4ee6-b9d4-de939c2a58b7"},"vehicle_type_id":"4","last_reported":1748113663,"current_range_meters":12400,"station_id":"ce4bhu92rcd13ifvqi70","pricing_plan_id":"cebpf4jnsgd1na2vs0mg"},{"bike_id":"33bdca6c-643c-4f42-92fa-6d1fe1fe071a","system_id":"levelo_inurba_marseille","lat":43.23201,"lon":5.35546,"is_reserved":false,"is_disabled":false,"rental_uris":{"android":"levelo://app?vid=33bdca6c-643c-4f42-92fa-6d1fe1fe071a","ios":"levelo://app?vid=33bdca6c-643c-4f42-92fa-6d1fe1fe071a"},