{"last_updated":1733209797,"ttl":60,"version":"2.2","data":{"bikes":[{"bike_id":"89c317dc-b498-4092-ab46-a64988b6ed0e","system_id":"levelo_inurba_marseille","lat":43.3229,"lon":5.38268,"is_reserved":false,"is_disabled":false,"rental_uris":{"android":"levelo://app?vid=89c317dc-b498-4092-ab46-a64988b6ed0e","ios":"levelo://app?vid=89c317dc-b498-4092-ab46-a64988b6ed0e"},"vehicle_type_id":"4","last_reported":1733209798,"current_range_meters":38800,"station_id":"ce4bhr12rcd13ifvqhqg","pricing_plan_id":"cebpf4jnsgd1na2vs0mg"},{"bike_id":"c6fcab72-3b24-4c75-b975-ad816d9a147b","system_id":"levelo_inurba_marseille","lat":43.24074,"lon":5.37755,"is_reserved":false,"is_disabled":true,"rental_uris":{"android":"levelo://app?vid=c6fcab72-3b24-4c75-b975-ad816d9a147b","ios":"levelo://app?vid=c6fcab72-3b24-4c75-b975-ad816d9a147b"},"vehicle_type_id":"4","last_reported":1733209798,"current_range_meters":0,"station_id":"ce4bhnp2rcd13ifvqgvg","pricing_plan_id":"cebpf4jnsgd1na2vs0mg"},{"bike_id":"145d0186-2dbe-4e89-b982-a015e9a12202","system_id":"levelo_inurba_marseille","lat":43.28357,"lon":5.38102,"is_reserved":false,"is_disabled":false,"rental_uris":{"android":"levelo://app?vid=145d0186-2dbe-4e89-b982-a015e9a12202","ios":"levelo://app?vid=145d0186-2dbe-4e89-b982-a015e9a12202"},"vehicle_type_id":"4","last_reported":1733209798,"current_range_meters":32800,"station_id":"ce4bh412rcd13ifvqdr0","pricing_plan_id":"cebpf4jnsgd1na2vs0mg"},{"bike_id":"7ebd64b2-3b0f-4222-ad9d-20406989239b","system_id":"levelo_inurba_marseille","lat":43.30152,"lon":5.38102,"is_reserved":false,"is_disabled":true,"rental_uris":{"android":"levelo://app?vid=7ebd64b2-3b0f-4222-ad9d-20406989239b","ios":"levelo://app?vid=7ebd64b2-3b0f-4222-ad9d-20406989239b"},"vehicle_type_id":"4","last_reported":1733209798,"current_range_meters":0,"station_id":"ce4bgjp2rcd13ifvqbh0","pricing_plan_id":"cebpf4jnsgd1na2vs0mg"},{"bike_id":"df479c2c-35ac-44ad-b9d6-81c89ed769ce","system_id":"levelo_inurba_marseille","lat":43.29691,"lon":5.37079,"is_reserved":false,"is_disabled":true,"rental_uris":{"android":"levelo://app?vid=df479c2c-35ac-44ad-b9d6-81c89ed769ce","ios":"levelo://app?vid=df479c2c-35ac-44ad-b9d6-81c89ed769ce"},"vehicle_type_id":"4","last_reported":1733209798,"current_range_meters":0,"station_id":"","pricing_plan_id":"cebpf4jnsgd1na2vs0mg"},{"bike_id":"8e029eaf-e104-4c5d-858d-6cd39de73d09","system_id":"levelo_inurba_marseille","lat":43.24181,"lon":5.3641,"is_reserved":false,"is_disabled":false,"rental_uris":{"android":"levelo://app?vid=8e029eaf-e104-4c5d-858d-6cd39de73d09","ios":"levelo://app?vid=8e029eaf-e104-4c5d-858d-6cd39de73d09"},"vehicle_type_id":"4","last_reported":1733209798,"current_range_meters":16400,"station_id":"cpo36qri1sfpv3e86is0","pricing_plan_id":"cebpf4jnsgd1na2vs0mg"},{"bike_id":"bd8cd1c7-abef-42cd-bb74-c23362a9f370","system_id":"levelo_inurba_marseille","lat":43.29417,"lon":5.38617,"is_reserved":false,"is_disabled":true,"rental_uris":{"android":"levelo://app?vid=bd8cd1c7-abef-42cd-bb74-c23362a9f370","ios":"levelo://app?vid=bd8cd1c7-abef-42cd-bb74-c23362a9f370"},"vehicle_type_id":"4","last_reported":1733209798,"current_range_meters":18000,"station_id":"ce4bh2h2rcd13ifvqdh0","pricing_plan_id":"cebpf4jnsgd1na2vs0mg"},{"bike_id":"fd85f247-bc9f-4512-8957-89e7641ccdee","system_id":"levelo_inurba_marseille","lat":43.32481,"lon":5.36572,"is_reserved":false,"is_disabled":false,"rental_uris":{"android":"levelo://app?vid=fd85f247-bc9f-4512-8957-89e7641ccdee","ios":"levelo://app?vid=fd85f247-bc9f-4512-8957-89e7641ccdee"},"vehicle_type_id":"4","last_reported":1733209798,"current_range_meters":39200,"station_id":"ce4bhs12rcd13ifvqhvg","pricing_plan_id":"cebpf4jnsgd1na2vs0mg"},{"bike_id":"00ff2417-9a7c-4523-a9b2-91f1b5b33e70","system_id":"levelo_inurba_marseille","lat":43.28987,"lon":5.37828,"is_reserved":false,"is_disabled":false,"rental_uris":{"android":"levelo://app?vid=00ff2417-9a7c-4523-a9b2-91f1b5b33e70","ios":"levelo://app?vid=00ff2417-9a7c-4523-a9b2-91f1b5b33e70"},"vehicle_type_id":"4","last_reported":1733209798,"current_range_meters":24400,"station_id":"ce4bh9p2rcd13ifvqed0","pricing_plan_id":"cebpf4jnsgd1na2vs0mg"},{"bike_id":"12652c73-7b25-4805-92ca-4c9bb1159096","system_id":"levelo_inurba_marseille","lat":43.27618,"lon":5.36117,"is_reserved":false,"is_disabled":true,"rental_uris":{"android":"levelo://app?vid=12652c73-7b25-4805-92ca-4c9bb1159096","ios":"levelo://app?vid=12652c73-7b25-4805-92ca-4c9bb1159096"},"vehicle_type_id":"4","last_reported":1733209798,"current_range_meters":38800,"station_id":"ce4bgj92rcd13ifvqbe0","pricing_plan_id":"cebpf4jnsgd1na2vs0mg"},{"bike_id":"4c49a6ec-87f1-469b-b46c-51fa3d37c9d3","system_id":"levelo_inurba_marseille","lat":43.31582,"lon":5.38075,"is_reserved":false,"is_disabled":false,"rental_uris":{"android":"levelo://app?vid=4c49a6ec-87f1-469b-b46c-51fa3d37c9d3","ios":"levelo://app?vid=4c49a6ec-87f1-469b-b46c-51fa3d37c9d3"},"vehicle_type_id":"4","last_reported":1733209798,"current_range_meters":38800,"station_id":"","pricing_plan_id":"cebpf4jnsgd1na2vs0mg"},{"bike_id":"9dfb3ae0-2ee3-42e6-bc73-2b1ac76e82bc","system_id":"levelo_inurba_marseille","lat":43.3046,"lon":5.37899,"is_reserved":false,"is_disabled":true,"rental_uris":{"android":"levelo://app?vid=9dfb3ae0-2ee3-42e6-bc73-2b1ac76e82bc","ios":"levelo://app?vid=9dfb3ae0-2ee3-42e6-bc73-2b1ac76e82bc"},"vehicle_type_id":"4","last_reported":1733209798,"current_range_meters":0,"station_id":"ce4bgup2rcd13ifvqcn0","pricing_plan_id":"cebpf4jnsgd1na2vs0mg"},{"bike_id":"0d570c58-2b60-4fbf-a6ab-b47dd1d7af96","system_id":"levelo_inurba_marseille","lat":43.29555,"lon":5.42283,"is_reserved":false,"is_disabled":false,"rental_uris":{"android":"levelo://app?vid=0d570c58-2b60-4fbf-a6ab-b47dd1d7af96","ios":"levelo://app?vid=0d570c58-2b60-4fbf-a6ab-b47dd1d7af96"},"vehicle_type_id":"4","last_reported":1733209798,"current_range_meters":38000,"station_id":"ce4bhph2rcd13ifvqhdg","pricing_plan_id":"cebpf4jnsgd1na2vs0mg"},{"bike_id":"95100176-7ead-4230-932c-4b0bbddddb86","system_id":"levelo_inurba_marseille","lat":43.32481,"lon":5.36571,"is_reserved":false,"is_disabled":false,"rental_uris":{"android":"levelo://app?vid=95100176-7ead-4230-932c-4b0bbddddb86","ios":"levelo://app?vid=95100176-7ead-4230-932c-4b0bbddddb86"},"vehicle_type_id":"4","last_reported":1733209798,"current_range_meters":6000,"station_id":"ce4bhs12rcd13ifvqhvg","pricing_plan_id":"cebpf4jnsgd1na2vs0mg"},{"bike_id":"b81226b0-d7dc-4213-8de7-ddec7d23b0a8","system_id":"levelo_inurba_marseille","lat":43.28434,"lon":5.39189,"is_reserved":false,"is_disabled":false,"rental_uris":{"android":"levelo://app?vid=b81226b0-d7dc-4213-8de7-ddec7d23b0a8","ios":"levelo://app?vid=b81226b0-d7dc-4213-8de7-ddec7d23b0a8"},"vehicle_type_id":"4","last_reported":1733209798,"current_range_meters":38800,"station_id":"ce4bhoh2rcd13ifvqh5g","pricing_plan_id":"cebpf4jnsgd1na2vs0mg"},{"bike_id":"08c2e1b1-d91f-491a-a16d-0ec11fecf599","system_id":"levelo_inurba_marseille","lat":43.2439,"lon":5.37046,"is_reserved":false,"is_disabled":false,"rental_uris":{"android":"levelo://app?vid=08c2e1b1-d91f-491a-a16d-0ec11fecf599","ios":"levelo://app?vid=08c2e1b1-d91f-491a-a16d-0ec11fecf599"},"vehicle_type_id":"4","last_reported":1733209798,"current_range_meters":38400,"station_id":"ce4bhhh2rcd13ifvqfk0","pricing_plan_id":"cebpf4jnsgd1na2vs0mg"},{"bike_id":"8bd642b2-0279-44c7-9ee2-fc3b57332c83","system_id":"levelo_inurba_marseille","lat":43.27455,"lon":5.40073,"is_reserved":false,"is_disabled":true,"rental_uris":{"android":"levelo://app?vid=8bd642b2-0279-44c7-9ee2-fc3b57332c83","ios":"levelo://app?vid=8bd642b2-0279-44c7-9ee2-fc3b57332c83"},"vehicle_type_id":"4","last_reported":1733209798,"current_range_meters":0,"station_id":"","pricing_plan_id":"cebpf4jnsgd1na2vs0mg"},{"bike_id":"83437d36-78d2-42fa-99fb-a4a968b35ce8","system_id":"levelo_inurba_marseille","lat":43.28152,"lon":5.42652,"is_reserved":false,"is_disabled":false,"rental_uris":{"android":"levelo://app?vid=83437d36-78d2-42fa-99fb-a4a968b35ce8","ios":"levelo://app?vid=83437d36-78d2-42fa-99fb-a4a968b35ce8"},"vehicle_type_id":"4","last_reported":1733209798,"current_range_meters":38800,"station_id":"ce4bhnh2rcd13ifvqgug","pricing_plan_id":"cebpf4jnsgd1na2vs0mg"},{"bike_id":"6450ee6a-f283-4027-878c-a49d7da239d1","system_id":"levelo_inurba_marseille","lat":43.24076,"lon":5.37763,"is_reserved":false,"is_disabled":false,"rental_uris":{"android":"levelo://app?vid=6450ee6a-f283-4027-878c-a49d7da239d1","ios":"levelo://app?vid=6450ee6a-f283-4027-878c-a49d7da239d1"},"vehicle_type_id":"4","last_reported":1733209798,"current_range_meters":24800,"station_id":"ce4bhnp2rcd13ifvqgvg","pricing_plan_id":"cebpf4jnsgd1na2vs0mg"},{"bike_id":"99ecf4cc-e003-4c1d-83ba-b4f6c484a54a","system_id":"levelo_inurba_marseille","lat":43.30146,"lon":5.38087,"is_reserved":false,"is_disabled":false,"rental_uris":{"android":"levelo://app?vid=99ecf4cc-e003-4c1d-83ba-b4f6c484a54a","ios":"levelo://app?vid=99ecf4cc-e003-4c1d-83ba-b4f6c484a54a"},"vehicle_type_id":"4","last_reported":1733209798,"current_range_meters":30800,"station_id":"ce4bgjp2rcd13ifvqbh0","pricing_plan_id":"cebpf4jnsgd1na2vs0mg"},{"bike_id":"1073d9ec-321d-4d06-928c-22977f27f5ec","system_id":"levelo_inurba_marseille","lat":43.30588,"lon":5.39358,"is_reserved":false,"is_disabled":false,"rental_uris":{"android":"levelo://app?vid=1073d9ec-321d-4d06-928c-22977f27f5ec","ios":"levelo://app?vid=1073d9ec-321d-4d06-928c-22977f27f5ec"},"vehicle_type_id":"4","last_reported":1733209798,"current_range_meters":16400,"station_id":"ce4bh0p2rcd13ifvqd80","pricing_plan_id":"cebpf4jnsgd1na2vs0mg"},{"bike_id":"c0bec7ea-31af-49de-8a97-a7d6bf5d8bb8","system_id":"levelo_inurba_marseille","lat":43.29048,"lon":5.35914,"is_reserved":false,"is_disabled":true,"rental_uris":{"android":"levelo://app?vid=c0bec7ea-31af-49de-8a97-a7d6bf5d8bb8","ios":"levelo://app?vid=c0bec7ea-31af-49de-8a97-a7d6bf5d8bb8"},"vehicle_type_id":"4","last_reported":1733209798,"current_range_meters":38800,"station_id":"ce4bha92rcd13ifvqeg0","pricing_plan_id":"cebpf4jnsgd1na2vs0mg"},{"bike_id":"6bb72144-ae81-4147-8990-dcfa4f7af830","system_id":"levelo_inurba_marseille","lat":43.3046,"lon":5.37916,"is_reserved":false,"is_disabled":false,"rental_uris":{"android":"levelo://app?vid=6bb72144-ae81-4147-8990-dcfa4f7af830","ios":"levelo://app?vid=6bb72144-ae81-4147-8990-dcfa4f7af830"},"vehicle_type_id":"4","last_reported":1733209798,"current_range_meters":38000,"station_id":"ce4bgup2rcd13ifvqcn0","pricing_plan_id":"cebpf4jnsgd1na2vs0mg"},{"bike_id":"a705c847-00e0-4371-9439-cd7bb591162e","system_id":"levelo_inurba_marseille","lat":43.24641,"lon":5.3889,"is_reserved":false,"is_disabled":true,"rental_uris":{"android":"levelo://app?vid=a705c847-00e0-4371-9439-cd7bb591162e","ios":"levelo://app?vid=a705c847-00e0-4371-9439-cd7bb591162e"},"vehicle_type_id":"4","last_reported":1733209798,"current_range_meters":0,"station_id":"ce4bhg12rcd13ifvqf60","pricing_plan_id":"cebpf4jnsgd1na2vs0mg"},{"bike_id":"b3f478ac-3b05-4edf-bdbf-76399090f8e9","system_id":"levelo_inurba_marseille","lat":43.30002,"lon":5.37647,"is_reserved":false,"is_disabled":true,"rental_uris":{"android":"levelo://app?vid=b3f478ac-3b05-4edf-bdbf-76399090f8e9","ios":"levelo://app?vid=b3f478ac-3b05-4edf-bdbf-76399090f8e9"},"vehicle_type_id":"4","last_reported":1733209798,"current_range_meters":0,"station_id":"","pricing_plan_id":"cebpf4jnsgd1na2vs0mg"},{"bike_id":"c3587c28-5435-41c6-a9b7-aa468e6b19aa","system_id":"levelo_inurba_marseille","lat":43.29746,"lon":5.37916,"is_reserved":false,"is_disabled":true,"rental_uris":{"android":"levelo://app?vid=c3587c28-5435-41c6-a9b7-aa468e6b19aa","ios":"levelo://app?vid=c3587c28-5435-41c6-a9b7-aa468e6b19aa"},"vehicle_type_id":"4","last_reported":1733209798,"current_range_meters":0,"station_id":"","pricing_plan_id":"cebpf4jnsgd1na2vs0mg"},{"bike_id":"c4a123da-4494-4a45-b0d5-5d120d7d4d83","system_id":"levelo_inurba_marseille","lat":43.30462,"lon":5.3791,"is_reserved":false,"is_disabled":false,"rental_uris":{"android":"levelo://app?vid=c4a123da-4494-4a45-b0d5-5d120d7d4d83","ios":"levelo://app?vid=c4a123da-4494-4a45-b0d5-5d120d7d4d83"},"vehicle_type_id":"4","last_reported":1733209798,"current_range_meters":10000,"station_id":"ce4bgup2rcd13ifvqcn0","pricing_plan_id":"cebpf4jnsgd1na2vs0mg"},{"bike_id":"e8d9fcd3-6c4c-4c2e-a87e-41c5e4dfa6d0","system_id":"levelo_inurba_marseille","lat":43.25438,"lon":5.38158,"is_reserved":false,"is_disabled":true,"rental_uris":{"android":"levelo://app?vid=e8d9fcd3-6c4c-4c2e-a87e-41c5e4dfa6d0","ios":"levelo://app?vid=e8d9fcd3-6c4c-4c2e-a87e-41c5e4dfa6d0"},"vehicle_type_id":"4","last_reported":1733209798,"current_range_meters":0,"station_id":"","pricing_plan_id":"cebpf4jnsgd1na2vs0mg"},{"bike_id":"101e72cb-5bc1-49ec-be2d-1e8628e565f6","system_id":"levelo_inurba_marseille","lat":43.31504,"lon":5.37299,"is_reserved":false,"is_disabled":true,"rental_uris":{"android":"levelo://app?vid=101e72cb-5bc1-49ec-be2d-1e8628e565f6","ios":"levelo://app?vid=101e72cb-5bc1-49ec-be2d-1e8628e565f6"},"vehicle_type_id":"4","last_reported":1733209798,"current_range_meters":33600,"station_id":"ce4bgt12rcd13ifvqcd0","pricing_plan_id":"cebpf4jnsgd1na2vs0mg"},{"bike_id":"4673f8d8-8295-437d-8f1d-a884bed9d1e4","system_id":"levelo_inurba_marseille","lat":43.23159,"lon":5.43743,"is_reserved":false,"is_disabled":false,"rental_uris":{"android":"levelo://app?vid=4673f8d8-8295-437d-8f1d-a884bed9d1e4","ios":"levelo://app?vid=4673f8d8-8295-437d-8f1d-a884bed9d1e4"},"vehicle_type_id":"4","last_reported":1733209798,"current_range_meters":39200,"station_id":"ce4bhmp2rcd13ifvqgog","pricing_plan_id":"cebpf4jnsgd1na2vs0mg"},{"bike_id":"d00665c7-6d39-4d2e-8412-a7ef6015e75c","system_id":"levelo_inurba_marseille","lat":43.28716,"lon":5.37925,"is_reserved":false,"is_disabled":false,"rental_uris":{"android":"levelo://app?vid=d00665c7-6d39-4d2e-8412-a7ef6015e75c","ios":"levelo://app?vid=d00665c7-6d39-4d2e-8412-a7ef6015e75c"},"vehicle_type_id":"4","last_reported":1733209798,"current_range_meters":24000,"station_id":"ce4bh9p2rcd13ifvqec0","pricing_plan_id":"cebpf4jnsgd1na2vs0mg"},{"bike_id":"b1eecda9-fd57-4de4-9485-565ed3709ada","system_id":"levelo_inurba_marseille","lat":43.29601,"lon":5.38109,"is_reserved":false,"is_disabled":false,"rental_uris":{"android":"levelo://app?vid=b1eecda9-fd57-4de4-9485-565ed3709ada","ios":"levelo://app?vid=b1eecda9-fd57-4de4-9485-565ed3709ada"},"vehicle_type_id":"4","last_reported":1733209798,"current_range_meters":38000,"station_id":"ce4bgl12rcd13ifvqbo0","pricing_plan_id":"cebpf4jnsgd1na2vs0mg"},{"bike_id":"4648f0b4-9aae-4ee8-bd15-1c51dbb71432","system_id":"levelo_inurba_marseille","lat":43.30152,"lon":5.38079,"is_reserved":false,"is_disabled":true,"rental_uris":{"android":"levelo://app?vid=4648f0b4-9aae-4ee8-bd15-1c51dbb71432","ios":"levelo://app?vid=4648f0b4-9aae-4ee8-bd15-1c51dbb71432"},"vehicle_type_id":"4","last_reported":1733209798,"current_range_meters":2000,"station_id":"ce4bgjp2rcd13ifvqbh0","pricing_plan_id":"cebpf4jnsgd1na2vs0mg"},{"bike_id":"e06bac6e-5df9-403c-a229-de24b48ed5df","system_id":"levelo_inurba_marseille","lat":43.27494,"lon":5.4245,"is_reserved":false,"is_disabled":false,"rental_uris":{"android":"levelo://app?vid=e06bac6e-5df9-403c-a229-de24b48ed5df","ios":"levelo://app?vid=e06bac6e-5df9-403c-a229-de24b48ed5df"},"vehicle_type_id":"4","last_reported":1733209798,"current_range_meters":28400,"station_id":"ce4bhn92rcd13ifvqgrg","pricing_plan_id":"cebpf4jnsgd1na2vs0mg"},{"bike_id":"052a1e58-88fa-43c4-a493-9df8526488c7","system_id":"levelo_inurba_marseille","lat":43.2919,"lon":5.39311,"is_reserved":false,"is_disabled":true,"rental_uris":{"android":"levelo://app?vid=052a1e58-88fa-43c4-a493-9df8526488c7","ios":"levelo://app?vid=052a1e58-88fa-43c4-a493-9df8526488c7"},"vehicle_type_id":"4","last_reported":1733209798,"current_range_meters":8800,"station_id":"ce4bh192rcd13ifvqdd0","pricing_plan_id":"cebpf4jnsgd1na2vs0mg"},{"bike_id":"34ed7b16-e707-4c30-bb65-0c88ea055863","system_id":"levelo_inurba_marseille","lat":43.30806,"lon":5.43522,"is_reserved":false,"is_disabled":true,"rental_uris":{"android":"levelo://app?vid=34ed7b16-e707-4c30-bb65-0c88ea055863","ios":"levelo://app?vid=34ed7b16-e707-4c30-bb65-0c88ea055863"},"vehicle_type_id":"4","last_reported":1733209798,"current_range_meters":11200,"station_id":"ce4bhph2rcd13ifvqheg","pricing_plan_id":"cebpf4jnsgd1na2vs0mg"},{"bike_id":"13991815-9084-4a7d-84db-014cb8cdec66","system_id":"levelo_inurba_marseille","lat":43.29044,"lon":5.39961,"is_reserved":false,"is_disabled":false,"rental_uris":{"android":"levelo://app?vid=13991815-9084-4a7d-84db-014cb8cdec66","ios":"levelo://app?vid=13991815-9084-4a7d-84db-014cb8cdec66"},"vehicle_type_id":"4","last_reported":1733209798,"current_range_meters":24800,"station_id":"ce4bh392rcd13ifvqdm0","pricing_plan_id":"cebpf4jnsgd1na2vs0mg"},{"bike_id":"7f9f3d2e-2c33-4e9f-af7d-e28e797af1e6","system_id":"levelo_inurba_marseille","lat":43.28154,"lon":5.42643,"is_reserved":false,"is_disabled":false,"rental_uris":{"android":"levelo://app?vid=7f9f3d2e-2c33-4e9f-af7d-e28e797af1e6","ios":"levelo://app?vid=7f9f3d2e-2c33-4e9f-af7d-e28e797af1e6"},"vehicle_type_id":"4","last_reported":1733209798,"current_range_meters":10000,"station_id":"ce4bhnh2rcd13ifvqgug","pricing_plan_id":"cebpf4jnsgd1na2vs0mg"},{"bike_id":"66be51ea-e4b0-4ae8-91ab-649c9fc82df9","system_id":"levelo_inurba_marseille","lat":43.28151,"lon":5.42635,"is_reserved":false,"is_disabled":false,"rental_uris":{"android":"levelo://app?vid=66be51ea-e4b0-4ae8-91ab-649c9fc82df9","ios":"levelo://app?vid=66be51ea-e4b0-4ae8-91ab-649c9fc82df9"},"vehicle_type_id":"4","last_reported":1733209798,"current_range_meters":14000,"station_id":"ce4bhnh2rcd13ifvqgug","pricing_plan_id":"cebpf4jnsgd1na2vs0mg"},{"bike_id":"0f14652d-084e-4c19-8586-135ef442e46f","system_id":"levelo_inurba_marseille","lat":43.26948,"lon":5.3862,"is_reserved":false,"is_disabled":false,"rental_uris":{"android":"levelo://app?vid=0f14652d-084e-4c19-8586-135ef442e46f","ios":"levelo://app?vid=0f14652d-084e-4c19-8586-135ef442e46f"},"vehicle_type_id":"4","last_reported":1733209798,"current_range_meters":36800,"station_id":"ce4bhh92rcd13ifvqfh0","pricing_plan_id":"cebpf4jnsgd1na2vs0mg"},{"bike_id":"16bea42d-3248-41fd-8b51-39fb3d7ec2c4","system_id":"levelo_inurba_marseille","lat":43.26479,"lon":5.38531,"is_reserved":false,"is_disabled":true,"rental_uris":{"android":"levelo://app?vid=16bea42d-3248-41fd-8b51-39fb3d7ec2c4","ios":"levelo://app?vid=16bea42d-3248-41fd-8b51-39fb3d7ec2c4"},"vehicle_type_id":"4","last_reported":1733209798,"current_range_meters":0,"station_id":"","pricing_plan_id":"cebpf4jnsgd1na2vs0mg"},{"bike_id":"21d0c3c4-d980-4f5f-b80b-ac5ea02d4220","system_id":"levelo_inurba_marseille","lat":43.24067,"lon":5.3776,"is_reserved":false,"is_disabled":false,"rental_uris":{"android":"levelo://app?vid=21d0c3c4-d980-4f5f-b80b-ac5ea02d4220","ios":"levelo://app?vid=21d0c3c4-d980-4f5f-b80b-ac5ea02d4220"},"vehicle_type_id":"4","last_reported":1733209798,"current_range_meters":38800,"station_id":"ce4bhnp2rcd13ifvqgvg","pricing_plan_id":"cebpf4jnsgd1na2vs0mg"},{"bike_id":"2b54ddc5-0583-4fc9-accb-0a4c7f0b096a","system_id":"levelo_inurba_marseille","lat":43.2669,"lon":5.38273,"is_reserved":false,"is_disabled":true,"rental_uris":{"android":"levelo://app?vid=2b54ddc5-0583-4fc9-accb-0a4c7f0b096a","ios":"levelo://app?vid=2b54ddc5-0583-4fc9-accb-0a4c7f0b096a"},"vehicle_type_id":"4","last_reported":1733209798,"current_range_meters":27200,"station_id":"ce4bhg92rcd13ifvqf90","pricing_plan_id":"cebpf4jnsgd1na2vs0mg"},{"bike_id":"eaa73896-04a8-4ef6-a4c7-4d4e56920b82","system_id":"levelo_inurba_marseille","lat":43.293,"lon":5.37447,"is_reserved":false,"is_disabled":true,"rental_uris":{"android":"levelo://app?vid=eaa73896-04a8-4ef6-a4c7-4d4e56920b82","ios":"levelo://app?vid=eaa73896-04a8-4ef6-a4c7-4d4e56920b82"},"vehicle_type_id":"4","last_reported":1733209798,"current_range_meters":0,"station_id":"ce4bgi12rcd13ifvqb70","pricing_plan_id":"cebpf4jnsgd1na2vs0mg"},{"bike_id":"00d0550a-0b97-4c21-aadc-04edc01a3042","system_id":"levelo_inurba_marseille","lat":43.30943,"lon":5.39039,"is_reserved":false,"is_disabled":false,"rental_uris":{"android":"levelo://app?vid=00d0550a-0b97-4c21-aadc-04edc01a3042","ios":"levelo://app?vid=00d0550a-0b97-4c21-aadc-04edc01a3042"},"vehicle_type_id":"4","last_reported":1733209798,"current_range_meters":18800,"station_id":"ce4bgup2rcd13ifvqco0","pricing_plan_id":"cebpf4jnsgd1na2vs0mg"},{"bike_id":"f343a832-b6b0-4a03-b073-92a5c4223d7e","system_id":"levelo_inurba_marseille","lat":43.31351,"lon":5.3672,"is_reserved":false,"is_disabled":false,"rental_uris":{"android":"levelo://app?vid=f343a832-b6b0-4a03-b073-92a5c4223d7e","ios":"levelo://app?vid=f343a832-b6b0-4a03-b073-92a5c4223d7e"},"vehicle_type_id":"4","last_reported":1733209798,"current_range_meters":33200,"station_id":"ce4bgr92rcd13ifvqc6g","pricing_plan_id":"cebpf4jnsgd1na2vs0mg"},{"bike_id":"f6cc9804-8427-412d-b1e6-763226da6ed7","system_id":"levelo_inurba_marseille","lat":43.31275,"lon":5.40167,"is_reserved":false,"is_disabled":true,"rental_uris":{"android":"levelo://app?vid=f6cc9804-8427-412d-b1e6-763226da6ed7","ios":"levelo://app?vid=f6cc9804-8427-412d-b1e6-763226da6ed7"},"vehicle_type_id":"4","last_reported":1733209798,"current_range_meters":0,"station_id":"ce4bh092rcd13ifvqd30","pricing_plan_id":"cebpf4jnsgd1na2vs0mg"},{"bike_id":"e3d7b72e-1a45-4d8f-9779-430bf24de830","system_id":"levelo_inurba_marseille","lat":43.308,"lon":5.38146,"is_reserved":false,"is_disabled":false,"rental_uris":{"android":"levelo://app?vid=e3d7b72e-1a45-4d8f-9779-430bf24de830","ios":"levelo://app?vid=e3d7b72e-1a45-4d8f-9779-430bf24de830"},"vehicle_type_id":"4","last_reported":1733209798,"current_range_meters":38800,"station_id":"ce4bgt12rcd13ifvqce0","pricing_plan_id":"cebpf4jnsgd1na2vs0mg"},{"bike_id":"749cb1cb-4d4c-4e48-bab8-f0f8d049f6fc","system_id":"levelo_inurba_marseille","lat":43.26688,"lon":5.38271,"is_reserved":false,"is_disabled":true,"rental_uris":{"android":"levelo://app?vid=749cb1cb-4d4c-4e48-bab8-f0f8d049f6fc","ios":"levelo://app?vid=749cb1cb-4d4c-4e48-bab8-f0f8d049f6fc"},"vehicle_type_id":"4","last_reported":1733209798,"current_range_meters":8400,"station_id":"ce4bhg92rcd13ifvqf90","pricing_plan_id":"cebpf4jnsgd1na2vs0mg"},{"bike_id":"d1635867-d647-434e-b017-c94e961e2357","system_id":"levelo_inurba_marseille","lat":43.24069,"lon":5.37767,"is_reserved":false,"is_disabled":false,"rental_uris":{"android":"levelo://app?vid=d1635867-d647-434e-b017-c94e961e2357","ios":"levelo://app?vid=d1635867-d647-434e-b017-c94e961e2357"},"vehicle_type_id":"4","last_reported":1733209798,"current_range_meters":10000,"station_id":"ce4bhnp2rcd13ifvqgvg","pricing_plan_id":"cebpf4jnsgd1na2vs0mg"},{"bike_id":"2514f08a-f8a6-44a7-bc47-6d9c21633cd0","system_id":"levelo_inurba_marseille","lat":43.292,"lon":5.39326,"is_reserved":false,"is_disabled":true,"rental_uris":{"android":"levelo://app?vid=2514f08a-f8a6-44a7-bc47-6d9c21633cd0","ios":"levelo://app?vid=2514f08a-f8a6-44a7-bc47-6d9c21633cd0"},"vehicle_type_id":"4","last_reported":1733209798,"current_range_meters":3200,"station_id":"ce4bh192rcd13ifvqdd0","pricing_plan_id":"cebpf4jnsgd1na2vs0mg"},{"bike_id":"fdb79724-3174-49c2-b15d-24e783687630","system_id":"levelo_inurba_marseille","lat":43.28646,"lon":5.36327,"is_reserved":false,"is_disabled":false,"rental_uris":{"android":"levelo://app?vid=fdb79724-3174-49c2-b15d-24e783687630","ios":"levelo://app?vid=fdb79724-3174-49c2-b15d-24e783687630"},"vehicle_type_id":"4","last_reported":1733209798,"current_range_meters":14000,"station_id":"ce4bhah2rcd13ifvqej0","pricing_plan_id":"cebpf4jnsgd1na2vs0mg"},{"bike_id":"0bf0354a-c902-4cef-8a2b-e61c89357b7c","system_id":"levelo_inurba_marseille","lat":43.28848,"lon":5.39319,"is_reserved":false,"is_disabled":false,"rental_uris":{"android":"levelo://app?vid=0bf0354a-c902-4cef-8a2b-e61c89357b7c","ios":"levelo://app?vid=0bf0354a-c902-4cef-8a2b-e61c89357b7c"},"vehicle_type_id":"4","last_reported":1733209798,"current_range_meters":28400,"station_id":"ce4bh2p2rcd13ifvqdi0","pricing_plan_id":"cebpf4jnsgd1na2vs0mg"},{"bike_id":"a6c4c69b-dd6b-4249-ac15-e26d57c8e7f0","system_id":"levelo_inurba_marseille","lat":43.310703,"lon":5.383511,"is_reserved":false,"is_disabled":false,"rental_uris":{"android":"levelo://app?vid=a6c4c69b-dd6b-4249-ac15-e26d57c8e7f0","ios":"levelo://app?vid=a6c4c69b-dd6b-4249-ac15-e26d57c8e7f0"},"vehicle_type_id":"4","last_reported":1733209798,"current_range_meters":36400,"station_id":"ce4bgv92rcd13ifvqcr0","pricing_plan_id":"cebpf4jnsgd1na2vs0mg"},{"bike_id":"7932e894-60e4-4259-ad2b-e25a6bbb7ae7","system_id":"levelo_inurba_marseille","lat":43.28413,"lon":5.37518,"is_reserved":false,"is_disabled":true,"rental_uris":{"android":"levelo://app?vid=7932e894-60e4-4259-ad2b-e25a6bbb7ae7","ios":"levelo://app?vid=7932e894-60e4-4259-ad2b-e25a6bbb7ae7"},"vehicle_type_id":"4","last_reported":1733209798,"current_range_meters":24800,"station_id":"ce4bh412rcd13ifvqds0","pricing_plan_id":"cebpf4jnsgd1na2vs0mg"},{"bike_id":"770a059e-4419-4c03-a96a-0b79db0f097c","system_id":"levelo_inurba_marseille","lat":43.29523,"lon":5.37502,"is_reserved":false,"is_disabled":true,"rental_uris":{"android":"levelo://app?vid=770a059e-4419-4c03-a96a-0b79db0f097c","ios":"levelo://app?vid=770a059e-4419-4c03-a96a-0b79db0f097c"},"vehicle_type_id":"4","last_reported":1733209798,"current_range_meters":28000,"station_id":"ce4bgkp2rcd13ifvqbmg","pricing_plan_id":"cebpf4jnsgd1na2vs0mg"},{"bike_id":"560d7c7a-afe7-40ab-8881-10b4001d79ee","system_id":"levelo_inurba_marseille","lat":43.30824,"lon":5.37691,"is_reserved":false,"is_disabled":false,"rental_uris":{"android":"levelo://app?vid=560d7c7a-afe7-40ab-8881-10b4001d79ee","ios":"levelo://app?vid=560d7c7a-afe7-40ab-8881-10b4001d79ee"},"vehicle_type_id":"4","last_reported":1733209798,"current_range_meters":16800,"station_id":"ce4bgv92rcd13ifvqcq0","pricing_plan_id":"cebpf4jnsgd1na2vs0mg"},{"bike_id":"bf6b6575-3007-4c88-9c96-09a96fb4098f","system_id":"levelo_inurba_marseille","lat":43.29805,"lon":5.38095,"is_reserved":false,"is_disabled":false,"rental_uris":{"android":"levelo://app?vid=bf6b6575-3007-4c88-9c96-09a96fb4098f","ios":"levelo://app?vid=bf6b6575-3007-4c88-9c96-09a96fb4098f"},"vehicle_type_id":"4","last_reported":1733209798,"current_range_meters":16000,"station_id":"ce4bgip2rcd13ifvqbb0","pricing_plan_id":"cebpf4jnsgd1na2vs0mg"},{"bike_id":"bc35b6ba-f857-4a5d-9bd4-653c74e74db3","system_id":"levelo_inurba_marseille","lat":43.30802,"lon":5.38144,"is_reserved":false,"is_disabled":false,"rental_uris":{"android":"levelo://app?vid=bc35b6ba-f857-4a5d-9bd4-653c74e74db3","ios":"levelo://app?vid=bc35b6ba-f857-4a5d-9bd4-653c74e74db3"},"vehicle_type_id":"4","last_reported":1733209798,"current_range_meters":3600,"station_id":"ce4bgt12rcd13ifvqce0","pricing_plan_id":"cebpf4jnsgd1na2vs0mg"},{"bike_id":"4870e56b-b428-4cfb-896c-bf3c53b7ebc9","system_id":"levelo_inurba_marseille","lat":43.27997,"lon":5.40017,"is_reserved":false,"is_disabled":false,"rental_uris":{"android":"levelo://app?vid=4870e56b-b428-4cfb-896c-bf3c53b7ebc9","ios":"levelo://app?vid=4870e56b-b428-4cfb-896c-bf3c53b7ebc9"},"vehicle_type_id":"4","last_reported":1733209798,"current_range_meters":16800,"station_id":"ce4bho92rcd13ifvqh4g","pricing_plan_id":"cebpf4jnsgd1na2vs0mg"},{"bike_id":"763a15e5-5c0c-4db3-84a6-87cc9fff8ea4","system_id":"levelo_inurba_marseille","lat":43.279788,"lon":5.442179,"is_reserved":false,"is_disabled":false,"rental_uris":{"android":"levelo://app?vid=763a15e5-5c0c-4db3-84a6-87cc9fff8ea4","ios":"levelo://app?vid=763a15e5-5c0c-4db3-84a6-87cc9fff8ea4"},"vehicle_type_id":"4","last_reported":1733209798,"current_range_meters":19200,"station_id":"","pricing_plan_id":"cebpf4jnsgd1na2vs0mg"},{"bike_id":"6e7fd1ff-c9e1-410b-88b0-81d7affd7780","system_id":"levelo_inurba_marseille","lat":43.29905,"lon":5.38158,"is_reserved":false,"is_disabled":false,"rental_uris":{"android":"levelo://app?vid=6e7fd1ff-c9e1-410b-88b0-81d7affd7780","ios":"levelo://app?vid=6e7fd1ff-c9e1-410b-88b0-81d7affd7780"},"vehicle_type_id":"4","last_reported":1733209798,"current_range_meters":6400,"station_id":"ce4bgj12rcd13ifvqbc0","pricing_plan_id":"cebpf4jnsgd1na2vs0mg"},{"bike_id":"0b7a5d71-bb71-4b7d-8b42-0ebfc1a18067","system_id":"levelo_inurba_marseille","lat":43.26934,"lon":5.38926,"is_reserved":false,"is_disabled":true,"rental_uris":{"android":"levelo://app?vid=0b7a5d71-bb71-4b7d-8b42-0ebfc1a18067","ios":"levelo://app?vid=0b7a5d71-bb71-4b7d-8b42-0ebfc1a18067"},"vehicle_type_id":"4","last_reported":1733209798,"current_range_meters":0,"station_id":"ce4bhhh2rcd13ifvqfl0","pricing_plan_id":"cebpf4jnsgd1na2vs0mg"},{"bike_id":"ea2d5e82-ea18-4199-9ad2-6a5f85e7eba7","system_id":"levelo_inurba_marseille","lat":43.30591,"lon":5.39359,"is_reserved":false,"is_disabled":false,"rental_uris":{"android":"levelo://app?vid=ea2d5e82-ea18-4199-9ad2-6a5f85e7eba7","ios":"levelo://app?vid=ea2d5e82-ea18-4199-9ad2-6a5f85e7eba7"},"vehicle_type_id":"4","last_reported":1733209798,"current_range_meters":36800,"station_id":"ce4bh0p2rcd13ifvqd80","pricing_plan_id":"cebpf4jnsgd1na2vs0mg"},{"bike_id":"2c76b596-2abb-460b-a7bf-ba10dde3588a","system_id":"levelo_inurba_marseille","lat":43.30468,"lon":5.37916,"is_reserved":false,"is_disabled":false,"rental_uris":{"android":"levelo://app?vid=2c76b596-2abb-460b-a7bf-ba10dde3588a","ios":"levelo://app?vid=2c76b596-2abb-460b-a7bf-ba10dde3588a"},"vehicle_type_id":"4","last_reported":1733209798,"current_range_meters":34000,"station_id":"ce4bgup2rcd13ifvqcn0","pricing_plan_id":"cebpf4jnsgd1na2vs0mg"},{"bike_id":"24fdc168-ebb3-455e-9a84-fc7b79cc9f1c","system_id":"levelo_inurba_marseille","lat":43.29275,"lon":5.36853,"is_reserved":false,"is_disabled":true,"rental_uris":{"android":"levelo://app?vid=24fdc168-ebb3-455e-9a84-fc7b79cc9f1c","ios":"levelo://app?vid=24fdc168-ebb3-455e-9a84-fc7b79cc9f1c"},"vehicle_type_id":"4","last_reported":1733209798,"current_range_meters":24000,"station_id":"","pricing_plan_id":"cebpf4jnsgd1na2vs0mg"},{"bike_id":"45ff3798-a743-4ffc-962c-fbce8ce4e073","system_id":"levelo_inurba_marseille","lat":43.23133,"lon":5.43699,"is_reserved":false,"is_disabled":false,"rental_uris":{"android":"levelo://app?vid=45ff3798-a743-4ffc-962c-fbce8ce4e073","ios":"levelo://app?vid=45ff3798-a743-4ffc-962c-fbce8ce4e073"},"vehicle_type_id":"4","last_reported":1733209798,"current_range_meters":16400,"station_id":"ce4bhmp2rcd13ifvqgog","pricing_plan_id":"cebpf4jnsgd1na2vs0mg"},{"bike_id":"56dea079-e1b1-4409-9a8d-109d8e40def4","system_id":"levelo_inurba_marseille","lat":43.31492,"lon":5.37307,"is_reserved":false,"is_disabled":false,"rental_uris":{"android":"levelo://app?vid=56dea079-e1b1-4409-9a8d-109d8e40def4","ios":"levelo://app?vid=56dea079-e1b1-4409-9a8d-109d8e40def4"},"vehicle_type_id":"4","last_reported":1733209798,"current_range_meters":37600,"station_id":"ce4bgt12rcd13ifvqcd0","pricing_plan_id":"cebpf4jnsgd1na2vs0mg"},{"bike_id":"1b29b174-eb5f-4f11-82c8-e1fea928625a","system_id":"levelo_inurba_marseille","lat":43.26932,"lon":5.40259,"is_reserved":false,"is_disabled":false,"rental_uris":{"android":"levelo://app?vid=1b29b174-eb5f-4f11-82c8-e1fea928625a","ios":"levelo://app?vid=1b29b174-eb5f-4f11-82c8-e1fea928625a"},"vehicle_type_id":"4","last_reported":1733209798,"current_range_meters":38800,"station_id":"cjm6bp8fraef2m0cb0m0","pricing_plan_id":"cebpf4jnsgd1na2vs0mg"},{"bike_id":"95f60bf8-91e0-4861-ba40-220672d1a64a","system_id":"levelo_inurba_marseille","lat":43.31316,"lon":5.37514,"is_reserved":false,"is_disabled":false,"rental_uris":{"android":"levelo://app?vid=95f60bf8-91e0-4861-ba40-220672d1a64a","ios":"levelo://app?vid=95f60bf8-91e0-4861-ba40-220672d1a64a"},"vehicle_type_id":"4","last_reported":1733209798,"current_range_meters":10000,"station_id":"","pricing_plan_id":"cebpf4jnsgd1na2vs0mg"},{"bike_id":"cdfe6590-4984-4014-86c8-6dd70747c27a","system_id":"levelo_inurba_marseille","lat":43.29737,"lon":5.37434,"is_reserved":false,"is_disabled":true,"rental_uris":{"android":"levelo://app?vid=cdfe6590-4984-4014-86c8-6dd70747c27a","ios":"levelo://app?vid=cdfe6590-4984-4014-86c8-6dd70747c27a"},"vehicle_type_id":"4","last_reported":1733209798,"current_range_meters":0,"station_id":"","pricing_plan_id":"cebpf4jnsgd1na2vs0mg"},{"bike_id":"05cecbbc-d928-48d6-bb9e-6db3f5e00983","system_id":"levelo_inurba_marseille","lat":43.23199,"lon":5.35548,"is_reserved":false,"is_disabled":false,"rental_uris":{"android":"levelo://app?vid=05cecbbc-d928-48d6-bb9e-6db3f5e00983","ios":"levelo://app?vid=05cecbbc-d928-48d6-bb9e-6db3f5e00983"},"vehicle_type_id":"4","last_reported":1733209798,"current_range_meters":38000,"station_id":"ce4bhu92rcd13ifvqi70","pricing_plan_id":"cebpf4jnsgd1na2vs0mg"},{"bike_id":"69af0e30-c3db-4abb-82c0-cc63a66983a6","system_id":"levelo_inurba_marseille","lat":43.30464,"lon":5.3791,"is_reserved":false,"is_disabled":false,"rental_uris":{"android":"levelo://app?vid=69af0e30-c3db-4abb-82c0-cc63a66983a6","ios":"levelo://app?vid=69af0e30-c3db-4abb-82c0-cc63a66983a6"},"vehicle_type_id":"4","last_reported":1733209798,"current_range_meters":14800,"station_id":"ce4bgup2rcd13ifvqcn0","pricing_plan_id":"cebpf4jnsgd1na2vs0mg"},{"bike_id":"2d223975-18c1-4337-9b66-de44fe6788f3","system_id":"levelo_inurba_marseille","lat":43.30779,"lon":5.37658,"is_reserved":false,"is_disabled":false,"rental_uris":{"android":"levelo://app?vid=2d223975-18c1-4337-9b66-de44fe6788f3","ios":"levelo://app?vid=2d223975-18c1-4337-9b66-de44fe6788f3"},"vehicle_type_id":"4","last_reported":1733209798,"current_range_meters":37600,"station_id":"ce4bgv92rcd13ifvqcq0","pricing_plan_id":"cebpf4jnsgd1na2vs0mg"},{"bike_id":"36142e23-8ff6-4096-ad19-b039c8156b69","system_id":"levelo_inurba_marseille","lat":43.28657,"lon":5.36354,"is_reserved":false,"is_disabled":true,"rental_uris":{"android":"levelo://app?vid=36142e23-8ff6-4096-ad19-b039c8156b69","ios":"levelo://app?vid=36142e23-8ff6-4096-ad19-b039c8156b69"},"vehicle_type_id":"4","last_reported":1733209798,"current_range_meters":32400,"station_id":"ce4bhah2rcd13ifvqej0","pricing_plan_id":"cebpf4jnsgd1na2vs0mg"},{"bike_id":"3e762295-e52d-483f-8654-ca00b8495b74","system_id":"levelo_inurba_marseille","lat":43.27438,"lon":5.40716,"is_reserved":false,"is_disabled":false,"rental_uris":{"android":"levelo://app?vid=3e762295-e52d-483f-8654-ca00b8495b74","ios":"levelo://app?vid=3e762295-e52d-483f-8654-ca00b8495b74"},"vehicle_type_id":"4","last_reported":1733209798,"current_range_meters":8800,"station_id":"","pricing_plan_id":"cebpf4jnsgd1na2vs0mg"},{"bike_id":"e0449ad3-6fa0-4664-b0f3-6ea1dced967e","system_id":"levelo_inurba_marseille","lat":43.28151,"lon":5.42638,"is_reserved":false,"is_disabled":true,"rental_uris":{"android":"levelo://app?vid=e0449ad3-6fa0-4664-b0f3-6ea1dced967e","ios":"levelo://app?vid=e0449ad3-6fa0-4664-b0f3-6ea1dced967e"},"vehicle_type_id":"4","last_reported":1733209798,"current_range_meters":22000,"station_id":"ce4bhnh2rcd13ifvqgug","pricing_plan_id":"cebpf4jnsgd1na2vs0mg"},{"bike_id":"f84af19a-6d74-43da-9ecf-93c9a83acbb3","system_id":"levelo_inurba_marseille","lat":43.29056,"lon":5.39945,"is_reserved":false,"is_disabled":false,"rental_uris":{"android":"levelo://app?vid=f84af19a-6d74-43da-9ecf-93c9a83acbb3","ios":"levelo://app?vid=f84af19a-6d74-43da-9ecf-93c9a83acbb3"},"vehicle_type_id":"4","last_reported":1733209798,"current_range_meters":22000,"station_id":"ce4bh392rcd13ifvqdm0","pricing_plan_id":"cebpf4jnsgd1na2vs0mg"},{"bike_id":"4c3fb316-febe-4764-b0a1-d58fd67e3e9a","system_id":"levelo_inurba_marseille","lat":43.28193,"lon":5.38306,"is_reserved":false,"is_disabled":true,"rental_uris":{"android":"levelo://app?vid=4c3fb316-febe-4764-b0a1-d58fd67e3e9a","ios":"levelo://app?vid=4c3fb316-febe-4764-b0a1-d58fd67e3e9a"},"vehicle_type_id":"4","last_reported":1733209798,"current_range_meters":27600,"station_id":"","pricing_plan_id":"cebpf4jnsgd1na2vs0mg"},{"bike_id":"987a5ab4-d60c-480c-94b6-7cab38975402","system_id":"levelo_inurba_marseille","lat":43.29748,"lon":5.37971,"is_reserved":false,"is_disabled":true,"rental_uris":{"android":"levelo://app?vid=987a5ab4-d60c-480c-94b6-7cab38975402","ios":"levelo://app?vid=987a5ab4-d60c-480c-94b6-7cab38975402"},"vehicle_type_id":"4","last_reported":1733209798,"current_range_meters":0,"station_id":"","pricing_plan_id":"cebpf4jnsgd1na2vs0mg"},{"bike_id":"c971ede0-41c7-461a-bc29-ae50a8251821","system_id":"levelo_inurba_marseille","lat":43.32293,"lon":5.38268,"is_reserved":false,"is_disabled":false,"rental_uris":{"android":"levelo://app?vid=c971ede0-41c7-461a-bc29-ae50a8251821","ios":"levelo://app?vid=c971ede0-41c7-461a-bc29-ae50a8251821"},"vehicle_type_id":"4","last_reported":1733209798,"current_range_meters":14400,"station_id":"ce4bhr12rcd13ifvqhqg","pricing_plan_id":"cebpf4jnsgd1na2vs0mg"},{"bike_id":"2c4596ad-0ad9-4016-b92b-0093349de2b4","system_id":"levelo_inurba_marseille","lat":43.307244,"lon":5.38242,"is_reserved":false,"is_disabled":true,"rental_uris":{"android":"levelo://app?vid=2c4596ad-0ad9-4016-b92b-0093349de2b4","ios":"levelo://app?vid=2c4596ad-0ad9-4016-b92b-0093349de2b4"},"vehicle_type_id":"4","last_reported":1733209798,"current_range_meters":0,"station_id":"","pricing_plan_id":"cebpf4jnsgd1na2vs0mg"},{"bike_id":"1f28300c-d8be-4d08-b5ea-d3aadf1e301d","system_id":"levelo_inurba_marseille","lat":43.26253,"lon":5.42116,"is_reserved":false,"is_disabled":false,"rental_uris":{"android":"levelo://app?vid=1f28300c-d8be-4d08-b5ea-d3aadf1e301d","ios":"levelo://app?vid=1f28300c-d8be-4d08-b5ea-d3aadf1e301d"},"vehicle_type_id":"4","last_reported":1733209798,"current_range_meters":19600,"station_id":"","pricing_plan_id":"cebpf4jnsgd1na2vs0mg"},{"bike_id":"b7ab8c01-033f-4395-8276-23c850ad3d02","system_id":"levelo_inurba_marseille","lat":43.303302,"lon":5.365864,"is_reserved":false,"is_disabled":true,"rental_uris":{"android":"levelo://app?vid=b7ab8c01-033f-4395-8276-23c850ad3d02","ios":"levelo://app?vid=b7ab8c01-033f-4395-8276-23c850ad3d02"},"vehicle_type_id":"4","last_reported":1733209798,"current_range_meters":0,"station_id":"","pricing_plan_id":"cebpf4jnsgd1na2vs0mg"},{"bike_id":"9ac3d82c-07ef-46d5-af73-cb0cdde0ee1d","system_id":"levelo_inurba_marseille","lat":43.28403,"lon":5.3752,"is_reserved":false,"is_disabled":false,"rental_uris":{"android":"levelo://app?vid=9ac3d82c-07ef-46d5-af73-cb0cdde0ee1d","ios":"levelo://app?vid=9ac3d82c-07ef-46d5-af73-cb0cdde0ee1d"},"vehicle_type_id":"4","last_reported":1733209798,"current_range_meters":16400,"station_id":"ce4bh412rcd13ifvqds0","pricing_plan_id":"cebpf4jnsgd1na2vs0mg"},{"bike_id":"4c1f4d35-89df-4abc-bb7d-02cc1be67725","system_id":"levelo_inurba_marseille","lat":43.23183,"lon":5.39992,"is_reserved":false,"is_disabled":false,"rental_uris":{"android":"levelo://app?vid=4c1f4d35-89df-4abc-bb7d-02cc1be67725","ios":"levelo://app?vid=4c1f4d35-89df-4abc-bb7d-02cc1be67725"},"vehicle_type_id":"4","last_reported":1733209798,"current_range_meters":38000,"station_id":"ce4bhn12rcd13ifvqgqg","pricing_plan_id":"cebpf4jnsgd1na2vs0mg"},{"bike_id":"595d8eba-87ff-43e1-a102-1457cbccfb2f","system_id":"levelo_inurba_marseille","lat":43.28728,"lon":5.37938,"is_reserved":false,"is_disabled":false,"rental_uris":{"android":"levelo://app?vid=595d8eba-87ff-43e1-a102-1457cbccfb2f","ios":"levelo://app?vid=595d8eba-87ff-43e1-a102-1457cbccfb2f"},"vehicle_type_id":"4","last_reported":1733209798,"current_range_meters":37600,"station_id":"ce4bh9p2rcd13ifvqec0","pricing_plan_id":"cebpf4jnsgd1na2vs0mg"},{"bike_id":"6b2b901e-5d96-4afc-b9a5-a7594ae72748","system_id":"levelo_inurba_marseille","lat":43.27278,"lon":5.39191,"is_reserved":false,"is_disabled":true,"rental_uris":{"android":"levelo://app?vid=6b2b901e-5d96-4afc-b9a5-a7594ae72748","ios":"levelo://app?vid=6b2b901e-5d96-4afc-b9a5-a7594ae72748"},"vehicle_type_id":"4","last_reported":1733209798,"current_range_meters":0,"station_id":"","pricing_plan_id":"cebpf4jnsgd1na2vs0mg"},{"bike_id":"6fb07ca2-2493-48b3-a64d-99d67eb0dc1c","system_id":"levelo_inurba_marseille","lat":43.27483,"lon":5.4246,"is_reserved":false,"is_disabled":false,"rental_uris":{"android":"levelo://app?vid=6fb07ca2-2493-48b3-a64d-99d67eb0dc1c","ios":"levelo://app?vid=6fb07ca2-2493-48b3-a64d-99d67eb0dc1c"},"vehicle_type_id":"4","last_reported":1733209798,"current_range_meters":24800,"station_id":"ce4bhn92rcd13ifvqgrg","pricing_plan_id":"cebpf4jnsgd1na2vs0mg"},{"bike_id":"d468cb55-b9b8-4783-9263-d005a0c5e0e3","system_id":"levelo_inurba_marseille","lat":43.28844,"lon":5.35854,"is_reserved":false,"is_disabled":false,"rental_uris":{"android":"levelo://app?vid=d468cb55-b9b8-4783-9263-d005a0c5e0e3","ios":"levelo://app?vid=d468cb55-b9b8-4783-9263-d005a0c5e0e3"},"vehicle_type_id":"4","last_reported":1733209798,"current_range_meters":20000,"station_id":"ce4bhb12rcd13ifvqem0","pricing_plan_id":"cebpf4jnsgd1na2vs0mg"},{"bike_id":"52dc60e8-593a-4919-9fa2-6ff28a9f8e54","system_id":"levelo_inurba_marseille","lat":43.30787,"lon":5.37655,"is_reserved":false,"is_disabled":false,"rental_uris":{"android":"levelo://app?vid=52dc60e8-593a-4919-9fa2-6ff28a9f8e54","ios":"levelo://app?vid=52dc60e8-593a-4919-9fa2-6ff28a9f8e54"},"vehicle_type_id":"4","last_reported":1733209798,"current_range_meters":30800,"station_id":"ce4bgv92rcd13ifvqcq0","pricing_plan_id":"cebpf4jnsgd1na2vs0mg"},{"bike_id":"6cc6805f-c0ca-4585-bdf1-b5a0339762b0","system_id":"levelo_inurba_marseille","lat":43.29015,"lon":5.42811,"is_reserved":false,"is_disabled":false,"rental_uris":{"android":"levelo://app?vid=6cc6805f-c0ca-4585-bdf1-b5a0339762b0","ios":"levelo://app?vid=6cc6805f-c0ca-4585-bdf1-b5a0339762b0"},"vehicle_type_id":"4","last_reported":1733209798,"current_range_meters":5600,"station_id":"","pricing_plan_id":"cebpf4jnsgd1na2vs0mg"},{"bike_id":"bf2dddfd-fcac-4ab9-9900-0783b7dfc160","system_id":"levelo_inurba_marseille","lat":43.28615,"lon":5.35104,"is_reserved":false,"is_disabled":false,"rental_uris":{"android":"levelo://app?vid=bf2dddfd-fcac-4ab9-9900-0783b7dfc160","ios":"levelo://app?vid=bf2dddfd-fcac-4ab9-9900-0783b7dfc160"},"vehicle_type_id":"4","last_reported":1733209798,"current_range_meters":14800,"station_id":"ce4bhch2rcd13ifvqeug","pricing_plan_id":"cebpf4jnsgd1na2vs0mg"},{"bike_id":"1e21ee7c-ab02-4877-817e-5d83de000297","system_id":"levelo_inurba_marseille","lat":43.309059,"lon":5.368552,"is_reserved":false,"is_disabled":true,"rental_uris":{"android":"levelo://app?vid=1e21ee7c-ab02-4877-817e-5d83de000297","ios":"levelo://app?vid=1e21ee7c-ab02-4877-817e-5d83de000297"},"vehicle_type_id":"4","last_reported":1733209798,"current_range_meters":38400,"station_id":"ce4bgn92rcd13ifvqbvg","pricing_plan_id":"cebpf4jnsgd1na2vs0mg"},{"bike_id":"8d1c8b92-79bb-4181-b0d2-5e94db1a14d0","system_id":"levelo_inurba_marseille","lat":43.30003,"lon":5.38264,"is_reserved":false,"is_disabled":true,"rental_uris":{"android":"levelo://app?vid=8d1c8b92-79bb-4181-b0d2-5e94db1a14d0","ios":"levelo://app?vid=8d1c8b92-79bb-4181-b0d2-5e94db1a14d0"},"vehicle_type_id":"4","last_reported":1733209798,"current_range_meters":0,"station_id":"","pricing_plan_id":"cebpf4jnsgd1na2vs0mg"},{"bike_id":"b393e343-ccc2-4e09-a3d5-b33fb6d87dbf","system_id":"levelo_inurba_marseille","lat":43.3014,"lon":5.38779,"is_reserved":false,"is_disabled":true,"rental_uris":{"android":"levelo://app?vid=b393e343-ccc2-4e09-a3d5-b33fb6d87dbf","ios":"levelo://app?vid=b393e343-ccc2-4e09-a3d5-b33fb6d87dbf"},"vehicle_type_id":"4","last_reported":1733209798,"current_range_meters":30000,"station_id":"ce4bghh2rcd13ifvqb60","pricing_plan_id":"cebpf4jnsgd1na2vs0mg"},{"bike_id":"ad09f950-afd5-4140-abf4-b95980cf37a5","system_id":"levelo_inurba_marseille","lat":43.27907,"lon":5.3801,"is_reserved":false,"is_disabled":false,"rental_uris":{"android":"levelo://app?vid=ad09f950-afd5-4140-abf4-b95980cf37a5","ios":"levelo://app?vid=ad09f950-afd5-4140-abf4-b95980cf37a5"},"vehicle_type_id":"4","last_reported":1733209798,"current_range_meters":38800,"station_id":"ce4bhf92rcd13ifvqf50","pricing_plan_id":"cebpf4jnsgd1na2vs0mg"},{"bike_id":"80265f62-f148-484a-9a78-db0ff37fec19","system_id":"levelo_inurba_marseille","lat":43.30151,"lon":5.38082,"is_reserved":false,"is_disabled":false,"rental_uris":{"android":"levelo://app?vid=80265f62-f148-484a-9a78-db0ff37fec19","ios":"levelo://app?vid=80265f62-f148-484a-9a78-db0ff37fec19"},"vehicle_type_id":"4","last_reported":1733209798,"current_range_meters":25200,"station_id":"ce4bgjp2rcd13ifvqbh0","pricing_plan_id":"cebpf4jnsgd1na2vs0mg"},{"bike_id":"66af6c49-242f-463e-a9fa-e038221766e6","system_id":"levelo_inurba_marseille","lat":43.29551,"lon":5.4229,"is_reserved":false,"is_disabled":false,"rental_uris":{"android":"levelo://app?vid=66af6c49-242f-463e-a9fa-e038221766e6","ios":"levelo://app?vid=66af6c49-242f-463e-a9fa-e038221766e6"},"vehicle_type_id":"4","last_reported":1733209798,"current_range_meters":38800,"station_id":"ce4bhph2rcd13ifvqhdg","pricing_plan_id":"cebpf4jnsgd1na2vs0mg"},{"bike_id":"d692109b-ad98-49bc-9d0b-2573b84dfc5e","system_id":"levelo_inurba_marseille","lat":43.23153,"lon":5.43721,"is_reserved":false,"is_disabled":false,"rental_uris":{"android":"levelo://app?vid=d692109b-ad98-49bc-9d0b-2573b84dfc5e","ios":"levelo://app?vid=d692109b-ad98-49bc-9d0b-2573b84dfc5e"},"vehicle_type_id":"4","last_reported":1733209798,"current_range_meters":9200,"station_id":"ce4bhmp2rcd13ifvqgog","pricing_plan_id":"cebpf4jnsgd1na2vs0mg"},{"bike_id":"a617e044-2beb-44d6-a1b9-0d089a160289","system_id":"levelo_inurba_marseille","lat":43.29851,"lon":5.36274,"is_reserved":false,"is_disabled":true,"rental_uris":{"android":"levelo://app?vid=a617e044-2beb-44d6-a1b9-0d089a160289","ios":"levelo://app?vid=a617e044-2beb-44d6-a1b9-0d089a160289"},"vehicle_type_id":"4","last_reported":1733209798,"current_range_meters":36000,"station_id":"ce4bgpp2rcd13ifvqc3g","pricing_plan_id":"cebpf4jnsgd1na2vs0mg"},{"bike_id":"d513df2e-cd3b-4fd4-9f58-93a78bd51f1e","system_id":"levelo_inurba_marseille","lat":43.32288,"lon":5.3827,"is_reserved":false,"is_disabled":false,"rental_uris":{"android":"levelo://app?vid=d513df2e-cd3b-4fd4-9f58-93a78bd51f1e","ios":"levelo://app?vid=d513df2e-cd3b-4fd4-9f58-93a78bd51f1e"},"vehicle_type_id":"4","last_reported":1733209798,"current_range_meters":5600,"station_id":"ce4bhr12rcd13ifvqhqg","pricing_plan_id":"cebpf4jnsgd1na2vs0mg"},{"bike_id":"1624048b-31c6-4310-925d-4781afa2c1bf","system_id":"levelo_inurba_marseille","lat":43.29938,"lon":5.3655,"is_reserved":false,"is_disabled":false,"rental_uris":{"android":"levelo://app?vid=1624048b-31c6-4310-925d-4781afa2c1bf","ios":"levelo://app?vid=1624048b-31c6-4310-925d-4781afa2c1bf"},"vehicle_type_id":"4","last_reported":1733209798,"current_range_meters":22800,"station_id":"ce4bgm92rcd13ifvqbr0","pricing_plan_id":"cebpf4jnsgd1na2vs0mg"},{"bike_id":"45891de7-8812-4ec2-a7c4-56ca81dd5332","system_id":"levelo_inurba_marseille","lat":43.2306,"lon":5.35489,"is_reserved":false,"is_disabled":false,"rental_uris":{"android":"levelo://app?vid=45891de7-8812-4ec2-a7c4-56ca81dd5332","ios":"levelo://app?vid=45891de7-8812-4ec2-a7c4-56ca81dd5332"},"vehicle_type_id":"4","last_reported":1733209798,"current_range_meters":25600,"station_id":"cpo3342slgdg3j2ifvpg","pricing_plan_id":"cebpf4jnsgd1na2vs0mg"},{"bike_id":"d1ce2e3d-8d63-4953-bce0-57274c7ed83a","system_id":"levelo_inurba_marseille","lat":43.24073,"lon":5.37757,"is_reserved":false,"is_disabled":false,"rental_uris":{"android":"levelo://app?vid=d1ce2e3d-8d63-4953-bce0-57274c7ed83a","ios":"levelo://app?vid=d1ce2e3d-8d63-4953-bce0-57274c7ed83a"},"vehicle_type_id":"4","last_reported":1733209798,"current_range_meters":29600,"station_id":"ce4bhnp2rcd13ifvqgvg","pricing_plan_id":"cebpf4jnsgd1na2vs0mg"},{"bike_id":"b4e778b4-c647-4bdc-a0b7-36717499c9fd","system_id":"levelo_inurba_marseille","lat":43.29555,"lon":5.42283,"is_reserved":false,"is_disabled":false,"rental_uris":{"android":"levelo://app?vid=b4e778b4-c647-4bdc-a0b7-36717499c9fd","ios":"levelo://app?vid=b4e778b4-c647-4bdc-a0b7-36717499c9fd"},"vehicle_type_id":"4","last_reported":1733209798,"current_range_meters":14400,"station_id":"ce4bhph2rcd13ifvqhdg","pricing_plan_id":"cebpf4jnsgd1na2vs0mg"},{"bike_id":"c2bc0a39-6687-4bb0-b29c-9e9cd31eb6c3","system_id":"levelo_inurba_marseille","lat":43.2808,"lon":5.39643,"is_reserved":false,"is_disabled":false,"rental_uris":{"android":"levelo://app?vid=c2bc0a39-6687-4bb0-b29c-9e9cd31eb6c3","ios":"levelo://app?vid=c2bc0a39-6687-4bb0-b29c-9e9cd31eb6c3"},"vehicle_type_id":"4","last_reported":1733209798,"current_range_meters":38800,"station_id":"ce4bho12rcd13ifvqh2g","pricing_plan_id":"cebpf4jnsgd1na2vs0mg"},{"bike_id":"502a96ab-17c2-4054-85b0-d3158c661de7","system_id":"levelo_inurba_marseille","lat":43.29195,"lon":5.39314,"is_reserved":false,"is_disabled":true,"rental_uris":{"android":"levelo://app?vid=502a96ab-17c2-4054-85b0-d3158c661de7","ios":"levelo://app?vid=502a96ab-17c2-4054-85b0-d3158c661de7"},"vehicle_type_id":"4","last_reported":1733209798,"current_range_meters":15200,"station_id":"ce4bh192rcd13ifvqdd0","pricing_plan_id":"cebpf4jnsgd1na2vs0mg"},{"bike_id":"f78a695f-1e51-496d-a80d-f5757164d6e4","system_id":"levelo_inurba_marseille","lat":43.2668,"lon":5.38264,"is_reserved":false,"is_disabled":true,"rental_uris":{"android":"levelo://app?vid=f78a695f-1e51-496d-a80d-f5757164d6e4","ios":"levelo://app?vid=f78a695f-1e51-496d-a80d-f5757164d6e4"},"vehicle_type_id":"4","last_reported":1733209798,"current_range_meters":39200,"station_id":"ce4bhg92rcd13ifvqf90","pricing_plan_id":"cebpf4jnsgd1na2vs0mg"},{"bike_id":"64b321cb-c55c-40ab-9985-479d45091f3f","system_id":"levelo_inurba_marseille","lat":43.31701,"lon":5.40477,"is_reserved":false,"is_disabled":true,"rental_uris":{"android":"levelo://app?vid=64b321cb-c55c-40ab-9985-479d45091f3f","ios":"levelo://app?vid=64b321cb-c55c-40ab-9985-479d45091f3f"},"vehicle_type_id":"4","last_reported":1733209798,"current_range_meters":37600,"station_id":"ce4bh012rcd13ifvqd00","pricing_plan_id":"cebpf4jnsgd1na2vs0mg"},{"bike_id":"70061ffc-d7ae-4cbf-961c-989ce8ade3fb","system_id":"levelo_inurba_marseille","lat":43.31329,"lon":5.39689,"is_reserved":false,"is_disabled":false,"rental_uris":{"android":"levelo://app?vid=70061ffc-d7ae-4cbf-961c-989ce8ade3fb","ios":"levelo://app?vid=70061ffc-d7ae-4cbf-961c-989ce8ade3fb"},"vehicle_type_id":"4","last_reported":1733209798,"current_range_meters":12800,"station_id":"ce4bgvp2rcd13ifvqcu0","pricing_plan_id":"cebpf4jnsgd1na2vs0mg"},{"bike_id":"5192edb3-fa8a-4426-8fc8-f1ea41f88a97","system_id":"levelo_inurba_marseille","lat":43.30216,"lon":5.39475,"is_reserved":false,"is_disabled":false,"rental_uris":{"android":"levelo://app?vid=5192edb3-fa8a-4426-8fc8-f1ea41f88a97","ios":"levelo://app?vid=5192edb3-fa8a-4426-8fc8-f1ea41f88a97"},"vehicle_type_id":"4","last_reported":1733209798,"current_range_meters":6400,"station_id":"ce4bh0p2rcd13ifvqd70","pricing_plan_id":"cebpf4jnsgd1na2vs0mg"},{"bike_id":"44e520c2-2ad3-4c85-a085-20488fde3597","system_id":"levelo_inurba_marseille","lat":43.28346,"lon":5.38104,"is_reserved":false,"is_disabled":false,"rental_uris":{"android":"levelo://app?vid=44e520c2-2ad3-4c85-a085-20488fde3597","ios":"levelo://app?vid=44e520c2-2ad3-4c85-a085-20488fde3597"},"vehicle_type_id":"4","last_reported":1733209798,"current_range_meters":30000,"station_id":"ce4bh412rcd13ifvqdr0","pricing_plan_id":"cebpf4jnsgd1na2vs0mg"},{"bike_id":"65c78c58-8c0d-434a-bdb2-7571d40e1b57","system_id":"levelo_inurba_marseille","lat":43.31275,"lon":5.40162,"is_reserved":false,"is_disabled":false,"rental_uris":{"android":"levelo://app?vid=65c78c58-8c0d-434a-bdb2-7571d40e1b57","ios":"levelo://app?vid=65c78c58-8c0d-434a-bdb2-7571d40e1b57"},"vehicle_type_id":"4","last_reported":1733209798,"current_range_meters":37600,"station_id":"ce4bh092rcd13ifvqd30","pricing_plan_id":"cebpf4jnsgd1na2vs0mg"},{"bike_id":"8b941c00-4e3f-4c03-93d3-15390d39d3a5","system_id":"levelo_inurba_marseille","lat":43.28769,"lon":5.38306,"is_reserved":false,"is_disabled":true,"rental_uris":{"android":"levelo://app?vid=8b941c00-4e3f-4c03-93d3-15390d39d3a5","ios":"levelo://app?vid=8b941c00-4e3f-4c03-93d3-15390d39d3a5"},"vehicle_type_id":"4","last_reported":1733209798,"current_range_meters":36400,"station_id":"","pricing_plan_id":"cebpf4jnsgd1na2vs0mg"},{"bike_id":"a68d7a81-b093-4b83-abc2-a4f1054dabc5","system_id":"levelo_inurba_marseille","lat":43.27492,"lon":5.42453,"is_reserved":false,"is_disabled":false,"rental_uris":{"android":"levelo://app?vid=a68d7a81-b093-4b83-abc2-a4f1054dabc5","ios":"levelo://app?vid=a68d7a81-b093-4b83-abc2-a4f1054dabc5"},"vehicle_type_id":"4","last_reported":1733209798,"current_range_meters":31200,"station_id":"ce4bhn92rcd13ifvqgrg","pricing_plan_id":"cebpf4jnsgd1na2vs0mg"},{"bike_id":"1ad1c1c4-5d06-4d0c-af90-58e0b45a7218","system_id":"levelo_inurba_marseille","lat":43.2792,"lon":5.3957,"is_reserved":false,"is_disabled":false,"rental_uris":{"android":"levelo://app?vid=1ad1c1c4-5d06-4d0c-af90-58e0b45a7218","ios":"levelo://app?vid=1ad1c1c4-5d06-4d0c-af90-58e0b45a7218"},"vehicle_type_id":"4","last_reported":1733209798,"current_range_meters":37600,"station_id":"ce4bhf92rcd13ifvqf40","pricing_plan_id":"cebpf4jnsgd1na2vs0mg"},{"bike_id":"9c77a68d-2e99-44e9-b903-950fb6644d35","system_id":"levelo_inurba_marseille","lat":43.25263,"lon":5.39463,"is_reserved":false,"is_disabled":true,"rental_uris":{"android":"levelo://app?vid=9c77a68d-2e99-44e9-b903-950fb6644d35","ios":"levelo://app?vid=9c77a68d-2e99-44e9-b903-950fb6644d35"},"vehicle_type_id":"4","last_reported":1733209798,"current_range_meters":0,"station_id":"","pricing_plan_id":"cebpf4jnsgd1na2vs0mg"},{"bike_id":"518691a5-448b-4ddf-b764-1a35b42e3659","system_id":"levelo_inurba_marseille","lat":43.25864,"lon":5.39905,"is_reserved":false,"is_disabled":false,"rental_uris":{"android":"levelo://app?vid=518691a5-448b-4ddf-b764-1a35b42e3659","ios":"levelo://app?vid=518691a5-448b-4ddf-b764-1a35b42e3659"},"vehicle_type_id":"4","last_reported":1733209798,"current_range_meters":38000,"station_id":"ce4bhl92rcd13ifvqghg","pricing_plan_id":"cebpf4jnsgd1na2vs0mg"},{"bike_id":"b4036a40-1cf5-44b1-90ae-370d075c6906","system_id":"levelo_inurba_marseille","lat":43.28842,"lon":5.39274,"is_reserved":false,"is_disabled":false,"rental_uris":{"android":"levelo://app?vid=b4036a40-1cf5-44b1-90ae-370d075c6906","ios":"levelo://app?vid=b4036a40-1cf5-44b1-90ae-370d075c6906"},"vehicle_type_id":"4","last_reported":1733209798,"current_range_meters":17600,"station_id":"ce4bh392rcd13ifvqdm0","pricing_plan_id":"cebpf4jnsgd1na2vs0mg"},{"bike_id":"d343be82-d45b-4580-9267-ab2a574eac02","system_id":"levelo_inurba_marseille","lat":43.30795,"lon":5.43518,"is_reserved":false,"is_disabled":true,"rental_uris":{"android":"levelo://app?vid=d343be82-d45b-4580-9267-ab2a574eac02","ios":"levelo://app?vid=d343be82-d45b-4580-9267-ab2a574eac02"},"vehicle_type_id":"4","last_reported":1733209798,"current_range_meters":0,"station_id":"ce4bhph2rcd13ifvqheg","pricing_plan_id":"cebpf4jnsgd1na2vs0mg"},{"bike_id":"ce631c26-6e09-4ece-9c16-701bf3a6ddbf","system_id":"levelo_inurba_marseille","lat":43.341208,"lon":5.409148,"is_reserved":false,"is_disabled":false,"rental_uris":{"android":"levelo://app?vid=ce631c26-6e09-4ece-9c16-701bf3a6ddbf","ios":"levelo://app?vid=ce631c26-6e09-4ece-9c16-701bf3a6ddbf"},"vehicle_type_id":"4","last_reported":1733209798,"current_range_meters":23200,"station_id":"ce4bhqh2rcd13ifvqhlg","pricing_plan_id":"cebpf4jnsgd1na2vs0mg"},{"bike_id":"b506175b-e3b3-4ff6-94de-89fbcaee662e","system_id":"levelo_inurba_marseille","lat":43.30852,"lon":5.38178,"is_reserved":false,"is_disabled":false,"rental_uris":{"android":"levelo://app?vid=b506175b-e3b3-4ff6-94de-89fbcaee662e","ios":"levelo://app?vid=b506175b-e3b3-4ff6-94de-89fbcaee662e"},"vehicle_type_id":"4","last_reported":1733209798,"current_range_meters":16400,"station_id":"","pricing_plan_id":"cebpf4jnsgd1na2vs0mg"},{"bike_id":"4ea402f6-45b0-4846-84f5-29270e62c818","system_id":"levelo_inurba_marseille","lat":43.30829,"lon":5.37402,"is_reserved":false,"is_disabled":true,"rental_uris":{"android":"levelo://app?vid=4ea402f6-45b0-4846-84f5-29270e62c818","ios":"levelo://app?vid=4ea402f6-45b0-4846-84f5-29270e62c818"},"vehicle_type_id":"4","last_reported":1733209798,"current_range_meters":0,"station_id":"","pricing_plan_id":"cebpf4jnsgd1na2vs0mg"},{"bike_id":"83985555-c848-4b28-808f-8a7e7cf8519e","system_id":"levelo_inurba_marseille","lat":43.28115,"lon":5.44168,"is_reserved":false,"is_disabled":true,"rental_uris":{"android":"levelo://app?vid=83985555-c848-4b28-808f-8a7e7cf8519e","ios":"levelo://app?vid=83985555-c848-4b28-808f-8a7e7cf8519e"},"vehicle_type_id":"4","last_reported":1733209798,"current_range_meters":0,"station_id":"","pricing_plan_id":"cebpf4jnsgd1na2vs0mg"},{"bike_id":"306c0776-326e-43a3-9a11-6945d24ab560","system_id":"levelo_inurba_marseille","lat":43.23151,"lon":5.43719,"is_reserved":false,"is_disabled":false,"rental_uris":{"android":"levelo://app?vid=306c0776-326e-43a3-9a11-6945d24ab560","ios":"levelo://app?vid=306c0776-326e-43a3-9a11-6945d24ab560"},"vehicle_type_id":"4","last_reported":1733209798,"current_range_meters":28400,"station_id":"ce4bhmp2rcd13ifvqgog","pricing_plan_id":"cebpf4jnsgd1na2vs0mg"},{"bike_id":"4f5e55ea-1124-4dd0-8efa-8ecf5c9aca9e","system_id":"levelo_inurba_marseille","lat":43.32257,"lon":5.38314,"is_reserved":false,"is_disabled":false,"rental_uris":{"android":"levelo://app?vid=4f5e55ea-1124-4dd0-8efa-8ecf5c9aca9e","ios":"levelo://app?vid=4f5e55ea-1124-4dd0-8efa-8ecf5c9aca9e"},"vehicle_type_id":"4","last_reported":1733209798,"current_range_meters":39200,"station_id":"ce4bhr12rcd13ifvqhqg","pricing_plan_id":"cebpf4jnsgd1na2vs0mg"},{"bike_id":"af1fd391-0bbf-48d3-9ade-588f0a2d2bf3","system_id":"levelo_inurba_marseille","lat":43.2407,"lon":5.37762,"is_reserved":false,"is_disabled":false,"rental_uris":{"android":"levelo://app?vid=af1fd391-0bbf-48d3-9ade-588f0a2d2bf3","ios":"levelo://app?vid=af1fd391-0bbf-48d3-9ade-588f0a2d2bf3"},"vehicle_type_id":"4","last_reported":1733209798,"current_range_meters":27200,"station_id":"ce4bhnp2rcd13ifvqgvg","pricing_plan_id":"cebpf4jnsgd1na2vs0mg"},{"bike_id":"941eeae1-8936-4a86-b31a-ea87d84b2048","system_id":"levelo_inurba_marseille","lat":43.28077,"lon":5.35636,"is_reserved":false,"is_disabled":false,"rental_uris":{"android":"levelo://app?vid=941eeae1-8936-4a86-b31a-ea87d84b2048","ios":"levelo://app?vid=941eeae1-8936-4a86-b31a-ea87d84b2048"},"vehicle_type_id":"4","last_reported":1733209798,"current_range_meters":8000,"station_id":"","pricing_plan_id":"cebpf4jnsgd1na2vs0mg"},{"bike_id":"fbf196aa-b1d3-4543-a4a3-ba949cee7fd8","system_id":"levelo_inurba_marseille","lat":43.27191,"lon":5.40995,"is_reserved":false,"is_disabled":false,"rental_uris":{"android":"levelo://app?vid=fbf196aa-b1d3-4543-a4a3-ba949cee7fd8","ios":"levelo://app?vid=fbf196aa-b1d3-4543-a4a3-ba949cee7fd8"},"vehicle_type_id":"4","last_reported":1733209798,"current_range_meters":37600,"station_id":"ce4bhl12rcd13ifvqgf0","pricing_plan_id":"cebpf4jnsgd1na2vs0mg"},{"bike_id":"0fc05c3a-8ce2-4d9a-a407-4760135121fc","system_id":"levelo_inurba_marseille","lat":43.28725,"lon":5.37935,"is_reserved":false,"is_disabled":false,"rental_uris":{"android":"levelo://app?vid=0fc05c3a-8ce2-4d9a-a407-4760135121fc","ios":"levelo://app?vid=0fc05c3a-8ce2-4d9a-a407-4760135121fc"},"vehicle_type_id":"4","last_reported":1733209798,"current_range_meters":12400,"station_id":"ce4bh9p2rcd13ifvqec0","pricing_plan_id":"cebpf4jnsgd1na2vs0mg"},{"bike_id":"1176e033-efc4-474e-af61-8d3a0d5f5ccf","system_id":"levelo_inurba_marseille","lat":43.25886,"lon":5.39954,"is_reserved":false,"is_disabled":true,"rental_uris":{"android":"levelo://app?vid=1176e033-efc4-474e-af61-8d3a0d5f5ccf","ios":"levelo://app?vid=1176e033-efc4-474e-af61-8d3a0d5f5ccf"},"vehicle_type_id":"4","last_reported":1733209798,"current_range_meters":0,"station_id":"","pricing_plan_id":"cebpf4jnsgd1na2vs0mg"},{"bike_id":"355f9b9d-f767-4c7c-b2c2-99f45fb7404f","system_id":"levelo_inurba_marseille","lat":43.3079,"lon":5.37659,"is_reserved":false,"is_disabled":false,"rental_uris":{"android":"levelo://app?vid=355f9b9d-f767-4c7c-b2c2-99f45fb7404f","ios":"levelo://app?vid=355f9b9d-f767-4c7c-b2c2-99f45fb7404f"},"vehicle_type_id":"4","last_reported":1733209798,"current_range_meters":32800,"station_id":"ce4bgv92rcd13ifvqcq0","pricing_plan_id":"cebpf4jnsgd1na2vs0mg"},{"bike_id":"8defecaf-c47b-43f6-a4ac-aa1949e9f436","system_id":"levelo_inurba_marseille","lat":43.28944,"lon":5.36637,"is_reserved":false,"is_disabled":false,"rental_uris":{"android":"levelo://app?vid=8defecaf-c47b-43f6-a4ac-aa1949e9f436","ios":"levelo://app?vid=8defecaf-c47b-43f6-a4ac-aa1949e9f436"},"vehicle_type_id":"4","last_reported":1733209798,"current_range_meters":38400,"station_id":"ce4bhap2rcd13ifvqek0","pricing_plan_id":"cebpf4jnsgd1na2vs0mg"},{"bike_id":"166baf5a-387f-4beb-a5fd-7c748004d880","system_id":"levelo_inurba_marseille","lat":43.31272,"lon":5.4017,"is_reserved":false,"is_disabled":false,"rental_uris":{"android":"levelo://app?vid=166baf5a-387f-4beb-a5fd-7c748004d880","ios":"levelo://app?vid=166baf5a-387f-4beb-a5fd-7c748004d880"},"vehicle_type_id":"4","last_reported":1733209798,"current_range_meters":31200,"station_id":"ce4bh092rcd13ifvqd30","pricing_plan_id":"cebpf4jnsgd1na2vs0mg"},{"bike_id":"d968385f-de2b-44eb-96a8-54efc707caa9","system_id":"levelo_inurba_marseille","lat":43.23195,"lon":5.35544,"is_reserved":false,"is_disabled":false,"rental_uris":{"android":"levelo://app?vid=d968385f-de2b-44eb-96a8-54efc707caa9","ios":"levelo://app?vid=d968385f-de2b-44eb-96a8-54efc707caa9"},"vehicle_type_id":"4","last_reported":1733209798,"current_range_meters":38800,"station_id":"ce4bhu92rcd13ifvqi70","pricing_plan_id":"cebpf4jnsgd1na2vs0mg"},{"bike_id":"def36fc9-a666-402e-a192-72262579376f","system_id":"levelo_inurba_marseille","lat":43.30155,"lon":5.3808,"is_reserved":false,"is_disabled":false,"rental_uris":{"android":"levelo://app?vid=def36fc9-a666-402e-a192-72262579376f","ios":"levelo://app?vid=def36fc9-a666-402e-a192-72262579376f"},"vehicle_type_id":"4","last_reported":1733209798,"current_range_meters":35200,"station_id":"ce4bgjp2rcd13ifvqbh0","pricing_plan_id":"cebpf4jnsgd1na2vs0mg"},{"bike_id":"e218f52a-3c8a-490a-99d9-5af7196625b0","system_id":"levelo_inurba_marseille","lat":43.23192,"lon":5.3555,"is_reserved":false,"is_disabled":false,"rental_uris":{"android":"levelo://app?vid=e218f52a-3c8a-490a-99d9-5af7196625b0","ios":"levelo://app?vid=e218f52a-3c8a-490a-99d9-5af7196625b0"},"vehicle_type_id":"4","last_reported":1733209798,"current_range_meters":37600,"station_id":"ce4bhu92rcd13ifvqi70","pricing_plan_id":"cebpf4jnsgd1na2vs0mg"},{"bike_id":"307ca336-3f57-4d5b-849b-5b9df48faeaf","system_id":"levelo_inurba_marseille","lat":43.30026,"lon":5.3888,"is_reserved":false,"is_disabled":true,"rental_uris":{"android":"levelo://app?vid=307ca336-3f57-4d5b-849b-5b9df48faeaf","ios":"levelo://app?vid=307ca336-3f57-4d5b-849b-5b9df48faeaf"},"vehicle_type_id":"4","last_reported":1733209798,"current_range_meters":0,"station_id":"","pricing_plan_id":"cebpf4jnsgd1na2vs0mg"},{"bike_id":"506c09f4-6c9b-4fb3-996c-4c7f86dd75a8","system_id":"levelo_inurba_marseille","lat":43.24557,"lon":5.37351,"is_reserved":false,"is_disabled":true,"rental_uris":{"android":"levelo://app?vid=506c09f4-6c9b-4fb3-996c-4c7f86dd75a8","ios":"levelo://app?vid=506c09f4-6c9b-4fb3-996c-4c7f86dd75a8"},"vehicle_type_id":"4","last_reported":1733209798,"current_range_meters":0,"station_id":"","pricing_plan_id":"cebpf4jnsgd1na2vs0mg"},{"bike_id":"9211c3d1-be1f-4677-9a82-b98349c83108","system_id":"levelo_inurba_marseille","lat":43.29451,"lon":5.3976,"is_reserved":false,"is_disabled":true,"rental_uris":{"android":"levelo://app?vid=9211c3d1-be1f-4677-9a82-b98349c83108","ios":"levelo://app?vid=9211c3d1-be1f-4677-9a82-b98349c83108"},"vehicle_type_id":"4","last_reported":1733209798,"current_range_meters":8400,"station_id":"ce4bh3h2rcd13ifvqdo0","pricing_plan_id":"cebpf4jnsgd1na2vs0mg"},{"bike_id":"109ceab6-1b2a-4f12-b390-5e5e505dd7d3","system_id":"levelo_inurba_marseille","lat":43.2957,"lon":5.39983,"is_reserved":false,"is_disabled":true,"rental_uris":{"android":"levelo://app?vid=109ceab6-1b2a-4f12-b390-5e5e505dd7d3","ios":"levelo://app?vid=109ceab6-1b2a-4f12-b390-5e5e505dd7d3"},"vehicle_type_id":"4","last_reported":1733209798,"current_range_meters":33200,"station_id":"ce4bh312rcd13ifvqdj0","pricing_plan_id":"cebpf4jnsgd1na2vs0mg"},{"bike_id":"9202c63e-372c-4469-a5c1-8e35757d1940","system_id":"levelo_inurba_marseille","lat":43.30053,"lon":5.38832,"is_reserved":false,"is_disabled":true,"rental_uris":{"android":"levelo://app?vid=9202c63e-372c-4469-a5c1-8e35757d1940","ios":"levelo://app?vid=9202c63e-372c-4469-a5c1-8e35757d1940"},"vehicle_type_id":"4","last_reported":1733209798,"current_range_meters":0,"station_id":"","pricing_plan_id":"cebpf4jnsgd1na2vs0mg"},{"bike_id":"91ad2bcd-5352-42d1-801e-bc5e3f31ad29","system_id":"levelo_inurba_marseille","lat":43.30433,"lon":5.39739,"is_reserved":false,"is_disabled":false,"rental_uris":{"android":"levelo://app?vid=91ad2bcd-5352-42d1-801e-bc5e3f31ad29","ios":"levelo://app?vid=91ad2bcd-5352-42d1-801e-bc5e3f31ad29"},"vehicle_type_id":"4","last_reported":1733209798,"current_range_meters":28800,"station_id":"ce4bh092rcd13ifvqd20","pricing_plan_id":"cebpf4jnsgd1na2vs0mg"},{"bike_id":"7ce87540-068e-40a8-8b73-bc4713996526","system_id":"levelo_inurba_marseille","lat":43.3029,"lon":5.37696,"is_reserved":false,"is_disabled":true,"rental_uris":{"android":"levelo://app?vid=7ce87540-068e-40a8-8b73-bc4713996526","ios":"levelo://app?vid=7ce87540-068e-40a8-8b73-bc4713996526"},"vehicle_type_id":"4","last_reported":1733209798,"current_range_meters":0,"station_id":"ce4bguh2rcd13ifvqcj0","pricing_plan_id":"cebpf4jnsgd1na2vs0mg"},{"bike_id":"16e13872-2a5d-4ac5-a68a-0147e9b4c0f2","system_id":"levelo_inurba_marseille","lat":43.3361,"lon":5.41029,"is_reserved":false,"is_disabled":false,"rental_uris":{"android":"levelo://app?vid=16e13872-2a5d-4ac5-a68a-0147e9b4c0f2","ios":"levelo://app?vid=16e13872-2a5d-4ac5-a68a-0147e9b4c0f2"},"vehicle_type_id":"4","last_reported":1733209798,"current_range_meters":32000,"station_id":"ce4bhqh2rcd13ifvqhmg","pricing_plan_id":"cebpf4jnsgd1na2vs0mg"},{"bike_id":"1d65471b-f176-4b0b-b41d-d9591f88d0e8","system_id":"levelo_inurba_marseille","lat":43.24078,"lon":5.37755,"is_reserved":false,"is_disabled":false,"rental_uris":{"android":"levelo://app?vid=1d65471b-f176-4b0b-b41d-d9591f88d0e8","ios":"levelo://app?vid=1d65471b-f176-4b0b-b41d-d9591f88d0e8"},"vehicle_type_id":"4","last_reported":1733209798,"current_range_meters":4800,"station_id":"ce4bhnp2rcd13ifvqgvg","pricing_plan_id":"cebpf4jnsgd1na2vs0mg"},{"bike_id":"692691a9-bd4a-4c62-91e1-a89a2833f61b","system_id":"levelo_inurba_marseille","lat":43.26805,"lon":5.40272,"is_reserved":false,"is_disabled":false,"rental_uris":{"android":"levelo://app?vid=692691a9-bd4a-4c62-91e1-a89a2833f61b","ios":"levelo://app?vid=692691a9-bd4a-4c62-91e1-a89a2833f61b"},"vehicle_type_id":"4","last_reported":1733209798,"current_range_meters":38000,"station_id":"ce501612rcd8frsf0b60","pricing_plan_id":"cebpf4jnsgd1na2vs0mg"},{"bike_id":"455f4354-5d43-4475-8c22-1a490114890e","system_id":"levelo_inurba_marseille","lat":43.31356,"lon":5.38496,"is_reserved":false,"is_disabled":false,"rental_uris":{"android":"levelo://app?vid=455f4354-5d43-4475-8c22-1a490114890e","ios":"levelo://app?vid=455f4354-5d43-4475-8c22-1a490114890e"},"vehicle_type_id":"4","last_reported":1733209798,"current_range_meters":35200,"station_id":"ce4bgt92rcd13ifvqcf0","pricing_plan_id":"cebpf4jnsgd1na2vs0mg"},{"bike_id":"4c87974a-4682-4258-b942-766c6585361c","system_id":"levelo_inurba_marseille","lat":43.30143,"lon":5.38076,"is_reserved":false,"is_disabled":false,"rental_uris":{"android":"levelo://app?vid=4c87974a-4682-4258-b942-766c6585361c","ios":"levelo://app?vid=4c87974a-4682-4258-b942-766c6585361c"},"vehicle_type_id":"4","last_reported":1733209798,"current_range_meters":32000,"station_id":"ce4bgjp2rcd13ifvqbh0","pricing_plan_id":"cebpf4jnsgd1na2vs0mg"},{"bike_id":"8cbb1876-809e-4922-953b-40d493b437d4","system_id":"levelo_inurba_marseille","lat":43.32348,"lon":5.40624,"is_reserved":false,"is_disabled":false,"rental_uris":{"android":"levelo://app?vid=8cbb1876-809e-4922-953b-40d493b437d4","ios":"levelo://app?vid=8cbb1876-809e-4922-953b-40d493b437d4"},"vehicle_type_id":"4","last_reported":1733209798,"current_range_meters":24800,"station_id":"ce4bhq92rcd13ifvqhjg","pricing_plan_id":"cebpf4jnsgd1na2vs0mg"},{"bike_id":"8bb552ff-a487-4ffd-9577-2165b4b63016","system_id":"levelo_inurba_marseille","lat":43.24805,"lon":5.37451,"is_reserved":false,"is_disabled":false,"rental_uris":{"android":"levelo://app?vid=8bb552ff-a487-4ffd-9577-2165b4b63016","ios":"levelo://app?vid=8bb552ff-a487-4ffd-9577-2165b4b63016"},"vehicle_type_id":"4","last_reported":1733209798,"current_range_meters":38800,"station_id":"ce4bhgh2rcd13ifvqfb0","pricing_plan_id":"cebpf4jnsgd1na2vs0mg"},{"bike_id":"b084978d-8273-435c-894a-4fda0cbc6658","system_id":"levelo_inurba_marseille","lat":43.30473,"lon":5.37912,"is_reserved":false,"is_disabled":false,"rental_uris":{"android":"levelo://app?vid=b084978d-8273-435c-894a-4fda0cbc6658","ios":"levelo://app?vid=b084978d-8273-435c-894a-4fda0cbc6658"},"vehicle_type_id":"4","last_reported":1733209798,"current_range_meters":38800,"station_id":"ce4bgup2rcd13ifvqcn0","pricing_plan_id":"cebpf4jnsgd1na2vs0mg"},{"bike_id":"e1abe377-7fd6-4141-8692-f6de97c1c30e","system_id":"levelo_inurba_marseille","lat":43.27058,"lon":5.40267,"is_reserved":false,"is_disabled":false,"rental_uris":{"android":"levelo://app?vid=e1abe377-7fd6-4141-8692-f6de97c1c30e","ios":"levelo://app?vid=e1abe377-7fd6-4141-8692-f6de97c1c30e"},"vehicle_type_id":"4","last_reported":1733209798,"current_range_meters":30800,"station_id":"ce4bhk92rcd13ifvqgc0","pricing_plan_id":"cebpf4jnsgd1na2vs0mg"},{"bike_id":"719e509a-25e4-4b1b-9830-f708d85d7593","system_id":"levelo_inurba_marseille","lat":43.29569,"lon":5.37512,"is_reserved":false,"is_disabled":true,"rental_uris":{"android":"levelo://app?vid=719e509a-25e4-4b1b-9830-f708d85d7593","ios":"levelo://app?vid=719e509a-25e4-4b1b-9830-f708d85d7593"},"vehicle_type_id":"4","last_reported":1733209798,"current_range_meters":0,"station_id":"ce4bgh92rcd13ifvqb50","pricing_plan_id":"cebpf4jnsgd1na2vs0mg"},{"bike_id":"967a5ca3-ac25-4cc8-8c1f-1f1ef1d5ca9c","system_id":"levelo_inurba_marseille","lat":43.23191,"lon":5.35554,"is_reserved":false,"is_disabled":false,"rental_uris":{"android":"levelo://app?vid=967a5ca3-ac25-4cc8-8c1f-1f1ef1d5ca9c","ios":"levelo://app?vid=967a5ca3-ac25-4cc8-8c1f-1f1ef1d5ca9c"},"vehicle_type_id":"4","last_reported":1733209798,"current_range_meters":33200,"station_id":"ce4bhu92rcd13ifvqi70","pricing_plan_id":"cebpf4jnsgd1na2vs0mg"},{"bike_id":"1a08758b-f776-4574-8f51-fe6551583004","system_id":"levelo_inurba_marseille","lat":43.2959,"lon":5.381,"is_reserved":false,"is_disabled":false,"rental_uris":{"android":"levelo://app?vid=1a08758b-f776-4574-8f51-fe6551583004","ios":"levelo://app?vid=1a08758b-f776-4574-8f51-fe6551583004"},"vehicle_type_id":"4","last_reported":1733209798,"current_range_meters":10800,"station_id":"ce4bgl12rcd13ifvqbo0","pricing_plan_id":"cebpf4jnsgd1na2vs0mg"},{"bike_id":"b8c4c32e-75d5-42c2-ae07-2a3da3c2053b","system_id":"levelo_inurba_marseille","lat":43.27491,"lon":5.42457,"is_reserved":false,"is_disabled":false,"rental_uris":{"android":"levelo://app?vid=b8c4c32e-75d5-42c2-ae07-2a3da3c2053b","ios":"levelo://app?vid=b8c4c32e-75d5-42c2-ae07-2a3da3c2053b"},"vehicle_type_id":"4","last_reported":1733209798,"current_range_meters":30000,"station_id":"ce4bhn92rcd13ifvqgrg","pricing_plan_id":"cebpf4jnsgd1na2vs0mg"},{"bike_id":"c87738fb-428a-4b9a-8678-f41fc9a17a1b","system_id":"levelo_inurba_marseille","lat":43.330271,"lon":5.390566,"is_reserved":false,"is_disabled":false,"rental_uris":{"android":"levelo://app?vid=c87738fb-428a-4b9a-8678-f41fc9a17a1b","ios":"levelo://app?vid=c87738fb-428a-4b9a-8678-f41fc9a17a1b"},"vehicle_type_id":"4","last_reported":1733209798,"current_range_meters":32000,"station_id":"ce4bhr92rcd13ifvqhrg","pricing_plan_id":"cebpf4jnsgd1na2vs0mg"},{"bike_id":"5d7c9e24-fecf-49f1-afd0-481a24a26cee","system_id":"levelo_inurba_marseille","lat":43.24069,"lon":5.3776,"is_reserved":false,"is_disabled":false,"rental_uris":{"android":"levelo://app?vid=5d7c9e24-fecf-49f1-afd0-481a24a26cee","ios":"levelo://app?vid=5d7c9e24-fecf-49f1-afd0-481a24a26cee"},"vehicle_type_id":"4","last_reported":1733209798,"current_range_meters":37600,"station_id":"ce4bhnp2rcd13ifvqgvg","pricing_plan_id":"cebpf4jnsgd1na2vs0mg"},{"bike_id":"2cf65095-36e5-4949-abae-c54c2895d97b","system_id":"levelo_inurba_marseille","lat":43.32591,"lon":5.4138,"is_reserved":false,"is_disabled":true,"rental_uris":{"android":"levelo://app?vid=2cf65095-36e5-4949-abae-c54c2895d97b","ios":"levelo://app?vid=2cf65095-36e5-4949-abae-c54c2895d97b"},"vehicle_type_id":"4","last_reported":1733209798,"current_range_meters":0,"station_id":"","pricing_plan_id":"cebpf4jnsgd1na2vs0mg"},{"bike_id":"2612b3c0-781e-41cf-aa9b-bd64728221d0","system_id":"levelo_inurba_marseille","lat":43.30435,"lon":5.38881,"is_reserved":false,"is_disabled":false,"rental_uris":{"android":"levelo://app?vid=2612b3c0-781e-41cf-aa9b-bd64728221d0","ios":"levelo://app?vid=2612b3c0-781e-41cf-aa9b-bd64728221d0"},"vehicle_type_id":"4","last_reported":1733209798,"current_range_meters":38800,"station_id":"ce4bgk12rcd13ifvqbi0","pricing_plan_id":"cebpf4jnsgd1na2vs0mg"},{"bike_id":"c01acf7d-441d-4ca0-afb9-496a1286b8a2","system_id":"levelo_inurba_marseille","lat":43.33601,"lon":5.41031,"is_reserved":false,"is_disabled":false,"rental_uris":{"android":"levelo://app?vid=c01acf7d-441d-4ca0-afb9-496a1286b8a2","ios":"levelo://app?vid=c01acf7d-441d-4ca0-afb9-496a1286b8a2"},"vehicle_type_id":"4","last_reported":1733209798,"current_range_meters":19200,"station_id":"ce4bhqh2rcd13ifvqhmg","pricing_plan_id":"cebpf4jnsgd1na2vs0mg"},{"bike_id":"1765576d-ad21-4bb0-85a8-4c7cde4f5294","system_id":"levelo_inurba_marseille","lat":43.29626,"lon":5.37149,"is_reserved":false,"is_disabled":true,"rental_uris":{"android":"levelo://app?vid=1765576d-ad21-4bb0-85a8-4c7cde4f5294","ios":"levelo://app?vid=1765576d-ad21-4bb0-85a8-4c7cde4f5294"},"vehicle_type_id":"4","last_reported":1733209798,"current_range_meters":7200,"station_id":"ce4bgnh2rcd13ifvqc0g","pricing_plan_id":"cebpf4jnsgd1na2vs0mg"},{"bike_id":"1db0cf7c-0f72-4bee-848d-93c3005fb599","system_id":"levelo_inurba_marseille","lat":43.31485,"lon":5.37315,"is_reserved":false,"is_disabled":false,"rental_uris":{"android":"levelo://app?vid=1db0cf7c-0f72-4bee-848d-93c3005fb599","ios":"levelo://app?vid=1db0cf7c-0f72-4bee-848d-93c3005fb599"},"vehicle_type_id":"4","last_reported":1733209798,"current_range_meters":28800,"station_id":"ce4bgt12rcd13ifvqcd0","pricing_plan_id":"cebpf4jnsgd1na2vs0mg"},{"bike_id":"a665e9a7-e7ef-4e64-a283-a9e2918c97a5","system_id":"levelo_inurba_marseille","lat":43.28359,"lon":5.38101,"is_reserved":false,"is_disabled":false,"rental_uris":{"android":"levelo://app?vid=a665e9a7-e7ef-4e64-a283-a9e2918c97a5","ios":"levelo://app?vid=a665e9a7-e7ef-4e64-a283-a9e2918c97a5"},"vehicle_type_id":"4","last_reported":1733209798,"current_range_meters":28000,"station_id":"ce4bh412rcd13ifvqdr0","pricing_plan_id":"cebpf4jnsgd1na2vs0mg"},{"bike_id":"f95c0944-0e59-4e90-857e-8df95e358e69","system_id":"levelo_inurba_marseille","lat":43.31222,"lon":5.36861,"is_reserved":false,"is_disabled":false,"rental_uris":{"android":"levelo://app?vid=f95c0944-0e59-4e90-857e-8df95e358e69","ios":"levelo://app?vid=f95c0944-0e59-4e90-857e-8df95e358e69"},"vehicle_type_id":"4","last_reported":1733209798,"current_range_meters":32800,"station_id":"ce4bgl92rcd13ifvqbq0","pricing_plan_id":"cebpf4jnsgd1na2vs0mg"},{"bike_id":"66b1eb52-58a6-4de9-a47c-c45493ee9a08","system_id":"levelo_inurba_marseille","lat":43.301483,"lon":5.380684,"is_reserved":false,"is_disabled":false,"rental_uris":{"android":"levelo://app?vid=66b1eb52-58a6-4de9-a47c-c45493ee9a08","ios":"levelo://app?vid=66b1eb52-58a6-4de9-a47c-c45493ee9a08"},"vehicle_type_id":"4","last_reported":1733209798,"current_range_meters":37600,"station_id":"ce4bgjp2rcd13ifvqbh0","pricing_plan_id":"cebpf4jnsgd1na2vs0mg"},{"bike_id":"cce4929b-ec72-4a27-8354-4062904b82be","system_id":"levelo_inurba_marseille","lat":43.26941,"lon":5.38634,"is_reserved":false,"is_disabled":true,"rental_uris":{"android":"levelo://app?vid=cce4929b-ec72-4a27-8354-4062904b82be","ios":"levelo://app?vid=cce4929b-ec72-4a27-8354-4062904b82be"},"vehicle_type_id":"4","last_reported":1733209798,"current_range_meters":18800,"station_id":"ce4bhh92rcd13ifvqfh0","pricing_plan_id":"cebpf4jnsgd1na2vs0mg"},{"bike_id":"39ce6899-c2cd-4abb-8c4c-6f99bead7314","system_id":"levelo_inurba_marseille","lat":43.30092,"lon":5.39077,"is_reserved":false,"is_disabled":false,"rental_uris":{"android":"levelo://app?vid=39ce6899-c2cd-4abb-8c4c-6f99bead7314","ios":"levelo://app?vid=39ce6899-c2cd-4abb-8c4c-6f99bead7314"},"vehicle_type_id":"4","last_reported":1733209798,"current_range_meters":38000,"station_id":"ce4bh192rcd13ifvqdb0","pricing_plan_id":"cebpf4jnsgd1na2vs0mg"},{"bike_id":"e8779c8a-d656-4815-9895-db772e5354c1","system_id":"levelo_inurba_marseille","lat":43.30466,"lon":5.37908,"is_reserved":false,"is_disabled":false,"rental_uris":{"android":"levelo://app?vid=e8779c8a-d656-4815-9895-db772e5354c1","ios":"levelo://app?vid=e8779c8a-d656-4815-9895-db772e5354c1"},"vehicle_type_id":"4","last_reported":1733209798,"current_range_meters":26800,"station_id":"ce4bgup2rcd13ifvqcn0","pricing_plan_id":"cebpf4jnsgd1na2vs0mg"},{"bike_id":"5b8243de-fe52-4d25-bcbf-b29e43d10073","system_id":"levelo_inurba_marseille","lat":43.29089,"lon":5.38146,"is_reserved":false,"is_disabled":false,"rental_uris":{"android":"levelo://app?vid=5b8243de-fe52-4d25-bcbf-b29e43d10073","ios":"levelo://app?vid=5b8243de-fe52-4d25-bcbf-b29e43d10073"},"vehicle_type_id":"4","last_reported":1733209798,"current_range_meters":32800,"station_id":"ce4bh512rcd13ifvqe2g","pricing_plan_id":"cebpf4jnsgd1na2vs0mg"},{"bike_id":"ce7dd36e-7854-4ef2-96f6-1e4edaba1aec","system_id":"levelo_inurba_marseille","lat":43.26686,"lon":5.38272,"is_reserved":false,"is_disabled":true,"rental_uris":{"android":"levelo://app?vid=ce7dd36e-7854-4ef2-96f6-1e4edaba1aec","ios":"levelo://app?vid=ce7dd36e-7854-4ef2-96f6-1e4edaba1aec"},"vehicle_type_id":"4","last_reported":1733209798,"current_range_meters":29600,"station_id":"ce4bhg92rcd13ifvqf90","pricing_plan_id":"cebpf4jnsgd1na2vs0mg"},{"bike_id":"9b38a2b0-8b2e-461e-b22b-c584796fb644","system_id":"levelo_inurba_marseille","lat":43.30468,"lon":5.37915,"is_reserved":false,"is_disabled":true,"rental_uris":{"android":"levelo://app?vid=9b38a2b0-8b2e-461e-b22b-c584796fb644","ios":"levelo://app?vid=9b38a2b0-8b2e-461e-b22b-c584796fb644"},"vehicle_type_id":"4","last_reported":1733209798,"current_range_meters":2000,"station_id":"ce4bgup2rcd13ifvqcn0","pricing_plan_id":"cebpf4jnsgd1na2vs0mg"},{"bike_id":"8cea8f5e-3ab1-4788-a07b-9c3287ce10a2","system_id":"levelo_inurba_marseille","lat":43.29804,"lon":5.4039,"is_reserved":false,"is_disabled":false,"rental_uris":{"android":"levelo://app?vid=8cea8f5e-3ab1-4788-a07b-9c3287ce10a2","ios":"levelo://app?vid=8cea8f5e-3ab1-4788-a07b-9c3287ce10a2"},"vehicle_type_id":"4","last_reported":1733209798,"current_range_meters":36000,"station_id":"ce4bh112rcd13ifvqd90","pricing_plan_id":"cebpf4jnsgd1na2vs0mg"},{"bike_id":"652a0096-a71b-4369-97b3-28e5ae4818ec","system_id":"levelo_inurba_marseille","lat":43.27492,"lon":5.42456,"is_reserved":false,"is_disabled":false,"rental_uris":{"android":"levelo://app?vid=652a0096-a71b-4369-97b3-28e5ae4818ec","ios":"levelo://app?vid=652a0096-a71b-4369-97b3-28e5ae4818ec"},"vehicle_type_id":"4","last_reported":1733209798,"current_range_meters":36000,"station_id":"ce4bhn92rcd13ifvqgrg","pricing_plan_id":"cebpf4jnsgd1na2vs0mg"},{"bike_id":"7b4b52de-dacf-4777-b72d-155b0955a947","system_id":"levelo_inurba_marseille","lat":43.29044,"lon":5.39242,"is_reserved":false,"is_disabled":false,"rental_uris":{"android":"levelo://app?vid=7b4b52de-dacf-4777-b72d-155b0955a947","ios":"levelo://app?vid=7b4b52de-dacf-4777-b72d-155b0955a947"},"vehicle_type_id":"4","last_reported":1733209798,"current_range_meters":22800,"station_id":"","pricing_plan_id":"cebpf4jnsgd1na2vs0mg"},{"bike_id":"79c8ea6d-5102-4a1e-b941-afdabc095945","system_id":"levelo_inurba_marseille","lat":43.29061,"lon":5.38343,"is_reserved":false,"is_disabled":true,"rental_uris":{"android":"levelo://app?vid=79c8ea6d-5102-4a1e-b941-afdabc095945","ios":"levelo://app?vid=79c8ea6d-5102-4a1e-b941-afdabc095945"},"vehicle_type_id":"4","last_reported":1733209798,"current_range_meters":26000,"station_id":"","pricing_plan_id":"cebpf4jnsgd1na2vs0mg"},{"bike_id":"8e927bbb-5066-42b7-8164-6ebe56ea8ad0","system_id":"levelo_inurba_marseille","lat":43.33602,"lon":5.41011,"is_reserved":false,"is_disabled":false,"rental_uris":{"android":"levelo://app?vid=8e927bbb-5066-42b7-8164-6ebe56ea8ad0","ios":"levelo://app?vid=8e927bbb-5066-42b7-8164-6ebe56ea8ad0"},"vehicle_type_id":"4","last_reported":1733209798,"current_range_meters":39200,"station_id":"ce4bhqh2rcd13ifvqhmg","pricing_plan_id":"cebpf4jnsgd1na2vs0mg"},{"bike_id":"fd5f9dc0-1a16-4152-a706-f53125b29d68","system_id":"levelo_inurba_marseille","lat":43.29523,"lon":5.39406,"is_reserved":false,"is_disabled":false,"rental_uris":{"android":"levelo://app?vid=fd5f9dc0-1a16-4152-a706-f53125b29d68","ios":"levelo://app?vid=fd5f9dc0-1a16-4152-a706-f53125b29d68"},"vehicle_type_id":"4","last_reported":1733209798,"current_range_meters":32000,"station_id":"ce4bh292rcd13ifvqdf0","pricing_plan_id":"cebpf4jnsgd1na2vs0mg"},{"bike_id":"64d659b3-9207-44f7-8f89-0992de15a00a","system_id":"levelo_inurba_marseille","lat":43.27498,"lon":5.42452,"is_reserved":false,"is_disabled":false,"rental_uris":{"android":"levelo://app?vid=64d659b3-9207-44f7-8f89-0992de15a00a","ios":"levelo://app?vid=64d659b3-9207-44f7-8f89-0992de15a00a"},"vehicle_type_id":"4","last_reported":1733209798,"current_range_meters":15200,"station_id":"ce4bhn92rcd13ifvqgrg","pricing_plan_id":"cebpf4jnsgd1na2vs0mg"},{"bike_id":"defb2e66-a1a2-47b0-ab69-2600758b4bc7","system_id":"levelo_inurba_marseille","lat":43.255782,"lon":5.382453,"is_reserved":false,"is_disabled":false,"rental_uris":{"android":"levelo://app?vid=defb2e66-a1a2-47b0-ab69-2600758b4bc7","ios":"levelo://app?vid=defb2e66-a1a2-47b0-ab69-2600758b4bc7"},"vehicle_type_id":"4","last_reported":1733209798,"current_range_meters":38800,"station_id":"ce4bhih2rcd13ifvqfs0","pricing_plan_id":"cebpf4jnsgd1na2vs0mg"},{"bike_id":"d337693b-82b2-4f65-ad74-9a2472a5f9cd","system_id":"levelo_inurba_marseille","lat":43.29789,"lon":5.38119,"is_reserved":false,"is_disabled":true,"rental_uris":{"android":"levelo://app?vid=d337693b-82b2-4f65-ad74-9a2472a5f9cd","ios":"levelo://app?vid=d337693b-82b2-4f65-ad74-9a2472a5f9cd"},"vehicle_type_id":"4","last_reported":1733209798,"current_range_meters":36800,"station_id":"ce4bgip2rcd13ifvqbb0","pricing_plan_id":"cebpf4jnsgd1na2vs0mg"},{"bike_id":"45651a3a-8cc9-42eb-9928-7ab1e6ad7318","system_id":"levelo_inurba_marseille","lat":43.29529,"lon":5.37491,"is_reserved":false,"is_disabled":false,"rental_uris":{"android":"levelo://app?vid=45651a3a-8cc9-42eb-9928-7ab1e6ad7318","ios":"levelo://app?vid=45651a3a-8cc9-42eb-9928-7ab1e6ad7318"},"vehicle_type_id":"4","last_reported":1733209798,"current_range_meters":23200,"station_id":"ce4bgkp2rcd13ifvqbmg","pricing_plan_id":"cebpf4jnsgd1na2vs0mg"},{"bike_id":"5afe40a0-fe60-40f5-b470-55536cc34fb7","system_id":"levelo_inurba_marseille","lat":43.2895,"lon":5.36408,"is_reserved":false,"is_disabled":false,"rental_uris":{"android":"levelo://app?vid=5afe40a0-fe60-40f5-b470-55536cc34fb7","ios":"levelo://app?vid=5afe40a0-fe60-40f5-b470-55536cc34fb7"},"vehicle_type_id":"4","last_reported":1733209798,"current_range_meters":36400,"station_id":"ce4bhc92rcd13ifvqetg","pricing_plan_id":"cebpf4jnsgd1na2vs0mg"},{"bike_id":"34b8a852-801d-48f2-b601-a0c9b61d54c6","system_id":"levelo_inurba_marseille","lat":43.2826,"lon":5.35074,"is_reserved":false,"is_disabled":false,"rental_uris":{"android":"levelo://app?vid=34b8a852-801d-48f2-b601-a0c9b61d54c6","ios":"levelo://app?vid=34b8a852-801d-48f2-b601-a0c9b61d54c6"},"vehicle_type_id":"4","last_reported":1733209798,"current_range_meters":38400,"station_id":"ce4bhbp2rcd13ifvqerg","pricing_plan_id":"cebpf4jnsgd1na2vs0mg"},{"bike_id":"427d7497-fe79-4531-b7d6-69d2614ceec1","system_id":"levelo_inurba_marseille","lat":43.29135,"lon":5.38468,"is_reserved":false,"is_disabled":true,"rental_uris":{"android":"levelo://app?vid=427d7497-fe79-4531-b7d6-69d2614ceec1","ios":"levelo://app?vid=427d7497-fe79-4531-b7d6-69d2614ceec1"},"vehicle_type_id":"4","last_reported":1733209798,"current_range_meters":9600,"station_id":"","pricing_plan_id":"cebpf4jnsgd1na2vs0mg"},{"bike_id":"58745024-055b-4c1b-b90f-3161671a49a0","system_id":"levelo_inurba_marseille","lat":43.25731,"lon":5.41113,"is_reserved":false,"is_disabled":false,"rental_uris":{"android":"levelo://app?vid=58745024-055b-4c1b-b90f-3161671a49a0","ios":"levelo://app?vid=58745024-055b-4c1b-b90f-3161671a49a0"},"vehicle_type_id":"4","last_reported":1733209798,"current_range_meters":38800,"station_id":"ce4bhkp2rcd13ifvqgd0","pricing_plan_id":"cebpf4jnsgd1na2vs0mg"},{"bike_id":"4dcdaf02-744f-45ab-8175-be93c98fb5aa","system_id":"levelo_inurba_marseille","lat":43.28949,"lon":5.36413,"is_reserved":false,"is_disabled":false,"rental_uris":{"android":"levelo://app?vid=4dcdaf02-744f-45ab-8175-be93c98fb5aa","ios":"levelo://app?vid=4dcdaf02-744f-45ab-8175-be93c98fb5aa"},"vehicle_type_id":"4","last_reported":1733209798,"current_range_meters":24000,"station_id":"ce4bhc92rcd13ifvqetg","pricing_plan_id":"cebpf4jnsgd1na2vs0mg"},{"bike_id":"a4b9e425-64b8-4ce2-a5ab-5fcc5d1230a4","system_id":"levelo_inurba_marseille","lat":43.32105,"lon":5.36778,"is_reserved":false,"is_disabled":false,"rental_uris":{"android":"levelo://app?vid=a4b9e425-64b8-4ce2-a5ab-5fcc5d1230a4","ios":"levelo://app?vid=a4b9e425-64b8-4ce2-a5ab-5fcc5d1230a4"},"vehicle_type_id":"4","last_reported":1733209798,"current_range_meters":12000,"station_id":"ce4bhrh2rcd13ifvqhug","pricing_plan_id":"cebpf4jnsgd1na2vs0mg"},{"bike_id":"484a67fa-495e-4099-85bc-5e0cded92f5a","system_id":"levelo_inurba_marseille","lat":43.29795,"lon":5.3811,"is_reserved":false,"is_disabled":false,"rental_uris":{"android":"levelo://app?vid=484a67fa-495e-4099-85bc-5e0cded92f5a","ios":"levelo://app?vid=484a67fa-495e-4099-85bc-5e0cded92f5a"},"vehicle_type_id":"4","last_reported":1733209798,"current_range_meters":38400,"station_id":"ce4bgip2rcd13ifvqbb0","pricing_plan_id":"cebpf4jnsgd1na2vs0mg"},{"bike_id":"209175f7-d3b1-4e9d-8386-1682cff2ef6e","system_id":"levelo_inurba_marseille","lat":43.295806,"lon":5.377916,"is_reserved":false,"is_disabled":true,"rental_uris":{"android":"levelo://app?vid=209175f7-d3b1-4e9d-8386-1682cff2ef6e","ios":"levelo://app?vid=209175f7-d3b1-4e9d-8386-1682cff2ef6e"},"vehicle_type_id":"4","last_reported":1733209798,"current_range_meters":0,"station_id":"","pricing_plan_id":"cebpf4jnsgd1na2vs0mg"},{"bike_id":"e7593ea2-ec58-4888-b050-c3efd4c6660c","system_id":"levelo_inurba_marseille","lat":43.24076,"lon":5.37757,"is_reserved":false,"is_disabled":false,"rental_uris":{"android":"levelo://app?vid=e7593ea2-ec58-4888-b050-c3efd4c6660c","ios":"levelo://app?vid=e7593ea2-ec58-4888-b050-c3efd4c6660c"},"vehicle_type_id":"4","last_reported":1733209798,"current_range_meters":12800,"station_id":"ce4bhnp2rcd13ifvqgvg","pricing_plan_id":"cebpf4jnsgd1na2vs0mg"},{"bike_id":"0468344b-060f-445c-a271-87a992ad6680","system_id":"levelo_inurba_marseille","lat":43.25574,"lon":5.3823,"is_reserved":false,"is_disabled":false,"rental_uris":{"android":"levelo://app?vid=0468344b-060f-445c-a271-87a992ad6680","ios":"levelo://app?vid=0468344b-060f-445c-a271-87a992ad6680"},"vehicle_type_id":"4","last_reported":1733209798,"current_range_meters":30400,"station_id":"ce4bhih2rcd13ifvqfs0","pricing_plan_id":"cebpf4jnsgd1na2vs0mg"},{"bike_id":"ad7ceb54-b0de-4f94-bab9-acf0bc8e4d8d","system_id":"levelo_inurba_marseille","lat":43.27494,"lon":5.42455,"is_reserved":false,"is_disabled":false,"rental_uris":{"android":"levelo://app?vid=ad7ceb54-b0de-4f94-bab9-acf0bc8e4d8d","ios":"levelo://app?vid=ad7ceb54-b0de-4f94-bab9-acf0bc8e4d8d"},"vehicle_type_id":"4","last_reported":1733209798,"current_range_meters":12800,"station_id":"ce4bhn92rcd13ifvqgrg","pricing_plan_id":"cebpf4jnsgd1na2vs0mg"},{"bike_id":"ea4a063a-aaf0-4786-badd-db5183dc0fbc","system_id":"levelo_inurba_marseille","lat":43.24079,"lon":5.37754,"is_reserved":false,"is_disabled":false,"rental_uris":{"android":"levelo://app?vid=ea4a063a-aaf0-4786-badd-db5183dc0fbc","ios":"levelo://app?vid=ea4a063a-aaf0-4786-badd-db5183dc0fbc"},"vehicle_type_id":"4","last_reported":1733209798,"current_range_meters":4400,"station_id":"ce4bhnp2rcd13ifvqgvg","pricing_plan_id":"cebpf4jnsgd1na2vs0mg"},{"bike_id":"216616ff-f59a-4303-9300-a50b08bc08b0","system_id":"levelo_inurba_marseille","lat":43.30305,"lon":5.39207,"is_reserved":false,"is_disabled":true,"rental_uris":{"android":"levelo://app?vid=216616ff-f59a-4303-9300-a50b08bc08b0","ios":"levelo://app?vid=216616ff-f59a-4303-9300-a50b08bc08b0"},"vehicle_type_id":"4","last_reported":1733209798,"current_range_meters":6000,"station_id":"ce4bgkh2rcd13ifvqbk0","pricing_plan_id":"cebpf4jnsgd1na2vs0mg"},{"bike_id":"cf411c2a-cc80-4aeb-9c99-a3d88fef5d8f","system_id":"levelo_inurba_marseille","lat":43.29611,"lon":5.37736,"is_reserved":false,"is_disabled":true,"rental_uris":{"android":"levelo://app?vid=cf411c2a-cc80-4aeb-9c99-a3d88fef5d8f","ios":"levelo://app?vid=cf411c2a-cc80-4aeb-9c99-a3d88fef5d8f"},"vehicle_type_id":"4","last_reported":1733209798,"current_range_meters":10000,"station_id":"ce4bgi92rcd13ifvqb90","pricing_plan_id":"cebpf4jnsgd1na2vs0mg"},{"bike_id":"d44b0368-00be-4d57-a135-fbc6d4303bca","system_id":"levelo_inurba_marseille","lat":43.2668,"lon":5.38267,"is_reserved":false,"is_disabled":true,"rental_uris":{"android":"levelo://app?vid=d44b0368-00be-4d57-a135-fbc6d4303bca","ios":"levelo://app?vid=d44b0368-00be-4d57-a135-fbc6d4303bca"},"vehicle_type_id":"4","last_reported":1733209798,"current_range_meters":8800,"station_id":"ce4bhg92rcd13ifvqf90","pricing_plan_id":"cebpf4jnsgd1na2vs0mg"},{"bike_id":"b6d6b07e-4688-45f1-857e-88e0c9f71088","system_id":"levelo_inurba_marseille","lat":43.29574,"lon":5.375,"is_reserved":false,"is_disabled":true,"rental_uris":{"android":"levelo://app?vid=b6d6b07e-4688-45f1-857e-88e0c9f71088","ios":"levelo://app?vid=b6d6b07e-4688-45f1-857e-88e0c9f71088"},"vehicle_type_id":"4","last_reported":1733209798,"current_range_meters":33200,"station_id":"ce4bgh92rcd13ifvqb50","pricing_plan_id":"cebpf4jnsgd1na2vs0mg"},{"bike_id":"38763041-8d1c-4382-adad-9a4a3cd40ae8","system_id":"levelo_inurba_marseille","lat":43.29705,"lon":5.36571,"is_reserved":false,"is_disabled":false,"rental_uris":{"android":"levelo://app?vid=38763041-8d1c-4382-adad-9a4a3cd40ae8","ios":"levelo://app?vid=38763041-8d1c-4382-adad-9a4a3cd40ae8"},"vehicle_type_id":"4","last_reported":1733209798,"current_range_meters":16400,"station_id":"ce4bgn12rcd13ifvqbt0","pricing_plan_id":"cebpf4jnsgd1na2vs0mg"},{"bike_id":"da52cecf-9bfc-41d0-9b0e-cfb68c9e5f6a","system_id":"levelo_inurba_marseille","lat":43.28347,"lon":5.38111,"is_reserved":false,"is_disabled":true,"rental_uris":{"android":"levelo://app?vid=da52cecf-9bfc-41d0-9b0e-cfb68c9e5f6a","ios":"levelo://app?vid=da52cecf-9bfc-41d0-9b0e-cfb68c9e5f6a"},"vehicle_type_id":"4","last_reported":1733209798,"current_range_meters":0,"station_id":"ce4bh412rcd13ifvqdr0","pricing_plan_id":"cebpf4jnsgd1na2vs0mg"},{"bike_id":"9725ee5d-bd47-447d-bc60-8d3609137de3","system_id":"levelo_inurba_marseille","lat":43.29577,"lon":5.39981,"is_reserved":false,"is_disabled":true,"rental_uris":{"android":"levelo://app?vid=9725ee5d-bd47-447d-bc60-8d3609137de3","ios":"levelo://app?vid=9725ee5d-bd47-447d-bc60-8d3609137de3"},"vehicle_type_id":"4","last_reported":1733209798,"current_range_meters":39200,"station_id":"ce4bh312rcd13ifvqdj0","pricing_plan_id":"cebpf4jnsgd1na2vs0mg"},{"bike_id":"a99f0757-7e27-4519-aae9-f4da2cf90085","system_id":"levelo_inurba_marseille","lat":43.2695,"lon":5.38634,"is_reserved":false,"is_disabled":false,"rental_uris":{"android":"levelo://app?vid=a99f0757-7e27-4519-aae9-f4da2cf90085","ios":"levelo://app?vid=a99f0757-7e27-4519-aae9-f4da2cf90085"},"vehicle_type_id":"4","last_reported":1733209798,"current_range_meters":22400,"station_id":"ce4bhh92rcd13ifvqfh0","pricing_plan_id":"cebpf4jnsgd1na2vs0mg"},{"bike_id":"9f6372a6-065a-4e4e-a232-8f126a87f16a","system_id":"levelo_inurba_marseille","lat":43.27917,"lon":5.39572,"is_reserved":false,"is_disabled":false,"rental_uris":{"android":"levelo://app?vid=9f6372a6-065a-4e4e-a232-8f126a87f16a","ios":"levelo://app?vid=9f6372a6-065a-4e4e-a232-8f126a87f16a"},"vehicle_type_id":"4","last_reported":1733209798,"current_range_meters":36800,"station_id":"ce4bhf92rcd13ifvqf40","pricing_plan_id":"cebpf4jnsgd1na2vs0mg"},{"bike_id":"796b0e55-26f7-43f6-835e-496799b0ddd0","system_id":"levelo_inurba_marseille","lat":43.29597,"lon":5.38104,"is_reserved":false,"is_disabled":false,"rental_uris":{"android":"levelo://app?vid=796b0e55-26f7-43f6-835e-496799b0ddd0","ios":"levelo://app?vid=796b0e55-26f7-43f6-835e-496799b0ddd0"},"vehicle_type_id":"4","last_reported":1733209798,"current_range_meters":37600,"station_id":"ce4bgl12rcd13ifvqbo0","pricing_plan_id":"cebpf4jnsgd1na2vs0mg"},{"bike_id":"d1ffa682-d1a4-427e-959d-4c47f057ecd9","system_id":"levelo_inurba_marseille","lat":43.25846,"lon":5.39927,"is_reserved":false,"is_disabled":false,"rental_uris":{"android":"levelo://app?vid=d1ffa682-d1a4-427e-959d-4c47f057ecd9","ios":"levelo://app?vid=d1ffa682-d1a4-427e-959d-4c47f057ecd9"},"vehicle_type_id":"4","last_reported":1733209798,"current_range_meters":6000,"station_id":"ce4bhl92rcd13ifvqghg","pricing_plan_id":"cebpf4jnsgd1na2vs0mg"},{"bike_id":"7caca3ca-4ad5-4e41-ba66-df02bee491aa","system_id":"levelo_inurba_marseille","lat":43.29933,"lon":5.36534,"is_reserved":false,"is_disabled":true,"rental_uris":{"android":"levelo://app?vid=7caca3ca-4ad5-4e41-ba66-df02bee491aa","ios":"levelo://app?vid=7caca3ca-4ad5-4e41-ba66-df02bee491aa"},"vehicle_type_id":"4","last_reported":1733209798,"current_range_meters":6800,"station_id":"ce4bgm92rcd13ifvqbr0","pricing_plan_id":"cebpf4jnsgd1na2vs0mg"},{"bike_id":"745324db-57e1-47a7-bc6e-7411e1269713","system_id":"levelo_inurba_marseille","lat":43.27505,"lon":5.4247,"is_reserved":false,"is_disabled":false,"rental_uris":{"android":"levelo://app?vid=745324db-57e1-47a7-bc6e-7411e1269713","ios":"levelo://app?vid=745324db-57e1-47a7-bc6e-7411e1269713"},"vehicle_type_id":"4","last_reported":1733209798,"current_range_meters":35200,"station_id":"ce4bhn92rcd13ifvqgrg","pricing_plan_id":"cebpf4jnsgd1na2vs0mg"},{"bike_id":"b5a03233-d31f-4598-84c4-07d6d6043f52","system_id":"levelo_inurba_marseille","lat":43.28162,"lon":5.42642,"is_reserved":false,"is_disabled":false,"rental_uris":{"android":"levelo://app?vid=b5a03233-d31f-4598-84c4-07d6d6043f52","ios":"levelo://app?vid=b5a03233-d31f-4598-84c4-07d6d6043f52"},"vehicle_type_id":"4","last_reported":1733209798,"current_range_meters":37600,"station_id":"ce4bhnh2rcd13ifvqgug","pricing_plan_id":"cebpf4jnsgd1na2vs0mg"},{"bike_id":"5e160b8e-5c83-4423-b051-bd2cf577003d","system_id":"levelo_inurba_marseille","lat":43.231966,"lon":5.355426,"is_reserved":false,"is_disabled":false,"rental_uris":{"android":"levelo://app?vid=5e160b8e-5c83-4423-b051-bd2cf577003d","ios":"levelo://app?vid=5e160b8e-5c83-4423-b051-bd2cf577003d"},"vehicle_type_id":"4","last_reported":1733209798,"current_range_meters":38800,"station_id":"ce4bhu92rcd13ifvqi70","pricing_plan_id":"cebpf4jnsgd1na2vs0mg"},{"bike_id":"322cf6fe-0822-422b-95a4-35c4bd952f62","system_id":"levelo_inurba_marseille","lat":43.27178,"lon":5.4099,"is_reserved":false,"is_disabled":false,"rental_uris":{"android":"levelo://app?vid=322cf6fe-0822-422b-95a4-35c4bd952f62","ios":"levelo://app?vid=322cf6fe-0822-422b-95a4-35c4bd952f62"},"vehicle_type_id":"4","last_reported":1733209798,"current_range_meters":25600,"station_id":"ce4bhl12rcd13ifvqgf0","pricing_plan_id":"cebpf4jnsgd1na2vs0mg"},{"bike_id":"b63e6f95-b99c-40e0-8ebd-538c12fdb4bd","system_id":"levelo_inurba_marseille","lat":43.295723,"lon":5.399681,"is_reserved":false,"is_disabled":true,"rental_uris":{"android":"levelo://app?vid=b63e6f95-b99c-40e0-8ebd-538c12fdb4bd","ios":"levelo://app?vid=b63e6f95-b99c-40e0-8ebd-538c12fdb4bd"},"vehicle_type_id":"4","last_reported":1733209798,"current_range_meters":16400,"station_id":"ce4bh312rcd13ifvqdj0","pricing_plan_id":"cebpf4jnsgd1na2vs0mg"},{"bike_id":"ede89064-1ef0-4ec7-b935-09d4604f3c24","system_id":"levelo_inurba_marseille","lat":43.29018,"lon":5.3813,"is_reserved":false,"is_disabled":false,"rental_uris":{"android":"levelo://app?vid=ede89064-1ef0-4ec7-b935-09d4604f3c24","ios":"levelo://app?vid=ede89064-1ef0-4ec7-b935-09d4604f3c24"},"vehicle_type_id":"4","last_reported":1733209798,"current_range_meters":37600,"station_id":"ce4bh4p2rcd13ifvqe1g","pricing_plan_id":"cebpf4jnsgd1na2vs0mg"},{"bike_id":"dba4200f-3de8-4dcc-b2bd-a0831fac8af1","system_id":"levelo_inurba_marseille","lat":43.33604,"lon":5.41024,"is_reserved":false,"is_disabled":false,"rental_uris":{"android":"levelo://app?vid=dba4200f-3de8-4dcc-b2bd-a0831fac8af1","ios":"levelo://app?vid=dba4200f-3de8-4dcc-b2bd-a0831fac8af1"},"vehicle_type_id":"4","last_reported":1733209798,"current_range_meters":24800,"station_id":"ce4bhqh2rcd13ifvqhmg","pricing_plan_id":"cebpf4jnsgd1na2vs0mg"},{"bike_id":"0ecfd779-5539-47af-aacd-2f9643bc2006","system_id":"levelo_inurba_marseille","lat":43.30153,"lon":5.38078,"is_reserved":false,"is_disabled":false,"rental_uris":{"android":"levelo://app?vid=0ecfd779-5539-47af-aacd-2f9643bc2006","ios":"levelo://app?vid=0ecfd779-5539-47af-aacd-2f9643bc2006"},"vehicle_type_id":"4","last_reported":1733209798,"current_range_meters":30400,"station_id":"ce4bgjp2rcd13ifvqbh0","pricing_plan_id":"cebpf4jnsgd1na2vs0mg"},{"bike_id":"8f4472d9-2394-4eea-b04f-e9e717fbc435","system_id":"levelo_inurba_marseille","lat":43.33029,"lon":5.39029,"is_reserved":false,"is_disabled":false,"rental_uris":{"android":"levelo://app?vid=8f4472d9-2394-4eea-b04f-e9e717fbc435","ios":"levelo://app?vid=8f4472d9-2394-4eea-b04f-e9e717fbc435"},"vehicle_type_id":"4","last_reported":1733209798,"current_range_meters":22000,"station_id":"ce4bhr92rcd13ifvqhrg","pricing_plan_id":"cebpf4jnsgd1na2vs0mg"},{"bike_id":"a60f7c8d-2dfe-4fb0-b194-a172bd547fa5","system_id":"levelo_inurba_marseille","lat":43.31118,"lon":5.37772,"is_reserved":false,"is_disabled":false,"rental_uris":{"android":"levelo://app?vid=a60f7c8d-2dfe-4fb0-b194-a172bd547fa5","ios":"levelo://app?vid=a60f7c8d-2dfe-4fb0-b194-a172bd547fa5"},"vehicle_type_id":"4","last_reported":1733209798,"current_range_meters":37600,"station_id":"ce4bgt92rcd13ifvqcg0","pricing_plan_id":"cebpf4jnsgd1na2vs0mg"},{"bike_id":"aac537f6-11ba-4961-887b-0169e6d8c3bf","system_id":"levelo_inurba_marseille","lat":43.322914,"lon":5.382752,"is_reserved":false,"is_disabled":false,"rental_uris":{"android":"levelo://app?vid=aac537f6-11ba-4961-887b-0169e6d8c3bf","ios":"levelo://app?vid=aac537f6-11ba-4961-887b-0169e6d8c3bf"},"vehicle_type_id":"4","last_reported":1733209798,"current_range_meters":26800,"station_id":"ce4bhr12rcd13ifvqhqg","pricing_plan_id":"cebpf4jnsgd1na2vs0mg"},{"bike_id":"e63aa962-a242-44bd-8328-31cf6c0d9d3d","system_id":"levelo_inurba_marseille","lat":43.29303,"lon":5.37163,"is_reserved":false,"is_disabled":true,"rental_uris":{"android":"levelo://app?vid=e63aa962-a242-44bd-8328-31cf6c0d9d3d","ios":"levelo://app?vid=e63aa962-a242-44bd-8328-31cf6c0d9d3d"},"vehicle_type_id":"4","last_reported":1733209798,"current_range_meters":0,"station_id":"ce4bgh92rcd13ifvqb40","pricing_plan_id":"cebpf4jnsgd1na2vs0mg"},{"bike_id":"f8bcc820-9a1c-492a-9f26-6a6b26934b17","system_id":"levelo_inurba_marseille","lat":43.28611,"lon":5.37056,"is_reserved":false,"is_disabled":true,"rental_uris":{"android":"levelo://app?vid=f8bcc820-9a1c-492a-9f26-6a6b26934b17","ios":"levelo://app?vid=f8bcc820-9a1c-492a-9f26-6a6b26934b17"},