{"last_updated":1740467361,"ttl":60,"version":"2.2","data":{"bikes":[{"bike_id":"8c39fbcb-bc41-49a9-ad4d-cc55d2a50515","system_id":"levelo_inurba_marseille","lat":43.29514,"lon":5.39035,"is_reserved":false,"is_disabled":true,"rental_uris":{"android":"levelo://app?vid=8c39fbcb-bc41-49a9-ad4d-cc55d2a50515","ios":"levelo://app?vid=8c39fbcb-bc41-49a9-ad4d-cc55d2a50515"},"vehicle_type_id":"4","last_reported":1740467361,"current_range_meters":2800,"station_id":"ce4bh3p2rcd13ifvqdp0","pricing_plan_id":"cebpf4jnsgd1na2vs0mg"},{"bike_id":"3d22fb6d-91ff-46ae-a4d7-c4682f5965e6","system_id":"levelo_inurba_marseille","lat":43.23153,"lon":5.43713,"is_reserved":false,"is_disabled":false,"rental_uris":{"android":"levelo://app?vid=3d22fb6d-91ff-46ae-a4d7-c4682f5965e6","ios":"levelo://app?vid=3d22fb6d-91ff-46ae-a4d7-c4682f5965e6"},"vehicle_type_id":"4","last_reported":1740467361,"current_range_meters":400,"station_id":"ce4bhmp2rcd13ifvqgog","pricing_plan_id":"cebpf4jnsgd1na2vs0mg"},{"bike_id":"16a64962-c840-403e-8215-260ce50518b7","system_id":"levelo_inurba_marseille","lat":43.28159,"lon":5.42665,"is_reserved":false,"is_disabled":true,"rental_uris":{"android":"levelo://app?vid=16a64962-c840-403e-8215-260ce50518b7","ios":"levelo://app?vid=16a64962-c840-403e-8215-260ce50518b7"},"vehicle_type_id":"4","last_reported":1740467361,"current_range_meters":4000,"station_id":"ce4bhnh2rcd13ifvqgug","pricing_plan_id":"cebpf4jnsgd1na2vs0mg"},{"bike_id":"97d726ed-4183-4544-8274-4d89eaa2f547","system_id":"levelo_inurba_marseille","lat":43.25714,"lon":5.41119,"is_reserved":false,"is_disabled":false,"rental_uris":{"android":"levelo://app?vid=97d726ed-4183-4544-8274-4d89eaa2f547","ios":"levelo://app?vid=97d726ed-4183-4544-8274-4d89eaa2f547"},"vehicle_type_id":"4","last_reported":1740467361,"current_range_meters":4000,"station_id":"ce4bhkp2rcd13ifvqgd0","pricing_plan_id":"cebpf4jnsgd1na2vs0mg"},{"bike_id":"80655659-a270-46de-a2c1-6ad4df112438","system_id":"levelo_inurba_marseille","lat":43.25686,"lon":5.41922,"is_reserved":false,"is_disabled":false,"rental_uris":{"android":"levelo://app?vid=80655659-a270-46de-a2c1-6ad4df112438","ios":"levelo://app?vid=80655659-a270-46de-a2c1-6ad4df112438"},"vehicle_type_id":"4","last_reported":1740467361,"current_range_meters":4000,"station_id":"","pricing_plan_id":"cebpf4jnsgd1na2vs0mg"},{"bike_id":"826b9b93-ed69-4372-979b-8eb67c0c4857","system_id":"levelo_inurba_marseille","lat":43.28665,"lon":5.36349,"is_reserved":false,"is_disabled":false,"rental_uris":{"android":"levelo://app?vid=826b9b93-ed69-4372-979b-8eb67c0c4857","ios":"levelo://app?vid=826b9b93-ed69-4372-979b-8eb67c0c4857"},"vehicle_type_id":"4","last_reported":1740467361,"current_range_meters":4000,"station_id":"ce4bhah2rcd13ifvqej0","pricing_plan_id":"cebpf4jnsgd1na2vs0mg"},{"bike_id":"107976a4-0e23-4e51-acb4-368c070a4831","system_id":"levelo_inurba_marseille","lat":43.289337,"lon":5.366461,"is_reserved":false,"is_disabled":false,"rental_uris":{"android":"levelo://app?vid=107976a4-0e23-4e51-acb4-368c070a4831","ios":"levelo://app?vid=107976a4-0e23-4e51-acb4-368c070a4831"},"vehicle_type_id":"4","last_reported":1740467361,"current_range_meters":5600,"station_id":"ce4bhap2rcd13ifvqek0","pricing_plan_id":"cebpf4jnsgd1na2vs0mg"},{"bike_id":"4e76829f-70cf-4d94-80fd-c186bc55f908","system_id":"levelo_inurba_marseille","lat":43.27981,"lon":5.41678,"is_reserved":false,"is_disabled":false,"rental_uris":{"android":"levelo://app?vid=4e76829f-70cf-4d94-80fd-c186bc55f908","ios":"levelo://app?vid=4e76829f-70cf-4d94-80fd-c186bc55f908"},"vehicle_type_id":"4","last_reported":1740467361,"current_range_meters":5600,"station_id":"ce4bho12rcd13ifvqh1g","pricing_plan_id":"cebpf4jnsgd1na2vs0mg"},{"bike_id":"fda3072b-a436-4658-8816-eb8305f4567d","system_id":"levelo_inurba_marseille","lat":43.33594,"lon":5.40974,"is_reserved":false,"is_disabled":false,"rental_uris":{"android":"levelo://app?vid=fda3072b-a436-4658-8816-eb8305f4567d","ios":"levelo://app?vid=fda3072b-a436-4658-8816-eb8305f4567d"},"vehicle_type_id":"4","last_reported":1740467361,"current_range_meters":5600,"station_id":"ce4bhqh2rcd13ifvqhmg","pricing_plan_id":"cebpf4jnsgd1na2vs0mg"},{"bike_id":"bddf8e7b-3da7-4773-b7ae-9c6dd1337414","system_id":"levelo_inurba_marseille","lat":43.28156,"lon":5.42639,"is_reserved":false,"is_disabled":false,"rental_uris":{"android":"levelo://app?vid=bddf8e7b-3da7-4773-b7ae-9c6dd1337414","ios":"levelo://app?vid=bddf8e7b-3da7-4773-b7ae-9c6dd1337414"},"vehicle_type_id":"4","last_reported":1740467361,"current_range_meters":6000,"station_id":"ce4bhnh2rcd13ifvqgug","pricing_plan_id":"cebpf4jnsgd1na2vs0mg"},{"bike_id":"3ee08106-b8dc-44c9-a111-e641d13b4a18","system_id":"levelo_inurba_marseille","lat":43.30153,"lon":5.38083,"is_reserved":false,"is_disabled":false,"rental_uris":{"android":"levelo://app?vid=3ee08106-b8dc-44c9-a111-e641d13b4a18","ios":"levelo://app?vid=3ee08106-b8dc-44c9-a111-e641d13b4a18"},"vehicle_type_id":"4","last_reported":1740467361,"current_range_meters":6000,"station_id":"ce4bgjp2rcd13ifvqbh0","pricing_plan_id":"cebpf4jnsgd1na2vs0mg"},{"bike_id":"b004eea0-d52e-4a34-9da5-8c7018b8b6a2","system_id":"levelo_inurba_marseille","lat":43.23207,"lon":5.35574,"is_reserved":false,"is_disabled":false,"rental_uris":{"android":"levelo://app?vid=b004eea0-d52e-4a34-9da5-8c7018b8b6a2","ios":"levelo://app?vid=b004eea0-d52e-4a34-9da5-8c7018b8b6a2"},"vehicle_type_id":"4","last_reported":1740467361,"current_range_meters":6000,"station_id":"ce4bhu92rcd13ifvqi70","pricing_plan_id":"cebpf4jnsgd1na2vs0mg"},{"bike_id":"b850e8fd-72f8-4a1a-be50-4d78ec305be1","system_id":"levelo_inurba_marseille","lat":43.269341,"lon":5.402669,"is_reserved":false,"is_disabled":false,"rental_uris":{"android":"levelo://app?vid=b850e8fd-72f8-4a1a-be50-4d78ec305be1","ios":"levelo://app?vid=b850e8fd-72f8-4a1a-be50-4d78ec305be1"},"vehicle_type_id":"4","last_reported":1740467361,"current_range_meters":6000,"station_id":"","pricing_plan_id":"cebpf4jnsgd1na2vs0mg"},{"bike_id":"bd1c9204-109d-453d-a655-cc2878aad0c5","system_id":"levelo_inurba_marseille","lat":43.29894,"lon":5.43671,"is_reserved":false,"is_disabled":false,"rental_uris":{"android":"levelo://app?vid=bd1c9204-109d-453d-a655-cc2878aad0c5","ios":"levelo://app?vid=bd1c9204-109d-453d-a655-cc2878aad0c5"},"vehicle_type_id":"4","last_reported":1740467361,"current_range_meters":6400,"station_id":"ce4bhpp2rcd13ifvqhfg","pricing_plan_id":"cebpf4jnsgd1na2vs0mg"},{"bike_id":"a506b17f-fdec-4294-9e72-81f01b9513f4","system_id":"levelo_inurba_marseille","lat":43.286652,"lon":5.363344,"is_reserved":false,"is_disabled":false,"rental_uris":{"android":"levelo://app?vid=a506b17f-fdec-4294-9e72-81f01b9513f4","ios":"levelo://app?vid=a506b17f-fdec-4294-9e72-81f01b9513f4"},"vehicle_type_id":"4","last_reported":1740467361,"current_range_meters":6400,"station_id":"ce4bhah2rcd13ifvqej0","pricing_plan_id":"cebpf4jnsgd1na2vs0mg"},{"bike_id":"15d63c41-d467-4e01-ab9d-1a4d98399eb8","system_id":"levelo_inurba_marseille","lat":43.28076,"lon":5.39673,"is_reserved":false,"is_disabled":true,"rental_uris":{"android":"levelo://app?vid=15d63c41-d467-4e01-ab9d-1a4d98399eb8","ios":"levelo://app?vid=15d63c41-d467-4e01-ab9d-1a4d98399eb8"},"vehicle_type_id":"4","last_reported":1740467361,"current_range_meters":6800,"station_id":"ce4bho12rcd13ifvqh2g","pricing_plan_id":"cebpf4jnsgd1na2vs0mg"},{"bike_id":"216bb77f-c769-4011-8970-e66d63254aa2","system_id":"levelo_inurba_marseille","lat":43.2992,"lon":5.37864,"is_reserved":false,"is_disabled":false,"rental_uris":{"android":"levelo://app?vid=216bb77f-c769-4011-8970-e66d63254aa2","ios":"levelo://app?vid=216bb77f-c769-4011-8970-e66d63254aa2"},"vehicle_type_id":"4","last_reported":1740467361,"current_range_meters":6800,"station_id":"","pricing_plan_id":"cebpf4jnsgd1na2vs0mg"},{"bike_id":"2ce5a7a3-ebc5-4542-8581-83c42fa52a52","system_id":"levelo_inurba_marseille","lat":43.30953,"lon":5.3902,"is_reserved":false,"is_disabled":true,"rental_uris":{"android":"levelo://app?vid=2ce5a7a3-ebc5-4542-8581-83c42fa52a52","ios":"levelo://app?vid=2ce5a7a3-ebc5-4542-8581-83c42fa52a52"},"vehicle_type_id":"4","last_reported":1740467361,"current_range_meters":6800,"station_id":"ce4bgup2rcd13ifvqco0","pricing_plan_id":"cebpf4jnsgd1na2vs0mg"},{"bike_id":"5d035776-9a72-41f9-8bd5-ef8ca8fef514","system_id":"levelo_inurba_marseille","lat":43.28153,"lon":5.42643,"is_reserved":false,"is_disabled":false,"rental_uris":{"android":"levelo://app?vid=5d035776-9a72-41f9-8bd5-ef8ca8fef514","ios":"levelo://app?vid=5d035776-9a72-41f9-8bd5-ef8ca8fef514"},"vehicle_type_id":"4","last_reported":1740467361,"current_range_meters":6800,"station_id":"ce4bhnh2rcd13ifvqgug","pricing_plan_id":"cebpf4jnsgd1na2vs0mg"},{"bike_id":"f245eae0-ca5a-4856-867d-5d6d248959c7","system_id":"levelo_inurba_marseille","lat":43.29435,"lon":5.39762,"is_reserved":false,"is_disabled":false,"rental_uris":{"android":"levelo://app?vid=f245eae0-ca5a-4856-867d-5d6d248959c7","ios":"levelo://app?vid=f245eae0-ca5a-4856-867d-5d6d248959c7"},"vehicle_type_id":"4","last_reported":1740467361,"current_range_meters":6800,"station_id":"ce4bh3h2rcd13ifvqdo0","pricing_plan_id":"cebpf4jnsgd1na2vs0mg"},{"bike_id":"9912bd3b-182f-467c-92db-65e052c11af3","system_id":"levelo_inurba_marseille","lat":43.24285,"lon":5.43821,"is_reserved":false,"is_disabled":false,"rental_uris":{"android":"levelo://app?vid=9912bd3b-182f-467c-92db-65e052c11af3","ios":"levelo://app?vid=9912bd3b-182f-467c-92db-65e052c11af3"},"vehicle_type_id":"4","last_reported":1740467361,"current_range_meters":6800,"station_id":"","pricing_plan_id":"cebpf4jnsgd1na2vs0mg"},{"bike_id":"bbda6f83-e8f4-43d4-a228-a71d17bee3e8","system_id":"levelo_inurba_marseille","lat":43.30907,"lon":5.36848,"is_reserved":false,"is_disabled":false,"rental_uris":{"android":"levelo://app?vid=bbda6f83-e8f4-43d4-a228-a71d17bee3e8","ios":"levelo://app?vid=bbda6f83-e8f4-43d4-a228-a71d17bee3e8"},"vehicle_type_id":"4","last_reported":1740467361,"current_range_meters":6800,"station_id":"ce4bgn92rcd13ifvqbvg","pricing_plan_id":"cebpf4jnsgd1na2vs0mg"},{"bike_id":"038af398-3e58-4a47-9f64-0340b59e4bcb","system_id":"levelo_inurba_marseille","lat":43.27068,"lon":5.42281,"is_reserved":false,"is_disabled":false,"rental_uris":{"android":"levelo://app?vid=038af398-3e58-4a47-9f64-0340b59e4bcb","ios":"levelo://app?vid=038af398-3e58-4a47-9f64-0340b59e4bcb"},"vehicle_type_id":"4","last_reported":1740467361,"current_range_meters":8000,"station_id":"","pricing_plan_id":"cebpf4jnsgd1na2vs0mg"},{"bike_id":"4c676afd-aabb-48c7-9c62-f89205cd3f4a","system_id":"levelo_inurba_marseille","lat":43.27826,"lon":5.40705,"is_reserved":false,"is_disabled":false,"rental_uris":{"android":"levelo://app?vid=4c676afd-aabb-48c7-9c62-f89205cd3f4a","ios":"levelo://app?vid=4c676afd-aabb-48c7-9c62-f89205cd3f4a"},"vehicle_type_id":"4","last_reported":1740467361,"current_range_meters":6800,"station_id":"ce4bhnh2rcd13ifvqgtg","pricing_plan_id":"cebpf4jnsgd1na2vs0mg"},{"bike_id":"f3e2d31b-bf16-4d93-8358-e1b5fc69cdb1","system_id":"levelo_inurba_marseille","lat":43.28082,"lon":5.39906,"is_reserved":false,"is_disabled":false,"rental_uris":{"android":"levelo://app?vid=f3e2d31b-bf16-4d93-8358-e1b5fc69cdb1","ios":"levelo://app?vid=f3e2d31b-bf16-4d93-8358-e1b5fc69cdb1"},"vehicle_type_id":"4","last_reported":1740467361,"current_range_meters":7200,"station_id":"","pricing_plan_id":"cebpf4jnsgd1na2vs0mg"},{"bike_id":"87bbda1f-0db0-4d79-a046-a87b5e94995a","system_id":"levelo_inurba_marseille","lat":43.24161,"lon":5.36403,"is_reserved":false,"is_disabled":false,"rental_uris":{"android":"levelo://app?vid=87bbda1f-0db0-4d79-a046-a87b5e94995a","ios":"levelo://app?vid=87bbda1f-0db0-4d79-a046-a87b5e94995a"},"vehicle_type_id":"4","last_reported":1740467361,"current_range_meters":7200,"station_id":"cpo36qri1sfpv3e86is0","pricing_plan_id":"cebpf4jnsgd1na2vs0mg"},{"bike_id":"5f618fd8-4c1d-4b98-9d96-80413e9c5e2b","system_id":"levelo_inurba_marseille","lat":43.32367,"lon":5.40615,"is_reserved":false,"is_disabled":true,"rental_uris":{"android":"levelo://app?vid=5f618fd8-4c1d-4b98-9d96-80413e9c5e2b","ios":"levelo://app?vid=5f618fd8-4c1d-4b98-9d96-80413e9c5e2b"},"vehicle_type_id":"4","last_reported":1740467361,"current_range_meters":8000,"station_id":"ce4bhq92rcd13ifvqhjg","pricing_plan_id":"cebpf4jnsgd1na2vs0mg"},{"bike_id":"f80a79d6-1c74-4e76-8ed2-23203ade1d35","system_id":"levelo_inurba_marseille","lat":43.27803,"lon":5.40711,"is_reserved":false,"is_disabled":false,"rental_uris":{"android":"levelo://app?vid=f80a79d6-1c74-4e76-8ed2-23203ade1d35","ios":"levelo://app?vid=f80a79d6-1c74-4e76-8ed2-23203ade1d35"},"vehicle_type_id":"4","last_reported":1740467361,"current_range_meters":7200,"station_id":"ce4bhnh2rcd13ifvqgtg","pricing_plan_id":"cebpf4jnsgd1na2vs0mg"},{"bike_id":"d59d2dbd-e436-465e-b549-6c258ad3b539","system_id":"levelo_inurba_marseille","lat":43.30471,"lon":5.37911,"is_reserved":false,"is_disabled":false,"rental_uris":{"android":"levelo://app?vid=d59d2dbd-e436-465e-b549-6c258ad3b539","ios":"levelo://app?vid=d59d2dbd-e436-465e-b549-6c258ad3b539"},"vehicle_type_id":"4","last_reported":1740467361,"current_range_meters":7200,"station_id":"ce4bgup2rcd13ifvqcn0","pricing_plan_id":"cebpf4jnsgd1na2vs0mg"},{"bike_id":"cdd24989-081e-4ace-a92c-ff5850d2f988","system_id":"levelo_inurba_marseille","lat":43.27485,"lon":5.4245,"is_reserved":false,"is_disabled":false,"rental_uris":{"android":"levelo://app?vid=cdd24989-081e-4ace-a92c-ff5850d2f988","ios":"levelo://app?vid=cdd24989-081e-4ace-a92c-ff5850d2f988"},"vehicle_type_id":"4","last_reported":1740467361,"current_range_meters":7200,"station_id":"ce4bhn92rcd13ifvqgrg","pricing_plan_id":"cebpf4jnsgd1na2vs0mg"},{"bike_id":"99e11aa5-2a69-4b97-b202-0544f0eb0875","system_id":"levelo_inurba_marseille","lat":43.28,"lon":5.41667,"is_reserved":false,"is_disabled":false,"rental_uris":{"android":"levelo://app?vid=99e11aa5-2a69-4b97-b202-0544f0eb0875","ios":"levelo://app?vid=99e11aa5-2a69-4b97-b202-0544f0eb0875"},"vehicle_type_id":"4","last_reported":1740467361,"current_range_meters":7200,"station_id":"ce4bho12rcd13ifvqh1g","pricing_plan_id":"cebpf4jnsgd1na2vs0mg"},{"bike_id":"7e26a3e9-4c57-4918-aa17-698a0ce4ac78","system_id":"levelo_inurba_marseille","lat":43.30645,"lon":5.3754,"is_reserved":false,"is_disabled":false,"rental_uris":{"android":"levelo://app?vid=7e26a3e9-4c57-4918-aa17-698a0ce4ac78","ios":"levelo://app?vid=7e26a3e9-4c57-4918-aa17-698a0ce4ac78"},"vehicle_type_id":"4","last_reported":1740467361,"current_range_meters":7200,"station_id":"","pricing_plan_id":"cebpf4jnsgd1na2vs0mg"},{"bike_id":"17da1feb-9abe-4e1d-9544-5a842d8f1b8a","system_id":"levelo_inurba_marseille","lat":43.27814,"lon":5.40731,"is_reserved":false,"is_disabled":false,"rental_uris":{"android":"levelo://app?vid=17da1feb-9abe-4e1d-9544-5a842d8f1b8a","ios":"levelo://app?vid=17da1feb-9abe-4e1d-9544-5a842d8f1b8a"},"vehicle_type_id":"4","last_reported":1740467361,"current_range_meters":7200,"station_id":"ce4bhnh2rcd13ifvqgtg","pricing_plan_id":"cebpf4jnsgd1na2vs0mg"},{"bike_id":"6491ef1b-9b7b-4294-a78b-cf05a333ba7f","system_id":"levelo_inurba_marseille","lat":43.30806,"lon":5.38158,"is_reserved":false,"is_disabled":false,"rental_uris":{"android":"levelo://app?vid=6491ef1b-9b7b-4294-a78b-cf05a333ba7f","ios":"levelo://app?vid=6491ef1b-9b7b-4294-a78b-cf05a333ba7f"},"vehicle_type_id":"4","last_reported":1740467361,"current_range_meters":12400,"station_id":"ce4bgt12rcd13ifvqce0","pricing_plan_id":"cebpf4jnsgd1na2vs0mg"},{"bike_id":"2b9ef758-750f-4ea1-9f73-9572dcc5ab91","system_id":"levelo_inurba_marseille","lat":43.30202,"lon":5.36631,"is_reserved":false,"is_disabled":false,"rental_uris":{"android":"levelo://app?vid=2b9ef758-750f-4ea1-9f73-9572dcc5ab91","ios":"levelo://app?vid=2b9ef758-750f-4ea1-9f73-9572dcc5ab91"},"vehicle_type_id":"4","last_reported":1740467361,"current_range_meters":8000,"station_id":"ce4bgrh2rcd13ifvqc8g","pricing_plan_id":"cebpf4jnsgd1na2vs0mg"},{"bike_id":"f980f677-3577-4af4-a6ba-79a13435ea20","system_id":"levelo_inurba_marseille","lat":43.29068,"lon":5.3758,"is_reserved":false,"is_disabled":false,"rental_uris":{"android":"levelo://app?vid=f980f677-3577-4af4-a6ba-79a13435ea20","ios":"levelo://app?vid=f980f677-3577-4af4-a6ba-79a13435ea20"},"vehicle_type_id":"4","last_reported":1740467361,"current_range_meters":11200,"station_id":"ce4bh692rcd13ifvqe90","pricing_plan_id":"cebpf4jnsgd1na2vs0mg"},{"bike_id":"ec17ff6a-26f9-4514-bd43-4ec7017c0b01","system_id":"levelo_inurba_marseille","lat":43.2932,"lon":5.3769,"is_reserved":false,"is_disabled":false,"rental_uris":{"android":"levelo://app?vid=ec17ff6a-26f9-4514-bd43-4ec7017c0b01","ios":"levelo://app?vid=ec17ff6a-26f9-4514-bd43-4ec7017c0b01"},"vehicle_type_id":"4","last_reported":1740467361,"current_range_meters":8400,"station_id":"","pricing_plan_id":"cebpf4jnsgd1na2vs0mg"},{"bike_id":"8788e12a-f05c-45b2-9570-f7c7ac9b560c","system_id":"levelo_inurba_marseille","lat":43.27953,"lon":5.41033,"is_reserved":false,"is_disabled":false,"rental_uris":{"android":"levelo://app?vid=8788e12a-f05c-45b2-9570-f7c7ac9b560c","ios":"levelo://app?vid=8788e12a-f05c-45b2-9570-f7c7ac9b560c"},"vehicle_type_id":"4","last_reported":1740467361,"current_range_meters":8400,"station_id":"ce4bhnp2rcd13ifvqh0g","pricing_plan_id":"cebpf4jnsgd1na2vs0mg"},{"bike_id":"8e245184-4bc7-48dc-9db7-78e668c4ac76","system_id":"levelo_inurba_marseille","lat":43.29715,"lon":5.3662,"is_reserved":false,"is_disabled":false,"rental_uris":{"android":"levelo://app?vid=8e245184-4bc7-48dc-9db7-78e668c4ac76","ios":"levelo://app?vid=8e245184-4bc7-48dc-9db7-78e668c4ac76"},"vehicle_type_id":"4","last_reported":1740467361,"current_range_meters":8800,"station_id":"ce4bgn12rcd13ifvqbt0","pricing_plan_id":"cebpf4jnsgd1na2vs0mg"},{"bike_id":"e49232ce-36e0-478c-a319-bb8d76abfc7f","system_id":"levelo_inurba_marseille","lat":43.29715,"lon":5.36604,"is_reserved":false,"is_disabled":false,"rental_uris":{"android":"levelo://app?vid=e49232ce-36e0-478c-a319-bb8d76abfc7f","ios":"levelo://app?vid=e49232ce-36e0-478c-a319-bb8d76abfc7f"},"vehicle_type_id":"4","last_reported":1740467361,"current_range_meters":8800,"station_id":"ce4bgn12rcd13ifvqbt0","pricing_plan_id":"cebpf4jnsgd1na2vs0mg"},{"bike_id":"f5e523f2-246d-474c-808f-a050215d7059","system_id":"levelo_inurba_marseille","lat":43.23191,"lon":5.35556,"is_reserved":false,"is_disabled":false,"rental_uris":{"android":"levelo://app?vid=f5e523f2-246d-474c-808f-a050215d7059","ios":"levelo://app?vid=f5e523f2-246d-474c-808f-a050215d7059"},"vehicle_type_id":"4","last_reported":1740467361,"current_range_meters":8800,"station_id":"ce4bhu92rcd13ifvqi70","pricing_plan_id":"cebpf4jnsgd1na2vs0mg"},{"bike_id":"5162c2ce-a731-4d3b-a21a-a1c8cb63150f","system_id":"levelo_inurba_marseille","lat":43.31712,"lon":5.43705,"is_reserved":false,"is_disabled":false,"rental_uris":{"android":"levelo://app?vid=5162c2ce-a731-4d3b-a21a-a1c8cb63150f","ios":"levelo://app?vid=5162c2ce-a731-4d3b-a21a-a1c8cb63150f"},"vehicle_type_id":"4","last_reported":1740467361,"current_range_meters":8800,"station_id":"ce4bhp92rcd13ifvqhcg","pricing_plan_id":"cebpf4jnsgd1na2vs0mg"},{"bike_id":"446313c8-37fc-4f36-b9c3-a1d481dfb62b","system_id":"levelo_inurba_marseille","lat":43.26817,"lon":5.41104,"is_reserved":false,"is_disabled":false,"rental_uris":{"android":"levelo://app?vid=446313c8-37fc-4f36-b9c3-a1d481dfb62b","ios":"levelo://app?vid=446313c8-37fc-4f36-b9c3-a1d481dfb62b"},"vehicle_type_id":"4","last_reported":1740467361,"current_range_meters":8800,"station_id":"","pricing_plan_id":"cebpf4jnsgd1na2vs0mg"},{"bike_id":"674cb057-5d42-4512-ae8c-448c1f63016b","system_id":"levelo_inurba_marseille","lat":43.30358,"lon":5.39442,"is_reserved":false,"is_disabled":false,"rental_uris":{"android":"levelo://app?vid=674cb057-5d42-4512-ae8c-448c1f63016b","ios":"levelo://app?vid=674cb057-5d42-4512-ae8c-448c1f63016b"},"vehicle_type_id":"4","last_reported":1740467361,"current_range_meters":9200,"station_id":"","pricing_plan_id":"cebpf4jnsgd1na2vs0mg"},{"bike_id":"294edc22-1901-4d5e-bb34-9bc4f65c5bd4","system_id":"levelo_inurba_marseille","lat":43.23195,"lon":5.39979,"is_reserved":false,"is_disabled":false,"rental_uris":{"android":"levelo://app?vid=294edc22-1901-4d5e-bb34-9bc4f65c5bd4","ios":"levelo://app?vid=294edc22-1901-4d5e-bb34-9bc4f65c5bd4"},"vehicle_type_id":"4","last_reported":1740467361,"current_range_meters":9200,"station_id":"ce4bhn12rcd13ifvqgqg","pricing_plan_id":"cebpf4jnsgd1na2vs0mg"},{"bike_id":"fd774486-2f12-42fe-b429-99b08e3da54b","system_id":"levelo_inurba_marseille","lat":43.28487,"lon":5.35886,"is_reserved":false,"is_disabled":false,"rental_uris":{"android":"levelo://app?vid=fd774486-2f12-42fe-b429-99b08e3da54b","ios":"levelo://app?vid=fd774486-2f12-42fe-b429-99b08e3da54b"},"vehicle_type_id":"4","last_reported":1740467361,"current_range_meters":9200,"station_id":"ce4bhah2rcd13ifvqei0","pricing_plan_id":"cebpf4jnsgd1na2vs0mg"},{"bike_id":"dd209a24-bb39-407d-bb4c-30fb90704639","system_id":"levelo_inurba_marseille","lat":43.29195,"lon":5.39334,"is_reserved":false,"is_disabled":false,"rental_uris":{"android":"levelo://app?vid=dd209a24-bb39-407d-bb4c-30fb90704639","ios":"levelo://app?vid=dd209a24-bb39-407d-bb4c-30fb90704639"},"vehicle_type_id":"4","last_reported":1740467361,"current_range_meters":9200,"station_id":"ce4bh192rcd13ifvqdd0","pricing_plan_id":"cebpf4jnsgd1na2vs0mg"},{"bike_id":"7f153b39-4160-49a4-801b-a907c9f4c350","system_id":"levelo_inurba_marseille","lat":43.29307,"lon":5.43461,"is_reserved":false,"is_disabled":false,"rental_uris":{"android":"levelo://app?vid=7f153b39-4160-49a4-801b-a907c9f4c350","ios":"levelo://app?vid=7f153b39-4160-49a4-801b-a907c9f4c350"},"vehicle_type_id":"4","last_reported":1740467361,"current_range_meters":9200,"station_id":"","pricing_plan_id":"cebpf4jnsgd1na2vs0mg"},{"bike_id":"178b7e63-2185-4eb9-a53f-80e8160cc62d","system_id":"levelo_inurba_marseille","lat":43.31355,"lon":5.38504,"is_reserved":false,"is_disabled":false,"rental_uris":{"android":"levelo://app?vid=178b7e63-2185-4eb9-a53f-80e8160cc62d","ios":"levelo://app?vid=178b7e63-2185-4eb9-a53f-80e8160cc62d"},"vehicle_type_id":"4","last_reported":1740467361,"current_range_meters":9200,"station_id":"ce4bgt92rcd13ifvqcf0","pricing_plan_id":"cebpf4jnsgd1na2vs0mg"},{"bike_id":"1a0b050f-f33f-48d2-9894-613d93a341cc","system_id":"levelo_inurba_marseille","lat":43.23191,"lon":5.39965,"is_reserved":false,"is_disabled":false,"rental_uris":{"android":"levelo://app?vid=1a0b050f-f33f-48d2-9894-613d93a341cc","ios":"levelo://app?vid=1a0b050f-f33f-48d2-9894-613d93a341cc"},"vehicle_type_id":"4","last_reported":1740467361,"current_range_meters":9200,"station_id":"ce4bhn12rcd13ifvqgqg","pricing_plan_id":"cebpf4jnsgd1na2vs0mg"},{"bike_id":"d6e9473b-dc2e-415e-a49b-32762a351f28","system_id":"levelo_inurba_marseille","lat":43.28847,"lon":5.35853,"is_reserved":false,"is_disabled":false,"rental_uris":{"android":"levelo://app?vid=d6e9473b-dc2e-415e-a49b-32762a351f28","ios":"levelo://app?vid=d6e9473b-dc2e-415e-a49b-32762a351f28"},"vehicle_type_id":"4","last_reported":1740467361,"current_range_meters":9600,"station_id":"ce4bhb12rcd13ifvqem0","pricing_plan_id":"cebpf4jnsgd1na2vs0mg"},{"bike_id":"19a8f35e-59c5-4bff-a8e1-1e0d52f1d0ca","system_id":"levelo_inurba_marseille","lat":43.28444,"lon":5.39185,"is_reserved":false,"is_disabled":false,"rental_uris":{"android":"levelo://app?vid=19a8f35e-59c5-4bff-a8e1-1e0d52f1d0ca","ios":"levelo://app?vid=19a8f35e-59c5-4bff-a8e1-1e0d52f1d0ca"},"vehicle_type_id":"4","last_reported":1740467361,"current_range_meters":9600,"station_id":"ce4bhoh2rcd13ifvqh5g","pricing_plan_id":"cebpf4jnsgd1na2vs0mg"},{"bike_id":"ce08e129-3210-4784-8e00-3661099c392d","system_id":"levelo_inurba_marseille","lat":43.29908,"lon":5.43665,"is_reserved":false,"is_disabled":false,"rental_uris":{"android":"levelo://app?vid=ce08e129-3210-4784-8e00-3661099c392d","ios":"levelo://app?vid=ce08e129-3210-4784-8e00-3661099c392d"},"vehicle_type_id":"4","last_reported":1740467361,"current_range_meters":9600,"station_id":"ce4bhpp2rcd13ifvqhfg","pricing_plan_id":"cebpf4jnsgd1na2vs0mg"},{"bike_id":"cf627f1b-44b9-4541-9f0b-7ac061f04e84","system_id":"levelo_inurba_marseille","lat":43.29716,"lon":5.38454,"is_reserved":false,"is_disabled":false,"rental_uris":{"android":"levelo://app?vid=cf627f1b-44b9-4541-9f0b-7ac061f04e84","ios":"levelo://app?vid=cf627f1b-44b9-4541-9f0b-7ac061f04e84"},"vehicle_type_id":"4","last_reported":1740467361,"current_range_meters":9600,"station_id":"","pricing_plan_id":"cebpf4jnsgd1na2vs0mg"},{"bike_id":"2d9f0777-5b96-4c1e-80c5-10449636aa92","system_id":"levelo_inurba_marseille","lat":43.32366,"lon":5.38886,"is_reserved":false,"is_disabled":false,"rental_uris":{"android":"levelo://app?vid=2d9f0777-5b96-4c1e-80c5-10449636aa92","ios":"levelo://app?vid=2d9f0777-5b96-4c1e-80c5-10449636aa92"},"vehicle_type_id":"4","last_reported":1740467361,"current_range_meters":9600,"station_id":"ce4bhqp2rcd13ifvqhog","pricing_plan_id":"cebpf4jnsgd1na2vs0mg"},{"bike_id":"fa607b43-2bfd-442a-86bc-08f40a695b42","system_id":"levelo_inurba_marseille","lat":43.23146,"lon":5.43735,"is_reserved":false,"is_disabled":false,"rental_uris":{"android":"levelo://app?vid=fa607b43-2bfd-442a-86bc-08f40a695b42","ios":"levelo://app?vid=fa607b43-2bfd-442a-86bc-08f40a695b42"},"vehicle_type_id":"4","last_reported":1740467361,"current_range_meters":9600,"station_id":"ce4bhmp2rcd13ifvqgog","pricing_plan_id":"cebpf4jnsgd1na2vs0mg"},{"bike_id":"7333f5f0-71fa-4cf2-9e94-a5d02574b956","system_id":"levelo_inurba_marseille","lat":43.2836,"lon":5.38622,"is_reserved":false,"is_disabled":false,"rental_uris":{"android":"levelo://app?vid=7333f5f0-71fa-4cf2-9e94-a5d02574b956","ios":"levelo://app?vid=7333f5f0-71fa-4cf2-9e94-a5d02574b956"},"vehicle_type_id":"4","last_reported":1740467361,"current_range_meters":10000,"station_id":"ce4bh492rcd13ifvqdvg","pricing_plan_id":"cebpf4jnsgd1na2vs0mg"},{"bike_id":"d469ae70-b06c-49f4-b9c4-a41e0d165d26","system_id":"levelo_inurba_marseille","lat":43.24152,"lon":5.36419,"is_reserved":false,"is_disabled":false,"rental_uris":{"android":"levelo://app?vid=d469ae70-b06c-49f4-b9c4-a41e0d165d26","ios":"levelo://app?vid=d469ae70-b06c-49f4-b9c4-a41e0d165d26"},"vehicle_type_id":"4","last_reported":1740467361,"current_range_meters":10000,"station_id":"cpo36qri1sfpv3e86is0","pricing_plan_id":"cebpf4jnsgd1na2vs0mg"},{"bike_id":"52f330b7-05bc-4b3f-8a49-c74c78935af0","system_id":"levelo_inurba_marseille","lat":43.3125,"lon":5.39514,"is_reserved":false,"is_disabled":false,"rental_uris":{"android":"levelo://app?vid=52f330b7-05bc-4b3f-8a49-c74c78935af0","ios":"levelo://app?vid=52f330b7-05bc-4b3f-8a49-c74c78935af0"},"vehicle_type_id":"4","last_reported":1740467361,"current_range_meters":10000,"station_id":"","pricing_plan_id":"cebpf4jnsgd1na2vs0mg"},{"bike_id":"d630238b-e434-4009-a114-1268aae217f8","system_id":"levelo_inurba_marseille","lat":43.29185,"lon":5.3932,"is_reserved":false,"is_disabled":false,"rental_uris":{"android":"levelo://app?vid=d630238b-e434-4009-a114-1268aae217f8","ios":"levelo://app?vid=d630238b-e434-4009-a114-1268aae217f8"},"vehicle_type_id":"4","last_reported":1740467361,"current_range_meters":10000,"station_id":"ce4bh192rcd13ifvqdd0","pricing_plan_id":"cebpf4jnsgd1na2vs0mg"},{"bike_id":"43283546-0c6f-4116-b0be-3b4e91fa7c5f","system_id":"levelo_inurba_marseille","lat":43.29392,"lon":5.38493,"is_reserved":false,"is_disabled":false,"rental_uris":{"android":"levelo://app?vid=43283546-0c6f-4116-b0be-3b4e91fa7c5f","ios":"levelo://app?vid=43283546-0c6f-4116-b0be-3b4e91fa7c5f"},"vehicle_type_id":"4","last_reported":1740467361,"current_range_meters":10000,"station_id":"","pricing_plan_id":"cebpf4jnsgd1na2vs0mg"},{"bike_id":"78fe1147-9711-4871-9b58-0cae6a021766","system_id":"levelo_inurba_marseille","lat":43.30189,"lon":5.36585,"is_reserved":false,"is_disabled":false,"rental_uris":{"android":"levelo://app?vid=78fe1147-9711-4871-9b58-0cae6a021766","ios":"levelo://app?vid=78fe1147-9711-4871-9b58-0cae6a021766"},"vehicle_type_id":"4","last_reported":1740467361,"current_range_meters":10000,"station_id":"ce4bgrh2rcd13ifvqc8g","pricing_plan_id":"cebpf4jnsgd1na2vs0mg"},{"bike_id":"b77a1617-36cc-4e3f-98b4-1daf5eedc36e","system_id":"levelo_inurba_marseille","lat":43.28837,"lon":5.35852,"is_reserved":false,"is_disabled":false,"rental_uris":{"android":"levelo://app?vid=b77a1617-36cc-4e3f-98b4-1daf5eedc36e","ios":"levelo://app?vid=b77a1617-36cc-4e3f-98b4-1daf5eedc36e"},"vehicle_type_id":"4","last_reported":1740467361,"current_range_meters":10800,"station_id":"ce4bhb12rcd13ifvqem0","pricing_plan_id":"cebpf4jnsgd1na2vs0mg"},{"bike_id":"ee674a4e-b076-40bb-86f8-9b99e78d7ea9","system_id":"levelo_inurba_marseille","lat":43.28836,"lon":5.35925,"is_reserved":false,"is_disabled":false,"rental_uris":{"android":"levelo://app?vid=ee674a4e-b076-40bb-86f8-9b99e78d7ea9","ios":"levelo://app?vid=ee674a4e-b076-40bb-86f8-9b99e78d7ea9"},"vehicle_type_id":"4","last_reported":1740467361,"current_range_meters":10800,"station_id":"ce4bhb12rcd13ifvqem0","pricing_plan_id":"cebpf4jnsgd1na2vs0mg"},{"bike_id":"d316eb4a-d1d3-4a8c-8729-cc5f66832b53","system_id":"levelo_inurba_marseille","lat":43.29173,"lon":5.39333,"is_reserved":false,"is_disabled":false,"rental_uris":{"android":"levelo://app?vid=d316eb4a-d1d3-4a8c-8729-cc5f66832b53","ios":"levelo://app?vid=d316eb4a-d1d3-4a8c-8729-cc5f66832b53"},"vehicle_type_id":"4","last_reported":1740467361,"current_range_meters":12400,"station_id":"","pricing_plan_id":"cebpf4jnsgd1na2vs0mg"},{"bike_id":"130ab319-f673-4e36-9717-343d196c6cce","system_id":"levelo_inurba_marseille","lat":43.23198,"lon":5.39981,"is_reserved":false,"is_disabled":false,"rental_uris":{"android":"levelo://app?vid=130ab319-f673-4e36-9717-343d196c6cce","ios":"levelo://app?vid=130ab319-f673-4e36-9717-343d196c6cce"},"vehicle_type_id":"4","last_reported":1740467361,"current_range_meters":10800,"station_id":"ce4bhn12rcd13ifvqgqg","pricing_plan_id":"cebpf4jnsgd1na2vs0mg"},{"bike_id":"89ed49ca-7257-4747-b24f-aa51e81b33c0","system_id":"levelo_inurba_marseille","lat":43.30801,"lon":5.3816,"is_reserved":false,"is_disabled":false,"rental_uris":{"android":"levelo://app?vid=89ed49ca-7257-4747-b24f-aa51e81b33c0","ios":"levelo://app?vid=89ed49ca-7257-4747-b24f-aa51e81b33c0"},"vehicle_type_id":"4","last_reported":1740467361,"current_range_meters":10800,"station_id":"ce4bgt12rcd13ifvqce0","pricing_plan_id":"cebpf4jnsgd1na2vs0mg"},{"bike_id":"efae2842-f47f-4727-b389-2103f9e0fbba","system_id":"levelo_inurba_marseille","lat":43.25088,"lon":5.39559,"is_reserved":false,"is_disabled":false,"rental_uris":{"android":"levelo://app?vid=efae2842-f47f-4727-b389-2103f9e0fbba","ios":"levelo://app?vid=efae2842-f47f-4727-b389-2103f9e0fbba"},"vehicle_type_id":"4","last_reported":1740467361,"current_range_meters":10800,"station_id":"ce4bhm12rcd13ifvqgkg","pricing_plan_id":"cebpf4jnsgd1na2vs0mg"},{"bike_id":"2c9b09a4-8391-40f9-9412-636f049e9b1b","system_id":"levelo_inurba_marseille","lat":43.27077,"lon":5.40258,"is_reserved":false,"is_disabled":false,"rental_uris":{"android":"levelo://app?vid=2c9b09a4-8391-40f9-9412-636f049e9b1b","ios":"levelo://app?vid=2c9b09a4-8391-40f9-9412-636f049e9b1b"},"vehicle_type_id":"4","last_reported":1740467361,"current_range_meters":12400,"station_id":"ce4bhk92rcd13ifvqgc0","pricing_plan_id":"cebpf4jnsgd1na2vs0mg"},{"bike_id":"92183821-0f83-458f-89a3-dab3fcc9e71e","system_id":"levelo_inurba_marseille","lat":43.28281,"lon":5.35078,"is_reserved":false,"is_disabled":false,"rental_uris":{"android":"levelo://app?vid=92183821-0f83-458f-89a3-dab3fcc9e71e","ios":"levelo://app?vid=92183821-0f83-458f-89a3-dab3fcc9e71e"},"vehicle_type_id":"4","last_reported":1740467361,"current_range_meters":10800,"station_id":"ce4bhbp2rcd13ifvqerg","pricing_plan_id":"cebpf4jnsgd1na2vs0mg"},{"bike_id":"c5c22a0a-9ccc-4ea3-b713-2efe2edd25c8","system_id":"levelo_inurba_marseille","lat":43.30465,"lon":5.37911,"is_reserved":false,"is_disabled":false,"rental_uris":{"android":"levelo://app?vid=c5c22a0a-9ccc-4ea3-b713-2efe2edd25c8","ios":"levelo://app?vid=c5c22a0a-9ccc-4ea3-b713-2efe2edd25c8"},"vehicle_type_id":"4","last_reported":1740467361,"current_range_meters":10800,"station_id":"ce4bgup2rcd13ifvqcn0","pricing_plan_id":"cebpf4jnsgd1na2vs0mg"},{"bike_id":"20a0944d-608d-4be9-bb83-17be138bd271","system_id":"levelo_inurba_marseille","lat":43.27495,"lon":5.4245,"is_reserved":false,"is_disabled":false,"rental_uris":{"android":"levelo://app?vid=20a0944d-608d-4be9-bb83-17be138bd271","ios":"levelo://app?vid=20a0944d-608d-4be9-bb83-17be138bd271"},"vehicle_type_id":"4","last_reported":1740467361,"current_range_meters":11200,"station_id":"ce4bhn92rcd13ifvqgrg","pricing_plan_id":"cebpf4jnsgd1na2vs0mg"},{"bike_id":"da9acc7c-f939-4ebd-a197-069c3203c731","system_id":"levelo_inurba_marseille","lat":43.303223,"lon":5.404341,"is_reserved":false,"is_disabled":false,"rental_uris":{"android":"levelo://app?vid=da9acc7c-f939-4ebd-a197-069c3203c731","ios":"levelo://app?vid=da9acc7c-f939-4ebd-a197-069c3203c731"},"vehicle_type_id":"4","last_reported":1740467361,"current_range_meters":11200,"station_id":"","pricing_plan_id":"cebpf4jnsgd1na2vs0mg"},{"bike_id":"0967b844-3997-4e2a-9359-1a667f42739c","system_id":"levelo_inurba_marseille","lat":43.29193,"lon":5.39321,"is_reserved":false,"is_disabled":false,"rental_uris":{"android":"levelo://app?vid=0967b844-3997-4e2a-9359-1a667f42739c","ios":"levelo://app?vid=0967b844-3997-4e2a-9359-1a667f42739c"},"vehicle_type_id":"4","last_reported":1740467361,"current_range_meters":11200,"station_id":"ce4bh192rcd13ifvqdd0","pricing_plan_id":"cebpf4jnsgd1na2vs0mg"},{"bike_id":"c7141c64-f04f-4dca-bf0b-c87dedcef0a3","system_id":"levelo_inurba_marseille","lat":43.30202,"lon":5.40029,"is_reserved":false,"is_disabled":false,"rental_uris":{"android":"levelo://app?vid=c7141c64-f04f-4dca-bf0b-c87dedcef0a3","ios":"levelo://app?vid=c7141c64-f04f-4dca-bf0b-c87dedcef0a3"},"vehicle_type_id":"4","last_reported":1740467361,"current_range_meters":11600,"station_id":"ce4bgvh2rcd13ifvqcs0","pricing_plan_id":"cebpf4jnsgd1na2vs0mg"},{"bike_id":"e5c275a2-a964-47d8-9489-ed1126cf4cef","system_id":"levelo_inurba_marseille","lat":43.29634,"lon":5.37933,"is_reserved":false,"is_disabled":false,"rental_uris":{"android":"levelo://app?vid=e5c275a2-a964-47d8-9489-ed1126cf4cef","ios":"levelo://app?vid=e5c275a2-a964-47d8-9489-ed1126cf4cef"},"vehicle_type_id":"4","last_reported":1740467361,"current_range_meters":11600,"station_id":"","pricing_plan_id":"cebpf4jnsgd1na2vs0mg"},{"bike_id":"d2610799-3b25-4010-8a8a-a9ba4108f5fb","system_id":"levelo_inurba_marseille","lat":43.25061,"lon":5.3888,"is_reserved":false,"is_disabled":false,"rental_uris":{"android":"levelo://app?vid=d2610799-3b25-4010-8a8a-a9ba4108f5fb","ios":"levelo://app?vid=d2610799-3b25-4010-8a8a-a9ba4108f5fb"},"vehicle_type_id":"4","last_reported":1740467361,"current_range_meters":11600,"station_id":"ce4bhgp2rcd13ifvqfd0","pricing_plan_id":"cebpf4jnsgd1na2vs0mg"},{"bike_id":"67ba93fc-1d56-41e1-8cb4-837f791dd545","system_id":"levelo_inurba_marseille","lat":43.259989,"lon":5.408031,"is_reserved":false,"is_disabled":false,"rental_uris":{"android":"levelo://app?vid=67ba93fc-1d56-41e1-8cb4-837f791dd545","ios":"levelo://app?vid=67ba93fc-1d56-41e1-8cb4-837f791dd545"},"vehicle_type_id":"4","last_reported":1740467361,"current_range_meters":12000,"station_id":"ce4bhbp2rcd13ifvqerg","pricing_plan_id":"cebpf4jnsgd1na2vs0mg"},{"bike_id":"760eb658-016e-422a-925a-e97810424e09","system_id":"levelo_inurba_marseille","lat":43.27944,"lon":5.41039,"is_reserved":false,"is_disabled":false,"rental_uris":{"android":"levelo://app?vid=760eb658-016e-422a-925a-e97810424e09","ios":"levelo://app?vid=760eb658-016e-422a-925a-e97810424e09"},"vehicle_type_id":"4","last_reported":1740467361,"current_range_meters":12000,"station_id":"ce4bhnp2rcd13ifvqh0g","pricing_plan_id":"cebpf4jnsgd1na2vs0mg"},{"bike_id":"8e5ae0b1-8e84-4ee8-a954-9733e390b352","system_id":"levelo_inurba_marseille","lat":43.31891,"lon":5.40735,"is_reserved":false,"is_disabled":false,"rental_uris":{"android":"levelo://app?vid=8e5ae0b1-8e84-4ee8-a954-9733e390b352","ios":"levelo://app?vid=8e5ae0b1-8e84-4ee8-a954-9733e390b352"},"vehicle_type_id":"4","last_reported":1740467361,"current_range_meters":12400,"station_id":"ce4bhq12rcd13ifvqhig","pricing_plan_id":"cebpf4jnsgd1na2vs0mg"},{"bike_id":"03c502df-c0d3-4ad7-b038-d3923b426e2e","system_id":"levelo_inurba_marseille","lat":43.29398,"lon":5.38624,"is_reserved":false,"is_disabled":true,"rental_uris":{"android":"levelo://app?vid=03c502df-c0d3-4ad7-b038-d3923b426e2e","ios":"levelo://app?vid=03c502df-c0d3-4ad7-b038-d3923b426e2e"},"vehicle_type_id":"4","last_reported":1740467361,"current_range_meters":12400,"station_id":"ce4bh2h2rcd13ifvqdh0","pricing_plan_id":"cebpf4jnsgd1na2vs0mg"},{"bike_id":"7572fcd6-7f47-455c-9877-bc51b21c0d53","system_id":"levelo_inurba_marseille","lat":43.31761,"lon":5.39019,"is_reserved":false,"is_disabled":false,"rental_uris":{"android":"levelo://app?vid=7572fcd6-7f47-455c-9877-bc51b21c0d53","ios":"levelo://app?vid=7572fcd6-7f47-455c-9877-bc51b21c0d53"},"vehicle_type_id":"4","last_reported":1740467361,"current_range_meters":12800,"station_id":"","pricing_plan_id":"cebpf4jnsgd1na2vs0mg"},{"bike_id":"3f829bd6-f581-476f-a913-569e0da2dc79","system_id":"levelo_inurba_marseille","lat":43.2757,"lon":5.42352,"is_reserved":false,"is_disabled":false,"rental_uris":{"android":"levelo://app?vid=3f829bd6-f581-476f-a913-569e0da2dc79","ios":"levelo://app?vid=3f829bd6-f581-476f-a913-569e0da2dc79"},"vehicle_type_id":"4","last_reported":1740467361,"current_range_meters":12800,"station_id":"","pricing_plan_id":"cebpf4jnsgd1na2vs0mg"},{"bike_id":"de54b84e-d754-4cf9-97ed-7d6cd44576a6","system_id":"levelo_inurba_marseille","lat":43.27811,"lon":5.40709,"is_reserved":false,"is_disabled":false,"rental_uris":{"android":"levelo://app?vid=de54b84e-d754-4cf9-97ed-7d6cd44576a6","ios":"levelo://app?vid=de54b84e-d754-4cf9-97ed-7d6cd44576a6"},"vehicle_type_id":"4","last_reported":1740467361,"current_range_meters":12800,"station_id":"ce4bhnh2rcd13ifvqgtg","pricing_plan_id":"cebpf4jnsgd1na2vs0mg"},{"bike_id":"05f51bd6-bf8c-4b6c-ba2f-d7bf7cec3006","system_id":"levelo_inurba_marseille","lat":43.23192,"lon":5.35577,"is_reserved":false,"is_disabled":false,"rental_uris":{"android":"levelo://app?vid=05f51bd6-bf8c-4b6c-ba2f-d7bf7cec3006","ios":"levelo://app?vid=05f51bd6-bf8c-4b6c-ba2f-d7bf7cec3006"},"vehicle_type_id":"4","last_reported":1740467361,"current_range_meters":13600,"station_id":"ce4bhu92rcd13ifvqi70","pricing_plan_id":"cebpf4jnsgd1na2vs0mg"},{"bike_id":"bdab8f76-173c-4352-a76a-b3044b51edfd","system_id":"levelo_inurba_marseille","lat":43.28286,"lon":5.35094,"is_reserved":false,"is_disabled":false,"rental_uris":{"android":"levelo://app?vid=bdab8f76-173c-4352-a76a-b3044b51edfd","ios":"levelo://app?vid=bdab8f76-173c-4352-a76a-b3044b51edfd"},"vehicle_type_id":"4","last_reported":1740467361,"current_range_meters":13600,"station_id":"ce4bhbp2rcd13ifvqerg","pricing_plan_id":"cebpf4jnsgd1na2vs0mg"},{"bike_id":"92ed7cef-280a-478a-a395-78128812bf52","system_id":"levelo_inurba_marseille","lat":43.28483,"lon":5.38458,"is_reserved":false,"is_disabled":true,"rental_uris":{"android":"levelo://app?vid=92ed7cef-280a-478a-a395-78128812bf52","ios":"levelo://app?vid=92ed7cef-280a-478a-a395-78128812bf52"},"vehicle_type_id":"4","last_reported":1740467361,"current_range_meters":13600,"station_id":"ce4bh512rcd13ifvqe3g","pricing_plan_id":"cebpf4jnsgd1na2vs0mg"},{"bike_id":"1c2f3bdc-68fa-40a8-b99e-fcf41f32f9e4","system_id":"levelo_inurba_marseille","lat":43.29213,"lon":5.40493,"is_reserved":false,"is_disabled":false,"rental_uris":{"android":"levelo://app?vid=1c2f3bdc-68fa-40a8-b99e-fcf41f32f9e4","ios":"levelo://app?vid=1c2f3bdc-68fa-40a8-b99e-fcf41f32f9e4"},"vehicle_type_id":"4","last_reported":1740467361,"current_range_meters":14000,"station_id":"","pricing_plan_id":"cebpf4jnsgd1na2vs0mg"},{"bike_id":"c33dc554-6ec4-498e-a373-244da71a4042","system_id":"levelo_inurba_marseille","lat":43.28421,"lon":5.34994,"is_reserved":false,"is_disabled":false,"rental_uris":{"android":"levelo://app?vid=c33dc554-6ec4-498e-a373-244da71a4042","ios":"levelo://app?vid=c33dc554-6ec4-498e-a373-244da71a4042"},"vehicle_type_id":"4","last_reported":1740467361,"current_range_meters":14000,"station_id":"ce4bhbh2rcd13ifvqepg","pricing_plan_id":"cebpf4jnsgd1na2vs0mg"},{"bike_id":"8dad1fa7-3689-4d8c-9eeb-4cdbf5705179","system_id":"levelo_inurba_marseille","lat":43.292264,"lon":5.360568,"is_reserved":false,"is_disabled":false,"rental_uris":{"android":"levelo://app?vid=8dad1fa7-3689-4d8c-9eeb-4cdbf5705179","ios":"levelo://app?vid=8dad1fa7-3689-4d8c-9eeb-4cdbf5705179"},"vehicle_type_id":"4","last_reported":1740467361,"current_range_meters":14400,"station_id":"ce4bhbh2rcd13ifvqeqg","pricing_plan_id":"cebpf4jnsgd1na2vs0mg"},{"bike_id":"8fadb97d-7b28-4b55-9215-38c3c6032a44","system_id":"levelo_inurba_marseille","lat":43.29851,"lon":5.36286,"is_reserved":false,"is_disabled":false,"rental_uris":{"android":"levelo://app?vid=8fadb97d-7b28-4b55-9215-38c3c6032a44","ios":"levelo://app?vid=8fadb97d-7b28-4b55-9215-38c3c6032a44"},"vehicle_type_id":"4","last_reported":1740467361,"current_range_meters":14400,"station_id":"ce4bgpp2rcd13ifvqc3g","pricing_plan_id":"cebpf4jnsgd1na2vs0mg"},{"bike_id":"feaf828b-69bb-475d-99f2-4f4c90e915ba","system_id":"levelo_inurba_marseille","lat":43.298004,"lon":5.380946,"is_reserved":false,"is_disabled":false,"rental_uris":{"android":"levelo://app?vid=feaf828b-69bb-475d-99f2-4f4c90e915ba","ios":"levelo://app?vid=feaf828b-69bb-475d-99f2-4f4c90e915ba"},"vehicle_type_id":"4","last_reported":1740467361,"current_range_meters":14400,"station_id":"ce4bgip2rcd13ifvqbb0","pricing_plan_id":"cebpf4jnsgd1na2vs0mg"},{"bike_id":"f5199c91-a04d-4ab5-975e-7a0c1c29ef09","system_id":"levelo_inurba_marseille","lat":43.32104,"lon":5.36801,"is_reserved":false,"is_disabled":false,"rental_uris":{"android":"levelo://app?vid=f5199c91-a04d-4ab5-975e-7a0c1c29ef09","ios":"levelo://app?vid=f5199c91-a04d-4ab5-975e-7a0c1c29ef09"},"vehicle_type_id":"4","last_reported":1740467361,"current_range_meters":14400,"station_id":"ce4bhrh2rcd13ifvqhug","pricing_plan_id":"cebpf4jnsgd1na2vs0mg"},{"bike_id":"19730259-ec17-4ead-b919-8956aceea1ab","system_id":"levelo_inurba_marseille","lat":43.25075,"lon":5.39533,"is_reserved":false,"is_disabled":false,"rental_uris":{"android":"levelo://app?vid=19730259-ec17-4ead-b919-8956aceea1ab","ios":"levelo://app?vid=19730259-ec17-4ead-b919-8956aceea1ab"},"vehicle_type_id":"4","last_reported":1740467361,"current_range_meters":14800,"station_id":"ce4bhm12rcd13ifvqgkg","pricing_plan_id":"cebpf4jnsgd1na2vs0mg"},{"bike_id":"349f5903-a8ea-43df-9eaa-929a166b47b3","system_id":"levelo_inurba_marseille","lat":43.2658,"lon":5.39035,"is_reserved":false,"is_disabled":false,"rental_uris":{"android":"levelo://app?vid=349f5903-a8ea-43df-9eaa-929a166b47b3","ios":"levelo://app?vid=349f5903-a8ea-43df-9eaa-929a166b47b3"},"vehicle_type_id":"4","last_reported":1740467361,"current_range_meters":14800,"station_id":"ce4bhe12rcd13ifvqf30","pricing_plan_id":"cebpf4jnsgd1na2vs0mg"},{"bike_id":"9062f7b6-9c81-49b8-a1bd-5df58202afcd","system_id":"levelo_inurba_marseille","lat":43.31669,"lon":5.43691,"is_reserved":false,"is_disabled":false,"rental_uris":{"android":"levelo://app?vid=9062f7b6-9c81-49b8-a1bd-5df58202afcd","ios":"levelo://app?vid=9062f7b6-9c81-49b8-a1bd-5df58202afcd"},"vehicle_type_id":"4","last_reported":1740467361,"current_range_meters":14800,"station_id":"ce4bhp92rcd13ifvqhcg","pricing_plan_id":"cebpf4jnsgd1na2vs0mg"},{"bike_id":"8514fc45-931a-4d33-8ebd-119ca23a33dc","system_id":"levelo_inurba_marseille","lat":43.27816,"lon":5.40723,"is_reserved":false,"is_disabled":false,"rental_uris":{"android":"levelo://app?vid=8514fc45-931a-4d33-8ebd-119ca23a33dc","ios":"levelo://app?vid=8514fc45-931a-4d33-8ebd-119ca23a33dc"},"vehicle_type_id":"4","last_reported":1740467361,"current_range_meters":14800,"station_id":"ce4bhnh2rcd13ifvqgtg","pricing_plan_id":"cebpf4jnsgd1na2vs0mg"},{"bike_id":"7c45866a-bd99-4c12-9747-66203f12a96e","system_id":"levelo_inurba_marseille","lat":43.23153,"lon":5.35514,"is_reserved":false,"is_disabled":false,"rental_uris":{"android":"levelo://app?vid=7c45866a-bd99-4c12-9747-66203f12a96e","ios":"levelo://app?vid=7c45866a-bd99-4c12-9747-66203f12a96e"},"vehicle_type_id":"4","last_reported":1740467361,"current_range_meters":14800,"station_id":"","pricing_plan_id":"cebpf4jnsgd1na2vs0mg"},{"bike_id":"6bb7a600-4627-48d6-a6ba-24a72f10b0e3","system_id":"levelo_inurba_marseille","lat":43.23204,"lon":5.43735,"is_reserved":false,"is_disabled":false,"rental_uris":{"android":"levelo://app?vid=6bb7a600-4627-48d6-a6ba-24a72f10b0e3","ios":"levelo://app?vid=6bb7a600-4627-48d6-a6ba-24a72f10b0e3"},"vehicle_type_id":"4","last_reported":1740467361,"current_range_meters":14800,"station_id":"ce4bhmp2rcd13ifvqgog","pricing_plan_id":"cebpf4jnsgd1na2vs0mg"},{"bike_id":"85c2527d-8842-4b50-af2c-b53d2bb2a9ec","system_id":"levelo_inurba_marseille","lat":43.311646,"lon":5.402516,"is_reserved":false,"is_disabled":false,"rental_uris":{"android":"levelo://app?vid=85c2527d-8842-4b50-af2c-b53d2bb2a9ec","ios":"levelo://app?vid=85c2527d-8842-4b50-af2c-b53d2bb2a9ec"},"vehicle_type_id":"4","last_reported":1740467361,"current_range_meters":16000,"station_id":"ce4bh092rcd13ifvqd30","pricing_plan_id":"cebpf4jnsgd1na2vs0mg"},{"bike_id":"aff7a8a1-5476-44b3-8b23-aa5705650095","system_id":"levelo_inurba_marseille","lat":43.29528,"lon":5.39415,"is_reserved":false,"is_disabled":false,"rental_uris":{"android":"levelo://app?vid=aff7a8a1-5476-44b3-8b23-aa5705650095","ios":"levelo://app?vid=aff7a8a1-5476-44b3-8b23-aa5705650095"},"vehicle_type_id":"4","last_reported":1740467361,"current_range_meters":15200,"station_id":"ce4bh292rcd13ifvqdf0","pricing_plan_id":"cebpf4jnsgd1na2vs0mg"},{"bike_id":"c007a889-e986-47ec-9c9e-762017715340","system_id":"levelo_inurba_marseille","lat":43.2981,"lon":5.38093,"is_reserved":false,"is_disabled":false,"rental_uris":{"android":"levelo://app?vid=c007a889-e986-47ec-9c9e-762017715340","ios":"levelo://app?vid=c007a889-e986-47ec-9c9e-762017715340"},"vehicle_type_id":"4","last_reported":1740467361,"current_range_meters":14800,"station_id":"ce4bgip2rcd13ifvqbb0","pricing_plan_id":"cebpf4jnsgd1na2vs0mg"},{"bike_id":"63d2dc5a-e03c-4909-9269-36c39633100a","system_id":"levelo_inurba_marseille","lat":43.28421,"lon":5.34993,"is_reserved":false,"is_disabled":true,"rental_uris":{"android":"levelo://app?vid=63d2dc5a-e03c-4909-9269-36c39633100a","ios":"levelo://app?vid=63d2dc5a-e03c-4909-9269-36c39633100a"},"vehicle_type_id":"4","last_reported":1740467361,"current_range_meters":15200,"station_id":"ce4bhbh2rcd13ifvqepg","pricing_plan_id":"cebpf4jnsgd1na2vs0mg"},{"bike_id":"3a024724-09ec-4650-9cff-3a045622eaba","system_id":"levelo_inurba_marseille","lat":43.27501,"lon":5.42468,"is_reserved":false,"is_disabled":false,"rental_uris":{"android":"levelo://app?vid=3a024724-09ec-4650-9cff-3a045622eaba","ios":"levelo://app?vid=3a024724-09ec-4650-9cff-3a045622eaba"},"vehicle_type_id":"4","last_reported":1740467361,"current_range_meters":15200,"station_id":"ce4bhn92rcd13ifvqgrg","pricing_plan_id":"cebpf4jnsgd1na2vs0mg"},{"bike_id":"3ca12e5b-bc10-471e-b621-aa59335cc3bb","system_id":"levelo_inurba_marseille","lat":43.29531,"lon":5.40767,"is_reserved":false,"is_disabled":false,"rental_uris":{"android":"levelo://app?vid=3ca12e5b-bc10-471e-b621-aa59335cc3bb","ios":"levelo://app?vid=3ca12e5b-bc10-471e-b621-aa59335cc3bb"},"vehicle_type_id":"4","last_reported":1740467361,"current_range_meters":16000,"station_id":"","pricing_plan_id":"cebpf4jnsgd1na2vs0mg"},{"bike_id":"db8f7a43-768b-45ca-9dfa-098c5d9697d5","system_id":"levelo_inurba_marseille","lat":43.28861,"lon":5.35826,"is_reserved":false,"is_disabled":false,"rental_uris":{"android":"levelo://app?vid=db8f7a43-768b-45ca-9dfa-098c5d9697d5","ios":"levelo://app?vid=db8f7a43-768b-45ca-9dfa-098c5d9697d5"},"vehicle_type_id":"4","last_reported":1740467361,"current_range_meters":15200,"station_id":"ce4bhb12rcd13ifvqem0","pricing_plan_id":"cebpf4jnsgd1na2vs0mg"},{"bike_id":"e24a14ec-8c24-4379-b790-8343ce5ffb2a","system_id":"levelo_inurba_marseille","lat":43.28718,"lon":5.37936,"is_reserved":false,"is_disabled":false,"rental_uris":{"android":"levelo://app?vid=e24a14ec-8c24-4379-b790-8343ce5ffb2a","ios":"levelo://app?vid=e24a14ec-8c24-4379-b790-8343ce5ffb2a"},"vehicle_type_id":"4","last_reported":1740467361,"current_range_meters":15200,"station_id":"ce4bh9p2rcd13ifvqec0","pricing_plan_id":"cebpf4jnsgd1na2vs0mg"},{"bike_id":"fb352528-6dce-483c-a4f0-c367df3759b9","system_id":"levelo_inurba_marseille","lat":43.29058,"lon":5.37549,"is_reserved":false,"is_disabled":true,"rental_uris":{"android":"levelo://app?vid=fb352528-6dce-483c-a4f0-c367df3759b9","ios":"levelo://app?vid=fb352528-6dce-483c-a4f0-c367df3759b9"},"vehicle_type_id":"4","last_reported":1740467361,"current_range_meters":15200,"station_id":"ce4bh692rcd13ifvqe90","pricing_plan_id":"cebpf4jnsgd1na2vs0mg"},{"bike_id":"6f9eb619-ce1a-440a-9085-673242f78425","system_id":"levelo_inurba_marseille","lat":43.29496,"lon":5.37529,"is_reserved":false,"is_disabled":true,"rental_uris":{"android":"levelo://app?vid=6f9eb619-ce1a-440a-9085-673242f78425","ios":"levelo://app?vid=6f9eb619-ce1a-440a-9085-673242f78425"},"vehicle_type_id":"4","last_reported":1740467361,"current_range_meters":16000,"station_id":"","pricing_plan_id":"cebpf4jnsgd1na2vs0mg"},{"bike_id":"46455735-1dab-4610-8eb6-3c16d93ce19b","system_id":"levelo_inurba_marseille","lat":43.27941,"lon":5.41036,"is_reserved":false,"is_disabled":false,"rental_uris":{"android":"levelo://app?vid=46455735-1dab-4610-8eb6-3c16d93ce19b","ios":"levelo://app?vid=46455735-1dab-4610-8eb6-3c16d93ce19b"},"vehicle_type_id":"4","last_reported":1740467361,"current_range_meters":16000,"station_id":"ce4bhnp2rcd13ifvqh0g","pricing_plan_id":"cebpf4jnsgd1na2vs0mg"},{"bike_id":"99a6215f-6506-4f6e-9c5e-ddad7f4be2a5","system_id":"levelo_inurba_marseille","lat":43.29929,"lon":5.43748,"is_reserved":false,"is_disabled":false,"rental_uris":{"android":"levelo://app?vid=99a6215f-6506-4f6e-9c5e-ddad7f4be2a5","ios":"levelo://app?vid=99a6215f-6506-4f6e-9c5e-ddad7f4be2a5"},"vehicle_type_id":"4","last_reported":1740467361,"current_range_meters":16000,"station_id":"","pricing_plan_id":"cebpf4jnsgd1na2vs0mg"},{"bike_id":"d9cd0b24-d8d3-4c55-90c0-4ef5893eee0c","system_id":"levelo_inurba_marseille","lat":43.25014,"lon":5.38954,"is_reserved":false,"is_disabled":false,"rental_uris":{"android":"levelo://app?vid=d9cd0b24-d8d3-4c55-90c0-4ef5893eee0c","ios":"levelo://app?vid=d9cd0b24-d8d3-4c55-90c0-4ef5893eee0c"},"vehicle_type_id":"4","last_reported":1740467361,"current_range_meters":16000,"station_id":"ce4bhgp2rcd13ifvqfd0","pricing_plan_id":"cebpf4jnsgd1na2vs0mg"},{"bike_id":"14265cdc-575d-44eb-9a25-21f877c3c2b4","system_id":"levelo_inurba_marseille","lat":43.2885,"lon":5.35887,"is_reserved":false,"is_disabled":false,"rental_uris":{"android":"levelo://app?vid=14265cdc-575d-44eb-9a25-21f877c3c2b4","ios":"levelo://app?vid=14265cdc-575d-44eb-9a25-21f877c3c2b4"},"vehicle_type_id":"4","last_reported":1740467361,"current_range_meters":16400,"station_id":"ce4bhb12rcd13ifvqem0","pricing_plan_id":"cebpf4jnsgd1na2vs0mg"},{"bike_id":"627c86a0-8b9f-43e1-a9d6-6885334f0c42","system_id":"levelo_inurba_marseille","lat":43.27569,"lon":5.38428,"is_reserved":false,"is_disabled":false,"rental_uris":{"android":"levelo://app?vid=627c86a0-8b9f-43e1-a9d6-6885334f0c42","ios":"levelo://app?vid=627c86a0-8b9f-43e1-a9d6-6885334f0c42"},"vehicle_type_id":"4","last_reported":1740467361,"current_range_meters":16400,"station_id":"ce4bhh92rcd13ifvqfi0","pricing_plan_id":"cebpf4jnsgd1na2vs0mg"},{"bike_id":"8140536f-d4f8-472f-83af-0e094b3f960a","system_id":"levelo_inurba_marseille","lat":43.31087,"lon":5.42426,"is_reserved":false,"is_disabled":false,"rental_uris":{"android":"levelo://app?vid=8140536f-d4f8-472f-83af-0e094b3f960a","ios":"levelo://app?vid=8140536f-d4f8-472f-83af-0e094b3f960a"},"vehicle_type_id":"4","last_reported":1740467361,"current_range_meters":16400,"station_id":"ce4bhp92rcd13ifvqhag","pricing_plan_id":"cebpf4jnsgd1na2vs0mg"},{"bike_id":"e98c600c-c19c-4134-b575-3a6f7b8a2521","system_id":"levelo_inurba_marseille","lat":43.3256,"lon":5.41465,"is_reserved":false,"is_disabled":false,"rental_uris":{"android":"levelo://app?vid=e98c600c-c19c-4134-b575-3a6f7b8a2521","ios":"levelo://app?vid=e98c600c-c19c-4134-b575-3a6f7b8a2521"},"vehicle_type_id":"4","last_reported":1740467361,"current_range_meters":16400,"station_id":"ce4bhq12rcd13ifvqhhg","pricing_plan_id":"cebpf4jnsgd1na2vs0mg"},{"bike_id":"eea46f47-e6ec-4c1d-a173-6d051008e29b","system_id":"levelo_inurba_marseille","lat":43.31871,"lon":5.40764,"is_reserved":false,"is_disabled":false,"rental_uris":{"android":"levelo://app?vid=eea46f47-e6ec-4c1d-a173-6d051008e29b","ios":"levelo://app?vid=eea46f47-e6ec-4c1d-a173-6d051008e29b"},"vehicle_type_id":"4","last_reported":1740467361,"current_range_meters":16400,"station_id":"ce4bhq12rcd13ifvqhig","pricing_plan_id":"cebpf4jnsgd1na2vs0mg"},{"bike_id":"67462c7c-fcd4-47dc-94d8-9d7a33d5da2f","system_id":"levelo_inurba_marseille","lat":43.27951,"lon":5.4103,"is_reserved":false,"is_disabled":false,"rental_uris":{"android":"levelo://app?vid=67462c7c-fcd4-47dc-94d8-9d7a33d5da2f","ios":"levelo://app?vid=67462c7c-fcd4-47dc-94d8-9d7a33d5da2f"},"vehicle_type_id":"4","last_reported":1740467361,"current_range_meters":16400,"station_id":"ce4bhnp2rcd13ifvqh0g","pricing_plan_id":"cebpf4jnsgd1na2vs0mg"},{"bike_id":"7951ec82-c1c3-436f-b4bb-ea3dd1dc5ab6","system_id":"levelo_inurba_marseille","lat":43.2861,"lon":5.35108,"is_reserved":false,"is_disabled":false,"rental_uris":{"android":"levelo://app?vid=7951ec82-c1c3-436f-b4bb-ea3dd1dc5ab6","ios":"levelo://app?vid=7951ec82-c1c3-436f-b4bb-ea3dd1dc5ab6"},"vehicle_type_id":"4","last_reported":1740467361,"current_range_meters":16800,"station_id":"ce4bhch2rcd13ifvqeug","pricing_plan_id":"cebpf4jnsgd1na2vs0mg"},{"bike_id":"dc2b749f-af66-444f-8308-a1a30fc79d06","system_id":"levelo_inurba_marseille","lat":43.28822,"lon":5.35865,"is_reserved":false,"is_disabled":false,"rental_uris":{"android":"levelo://app?vid=dc2b749f-af66-444f-8308-a1a30fc79d06","ios":"levelo://app?vid=dc2b749f-af66-444f-8308-a1a30fc79d06"},"vehicle_type_id":"4","last_reported":1740467361,"current_range_meters":16800,"station_id":"ce4bhb12rcd13ifvqem0","pricing_plan_id":"cebpf4jnsgd1na2vs0mg"},{"bike_id":"b88eacd3-d4a6-48a7-b627-0437cce04f85","system_id":"levelo_inurba_marseille","lat":43.29231,"lon":5.39342,"is_reserved":false,"is_disabled":false,"rental_uris":{"android":"levelo://app?vid=b88eacd3-d4a6-48a7-b627-0437cce04f85","ios":"levelo://app?vid=b88eacd3-d4a6-48a7-b627-0437cce04f85"},"vehicle_type_id":"4","last_reported":1740467361,"current_range_meters":16800,"station_id":"","pricing_plan_id":"cebpf4jnsgd1na2vs0mg"},{"bike_id":"5b05002f-7e6a-4c47-97c7-0858f4fd1ce4","system_id":"levelo_inurba_marseille","lat":43.28947,"lon":5.36618,"is_reserved":false,"is_disabled":false,"rental_uris":{"android":"levelo://app?vid=5b05002f-7e6a-4c47-97c7-0858f4fd1ce4","ios":"levelo://app?vid=5b05002f-7e6a-4c47-97c7-0858f4fd1ce4"},"vehicle_type_id":"4","last_reported":1740467361,"current_range_meters":16800,"station_id":"ce4bhap2rcd13ifvqek0","pricing_plan_id":"cebpf4jnsgd1na2vs0mg"},{"bike_id":"45ae883b-0aff-454b-a2be-e94342b6f471","system_id":"levelo_inurba_marseille","lat":43.28342,"lon":5.38112,"is_reserved":false,"is_disabled":false,"rental_uris":{"android":"levelo://app?vid=45ae883b-0aff-454b-a2be-e94342b6f471","ios":"levelo://app?vid=45ae883b-0aff-454b-a2be-e94342b6f471"},"vehicle_type_id":"4","last_reported":1740467361,"current_range_meters":16800,"station_id":"ce4bh412rcd13ifvqdr0","pricing_plan_id":"cebpf4jnsgd1na2vs0mg"},{"bike_id":"efaf7bd0-5a73-4fa2-b952-a2c6794d31b2","system_id":"levelo_inurba_marseille","lat":43.31708,"lon":5.3779,"is_reserved":false,"is_disabled":false,"rental_uris":{"android":"levelo://app?vid=efaf7bd0-5a73-4fa2-b952-a2c6794d31b2","ios":"levelo://app?vid=efaf7bd0-5a73-4fa2-b952-a2c6794d31b2"},"vehicle_type_id":"4","last_reported":1740467361,"current_range_meters":16800,"station_id":"ce4bgth2rcd13ifvqch0","pricing_plan_id":"cebpf4jnsgd1na2vs0mg"},{"bike_id":"97b32ca9-0b6b-4e41-8c58-cfffa4bec840","system_id":"levelo_inurba_marseille","lat":43.31126,"lon":5.37754,"is_reserved":false,"is_disabled":false,"rental_uris":{"android":"levelo://app?vid=97b32ca9-0b6b-4e41-8c58-cfffa4bec840","ios":"levelo://app?vid=97b32ca9-0b6b-4e41-8c58-cfffa4bec840"},"vehicle_type_id":"4","last_reported":1740467361,"current_range_meters":16800,"station_id":"ce4bgt92rcd13ifvqcg0","pricing_plan_id":"cebpf4jnsgd1na2vs0mg"},{"bike_id":"25f145ee-a8af-40ae-879d-80306a54baeb","system_id":"levelo_inurba_marseille","lat":43.25932,"lon":5.4091,"is_reserved":false,"is_disabled":false,"rental_uris":{"android":"levelo://app?vid=25f145ee-a8af-40ae-879d-80306a54baeb","ios":"levelo://app?vid=25f145ee-a8af-40ae-879d-80306a54baeb"},"vehicle_type_id":"4","last_reported":1740467361,"current_range_meters":17200,"station_id":"ce4bhm92rcd13ifvqglg","pricing_plan_id":"cebpf4jnsgd1na2vs0mg"},{"bike_id":"b219d088-6ffd-4279-ae35-e195f4fd56d3","system_id":"levelo_inurba_marseille","lat":43.30546,"lon":5.36709,"is_reserved":false,"is_disabled":false,"rental_uris":{"android":"levelo://app?vid=b219d088-6ffd-4279-ae35-e195f4fd56d3","ios":"levelo://app?vid=b219d088-6ffd-4279-ae35-e195f4fd56d3"},"vehicle_type_id":"4","last_reported":1740467361,"current_range_meters":27600,"station_id":"ce4bgrp2rcd13ifvqc9g","pricing_plan_id":"cebpf4jnsgd1na2vs0mg"},{"bike_id":"c3eaf577-384f-49be-90a6-7d88e2904d90","system_id":"levelo_inurba_marseille","lat":43.33612,"lon":5.41015,"is_reserved":false,"is_disabled":true,"rental_uris":{"android":"levelo://app?vid=c3eaf577-384f-49be-90a6-7d88e2904d90","ios":"levelo://app?vid=c3eaf577-384f-49be-90a6-7d88e2904d90"},"vehicle_type_id":"4","last_reported":1740467361,"current_range_meters":17200,"station_id":"ce4bhqh2rcd13ifvqhmg","pricing_plan_id":"cebpf4jnsgd1na2vs0mg"},{"bike_id":"e76d50e1-e4da-4728-90f2-cbd52cd47194","system_id":"levelo_inurba_marseille","lat":43.3091,"lon":5.36848,"is_reserved":false,"is_disabled":false,"rental_uris":{"android":"levelo://app?vid=e76d50e1-e4da-4728-90f2-cbd52cd47194","ios":"levelo://app?vid=e76d50e1-e4da-4728-90f2-cbd52cd47194"},"vehicle_type_id":"4","last_reported":1740467361,"current_range_meters":17200,"station_id":"ce4bgn92rcd13ifvqbvg","pricing_plan_id":"cebpf4jnsgd1na2vs0mg"},{"bike_id":"b10f4bdc-0033-4aeb-9042-7b7c9da01b7f","system_id":"levelo_inurba_marseille","lat":43.31709,"lon":5.37734,"is_reserved":false,"is_disabled":false,"rental_uris":{"android":"levelo://app?vid=b10f4bdc-0033-4aeb-9042-7b7c9da01b7f","ios":"levelo://app?vid=b10f4bdc-0033-4aeb-9042-7b7c9da01b7f"},"vehicle_type_id":"4","last_reported":1740467361,"current_range_meters":17200,"station_id":"ce4bgth2rcd13ifvqch0","pricing_plan_id":"cebpf4jnsgd1na2vs0mg"},{"bike_id":"6ab61c77-2b78-4944-929b-3625fab47136","system_id":"levelo_inurba_marseille","lat":43.28716,"lon":5.36098,"is_reserved":false,"is_disabled":false,"rental_uris":{"android":"levelo://app?vid=6ab61c77-2b78-4944-929b-3625fab47136","ios":"levelo://app?vid=6ab61c77-2b78-4944-929b-3625fab47136"},"vehicle_type_id":"4","last_reported":1740467361,"current_range_meters":17600,"station_id":"cki0cbj6b192h4jlfktg","pricing_plan_id":"cebpf4jnsgd1na2vs0mg"},{"bike_id":"a1b8e7c3-b150-4c5e-9e62-2e4d84b61760","system_id":"levelo_inurba_marseille","lat":43.30335,"lon":5.40437,"is_reserved":false,"is_disabled":false,"rental_uris":{"android":"levelo://app?vid=a1b8e7c3-b150-4c5e-9e62-2e4d84b61760","ios":"levelo://app?vid=a1b8e7c3-b150-4c5e-9e62-2e4d84b61760"},"vehicle_type_id":"4","last_reported":1740467361,"current_range_meters":17600,"station_id":"","pricing_plan_id":"cebpf4jnsgd1na2vs0mg"},{"bike_id":"5b45530c-941d-4378-a54f-84144add4495","system_id":"levelo_inurba_marseille","lat":43.2901,"lon":5.35621,"is_reserved":false,"is_disabled":false,"rental_uris":{"android":"levelo://app?vid=5b45530c-941d-4378-a54f-84144add4495","ios":"levelo://app?vid=5b45530c-941d-4378-a54f-84144add4495"},"vehicle_type_id":"4","last_reported":1740467361,"current_range_meters":17600,"station_id":"ce4bhb92rcd13ifvqen0","pricing_plan_id":"cebpf4jnsgd1na2vs0mg"},{"bike_id":"cd047676-122f-4bb7-80e4-87ff5dc4eef5","system_id":"levelo_inurba_marseille","lat":43.29587,"lon":5.38111,"is_reserved":false,"is_disabled":false,"rental_uris":{"android":"levelo://app?vid=cd047676-122f-4bb7-80e4-87ff5dc4eef5","ios":"levelo://app?vid=cd047676-122f-4bb7-80e4-87ff5dc4eef5"},"vehicle_type_id":"4","last_reported":1740467361,"current_range_meters":17600,"station_id":"ce4bgl12rcd13ifvqbo0","pricing_plan_id":"cebpf4jnsgd1na2vs0mg"},{"bike_id":"2d50fb33-49cb-450e-a873-325ea39b74f3","system_id":"levelo_inurba_marseille","lat":43.29701,"lon":5.36612,"is_reserved":false,"is_disabled":false,"rental_uris":{"android":"levelo://app?vid=2d50fb33-49cb-450e-a873-325ea39b74f3","ios":"levelo://app?vid=2d50fb33-49cb-450e-a873-325ea39b74f3"},"vehicle_type_id":"4","last_reported":1740467361,"current_range_meters":18000,"station_id":"ce4bgn12rcd13ifvqbt0","pricing_plan_id":"cebpf4jnsgd1na2vs0mg"},{"bike_id":"c3d0fefa-5db4-49bd-a964-1a22da440d36","system_id":"levelo_inurba_marseille","lat":43.269559,"lon":5.386313,"is_reserved":false,"is_disabled":false,"rental_uris":{"android":"levelo://app?vid=c3d0fefa-5db4-49bd-a964-1a22da440d36","ios":"levelo://app?vid=c3d0fefa-5db4-49bd-a964-1a22da440d36"},"vehicle_type_id":"4","last_reported":1740467361,"current_range_meters":17600,"station_id":"","pricing_plan_id":"cebpf4jnsgd1na2vs0mg"},{"bike_id":"0c0c3ec7-2e40-4305-a6aa-3797e54e9e8d","system_id":"levelo_inurba_marseille","lat":43.27493,"lon":5.42466,"is_reserved":false,"is_disabled":false,"rental_uris":{"android":"levelo://app?vid=0c0c3ec7-2e40-4305-a6aa-3797e54e9e8d","ios":"levelo://app?vid=0c0c3ec7-2e40-4305-a6aa-3797e54e9e8d"},"vehicle_type_id":"4","last_reported":1740467361,"current_range_meters":18000,"station_id":"ce4bhn92rcd13ifvqgrg","pricing_plan_id":"cebpf4jnsgd1na2vs0mg"},{"bike_id":"513f5369-6cd4-46d3-beb0-aa8ba7b3fc09","system_id":"levelo_inurba_marseille","lat":43.25575,"lon":5.38278,"is_reserved":false,"is_disabled":false,"rental_uris":{"android":"levelo://app?vid=513f5369-6cd4-46d3-beb0-aa8ba7b3fc09","ios":"levelo://app?vid=513f5369-6cd4-46d3-beb0-aa8ba7b3fc09"},"vehicle_type_id":"4","last_reported":1740467361,"current_range_meters":18800,"station_id":"ce4bhih2rcd13ifvqfs0","pricing_plan_id":"cebpf4jnsgd1na2vs0mg"},{"bike_id":"08b558ae-f5c2-4f30-808a-f8a57fad3fc7","system_id":"levelo_inurba_marseille","lat":43.25084,"lon":5.39516,"is_reserved":false,"is_disabled":false,"rental_uris":{"android":"levelo://app?vid=08b558ae-f5c2-4f30-808a-f8a57fad3fc7","ios":"levelo://app?vid=08b558ae-f5c2-4f30-808a-f8a57fad3fc7"},"vehicle_type_id":"4","last_reported":1740467361,"current_range_meters":19200,"station_id":"ce4bhm12rcd13ifvqgkg","pricing_plan_id":"cebpf4jnsgd1na2vs0mg"},{"bike_id":"d3103336-2d71-4742-bf9a-d557baf6d26c","system_id":"levelo_inurba_marseille","lat":43.27494,"lon":5.42476,"is_reserved":false,"is_disabled":false,"rental_uris":{"android":"levelo://app?vid=d3103336-2d71-4742-bf9a-d557baf6d26c","ios":"levelo://app?vid=d3103336-2d71-4742-bf9a-d557baf6d26c"},"vehicle_type_id":"4","last_reported":1740467361,"current_range_meters":18800,"station_id":"ce4bhn92rcd13ifvqgrg","pricing_plan_id":"cebpf4jnsgd1na2vs0mg"},{"bike_id":"64651f69-916f-4017-b572-6e868476a483","system_id":"levelo_inurba_marseille","lat":43.24069,"lon":5.37769,"is_reserved":false,"is_disabled":false,"rental_uris":{"android":"levelo://app?vid=64651f69-916f-4017-b572-6e868476a483","ios":"levelo://app?vid=64651f69-916f-4017-b572-6e868476a483"},"vehicle_type_id":"4","last_reported":1740467361,"current_range_meters":18800,"station_id":"ce4bhnp2rcd13ifvqgvg","pricing_plan_id":"cebpf4jnsgd1na2vs0mg"},{"bike_id":"79486965-c088-498f-8f45-61ea909d33f7","system_id":"levelo_inurba_marseille","lat":43.31101,"lon":5.37763,"is_reserved":false,"is_disabled":true,"rental_uris":{"android":"levelo://app?vid=79486965-c088-498f-8f45-61ea909d33f7","ios":"levelo://app?vid=79486965-c088-498f-8f45-61ea909d33f7"},"vehicle_type_id":"4","last_reported":1740467361,"current_range_meters":18800,"station_id":"ce4bgt92rcd13ifvqcg0","pricing_plan_id":"cebpf4jnsgd1na2vs0mg"},{"bike_id":"8b955f19-a1ac-410f-bee7-a2154713c8aa","system_id":"levelo_inurba_marseille","lat":43.29038,"lon":5.39965,"is_reserved":false,"is_disabled":false,"rental_uris":{"android":"levelo://app?vid=8b955f19-a1ac-410f-bee7-a2154713c8aa","ios":"levelo://app?vid=8b955f19-a1ac-410f-bee7-a2154713c8aa"},"vehicle_type_id":"4","last_reported":1740467361,"current_range_meters":18800,"station_id":"ce4bh392rcd13ifvqdm0","pricing_plan_id":"cebpf4jnsgd1na2vs0mg"},{"bike_id":"46d93f9d-8df9-4253-ae37-efb0674aedab","system_id":"levelo_inurba_marseille","lat":43.28082,"lon":5.39656,"is_reserved":false,"is_disabled":false,"rental_uris":{"android":"levelo://app?vid=46d93f9d-8df9-4253-ae37-efb0674aedab","ios":"levelo://app?vid=46d93f9d-8df9-4253-ae37-efb0674aedab"},"vehicle_type_id":"4","last_reported":1740467361,"current_range_meters":18800,"station_id":"ce4bho12rcd13ifvqh2g","pricing_plan_id":"cebpf4jnsgd1na2vs0mg"},{"bike_id":"b01a3462-ff07-4257-83ed-af61633a4638","system_id":"levelo_inurba_marseille","lat":43.27812,"lon":5.40718,"is_reserved":false,"is_disabled":false,"rental_uris":{"android":"levelo://app?vid=b01a3462-ff07-4257-83ed-af61633a4638","ios":"levelo://app?vid=b01a3462-ff07-4257-83ed-af61633a4638"},"vehicle_type_id":"4","last_reported":1740467361,"current_range_meters":18800,"station_id":"ce4bhnh2rcd13ifvqgtg","pricing_plan_id":"cebpf4jnsgd1na2vs0mg"},{"bike_id":"44fed316-9e46-4865-b093-d76d2e74a729","system_id":"levelo_inurba_marseille","lat":43.2816,"lon":5.42642,"is_reserved":false,"is_disabled":false,"rental_uris":{"android":"levelo://app?vid=44fed316-9e46-4865-b093-d76d2e74a729","ios":"levelo://app?vid=44fed316-9e46-4865-b093-d76d2e74a729"},"vehicle_type_id":"4","last_reported":1740467361,"current_range_meters":19200,"station_id":"ce4bhnh2rcd13ifvqgug","pricing_plan_id":"cebpf4jnsgd1na2vs0mg"},{"bike_id":"9bcb6e74-9384-4520-a191-6ca3da24e600","system_id":"levelo_inurba_marseille","lat":43.2416,"lon":5.36399,"is_reserved":false,"is_disabled":false,"rental_uris":{"android":"levelo://app?vid=9bcb6e74-9384-4520-a191-6ca3da24e600","ios":"levelo://app?vid=9bcb6e74-9384-4520-a191-6ca3da24e600"},"vehicle_type_id":"4","last_reported":1740467361,"current_range_meters":19200,"station_id":"cpo36qri1sfpv3e86is0","pricing_plan_id":"cebpf4jnsgd1na2vs0mg"},{"bike_id":"acc96914-77af-4340-b02e-0ac468e8f549","system_id":"levelo_inurba_marseille","lat":43.28928,"lon":5.39634,"is_reserved":false,"is_disabled":false,"rental_uris":{"android":"levelo://app?vid=acc96914-77af-4340-b02e-0ac468e8f549","ios":"levelo://app?vid=acc96914-77af-4340-b02e-0ac468e8f549"},"vehicle_type_id":"4","last_reported":1740467361,"current_range_meters":19200,"station_id":"ce4bh3h2rcd13ifvqdn0","pricing_plan_id":"cebpf4jnsgd1na2vs0mg"},{"bike_id":"b32b8de9-9734-4e7d-8921-8bde317fc735","system_id":"levelo_inurba_marseille","lat":43.30211,"lon":5.39474,"is_reserved":false,"is_disabled":false,"rental_uris":{"android":"levelo://app?vid=b32b8de9-9734-4e7d-8921-8bde317fc735","ios":"levelo://app?vid=b32b8de9-9734-4e7d-8921-8bde317fc735"},"vehicle_type_id":"4","last_reported":1740467361,"current_range_meters":19200,"station_id":"ce4bh0p2rcd13ifvqd70","pricing_plan_id":"cebpf4jnsgd1na2vs0mg"},{"bike_id":"9c032ed8-3a3f-4e7f-8e21-11951ef3407f","system_id":"levelo_inurba_marseille","lat":43.29197,"lon":5.39328,"is_reserved":false,"is_disabled":false,"rental_uris":{"android":"levelo://app?vid=9c032ed8-3a3f-4e7f-8e21-11951ef3407f","ios":"levelo://app?vid=9c032ed8-3a3f-4e7f-8e21-11951ef3407f"},"vehicle_type_id":"4","last_reported":1740467361,"current_range_meters":19200,"station_id":"ce4bh192rcd13ifvqdd0","pricing_plan_id":"cebpf4jnsgd1na2vs0mg"},{"bike_id":"451ee27c-3053-4dad-97f9-30aa721d9def","system_id":"levelo_inurba_marseille","lat":43.27989,"lon":5.40025,"is_reserved":false,"is_disabled":false,"rental_uris":{"android":"levelo://app?vid=451ee27c-3053-4dad-97f9-30aa721d9def","ios":"levelo://app?vid=451ee27c-3053-4dad-97f9-30aa721d9def"},"vehicle_type_id":"4","last_reported":1740467361,"current_range_meters":19200,"station_id":"ce4bho92rcd13ifvqh4g","pricing_plan_id":"cebpf4jnsgd1na2vs0mg"},{"bike_id":"114038f4-ead0-4db8-9a49-34c2c851290e","system_id":"levelo_inurba_marseille","lat":43.280028,"lon":5.400103,"is_reserved":false,"is_disabled":false,"rental_uris":{"android":"levelo://app?vid=114038f4-ead0-4db8-9a49-34c2c851290e","ios":"levelo://app?vid=114038f4-ead0-4db8-9a49-34c2c851290e"},"vehicle_type_id":"4","last_reported":1740467361,"current_range_meters":19600,"station_id":"ce4bho92rcd13ifvqh4g","pricing_plan_id":"cebpf4jnsgd1na2vs0mg"},{"bike_id":"040778a6-ea71-4565-a92a-501825e1eeac","system_id":"levelo_inurba_marseille","lat":43.30467,"lon":5.37905,"is_reserved":false,"is_disabled":false,"rental_uris":{"android":"levelo://app?vid=040778a6-ea71-4565-a92a-501825e1eeac","ios":"levelo://app?vid=040778a6-ea71-4565-a92a-501825e1eeac"},"vehicle_type_id":"4","last_reported":1740467361,"current_range_meters":19200,"station_id":"ce4bgup2rcd13ifvqcn0","pricing_plan_id":"cebpf4jnsgd1na2vs0mg"},{"bike_id":"d7b86c71-089b-48f6-a952-fb6803fe85b1","system_id":"levelo_inurba_marseille","lat":43.26081,"lon":5.40339,"is_reserved":false,"is_disabled":false,"rental_uris":{"android":"levelo://app?vid=d7b86c71-089b-48f6-a952-fb6803fe85b1","ios":"levelo://app?vid=d7b86c71-089b-48f6-a952-fb6803fe85b1"},"vehicle_type_id":"4","last_reported":1740467361,"current_range_meters":19200,"station_id":"","pricing_plan_id":"cebpf4jnsgd1na2vs0mg"},{"bike_id":"0405ecb7-d759-436b-8e27-cc5f65ed09ae","system_id":"levelo_inurba_marseille","lat":43.29709,"lon":5.36617,"is_reserved":false,"is_disabled":false,"rental_uris":{"android":"levelo://app?vid=0405ecb7-d759-436b-8e27-cc5f65ed09ae","ios":"levelo://app?vid=0405ecb7-d759-436b-8e27-cc5f65ed09ae"},"vehicle_type_id":"4","last_reported":1740467361,"current_range_meters":19200,"station_id":"ce4bgn12rcd13ifvqbt0","pricing_plan_id":"cebpf4jnsgd1na2vs0mg"},{"bike_id":"3ec574c8-ac7d-4d13-b8b1-33d411d4b6ba","system_id":"levelo_inurba_marseille","lat":43.27052,"lon":5.40284,"is_reserved":false,"is_disabled":false,"rental_uris":{"android":"levelo://app?vid=3ec574c8-ac7d-4d13-b8b1-33d411d4b6ba","ios":"levelo://app?vid=3ec574c8-ac7d-4d13-b8b1-33d411d4b6ba"},"vehicle_type_id":"4","last_reported":1740467361,"current_range_meters":22000,"station_id":"ce4bhk92rcd13ifvqgc0","pricing_plan_id":"cebpf4jnsgd1na2vs0mg"},{"bike_id":"10cff094-4b43-4244-9f3f-b94b71edc737","system_id":"levelo_inurba_marseille","lat":43.30799,"lon":5.38152,"is_reserved":false,"is_disabled":false,"rental_uris":{"android":"levelo://app?vid=10cff094-4b43-4244-9f3f-b94b71edc737","ios":"levelo://app?vid=10cff094-4b43-4244-9f3f-b94b71edc737"},"vehicle_type_id":"4","last_reported":1740467361,"current_range_meters":19200,"station_id":"ce4bgt12rcd13ifvqce0","pricing_plan_id":"cebpf4jnsgd1na2vs0mg"},{"bike_id":"03f8ecf4-f41c-40ac-83df-fdda1fdc2f2e","system_id":"levelo_inurba_marseille","lat":43.32381,"lon":5.38876,"is_reserved":false,"is_disabled":false,"rental_uris":{"android":"levelo://app?vid=03f8ecf4-f41c-40ac-83df-fdda1fdc2f2e","ios":"levelo://app?vid=03f8ecf4-f41c-40ac-83df-fdda1fdc2f2e"},"vehicle_type_id":"4","last_reported":1740467361,"current_range_meters":19600,"station_id":"ce4bhqp2rcd13ifvqhog","pricing_plan_id":"cebpf4jnsgd1na2vs0mg"},{"bike_id":"0272892e-467e-40dc-90fc-cd41abbc2f30","system_id":"levelo_inurba_marseille","lat":43.28348,"lon":5.381,"is_reserved":false,"is_disabled":false,"rental_uris":{"android":"levelo://app?vid=0272892e-467e-40dc-90fc-cd41abbc2f30","ios":"levelo://app?vid=0272892e-467e-40dc-90fc-cd41abbc2f30"},"vehicle_type_id":"4","last_reported":1740467361,"current_range_meters":20400,"station_id":"ce4bh412rcd13ifvqdr0","pricing_plan_id":"cebpf4jnsgd1na2vs0mg"},{"bike_id":"7886309d-40f0-431d-8dd8-8f7d4c67cb0a","system_id":"levelo_inurba_marseille","lat":43.28266,"lon":5.3508,"is_reserved":false,"is_disabled":false,"rental_uris":{"android":"levelo://app?vid=7886309d-40f0-431d-8dd8-8f7d4c67cb0a","ios":"levelo://app?vid=7886309d-40f0-431d-8dd8-8f7d4c67cb0a"},"vehicle_type_id":"4","last_reported":1740467361,"current_range_meters":19600,"station_id":"ce4bhbp2rcd13ifvqerg","pricing_plan_id":"cebpf4jnsgd1na2vs0mg"},{"bike_id":"5e178229-fcf1-4abd-a368-826438a7340e","system_id":"levelo_inurba_marseille","lat":43.33601,"lon":5.41029,"is_reserved":false,"is_disabled":false,"rental_uris":{"android":"levelo://app?vid=5e178229-fcf1-4abd-a368-826438a7340e","ios":"levelo://app?vid=5e178229-fcf1-4abd-a368-826438a7340e"},"vehicle_type_id":"4","last_reported":1740467361,"current_range_meters":19600,"station_id":"ce4bhqh2rcd13ifvqhmg","pricing_plan_id":"cebpf4jnsgd1na2vs0mg"},{"bike_id":"3d442e47-47fa-435e-9a15-822e067cb866","system_id":"levelo_inurba_marseille","lat":43.25931,"lon":5.40907,"is_reserved":false,"is_disabled":false,"rental_uris":{"android":"levelo://app?vid=3d442e47-47fa-435e-9a15-822e067cb866","ios":"levelo://app?vid=3d442e47-47fa-435e-9a15-822e067cb866"},"vehicle_type_id":"4","last_reported":1740467361,"current_range_meters":20000,"station_id":"","pricing_plan_id":"cebpf4jnsgd1na2vs0mg"},{"bike_id":"7fdde0e1-3da1-459c-868b-d664339049ab","system_id":"levelo_inurba_marseille","lat":43.29306,"lon":5.371687,"is_reserved":false,"is_disabled":false,"rental_uris":{"android":"levelo://app?vid=7fdde0e1-3da1-459c-868b-d664339049ab","ios":"levelo://app?vid=7fdde0e1-3da1-459c-868b-d664339049ab"},"vehicle_type_id":"4","last_reported":1740467361,"current_range_meters":20000,"station_id":"ce4bgh92rcd13ifvqb40","pricing_plan_id":"cebpf4jnsgd1na2vs0mg"},{"bike_id":"a3471a43-a661-4d3e-b5d4-50cb32cac915","system_id":"levelo_inurba_marseille","lat":43.28617,"lon":5.35107,"is_reserved":false,"is_disabled":false,"rental_uris":{"android":"levelo://app?vid=a3471a43-a661-4d3e-b5d4-50cb32cac915","ios":"levelo://app?vid=a3471a43-a661-4d3e-b5d4-50cb32cac915"},"vehicle_type_id":"4","last_reported":1740467361,"current_range_meters":20400,"station_id":"ce4bhch2rcd13ifvqeug","pricing_plan_id":"cebpf4jnsgd1na2vs0mg"},{"bike_id":"bfa63be2-4a76-4e23-8137-fb3e2f6ee01e","system_id":"levelo_inurba_marseille","lat":43.29264,"lon":5.40126,"is_reserved":false,"is_disabled":true,"rental_uris":{"android":"levelo://app?vid=bfa63be2-4a76-4e23-8137-fb3e2f6ee01e","ios":"levelo://app?vid=bfa63be2-4a76-4e23-8137-fb3e2f6ee01e"},"vehicle_type_id":"4","last_reported":1740467361,"current_range_meters":20000,"station_id":"ce4bh312rcd13ifvqdk0","pricing_plan_id":"cebpf4jnsgd1na2vs0mg"},{"bike_id":"e4b61e67-5c22-4221-873e-01cee989859c","system_id":"levelo_inurba_marseille","lat":43.29889,"lon":5.43675,"is_reserved":false,"is_disabled":false,"rental_uris":{"android":"levelo://app?vid=e4b61e67-5c22-4221-873e-01cee989859c","ios":"levelo://app?vid=e4b61e67-5c22-4221-873e-01cee989859c"},"vehicle_type_id":"4","last_reported":1740467361,"current_range_meters":20000,"station_id":"ce4bhpp2rcd13ifvqhfg","pricing_plan_id":"cebpf4jnsgd1na2vs0mg"},{"bike_id":"4769aac5-9827-47ba-a73a-7f2bfe42983a","system_id":"levelo_inurba_marseille","lat":43.26386,"lon":5.3897,"is_reserved":false,"is_disabled":false,"rental_uris":{"android":"levelo://app?vid=4769aac5-9827-47ba-a73a-7f2bfe42983a","ios":"levelo://app?vid=4769aac5-9827-47ba-a73a-7f2bfe42983a"},"vehicle_type_id":"4","last_reported":1740467361,"current_range_meters":20000,"station_id":"","pricing_plan_id":"cebpf4jnsgd1na2vs0mg"},{"bike_id":"c780eb95-12e9-4626-89ea-a22fdc60d8ab","system_id":"levelo_inurba_marseille","lat":43.28176,"lon":5.42641,"is_reserved":false,"is_disabled":false,"rental_uris":{"android":"levelo://app?vid=c780eb95-12e9-4626-89ea-a22fdc60d8ab","ios":"levelo://app?vid=c780eb95-12e9-4626-89ea-a22fdc60d8ab"},"vehicle_type_id":"4","last_reported":1740467361,"current_range_meters":20000,"station_id":"ce4bhnh2rcd13ifvqgug","pricing_plan_id":"cebpf4jnsgd1na2vs0mg"},{"bike_id":"a9c06b5f-6c2f-4392-a548-0468045c24ed","system_id":"levelo_inurba_marseille","lat":43.30322,"lon":5.36909,"is_reserved":false,"is_disabled":true,"rental_uris":{"android":"levelo://app?vid=a9c06b5f-6c2f-4392-a548-0468045c24ed","ios":"levelo://app?vid=a9c06b5f-6c2f-4392-a548-0468045c24ed"},"vehicle_type_id":"4","last_reported":1740467361,"current_range_meters":20400,"station_id":"ce4bgqh2rcd13ifvqc5g","pricing_plan_id":"cebpf4jnsgd1na2vs0mg"},{"bike_id":"892f4fd2-c7ff-4988-9935-769dc7a66e6a","system_id":"levelo_inurba_marseille","lat":43.28945,"lon":5.3962,"is_reserved":false,"is_disabled":false,"rental_uris":{"android":"levelo://app?vid=892f4fd2-c7ff-4988-9935-769dc7a66e6a","ios":"levelo://app?vid=892f4fd2-c7ff-4988-9935-769dc7a66e6a"},"vehicle_type_id":"4","last_reported":1740467361,"current_range_meters":20400,"station_id":"ce4bh3h2rcd13ifvqdn0","pricing_plan_id":"cebpf4jnsgd1na2vs0mg"},{"bike_id":"e4f786ae-5498-4ba6-8a2d-88db1e045cde","system_id":"levelo_inurba_marseille","lat":43.28281,"lon":5.35104,"is_reserved":false,"is_disabled":false,"rental_uris":{"android":"levelo://app?vid=e4f786ae-5498-4ba6-8a2d-88db1e045cde","ios":"levelo://app?vid=e4f786ae-5498-4ba6-8a2d-88db1e045cde"},"vehicle_type_id":"4","last_reported":1740467361,"current_range_meters":20400,"station_id":"ce4bhbp2rcd13ifvqerg","pricing_plan_id":"cebpf4jnsgd1na2vs0mg"},{"bike_id":"e5285119-2d66-4c0f-9d9c-13982ac2e766","system_id":"levelo_inurba_marseille","lat":43.288483,"lon":5.35856,"is_reserved":false,"is_disabled":false,"rental_uris":{"android":"levelo://app?vid=e5285119-2d66-4c0f-9d9c-13982ac2e766","ios":"levelo://app?vid=e5285119-2d66-4c0f-9d9c-13982ac2e766"},"vehicle_type_id":"4","last_reported":1740467361,"current_range_meters":20400,"station_id":"ce4bhb12rcd13ifvqem0","pricing_plan_id":"cebpf4jnsgd1na2vs0mg"},{"bike_id":"f4629c6e-36fc-402c-93ca-7566da9b882d","system_id":"levelo_inurba_marseille","lat":43.27819,"lon":5.40696,"is_reserved":false,"is_disabled":false,"rental_uris":{"android":"levelo://app?vid=f4629c6e-36fc-402c-93ca-7566da9b882d","ios":"levelo://app?vid=f4629c6e-36fc-402c-93ca-7566da9b882d"},"vehicle_type_id":"4","last_reported":1740467361,"current_range_meters":20800,"station_id":"ce4bhnh2rcd13ifvqgtg","pricing_plan_id":"cebpf4jnsgd1na2vs0mg"},{"bike_id":"8b7e8afa-bd36-44f3-b7d2-192da0a2367b","system_id":"levelo_inurba_marseille","lat":43.30297,"lon":5.36882,"is_reserved":false,"is_disabled":false,"rental_uris":{"android":"levelo://app?vid=8b7e8afa-bd36-44f3-b7d2-192da0a2367b","ios":"levelo://app?vid=8b7e8afa-bd36-44f3-b7d2-192da0a2367b"},"vehicle_type_id":"4","last_reported":1740467361,"current_range_meters":20800,"station_id":"","pricing_plan_id":"cebpf4jnsgd1na2vs0mg"},{"bike_id":"f819b2f4-78f6-4522-b32f-e0fe9f57bc1f","system_id":"levelo_inurba_marseille","lat":43.254899,"lon":5.376467,"is_reserved":false,"is_disabled":false,"rental_uris":{"android":"levelo://app?vid=f819b2f4-78f6-4522-b32f-e0fe9f57bc1f","ios":"levelo://app?vid=f819b2f4-78f6-4522-b32f-e0fe9f57bc1f"},"vehicle_type_id":"4","last_reported":1740467361,"current_range_meters":20800,"station_id":"ce4bhh12rcd13ifvqff0","pricing_plan_id":"cebpf4jnsgd1na2vs0mg"},{"bike_id":"c00b9b83-f3d6-4e93-a5e8-cacce9557467","system_id":"levelo_inurba_marseille","lat":43.29594,"lon":5.38103,"is_reserved":false,"is_disabled":false,"rental_uris":{"android":"levelo://app?vid=c00b9b83-f3d6-4e93-a5e8-cacce9557467","ios":"levelo://app?vid=c00b9b83-f3d6-4e93-a5e8-cacce9557467"},"vehicle_type_id":"4","last_reported":1740467361,"current_range_meters":20800,"station_id":"ce4bgl12rcd13ifvqbo0","pricing_plan_id":"cebpf4jnsgd1na2vs0mg"},{"bike_id":"d9ca74bd-4994-40d2-a2a3-4ce115480b09","system_id":"levelo_inurba_marseille","lat":43.31355,"lon":5.3852,"is_reserved":false,"is_disabled":false,"rental_uris":{"android":"levelo://app?vid=d9ca74bd-4994-40d2-a2a3-4ce115480b09","ios":"levelo://app?vid=d9ca74bd-4994-40d2-a2a3-4ce115480b09"},"vehicle_type_id":"4","last_reported":1740467361,"current_range_meters":20800,"station_id":"ce4bgt92rcd13ifvqcf0","pricing_plan_id":"cebpf4jnsgd1na2vs0mg"},{"bike_id":"c3558330-f1af-4e0e-a458-4e1e21bac14b","system_id":"levelo_inurba_marseille","lat":43.25183,"lon":5.3746,"is_reserved":false,"is_disabled":false,"rental_uris":{"android":"levelo://app?vid=c3558330-f1af-4e0e-a458-4e1e21bac14b","ios":"levelo://app?vid=c3558330-f1af-4e0e-a458-4e1e21bac14b"},"vehicle_type_id":"4","last_reported":1740467361,"current_range_meters":21600,"station_id":"","pricing_plan_id":"cebpf4jnsgd1na2vs0mg"},{"bike_id":"25411262-23d1-41bb-a382-a545d4af1ec3","system_id":"levelo_inurba_marseille","lat":43.25112,"lon":5.40317,"is_reserved":false,"is_disabled":false,"rental_uris":{"android":"levelo://app?vid=25411262-23d1-41bb-a382-a545d4af1ec3","ios":"levelo://app?vid=25411262-23d1-41bb-a382-a545d4af1ec3"},"vehicle_type_id":"4","last_reported":1740467361,"current_range_meters":21600,"station_id":"ce4bhlh2rcd13ifvqgig","pricing_plan_id":"cebpf4jnsgd1na2vs0mg"},{"bike_id":"ce8d79e6-d746-4ac9-8421-505fbd524359","system_id":"levelo_inurba_marseille","lat":43.27491,"lon":5.42456,"is_reserved":false,"is_disabled":false,"rental_uris":{"android":"levelo://app?vid=ce8d79e6-d746-4ac9-8421-505fbd524359","ios":"levelo://app?vid=ce8d79e6-d746-4ac9-8421-505fbd524359"},"vehicle_type_id":"4","last_reported":1740467361,"current_range_meters":18800,"station_id":"","pricing_plan_id":"cebpf4jnsgd1na2vs0mg"},{"bike_id":"c0ec9620-a238-4d85-bb5d-f3f28d4be671","system_id":"levelo_inurba_marseille","lat":43.27949,"lon":5.38693,"is_reserved":false,"is_disabled":true,"rental_uris":{"android":"levelo://app?vid=c0ec9620-a238-4d85-bb5d-f3f28d4be671","ios":"levelo://app?vid=c0ec9620-a238-4d85-bb5d-f3f28d4be671"},"vehicle_type_id":"4","last_reported":1740467361,"current_range_meters":21600,"station_id":"ce4bhg12rcd13ifvqf80","pricing_plan_id":"cebpf4jnsgd1na2vs0mg"},{"bike_id":"1df32ffb-b6d0-42f0-8856-8dbb268b7110","system_id":"levelo_inurba_marseille","lat":43.31667,"lon":5.4371,"is_reserved":false,"is_disabled":false,"rental_uris":{"android":"levelo://app?vid=1df32ffb-b6d0-42f0-8856-8dbb268b7110","ios":"levelo://app?vid=1df32ffb-b6d0-42f0-8856-8dbb268b7110"},"vehicle_type_id":"4","last_reported":1740467361,"current_range_meters":21600,"station_id":"ce4bhp92rcd13ifvqhcg","pricing_plan_id":"cebpf4jnsgd1na2vs0mg"},{"bike_id":"fc22684b-1e44-4137-8eb3-8f4c97d52cb0","system_id":"levelo_inurba_marseille","lat":43.25004,"lon":5.38938,"is_reserved":false,"is_disabled":false,"rental_uris":{"android":"levelo://app?vid=fc22684b-1e44-4137-8eb3-8f4c97d52cb0","ios":"levelo://app?vid=fc22684b-1e44-4137-8eb3-8f4c97d52cb0"},"vehicle_type_id":"4","last_reported":1740467361,"current_range_meters":22000,"station_id":"ce4bhgp2rcd13ifvqfd0","pricing_plan_id":"cebpf4jnsgd1na2vs0mg"},{"bike_id":"45127abe-699f-4c02-9aab-c9892981149b","system_id":"levelo_inurba_marseille","lat":43.27169,"lon":5.40988,"is_reserved":false,"is_disabled":false,"rental_uris":{"android":"levelo://app?vid=45127abe-699f-4c02-9aab-c9892981149b","ios":"levelo://app?vid=45127abe-699f-4c02-9aab-c9892981149b"},"vehicle_type_id":"4","last_reported":1740467361,"current_range_meters":22000,"station_id":"ce4bhl12rcd13ifvqgf0","pricing_plan_id":"cebpf4jnsgd1na2vs0mg"},{"bike_id":"b425aa04-6e85-465f-914b-74da65132128","system_id":"levelo_inurba_marseille","lat":43.31072,"lon":5.38326,"is_reserved":false,"is_disabled":false,"rental_uris":{"android":"levelo://app?vid=b425aa04-6e85-465f-914b-74da65132128","ios":"levelo://app?vid=b425aa04-6e85-465f-914b-74da65132128"},"vehicle_type_id":"4","last_reported":1740467361,"current_range_meters":22400,"station_id":"ce4bgv92rcd13ifvqcr0","pricing_plan_id":"cebpf4jnsgd1na2vs0mg"},{"bike_id":"034f4946-0532-4716-bfa9-71f08dacc26e","system_id":"levelo_inurba_marseille","lat":43.28768,"lon":5.39018,"is_reserved":false,"is_disabled":false,"rental_uris":{"android":"levelo://app?vid=034f4946-0532-4716-bfa9-71f08dacc26e","ios":"levelo://app?vid=034f4946-0532-4716-bfa9-71f08dacc26e"},"vehicle_type_id":"4","last_reported":1740467361,"current_range_meters":22000,"station_id":"","pricing_plan_id":"cebpf4jnsgd1na2vs0mg"},{"bike_id":"15c9f4fb-b955-4d20-b4f9-271e528187f4","system_id":"levelo_inurba_marseille","lat":43.28156,"lon":5.4263,"is_reserved":false,"is_disabled":true,"rental_uris":{"android":"levelo://app?vid=15c9f4fb-b955-4d20-b4f9-271e528187f4","ios":"levelo://app?vid=15c9f4fb-b955-4d20-b4f9-271e528187f4"},"vehicle_type_id":"4","last_reported":1740467361,"current_range_meters":22400,"station_id":"ce4bhnh2rcd13ifvqgug","pricing_plan_id":"cebpf4jnsgd1na2vs0mg"},{"bike_id":"0a7ddea2-668b-4aee-a00b-74f8899377ad","system_id":"levelo_inurba_marseille","lat":43.23963,"lon":5.3663,"is_reserved":false,"is_disabled":false,"rental_uris":{"android":"levelo://app?vid=0a7ddea2-668b-4aee-a00b-74f8899377ad","ios":"levelo://app?vid=0a7ddea2-668b-4aee-a00b-74f8899377ad"},"vehicle_type_id":"4","last_reported":1740467361,"current_range_meters":22800,"station_id":"ce4bhi12rcd13ifvqfp0","pricing_plan_id":"cebpf4jnsgd1na2vs0mg"},{"bike_id":"8ac9e472-f1db-41f4-907b-6432fdf1b6b0","system_id":"levelo_inurba_marseille","lat":43.2925,"lon":5.38439,"is_reserved":false,"is_disabled":true,"rental_uris":{"android":"levelo://app?vid=8ac9e472-f1db-41f4-907b-6432fdf1b6b0","ios":"levelo://app?vid=8ac9e472-f1db-41f4-907b-6432fdf1b6b0"},"vehicle_type_id":"4","last_reported":1740467361,"current_range_meters":22400,"station_id":"ce4bh692rcd13ifvqea0","pricing_plan_id":"cebpf4jnsgd1na2vs0mg"},{"bike_id":"3cd5e454-0d55-4f46-b145-188157dd6ed3","system_id":"levelo_inurba_marseille","lat":43.278137,"lon":5.407085,"is_reserved":false,"is_disabled":false,"rental_uris":{"android":"levelo://app?vid=3cd5e454-0d55-4f46-b145-188157dd6ed3","ios":"levelo://app?vid=3cd5e454-0d55-4f46-b145-188157dd6ed3"},"vehicle_type_id":"4","last_reported":1740467361,"current_range_meters":22400,"station_id":"ce4bhnh2rcd13ifvqgtg","pricing_plan_id":"cebpf4jnsgd1na2vs0mg"},{"bike_id":"90663df9-11c7-4d3e-97ec-ca8583a8e0dc","system_id":"levelo_inurba_marseille","lat":43.28344,"lon":5.38105,"is_reserved":false,"is_disabled":false,"rental_uris":{"android":"levelo://app?vid=90663df9-11c7-4d3e-97ec-ca8583a8e0dc","ios":"levelo://app?vid=90663df9-11c7-4d3e-97ec-ca8583a8e0dc"},"vehicle_type_id":"4","last_reported":1740467361,"current_range_meters":22400,"station_id":"ce4bh412rcd13ifvqdr0","pricing_plan_id":"cebpf4jnsgd1na2vs0mg"},{"bike_id":"3142f017-c4b6-483e-aa73-b65aa0cf64a2","system_id":"levelo_inurba_marseille","lat":43.28041,"lon":5.36937,"is_reserved":false,"is_disabled":true,"rental_uris":{"android":"levelo://app?vid=3142f017-c4b6-483e-aa73-b65aa0cf64a2","ios":"levelo://app?vid=3142f017-c4b6-483e-aa73-b65aa0cf64a2"},"vehicle_type_id":"4","last_reported":1740467361,"current_range_meters":22400,"station_id":"ce4bha12rcd13ifvqef0","pricing_plan_id":"cebpf4jnsgd1na2vs0mg"},{"bike_id":"b40cdecf-f647-4707-9735-b5fd5c77ddbf","system_id":"levelo_inurba_marseille","lat":43.34095,"lon":5.41996,"is_reserved":false,"is_disabled":false,"rental_uris":{"android":"levelo://app?vid=b40cdecf-f647-4707-9735-b5fd5c77ddbf","ios":"levelo://app?vid=b40cdecf-f647-4707-9735-b5fd5c77ddbf"},"vehicle_type_id":"4","last_reported":1740467361,"current_range_meters":22400,"station_id":"","pricing_plan_id":"cebpf4jnsgd1na2vs0mg"},{"bike_id":"53c8fe43-277c-43c3-ba45-4fb37dfca87c","system_id":"levelo_inurba_marseille","lat":43.27064,"lon":5.402824,"is_reserved":false,"is_disabled":false,"rental_uris":{"android":"levelo://app?vid=53c8fe43-277c-43c3-ba45-4fb37dfca87c","ios":"levelo://app?vid=53c8fe43-277c-43c3-ba45-4fb37dfca87c"},"vehicle_type_id":"4","last_reported":1740467361,"current_range_meters":22400,"station_id":"","pricing_plan_id":"cebpf4jnsgd1na2vs0mg"},{"bike_id":"68060eef-260a-4c81-b3ca-8d974c7e7745","system_id":"levelo_inurba_marseille","lat":43.29095,"lon":5.38167,"is_reserved":false,"is_disabled":false,"rental_uris":{"android":"levelo://app?vid=68060eef-260a-4c81-b3ca-8d974c7e7745","ios":"levelo://app?vid=68060eef-260a-4c81-b3ca-8d974c7e7745"},"vehicle_type_id":"4","last_reported":1740467361,"current_range_meters":22800,"station_id":"ce4bh512rcd13ifvqe2g","pricing_plan_id":"cebpf4jnsgd1na2vs0mg"},{"bike_id":"1015abbd-7082-4ba1-86ea-5a0ad2804113","system_id":"levelo_inurba_marseille","lat":43.29902,"lon":5.4364,"is_reserved":false,"is_disabled":false,"rental_uris":{"android":"levelo://app?vid=1015abbd-7082-4ba1-86ea-5a0ad2804113","ios":"levelo://app?vid=1015abbd-7082-4ba1-86ea-5a0ad2804113"},"vehicle_type_id":"4","last_reported":1740467361,"current_range_meters":22800,"station_id":"ce4bhpp2rcd13ifvqhfg","pricing_plan_id":"cebpf4jnsgd1na2vs0mg"},{"bike_id":"b2616ec3-ed79-46c0-91c4-35a843ea1e98","system_id":"levelo_inurba_marseille","lat":43.2795,"lon":5.41047,"is_reserved":false,"is_disabled":false,"rental_uris":{"android":"levelo://app?vid=b2616ec3-ed79-46c0-91c4-35a843ea1e98","ios":"levelo://app?vid=b2616ec3-ed79-46c0-91c4-35a843ea1e98"},"vehicle_type_id":"4","last_reported":1740467361,"current_range_meters":22800,"station_id":"ce4bhnp2rcd13ifvqh0g","pricing_plan_id":"cebpf4jnsgd1na2vs0mg"},{"bike_id":"d7ea224b-05ca-4883-8e34-c807a2ae7b36","system_id":"levelo_inurba_marseille","lat":43.27819,"lon":5.407147,"is_reserved":false,"is_disabled":false,"rental_uris":{"android":"levelo://app?vid=d7ea224b-05ca-4883-8e34-c807a2ae7b36","ios":"levelo://app?vid=d7ea224b-05ca-4883-8e34-c807a2ae7b36"},"vehicle_type_id":"4","last_reported":1740467361,"current_range_meters":22800,"station_id":"ce4bhnh2rcd13ifvqgtg","pricing_plan_id":"cebpf4jnsgd1na2vs0mg"},{"bike_id":"c303f159-ac45-4fe0-aac9-2f0b1453cd31","system_id":"levelo_inurba_marseille","lat":43.27993,"lon":5.4162,"is_reserved":false,"is_disabled":true,"rental_uris":{"android":"levelo://app?vid=c303f159-ac45-4fe0-aac9-2f0b1453cd31","ios":"levelo://app?vid=c303f159-ac45-4fe0-aac9-2f0b1453cd31"},"vehicle_type_id":"4","last_reported":1740467361,"current_range_meters":23200,"station_id":"ce4bho12rcd13ifvqh1g","pricing_plan_id":"cebpf4jnsgd1na2vs0mg"},{"bike_id":"170a1171-7b66-4b53-846c-7daf12e6cc28","system_id":"levelo_inurba_marseille","lat":43.30589,"lon":5.39358,"is_reserved":false,"is_disabled":false,"rental_uris":{"android":"levelo://app?vid=170a1171-7b66-4b53-846c-7daf12e6cc28","ios":"levelo://app?vid=170a1171-7b66-4b53-846c-7daf12e6cc28"},"vehicle_type_id":"4","last_reported":1740467361,"current_range_meters":23200,"station_id":"ce4bh0p2rcd13ifvqd80","pricing_plan_id":"cebpf4jnsgd1na2vs0mg"},{"bike_id":"3d720152-86c3-4eb7-9886-b04b43ca63e7","system_id":"levelo_inurba_marseille","lat":43.29209,"lon":5.3934,"is_reserved":false,"is_disabled":false,"rental_uris":{"android":"levelo://app?vid=3d720152-86c3-4eb7-9886-b04b43ca63e7","ios":"levelo://app?vid=3d720152-86c3-4eb7-9886-b04b43ca63e7"},"vehicle_type_id":"4","last_reported":1740467361,"current_range_meters":23200,"station_id":"ce4bh192rcd13ifvqdd0","pricing_plan_id":"cebpf4jnsgd1na2vs0mg"},{"bike_id":"9eb10ab9-ef97-459e-a893-bed63e589588","system_id":"levelo_inurba_marseille","lat":43.25007,"lon":5.38926,"is_reserved":false,"is_disabled":false,"rental_uris":{"android":"levelo://app?vid=9eb10ab9-ef97-459e-a893-bed63e589588","ios":"levelo://app?vid=9eb10ab9-ef97-459e-a893-bed63e589588"},"vehicle_type_id":"4","last_reported":1740467361,"current_range_meters":23200,"station_id":"ce4bhgp2rcd13ifvqfd0","pricing_plan_id":"cebpf4jnsgd1na2vs0mg"},{"bike_id":"fa3a939a-054c-416c-a121-ad6aab77a33f","system_id":"levelo_inurba_marseille","lat":43.275,"lon":5.42459,"is_reserved":false,"is_disabled":false,"rental_uris":{"android":"levelo://app?vid=fa3a939a-054c-416c-a121-ad6aab77a33f","ios":"levelo://app?vid=fa3a939a-054c-416c-a121-ad6aab77a33f"},"vehicle_type_id":"4","last_reported":1740467361,"current_range_meters":24000,"station_id":"ce4bhn92rcd13ifvqgrg","pricing_plan_id":"cebpf4jnsgd1na2vs0mg"},{"bike_id":"b3515fe4-cc7a-47f6-8d72-576f30f093e2","system_id":"levelo_inurba_marseille","lat":43.3136,"lon":5.38496,"is_reserved":false,"is_disabled":true,"rental_uris":{"android":"levelo://app?vid=b3515fe4-cc7a-47f6-8d72-576f30f093e2","ios":"levelo://app?vid=b3515fe4-cc7a-47f6-8d72-576f30f093e2"},"vehicle_type_id":"4","last_reported":1740467361,"current_range_meters":23200,"station_id":"ce4bgt92rcd13ifvqcf0","pricing_plan_id":"cebpf4jnsgd1na2vs0mg"},{"bike_id":"0edf3a85-0e12-4f65-a670-900a1988fcf3","system_id":"levelo_inurba_marseille","lat":43.30417,"lon":5.4128,"is_reserved":false,"is_disabled":true,"rental_uris":{"android":"levelo://app?vid=0edf3a85-0e12-4f65-a670-900a1988fcf3","ios":"levelo://app?vid=0edf3a85-0e12-4f65-a670-900a1988fcf3"},"vehicle_type_id":"4","last_reported":1740467361,"current_range_meters":23200,"station_id":"ce4bhop2rcd13ifvqh8g","pricing_plan_id":"cebpf4jnsgd1na2vs0mg"},{"bike_id":"93b8b2d1-56a4-4182-9532-96de88c43db2","system_id":"levelo_inurba_marseille","lat":43.24546,"lon":5.39525,"is_reserved":false,"is_disabled":false,"rental_uris":{"android":"levelo://app?vid=93b8b2d1-56a4-4182-9532-96de88c43db2","ios":"levelo://app?vid=93b8b2d1-56a4-4182-9532-96de88c43db2"},"vehicle_type_id":"4","last_reported":1740467361,"current_range_meters":23200,"station_id":"ce4bhlp2rcd13ifvqgjg","pricing_plan_id":"cebpf4jnsgd1na2vs0mg"},{"bike_id":"7ff54515-1fd9-4fac-be68-98b904be9f28","system_id":"levelo_inurba_marseille","lat":43.29806,"lon":5.38107,"is_reserved":false,"is_disabled":false,"rental_uris":{"android":"levelo://app?vid=7ff54515-1fd9-4fac-be68-98b904be9f28","ios":"levelo://app?vid=7ff54515-1fd9-4fac-be68-98b904be9f28"},"vehicle_type_id":"4","last_reported":1740467361,"current_range_meters":23200,"station_id":"ce4bgip2rcd13ifvqbb0","pricing_plan_id":"cebpf4jnsgd1na2vs0mg"},{"bike_id":"31532772-fa6e-4845-bccb-e899798d1228","system_id":"levelo_inurba_marseille","lat":43.31904,"lon":5.40732,"is_reserved":false,"is_disabled":false,"rental_uris":{"android":"levelo://app?vid=31532772-fa6e-4845-bccb-e899798d1228","ios":"levelo://app?vid=31532772-fa6e-4845-bccb-e899798d1228"},"vehicle_type_id":"4","last_reported":1740467361,"current_range_meters":23200,"station_id":"ce4bhq12rcd13ifvqhig","pricing_plan_id":"cebpf4jnsgd1na2vs0mg"},{"bike_id":"220837e6-44d1-411a-aaca-6e3d59340904","system_id":"levelo_inurba_marseille","lat":43.301318,"lon":5.387765,"is_reserved":false,"is_disabled":true,"rental_uris":{"android":"levelo://app?vid=220837e6-44d1-411a-aaca-6e3d59340904","ios":"levelo://app?vid=220837e6-44d1-411a-aaca-6e3d59340904"},"vehicle_type_id":"4","last_reported":1740467361,"current_range_meters":24000,"station_id":"","pricing_plan_id":"cebpf4jnsgd1na2vs0mg"},{"bike_id":"a2db9640-9fe1-4a86-9429-8580d42e0026","system_id":"levelo_inurba_marseille","lat":43.2927,"lon":5.36845,"is_reserved":false,"is_disabled":true,"rental_uris":{"android":"levelo://app?vid=a2db9640-9fe1-4a86-9429-8580d42e0026","ios":"levelo://app?vid=a2db9640-9fe1-4a86-9429-8580d42e0026"},"vehicle_type_id":"4","last_reported":1740467361,"current_range_meters":24000,"station_id":"ce4bhbp2rcd13ifvqesg","pricing_plan_id":"cebpf4jnsgd1na2vs0mg"},{"bike_id":"5cac1fb7-4240-4b63-a55f-8da79b3f4a53","system_id":"levelo_inurba_marseille","lat":43.325343,"lon":5.414416,"is_reserved":false,"is_disabled":false,"rental_uris":{"android":"levelo://app?vid=5cac1fb7-4240-4b63-a55f-8da79b3f4a53","ios":"levelo://app?vid=5cac1fb7-4240-4b63-a55f-8da79b3f4a53"},"vehicle_type_id":"4","last_reported":1740467361,"current_range_meters":24000,"station_id":"ce4bhq12rcd13ifvqhhg","pricing_plan_id":"cebpf4jnsgd1na2vs0mg"},{"bike_id":"2e7426f9-9060-4764-a21d-b84a6017740e","system_id":"levelo_inurba_marseille","lat":43.31073,"lon":5.42421,"is_reserved":false,"is_disabled":false,"rental_uris":{"android":"levelo://app?vid=2e7426f9-9060-4764-a21d-b84a6017740e","ios":"levelo://app?vid=2e7426f9-9060-4764-a21d-b84a6017740e"},"vehicle_type_id":"4","last_reported":1740467361,"current_range_meters":24400,"station_id":"ce4bhp92rcd13ifvqhag","pricing_plan_id":"cebpf4jnsgd1na2vs0mg"},{"bike_id":"612f1b8b-5b4b-4053-8a86-fb65ea3abcbc","system_id":"levelo_inurba_marseille","lat":43.23153,"lon":5.43716,"is_reserved":false,"is_disabled":false,"rental_uris":{"android":"levelo://app?vid=612f1b8b-5b4b-4053-8a86-fb65ea3abcbc","ios":"levelo://app?vid=612f1b8b-5b4b-4053-8a86-fb65ea3abcbc"},"vehicle_type_id":"4","last_reported":1740467361,"current_range_meters":24000,"station_id":"ce4bhmp2rcd13ifvqgog","pricing_plan_id":"cebpf4jnsgd1na2vs0mg"},{"bike_id":"168248a5-bd3b-4ec1-a93b-1d90297d3bba","system_id":"levelo_inurba_marseille","lat":43.32359,"lon":5.38884,"is_reserved":false,"is_disabled":false,"rental_uris":{"android":"levelo://app?vid=168248a5-bd3b-4ec1-a93b-1d90297d3bba","ios":"levelo://app?vid=168248a5-bd3b-4ec1-a93b-1d90297d3bba"},"vehicle_type_id":"4","last_reported":1740467361,"current_range_meters":24000,"station_id":"ce4bhqp2rcd13ifvqhog","pricing_plan_id":"cebpf4jnsgd1na2vs0mg"},{"bike_id":"545cc487-5f25-4535-917f-52dfed17427c","system_id":"levelo_inurba_marseille","lat":43.29521,"lon":5.39413,"is_reserved":false,"is_disabled":false,"rental_uris":{"android":"levelo://app?vid=545cc487-5f25-4535-917f-52dfed17427c","ios":"levelo://app?vid=545cc487-5f25-4535-917f-52dfed17427c"},"vehicle_type_id":"4","last_reported":1740467361,"current_range_meters":24000,"station_id":"ce4bh292rcd13ifvqdf0","pricing_plan_id":"cebpf4jnsgd1na2vs0mg"},{"bike_id":"a94f319e-afc9-4583-8f54-b7f8e8ea8a8c","system_id":"levelo_inurba_marseille","lat":43.29392,"lon":5.37861,"is_reserved":false,"is_disabled":true,"rental_uris":{"android":"levelo://app?vid=a94f319e-afc9-4583-8f54-b7f8e8ea8a8c","ios":"levelo://app?vid=a94f319e-afc9-4583-8f54-b7f8e8ea8a8c"},"vehicle_type_id":"4","last_reported":1740467361,"current_range_meters":24000,"station_id":"ce4bgjh2rcd13ifvqbf0","pricing_plan_id":"cebpf4jnsgd1na2vs0mg"},{"bike_id":"6351b04e-e8c6-463c-969a-41ed3bf1de1b","system_id":"levelo_inurba_marseille","lat":43.25701,"lon":5.41078,"is_reserved":false,"is_disabled":false,"rental_uris":{"android":"levelo://app?vid=6351b04e-e8c6-463c-969a-41ed3bf1de1b","ios":"levelo://app?vid=6351b04e-e8c6-463c-969a-41ed3bf1de1b"},"vehicle_type_id":"4","last_reported":1740467361,"current_range_meters":24400,"station_id":"ce4bhkp2rcd13ifvqgd0","pricing_plan_id":"cebpf4jnsgd1na2vs0mg"},{"bike_id":"2f6e70ad-8655-412a-af7d-614bc466f132","system_id":"levelo_inurba_marseille","lat":43.28352,"lon":5.38109,"is_reserved":false,"is_disabled":false,"rental_uris":{"android":"levelo://app?vid=2f6e70ad-8655-412a-af7d-614bc466f132","ios":"levelo://app?vid=2f6e70ad-8655-412a-af7d-614bc466f132"},"vehicle_type_id":"4","last_reported":1740467361,"current_range_meters":24000,"station_id":"ce4bh412rcd13ifvqdr0","pricing_plan_id":"cebpf4jnsgd1na2vs0mg"},{"bike_id":"c96a1f37-a9f6-418c-8af5-698d50c90c2b","system_id":"levelo_inurba_marseille","lat":43.301806,"lon":5.375022,"is_reserved":false,"is_disabled":false,"rental_uris":{"android":"levelo://app?vid=c96a1f37-a9f6-418c-8af5-698d50c90c2b","ios":"levelo://app?vid=c96a1f37-a9f6-418c-8af5-698d50c90c2b"},"vehicle_type_id":"4","last_reported":1740467361,"current_range_meters":22400,"station_id":"ce4bgs92rcd13ifvqcc0","pricing_plan_id":"cebpf4jnsgd1na2vs0mg"},{"bike_id":"ae48d40b-ad78-47c1-ad32-7a0759d52ae5","system_id":"levelo_inurba_marseille","lat":43.33766,"lon":5.37435,"is_reserved":false,"is_disabled":false,"rental_uris":{"android":"levelo://app?vid=ae48d40b-ad78-47c1-ad32-7a0759d52ae5","ios":"levelo://app?vid=ae48d40b-ad78-47c1-ad32-7a0759d52ae5"},"vehicle_type_id":"4","last_reported":1740467361,"current_range_meters":30000,"station_id":"","pricing_plan_id":"cebpf4jnsgd1na2vs0mg"},