{"last_updated":1706447221,"ttl":30,"version":"2.2","data":{"bikes":[{"bike_id":"75581a31-cec6-4891-a842-97769fbc7351","system_id":"levelo_inurba_marseille","lat":43.31341,"lon":5.367098,"is_reserved":false,"is_disabled":false,"rental_uris":{"android":"levelo://app?vid=75581a31-cec6-4891-a842-97769fbc7351","ios":"levelo://app?vid=75581a31-cec6-4891-a842-97769fbc7351"},"vehicle_type_id":"4","last_reported":1706447222,"current_range_meters":22000,"station_id":"ce4bgr92rcd13ifvqc6g","pricing_plan_id":"free"},{"bike_id":"2690d8a1-3168-4d9d-b225-701ff46f476b","system_id":"levelo_inurba_marseille","lat":43.312239,"lon":5.368562,"is_reserved":false,"is_disabled":false,"rental_uris":{"android":"levelo://app?vid=2690d8a1-3168-4d9d-b225-701ff46f476b","ios":"levelo://app?vid=2690d8a1-3168-4d9d-b225-701ff46f476b"},"vehicle_type_id":"4","last_reported":1706447222,"current_range_meters":22400,"station_id":"ce4bgl92rcd13ifvqbq0","pricing_plan_id":"free"},{"bike_id":"735165c4-64c4-4b08-bb51-409503b731c5","system_id":"levelo_inurba_marseille","lat":43.312239,"lon":5.368562,"is_reserved":false,"is_disabled":false,"rental_uris":{"android":"levelo://app?vid=735165c4-64c4-4b08-bb51-409503b731c5","ios":"levelo://app?vid=735165c4-64c4-4b08-bb51-409503b731c5"},"vehicle_type_id":"4","last_reported":1706447222,"current_range_meters":27200,"station_id":"ce4bgl92rcd13ifvqbq0","pricing_plan_id":"free"},{"bike_id":"6d62df7d-1424-4269-96de-d92955ba9c4e","system_id":"levelo_inurba_marseille","lat":43.312239,"lon":5.368562,"is_reserved":false,"is_disabled":false,"rental_uris":{"android":"levelo://app?vid=6d62df7d-1424-4269-96de-d92955ba9c4e","ios":"levelo://app?vid=6d62df7d-1424-4269-96de-d92955ba9c4e"},"vehicle_type_id":"4","last_reported":1706447222,"current_range_meters":24000,"station_id":"ce4bgl92rcd13ifvqbq0","pricing_plan_id":"free"},{"bike_id":"4a7740e5-79fa-4a4a-8537-f614a204bcff","system_id":"levelo_inurba_marseille","lat":43.312239,"lon":5.368562,"is_reserved":false,"is_disabled":false,"rental_uris":{"android":"levelo://app?vid=4a7740e5-79fa-4a4a-8537-f614a204bcff","ios":"levelo://app?vid=4a7740e5-79fa-4a4a-8537-f614a204bcff"},"vehicle_type_id":"4","last_reported":1706447222,"current_range_meters":29200,"station_id":"ce4bgl92rcd13ifvqbq0","pricing_plan_id":"free"},{"bike_id":"acfd711c-7d94-4faa-8866-5dea966808cb","system_id":"levelo_inurba_marseille","lat":43.312239,"lon":5.368562,"is_reserved":false,"is_disabled":false,"rental_uris":{"android":"levelo://app?vid=acfd711c-7d94-4faa-8866-5dea966808cb","ios":"levelo://app?vid=acfd711c-7d94-4faa-8866-5dea966808cb"},"vehicle_type_id":"4","last_reported":1706447222,"current_range_meters":12000,"station_id":"ce4bgl92rcd13ifvqbq0","pricing_plan_id":"free"},{"bike_id":"29d98e10-4725-4615-8a89-df5ff8c8d261","system_id":"levelo_inurba_marseille","lat":43.31595,"lon":5.36457,"is_reserved":false,"is_disabled":false,"rental_uris":{"android":"levelo://app?vid=29d98e10-4725-4615-8a89-df5ff8c8d261","ios":"levelo://app?vid=29d98e10-4725-4615-8a89-df5ff8c8d261"},"vehicle_type_id":"4","last_reported":1706447222,"current_range_meters":24000,"station_id":"","pricing_plan_id":"free"},{"bike_id":"b5f265d2-25b4-4f89-b10a-380a031e2c9d","system_id":"levelo_inurba_marseille","lat":43.31618,"lon":5.36436,"is_reserved":false,"is_disabled":false,"rental_uris":{"android":"levelo://app?vid=b5f265d2-25b4-4f89-b10a-380a031e2c9d","ios":"levelo://app?vid=b5f265d2-25b4-4f89-b10a-380a031e2c9d"},"vehicle_type_id":"4","last_reported":1706447222,"current_range_meters":12800,"station_id":"","pricing_plan_id":"free"},{"bike_id":"0c879c7c-b478-4341-b557-d8fa9e7ce411","system_id":"levelo_inurba_marseille","lat":43.314811,"lon":5.373104,"is_reserved":false,"is_disabled":false,"rental_uris":{"android":"levelo://app?vid=0c879c7c-b478-4341-b557-d8fa9e7ce411","ios":"levelo://app?vid=0c879c7c-b478-4341-b557-d8fa9e7ce411"},"vehicle_type_id":"4","last_reported":1706447222,"current_range_meters":30800,"station_id":"ce4bgt12rcd13ifvqcd0","pricing_plan_id":"free"},{"bike_id":"133c3f9b-7455-4379-8366-1463f593cb7d","system_id":"levelo_inurba_marseille","lat":43.31493,"lon":5.37304,"is_reserved":false,"is_disabled":false,"rental_uris":{"android":"levelo://app?vid=133c3f9b-7455-4379-8366-1463f593cb7d","ios":"levelo://app?vid=133c3f9b-7455-4379-8366-1463f593cb7d"},"vehicle_type_id":"4","last_reported":1706447222,"current_range_meters":2800,"station_id":"ce4bgt12rcd13ifvqcd0","pricing_plan_id":"free"},{"bike_id":"c26d9d98-cd68-4a8a-a849-f715a3d4b2a6","system_id":"levelo_inurba_marseille","lat":43.314811,"lon":5.373104,"is_reserved":false,"is_disabled":false,"rental_uris":{"android":"levelo://app?vid=c26d9d98-cd68-4a8a-a849-f715a3d4b2a6","ios":"levelo://app?vid=c26d9d98-cd68-4a8a-a849-f715a3d4b2a6"},"vehicle_type_id":"4","last_reported":1706447222,"current_range_meters":0,"station_id":"ce4bgt12rcd13ifvqcd0","pricing_plan_id":"free"},{"bike_id":"1a3d829b-da0a-440e-bd77-4996fdba56bf","system_id":"levelo_inurba_marseille","lat":43.314811,"lon":5.373104,"is_reserved":false,"is_disabled":false,"rental_uris":{"android":"levelo://app?vid=1a3d829b-da0a-440e-bd77-4996fdba56bf","ios":"levelo://app?vid=1a3d829b-da0a-440e-bd77-4996fdba56bf"},"vehicle_type_id":"4","last_reported":1706447222,"current_range_meters":28000,"station_id":"ce4bgt12rcd13ifvqcd0","pricing_plan_id":"free"},{"bike_id":"eca7a80f-655d-4c33-8615-296c2e0d6569","system_id":"levelo_inurba_marseille","lat":43.31489,"lon":5.37314,"is_reserved":false,"is_disabled":false,"rental_uris":{"android":"levelo://app?vid=eca7a80f-655d-4c33-8615-296c2e0d6569","ios":"levelo://app?vid=eca7a80f-655d-4c33-8615-296c2e0d6569"},"vehicle_type_id":"4","last_reported":1706447222,"current_range_meters":28800,"station_id":"ce4bgt12rcd13ifvqcd0","pricing_plan_id":"free"},{"bike_id":"fe6da1e3-fd66-4a72-ae9b-ae08eb908528","system_id":"levelo_inurba_marseille","lat":43.305475,"lon":5.36703,"is_reserved":false,"is_disabled":false,"rental_uris":{"android":"levelo://app?vid=fe6da1e3-fd66-4a72-ae9b-ae08eb908528","ios":"levelo://app?vid=fe6da1e3-fd66-4a72-ae9b-ae08eb908528"},"vehicle_type_id":"4","last_reported":1706447222,"current_range_meters":15200,"station_id":"ce4bgrp2rcd13ifvqc9g","pricing_plan_id":"free"},{"bike_id":"b642eccb-5970-465d-be85-1aa888268996","system_id":"levelo_inurba_marseille","lat":43.305712,"lon":5.365641,"is_reserved":false,"is_disabled":false,"rental_uris":{"android":"levelo://app?vid=b642eccb-5970-465d-be85-1aa888268996","ios":"levelo://app?vid=b642eccb-5970-465d-be85-1aa888268996"},"vehicle_type_id":"4","last_reported":1706447222,"current_range_meters":2800,"station_id":"ce4bgs12rcd13ifvqcag","pricing_plan_id":"free"},{"bike_id":"debb11fb-f033-44e9-99e4-56ddc2bf7039","system_id":"levelo_inurba_marseille","lat":43.305714,"lon":5.365633,"is_reserved":false,"is_disabled":false,"rental_uris":{"android":"levelo://app?vid=debb11fb-f033-44e9-99e4-56ddc2bf7039","ios":"levelo://app?vid=debb11fb-f033-44e9-99e4-56ddc2bf7039"},"vehicle_type_id":"4","last_reported":1706447222,"current_range_meters":14000,"station_id":"ce4bgs12rcd13ifvqcag","pricing_plan_id":"free"},{"bike_id":"a340f9c4-efab-440a-8c07-4d7d7ccce5da","system_id":"levelo_inurba_marseille","lat":43.305451,"lon":5.36529,"is_reserved":false,"is_disabled":false,"rental_uris":{"android":"levelo://app?vid=a340f9c4-efab-440a-8c07-4d7d7ccce5da","ios":"levelo://app?vid=a340f9c4-efab-440a-8c07-4d7d7ccce5da"},"vehicle_type_id":"4","last_reported":1706447222,"current_range_meters":6400,"station_id":"ce4bgs12rcd13ifvqcag","pricing_plan_id":"free"},{"bike_id":"50d834cd-4c73-43f5-af61-5cd1ca419f74","system_id":"levelo_inurba_marseille","lat":43.305714,"lon":5.365633,"is_reserved":false,"is_disabled":false,"rental_uris":{"android":"levelo://app?vid=50d834cd-4c73-43f5-af61-5cd1ca419f74","ios":"levelo://app?vid=50d834cd-4c73-43f5-af61-5cd1ca419f74"},"vehicle_type_id":"4","last_reported":1706447222,"current_range_meters":12800,"station_id":"ce4bgs12rcd13ifvqcag","pricing_plan_id":"free"},{"bike_id":"4dbce1f5-73e5-4706-b317-bdbf2f603d15","system_id":"levelo_inurba_marseille","lat":43.305989,"lon":5.37225,"is_reserved":false,"is_disabled":false,"rental_uris":{"android":"levelo://app?vid=4dbce1f5-73e5-4706-b317-bdbf2f603d15","ios":"levelo://app?vid=4dbce1f5-73e5-4706-b317-bdbf2f603d15"},"vehicle_type_id":"4","last_reported":1706447222,"current_range_meters":18000,"station_id":"ce4bgqh2rcd13ifvqc4g","pricing_plan_id":"free"},{"bike_id":"e08eb18f-c621-425e-81b6-75aeb00b54b0","system_id":"levelo_inurba_marseille","lat":43.305989,"lon":5.37225,"is_reserved":false,"is_disabled":false,"rental_uris":{"android":"levelo://app?vid=e08eb18f-c621-425e-81b6-75aeb00b54b0","ios":"levelo://app?vid=e08eb18f-c621-425e-81b6-75aeb00b54b0"},"vehicle_type_id":"4","last_reported":1706447222,"current_range_meters":2400,"station_id":"ce4bgqh2rcd13ifvqc4g","pricing_plan_id":"free"},{"bike_id":"e9880821-a305-463d-ad76-9190d1226174","system_id":"levelo_inurba_marseille","lat":43.31122,"lon":5.37763,"is_reserved":false,"is_disabled":false,"rental_uris":{"android":"levelo://app?vid=e9880821-a305-463d-ad76-9190d1226174","ios":"levelo://app?vid=e9880821-a305-463d-ad76-9190d1226174"},"vehicle_type_id":"4","last_reported":1706447222,"current_range_meters":7600,"station_id":"ce4bgt92rcd13ifvqcg0","pricing_plan_id":"free"},{"bike_id":"3a447ef2-80f0-4f4e-946e-f6a5f445a9e5","system_id":"levelo_inurba_marseille","lat":43.311125,"lon":5.377624,"is_reserved":false,"is_disabled":false,"rental_uris":{"android":"levelo://app?vid=3a447ef2-80f0-4f4e-946e-f6a5f445a9e5","ios":"levelo://app?vid=3a447ef2-80f0-4f4e-946e-f6a5f445a9e5"},"vehicle_type_id":"4","last_reported":1706447222,"current_range_meters":24400,"station_id":"ce4bgt92rcd13ifvqcg0","pricing_plan_id":"free"},{"bike_id":"f9a95911-3d3c-4470-a975-7971158cc078","system_id":"levelo_inurba_marseille","lat":43.307869,"lon":5.376453,"is_reserved":false,"is_disabled":false,"rental_uris":{"android":"levelo://app?vid=f9a95911-3d3c-4470-a975-7971158cc078","ios":"levelo://app?vid=f9a95911-3d3c-4470-a975-7971158cc078"},"vehicle_type_id":"4","last_reported":1706447222,"current_range_meters":19600,"station_id":"ce4bgv92rcd13ifvqcq0","pricing_plan_id":"free"},{"bike_id":"81ee16c5-5c0f-4620-8620-69d1a3e5fec0","system_id":"levelo_inurba_marseille","lat":43.307945,"lon":5.376487,"is_reserved":false,"is_disabled":false,"rental_uris":{"android":"levelo://app?vid=81ee16c5-5c0f-4620-8620-69d1a3e5fec0","ios":"levelo://app?vid=81ee16c5-5c0f-4620-8620-69d1a3e5fec0"},"vehicle_type_id":"4","last_reported":1706447222,"current_range_meters":27600,"station_id":"ce4bgv92rcd13ifvqcq0","pricing_plan_id":"free"},{"bike_id":"f0c31732-301a-4d0f-9fd3-25ad0ecb4b3c","system_id":"levelo_inurba_marseille","lat":43.317075,"lon":5.377367,"is_reserved":false,"is_disabled":false,"rental_uris":{"android":"levelo://app?vid=f0c31732-301a-4d0f-9fd3-25ad0ecb4b3c","ios":"levelo://app?vid=f0c31732-301a-4d0f-9fd3-25ad0ecb4b3c"},"vehicle_type_id":"4","last_reported":1706447222,"current_range_meters":10000,"station_id":"ce4bgth2rcd13ifvqch0","pricing_plan_id":"free"},{"bike_id":"bf70306f-e475-47ca-8724-a7e42b25d923","system_id":"levelo_inurba_marseille","lat":43.317075,"lon":5.377367,"is_reserved":false,"is_disabled":false,"rental_uris":{"android":"levelo://app?vid=bf70306f-e475-47ca-8724-a7e42b25d923","ios":"levelo://app?vid=bf70306f-e475-47ca-8724-a7e42b25d923"},"vehicle_type_id":"4","last_reported":1706447222,"current_range_meters":31200,"station_id":"ce4bgth2rcd13ifvqch0","pricing_plan_id":"free"},{"bike_id":"e6c874a7-4c53-46c7-b3b9-101410bd4b5b","system_id":"levelo_inurba_marseille","lat":43.317075,"lon":5.377367,"is_reserved":false,"is_disabled":false,"rental_uris":{"android":"levelo://app?vid=e6c874a7-4c53-46c7-b3b9-101410bd4b5b","ios":"levelo://app?vid=e6c874a7-4c53-46c7-b3b9-101410bd4b5b"},"vehicle_type_id":"4","last_reported":1706447222,"current_range_meters":26000,"station_id":"ce4bgth2rcd13ifvqch0","pricing_plan_id":"free"},{"bike_id":"6fff0b7d-2514-4e0c-a138-b6e9cb85be95","system_id":"levelo_inurba_marseille","lat":43.317075,"lon":5.377367,"is_reserved":false,"is_disabled":false,"rental_uris":{"android":"levelo://app?vid=6fff0b7d-2514-4e0c-a138-b6e9cb85be95","ios":"levelo://app?vid=6fff0b7d-2514-4e0c-a138-b6e9cb85be95"},"vehicle_type_id":"4","last_reported":1706447222,"current_range_meters":31600,"station_id":"ce4bgth2rcd13ifvqch0","pricing_plan_id":"free"},{"bike_id":"65f5bf82-74d7-40ce-9784-1547f9bcf0e2","system_id":"levelo_inurba_marseille","lat":43.303046,"lon":5.368981,"is_reserved":false,"is_disabled":false,"rental_uris":{"android":"levelo://app?vid=65f5bf82-74d7-40ce-9784-1547f9bcf0e2","ios":"levelo://app?vid=65f5bf82-74d7-40ce-9784-1547f9bcf0e2"},"vehicle_type_id":"4","last_reported":1706447222,"current_range_meters":5200,"station_id":"ce4bgqh2rcd13ifvqc5g","pricing_plan_id":"free"},{"bike_id":"b83daeb9-a39c-4884-86e2-16a37c651f7f","system_id":"levelo_inurba_marseille","lat":43.319994,"lon":5.376253,"is_reserved":false,"is_disabled":false,"rental_uris":{"android":"levelo://app?vid=b83daeb9-a39c-4884-86e2-16a37c651f7f","ios":"levelo://app?vid=b83daeb9-a39c-4884-86e2-16a37c651f7f"},"vehicle_type_id":"4","last_reported":1706447222,"current_range_meters":6000,"station_id":"","pricing_plan_id":"free"},{"bike_id":"2590b3da-ae4e-43f5-b4ed-e7d80b82268e","system_id":"levelo_inurba_marseille","lat":43.304606,"lon":5.379026,"is_reserved":false,"is_disabled":false,"rental_uris":{"android":"levelo://app?vid=2590b3da-ae4e-43f5-b4ed-e7d80b82268e","ios":"levelo://app?vid=2590b3da-ae4e-43f5-b4ed-e7d80b82268e"},"vehicle_type_id":"4","last_reported":1706447222,"current_range_meters":32000,"station_id":"ce4bgup2rcd13ifvqcn0","pricing_plan_id":"free"},{"bike_id":"66568423-5a98-4df8-a9d3-dc0944fba09b","system_id":"levelo_inurba_marseille","lat":43.304606,"lon":5.379026,"is_reserved":false,"is_disabled":false,"rental_uris":{"android":"levelo://app?vid=66568423-5a98-4df8-a9d3-dc0944fba09b","ios":"levelo://app?vid=66568423-5a98-4df8-a9d3-dc0944fba09b"},"vehicle_type_id":"4","last_reported":1706447222,"current_range_meters":26400,"station_id":"ce4bgup2rcd13ifvqcn0","pricing_plan_id":"free"},{"bike_id":"e46bb925-481b-445c-8790-e0bc35914cef","system_id":"levelo_inurba_marseille","lat":43.324705,"lon":5.366995,"is_reserved":false,"is_disabled":false,"rental_uris":{"android":"levelo://app?vid=e46bb925-481b-445c-8790-e0bc35914cef","ios":"levelo://app?vid=e46bb925-481b-445c-8790-e0bc35914cef"},"vehicle_type_id":"4","last_reported":1706447222,"current_range_meters":22800,"station_id":"ce4bhs92rcd13ifvqi0g","pricing_plan_id":"free"},{"bike_id":"f513e75a-f570-4b94-8fcc-f8b6c069430f","system_id":"levelo_inurba_marseille","lat":43.304606,"lon":5.379026,"is_reserved":false,"is_disabled":false,"rental_uris":{"android":"levelo://app?vid=f513e75a-f570-4b94-8fcc-f8b6c069430f","ios":"levelo://app?vid=f513e75a-f570-4b94-8fcc-f8b6c069430f"},"vehicle_type_id":"4","last_reported":1706447222,"current_range_meters":18800,"station_id":"ce4bgup2rcd13ifvqcn0","pricing_plan_id":"free"},{"bike_id":"dc00bdf8-dc57-4b02-8d44-8ea4906debe3","system_id":"levelo_inurba_marseille","lat":43.324771,"lon":5.36557,"is_reserved":false,"is_disabled":false,"rental_uris":{"android":"levelo://app?vid=dc00bdf8-dc57-4b02-8d44-8ea4906debe3","ios":"levelo://app?vid=dc00bdf8-dc57-4b02-8d44-8ea4906debe3"},"vehicle_type_id":"4","last_reported":1706447222,"current_range_meters":18000,"station_id":"ce4bhs12rcd13ifvqhvg","pricing_plan_id":"free"},{"bike_id":"c2c2cbc0-8eca-4dea-88e3-e6303f53b394","system_id":"levelo_inurba_marseille","lat":43.324771,"lon":5.36557,"is_reserved":false,"is_disabled":false,"rental_uris":{"android":"levelo://app?vid=c2c2cbc0-8eca-4dea-88e3-e6303f53b394","ios":"levelo://app?vid=c2c2cbc0-8eca-4dea-88e3-e6303f53b394"},"vehicle_type_id":"4","last_reported":1706447222,"current_range_meters":24800,"station_id":"ce4bhs12rcd13ifvqhvg","pricing_plan_id":"free"},{"bike_id":"58d76f54-546c-45b2-8ea3-9d6f736e7bb6","system_id":"levelo_inurba_marseille","lat":43.302845,"lon":5.376993,"is_reserved":false,"is_disabled":false,"rental_uris":{"android":"levelo://app?vid=58d76f54-546c-45b2-8ea3-9d6f736e7bb6","ios":"levelo://app?vid=58d76f54-546c-45b2-8ea3-9d6f736e7bb6"},"vehicle_type_id":"4","last_reported":1706447222,"current_range_meters":28800,"station_id":"ce4bguh2rcd13ifvqcj0","pricing_plan_id":"free"},{"bike_id":"af0f92bd-85ca-489d-bb24-c598a20e1c8e","system_id":"levelo_inurba_marseille","lat":43.302784,"lon":5.377158,"is_reserved":false,"is_disabled":false,"rental_uris":{"android":"levelo://app?vid=af0f92bd-85ca-489d-bb24-c598a20e1c8e","ios":"levelo://app?vid=af0f92bd-85ca-489d-bb24-c598a20e1c8e"},"vehicle_type_id":"4","last_reported":1706447222,"current_range_meters":27200,"station_id":"ce4bguh2rcd13ifvqcj0","pricing_plan_id":"free"},{"bike_id":"d6848ef5-32bf-4a80-b9ba-ff178961e93c","system_id":"levelo_inurba_marseille","lat":43.30143,"lon":5.37413,"is_reserved":false,"is_disabled":false,"rental_uris":{"android":"levelo://app?vid=d6848ef5-32bf-4a80-b9ba-ff178961e93c","ios":"levelo://app?vid=d6848ef5-32bf-4a80-b9ba-ff178961e93c"},"vehicle_type_id":"4","last_reported":1706447222,"current_range_meters":26400,"station_id":"ce4bgs92rcd13ifvqcc0","pricing_plan_id":"free"},{"bike_id":"30a02579-630f-400c-86e8-710edbd1d15a","system_id":"levelo_inurba_marseille","lat":43.302761,"lon":5.377054,"is_reserved":false,"is_disabled":false,"rental_uris":{"android":"levelo://app?vid=30a02579-630f-400c-86e8-710edbd1d15a","ios":"levelo://app?vid=30a02579-630f-400c-86e8-710edbd1d15a"},"vehicle_type_id":"4","last_reported":1706447222,"current_range_meters":19200,"station_id":"ce4bguh2rcd13ifvqcj0","pricing_plan_id":"free"},{"bike_id":"6c121b79-46d9-4eb0-b3b6-ae9fe8e5830e","system_id":"levelo_inurba_marseille","lat":43.319935,"lon":5.381699,"is_reserved":false,"is_disabled":false,"rental_uris":{"android":"levelo://app?vid=6c121b79-46d9-4eb0-b3b6-ae9fe8e5830e","ios":"levelo://app?vid=6c121b79-46d9-4eb0-b3b6-ae9fe8e5830e"},"vehicle_type_id":"4","last_reported":1706447222,"current_range_meters":4400,"station_id":"ce4bhr12rcd13ifvqhpg","pricing_plan_id":"free"},{"bike_id":"e0525806-05e5-46a1-b660-24a7d6151132","system_id":"levelo_inurba_marseille","lat":43.298433,"lon":5.362774,"is_reserved":false,"is_disabled":false,"rental_uris":{"android":"levelo://app?vid=e0525806-05e5-46a1-b660-24a7d6151132","ios":"levelo://app?vid=e0525806-05e5-46a1-b660-24a7d6151132"},"vehicle_type_id":"4","last_reported":1706447222,"current_range_meters":18400,"station_id":"ce4bgpp2rcd13ifvqc3g","pricing_plan_id":"free"},{"bike_id":"9822390b-f214-49f6-b24d-c1a01c1ac4e2","system_id":"levelo_inurba_marseille","lat":43.305364,"lon":5.384119,"is_reserved":false,"is_disabled":false,"rental_uris":{"android":"levelo://app?vid=9822390b-f214-49f6-b24d-c1a01c1ac4e2","ios":"levelo://app?vid=9822390b-f214-49f6-b24d-c1a01c1ac4e2"},"vehicle_type_id":"4","last_reported":1706447222,"current_range_meters":7200,"station_id":"ce4bgg92rcd13ifvqb30","pricing_plan_id":"free"},{"bike_id":"20d73ef6-79e8-4034-a35e-ea76e5e9bd4c","system_id":"levelo_inurba_marseille","lat":43.305364,"lon":5.384119,"is_reserved":false,"is_disabled":false,"rental_uris":{"android":"levelo://app?vid=20d73ef6-79e8-4034-a35e-ea76e5e9bd4c","ios":"levelo://app?vid=20d73ef6-79e8-4034-a35e-ea76e5e9bd4c"},"vehicle_type_id":"4","last_reported":1706447222,"current_range_meters":24400,"station_id":"ce4bgg92rcd13ifvqb30","pricing_plan_id":"free"},{"bike_id":"26b5afbb-e990-48d5-95d7-f3c394c1f84f","system_id":"levelo_inurba_marseille","lat":43.299243,"lon":5.374807,"is_reserved":false,"is_disabled":false,"rental_uris":{"android":"levelo://app?vid=26b5afbb-e990-48d5-95d7-f3c394c1f84f","ios":"levelo://app?vid=26b5afbb-e990-48d5-95d7-f3c394c1f84f"},"vehicle_type_id":"4","last_reported":1706447222,"current_range_meters":12000,"station_id":"ce4bgjh2rcd13ifvqbg0","pricing_plan_id":"free"},{"bike_id":"0d92fc49-2585-4c69-b8b5-b3917fdc3e7b","system_id":"levelo_inurba_marseille","lat":43.305364,"lon":5.384119,"is_reserved":false,"is_disabled":false,"rental_uris":{"android":"levelo://app?vid=0d92fc49-2585-4c69-b8b5-b3917fdc3e7b","ios":"levelo://app?vid=0d92fc49-2585-4c69-b8b5-b3917fdc3e7b"},"vehicle_type_id":"4","last_reported":1706447222,"current_range_meters":30400,"station_id":"ce4bgg92rcd13ifvqb30","pricing_plan_id":"free"},{"bike_id":"69f11149-2799-486f-bb3b-74ca76b92b12","system_id":"levelo_inurba_marseille","lat":43.298433,"lon":5.362774,"is_reserved":false,"is_disabled":false,"rental_uris":{"android":"levelo://app?vid=69f11149-2799-486f-bb3b-74ca76b92b12","ios":"levelo://app?vid=69f11149-2799-486f-bb3b-74ca76b92b12"},"vehicle_type_id":"4","last_reported":1706447222,"current_range_meters":24000,"station_id":"ce4bgpp2rcd13ifvqc3g","pricing_plan_id":"free"},{"bike_id":"f69d14e0-2e79-4b4b-b8a9-622166d613cb","system_id":"levelo_inurba_marseille","lat":43.311722,"lon":5.387247,"is_reserved":false,"is_disabled":false,"rental_uris":{"android":"levelo://app?vid=f69d14e0-2e79-4b4b-b8a9-622166d613cb","ios":"levelo://app?vid=f69d14e0-2e79-4b4b-b8a9-622166d613cb"},"vehicle_type_id":"4","last_reported":1706447222,"current_range_meters":13600,"station_id":"ce4bgv12rcd13ifvqcp0","pricing_plan_id":"free"},{"bike_id":"2a313e46-bab2-4846-b936-4e07e6fea29c","system_id":"levelo_inurba_marseille","lat":43.311722,"lon":5.387247,"is_reserved":false,"is_disabled":false,"rental_uris":{"android":"levelo://app?vid=2a313e46-bab2-4846-b936-4e07e6fea29c","ios":"levelo://app?vid=2a313e46-bab2-4846-b936-4e07e6fea29c"},"vehicle_type_id":"4","last_reported":1706447222,"current_range_meters":25600,"station_id":"ce4bgv12rcd13ifvqcp0","pricing_plan_id":"free"},{"bike_id":"a3b74381-0d58-448f-9a1c-2f1261e3769d","system_id":"levelo_inurba_marseille","lat":43.322872,"lon":5.382756,"is_reserved":false,"is_disabled":false,"rental_uris":{"android":"levelo://app?vid=a3b74381-0d58-448f-9a1c-2f1261e3769d","ios":"levelo://app?vid=a3b74381-0d58-448f-9a1c-2f1261e3769d"},"vehicle_type_id":"4","last_reported":1706447222,"current_range_meters":31200,"station_id":"ce4bhr12rcd13ifvqhqg","pricing_plan_id":"free"},{"bike_id":"0c2f0c4d-67ab-447c-97d9-e06e64747839","system_id":"levelo_inurba_marseille","lat":43.322872,"lon":5.382756,"is_reserved":false,"is_disabled":false,"rental_uris":{"android":"levelo://app?vid=0c2f0c4d-67ab-447c-97d9-e06e64747839","ios":"levelo://app?vid=0c2f0c4d-67ab-447c-97d9-e06e64747839"},"vehicle_type_id":"4","last_reported":1706447222,"current_range_meters":23600,"station_id":"ce4bhr12rcd13ifvqhqg","pricing_plan_id":"free"},{"bike_id":"ab98e573-92e3-4c87-b938-e8306447ae15","system_id":"levelo_inurba_marseille","lat":43.322872,"lon":5.382756,"is_reserved":false,"is_disabled":false,"rental_uris":{"android":"levelo://app?vid=ab98e573-92e3-4c87-b938-e8306447ae15","ios":"levelo://app?vid=ab98e573-92e3-4c87-b938-e8306447ae15"},"vehicle_type_id":"4","last_reported":1706447222,"current_range_meters":30000,"station_id":"ce4bhr12rcd13ifvqhqg","pricing_plan_id":"free"},{"bike_id":"1e3dac1e-79bb-416e-9a25-92222494a4ee","system_id":"levelo_inurba_marseille","lat":43.328371,"lon":5.366912,"is_reserved":false,"is_disabled":false,"rental_uris":{"android":"levelo://app?vid=1e3dac1e-79bb-416e-9a25-92222494a4ee","ios":"levelo://app?vid=1e3dac1e-79bb-416e-9a25-92222494a4ee"},"vehicle_type_id":"4","last_reported":1706447222,"current_range_meters":18400,"station_id":"ce4bhs92rcd13ifvqi0g","pricing_plan_id":"free"},{"bike_id":"0f7b98a3-6434-4866-adac-ccd99f91e009","system_id":"levelo_inurba_marseille","lat":43.32826,"lon":5.36686,"is_reserved":false,"is_disabled":false,"rental_uris":{"android":"levelo://app?vid=0f7b98a3-6434-4866-adac-ccd99f91e009","ios":"levelo://app?vid=0f7b98a3-6434-4866-adac-ccd99f91e009"},"vehicle_type_id":"4","last_reported":1706447222,"current_range_meters":0,"station_id":"ce4bhs92rcd13ifvqi0g","pricing_plan_id":"free"},{"bike_id":"1c92a68f-dd19-40cd-a344-b9886f7050a4","system_id":"levelo_inurba_marseille","lat":43.32828,"lon":5.36689,"is_reserved":false,"is_disabled":false,"rental_uris":{"android":"levelo://app?vid=1c92a68f-dd19-40cd-a344-b9886f7050a4","ios":"levelo://app?vid=1c92a68f-dd19-40cd-a344-b9886f7050a4"},"vehicle_type_id":"4","last_reported":1706447222,"current_range_meters":27200,"station_id":"ce4bhs92rcd13ifvqi0g","pricing_plan_id":"free"},{"bike_id":"12edd8fe-ac42-424b-86a0-ddbc64b4f114","system_id":"levelo_inurba_marseille","lat":43.328371,"lon":5.366909,"is_reserved":false,"is_disabled":false,"rental_uris":{"android":"levelo://app?vid=12edd8fe-ac42-424b-86a0-ddbc64b4f114","ios":"levelo://app?vid=12edd8fe-ac42-424b-86a0-ddbc64b4f114"},"vehicle_type_id":"4","last_reported":1706447222,"current_range_meters":13600,"station_id":"ce4bhs92rcd13ifvqi0g","pricing_plan_id":"free"},{"bike_id":"af1c8fc0-8183-4d68-848c-9159b1d2bf45","system_id":"levelo_inurba_marseille","lat":43.328371,"lon":5.366909,"is_reserved":false,"is_disabled":false,"rental_uris":{"android":"levelo://app?vid=af1c8fc0-8183-4d68-848c-9159b1d2bf45","ios":"levelo://app?vid=af1c8fc0-8183-4d68-848c-9159b1d2bf45"},"vehicle_type_id":"4","last_reported":1706447222,"current_range_meters":10400,"station_id":"ce4bhs92rcd13ifvqi0g","pricing_plan_id":"free"},{"bike_id":"0fcdb516-c887-45d3-a4c2-57930d4db52c","system_id":"levelo_inurba_marseille","lat":43.29573,"lon":5.367355,"is_reserved":false,"is_disabled":false,"rental_uris":{"android":"levelo://app?vid=0fcdb516-c887-45d3-a4c2-57930d4db52c","ios":"levelo://app?vid=0fcdb516-c887-45d3-a4c2-57930d4db52c"},"vehicle_type_id":"4","last_reported":1706447222,"current_range_meters":24800,"station_id":"ce4bgph2rcd13ifvqc2g","pricing_plan_id":"free"},{"bike_id":"4d922547-f3ad-42be-b601-faa0500a882c","system_id":"levelo_inurba_marseille","lat":43.299028,"lon":5.381509,"is_reserved":false,"is_disabled":false,"rental_uris":{"android":"levelo://app?vid=4d922547-f3ad-42be-b601-faa0500a882c","ios":"levelo://app?vid=4d922547-f3ad-42be-b601-faa0500a882c"},"vehicle_type_id":"4","last_reported":1706447222,"current_range_meters":10800,"station_id":"ce4bgj12rcd13ifvqbc0","pricing_plan_id":"free"},{"bike_id":"ac87398c-9137-434c-b7d6-08f6726e4ddd","system_id":"levelo_inurba_marseille","lat":43.31759,"lon":5.39012,"is_reserved":false,"is_disabled":false,"rental_uris":{"android":"levelo://app?vid=ac87398c-9137-434c-b7d6-08f6726e4ddd","ios":"levelo://app?vid=ac87398c-9137-434c-b7d6-08f6726e4ddd"},"vehicle_type_id":"4","last_reported":1706447222,"current_range_meters":26000,"station_id":"ce4bhqp2rcd13ifvqhng","pricing_plan_id":"free"},{"bike_id":"af3b809f-a562-45d1-923f-898b1bd99001","system_id":"levelo_inurba_marseille","lat":43.317557,"lon":5.390173,"is_reserved":false,"is_disabled":false,"rental_uris":{"android":"levelo://app?vid=af3b809f-a562-45d1-923f-898b1bd99001","ios":"levelo://app?vid=af3b809f-a562-45d1-923f-898b1bd99001"},"vehicle_type_id":"4","last_reported":1706447222,"current_range_meters":27600,"station_id":"ce4bhqp2rcd13ifvqhng","pricing_plan_id":"free"},{"bike_id":"30fb10b5-8b64-49bb-acc2-65c1fbbf0fc1","system_id":"levelo_inurba_marseille","lat":43.295748,"lon":5.37522,"is_reserved":false,"is_disabled":false,"rental_uris":{"android":"levelo://app?vid=30fb10b5-8b64-49bb-acc2-65c1fbbf0fc1","ios":"levelo://app?vid=30fb10b5-8b64-49bb-acc2-65c1fbbf0fc1"},"vehicle_type_id":"4","last_reported":1706447222,"current_range_meters":26800,"station_id":"ce4bgh92rcd13ifvqb50","pricing_plan_id":"free"},{"bike_id":"f1d656e4-f010-4fa7-a6ed-cb8af5be61a9","system_id":"levelo_inurba_marseille","lat":43.29615,"lon":5.37716,"is_reserved":false,"is_disabled":false,"rental_uris":{"android":"levelo://app?vid=f1d656e4-f010-4fa7-a6ed-cb8af5be61a9","ios":"levelo://app?vid=f1d656e4-f010-4fa7-a6ed-cb8af5be61a9"},"vehicle_type_id":"4","last_reported":1706447222,"current_range_meters":0,"station_id":"ce4bgi92rcd13ifvqb90","pricing_plan_id":"free"},{"bike_id":"77dbc66a-83bb-43da-b5a7-eba5d74fb0ff","system_id":"levelo_inurba_marseille","lat":43.304278,"lon":5.388868,"is_reserved":false,"is_disabled":false,"rental_uris":{"android":"levelo://app?vid=77dbc66a-83bb-43da-b5a7-eba5d74fb0ff","ios":"levelo://app?vid=77dbc66a-83bb-43da-b5a7-eba5d74fb0ff"},"vehicle_type_id":"4","last_reported":1706447222,"current_range_meters":13600,"station_id":"ce4bgk12rcd13ifvqbi0","pricing_plan_id":"free"},{"bike_id":"7158333e-155b-40d8-af3b-c8736f6658e8","system_id":"levelo_inurba_marseille","lat":43.29535,"lon":5.374988,"is_reserved":false,"is_disabled":false,"rental_uris":{"android":"levelo://app?vid=7158333e-155b-40d8-af3b-c8736f6658e8","ios":"levelo://app?vid=7158333e-155b-40d8-af3b-c8736f6658e8"},"vehicle_type_id":"4","last_reported":1706447222,"current_range_meters":0,"station_id":"ce4bgkp2rcd13ifvqbmg","pricing_plan_id":"free"},{"bike_id":"1333a6f9-d645-4ae7-947e-40485e8e2928","system_id":"levelo_inurba_marseille","lat":43.299707,"lon":5.384859,"is_reserved":false,"is_disabled":false,"rental_uris":{"android":"levelo://app?vid=1333a6f9-d645-4ae7-947e-40485e8e2928","ios":"levelo://app?vid=1333a6f9-d645-4ae7-947e-40485e8e2928"},"vehicle_type_id":"4","last_reported":1706447222,"current_range_meters":2800,"station_id":"ce4bgj92rcd13ifvqbd0","pricing_plan_id":"free"},{"bike_id":"d60b3be7-99b1-409f-9c79-27e114fccf90","system_id":"levelo_inurba_marseille","lat":43.32367,"lon":5.388836,"is_reserved":false,"is_disabled":false,"rental_uris":{"android":"levelo://app?vid=d60b3be7-99b1-409f-9c79-27e114fccf90","ios":"levelo://app?vid=d60b3be7-99b1-409f-9c79-27e114fccf90"},"vehicle_type_id":"4","last_reported":1706447222,"current_range_meters":24400,"station_id":"ce4bhqp2rcd13ifvqhog","pricing_plan_id":"free"},{"bike_id":"be409e5e-cef1-4523-a5b0-44c409aa54e5","system_id":"levelo_inurba_marseille","lat":43.32367,"lon":5.388836,"is_reserved":false,"is_disabled":false,"rental_uris":{"android":"levelo://app?vid=be409e5e-cef1-4523-a5b0-44c409aa54e5","ios":"levelo://app?vid=be409e5e-cef1-4523-a5b0-44c409aa54e5"},"vehicle_type_id":"4","last_reported":1706447222,"current_range_meters":12000,"station_id":"ce4bhqp2rcd13ifvqhog","pricing_plan_id":"free"},{"bike_id":"311f2bb5-da85-44fc-915b-153e21fa0c75","system_id":"levelo_inurba_marseille","lat":43.32368,"lon":5.38883,"is_reserved":false,"is_disabled":false,"rental_uris":{"android":"levelo://app?vid=311f2bb5-da85-44fc-915b-153e21fa0c75","ios":"levelo://app?vid=311f2bb5-da85-44fc-915b-153e21fa0c75"},"vehicle_type_id":"4","last_reported":1706447222,"current_range_meters":0,"station_id":"ce4bhqp2rcd13ifvqhog","pricing_plan_id":"free"},{"bike_id":"8a33758a-88df-484d-be96-917dfb2f5d96","system_id":"levelo_inurba_marseille","lat":43.32368,"lon":5.3889,"is_reserved":false,"is_disabled":false,"rental_uris":{"android":"levelo://app?vid=8a33758a-88df-484d-be96-917dfb2f5d96","ios":"levelo://app?vid=8a33758a-88df-484d-be96-917dfb2f5d96"},"vehicle_type_id":"4","last_reported":1706447222,"current_range_meters":22000,"station_id":"ce4bhqp2rcd13ifvqhog","pricing_plan_id":"free"},{"bike_id":"433a68e3-2f0b-4549-afb8-0f077800e166","system_id":"levelo_inurba_marseille","lat":43.29285,"lon":5.36839,"is_reserved":false,"is_disabled":false,"rental_uris":{"android":"levelo://app?vid=433a68e3-2f0b-4549-afb8-0f077800e166","ios":"levelo://app?vid=433a68e3-2f0b-4549-afb8-0f077800e166"},"vehicle_type_id":"4","last_reported":1706447222,"current_range_meters":0,"station_id":"ce4bhbp2rcd13ifvqesg","pricing_plan_id":"free"},{"bike_id":"4e0f70be-0d13-4dcc-85a2-950a2da89d7c","system_id":"levelo_inurba_marseille","lat":43.293009,"lon":5.374584,"is_reserved":false,"is_disabled":false,"rental_uris":{"android":"levelo://app?vid=4e0f70be-0d13-4dcc-85a2-950a2da89d7c","ios":"levelo://app?vid=4e0f70be-0d13-4dcc-85a2-950a2da89d7c"},"vehicle_type_id":"4","last_reported":1706447222,"current_range_meters":31200,"station_id":"ce4bgi12rcd13ifvqb70","pricing_plan_id":"free"},{"bike_id":"38ea2d64-35b4-4e41-897a-00adad0c4ccb","system_id":"levelo_inurba_marseille","lat":43.292311,"lon":5.360731,"is_reserved":false,"is_disabled":false,"rental_uris":{"android":"levelo://app?vid=38ea2d64-35b4-4e41-897a-00adad0c4ccb","ios":"levelo://app?vid=38ea2d64-35b4-4e41-897a-00adad0c4ccb"},"vehicle_type_id":"4","last_reported":1706447222,"current_range_meters":22400,"station_id":"ce4bhbh2rcd13ifvqeqg","pricing_plan_id":"free"},{"bike_id":"95180c9c-6659-4c29-a69d-9b0a3f08fe29","system_id":"levelo_inurba_marseille","lat":43.292311,"lon":5.360731,"is_reserved":false,"is_disabled":false,"rental_uris":{"android":"levelo://app?vid=95180c9c-6659-4c29-a69d-9b0a3f08fe29","ios":"levelo://app?vid=95180c9c-6659-4c29-a69d-9b0a3f08fe29"},"vehicle_type_id":"4","last_reported":1706447222,"current_range_meters":21600,"station_id":"ce4bhbh2rcd13ifvqeqg","pricing_plan_id":"free"},{"bike_id":"4d0cd59e-a225-4db6-a0f9-ba27822e93e1","system_id":"levelo_inurba_marseille","lat":43.292311,"lon":5.360731,"is_reserved":false,"is_disabled":false,"rental_uris":{"android":"levelo://app?vid=4d0cd59e-a225-4db6-a0f9-ba27822e93e1","ios":"levelo://app?vid=4d0cd59e-a225-4db6-a0f9-ba27822e93e1"},"vehicle_type_id":"4","last_reported":1706447222,"current_range_meters":12400,"station_id":"ce4bhbh2rcd13ifvqeqg","pricing_plan_id":"free"},{"bike_id":"58541e92-5a0f-4f5a-a026-74ac46ced098","system_id":"levelo_inurba_marseille","lat":43.292311,"lon":5.360731,"is_reserved":false,"is_disabled":false,"rental_uris":{"android":"levelo://app?vid=58541e92-5a0f-4f5a-a026-74ac46ced098","ios":"levelo://app?vid=58541e92-5a0f-4f5a-a026-74ac46ced098"},"vehicle_type_id":"4","last_reported":1706447222,"current_range_meters":0,"station_id":"ce4bhbh2rcd13ifvqeqg","pricing_plan_id":"free"},{"bike_id":"c14c1e06-dba3-4c9c-9f4c-92f79bb1e5ed","system_id":"levelo_inurba_marseille","lat":43.293009,"lon":5.374584,"is_reserved":false,"is_disabled":false,"rental_uris":{"android":"levelo://app?vid=c14c1e06-dba3-4c9c-9f4c-92f79bb1e5ed","ios":"levelo://app?vid=c14c1e06-dba3-4c9c-9f4c-92f79bb1e5ed"},"vehicle_type_id":"4","last_reported":1706447222,"current_range_meters":0,"station_id":"ce4bgi12rcd13ifvqb70","pricing_plan_id":"free"},{"bike_id":"d354d75c-e8b5-45f1-bf5e-2b035e4fa2f5","system_id":"levelo_inurba_marseille","lat":43.292311,"lon":5.360731,"is_reserved":false,"is_disabled":false,"rental_uris":{"android":"levelo://app?vid=d354d75c-e8b5-45f1-bf5e-2b035e4fa2f5","ios":"levelo://app?vid=d354d75c-e8b5-45f1-bf5e-2b035e4fa2f5"},"vehicle_type_id":"4","last_reported":1706447222,"current_range_meters":28800,"station_id":"ce4bhbh2rcd13ifvqeqg","pricing_plan_id":"free"},{"bike_id":"ee557107-31fc-4ccb-a81f-90f054b0b9b0","system_id":"levelo_inurba_marseille","lat":43.29206,"lon":5.358368,"is_reserved":false,"is_disabled":false,"rental_uris":{"android":"levelo://app?vid=ee557107-31fc-4ccb-a81f-90f054b0b9b0","ios":"levelo://app?vid=ee557107-31fc-4ccb-a81f-90f054b0b9b0"},"vehicle_type_id":"4","last_reported":1706447222,"current_range_meters":0,"station_id":"","pricing_plan_id":"free"},{"bike_id":"4459e73c-f9b1-4b78-8fbc-3060cd06baa2","system_id":"levelo_inurba_marseille","lat":43.291994,"lon":5.357886,"is_reserved":false,"is_disabled":false,"rental_uris":{"android":"levelo://app?vid=4459e73c-f9b1-4b78-8fbc-3060cd06baa2","ios":"levelo://app?vid=4459e73c-f9b1-4b78-8fbc-3060cd06baa2"},"vehicle_type_id":"4","last_reported":1706447222,"current_range_meters":16000,"station_id":"ce4bhb12rcd13ifvqel0","pricing_plan_id":"free"},{"bike_id":"2ab047d6-f9a6-43e4-b092-d47fe4c4ccbd","system_id":"levelo_inurba_marseille","lat":43.291994,"lon":5.357886,"is_reserved":false,"is_disabled":false,"rental_uris":{"android":"levelo://app?vid=2ab047d6-f9a6-43e4-b092-d47fe4c4ccbd","ios":"levelo://app?vid=2ab047d6-f9a6-43e4-b092-d47fe4c4ccbd"},"vehicle_type_id":"4","last_reported":1706447222,"current_range_meters":17200,"station_id":"ce4bhb12rcd13ifvqel0","pricing_plan_id":"free"},{"bike_id":"a68ce654-a83a-432e-9360-ccecde682018","system_id":"levelo_inurba_marseille","lat":43.313291,"lon":5.396838,"is_reserved":false,"is_disabled":false,"rental_uris":{"android":"levelo://app?vid=a68ce654-a83a-432e-9360-ccecde682018","ios":"levelo://app?vid=a68ce654-a83a-432e-9360-ccecde682018"},"vehicle_type_id":"4","last_reported":1706447222,"current_range_meters":2400,"station_id":"ce4bgvp2rcd13ifvqcu0","pricing_plan_id":"free"},{"bike_id":"e4650462-3d1e-4dbe-8e9a-0ca54da88404","system_id":"levelo_inurba_marseille","lat":43.313291,"lon":5.396838,"is_reserved":false,"is_disabled":false,"rental_uris":{"android":"levelo://app?vid=e4650462-3d1e-4dbe-8e9a-0ca54da88404","ios":"levelo://app?vid=e4650462-3d1e-4dbe-8e9a-0ca54da88404"},"vehicle_type_id":"4","last_reported":1706447222,"current_range_meters":400,"station_id":"ce4bgvp2rcd13ifvqcu0","pricing_plan_id":"free"},{"bike_id":"384940dd-4d3e-4224-81fb-6cab5133b68c","system_id":"levelo_inurba_marseille","lat":43.313291,"lon":5.396838,"is_reserved":false,"is_disabled":false,"rental_uris":{"android":"levelo://app?vid=384940dd-4d3e-4224-81fb-6cab5133b68c","ios":"levelo://app?vid=384940dd-4d3e-4224-81fb-6cab5133b68c"},"vehicle_type_id":"4","last_reported":1706447222,"current_range_meters":27600,"station_id":"ce4bgvp2rcd13ifvqcu0","pricing_plan_id":"free"},{"bike_id":"0b868ad8-a399-426f-9c08-6efb7aa8342f","system_id":"levelo_inurba_marseille","lat":43.309047,"lon":5.396551,"is_reserved":false,"is_disabled":false,"rental_uris":{"android":"levelo://app?vid=0b868ad8-a399-426f-9c08-6efb7aa8342f","ios":"levelo://app?vid=0b868ad8-a399-426f-9c08-6efb7aa8342f"},"vehicle_type_id":"4","last_reported":1706447222,"current_range_meters":20400,"station_id":"ce4bh012rcd13ifvqcv0","pricing_plan_id":"free"},{"bike_id":"efb2a5cc-2a58-4bf4-9400-bda20c1955ab","system_id":"levelo_inurba_marseille","lat":43.29529,"lon":5.385581,"is_reserved":false,"is_disabled":false,"rental_uris":{"android":"levelo://app?vid=efb2a5cc-2a58-4bf4-9400-bda20c1955ab","ios":"levelo://app?vid=efb2a5cc-2a58-4bf4-9400-bda20c1955ab"},"vehicle_type_id":"4","last_reported":1706447222,"current_range_meters":26400,"station_id":"ce4bgih2rcd13ifvqba0","pricing_plan_id":"free"},{"bike_id":"67253f71-9665-4dc2-ab94-5c325474a646","system_id":"levelo_inurba_marseille","lat":43.290779,"lon":5.371482,"is_reserved":false,"is_disabled":false,"rental_uris":{"android":"levelo://app?vid=67253f71-9665-4dc2-ab94-5c325474a646","ios":"levelo://app?vid=67253f71-9665-4dc2-ab94-5c325474a646"},"vehicle_type_id":"4","last_reported":1706447222,"current_range_meters":24400,"station_id":"ce4bh5p2rcd13ifvqe4g","pricing_plan_id":"free"},{"bike_id":"5d78392b-ccb8-4905-b578-fce84a9dc368","system_id":"levelo_inurba_marseille","lat":43.302008,"lon":5.394694,"is_reserved":false,"is_disabled":false,"rental_uris":{"android":"levelo://app?vid=5d78392b-ccb8-4905-b578-fce84a9dc368","ios":"levelo://app?vid=5d78392b-ccb8-4905-b578-fce84a9dc368"},"vehicle_type_id":"4","last_reported":1706447222,"current_range_meters":14000,"station_id":"ce4bh0p2rcd13ifvqd70","pricing_plan_id":"free"},{"bike_id":"f87aab6c-ba95-4663-9445-2900af9ea395","system_id":"levelo_inurba_marseille","lat":43.290631,"lon":5.359244,"is_reserved":false,"is_disabled":false,"rental_uris":{"android":"levelo://app?vid=f87aab6c-ba95-4663-9445-2900af9ea395","ios":"levelo://app?vid=f87aab6c-ba95-4663-9445-2900af9ea395"},"vehicle_type_id":"4","last_reported":1706447222,"current_range_meters":27200,"station_id":"ce4bha92rcd13ifvqeg0","pricing_plan_id":"free"},{"bike_id":"dc193ef2-4daa-465d-9b06-0bceb69d1c37","system_id":"levelo_inurba_marseille","lat":43.290327,"lon":5.375711,"is_reserved":false,"is_disabled":false,"rental_uris":{"android":"levelo://app?vid=dc193ef2-4daa-465d-9b06-0bceb69d1c37","ios":"levelo://app?vid=dc193ef2-4daa-465d-9b06-0bceb69d1c37"},"vehicle_type_id":"4","last_reported":1706447222,"current_range_meters":2800,"station_id":"ce4bh692rcd13ifvqe90","pricing_plan_id":"free"},{"bike_id":"0332dcca-1977-4362-9b8a-6f5714745592","system_id":"levelo_inurba_marseille","lat":43.294153,"lon":5.386305,"is_reserved":false,"is_disabled":false,"rental_uris":{"android":"levelo://app?vid=0332dcca-1977-4362-9b8a-6f5714745592","ios":"levelo://app?vid=0332dcca-1977-4362-9b8a-6f5714745592"},"vehicle_type_id":"4","last_reported":1706447222,"current_range_meters":0,"station_id":"ce4bh2h2rcd13ifvqdh0","pricing_plan_id":"free"},{"bike_id":"c0c1e448-b140-4f94-8768-d4c1660a2605","system_id":"levelo_inurba_marseille","lat":43.294153,"lon":5.386305,"is_reserved":false,"is_disabled":false,"rental_uris":{"android":"levelo://app?vid=c0c1e448-b140-4f94-8768-d4c1660a2605","ios":"levelo://app?vid=c0c1e448-b140-4f94-8768-d4c1660a2605"},"vehicle_type_id":"4","last_reported":1706447222,"current_range_meters":18000,"station_id":"ce4bh2h2rcd13ifvqdh0","pricing_plan_id":"free"},{"bike_id":"86780637-2b91-4737-a66e-acc7ec122f8a","system_id":"levelo_inurba_marseille","lat":43.290327,"lon":5.375711,"is_reserved":false,"is_disabled":false,"rental_uris":{"android":"levelo://app?vid=86780637-2b91-4737-a66e-acc7ec122f8a","ios":"levelo://app?vid=86780637-2b91-4737-a66e-acc7ec122f8a"},"vehicle_type_id":"4","last_reported":1706447222,"current_range_meters":30800,"station_id":"ce4bh692rcd13ifvqe90","pricing_plan_id":"free"},{"bike_id":"321059ca-8470-4e9f-bf28-1dee634c9f12","system_id":"levelo_inurba_marseille","lat":43.29008,"lon":5.35614,"is_reserved":false,"is_disabled":false,"rental_uris":{"android":"levelo://app?vid=321059ca-8470-4e9f-bf28-1dee634c9f12","ios":"levelo://app?vid=321059ca-8470-4e9f-bf28-1dee634c9f12"},"vehicle_type_id":"4","last_reported":1706447222,"current_range_meters":0,"station_id":"ce4bhb92rcd13ifvqen0","pricing_plan_id":"free"},{"bike_id":"2be9dea3-df0c-437b-8069-923d6ce293f6","system_id":"levelo_inurba_marseille","lat":43.289743,"lon":5.378304,"is_reserved":false,"is_disabled":false,"rental_uris":{"android":"levelo://app?vid=2be9dea3-df0c-437b-8069-923d6ce293f6","ios":"levelo://app?vid=2be9dea3-df0c-437b-8069-923d6ce293f6"},"vehicle_type_id":"4","last_reported":1706447222,"current_range_meters":18800,"station_id":"ce4bh9p2rcd13ifvqed0","pricing_plan_id":"free"},{"bike_id":"481dad6f-9967-4f6f-97c2-139abd002c75","system_id":"levelo_inurba_marseille","lat":43.330442,"lon":5.389148,"is_reserved":false,"is_disabled":false,"rental_uris":{"android":"levelo://app?vid=481dad6f-9967-4f6f-97c2-139abd002c75","ios":"levelo://app?vid=481dad6f-9967-4f6f-97c2-139abd002c75"},"vehicle_type_id":"4","last_reported":1706447222,"current_range_meters":2000,"station_id":"ce4bhr92rcd13ifvqhrg","pricing_plan_id":"free"},{"bike_id":"046ce65d-4828-4b75-b78e-845d97e6966b","system_id":"levelo_inurba_marseille","lat":43.330442,"lon":5.389148,"is_reserved":false,"is_disabled":false,"rental_uris":{"android":"levelo://app?vid=046ce65d-4828-4b75-b78e-845d97e6966b","ios":"levelo://app?vid=046ce65d-4828-4b75-b78e-845d97e6966b"},"vehicle_type_id":"4","last_reported":1706447222,"current_range_meters":21200,"station_id":"ce4bhr92rcd13ifvqhrg","pricing_plan_id":"free"},{"bike_id":"923caece-2ab6-42d2-ab1e-e20251acec8d","system_id":"levelo_inurba_marseille","lat":43.297815,"lon":5.393548,"is_reserved":false,"is_disabled":false,"rental_uris":{"android":"levelo://app?vid=923caece-2ab6-42d2-ab1e-e20251acec8d","ios":"levelo://app?vid=923caece-2ab6-42d2-ab1e-e20251acec8d"},"vehicle_type_id":"4","last_reported":1706447222,"current_range_meters":16800,"station_id":"chh1huq6cuj3fo74tm60","pricing_plan_id":"free"},{"bike_id":"6d5c22ef-611c-49fe-8441-bbbcffcb36a5","system_id":"levelo_inurba_marseille","lat":43.29034,"lon":5.3813,"is_reserved":false,"is_disabled":false,"rental_uris":{"android":"levelo://app?vid=6d5c22ef-611c-49fe-8441-bbbcffcb36a5","ios":"levelo://app?vid=6d5c22ef-611c-49fe-8441-bbbcffcb36a5"},"vehicle_type_id":"4","last_reported":1706447222,"current_range_meters":18400,"station_id":"","pricing_plan_id":"free"},{"bike_id":"6629075f-ac44-4fcd-a171-a822a6a68c9c","system_id":"levelo_inurba_marseille","lat":43.312609,"lon":5.401662,"is_reserved":false,"is_disabled":false,"rental_uris":{"android":"levelo://app?vid=6629075f-ac44-4fcd-a171-a822a6a68c9c","ios":"levelo://app?vid=6629075f-ac44-4fcd-a171-a822a6a68c9c"},"vehicle_type_id":"4","last_reported":1706447222,"current_range_meters":5200,"station_id":"ce4bh092rcd13ifvqd30","pricing_plan_id":"free"},{"bike_id":"acc80e8f-9341-4b70-9af2-fde0a95accd4","system_id":"levelo_inurba_marseille","lat":43.309371,"lon":5.401449,"is_reserved":false,"is_disabled":false,"rental_uris":{"android":"levelo://app?vid=acc80e8f-9341-4b70-9af2-fde0a95accd4","ios":"levelo://app?vid=acc80e8f-9341-4b70-9af2-fde0a95accd4"},"vehicle_type_id":"4","last_reported":1706447222,"current_range_meters":14800,"station_id":"ce4bgvp2rcd13ifvqct0","pricing_plan_id":"free"},{"bike_id":"fb45b453-54a4-4a89-9584-0edc83f13748","system_id":"levelo_inurba_marseille","lat":43.309371,"lon":5.401449,"is_reserved":false,"is_disabled":false,"rental_uris":{"android":"levelo://app?vid=fb45b453-54a4-4a89-9584-0edc83f13748","ios":"levelo://app?vid=fb45b453-54a4-4a89-9584-0edc83f13748"},"vehicle_type_id":"4","last_reported":1706447222,"current_range_meters":6800,"station_id":"ce4bgvp2rcd13ifvqct0","pricing_plan_id":"free"},{"bike_id":"0f2c1b5b-2255-427d-8e1c-a2e4920df7dd","system_id":"levelo_inurba_marseille","lat":43.33751,"lon":5.37443,"is_reserved":false,"is_disabled":false,"rental_uris":{"android":"levelo://app?vid=0f2c1b5b-2255-427d-8e1c-a2e4920df7dd","ios":"levelo://app?vid=0f2c1b5b-2255-427d-8e1c-a2e4920df7dd"},"vehicle_type_id":"4","last_reported":1706447222,"current_range_meters":26800,"station_id":"","pricing_plan_id":"free"},{"bike_id":"a563cdbf-78b8-441c-8dce-8da1c3325b92","system_id":"levelo_inurba_marseille","lat":43.337483,"lon":5.374606,"is_reserved":false,"is_disabled":false,"rental_uris":{"android":"levelo://app?vid=a563cdbf-78b8-441c-8dce-8da1c3325b92","ios":"levelo://app?vid=a563cdbf-78b8-441c-8dce-8da1c3325b92"},"vehicle_type_id":"4","last_reported":1706447222,"current_range_meters":20000,"station_id":"","pricing_plan_id":"free"},{"bike_id":"b7f12eab-e0a6-499e-87ec-2b4381c4602a","system_id":"levelo_inurba_marseille","lat":43.337487,"lon":5.374624,"is_reserved":false,"is_disabled":false,"rental_uris":{"android":"levelo://app?vid=b7f12eab-e0a6-499e-87ec-2b4381c4602a","ios":"levelo://app?vid=b7f12eab-e0a6-499e-87ec-2b4381c4602a"},"vehicle_type_id":"4","last_reported":1706447222,"current_range_meters":23200,"station_id":"","pricing_plan_id":"free"},{"bike_id":"db446cf8-e2f9-4c92-bdb8-02c05f8334d7","system_id":"levelo_inurba_marseille","lat":43.312609,"lon":5.401662,"is_reserved":false,"is_disabled":false,"rental_uris":{"android":"levelo://app?vid=db446cf8-e2f9-4c92-bdb8-02c05f8334d7","ios":"levelo://app?vid=db446cf8-e2f9-4c92-bdb8-02c05f8334d7"},"vehicle_type_id":"4","last_reported":1706447222,"current_range_meters":26000,"station_id":"ce4bh092rcd13ifvqd30","pricing_plan_id":"free"},{"bike_id":"2fe24097-b1c2-4583-ba1f-cf8501171a4c","system_id":"levelo_inurba_marseille","lat":43.33756,"lon":5.37487,"is_reserved":false,"is_disabled":false,"rental_uris":{"android":"levelo://app?vid=2fe24097-b1c2-4583-ba1f-cf8501171a4c","ios":"levelo://app?vid=2fe24097-b1c2-4583-ba1f-cf8501171a4c"},"vehicle_type_id":"4","last_reported":1706447222,"current_range_meters":11600,"station_id":"","pricing_plan_id":"free"},{"bike_id":"b7d3b81d-d85a-44b5-a0c7-8f9c9f74639e","system_id":"levelo_inurba_marseille","lat":43.33765,"lon":5.374672,"is_reserved":false,"is_disabled":false,"rental_uris":{"android":"levelo://app?vid=b7d3b81d-d85a-44b5-a0c7-8f9c9f74639e","ios":"levelo://app?vid=b7d3b81d-d85a-44b5-a0c7-8f9c9f74639e"},"vehicle_type_id":"4","last_reported":1706447222,"current_range_meters":26800,"station_id":"","pricing_plan_id":"free"},{"bike_id":"1facbbf3-baac-42f8-85eb-cb1e36f3e4b9","system_id":"levelo_inurba_marseille","lat":43.33762,"lon":5.374889,"is_reserved":false,"is_disabled":false,"rental_uris":{"android":"levelo://app?vid=1facbbf3-baac-42f8-85eb-cb1e36f3e4b9","ios":"levelo://app?vid=1facbbf3-baac-42f8-85eb-cb1e36f3e4b9"},"vehicle_type_id":"4","last_reported":1706447222,"current_range_meters":14800,"station_id":"","pricing_plan_id":"free"},{"bike_id":"66a9a5ad-8ef3-4820-a94b-122552348ff1","system_id":"levelo_inurba_marseille","lat":43.301117,"lon":5.398795,"is_reserved":false,"is_disabled":false,"rental_uris":{"android":"levelo://app?vid=66a9a5ad-8ef3-4820-a94b-122552348ff1","ios":"levelo://app?vid=66a9a5ad-8ef3-4820-a94b-122552348ff1"},"vehicle_type_id":"4","last_reported":1706447222,"current_range_meters":0,"station_id":"ce4bh0h2rcd13ifvqd40","pricing_plan_id":"free"},{"bike_id":"dfa403e7-caec-4f3d-810d-5ee8426e7415","system_id":"levelo_inurba_marseille","lat":43.286961,"lon":5.373785,"is_reserved":false,"is_disabled":false,"rental_uris":{"android":"levelo://app?vid=dfa403e7-caec-4f3d-810d-5ee8426e7415","ios":"levelo://app?vid=dfa403e7-caec-4f3d-810d-5ee8426e7415"},"vehicle_type_id":"4","last_reported":1706447222,"current_range_meters":25600,"station_id":"ce4bh3p2rcd13ifvqdq0","pricing_plan_id":"free"},{"bike_id":"dd16670d-a7c3-427d-96cd-9c90a9f03bb9","system_id":"levelo_inurba_marseille","lat":43.286961,"lon":5.373785,"is_reserved":false,"is_disabled":false,"rental_uris":{"android":"levelo://app?vid=dd16670d-a7c3-427d-96cd-9c90a9f03bb9","ios":"levelo://app?vid=dd16670d-a7c3-427d-96cd-9c90a9f03bb9"},"vehicle_type_id":"4","last_reported":1706447222,"current_range_meters":28400,"station_id":"ce4bh3p2rcd13ifvqdq0","pricing_plan_id":"free"},{"bike_id":"25043f14-73ad-4e73-a179-93713562af08","system_id":"levelo_inurba_marseille","lat":43.295196,"lon":5.39397,"is_reserved":false,"is_disabled":false,"rental_uris":{"android":"levelo://app?vid=25043f14-73ad-4e73-a179-93713562af08","ios":"levelo://app?vid=25043f14-73ad-4e73-a179-93713562af08"},"vehicle_type_id":"4","last_reported":1706447222,"current_range_meters":27200,"station_id":"ce4bh292rcd13ifvqdf0","pricing_plan_id":"free"},{"bike_id":"bd765935-0411-44e3-ad6e-4f6d24b4227a","system_id":"levelo_inurba_marseille","lat":43.286961,"lon":5.373785,"is_reserved":false,"is_disabled":false,"rental_uris":{"android":"levelo://app?vid=bd765935-0411-44e3-ad6e-4f6d24b4227a","ios":"levelo://app?vid=bd765935-0411-44e3-ad6e-4f6d24b4227a"},"vehicle_type_id":"4","last_reported":1706447222,"current_range_meters":14000,"station_id":"ce4bh3p2rcd13ifvqdq0","pricing_plan_id":"free"},{"bike_id":"59c6caef-10a6-45b4-a838-2f54adda7b24","system_id":"levelo_inurba_marseille","lat":43.290336,"lon":5.386425,"is_reserved":false,"is_disabled":false,"rental_uris":{"android":"levelo://app?vid=59c6caef-10a6-45b4-a838-2f54adda7b24","ios":"levelo://app?vid=59c6caef-10a6-45b4-a838-2f54adda7b24"},"vehicle_type_id":"4","last_reported":1706447222,"current_range_meters":8000,"station_id":"ce4bh4p2rcd13ifvqe0g","pricing_plan_id":"free"},{"bike_id":"b1ee1ea4-aa7e-4ca4-b9f1-af0d7e92f31b","system_id":"levelo_inurba_marseille","lat":43.29029,"lon":5.38645,"is_reserved":false,"is_disabled":false,"rental_uris":{"android":"levelo://app?vid=b1ee1ea4-aa7e-4ca4-b9f1-af0d7e92f31b","ios":"levelo://app?vid=b1ee1ea4-aa7e-4ca4-b9f1-af0d7e92f31b"},"vehicle_type_id":"4","last_reported":1706447222,"current_range_meters":26800,"station_id":"ce4bh4p2rcd13ifvqe0g","pricing_plan_id":"free"},{"bike_id":"183bb1c1-398f-466c-b05d-327ac4efc436","system_id":"levelo_inurba_marseille","lat":43.302511,"lon":5.400653,"is_reserved":false,"is_disabled":false,"rental_uris":{"android":"levelo://app?vid=183bb1c1-398f-466c-b05d-327ac4efc436","ios":"levelo://app?vid=183bb1c1-398f-466c-b05d-327ac4efc436"},"vehicle_type_id":"4","last_reported":1706447222,"current_range_meters":11200,"station_id":"ce4bgth2rcd13ifvqch0","pricing_plan_id":"free"},{"bike_id":"2d0e80eb-2da5-4e7d-bbb0-06de56df3e7b","system_id":"levelo_inurba_marseille","lat":43.286039,"lon":5.370681,"is_reserved":false,"is_disabled":false,"rental_uris":{"android":"levelo://app?vid=2d0e80eb-2da5-4e7d-bbb0-06de56df3e7b","ios":"levelo://app?vid=2d0e80eb-2da5-4e7d-bbb0-06de56df3e7b"},"vehicle_type_id":"4","last_reported":1706447222,"current_range_meters":7200,"station_id":"ce4bht12rcd13ifvqi60","pricing_plan_id":"free"},{"bike_id":"148edba2-7cb1-4f61-8b7b-835773bef6d2","system_id":"levelo_inurba_marseille","lat":43.316821,"lon":5.404737,"is_reserved":false,"is_disabled":false,"rental_uris":{"android":"levelo://app?vid=148edba2-7cb1-4f61-8b7b-835773bef6d2","ios":"levelo://app?vid=148edba2-7cb1-4f61-8b7b-835773bef6d2"},"vehicle_type_id":"4","last_reported":1706447222,"current_range_meters":25600,"station_id":"ce4bh012rcd13ifvqd00","pricing_plan_id":"free"},{"bike_id":"4d533b94-fb22-45ec-ae7a-4ba8197aac6c","system_id":"levelo_inurba_marseille","lat":43.28617,"lon":5.35106,"is_reserved":false,"is_disabled":false,"rental_uris":{"android":"levelo://app?vid=4d533b94-fb22-45ec-ae7a-4ba8197aac6c","ios":"levelo://app?vid=4d533b94-fb22-45ec-ae7a-4ba8197aac6c"},"vehicle_type_id":"4","last_reported":1706447222,"current_range_meters":0,"station_id":"ce4bhch2rcd13ifvqeug","pricing_plan_id":"free"},{"bike_id":"d1dd3e08-4630-4e8d-845f-598bd92032cc","system_id":"levelo_inurba_marseille","lat":43.28616,"lon":5.35106,"is_reserved":false,"is_disabled":false,"rental_uris":{"android":"levelo://app?vid=d1dd3e08-4630-4e8d-845f-598bd92032cc","ios":"levelo://app?vid=d1dd3e08-4630-4e8d-845f-598bd92032cc"},"vehicle_type_id":"4","last_reported":1706447222,"current_range_meters":6800,"station_id":"ce4bhch2rcd13ifvqeug","pricing_plan_id":"free"},{"bike_id":"67f98ed7-a0de-4e81-92e6-fefa1b4df08c","system_id":"levelo_inurba_marseille","lat":43.28615,"lon":5.35106,"is_reserved":false,"is_disabled":false,"rental_uris":{"android":"levelo://app?vid=67f98ed7-a0de-4e81-92e6-fefa1b4df08c","ios":"levelo://app?vid=67f98ed7-a0de-4e81-92e6-fefa1b4df08c"},"vehicle_type_id":"4","last_reported":1706447222,"current_range_meters":12800,"station_id":"ce4bhch2rcd13ifvqeug","pricing_plan_id":"free"},{"bike_id":"7ce4bf7d-327c-4671-8b09-01082e54b6f9","system_id":"levelo_inurba_marseille","lat":43.28612,"lon":5.35107,"is_reserved":false,"is_disabled":false,"rental_uris":{"android":"levelo://app?vid=7ce4bf7d-327c-4671-8b09-01082e54b6f9","ios":"levelo://app?vid=7ce4bf7d-327c-4671-8b09-01082e54b6f9"},"vehicle_type_id":"4","last_reported":1706447222,"current_range_meters":0,"station_id":"ce4bhch2rcd13ifvqeug","pricing_plan_id":"free"},{"bike_id":"84939456-6752-47ce-b628-fed93bcd290d","system_id":"levelo_inurba_marseille","lat":43.28611,"lon":5.35109,"is_reserved":false,"is_disabled":false,"rental_uris":{"android":"levelo://app?vid=84939456-6752-47ce-b628-fed93bcd290d","ios":"levelo://app?vid=84939456-6752-47ce-b628-fed93bcd290d"},"vehicle_type_id":"4","last_reported":1706447222,"current_range_meters":27600,"station_id":"ce4bhch2rcd13ifvqeug","pricing_plan_id":"free"},{"bike_id":"3096b737-fac4-4887-a112-0840054b2eae","system_id":"levelo_inurba_marseille","lat":43.28611,"lon":5.35108,"is_reserved":false,"is_disabled":false,"rental_uris":{"android":"levelo://app?vid=3096b737-fac4-4887-a112-0840054b2eae","ios":"levelo://app?vid=3096b737-fac4-4887-a112-0840054b2eae"},"vehicle_type_id":"4","last_reported":1706447222,"current_range_meters":1200,"station_id":"ce4bhch2rcd13ifvqeug","pricing_plan_id":"free"},{"bike_id":"b29b4b3a-7a43-4939-bb05-5f4f2fe881f9","system_id":"levelo_inurba_marseille","lat":43.319179,"lon":5.407725,"is_reserved":false,"is_disabled":false,"rental_uris":{"android":"levelo://app?vid=b29b4b3a-7a43-4939-bb05-5f4f2fe881f9","ios":"levelo://app?vid=b29b4b3a-7a43-4939-bb05-5f4f2fe881f9"},"vehicle_type_id":"4","last_reported":1706447222,"current_range_meters":31600,"station_id":"ce4bhq12rcd13ifvqhig","pricing_plan_id":"free"},{"bike_id":"05fc9190-3ea5-4df2-85a3-37ff04fb83d5","system_id":"levelo_inurba_marseille","lat":43.319179,"lon":5.407725,"is_reserved":false,"is_disabled":false,"rental_uris":{"android":"levelo://app?vid=05fc9190-3ea5-4df2-85a3-37ff04fb83d5","ios":"levelo://app?vid=05fc9190-3ea5-4df2-85a3-37ff04fb83d5"},"vehicle_type_id":"4","last_reported":1706447222,"current_range_meters":32000,"station_id":"ce4bhq12rcd13ifvqhig","pricing_plan_id":"free"},{"bike_id":"93583c9d-6608-4a45-a9e4-6b21433562b1","system_id":"levelo_inurba_marseille","lat":43.319179,"lon":5.407725,"is_reserved":false,"is_disabled":false,"rental_uris":{"android":"levelo://app?vid=93583c9d-6608-4a45-a9e4-6b21433562b1","ios":"levelo://app?vid=93583c9d-6608-4a45-a9e4-6b21433562b1"},"vehicle_type_id":"4","last_reported":1706447222,"current_range_meters":22800,"station_id":"ce4bhq12rcd13ifvqhig","pricing_plan_id":"free"},{"bike_id":"0714814f-ea83-436c-ab7a-863407d61d28","system_id":"levelo_inurba_marseille","lat":43.323464,"lon":5.406297,"is_reserved":false,"is_disabled":false,"rental_uris":{"android":"levelo://app?vid=0714814f-ea83-436c-ab7a-863407d61d28","ios":"levelo://app?vid=0714814f-ea83-436c-ab7a-863407d61d28"},"vehicle_type_id":"4","last_reported":1706447222,"current_range_meters":17600,"station_id":"ce4bhq92rcd13ifvqhjg","pricing_plan_id":"free"},{"bike_id":"52439912-ff96-4432-94df-69b05275e890","system_id":"levelo_inurba_marseille","lat":43.323464,"lon":5.406297,"is_reserved":false,"is_disabled":false,"rental_uris":{"android":"levelo://app?vid=52439912-ff96-4432-94df-69b05275e890","ios":"levelo://app?vid=52439912-ff96-4432-94df-69b05275e890"},"vehicle_type_id":"4","last_reported":1706447222,"current_range_meters":26800,"station_id":"ce4bhq92rcd13ifvqhjg","pricing_plan_id":"free"},{"bike_id":"890b6862-bec4-42d7-9a15-88375b7eff83","system_id":"levelo_inurba_marseille","lat":43.28428,"lon":5.34992,"is_reserved":false,"is_disabled":false,"rental_uris":{"android":"levelo://app?vid=890b6862-bec4-42d7-9a15-88375b7eff83","ios":"levelo://app?vid=890b6862-bec4-42d7-9a15-88375b7eff83"},"vehicle_type_id":"4","last_reported":1706447222,"current_range_meters":13600,"station_id":"ce4bhbh2rcd13ifvqepg","pricing_plan_id":"free"},{"bike_id":"f2e61fd9-99de-406a-b9cf-8cd3ff57a7cf","system_id":"levelo_inurba_marseille","lat":43.284219,"lon":5.3497,"is_reserved":false,"is_disabled":false,"rental_uris":{"android":"levelo://app?vid=f2e61fd9-99de-406a-b9cf-8cd3ff57a7cf","ios":"levelo://app?vid=f2e61fd9-99de-406a-b9cf-8cd3ff57a7cf"},"vehicle_type_id":"4","last_reported":1706447222,"current_range_meters":11200,"station_id":"ce4bhbh2rcd13ifvqepg","pricing_plan_id":"free"},{"bike_id":"bb5ac85c-fcff-44a0-b4e1-81862daa817c","system_id":"levelo_inurba_marseille","lat":43.284217,"lon":5.349697,"is_reserved":false,"is_disabled":false,"rental_uris":{"android":"levelo://app?vid=bb5ac85c-fcff-44a0-b4e1-81862daa817c","ios":"levelo://app?vid=bb5ac85c-fcff-44a0-b4e1-81862daa817c"},"vehicle_type_id":"4","last_reported":1706447222,"current_range_meters":22400,"station_id":"ce4bhbh2rcd13ifvqepg","pricing_plan_id":"free"},{"bike_id":"d4b3c849-44e7-44f7-b92f-d53cb93dc54e","system_id":"levelo_inurba_marseille","lat":43.284217,"lon":5.349697,"is_reserved":false,"is_disabled":false,"rental_uris":{"android":"levelo://app?vid=d4b3c849-44e7-44f7-b92f-d53cb93dc54e","ios":"levelo://app?vid=d4b3c849-44e7-44f7-b92f-d53cb93dc54e"},"vehicle_type_id":"4","last_reported":1706447222,"current_range_meters":22400,"station_id":"ce4bhbh2rcd13ifvqepg","pricing_plan_id":"free"},{"bike_id":"b2780e63-292f-4a6e-9c5d-a5b7fcd70da5","system_id":"levelo_inurba_marseille","lat":43.284219,"lon":5.3497,"is_reserved":false,"is_disabled":false,"rental_uris":{"android":"levelo://app?vid=b2780e63-292f-4a6e-9c5d-a5b7fcd70da5","ios":"levelo://app?vid=b2780e63-292f-4a6e-9c5d-a5b7fcd70da5"},"vehicle_type_id":"4","last_reported":1706447222,"current_range_meters":31200,"station_id":"ce4bhbh2rcd13ifvqepg","pricing_plan_id":"free"},{"bike_id":"efb16426-0084-4636-86a2-4305df32c928","system_id":"levelo_inurba_marseille","lat":43.284217,"lon":5.349697,"is_reserved":false,"is_disabled":false,"rental_uris":{"android":"levelo://app?vid=efb16426-0084-4636-86a2-4305df32c928","ios":"levelo://app?vid=efb16426-0084-4636-86a2-4305df32c928"},"vehicle_type_id":"4","last_reported":1706447222,"current_range_meters":19200,"station_id":"ce4bhbh2rcd13ifvqepg","pricing_plan_id":"free"},{"bike_id":"b41bcd76-cb12-4b33-95cd-9444d1e23578","system_id":"levelo_inurba_marseille","lat":43.293556,"lon":5.401561,"is_reserved":false,"is_disabled":false,"rental_uris":{"android":"levelo://app?vid=b41bcd76-cb12-4b33-95cd-9444d1e23578","ios":"levelo://app?vid=b41bcd76-cb12-4b33-95cd-9444d1e23578"},"vehicle_type_id":"4","last_reported":1706447222,"current_range_meters":6000,"station_id":"","pricing_plan_id":"free"},{"bike_id":"ebc081b3-d9eb-43e8-9994-accb1a1dd961","system_id":"levelo_inurba_marseille","lat":43.28287,"lon":5.35061,"is_reserved":false,"is_disabled":false,"rental_uris":{"android":"levelo://app?vid=ebc081b3-d9eb-43e8-9994-accb1a1dd961","ios":"levelo://app?vid=ebc081b3-d9eb-43e8-9994-accb1a1dd961"},"vehicle_type_id":"4","last_reported":1706447222,"current_range_meters":18000,"station_id":"ce4bhbp2rcd13ifvqerg","pricing_plan_id":"free"},{"bike_id":"30296f3d-f8c3-4e1f-a77f-dc746bd81749","system_id":"levelo_inurba_marseille","lat":43.28284,"lon":5.35059,"is_reserved":false,"is_disabled":false,"rental_uris":{"android":"levelo://app?vid=30296f3d-f8c3-4e1f-a77f-dc746bd81749","ios":"levelo://app?vid=30296f3d-f8c3-4e1f-a77f-dc746bd81749"},"vehicle_type_id":"4","last_reported":1706447222,"current_range_meters":21200,"station_id":"ce4bhbp2rcd13ifvqerg","pricing_plan_id":"free"},{"bike_id":"44e0d6f1-09fa-4645-a931-e4573c7f01fd","system_id":"levelo_inurba_marseille","lat":43.282754,"lon":5.350519,"is_reserved":false,"is_disabled":false,"rental_uris":{"android":"levelo://app?vid=44e0d6f1-09fa-4645-a931-e4573c7f01fd","ios":"levelo://app?vid=44e0d6f1-09fa-4645-a931-e4573c7f01fd"},"vehicle_type_id":"4","last_reported":1706447222,"current_range_meters":18000,"station_id":"ce4bhbp2rcd13ifvqerg","pricing_plan_id":"free"},{"bike_id":"948d1731-23e5-43c3-bbfc-ecc34192a129","system_id":"levelo_inurba_marseille","lat":43.28279,"lon":5.3507,"is_reserved":false,"is_disabled":false,"rental_uris":{"android":"levelo://app?vid=948d1731-23e5-43c3-bbfc-ecc34192a129","ios":"levelo://app?vid=948d1731-23e5-43c3-bbfc-ecc34192a129"},"vehicle_type_id":"4","last_reported":1706447222,"current_range_meters":22000,"station_id":"ce4bhbp2rcd13ifvqerg","pricing_plan_id":"free"},{"bike_id":"1f61f9a9-a914-468d-a84a-4f54468ebaa0","system_id":"levelo_inurba_marseille","lat":43.282744,"lon":5.350533,"is_reserved":false,"is_disabled":false,"rental_uris":{"android":"levelo://app?vid=1f61f9a9-a914-468d-a84a-4f54468ebaa0","ios":"levelo://app?vid=1f61f9a9-a914-468d-a84a-4f54468ebaa0"},"vehicle_type_id":"4","last_reported":1706447222,"current_range_meters":29600,"station_id":"ce4bhbp2rcd13ifvqerg","pricing_plan_id":"free"},{"bike_id":"27b7cfc9-d994-4907-8aa4-037e5aebe68b","system_id":"levelo_inurba_marseille","lat":43.28272,"lon":5.35078,"is_reserved":false,"is_disabled":false,"rental_uris":{"android":"levelo://app?vid=27b7cfc9-d994-4907-8aa4-037e5aebe68b","ios":"levelo://app?vid=27b7cfc9-d994-4907-8aa4-037e5aebe68b"},"vehicle_type_id":"4","last_reported":1706447222,"current_range_meters":16800,"station_id":"ce4bhbp2rcd13ifvqerg","pricing_plan_id":"free"},{"bike_id":"3d65bbba-15ef-4f5b-8d79-3885732213fd","system_id":"levelo_inurba_marseille","lat":43.28275,"lon":5.35067,"is_reserved":false,"is_disabled":false,"rental_uris":{"android":"levelo://app?vid=3d65bbba-15ef-4f5b-8d79-3885732213fd","ios":"levelo://app?vid=3d65bbba-15ef-4f5b-8d79-3885732213fd"},"vehicle_type_id":"4","last_reported":1706447222,"current_range_meters":31200,"station_id":"ce4bhbp2rcd13ifvqerg","pricing_plan_id":"free"},{"bike_id":"1fa171d2-c8f0-440c-ac8c-36a621b43697","system_id":"levelo_inurba_marseille","lat":43.282754,"lon":5.350519,"is_reserved":false,"is_disabled":false,"rental_uris":{"android":"levelo://app?vid=1fa171d2-c8f0-440c-ac8c-36a621b43697","ios":"levelo://app?vid=1fa171d2-c8f0-440c-ac8c-36a621b43697"},"vehicle_type_id":"4","last_reported":1706447222,"current_range_meters":31200,"station_id":"ce4bhbp2rcd13ifvqerg","pricing_plan_id":"free"},{"bike_id":"cb7fd5f1-c72b-4c81-a870-c56a0d2db6bc","system_id":"levelo_inurba_marseille","lat":43.28273,"lon":5.350728,"is_reserved":false,"is_disabled":false,"rental_uris":{"android":"levelo://app?vid=cb7fd5f1-c72b-4c81-a870-c56a0d2db6bc","ios":"levelo://app?vid=cb7fd5f1-c72b-4c81-a870-c56a0d2db6bc"},"vehicle_type_id":"4","last_reported":1706447222,"current_range_meters":1600,"station_id":"ce4bhbp2rcd13ifvqerg","pricing_plan_id":"free"},{"bike_id":"05d23089-cd7b-4b65-b2b2-d1380edf1c51","system_id":"levelo_inurba_marseille","lat":43.28275,"lon":5.3506,"is_reserved":false,"is_disabled":false,"rental_uris":{"android":"levelo://app?vid=05d23089-cd7b-4b65-b2b2-d1380edf1c51","ios":"levelo://app?vid=05d23089-cd7b-4b65-b2b2-d1380edf1c51"},"vehicle_type_id":"4","last_reported":1706447222,"current_range_meters":4400,"station_id":"ce4bhbp2rcd13ifvqerg","pricing_plan_id":"free"},{"bike_id":"3825d845-2261-41fb-9a28-9a80c14f7c73","system_id":"levelo_inurba_marseille","lat":43.282744,"lon":5.350533,"is_reserved":false,"is_disabled":false,"rental_uris":{"android":"levelo://app?vid=3825d845-2261-41fb-9a28-9a80c14f7c73","ios":"levelo://app?vid=3825d845-2261-41fb-9a28-9a80c14f7c73"},"vehicle_type_id":"4","last_reported":1706447222,"current_range_meters":8800,"station_id":"ce4bhbp2rcd13ifvqerg","pricing_plan_id":"free"},{"bike_id":"dfa11469-768e-4535-b1ca-fbef81b9a6b8","system_id":"levelo_inurba_marseille","lat":43.282744,"lon":5.350533,"is_reserved":false,"is_disabled":false,"rental_uris":{"android":"levelo://app?vid=dfa11469-768e-4535-b1ca-fbef81b9a6b8","ios":"levelo://app?vid=dfa11469-768e-4535-b1ca-fbef81b9a6b8"},"vehicle_type_id":"4","last_reported":1706447222,"current_range_meters":14000,"station_id":"ce4bhbp2rcd13ifvqerg","pricing_plan_id":"free"},{"bike_id":"d7b7d22d-740a-4e6a-bcb6-e9610b317206","system_id":"levelo_inurba_marseille","lat":43.28268,"lon":5.35067,"is_reserved":false,"is_disabled":false,"rental_uris":{"android":"levelo://app?vid=d7b7d22d-740a-4e6a-bcb6-e9610b317206","ios":"levelo://app?vid=d7b7d22d-740a-4e6a-bcb6-e9610b317206"},"vehicle_type_id":"4","last_reported":1706447222,"current_range_meters":2000,"station_id":"ce4bhbp2rcd13ifvqerg","pricing_plan_id":"free"},{"bike_id":"888c7d3f-8050-44ca-9d6d-66e11fbbc561","system_id":"levelo_inurba_marseille","lat":43.282744,"lon":5.350533,"is_reserved":false,"is_disabled":false,"rental_uris":{"android":"levelo://app?vid=888c7d3f-8050-44ca-9d6d-66e11fbbc561","ios":"levelo://app?vid=888c7d3f-8050-44ca-9d6d-66e11fbbc561"},"vehicle_type_id":"4","last_reported":1706447222,"current_range_meters":18000,"station_id":"ce4bhbp2rcd13ifvqerg","pricing_plan_id":"free"},{"bike_id":"e4fd8856-9805-4091-aed8-839f8134fb67","system_id":"levelo_inurba_marseille","lat":43.28269,"lon":5.35062,"is_reserved":false,"is_disabled":false,"rental_uris":{"android":"levelo://app?vid=e4fd8856-9805-4091-aed8-839f8134fb67","ios":"levelo://app?vid=e4fd8856-9805-4091-aed8-839f8134fb67"},"vehicle_type_id":"4","last_reported":1706447222,"current_range_meters":21200,"station_id":"ce4bhbp2rcd13ifvqerg","pricing_plan_id":"free"},{"bike_id":"42352d84-59ca-4a06-a285-bae45a53add9","system_id":"levelo_inurba_marseille","lat":43.282744,"lon":5.350533,"is_reserved":false,"is_disabled":false,"rental_uris":{"android":"levelo://app?vid=42352d84-59ca-4a06-a285-bae45a53add9","ios":"levelo://app?vid=42352d84-59ca-4a06-a285-bae45a53add9"},"vehicle_type_id":"4","last_reported":1706447222,"current_range_meters":7200,"station_id":"ce4bhbp2rcd13ifvqerg","pricing_plan_id":"free"},{"bike_id":"a6c0f89d-425c-4bd3-b359-208510256f32","system_id":"levelo_inurba_marseille","lat":43.282744,"lon":5.350533,"is_reserved":false,"is_disabled":false,"rental_uris":{"android":"levelo://app?vid=a6c0f89d-425c-4bd3-b359-208510256f32","ios":"levelo://app?vid=a6c0f89d-425c-4bd3-b359-208510256f32"},"vehicle_type_id":"4","last_reported":1706447222,"current_range_meters":28000,"station_id":"ce4bhbp2rcd13ifvqerg","pricing_plan_id":"free"},{"bike_id":"b042bebf-fb8c-4ddf-862e-718aeb989330","system_id":"levelo_inurba_marseille","lat":43.282553,"lon":5.350584,"is_reserved":false,"is_disabled":false,"rental_uris":{"android":"levelo://app?vid=b042bebf-fb8c-4ddf-862e-718aeb989330","ios":"levelo://app?vid=b042bebf-fb8c-4ddf-862e-718aeb989330"},"vehicle_type_id":"4","last_reported":1706447222,"current_range_meters":30400,"station_id":"ce4bhbp2rcd13ifvqerg","pricing_plan_id":"free"},{"bike_id":"470dacbc-9ba4-43ad-9a56-195905442b67","system_id":"levelo_inurba_marseille","lat":43.296263,"lon":5.40601,"is_reserved":false,"is_disabled":false,"rental_uris":{"android":"levelo://app?vid=470dacbc-9ba4-43ad-9a56-195905442b67","ios":"levelo://app?vid=470dacbc-9ba4-43ad-9a56-195905442b67"},"vehicle_type_id":"4","last_reported":1706447222,"current_range_meters":8000,"station_id":"ce4bh0h2rcd13ifvqd60","pricing_plan_id":"free"},{"bike_id":"fee72f77-3a74-4c73-a329-91325e3a9328","system_id":"levelo_inurba_marseille","lat":43.284462,"lon":5.392121,"is_reserved":false,"is_disabled":false,"rental_uris":{"android":"levelo://app?vid=fee72f77-3a74-4c73-a329-91325e3a9328","ios":"levelo://app?vid=fee72f77-3a74-4c73-a329-91325e3a9328"},"vehicle_type_id":"4","last_reported":1706447222,"current_range_meters":26400,"station_id":"ce4bhoh2rcd13ifvqh5g","pricing_plan_id":"free"},{"bike_id":"6f544420-eeb7-41ad-9ffa-79920f99cc7c","system_id":"levelo_inurba_marseille","lat":43.284462,"lon":5.392121,"is_reserved":false,"is_disabled":false,"rental_uris":{"android":"levelo://app?vid=6f544420-eeb7-41ad-9ffa-79920f99cc7c","ios":"levelo://app?vid=6f544420-eeb7-41ad-9ffa-79920f99cc7c"},"vehicle_type_id":"4","last_reported":1706447222,"current_range_meters":22400,"station_id":"ce4bhoh2rcd13ifvqh5g","pricing_plan_id":"free"},{"bike_id":"26a89c11-60ef-4f21-9147-91c334ab4d86","system_id":"levelo_inurba_marseille","lat":43.284462,"lon":5.392121,"is_reserved":false,"is_disabled":false,"rental_uris":{"android":"levelo://app?vid=26a89c11-60ef-4f21-9147-91c334ab4d86","ios":"levelo://app?vid=26a89c11-60ef-4f21-9147-91c334ab4d86"},"vehicle_type_id":"4","last_reported":1706447222,"current_range_meters":19200,"station_id":"ce4bhoh2rcd13ifvqh5g","pricing_plan_id":"free"},{"bike_id":"6ebeeb43-da80-478d-86c7-69e65aa6887e","system_id":"levelo_inurba_marseille","lat":43.326605,"lon":5.409903,"is_reserved":false,"is_disabled":false,"rental_uris":{"android":"levelo://app?vid=6ebeeb43-da80-478d-86c7-69e65aa6887e","ios":"levelo://app?vid=6ebeeb43-da80-478d-86c7-69e65aa6887e"},"vehicle_type_id":"4","last_reported":1706447222,"current_range_meters":29600,"station_id":"ce4bhpp2rcd13ifvqhgg","pricing_plan_id":"free"},{"bike_id":"cbb0a1d2-2958-40a1-a5cc-459847017ddf","system_id":"levelo_inurba_marseille","lat":43.326605,"lon":5.409903,"is_reserved":false,"is_disabled":false,"rental_uris":{"android":"levelo://app?vid=cbb0a1d2-2958-40a1-a5cc-459847017ddf","ios":"levelo://app?vid=cbb0a1d2-2958-40a1-a5cc-459847017ddf"},"vehicle_type_id":"4","last_reported":1706447222,"current_range_meters":6400,"station_id":"ce4bhpp2rcd13ifvqhgg","pricing_plan_id":"free"},{"bike_id":"1e1ddf92-2482-4fb9-85f1-9b617db10d46","system_id":"levelo_inurba_marseille","lat":43.308051,"lon":5.43527,"is_reserved":false,"is_disabled":false,"rental_uris":{"android":"levelo://app?vid=1e1ddf92-2482-4fb9-85f1-9b617db10d46","ios":"levelo://app?vid=1e1ddf92-2482-4fb9-85f1-9b617db10d46"},"vehicle_type_id":"4","last_reported":1706447222,"current_range_meters":18400,"station_id":"ce4bhph2rcd13ifvqheg","pricing_plan_id":"free"},{"bike_id":"d72a1ff9-f2ca-46f8-a09a-a09ce729729a","system_id":"levelo_inurba_marseille","lat":43.304188,"lon":5.412904,"is_reserved":false,"is_disabled":false,"rental_uris":{"android":"levelo://app?vid=d72a1ff9-f2ca-46f8-a09a-a09ce729729a","ios":"levelo://app?vid=d72a1ff9-f2ca-46f8-a09a-a09ce729729a"},"vehicle_type_id":"4","last_reported":1706447222,"current_range_meters":28000,"station_id":"ce4bhop2rcd13ifvqh8g","pricing_plan_id":"free"},{"bike_id":"abee9b17-a901-4b80-9c48-8def00275308","system_id":"levelo_inurba_marseille","lat":43.279087,"lon":5.380114,"is_reserved":false,"is_disabled":false,"rental_uris":{"android":"levelo://app?vid=abee9b17-a901-4b80-9c48-8def00275308","ios":"levelo://app?vid=abee9b17-a901-4b80-9c48-8def00275308"},"vehicle_type_id":"4","last_reported":1706447222,"current_range_meters":24400,"station_id":"ce4bhf92rcd13ifvqf50","pricing_plan_id":"free"},{"bike_id":"a6480f9f-d74f-4f3c-b886-0b4689fae24d","system_id":"levelo_inurba_marseille","lat":43.279087,"lon":5.380114,"is_reserved":false,"is_disabled":false,"rental_uris":{"android":"levelo://app?vid=a6480f9f-d74f-4f3c-b886-0b4689fae24d","ios":"levelo://app?vid=a6480f9f-d74f-4f3c-b886-0b4689fae24d"},"vehicle_type_id":"4","last_reported":1706447222,"current_range_meters":13200,"station_id":"ce4bhf92rcd13ifvqf50","pricing_plan_id":"free"},{"bike_id":"bdfed0e8-951c-4769-a86b-af076070159d","system_id":"levelo_inurba_marseille","lat":43.287154,"lon":5.399979,"is_reserved":false,"is_disabled":false,"rental_uris":{"android":"levelo://app?vid=bdfed0e8-951c-4769-a86b-af076070159d","ios":"levelo://app?vid=bdfed0e8-951c-4769-a86b-af076070159d"},"vehicle_type_id":"4","last_reported":1706447222,"current_range_meters":23200,"station_id":"ce4bho92rcd13ifvqh3g","pricing_plan_id":"free"},{"bike_id":"a539d426-9e55-4e9c-b7bf-13cd28eecf36","system_id":"levelo_inurba_marseille","lat":43.27819,"lon":5.35483,"is_reserved":false,"is_disabled":false,"rental_uris":{"android":"levelo://app?vid=a539d426-9e55-4e9c-b7bf-13cd28eecf36","ios":"levelo://app?vid=a539d426-9e55-4e9c-b7bf-13cd28eecf36"},"vehicle_type_id":"4","last_reported":1706447222,"current_range_meters":8400,"station_id":"","pricing_plan_id":"free"},{"bike_id":"a10e714b-29b5-405f-b89d-b86d2ad56c7b","system_id":"levelo_inurba_marseille","lat":43.320045,"lon":5.415048,"is_reserved":false,"is_disabled":false,"rental_uris":{"android":"levelo://app?vid=a10e714b-29b5-405f-b89d-b86d2ad56c7b","ios":"levelo://app?vid=a10e714b-29b5-405f-b89d-b86d2ad56c7b"},"vehicle_type_id":"4","last_reported":1706447222,"current_range_meters":22000,"station_id":"ce4bhq92rcd13ifvqhkg","pricing_plan_id":"free"},{"bike_id":"d5f5684e-adc5-4d81-8347-be8129800d9b","system_id":"levelo_inurba_marseille","lat":43.320045,"lon":5.415048,"is_reserved":false,"is_disabled":false,"rental_uris":{"android":"levelo://app?vid=d5f5684e-adc5-4d81-8347-be8129800d9b","ios":"levelo://app?vid=d5f5684e-adc5-4d81-8347-be8129800d9b"},"vehicle_type_id":"4","last_reported":1706447222,"current_range_meters":0,"station_id":"ce4bhq92rcd13ifvqhkg","pricing_plan_id":"free"},{"bike_id":"0d240a5f-4ede-44d1-b9d9-1079d1f793a6","system_id":"levelo_inurba_marseille","lat":43.292571,"lon":5.409107,"is_reserved":false,"is_disabled":false,"rental_uris":{"android":"levelo://app?vid=0d240a5f-4ede-44d1-b9d9-1079d1f793a6","ios":"levelo://app?vid=0d240a5f-4ede-44d1-b9d9-1079d1f793a6"},"vehicle_type_id":"4","last_reported":1706447222,"current_range_meters":1200,"station_id":"ce4bh192rcd13ifvqdc0","pricing_plan_id":"free"},{"bike_id":"a41ae808-4eee-4985-bc8a-d09a9154c012","system_id":"levelo_inurba_marseille","lat":43.325233,"lon":5.414318,"is_reserved":false,"is_disabled":false,"rental_uris":{"android":"levelo://app?vid=a41ae808-4eee-4985-bc8a-d09a9154c012","ios":"levelo://app?vid=a41ae808-4eee-4985-bc8a-d09a9154c012"},"vehicle_type_id":"4","last_reported":1706447222,"current_range_meters":22000,"station_id":"ce4bhq12rcd13ifvqhhg","pricing_plan_id":"free"},{"bike_id":"e0ffbd3c-6ebf-4289-8c42-97714d54c4c7","system_id":"levelo_inurba_marseille","lat":43.335926,"lon":5.410057,"is_reserved":false,"is_disabled":false,"rental_uris":{"android":"levelo://app?vid=e0ffbd3c-6ebf-4289-8c42-97714d54c4c7","ios":"levelo://app?vid=e0ffbd3c-6ebf-4289-8c42-97714d54c4c7"},"vehicle_type_id":"4","last_reported":1706447222,"current_range_meters":0,"station_id":"ce4bhqh2rcd13ifvqhmg","pricing_plan_id":"free"},{"bike_id":"97d17b84-959d-4a85-ab71-0b9166ae1f5b","system_id":"levelo_inurba_marseille","lat":43.275625,"lon":5.384392,"is_reserved":false,"is_disabled":false,"rental_uris":{"android":"levelo://app?vid=97d17b84-959d-4a85-ab71-0b9166ae1f5b","ios":"levelo://app?vid=97d17b84-959d-4a85-ab71-0b9166ae1f5b"},"vehicle_type_id":"4","last_reported":1706447222,"current_range_meters":27200,"station_id":"ce4bhh92rcd13ifvqfi0","pricing_plan_id":"free"},{"bike_id":"aa0f517f-ada5-4a72-96f0-a728567ac06e","system_id":"levelo_inurba_marseille","lat":43.27383,"lon":5.36254,"is_reserved":false,"is_disabled":false,"rental_uris":{"android":"levelo://app?vid=aa0f517f-ada5-4a72-96f0-a728567ac06e","ios":"levelo://app?vid=aa0f517f-ada5-4a72-96f0-a728567ac06e"},"vehicle_type_id":"4","last_reported":1706447222,"current_range_meters":30400,"station_id":"ce4bhbh2rcd13ifvqeo0","pricing_plan_id":"free"},{"bike_id":"08e95487-6327-4001-8f0d-8ed1d4593628","system_id":"levelo_inurba_marseille","lat":43.27382,"lon":5.36257,"is_reserved":false,"is_disabled":false,"rental_uris":{"android":"levelo://app?vid=08e95487-6327-4001-8f0d-8ed1d4593628","ios":"levelo://app?vid=08e95487-6327-4001-8f0d-8ed1d4593628"},"vehicle_type_id":"4","last_reported":1706447222,"current_range_meters":30800,"station_id":"ce4bhbh2rcd13ifvqeo0","pricing_plan_id":"free"},{"bike_id":"6ef6cea5-279b-4734-b184-642fd171d26e","system_id":"levelo_inurba_marseille","lat":43.273613,"lon":5.362705,"is_reserved":false,"is_disabled":false,"rental_uris":{"android":"levelo://app?vid=6ef6cea5-279b-4734-b184-642fd171d26e","ios":"levelo://app?vid=6ef6cea5-279b-4734-b184-642fd171d26e"},"vehicle_type_id":"4","last_reported":1706447222,"current_range_meters":12000,"station_id":"ce4bhbh2rcd13ifvqeo0","pricing_plan_id":"free"},{"bike_id":"d2464a80-55c6-466f-862e-f683488b65eb","system_id":"levelo_inurba_marseille","lat":43.2738,"lon":5.36255,"is_reserved":false,"is_disabled":false,"rental_uris":{"android":"levelo://app?vid=d2464a80-55c6-466f-862e-f683488b65eb","ios":"levelo://app?vid=d2464a80-55c6-466f-862e-f683488b65eb"},"vehicle_type_id":"4","last_reported":1706447222,"current_range_meters":0,"station_id":"ce4bhbh2rcd13ifvqeo0","pricing_plan_id":"free"},{"bike_id":"af8f0c8b-fc2b-497e-a8d6-e5f44e740e9c","system_id":"levelo_inurba_marseille","lat":43.273613,"lon":5.362705,"is_reserved":false,"is_disabled":false,"rental_uris":{"android":"levelo://app?vid=af8f0c8b-fc2b-497e-a8d6-e5f44e740e9c","ios":"levelo://app?vid=af8f0c8b-fc2b-497e-a8d6-e5f44e740e9c"},"vehicle_type_id":"4","last_reported":1706447222,"current_range_meters":24000,"station_id":"ce4bhbh2rcd13ifvqeo0","pricing_plan_id":"free"},{"bike_id":"70932074-5119-4c43-ab1d-fe47fc11345a","system_id":"levelo_inurba_marseille","lat":43.27378,"lon":5.36256,"is_reserved":false,"is_disabled":false,"rental_uris":{"android":"levelo://app?vid=70932074-5119-4c43-ab1d-fe47fc11345a","ios":"levelo://app?vid=70932074-5119-4c43-ab1d-fe47fc11345a"},"vehicle_type_id":"4","last_reported":1706447222,"current_range_meters":21200,"station_id":"ce4bhbh2rcd13ifvqeo0","pricing_plan_id":"free"},{"bike_id":"dab38799-c63d-4992-b73e-74ae2e53a595","system_id":"levelo_inurba_marseille","lat":43.275625,"lon":5.384392,"is_reserved":false,"is_disabled":false,"rental_uris":{"android":"levelo://app?vid=dab38799-c63d-4992-b73e-74ae2e53a595","ios":"levelo://app?vid=dab38799-c63d-4992-b73e-74ae2e53a595"},"vehicle_type_id":"4","last_reported":1706447222,"current_range_meters":3200,"station_id":"ce4bhh92rcd13ifvqfi0","pricing_plan_id":"free"},{"bike_id":"b25fa1c4-251f-4601-ba24-21edc42bb4a4","system_id":"levelo_inurba_marseille","lat":43.273613,"lon":5.362705,"is_reserved":false,"is_disabled":false,"rental_uris":{"android":"levelo://app?vid=b25fa1c4-251f-4601-ba24-21edc42bb4a4","ios":"levelo://app?vid=b25fa1c4-251f-4601-ba24-21edc42bb4a4"},"vehicle_type_id":"4","last_reported":1706447222,"current_range_meters":21600,"station_id":"ce4bhbh2rcd13ifvqeo0","pricing_plan_id":"free"},{"bike_id":"66164650-0b87-4422-ba49-905ebe3395ff","system_id":"levelo_inurba_marseille","lat":43.273613,"lon":5.362705,"is_reserved":false,"is_disabled":false,"rental_uris":{"android":"levelo://app?vid=66164650-0b87-4422-ba49-905ebe3395ff","ios":"levelo://app?vid=66164650-0b87-4422-ba49-905ebe3395ff"},"vehicle_type_id":"4","last_reported":1706447222,"current_range_meters":18800,"station_id":"ce4bhbh2rcd13ifvqeo0","pricing_plan_id":"free"},{"bike_id":"125c60d3-1a1f-49d7-9b23-928c2cbd6ebc","system_id":"levelo_inurba_marseille","lat":43.273613,"lon":5.362705,"is_reserved":false,"is_disabled":false,"rental_uris":{"android":"levelo://app?vid=125c60d3-1a1f-49d7-9b23-928c2cbd6ebc","ios":"levelo://app?vid=125c60d3-1a1f-49d7-9b23-928c2cbd6ebc"},"vehicle_type_id":"4","last_reported":1706447222,"current_range_meters":10800,"station_id":"ce4bhbh2rcd13ifvqeo0","pricing_plan_id":"free"},{"bike_id":"a13dd372-9444-40e2-b6c6-1f77d905b760","system_id":"levelo_inurba_marseille","lat":43.27376,"lon":5.36253,"is_reserved":false,"is_disabled":false,"rental_uris":{"android":"levelo://app?vid=a13dd372-9444-40e2-b6c6-1f77d905b760","ios":"levelo://app?vid=a13dd372-9444-40e2-b6c6-1f77d905b760"},"vehicle_type_id":"4","last_reported":1706447222,"current_range_meters":30800,"station_id":"ce4bhbh2rcd13ifvqeo0","pricing_plan_id":"free"},{"bike_id":"c0971226-fcae-4d74-b9a7-942a2c35d059","system_id":"levelo_inurba_marseille","lat":43.273613,"lon":5.362705,"is_reserved":false,"is_disabled":false,"rental_uris":{"android":"levelo://app?vid=c0971226-fcae-4d74-b9a7-942a2c35d059","ios":"levelo://app?vid=c0971226-fcae-4d74-b9a7-942a2c35d059"},"vehicle_type_id":"4","last_reported":1706447222,"current_range_meters":6800,"station_id":"ce4bhbh2rcd13ifvqeo0","pricing_plan_id":"free"},{"bike_id":"fdb3f4ce-cbf2-48f1-a805-434234895141","system_id":"levelo_inurba_marseille","lat":43.27374,"lon":5.36264,"is_reserved":false,"is_disabled":false,"rental_uris":{"android":"levelo://app?vid=fdb3f4ce-cbf2-48f1-a805-434234895141","ios":"levelo://app?vid=fdb3f4ce-cbf2-48f1-a805-434234895141"},"vehicle_type_id":"4","last_reported":1706447222,"current_range_meters":26400,"station_id":"ce4bhbh2rcd13ifvqeo0","pricing_plan_id":"free"},{"bike_id":"38b9cbf3-e22a-4dac-8c1c-81201257f147","system_id":"levelo_inurba_marseille","lat":43.27374,"lon":5.36262,"is_reserved":false,"is_disabled":false,"rental_uris":{"android":"levelo://app?vid=38b9cbf3-e22a-4dac-8c1c-81201257f147","ios":"levelo://app?vid=38b9cbf3-e22a-4dac-8c1c-81201257f147"},"vehicle_type_id":"4","last_reported":1706447222,"current_range_meters":23600,"station_id":"ce4bhbh2rcd13ifvqeo0","pricing_plan_id":"free"},{"bike_id":"c62370f5-ed2d-4939-afd3-2a8b3bc2f3d9","system_id":"levelo_inurba_marseille","lat":43.273613,"lon":5.362705,"is_reserved":false,"is_disabled":false,"rental_uris":{"android":"levelo://app?vid=c62370f5-ed2d-4939-afd3-2a8b3bc2f3d9","ios":"levelo://app?vid=c62370f5-ed2d-4939-afd3-2a8b3bc2f3d9"},"vehicle_type_id":"4","last_reported":1706447222,"current_range_meters":32000,"station_id":"ce4bhbh2rcd13ifvqeo0","pricing_plan_id":"free"},{"bike_id":"54049a08-f8b0-490e-99c5-5554c8d366b2","system_id":"levelo_inurba_marseille","lat":43.27368,"lon":5.36259,"is_reserved":false,"is_disabled":false,"rental_uris":{"android":"levelo://app?vid=54049a08-f8b0-490e-99c5-5554c8d366b2","ios":"levelo://app?vid=54049a08-f8b0-490e-99c5-5554c8d366b2"},"vehicle_type_id":"4","last_reported":1706447222,"current_range_meters":28400,"station_id":"ce4bhbh2rcd13ifvqeo0","pricing_plan_id":"free"},{"bike_id":"f0d20bdd-2847-4d4a-8d01-ab600241d1a2","system_id":"levelo_inurba_marseille","lat":43.27367,"lon":5.36262,"is_reserved":false,"is_disabled":false,"rental_uris":{"android":"levelo://app?vid=f0d20bdd-2847-4d4a-8d01-ab600241d1a2","ios":"levelo://app?vid=f0d20bdd-2847-4d4a-8d01-ab600241d1a2"},"vehicle_type_id":"4","last_reported":1706447222,"current_range_meters":21600,"station_id":"ce4bhbh2rcd13ifvqeo0","pricing_plan_id":"free"},{"bike_id":"0bd470c3-afd0-46ed-b569-4279e2016a2d","system_id":"levelo_inurba_marseille","lat":43.336134,"lon":5.410341,"is_reserved":false,"is_disabled":false,"rental_uris":{"android":"levelo://app?vid=0bd470c3-afd0-46ed-b569-4279e2016a2d","ios":"levelo://app?vid=0bd470c3-afd0-46ed-b569-4279e2016a2d"},"vehicle_type_id":"4","last_reported":1706447222,"current_range_meters":16800,"station_id":"ce4bhqh2rcd13ifvqhmg","pricing_plan_id":"free"},{"bike_id":"65f041e4-7942-445e-b7c2-8bb3a14702aa","system_id":"levelo_inurba_marseille","lat":43.27365,"lon":5.3626,"is_reserved":false,"is_disabled":false,"rental_uris":{"android":"levelo://app?vid=65f041e4-7942-445e-b7c2-8bb3a14702aa","ios":"levelo://app?vid=65f041e4-7942-445e-b7c2-8bb3a14702aa"},"vehicle_type_id":"4","last_reported":1706447222,"current_range_meters":28400,"station_id":"ce4bhbh2rcd13ifvqeo0","pricing_plan_id":"free"},{"bike_id":"78cc0567-5135-4c08-bbf8-b9984e9c17fd","system_id":"levelo_inurba_marseille","lat":43.33606,"lon":5.41029,"is_reserved":false,"is_disabled":false,"rental_uris":{"android":"levelo://app?vid=78cc0567-5135-4c08-bbf8-b9984e9c17fd","ios":"levelo://app?vid=78cc0567-5135-4c08-bbf8-b9984e9c17fd"},"vehicle_type_id":"4","last_reported":1706447222,"current_range_meters":0,"station_id":"ce4bhqh2rcd13ifvqhmg","pricing_plan_id":"free"},{"bike_id":"cbf84d59-798e-4b66-b873-f6f605eb12c9","system_id":"levelo_inurba_marseille","lat":43.33612,"lon":5.410321,"is_reserved":false,"is_disabled":false,"rental_uris":{"android":"levelo://app?vid=cbf84d59-798e-4b66-b873-f6f605eb12c9","ios":"levelo://app?vid=cbf84d59-798e-4b66-b873-f6f605eb12c9"},"vehicle_type_id":"4","last_reported":1706447222,"current_range_meters":0,"station_id":"ce4bhqh2rcd13ifvqhmg","pricing_plan_id":"free"},{"bike_id":"8f5a4b00-5747-43af-8fb9-6bf63647eb7f","system_id":"levelo_inurba_marseille","lat":43.336134,"lon":5.410341,"is_reserved":false,"is_disabled":false,"rental_uris":{"android":"levelo://app?vid=8f5a4b00-5747-43af-8fb9-6bf63647eb7f","ios":"levelo://app?vid=8f5a4b00-5747-43af-8fb9-6bf63647eb7f"},"vehicle_type_id":"4","last_reported":1706447222,"current_range_meters":9200,"station_id":"ce4bhqh2rcd13ifvqhmg","pricing_plan_id":"free"},{"bike_id":"6f46a34b-d5d1-4592-8607-98eec5146735","system_id":"levelo_inurba_marseille","lat":43.283731,"lon":5.407081,"is_reserved":false,"is_disabled":false,"rental_uris":{"android":"levelo://app?vid=6f46a34b-d5d1-4592-8607-98eec5146735","ios":"levelo://app?vid=6f46a34b-d5d1-4592-8607-98eec5146735"},"vehicle_type_id":"4","last_reported":1706447222,"current_range_meters":2400,"station_id":"","pricing_plan_id":"free"},{"bike_id":"87c998a4-b27c-4b57-8568-42f4629803bf","system_id":"levelo_inurba_marseille","lat":43.27624,"lon":5.39465,"is_reserved":false,"is_disabled":false,"rental_uris":{"android":"levelo://app?vid=87c998a4-b27c-4b57-8568-42f4629803bf","ios":"levelo://app?vid=87c998a4-b27c-4b57-8568-42f4629803bf"},"vehicle_type_id":"4","last_reported":1706447222,"current_range_meters":12000,"station_id":"","pricing_plan_id":"free"},{"bike_id":"04198e8a-12d8-49ff-8c2d-9cbc6a6bee88","system_id":"levelo_inurba_marseille","lat":43.31085,"lon":5.42427,"is_reserved":false,"is_disabled":false,"rental_uris":{"android":"levelo://app?vid=04198e8a-12d8-49ff-8c2d-9cbc6a6bee88","ios":"levelo://app?vid=04198e8a-12d8-49ff-8c2d-9cbc6a6bee88"},"vehicle_type_id":"4","last_reported":1706447222,"current_range_meters":12400,"station_id":"ce4bhp92rcd13ifvqhag","pricing_plan_id":"free"},{"bike_id":"e730308a-7bc3-4ee8-8c2c-58547b6fd9e8","system_id":"levelo_inurba_marseille","lat":43.31084,"lon":5.4243,"is_reserved":false,"is_disabled":false,"rental_uris":{"android":"levelo://app?vid=e730308a-7bc3-4ee8-8c2c-58547b6fd9e8","ios":"levelo://app?vid=e730308a-7bc3-4ee8-8c2c-58547b6fd9e8"},"vehicle_type_id":"4","last_reported":1706447222,"current_range_meters":29200,"station_id":"ce4bhp92rcd13ifvqhag","pricing_plan_id":"free"},{"bike_id":"6a9f72e8-8bc8-4abe-9758-e5e0e8502f9b","system_id":"levelo_inurba_marseille","lat":43.3108,"lon":5.42431,"is_reserved":false,"is_disabled":false,"rental_uris":{"android":"levelo://app?vid=6a9f72e8-8bc8-4abe-9758-e5e0e8502f9b","ios":"levelo://app?vid=6a9f72e8-8bc8-4abe-9758-e5e0e8502f9b"},"vehicle_type_id":"4","last_reported":1706447222,"current_range_meters":0,"station_id":"ce4bhp92rcd13ifvqhag","pricing_plan_id":"free"},{"bike_id":"3a6e045f-56f6-4956-bcc5-f96b9edaa018","system_id":"levelo_inurba_marseille","lat":43.31082,"lon":5.42433,"is_reserved":false,"is_disabled":false,"rental_uris":{"android":"levelo://app?vid=3a6e045f-56f6-4956-bcc5-f96b9edaa018","ios":"levelo://app?vid=3a6e045f-56f6-4956-bcc5-f96b9edaa018"},"vehicle_type_id":"4","last_reported":1706447222,"current_range_meters":15200,"station_id":"ce4bhp92rcd13ifvqhag","pricing_plan_id":"free"},{"bike_id":"79ba457f-e2e0-465e-914c-1aa6ff168bdd","system_id":"levelo_inurba_marseille","lat":43.27316,"lon":5.39091,"is_reserved":false,"is_disabled":false,"rental_uris":{"android":"levelo://app?vid=79ba457f-e2e0-465e-914c-1aa6ff168bdd","ios":"levelo://app?vid=79ba457f-e2e0-465e-914c-1aa6ff168bdd"},"vehicle_type_id":"4","last_reported":1706447222,"current_range_meters":0,"station_id":"ce4bhgp2rcd13ifvqfe0","pricing_plan_id":"free"},{"bike_id":"6fe4555c-13a8-443a-bc04-01ca818a618f","system_id":"levelo_inurba_marseille","lat":43.295388,"lon":5.423081,"is_reserved":false,"is_disabled":false,"rental_uris":{"android":"levelo://app?vid=6fe4555c-13a8-443a-bc04-01ca818a618f","ios":"levelo://app?vid=6fe4555c-13a8-443a-bc04-01ca818a618f"},"vehicle_type_id":"4","last_reported":1706447222,"current_range_meters":20800,"station_id":"ce4bhph2rcd13ifvqhdg","pricing_plan_id":"free"},{"bike_id":"d19fb4dd-8b77-403b-a860-50434fe0532f","system_id":"levelo_inurba_marseille","lat":43.272116,"lon":5.391747,"is_reserved":false,"is_disabled":false,"rental_uris":{"android":"levelo://app?vid=d19fb4dd-8b77-403b-a860-50434fe0532f","ios":"levelo://app?vid=d19fb4dd-8b77-403b-a860-50434fe0532f"},"vehicle_type_id":"4","last_reported":1706447222,"current_range_meters":18800,"station_id":"ce4bhhp2rcd13ifvqfm0","pricing_plan_id":"free"},{"bike_id":"47ecda87-dc6f-4bf0-a550-f3d0c2100cf4","system_id":"levelo_inurba_marseille","lat":43.27208,"lon":5.39185,"is_reserved":false,"is_disabled":false,"rental_uris":{"android":"levelo://app?vid=47ecda87-dc6f-4bf0-a550-f3d0c2100cf4","ios":"levelo://app?vid=47ecda87-dc6f-4bf0-a550-f3d0c2100cf4"},"vehicle_type_id":"4","last_reported":1706447222,"current_range_meters":0,"station_id":"ce4bhhp2rcd13ifvqfm0","pricing_plan_id":"free"},{"bike_id":"cccb8512-5068-4aa5-ad71-5b85d16798e5","system_id":"levelo_inurba_marseille","lat":43.272118,"lon":5.391758,"is_reserved":false,"is_disabled":false,"rental_uris":{"android":"levelo://app?vid=cccb8512-5068-4aa5-ad71-5b85d16798e5","ios":"levelo://app?vid=cccb8512-5068-4aa5-ad71-5b85d16798e5"},"vehicle_type_id":"4","last_reported":1706447222,"current_range_meters":25200,"station_id":"ce4bhhp2rcd13ifvqfm0","pricing_plan_id":"free"},{"bike_id":"00ca5024-8e84-49ff-baf6-9e5f93fec4c5","system_id":"levelo_inurba_marseille","lat":43.278128,"lon":5.407195,"is_reserved":false,"is_disabled":false,"rental_uris":{"android":"levelo://app?vid=00ca5024-8e84-49ff-baf6-9e5f93fec4c5","ios":"levelo://app?vid=00ca5024-8e84-49ff-baf6-9e5f93fec4c5"},"vehicle_type_id":"4","last_reported":1706447222,"current_range_meters":10000,"station_id":"ce4bhnh2rcd13ifvqgtg","pricing_plan_id":"free"},{"bike_id":"09f44a00-76dd-472a-ba6c-c19ea2cfd0b6","system_id":"levelo_inurba_marseille","lat":43.279465,"lon":5.410561,"is_reserved":false,"is_disabled":false,"rental_uris":{"android":"levelo://app?vid=09f44a00-76dd-472a-ba6c-c19ea2cfd0b6","ios":"levelo://app?vid=09f44a00-76dd-472a-ba6c-c19ea2cfd0b6"},"vehicle_type_id":"4","last_reported":1706447222,"current_range_meters":26000,"station_id":"ce4bhnp2rcd13ifvqh0g","pricing_plan_id":"free"},{"bike_id":"7a953ad6-52d3-4165-a714-9c977a7562fe","system_id":"levelo_inurba_marseille","lat":43.279465,"lon":5.410561,"is_reserved":false,"is_disabled":false,"rental_uris":{"android":"levelo://app?vid=7a953ad6-52d3-4165-a714-9c977a7562fe","ios":"levelo://app?vid=7a953ad6-52d3-4165-a714-9c977a7562fe"},"vehicle_type_id":"4","last_reported":1706447222,"current_range_meters":11200,"station_id":"ce4bhnp2rcd13ifvqh0g","pricing_plan_id":"free"},{"bike_id":"4526169b-477b-494c-8e23-bb17ddc0c59a","system_id":"levelo_inurba_marseille","lat":43.27996,"lon":5.416624,"is_reserved":false,"is_disabled":false,"rental_uris":{"android":"levelo://app?vid=4526169b-477b-494c-8e23-bb17ddc0c59a","ios":"levelo://app?vid=4526169b-477b-494c-8e23-bb17ddc0c59a"},"vehicle_type_id":"4","last_reported":1706447222,"current_range_meters":6000,"station_id":"ce4bho12rcd13ifvqh1g","pricing_plan_id":"free"},{"bike_id":"a0c1da5c-da2c-4591-819f-e09460076444","system_id":"levelo_inurba_marseille","lat":43.33418,"lon":5.42896,"is_reserved":false,"is_disabled":false,"rental_uris":{"android":"levelo://app?vid=a0c1da5c-da2c-4591-819f-e09460076444","ios":"levelo://app?vid=a0c1da5c-da2c-4591-819f-e09460076444"},"vehicle_type_id":"4","last_reported":1706447222,"current_range_meters":4400,"station_id":"","pricing_plan_id":"free"},{"bike_id":"437a6e47-df90-43c3-a39d-6c9d6938d1fe","system_id":"levelo_inurba_marseille","lat":43.26936,"lon":5.40252,"is_reserved":false,"is_disabled":false,"rental_uris":{"android":"levelo://app?vid=437a6e47-df90-43c3-a39d-6c9d6938d1fe","ios":"levelo://app?vid=437a6e47-df90-43c3-a39d-6c9d6938d1fe"},"vehicle_type_id":"4","last_reported":1706447222,"current_range_meters":29200,"station_id":"cjm6bp8fraef2m0cb0m0","pricing_plan_id":"free"},{"bike_id":"19db3207-a94a-4027-bf54-ce6eb520bddf","system_id":"levelo_inurba_marseille","lat":43.26939,"lon":5.40262,"is_reserved":false,"is_disabled":false,"rental_uris":{"android":"levelo://app?vid=19db3207-a94a-4027-bf54-ce6eb520bddf","ios":"levelo://app?vid=19db3207-a94a-4027-bf54-ce6eb520bddf"},"vehicle_type_id":"4","last_reported":1706447222,"current_range_meters":26800,"station_id":"cjm6bp8fraef2m0cb0m0","pricing_plan_id":"free"},{"bike_id":"9064d964-a96a-4399-93f0-688af23cc0a0","system_id":"levelo_inurba_marseille","lat":43.26935,"lon":5.40257,"is_reserved":false,"is_disabled":false,"rental_uris":{"android":"levelo://app?vid=9064d964-a96a-4399-93f0-688af23cc0a0","ios":"levelo://app?vid=9064d964-a96a-4399-93f0-688af23cc0a0"},"vehicle_type_id":"4","last_reported":1706447222,"current_range_meters":26000,"station_id":"cjm6bp8fraef2m0cb0m0","pricing_plan_id":"free"},{"bike_id":"bbac3f2e-e87c-4201-89c1-a9ea112d6928","system_id":"levelo_inurba_marseille","lat":43.26949,"lon":5.40262,"is_reserved":false,"is_disabled":false,"rental_uris":{"android":"levelo://app?vid=bbac3f2e-e87c-4201-89c1-a9ea112d6928","ios":"levelo://app?vid=bbac3f2e-e87c-4201-89c1-a9ea112d6928"},"vehicle_type_id":"4","last_reported":1706447222,"current_range_meters":30400,"station_id":"cjm6bp8fraef2m0cb0m0","pricing_plan_id":"free"},{"bike_id":"bd7506a1-de79-4cde-b10f-3619d81198c4","system_id":"levelo_inurba_marseille","lat":43.26949,"lon":5.40262,"is_reserved":false,"is_disabled":false,"rental_uris":{"android":"levelo://app?vid=bd7506a1-de79-4cde-b10f-3619d81198c4","ios":"levelo://app?vid=bd7506a1-de79-4cde-b10f-3619d81198c4"},"vehicle_type_id":"4","last_reported":1706447222,"current_range_meters":19200,"station_id":"cjm6bp8fraef2m0cb0m0","pricing_plan_id":"free"},{"bike_id":"a8d069d8-d3ec-4415-8c3c-903f56e5e42a","system_id":"levelo_inurba_marseille","lat":43.2693,"lon":5.40257,"is_reserved":false,"is_disabled":false,"rental_uris":{"android":"levelo://app?vid=a8d069d8-d3ec-4415-8c3c-903f56e5e42a","ios":"levelo://app?vid=a8d069d8-d3ec-4415-8c3c-903f56e5e42a"},"vehicle_type_id":"4","last_reported":1706447222,"current_range_meters":31200,"station_id":"cjm6bp8fraef2m0cb0m0","pricing_plan_id":"free"},{"bike_id":"ee1d5822-180f-4d7c-b02d-b3049c6c444a","system_id":"levelo_inurba_marseille","lat":43.261782,"lon":5.374515,"is_reserved":false,"is_disabled":false,"rental_uris":{"android":"levelo://app?vid=ee1d5822-180f-4d7c-b02d-b3049c6c444a","ios":"levelo://app?vid=ee1d5822-180f-4d7c-b02d-b3049c6c444a"},"vehicle_type_id":"4","last_reported":1706447222,"current_range_meters":7600,"station_id":"ce4bhgp2rcd13ifvqfc0","pricing_plan_id":"free"},{"bike_id":"e0ce6e96-048c-44c2-99a9-99c6148f0edd","system_id":"levelo_inurba_marseille","lat":43.261782,"lon":5.374515,"is_reserved":false,"is_disabled":false,"rental_uris":{"android":"levelo://app?vid=e0ce6e96-048c-44c2-99a9-99c6148f0edd","ios":"levelo://app?vid=e0ce6e96-048c-44c2-99a9-99c6148f0edd"},"vehicle_type_id":"4","last_reported":1706447222,"current_range_meters":21200,"station_id":"ce4bhgp2rcd13ifvqfc0","pricing_plan_id":"free"},{"bike_id":"4365661f-f8a3-41d5-94c9-4183aeea0552","system_id":"levelo_inurba_marseille","lat":43.261782,"lon":5.374515,"is_reserved":false,"is_disabled":false,"rental_uris":{"android":"levelo://app?vid=4365661f-f8a3-41d5-94c9-4183aeea0552","ios":"levelo://app?vid=4365661f-f8a3-41d5-94c9-4183aeea0552"},"vehicle_type_id":"4","last_reported":1706447222,"current_range_meters":4800,"station_id":"ce4bhgp2rcd13ifvqfc0","pricing_plan_id":"free"},{"bike_id":"fecb6324-0179-47a4-a0e0-fc4e7e724028","system_id":"levelo_inurba_marseille","lat":43.261782,"lon":5.374515,"is_reserved":false,"is_disabled":false,"rental_uris":{"android":"levelo://app?vid=fecb6324-0179-47a4-a0e0-fc4e7e724028","ios":"levelo://app?vid=fecb6324-0179-47a4-a0e0-fc4e7e724028"},"vehicle_type_id":"4","last_reported":1706447222,"current_range_meters":8800,"station_id":"ce4bhgp2rcd13ifvqfc0","pricing_plan_id":"free"},{"bike_id":"96fa4d32-1f82-4cf8-beed-d7bd16838d65","system_id":"levelo_inurba_marseille","lat":43.261782,"lon":5.374515,"is_reserved":false,"is_disabled":false,"rental_uris":{"android":"levelo://app?vid=96fa4d32-1f82-4cf8-beed-d7bd16838d65","ios":"levelo://app?vid=96fa4d32-1f82-4cf8-beed-d7bd16838d65"},"vehicle_type_id":"4","last_reported":1706447222,"current_range_meters":11200,"station_id":"ce4bhgp2rcd13ifvqfc0","pricing_plan_id":"free"},{"bike_id":"b7500db3-4f0b-4e79-bb8b-52dd7f524faf","system_id":"levelo_inurba_marseille","lat":43.261782,"lon":5.374515,"is_reserved":false,"is_disabled":false,"rental_uris":{"android":"levelo://app?vid=b7500db3-4f0b-4e79-bb8b-52dd7f524faf","ios":"levelo://app?vid=b7500db3-4f0b-4e79-bb8b-52dd7f524faf"},"vehicle_type_id":"4","last_reported":1706447222,"current_range_meters":400,"station_id":"ce4bhgp2rcd13ifvqfc0","pricing_plan_id":"free"},{"bike_id":"e394370c-52aa-4a37-a669-a727fb75ac93","system_id":"levelo_inurba_marseille","lat":43.26189,"lon":5.37444,"is_reserved":false,"is_disabled":false,"rental_uris":{"android":"levelo://app?vid=e394370c-52aa-4a37-a669-a727fb75ac93","ios":"levelo://app?vid=e394370c-52aa-4a37-a669-a727fb75ac93"},"vehicle_type_id":"4","last_reported":1706447222,"current_range_meters":28800,"station_id":"ce4bhgp2rcd13ifvqfc0","pricing_plan_id":"free"},{"bike_id":"b5f52dcd-5ec3-4015-85a5-41e3ac9a93a2","system_id":"levelo_inurba_marseille","lat":43.261782,"lon":5.374515,"is_reserved":false,"is_disabled":false,"rental_uris":{"android":"levelo://app?vid=b5f52dcd-5ec3-4015-85a5-41e3ac9a93a2","ios":"levelo://app?vid=b5f52dcd-5ec3-4015-85a5-41e3ac9a93a2"},"vehicle_type_id":"4","last_reported":1706447222,"current_range_meters":16400,"station_id":"ce4bhgp2rcd13ifvqfc0","pricing_plan_id":"free"},{"bike_id":"0bff4a87-697f-434c-862f-4db21d2888ca","system_id":"levelo_inurba_marseille","lat":43.261782,"lon":5.374515,"is_reserved":false,"is_disabled":false,"rental_uris":{"android":"levelo://app?vid=0bff4a87-697f-434c-862f-4db21d2888ca","ios":"levelo://app?vid=0bff4a87-697f-434c-862f-4db21d2888ca"},"vehicle_type_id":"4","last_reported":1706447222,"current_range_meters":5200,"station_id":"ce4bhgp2rcd13ifvqfc0","pricing_plan_id":"free"},{"bike_id":"e2136876-82ef-4e7f-ac01-f76226b84078","system_id":"levelo_inurba_marseille","lat":43.261782,"lon":5.374515,"is_reserved":false,"is_disabled":false,"rental_uris":{"android":"levelo://app?vid=e2136876-82ef-4e7f-ac01-f76226b84078","ios":"levelo://app?vid=e2136876-82ef-4e7f-ac01-f76226b84078"},