{"last_updated":1692500805,"ttl":30,"version":"2.2","data":{"bikes":[{"bike_id":"3e2a3767-1681-4b47-809a-9b2797cf3886","system_id":"levelo_inurba_marseille","lat":43.31341,"lon":5.367098,"is_reserved":false,"is_disabled":false,"rental_uris":{"android":"levelo://app?vid=3e2a3767-1681-4b47-809a-9b2797cf3886","ios":"levelo://app?vid=3e2a3767-1681-4b47-809a-9b2797cf3886"},"vehicle_type_id":"4","last_reported":1692500805,"current_range_meters":8400,"station_id":"ce4bgr92rcd13ifvqc6g","pricing_plan_id":"free"},{"bike_id":"08022e2c-294c-4ebf-8452-32bcb1cb8509","system_id":"levelo_inurba_marseille","lat":43.31341,"lon":5.367098,"is_reserved":false,"is_disabled":false,"rental_uris":{"android":"levelo://app?vid=08022e2c-294c-4ebf-8452-32bcb1cb8509","ios":"levelo://app?vid=08022e2c-294c-4ebf-8452-32bcb1cb8509"},"vehicle_type_id":"4","last_reported":1692500805,"current_range_meters":31200,"station_id":"ce4bgr92rcd13ifvqc6g","pricing_plan_id":"free"},{"bike_id":"f22ca441-4e4e-4660-b824-b2f46943e54d","system_id":"levelo_inurba_marseille","lat":43.312239,"lon":5.368562,"is_reserved":false,"is_disabled":false,"rental_uris":{"android":"levelo://app?vid=f22ca441-4e4e-4660-b824-b2f46943e54d","ios":"levelo://app?vid=f22ca441-4e4e-4660-b824-b2f46943e54d"},"vehicle_type_id":"4","last_reported":1692500805,"current_range_meters":31200,"station_id":"ce4bgl92rcd13ifvqbq0","pricing_plan_id":"free"},{"bike_id":"8aed5a20-ab86-418d-a413-3a4ab3457f5a","system_id":"levelo_inurba_marseille","lat":43.312239,"lon":5.368562,"is_reserved":false,"is_disabled":false,"rental_uris":{"android":"levelo://app?vid=8aed5a20-ab86-418d-a413-3a4ab3457f5a","ios":"levelo://app?vid=8aed5a20-ab86-418d-a413-3a4ab3457f5a"},"vehicle_type_id":"4","last_reported":1692500805,"current_range_meters":29200,"station_id":"ce4bgl92rcd13ifvqbq0","pricing_plan_id":"free"},{"bike_id":"c9e071e7-0847-4f91-a0e0-c26afa8b1871","system_id":"levelo_inurba_marseille","lat":43.314811,"lon":5.373104,"is_reserved":false,"is_disabled":false,"rental_uris":{"android":"levelo://app?vid=c9e071e7-0847-4f91-a0e0-c26afa8b1871","ios":"levelo://app?vid=c9e071e7-0847-4f91-a0e0-c26afa8b1871"},"vehicle_type_id":"4","last_reported":1692500805,"current_range_meters":31200,"station_id":"ce4bgt12rcd13ifvqcd0","pricing_plan_id":"free"},{"bike_id":"fcf8ac9e-2d00-47dc-ab8c-d1a8324e56c1","system_id":"levelo_inurba_marseille","lat":43.314811,"lon":5.373103,"is_reserved":false,"is_disabled":false,"rental_uris":{"android":"levelo://app?vid=fcf8ac9e-2d00-47dc-ab8c-d1a8324e56c1","ios":"levelo://app?vid=fcf8ac9e-2d00-47dc-ab8c-d1a8324e56c1"},"vehicle_type_id":"4","last_reported":1692500805,"current_range_meters":4800,"station_id":"ce4bgt12rcd13ifvqcd0","pricing_plan_id":"free"},{"bike_id":"904b9fdb-a508-47c9-9ccc-9245695aaebe","system_id":"levelo_inurba_marseille","lat":43.314811,"lon":5.373104,"is_reserved":false,"is_disabled":false,"rental_uris":{"android":"levelo://app?vid=904b9fdb-a508-47c9-9ccc-9245695aaebe","ios":"levelo://app?vid=904b9fdb-a508-47c9-9ccc-9245695aaebe"},"vehicle_type_id":"4","last_reported":1692500805,"current_range_meters":30400,"station_id":"ce4bgt12rcd13ifvqcd0","pricing_plan_id":"free"},{"bike_id":"078b8839-5dca-482c-b506-bd068d73c26e","system_id":"levelo_inurba_marseille","lat":43.314811,"lon":5.373103,"is_reserved":false,"is_disabled":false,"rental_uris":{"android":"levelo://app?vid=078b8839-5dca-482c-b506-bd068d73c26e","ios":"levelo://app?vid=078b8839-5dca-482c-b506-bd068d73c26e"},"vehicle_type_id":"4","last_reported":1692500805,"current_range_meters":20800,"station_id":"ce4bgt12rcd13ifvqcd0","pricing_plan_id":"free"},{"bike_id":"1ec1fc95-3051-4b9e-a138-6c62ea4f1d70","system_id":"levelo_inurba_marseille","lat":43.31498,"lon":5.37297,"is_reserved":false,"is_disabled":false,"rental_uris":{"android":"levelo://app?vid=1ec1fc95-3051-4b9e-a138-6c62ea4f1d70","ios":"levelo://app?vid=1ec1fc95-3051-4b9e-a138-6c62ea4f1d70"},"vehicle_type_id":"4","last_reported":1692500805,"current_range_meters":19200,"station_id":"ce4bgt12rcd13ifvqcd0","pricing_plan_id":"free"},{"bike_id":"63f2097b-7805-4f57-a26f-3109039a56f8","system_id":"levelo_inurba_marseille","lat":43.314811,"lon":5.373103,"is_reserved":false,"is_disabled":false,"rental_uris":{"android":"levelo://app?vid=63f2097b-7805-4f57-a26f-3109039a56f8","ios":"levelo://app?vid=63f2097b-7805-4f57-a26f-3109039a56f8"},"vehicle_type_id":"4","last_reported":1692500805,"current_range_meters":24000,"station_id":"ce4bgt12rcd13ifvqcd0","pricing_plan_id":"free"},{"bike_id":"c4862672-2506-4eeb-9676-abde96d32ea4","system_id":"levelo_inurba_marseille","lat":43.31501,"lon":5.37298,"is_reserved":false,"is_disabled":false,"rental_uris":{"android":"levelo://app?vid=c4862672-2506-4eeb-9676-abde96d32ea4","ios":"levelo://app?vid=c4862672-2506-4eeb-9676-abde96d32ea4"},"vehicle_type_id":"4","last_reported":1692500805,"current_range_meters":28000,"station_id":"ce4bgt12rcd13ifvqcd0","pricing_plan_id":"free"},{"bike_id":"7ac8bd2f-12c2-44a7-9100-e0699c779e9a","system_id":"levelo_inurba_marseille","lat":43.314811,"lon":5.373104,"is_reserved":false,"is_disabled":false,"rental_uris":{"android":"levelo://app?vid=7ac8bd2f-12c2-44a7-9100-e0699c779e9a","ios":"levelo://app?vid=7ac8bd2f-12c2-44a7-9100-e0699c779e9a"},"vehicle_type_id":"4","last_reported":1692500805,"current_range_meters":16000,"station_id":"ce4bgt12rcd13ifvqcd0","pricing_plan_id":"free"},{"bike_id":"b008fa4f-105a-41ed-9ae1-09f80cc4391c","system_id":"levelo_inurba_marseille","lat":43.30896,"lon":5.37188,"is_reserved":false,"is_disabled":false,"rental_uris":{"android":"levelo://app?vid=b008fa4f-105a-41ed-9ae1-09f80cc4391c","ios":"levelo://app?vid=b008fa4f-105a-41ed-9ae1-09f80cc4391c"},"vehicle_type_id":"4","last_reported":1692500805,"current_range_meters":0,"station_id":"ce4bguh2rcd13ifvqckg","pricing_plan_id":"free"},{"bike_id":"854f4d4d-aa5c-42c9-9d8e-ddd63e64c8e2","system_id":"levelo_inurba_marseille","lat":43.309039,"lon":5.371797,"is_reserved":false,"is_disabled":false,"rental_uris":{"android":"levelo://app?vid=854f4d4d-aa5c-42c9-9d8e-ddd63e64c8e2","ios":"levelo://app?vid=854f4d4d-aa5c-42c9-9d8e-ddd63e64c8e2"},"vehicle_type_id":"4","last_reported":1692500805,"current_range_meters":31200,"station_id":"ce4bguh2rcd13ifvqckg","pricing_plan_id":"free"},{"bike_id":"91857754-47dc-4477-8095-b40be8e14feb","system_id":"levelo_inurba_marseille","lat":43.309039,"lon":5.371797,"is_reserved":false,"is_disabled":false,"rental_uris":{"android":"levelo://app?vid=91857754-47dc-4477-8095-b40be8e14feb","ios":"levelo://app?vid=91857754-47dc-4477-8095-b40be8e14feb"},"vehicle_type_id":"4","last_reported":1692500805,"current_range_meters":28000,"station_id":"ce4bguh2rcd13ifvqckg","pricing_plan_id":"free"},{"bike_id":"386ed8e3-b71e-4f68-86af-202c5b76503e","system_id":"levelo_inurba_marseille","lat":43.305368,"lon":5.367343,"is_reserved":false,"is_disabled":false,"rental_uris":{"android":"levelo://app?vid=386ed8e3-b71e-4f68-86af-202c5b76503e","ios":"levelo://app?vid=386ed8e3-b71e-4f68-86af-202c5b76503e"},"vehicle_type_id":"4","last_reported":1692500805,"current_range_meters":22000,"station_id":"ce4bgrp2rcd13ifvqc9g","pricing_plan_id":"free"},{"bike_id":"9fbe6e18-d192-44c2-98b5-cafb68b41aa4","system_id":"levelo_inurba_marseille","lat":43.30542,"lon":5.36536,"is_reserved":false,"is_disabled":false,"rental_uris":{"android":"levelo://app?vid=9fbe6e18-d192-44c2-98b5-cafb68b41aa4","ios":"levelo://app?vid=9fbe6e18-d192-44c2-98b5-cafb68b41aa4"},"vehicle_type_id":"4","last_reported":1692500805,"current_range_meters":8400,"station_id":"ce4bgs12rcd13ifvqcag","pricing_plan_id":"free"},{"bike_id":"d5437fc2-be07-4f10-9f6a-09e8a89fa2e1","system_id":"levelo_inurba_marseille","lat":43.30528,"lon":5.3671,"is_reserved":false,"is_disabled":false,"rental_uris":{"android":"levelo://app?vid=d5437fc2-be07-4f10-9f6a-09e8a89fa2e1","ios":"levelo://app?vid=d5437fc2-be07-4f10-9f6a-09e8a89fa2e1"},"vehicle_type_id":"4","last_reported":1692500805,"current_range_meters":24400,"station_id":"ce4bgrp2rcd13ifvqc9g","pricing_plan_id":"free"},{"bike_id":"d619b710-26f3-4347-872c-89d27731df3e","system_id":"levelo_inurba_marseille","lat":43.305989,"lon":5.37225,"is_reserved":false,"is_disabled":false,"rental_uris":{"android":"levelo://app?vid=d619b710-26f3-4347-872c-89d27731df3e","ios":"levelo://app?vid=d619b710-26f3-4347-872c-89d27731df3e"},"vehicle_type_id":"4","last_reported":1692500805,"current_range_meters":20400,"station_id":"ce4bgqh2rcd13ifvqc4g","pricing_plan_id":"free"},{"bike_id":"53f8bd9d-9f49-44cf-8272-6eed91142c99","system_id":"levelo_inurba_marseille","lat":43.305989,"lon":5.37225,"is_reserved":false,"is_disabled":false,"rental_uris":{"android":"levelo://app?vid=53f8bd9d-9f49-44cf-8272-6eed91142c99","ios":"levelo://app?vid=53f8bd9d-9f49-44cf-8272-6eed91142c99"},"vehicle_type_id":"4","last_reported":1692500805,"current_range_meters":10800,"station_id":"ce4bgqh2rcd13ifvqc4g","pricing_plan_id":"free"},{"bike_id":"c392f1ac-2940-4282-9ca2-d0f0e35d6553","system_id":"levelo_inurba_marseille","lat":43.305989,"lon":5.37225,"is_reserved":false,"is_disabled":false,"rental_uris":{"android":"levelo://app?vid=c392f1ac-2940-4282-9ca2-d0f0e35d6553","ios":"levelo://app?vid=c392f1ac-2940-4282-9ca2-d0f0e35d6553"},"vehicle_type_id":"4","last_reported":1692500805,"current_range_meters":30400,"station_id":"ce4bgqh2rcd13ifvqc4g","pricing_plan_id":"free"},{"bike_id":"adbfeb92-22bf-46c8-9cf5-b06f571113b5","system_id":"levelo_inurba_marseille","lat":43.305989,"lon":5.37225,"is_reserved":false,"is_disabled":false,"rental_uris":{"android":"levelo://app?vid=adbfeb92-22bf-46c8-9cf5-b06f571113b5","ios":"levelo://app?vid=adbfeb92-22bf-46c8-9cf5-b06f571113b5"},"vehicle_type_id":"4","last_reported":1692500805,"current_range_meters":31200,"station_id":"ce4bgqh2rcd13ifvqc4g","pricing_plan_id":"free"},{"bike_id":"0931f93e-442e-49e2-b2bf-8b4eb8e6ab46","system_id":"levelo_inurba_marseille","lat":43.305989,"lon":5.37225,"is_reserved":false,"is_disabled":false,"rental_uris":{"android":"levelo://app?vid=0931f93e-442e-49e2-b2bf-8b4eb8e6ab46","ios":"levelo://app?vid=0931f93e-442e-49e2-b2bf-8b4eb8e6ab46"},"vehicle_type_id":"4","last_reported":1692500805,"current_range_meters":26800,"station_id":"ce4bgqh2rcd13ifvqc4g","pricing_plan_id":"free"},{"bike_id":"94041592-cdd9-4873-b0a1-721b91db882e","system_id":"levelo_inurba_marseille","lat":43.311131,"lon":5.377651,"is_reserved":false,"is_disabled":false,"rental_uris":{"android":"levelo://app?vid=94041592-cdd9-4873-b0a1-721b91db882e","ios":"levelo://app?vid=94041592-cdd9-4873-b0a1-721b91db882e"},"vehicle_type_id":"4","last_reported":1692500805,"current_range_meters":26800,"station_id":"ce4bgt92rcd13ifvqcg0","pricing_plan_id":"free"},{"bike_id":"23fa1577-981b-4b36-b415-bec8d7f47377","system_id":"levelo_inurba_marseille","lat":43.311131,"lon":5.377651,"is_reserved":false,"is_disabled":false,"rental_uris":{"android":"levelo://app?vid=23fa1577-981b-4b36-b415-bec8d7f47377","ios":"levelo://app?vid=23fa1577-981b-4b36-b415-bec8d7f47377"},"vehicle_type_id":"4","last_reported":1692500805,"current_range_meters":25600,"station_id":"ce4bgt92rcd13ifvqcg0","pricing_plan_id":"free"},{"bike_id":"884b3016-eba9-4d91-bba3-e506fab90d45","system_id":"levelo_inurba_marseille","lat":43.311131,"lon":5.377651,"is_reserved":false,"is_disabled":false,"rental_uris":{"android":"levelo://app?vid=884b3016-eba9-4d91-bba3-e506fab90d45","ios":"levelo://app?vid=884b3016-eba9-4d91-bba3-e506fab90d45"},"vehicle_type_id":"4","last_reported":1692500805,"current_range_meters":22800,"station_id":"ce4bgt92rcd13ifvqcg0","pricing_plan_id":"free"},{"bike_id":"41bb4d70-f899-4935-8aa9-7f43cb3abe20","system_id":"levelo_inurba_marseille","lat":43.31126,"lon":5.37765,"is_reserved":false,"is_disabled":false,"rental_uris":{"android":"levelo://app?vid=41bb4d70-f899-4935-8aa9-7f43cb3abe20","ios":"levelo://app?vid=41bb4d70-f899-4935-8aa9-7f43cb3abe20"},"vehicle_type_id":"4","last_reported":1692500805,"current_range_meters":1200,"station_id":"ce4bgt92rcd13ifvqcg0","pricing_plan_id":"free"},{"bike_id":"cb8d2a5a-c39b-4ace-b0d8-0dd3d44251b4","system_id":"levelo_inurba_marseille","lat":43.311125,"lon":5.377624,"is_reserved":false,"is_disabled":false,"rental_uris":{"android":"levelo://app?vid=cb8d2a5a-c39b-4ace-b0d8-0dd3d44251b4","ios":"levelo://app?vid=cb8d2a5a-c39b-4ace-b0d8-0dd3d44251b4"},"vehicle_type_id":"4","last_reported":1692500805,"current_range_meters":31200,"station_id":"ce4bgt92rcd13ifvqcg0","pricing_plan_id":"free"},{"bike_id":"eb22a160-87e7-4911-bf49-43b057b3924c","system_id":"levelo_inurba_marseille","lat":43.311131,"lon":5.377651,"is_reserved":false,"is_disabled":false,"rental_uris":{"android":"levelo://app?vid=eb22a160-87e7-4911-bf49-43b057b3924c","ios":"levelo://app?vid=eb22a160-87e7-4911-bf49-43b057b3924c"},"vehicle_type_id":"4","last_reported":1692500805,"current_range_meters":31200,"station_id":"ce4bgt92rcd13ifvqcg0","pricing_plan_id":"free"},{"bike_id":"da1e4bf2-42ac-4a5e-b196-fe8aef49bd3d","system_id":"levelo_inurba_marseille","lat":43.311131,"lon":5.377651,"is_reserved":false,"is_disabled":false,"rental_uris":{"android":"levelo://app?vid=da1e4bf2-42ac-4a5e-b196-fe8aef49bd3d","ios":"levelo://app?vid=da1e4bf2-42ac-4a5e-b196-fe8aef49bd3d"},"vehicle_type_id":"4","last_reported":1692500805,"current_range_meters":24800,"station_id":"ce4bgt92rcd13ifvqcg0","pricing_plan_id":"free"},{"bike_id":"2030aa77-4544-426d-b6be-e6f407d98134","system_id":"levelo_inurba_marseille","lat":43.307873,"lon":5.376435,"is_reserved":false,"is_disabled":false,"rental_uris":{"android":"levelo://app?vid=2030aa77-4544-426d-b6be-e6f407d98134","ios":"levelo://app?vid=2030aa77-4544-426d-b6be-e6f407d98134"},"vehicle_type_id":"4","last_reported":1692500805,"current_range_meters":21600,"station_id":"ce4bgv92rcd13ifvqcq0","pricing_plan_id":"free"},{"bike_id":"1f18cbaf-dbf3-4748-b1af-0097256116f3","system_id":"levelo_inurba_marseille","lat":43.307945,"lon":5.376487,"is_reserved":false,"is_disabled":false,"rental_uris":{"android":"levelo://app?vid=1f18cbaf-dbf3-4748-b1af-0097256116f3","ios":"levelo://app?vid=1f18cbaf-dbf3-4748-b1af-0097256116f3"},"vehicle_type_id":"4","last_reported":1692500805,"current_range_meters":0,"station_id":"ce4bgv92rcd13ifvqcq0","pricing_plan_id":"free"},{"bike_id":"3891919a-0e41-44e0-8bd0-d7ef18d2ea87","system_id":"levelo_inurba_marseille","lat":43.307945,"lon":5.376487,"is_reserved":false,"is_disabled":false,"rental_uris":{"android":"levelo://app?vid=3891919a-0e41-44e0-8bd0-d7ef18d2ea87","ios":"levelo://app?vid=3891919a-0e41-44e0-8bd0-d7ef18d2ea87"},"vehicle_type_id":"4","last_reported":1692500805,"current_range_meters":1600,"station_id":"ce4bgv92rcd13ifvqcq0","pricing_plan_id":"free"},{"bike_id":"97f5da03-53c1-40b1-870d-b944f6e02e6d","system_id":"levelo_inurba_marseille","lat":43.30784,"lon":5.37653,"is_reserved":false,"is_disabled":false,"rental_uris":{"android":"levelo://app?vid=97f5da03-53c1-40b1-870d-b944f6e02e6d","ios":"levelo://app?vid=97f5da03-53c1-40b1-870d-b944f6e02e6d"},"vehicle_type_id":"4","last_reported":1692500805,"current_range_meters":10000,"station_id":"ce4bgv92rcd13ifvqcq0","pricing_plan_id":"free"},{"bike_id":"1b2c21f1-76d6-4ea7-b906-a83d2ad7ad2e","system_id":"levelo_inurba_marseille","lat":43.307945,"lon":5.376487,"is_reserved":false,"is_disabled":false,"rental_uris":{"android":"levelo://app?vid=1b2c21f1-76d6-4ea7-b906-a83d2ad7ad2e","ios":"levelo://app?vid=1b2c21f1-76d6-4ea7-b906-a83d2ad7ad2e"},"vehicle_type_id":"4","last_reported":1692500805,"current_range_meters":17200,"station_id":"ce4bgv92rcd13ifvqcq0","pricing_plan_id":"free"},{"bike_id":"e92c44c6-bfb0-45fa-b2fe-a367fd139d46","system_id":"levelo_inurba_marseille","lat":43.317075,"lon":5.377367,"is_reserved":false,"is_disabled":false,"rental_uris":{"android":"levelo://app?vid=e92c44c6-bfb0-45fa-b2fe-a367fd139d46","ios":"levelo://app?vid=e92c44c6-bfb0-45fa-b2fe-a367fd139d46"},"vehicle_type_id":"4","last_reported":1692500805,"current_range_meters":18400,"station_id":"ce4bgth2rcd13ifvqch0","pricing_plan_id":"free"},{"bike_id":"e97dc5d1-b3e9-4746-8607-a415daa6dc9f","system_id":"levelo_inurba_marseille","lat":43.30302,"lon":5.36875,"is_reserved":false,"is_disabled":false,"rental_uris":{"android":"levelo://app?vid=e97dc5d1-b3e9-4746-8607-a415daa6dc9f","ios":"levelo://app?vid=e97dc5d1-b3e9-4746-8607-a415daa6dc9f"},"vehicle_type_id":"4","last_reported":1692500805,"current_range_meters":22800,"station_id":"ce4bgqh2rcd13ifvqc5g","pricing_plan_id":"free"},{"bike_id":"d25633c2-027a-4b2b-98ca-7f8554f64ae3","system_id":"levelo_inurba_marseille","lat":43.315293,"lon":5.380349,"is_reserved":false,"is_disabled":false,"rental_uris":{"android":"levelo://app?vid=d25633c2-027a-4b2b-98ca-7f8554f64ae3","ios":"levelo://app?vid=d25633c2-027a-4b2b-98ca-7f8554f64ae3"},"vehicle_type_id":"4","last_reported":1692500805,"current_range_meters":20400,"station_id":"ce4bhsp2rcd13ifvqi50","pricing_plan_id":"free"},{"bike_id":"0871042d-4c98-4a0d-a09d-36eb6b88fae9","system_id":"levelo_inurba_marseille","lat":43.315293,"lon":5.380349,"is_reserved":false,"is_disabled":false,"rental_uris":{"android":"levelo://app?vid=0871042d-4c98-4a0d-a09d-36eb6b88fae9","ios":"levelo://app?vid=0871042d-4c98-4a0d-a09d-36eb6b88fae9"},"vehicle_type_id":"4","last_reported":1692500805,"current_range_meters":22000,"station_id":"ce4bhsp2rcd13ifvqi50","pricing_plan_id":"free"},{"bike_id":"41ef9760-8ae3-4b13-ba8b-8f6196b8c49b","system_id":"levelo_inurba_marseille","lat":43.31539,"lon":5.38023,"is_reserved":false,"is_disabled":false,"rental_uris":{"android":"levelo://app?vid=41ef9760-8ae3-4b13-ba8b-8f6196b8c49b","ios":"levelo://app?vid=41ef9760-8ae3-4b13-ba8b-8f6196b8c49b"},"vehicle_type_id":"4","last_reported":1692500805,"current_range_meters":6800,"station_id":"ce4bhsp2rcd13ifvqi50","pricing_plan_id":"free"},{"bike_id":"60a188f1-f9d4-42ff-b4a8-4d65de0c076c","system_id":"levelo_inurba_marseille","lat":43.31535,"lon":5.38029,"is_reserved":false,"is_disabled":false,"rental_uris":{"android":"levelo://app?vid=60a188f1-f9d4-42ff-b4a8-4d65de0c076c","ios":"levelo://app?vid=60a188f1-f9d4-42ff-b4a8-4d65de0c076c"},"vehicle_type_id":"4","last_reported":1692500805,"current_range_meters":0,"station_id":"ce4bhsp2rcd13ifvqi50","pricing_plan_id":"free"},{"bike_id":"1d7ed1ff-f5f0-47fe-ad8e-49759c170470","system_id":"levelo_inurba_marseille","lat":43.31535,"lon":5.38029,"is_reserved":false,"is_disabled":false,"rental_uris":{"android":"levelo://app?vid=1d7ed1ff-f5f0-47fe-ad8e-49759c170470","ios":"levelo://app?vid=1d7ed1ff-f5f0-47fe-ad8e-49759c170470"},"vehicle_type_id":"4","last_reported":1692500805,"current_range_meters":26000,"station_id":"ce4bhsp2rcd13ifvqi50","pricing_plan_id":"free"},{"bike_id":"70ce5218-0b0a-4b29-b802-3032e7ae8057","system_id":"levelo_inurba_marseille","lat":43.308012,"lon":5.381511,"is_reserved":false,"is_disabled":false,"rental_uris":{"android":"levelo://app?vid=70ce5218-0b0a-4b29-b802-3032e7ae8057","ios":"levelo://app?vid=70ce5218-0b0a-4b29-b802-3032e7ae8057"},"vehicle_type_id":"4","last_reported":1692500805,"current_range_meters":31200,"station_id":"ce4bgt12rcd13ifvqce0","pricing_plan_id":"free"},{"bike_id":"b54dc13c-310f-472a-af9e-e8f08100af82","system_id":"levelo_inurba_marseille","lat":43.307986,"lon":5.381494,"is_reserved":false,"is_disabled":false,"rental_uris":{"android":"levelo://app?vid=b54dc13c-310f-472a-af9e-e8f08100af82","ios":"levelo://app?vid=b54dc13c-310f-472a-af9e-e8f08100af82"},"vehicle_type_id":"4","last_reported":1692500805,"current_range_meters":21200,"station_id":"ce4bgt12rcd13ifvqce0","pricing_plan_id":"free"},{"bike_id":"4306a4f2-97ea-491c-98a8-35ae827c70e5","system_id":"levelo_inurba_marseille","lat":43.307986,"lon":5.381567,"is_reserved":false,"is_disabled":false,"rental_uris":{"android":"levelo://app?vid=4306a4f2-97ea-491c-98a8-35ae827c70e5","ios":"levelo://app?vid=4306a4f2-97ea-491c-98a8-35ae827c70e5"},"vehicle_type_id":"4","last_reported":1692500805,"current_range_meters":17200,"station_id":"ce4bgt12rcd13ifvqce0","pricing_plan_id":"free"},{"bike_id":"4412493a-11c6-47c2-ac93-a8ba471abb2c","system_id":"levelo_inurba_marseille","lat":43.304606,"lon":5.379026,"is_reserved":false,"is_disabled":false,"rental_uris":{"android":"levelo://app?vid=4412493a-11c6-47c2-ac93-a8ba471abb2c","ios":"levelo://app?vid=4412493a-11c6-47c2-ac93-a8ba471abb2c"},"vehicle_type_id":"4","last_reported":1692500805,"current_range_meters":15200,"station_id":"ce4bgup2rcd13ifvqcn0","pricing_plan_id":"free"},{"bike_id":"2cd28c41-5992-4acd-9d0b-2816fd9f18fc","system_id":"levelo_inurba_marseille","lat":43.304606,"lon":5.379026,"is_reserved":false,"is_disabled":false,"rental_uris":{"android":"levelo://app?vid=2cd28c41-5992-4acd-9d0b-2816fd9f18fc","ios":"levelo://app?vid=2cd28c41-5992-4acd-9d0b-2816fd9f18fc"},"vehicle_type_id":"4","last_reported":1692500805,"current_range_meters":30000,"station_id":"ce4bgup2rcd13ifvqcn0","pricing_plan_id":"free"},{"bike_id":"22bd445f-be4d-410e-ad2e-296fe0c38f3b","system_id":"levelo_inurba_marseille","lat":43.304606,"lon":5.379026,"is_reserved":false,"is_disabled":false,"rental_uris":{"android":"levelo://app?vid=22bd445f-be4d-410e-ad2e-296fe0c38f3b","ios":"levelo://app?vid=22bd445f-be4d-410e-ad2e-296fe0c38f3b"},"vehicle_type_id":"4","last_reported":1692500805,"current_range_meters":30000,"station_id":"ce4bgup2rcd13ifvqcn0","pricing_plan_id":"free"},{"bike_id":"f5d2e1ad-0fe1-4b60-9a87-37cce3a93696","system_id":"levelo_inurba_marseille","lat":43.304606,"lon":5.379026,"is_reserved":false,"is_disabled":false,"rental_uris":{"android":"levelo://app?vid=f5d2e1ad-0fe1-4b60-9a87-37cce3a93696","ios":"levelo://app?vid=f5d2e1ad-0fe1-4b60-9a87-37cce3a93696"},"vehicle_type_id":"4","last_reported":1692500805,"current_range_meters":30800,"station_id":"ce4bgup2rcd13ifvqcn0","pricing_plan_id":"free"},{"bike_id":"6d7980ec-9b32-4d24-8c38-592109fb843d","system_id":"levelo_inurba_marseille","lat":43.304606,"lon":5.379026,"is_reserved":false,"is_disabled":false,"rental_uris":{"android":"levelo://app?vid=6d7980ec-9b32-4d24-8c38-592109fb843d","ios":"levelo://app?vid=6d7980ec-9b32-4d24-8c38-592109fb843d"},"vehicle_type_id":"4","last_reported":1692500805,"current_range_meters":31200,"station_id":"ce4bgup2rcd13ifvqcn0","pricing_plan_id":"free"},{"bike_id":"43be714e-25e4-4341-bcb5-3847ac10a620","system_id":"levelo_inurba_marseille","lat":43.30147,"lon":5.37425,"is_reserved":false,"is_disabled":false,"rental_uris":{"android":"levelo://app?vid=43be714e-25e4-4341-bcb5-3847ac10a620","ios":"levelo://app?vid=43be714e-25e4-4341-bcb5-3847ac10a620"},"vehicle_type_id":"4","last_reported":1692500805,"current_range_meters":1600,"station_id":"ce4bgs92rcd13ifvqcc0","pricing_plan_id":"free"},{"bike_id":"2853069c-edb4-47a8-8b6a-798f5cd95477","system_id":"levelo_inurba_marseille","lat":43.31983,"lon":5.3813,"is_reserved":false,"is_disabled":false,"rental_uris":{"android":"levelo://app?vid=2853069c-edb4-47a8-8b6a-798f5cd95477","ios":"levelo://app?vid=2853069c-edb4-47a8-8b6a-798f5cd95477"},"vehicle_type_id":"4","last_reported":1692500805,"current_range_meters":400,"station_id":"ce4bhr12rcd13ifvqhpg","pricing_plan_id":"free"},{"bike_id":"e1210a24-b498-4b9d-8f2f-3a9b22976c9d","system_id":"levelo_inurba_marseille","lat":43.313545,"lon":5.384865,"is_reserved":false,"is_disabled":false,"rental_uris":{"android":"levelo://app?vid=e1210a24-b498-4b9d-8f2f-3a9b22976c9d","ios":"levelo://app?vid=e1210a24-b498-4b9d-8f2f-3a9b22976c9d"},"vehicle_type_id":"4","last_reported":1692500805,"current_range_meters":31200,"station_id":"ce4bgt92rcd13ifvqcf0","pricing_plan_id":"free"},{"bike_id":"d1ed3857-9b38-4d22-b868-3bbfd615b49d","system_id":"levelo_inurba_marseille","lat":43.313562,"lon":5.384938,"is_reserved":false,"is_disabled":false,"rental_uris":{"android":"levelo://app?vid=d1ed3857-9b38-4d22-b868-3bbfd615b49d","ios":"levelo://app?vid=d1ed3857-9b38-4d22-b868-3bbfd615b49d"},"vehicle_type_id":"4","last_reported":1692500805,"current_range_meters":31200,"station_id":"ce4bgt92rcd13ifvqcf0","pricing_plan_id":"free"},{"bike_id":"ed147d67-ff57-4f70-8555-3bc2bc183715","system_id":"levelo_inurba_marseille","lat":43.313571,"lon":5.384829,"is_reserved":false,"is_disabled":false,"rental_uris":{"android":"levelo://app?vid=ed147d67-ff57-4f70-8555-3bc2bc183715","ios":"levelo://app?vid=ed147d67-ff57-4f70-8555-3bc2bc183715"},"vehicle_type_id":"4","last_reported":1692500805,"current_range_meters":31200,"station_id":"ce4bgt92rcd13ifvqcf0","pricing_plan_id":"free"},{"bike_id":"60a38629-568e-43db-bd42-8a49484fd731","system_id":"levelo_inurba_marseille","lat":43.30533,"lon":5.38409,"is_reserved":false,"is_disabled":false,"rental_uris":{"android":"levelo://app?vid=60a38629-568e-43db-bd42-8a49484fd731","ios":"levelo://app?vid=60a38629-568e-43db-bd42-8a49484fd731"},"vehicle_type_id":"4","last_reported":1692500805,"current_range_meters":1200,"station_id":"ce4bgg92rcd13ifvqb30","pricing_plan_id":"free"},{"bike_id":"ab2d4341-0478-4b54-bcc5-66a861c96486","system_id":"levelo_inurba_marseille","lat":43.305364,"lon":5.384119,"is_reserved":false,"is_disabled":false,"rental_uris":{"android":"levelo://app?vid=ab2d4341-0478-4b54-bcc5-66a861c96486","ios":"levelo://app?vid=ab2d4341-0478-4b54-bcc5-66a861c96486"},"vehicle_type_id":"4","last_reported":1692500805,"current_range_meters":22400,"station_id":"ce4bgg92rcd13ifvqb30","pricing_plan_id":"free"},{"bike_id":"dffca9b9-7dca-4c9f-87cc-916579c157ae","system_id":"levelo_inurba_marseille","lat":43.305364,"lon":5.384119,"is_reserved":false,"is_disabled":false,"rental_uris":{"android":"levelo://app?vid=dffca9b9-7dca-4c9f-87cc-916579c157ae","ios":"levelo://app?vid=dffca9b9-7dca-4c9f-87cc-916579c157ae"},"vehicle_type_id":"4","last_reported":1692500805,"current_range_meters":15200,"station_id":"ce4bgg92rcd13ifvqb30","pricing_plan_id":"free"},{"bike_id":"67de4e25-029e-450d-aae5-1157f0b69161","system_id":"levelo_inurba_marseille","lat":43.305364,"lon":5.384119,"is_reserved":false,"is_disabled":false,"rental_uris":{"android":"levelo://app?vid=67de4e25-029e-450d-aae5-1157f0b69161","ios":"levelo://app?vid=67de4e25-029e-450d-aae5-1157f0b69161"},"vehicle_type_id":"4","last_reported":1692500805,"current_range_meters":31200,"station_id":"ce4bgg92rcd13ifvqb30","pricing_plan_id":"free"},{"bike_id":"f2d3f1cb-af47-47f8-b7fa-cebe5aae4bb1","system_id":"levelo_inurba_marseille","lat":43.30528,"lon":5.384207,"is_reserved":false,"is_disabled":false,"rental_uris":{"android":"levelo://app?vid=f2d3f1cb-af47-47f8-b7fa-cebe5aae4bb1","ios":"levelo://app?vid=f2d3f1cb-af47-47f8-b7fa-cebe5aae4bb1"},"vehicle_type_id":"4","last_reported":1692500805,"current_range_meters":24800,"station_id":"ce4bgg92rcd13ifvqb30","pricing_plan_id":"free"},{"bike_id":"4638e4f7-dd58-4392-ad9c-795dc0d14ab0","system_id":"levelo_inurba_marseille","lat":43.305288,"lon":5.384215,"is_reserved":false,"is_disabled":false,"rental_uris":{"android":"levelo://app?vid=4638e4f7-dd58-4392-ad9c-795dc0d14ab0","ios":"levelo://app?vid=4638e4f7-dd58-4392-ad9c-795dc0d14ab0"},"vehicle_type_id":"4","last_reported":1692500805,"current_range_meters":13200,"station_id":"ce4bgg92rcd13ifvqb30","pricing_plan_id":"free"},{"bike_id":"9a7e759b-a144-4360-a04f-8952daf23816","system_id":"levelo_inurba_marseille","lat":43.311722,"lon":5.387247,"is_reserved":false,"is_disabled":false,"rental_uris":{"android":"levelo://app?vid=9a7e759b-a144-4360-a04f-8952daf23816","ios":"levelo://app?vid=9a7e759b-a144-4360-a04f-8952daf23816"},"vehicle_type_id":"4","last_reported":1692500805,"current_range_meters":10400,"station_id":"ce4bgv12rcd13ifvqcp0","pricing_plan_id":"free"},{"bike_id":"5b85dc91-18f9-4b0d-947f-8fdd25de6d15","system_id":"levelo_inurba_marseille","lat":43.29908,"lon":5.37463,"is_reserved":false,"is_disabled":false,"rental_uris":{"android":"levelo://app?vid=5b85dc91-18f9-4b0d-947f-8fdd25de6d15","ios":"levelo://app?vid=5b85dc91-18f9-4b0d-947f-8fdd25de6d15"},"vehicle_type_id":"4","last_reported":1692500805,"current_range_meters":24800,"station_id":"ce4bgjh2rcd13ifvqbg0","pricing_plan_id":"free"},{"bike_id":"b885f463-e8c5-42cc-902f-7152167ce1c7","system_id":"levelo_inurba_marseille","lat":43.299243,"lon":5.374807,"is_reserved":false,"is_disabled":false,"rental_uris":{"android":"levelo://app?vid=b885f463-e8c5-42cc-902f-7152167ce1c7","ios":"levelo://app?vid=b885f463-e8c5-42cc-902f-7152167ce1c7"},"vehicle_type_id":"4","last_reported":1692500805,"current_range_meters":31200,"station_id":"ce4bgjh2rcd13ifvqbg0","pricing_plan_id":"free"},{"bike_id":"5b5c8cae-b425-4976-9ba8-5ae205664d6b","system_id":"levelo_inurba_marseille","lat":43.32289,"lon":5.38251,"is_reserved":false,"is_disabled":false,"rental_uris":{"android":"levelo://app?vid=5b5c8cae-b425-4976-9ba8-5ae205664d6b","ios":"levelo://app?vid=5b5c8cae-b425-4976-9ba8-5ae205664d6b"},"vehicle_type_id":"4","last_reported":1692500805,"current_range_meters":16400,"station_id":"ce4bhr12rcd13ifvqhqg","pricing_plan_id":"free"},{"bike_id":"b815ce0f-8c6d-460d-8747-b98d1251b4b3","system_id":"levelo_inurba_marseille","lat":43.322872,"lon":5.382756,"is_reserved":false,"is_disabled":false,"rental_uris":{"android":"levelo://app?vid=b815ce0f-8c6d-460d-8747-b98d1251b4b3","ios":"levelo://app?vid=b815ce0f-8c6d-460d-8747-b98d1251b4b3"},"vehicle_type_id":"4","last_reported":1692500805,"current_range_meters":13200,"station_id":"ce4bhr12rcd13ifvqhqg","pricing_plan_id":"free"},{"bike_id":"a1f7b084-f437-4e0c-8b20-334f54c48d59","system_id":"levelo_inurba_marseille","lat":43.32288,"lon":5.38264,"is_reserved":false,"is_disabled":false,"rental_uris":{"android":"levelo://app?vid=a1f7b084-f437-4e0c-8b20-334f54c48d59","ios":"levelo://app?vid=a1f7b084-f437-4e0c-8b20-334f54c48d59"},"vehicle_type_id":"4","last_reported":1692500805,"current_range_meters":17200,"station_id":"ce4bhr12rcd13ifvqhqg","pricing_plan_id":"free"},{"bike_id":"b9784bc4-a1f4-4e7b-a996-3746dcc4c656","system_id":"levelo_inurba_marseille","lat":43.32286,"lon":5.38268,"is_reserved":false,"is_disabled":false,"rental_uris":{"android":"levelo://app?vid=b9784bc4-a1f4-4e7b-a996-3746dcc4c656","ios":"levelo://app?vid=b9784bc4-a1f4-4e7b-a996-3746dcc4c656"},"vehicle_type_id":"4","last_reported":1692500805,"current_range_meters":8000,"station_id":"ce4bhr12rcd13ifvqhqg","pricing_plan_id":"free"},{"bike_id":"8bb6d4ca-81bd-451c-951e-d3af7629b258","system_id":"levelo_inurba_marseille","lat":43.297774,"lon":5.370875,"is_reserved":false,"is_disabled":false,"rental_uris":{"android":"levelo://app?vid=8bb6d4ca-81bd-451c-951e-d3af7629b258","ios":"levelo://app?vid=8bb6d4ca-81bd-451c-951e-d3af7629b258"},"vehicle_type_id":"4","last_reported":1692500805,"current_range_meters":2000,"station_id":"ce4bgop2rcd13ifvqc1g","pricing_plan_id":"free"},{"bike_id":"0f135836-946e-4e91-9b15-72b385cbdf04","system_id":"levelo_inurba_marseille","lat":43.328371,"lon":5.366909,"is_reserved":false,"is_disabled":false,"rental_uris":{"android":"levelo://app?vid=0f135836-946e-4e91-9b15-72b385cbdf04","ios":"levelo://app?vid=0f135836-946e-4e91-9b15-72b385cbdf04"},"vehicle_type_id":"4","last_reported":1692500805,"current_range_meters":30000,"station_id":"ce4bhs92rcd13ifvqi0g","pricing_plan_id":"free"},{"bike_id":"a6eaca4d-e5e7-4db0-a760-7ab92bd9f747","system_id":"levelo_inurba_marseille","lat":43.32822,"lon":5.36672,"is_reserved":false,"is_disabled":false,"rental_uris":{"android":"levelo://app?vid=a6eaca4d-e5e7-4db0-a760-7ab92bd9f747","ios":"levelo://app?vid=a6eaca4d-e5e7-4db0-a760-7ab92bd9f747"},"vehicle_type_id":"4","last_reported":1692500805,"current_range_meters":6000,"station_id":"ce4bhs92rcd13ifvqi0g","pricing_plan_id":"free"},{"bike_id":"2ab2c619-9cfb-4da7-9f78-cfb4995f9eec","system_id":"levelo_inurba_marseille","lat":43.32826,"lon":5.36667,"is_reserved":false,"is_disabled":false,"rental_uris":{"android":"levelo://app?vid=2ab2c619-9cfb-4da7-9f78-cfb4995f9eec","ios":"levelo://app?vid=2ab2c619-9cfb-4da7-9f78-cfb4995f9eec"},"vehicle_type_id":"4","last_reported":1692500805,"current_range_meters":5200,"station_id":"ce4bhs92rcd13ifvqi0g","pricing_plan_id":"free"},{"bike_id":"5eefc84e-9777-4e83-8ca3-12353ed296ec","system_id":"levelo_inurba_marseille","lat":43.32833,"lon":5.36691,"is_reserved":false,"is_disabled":false,"rental_uris":{"android":"levelo://app?vid=5eefc84e-9777-4e83-8ca3-12353ed296ec","ios":"levelo://app?vid=5eefc84e-9777-4e83-8ca3-12353ed296ec"},"vehicle_type_id":"4","last_reported":1692500805,"current_range_meters":16400,"station_id":"ce4bhs92rcd13ifvqi0g","pricing_plan_id":"free"},{"bike_id":"dd789220-e7b5-42c1-b9dc-dc4243148021","system_id":"levelo_inurba_marseille","lat":43.297163,"lon":5.365866,"is_reserved":false,"is_disabled":false,"rental_uris":{"android":"levelo://app?vid=dd789220-e7b5-42c1-b9dc-dc4243148021","ios":"levelo://app?vid=dd789220-e7b5-42c1-b9dc-dc4243148021"},"vehicle_type_id":"4","last_reported":1692500805,"current_range_meters":31200,"station_id":"ce4bgn12rcd13ifvqbt0","pricing_plan_id":"free"},{"bike_id":"bb155e93-116e-494a-9911-2df351c7dae8","system_id":"levelo_inurba_marseille","lat":43.296131,"lon":5.370773,"is_reserved":false,"is_disabled":false,"rental_uris":{"android":"levelo://app?vid=bb155e93-116e-494a-9911-2df351c7dae8","ios":"levelo://app?vid=bb155e93-116e-494a-9911-2df351c7dae8"},"vehicle_type_id":"4","last_reported":1692500805,"current_range_meters":28400,"station_id":"ce4bgnh2rcd13ifvqc0g","pricing_plan_id":"free"},{"bike_id":"d3139180-8ba9-4c91-b6e4-8baae3c22113","system_id":"levelo_inurba_marseille","lat":43.29624,"lon":5.3718,"is_reserved":false,"is_disabled":false,"rental_uris":{"android":"levelo://app?vid=d3139180-8ba9-4c91-b6e4-8baae3c22113","ios":"levelo://app?vid=d3139180-8ba9-4c91-b6e4-8baae3c22113"},"vehicle_type_id":"4","last_reported":1692500805,"current_range_meters":31200,"station_id":"","pricing_plan_id":"free"},{"bike_id":"ca20506f-8adb-405d-8f71-c781f61ad43f","system_id":"levelo_inurba_marseille","lat":43.30963,"lon":5.39035,"is_reserved":false,"is_disabled":false,"rental_uris":{"android":"levelo://app?vid=ca20506f-8adb-405d-8f71-c781f61ad43f","ios":"levelo://app?vid=ca20506f-8adb-405d-8f71-c781f61ad43f"},"vehicle_type_id":"4","last_reported":1692500805,"current_range_meters":31600,"station_id":"ce4bgup2rcd13ifvqco0","pricing_plan_id":"free"},{"bike_id":"107a3c26-4659-4989-b674-612fd5a1f70f","system_id":"levelo_inurba_marseille","lat":43.30957,"lon":5.390337,"is_reserved":false,"is_disabled":false,"rental_uris":{"android":"levelo://app?vid=107a3c26-4659-4989-b674-612fd5a1f70f","ios":"levelo://app?vid=107a3c26-4659-4989-b674-612fd5a1f70f"},"vehicle_type_id":"4","last_reported":1692500805,"current_range_meters":31200,"station_id":"ce4bgup2rcd13ifvqco0","pricing_plan_id":"free"},{"bike_id":"373647a5-ab6d-4ea7-aedd-25f37c45258f","system_id":"levelo_inurba_marseille","lat":43.299028,"lon":5.381509,"is_reserved":false,"is_disabled":false,"rental_uris":{"android":"levelo://app?vid=373647a5-ab6d-4ea7-aedd-25f37c45258f","ios":"levelo://app?vid=373647a5-ab6d-4ea7-aedd-25f37c45258f"},"vehicle_type_id":"4","last_reported":1692500805,"current_range_meters":19600,"station_id":"ce4bgj12rcd13ifvqbc0","pricing_plan_id":"free"},{"bike_id":"808b1089-952a-49b7-bf00-634160d8a659","system_id":"levelo_inurba_marseille","lat":43.317557,"lon":5.390173,"is_reserved":false,"is_disabled":false,"rental_uris":{"android":"levelo://app?vid=808b1089-952a-49b7-bf00-634160d8a659","ios":"levelo://app?vid=808b1089-952a-49b7-bf00-634160d8a659"},"vehicle_type_id":"4","last_reported":1692500805,"current_range_meters":9200,"station_id":"ce4bhqp2rcd13ifvqhng","pricing_plan_id":"free"},{"bike_id":"18ce2835-86aa-429e-b3de-f2665669dc8a","system_id":"levelo_inurba_marseille","lat":43.31751,"lon":5.39022,"is_reserved":false,"is_disabled":false,"rental_uris":{"android":"levelo://app?vid=18ce2835-86aa-429e-b3de-f2665669dc8a","ios":"levelo://app?vid=18ce2835-86aa-429e-b3de-f2665669dc8a"},"vehicle_type_id":"4","last_reported":1692500805,"current_range_meters":27600,"station_id":"ce4bhqp2rcd13ifvqhng","pricing_plan_id":"free"},{"bike_id":"9511fab8-7b4d-48bf-a84a-5f7644327bca","system_id":"levelo_inurba_marseille","lat":43.2979,"lon":5.38081,"is_reserved":false,"is_disabled":false,"rental_uris":{"android":"levelo://app?vid=9511fab8-7b4d-48bf-a84a-5f7644327bca","ios":"levelo://app?vid=9511fab8-7b4d-48bf-a84a-5f7644327bca"},"vehicle_type_id":"4","last_reported":1692500805,"current_range_meters":0,"station_id":"ce4bgip2rcd13ifvqbb0","pricing_plan_id":"free"},{"bike_id":"17246812-e439-407e-b853-229574b6bc57","system_id":"levelo_inurba_marseille","lat":43.30432,"lon":5.38874,"is_reserved":false,"is_disabled":false,"rental_uris":{"android":"levelo://app?vid=17246812-e439-407e-b853-229574b6bc57","ios":"levelo://app?vid=17246812-e439-407e-b853-229574b6bc57"},"vehicle_type_id":"4","last_reported":1692500805,"current_range_meters":30400,"station_id":"ce4bgk12rcd13ifvqbi0","pricing_plan_id":"free"},{"bike_id":"d2c3c11d-8bf6-48e4-bcf0-5e68f9f97208","system_id":"levelo_inurba_marseille","lat":43.304278,"lon":5.388868,"is_reserved":false,"is_disabled":false,"rental_uris":{"android":"levelo://app?vid=d2c3c11d-8bf6-48e4-bcf0-5e68f9f97208","ios":"levelo://app?vid=d2c3c11d-8bf6-48e4-bcf0-5e68f9f97208"},"vehicle_type_id":"4","last_reported":1692500805,"current_range_meters":0,"station_id":"ce4bgk12rcd13ifvqbi0","pricing_plan_id":"free"},{"bike_id":"e983744e-b28e-4cdf-b613-9f80fd99dd19","system_id":"levelo_inurba_marseille","lat":43.304278,"lon":5.388868,"is_reserved":false,"is_disabled":false,"rental_uris":{"android":"levelo://app?vid=e983744e-b28e-4cdf-b613-9f80fd99dd19","ios":"levelo://app?vid=e983744e-b28e-4cdf-b613-9f80fd99dd19"},"vehicle_type_id":"4","last_reported":1692500805,"current_range_meters":800,"station_id":"ce4bgk12rcd13ifvqbi0","pricing_plan_id":"free"},{"bike_id":"cdfdd88f-92d3-44a9-9ead-348b3dfbcef1","system_id":"levelo_inurba_marseille","lat":43.30436,"lon":5.38885,"is_reserved":false,"is_disabled":false,"rental_uris":{"android":"levelo://app?vid=cdfdd88f-92d3-44a9-9ead-348b3dfbcef1","ios":"levelo://app?vid=cdfdd88f-92d3-44a9-9ead-348b3dfbcef1"},"vehicle_type_id":"4","last_reported":1692500805,"current_range_meters":31200,"station_id":"ce4bgk12rcd13ifvqbi0","pricing_plan_id":"free"},{"bike_id":"9199d6dc-5f1d-4ee7-8785-0d6d042ebbcf","system_id":"levelo_inurba_marseille","lat":43.304274,"lon":5.388873,"is_reserved":false,"is_disabled":false,"rental_uris":{"android":"levelo://app?vid=9199d6dc-5f1d-4ee7-8785-0d6d042ebbcf","ios":"levelo://app?vid=9199d6dc-5f1d-4ee7-8785-0d6d042ebbcf"},"vehicle_type_id":"4","last_reported":1692500805,"current_range_meters":31200,"station_id":"ce4bgk12rcd13ifvqbi0","pricing_plan_id":"free"},{"bike_id":"a4df99ce-0488-49dd-a888-94686f562e88","system_id":"levelo_inurba_marseille","lat":43.295748,"lon":5.37522,"is_reserved":false,"is_disabled":false,"rental_uris":{"android":"levelo://app?vid=a4df99ce-0488-49dd-a888-94686f562e88","ios":"levelo://app?vid=a4df99ce-0488-49dd-a888-94686f562e88"},"vehicle_type_id":"4","last_reported":1692500805,"current_range_meters":29600,"station_id":"ce4bgh92rcd13ifvqb50","pricing_plan_id":"free"},{"bike_id":"4a3423c9-6940-492c-b797-16043ae65f9c","system_id":"levelo_inurba_marseille","lat":43.304278,"lon":5.388868,"is_reserved":false,"is_disabled":false,"rental_uris":{"android":"levelo://app?vid=4a3423c9-6940-492c-b797-16043ae65f9c","ios":"levelo://app?vid=4a3423c9-6940-492c-b797-16043ae65f9c"},"vehicle_type_id":"4","last_reported":1692500805,"current_range_meters":24800,"station_id":"ce4bgk12rcd13ifvqbi0","pricing_plan_id":"free"},{"bike_id":"5fc88063-dc87-4d09-9d86-fa07e14545ca","system_id":"levelo_inurba_marseille","lat":43.29618,"lon":5.37704,"is_reserved":false,"is_disabled":false,"rental_uris":{"android":"levelo://app?vid=5fc88063-dc87-4d09-9d86-fa07e14545ca","ios":"levelo://app?vid=5fc88063-dc87-4d09-9d86-fa07e14545ca"},"vehicle_type_id":"4","last_reported":1692500805,"current_range_meters":0,"station_id":"ce4bgi92rcd13ifvqb90","pricing_plan_id":"free"},{"bike_id":"4e6ce3b3-8df0-4453-aa9a-e5d1062e6d6b","system_id":"levelo_inurba_marseille","lat":43.29844,"lon":5.38282,"is_reserved":false,"is_disabled":false,"rental_uris":{"android":"levelo://app?vid=4e6ce3b3-8df0-4453-aa9a-e5d1062e6d6b","ios":"levelo://app?vid=4e6ce3b3-8df0-4453-aa9a-e5d1062e6d6b"},"vehicle_type_id":"4","last_reported":1692500805,"current_range_meters":2400,"station_id":"","pricing_plan_id":"free"},{"bike_id":"37de603b-db5b-4c49-9653-8165e272d88e","system_id":"levelo_inurba_marseille","lat":43.299717,"lon":5.384845,"is_reserved":false,"is_disabled":false,"rental_uris":{"android":"levelo://app?vid=37de603b-db5b-4c49-9653-8165e272d88e","ios":"levelo://app?vid=37de603b-db5b-4c49-9653-8165e272d88e"},"vehicle_type_id":"4","last_reported":1692500805,"current_range_meters":29200,"station_id":"ce4bgj92rcd13ifvqbd0","pricing_plan_id":"free"},{"bike_id":"21fcea45-e491-4a85-bcbf-bf5cd0b62ccf","system_id":"levelo_inurba_marseille","lat":43.32342,"lon":5.38874,"is_reserved":false,"is_disabled":false,"rental_uris":{"android":"levelo://app?vid=21fcea45-e491-4a85-bcbf-bf5cd0b62ccf","ios":"levelo://app?vid=21fcea45-e491-4a85-bcbf-bf5cd0b62ccf"},"vehicle_type_id":"4","last_reported":1692500805,"current_range_meters":30000,"station_id":"ce4bhqp2rcd13ifvqhog","pricing_plan_id":"free"},{"bike_id":"55f08f4d-333e-4077-9882-16e72e12ddbf","system_id":"levelo_inurba_marseille","lat":43.32361,"lon":5.38878,"is_reserved":false,"is_disabled":false,"rental_uris":{"android":"levelo://app?vid=55f08f4d-333e-4077-9882-16e72e12ddbf","ios":"levelo://app?vid=55f08f4d-333e-4077-9882-16e72e12ddbf"},"vehicle_type_id":"4","last_reported":1692500805,"current_range_meters":25600,"station_id":"ce4bhqp2rcd13ifvqhog","pricing_plan_id":"free"},{"bike_id":"729585a6-6040-4937-af32-fd49d682d0d6","system_id":"levelo_inurba_marseille","lat":43.32365,"lon":5.38876,"is_reserved":false,"is_disabled":false,"rental_uris":{"android":"levelo://app?vid=729585a6-6040-4937-af32-fd49d682d0d6","ios":"levelo://app?vid=729585a6-6040-4937-af32-fd49d682d0d6"},"vehicle_type_id":"4","last_reported":1692500805,"current_range_meters":0,"station_id":"ce4bhqp2rcd13ifvqhog","pricing_plan_id":"free"},{"bike_id":"cbdfdf6f-4880-4684-826d-8e1c7ca94f15","system_id":"levelo_inurba_marseille","lat":43.32367,"lon":5.388836,"is_reserved":false,"is_disabled":false,"rental_uris":{"android":"levelo://app?vid=cbdfdf6f-4880-4684-826d-8e1c7ca94f15","ios":"levelo://app?vid=cbdfdf6f-4880-4684-826d-8e1c7ca94f15"},"vehicle_type_id":"4","last_reported":1692500805,"current_range_meters":17200,"station_id":"ce4bhqp2rcd13ifvqhog","pricing_plan_id":"free"},{"bike_id":"a97f77a2-1520-4bfc-9df0-0f9c62851caa","system_id":"levelo_inurba_marseille","lat":43.32362,"lon":5.38887,"is_reserved":false,"is_disabled":false,"rental_uris":{"android":"levelo://app?vid=a97f77a2-1520-4bfc-9df0-0f9c62851caa","ios":"levelo://app?vid=a97f77a2-1520-4bfc-9df0-0f9c62851caa"},"vehicle_type_id":"4","last_reported":1692500805,"current_range_meters":26000,"station_id":"ce4bhqp2rcd13ifvqhog","pricing_plan_id":"free"},{"bike_id":"6b6cba89-d2b8-44bb-8454-5df08cf65f67","system_id":"levelo_inurba_marseille","lat":43.32365,"lon":5.38886,"is_reserved":false,"is_disabled":false,"rental_uris":{"android":"levelo://app?vid=6b6cba89-d2b8-44bb-8454-5df08cf65f67","ios":"levelo://app?vid=6b6cba89-d2b8-44bb-8454-5df08cf65f67"},"vehicle_type_id":"4","last_reported":1692500805,"current_range_meters":10400,"station_id":"ce4bhqp2rcd13ifvqhog","pricing_plan_id":"free"},{"bike_id":"0126f869-77bb-4690-a14f-53e2dd9d4689","system_id":"levelo_inurba_marseille","lat":43.3237,"lon":5.38888,"is_reserved":false,"is_disabled":false,"rental_uris":{"android":"levelo://app?vid=0126f869-77bb-4690-a14f-53e2dd9d4689","ios":"levelo://app?vid=0126f869-77bb-4690-a14f-53e2dd9d4689"},"vehicle_type_id":"4","last_reported":1692500805,"current_range_meters":23200,"station_id":"ce4bhqp2rcd13ifvqhog","pricing_plan_id":"free"},{"bike_id":"11895594-1d66-4ee2-a6a0-b545bbf31b3e","system_id":"levelo_inurba_marseille","lat":43.29602,"lon":5.381084,"is_reserved":false,"is_disabled":false,"rental_uris":{"android":"levelo://app?vid=11895594-1d66-4ee2-a6a0-b545bbf31b3e","ios":"levelo://app?vid=11895594-1d66-4ee2-a6a0-b545bbf31b3e"},"vehicle_type_id":"4","last_reported":1692500805,"current_range_meters":17600,"station_id":"ce4bgl12rcd13ifvqbo0","pricing_plan_id":"free"},{"bike_id":"e4599d0c-5641-4bde-92e4-28a45222171d","system_id":"levelo_inurba_marseille","lat":43.29313,"lon":5.37182,"is_reserved":false,"is_disabled":false,"rental_uris":{"android":"levelo://app?vid=e4599d0c-5641-4bde-92e4-28a45222171d","ios":"levelo://app?vid=e4599d0c-5641-4bde-92e4-28a45222171d"},"vehicle_type_id":"4","last_reported":1692500805,"current_range_meters":0,"station_id":"ce4bgh92rcd13ifvqb40","pricing_plan_id":"free"},{"bike_id":"77fa1bcf-bf9c-4718-9b99-57a363c0d8f9","system_id":"levelo_inurba_marseille","lat":43.292749,"lon":5.368402,"is_reserved":false,"is_disabled":false,"rental_uris":{"android":"levelo://app?vid=77fa1bcf-bf9c-4718-9b99-57a363c0d8f9","ios":"levelo://app?vid=77fa1bcf-bf9c-4718-9b99-57a363c0d8f9"},"vehicle_type_id":"4","last_reported":1692500805,"current_range_meters":28000,"station_id":"ce4bhbp2rcd13ifvqesg","pricing_plan_id":"free"},{"bike_id":"38fef587-7cc5-4800-b069-87b8f296a10a","system_id":"levelo_inurba_marseille","lat":43.293,"lon":5.37444,"is_reserved":false,"is_disabled":false,"rental_uris":{"android":"levelo://app?vid=38fef587-7cc5-4800-b069-87b8f296a10a","ios":"levelo://app?vid=38fef587-7cc5-4800-b069-87b8f296a10a"},"vehicle_type_id":"4","last_reported":1692500805,"current_range_meters":31200,"station_id":"ce4bgi12rcd13ifvqb70","pricing_plan_id":"free"},{"bike_id":"89146103-62e5-4e27-bb4d-81e8facf3471","system_id":"levelo_inurba_marseille","lat":43.30599,"lon":5.39356,"is_reserved":false,"is_disabled":false,"rental_uris":{"android":"levelo://app?vid=89146103-62e5-4e27-bb4d-81e8facf3471","ios":"levelo://app?vid=89146103-62e5-4e27-bb4d-81e8facf3471"},"vehicle_type_id":"4","last_reported":1692500805,"current_range_meters":31200,"station_id":"ce4bh0p2rcd13ifvqd80","pricing_plan_id":"free"},{"bike_id":"d2243c22-e712-4b09-be82-5ae5a1f9466c","system_id":"levelo_inurba_marseille","lat":43.305994,"lon":5.393687,"is_reserved":false,"is_disabled":false,"rental_uris":{"android":"levelo://app?vid=d2243c22-e712-4b09-be82-5ae5a1f9466c","ios":"levelo://app?vid=d2243c22-e712-4b09-be82-5ae5a1f9466c"},"vehicle_type_id":"4","last_reported":1692500805,"current_range_meters":31200,"station_id":"ce4bh0p2rcd13ifvqd80","pricing_plan_id":"free"},{"bike_id":"c1ae99d6-2263-4261-8878-9f6bf991d282","system_id":"levelo_inurba_marseille","lat":43.30296,"lon":5.39197,"is_reserved":false,"is_disabled":false,"rental_uris":{"android":"levelo://app?vid=c1ae99d6-2263-4261-8878-9f6bf991d282","ios":"levelo://app?vid=c1ae99d6-2263-4261-8878-9f6bf991d282"},"vehicle_type_id":"4","last_reported":1692500805,"current_range_meters":27200,"station_id":"ce4bgkh2rcd13ifvqbk0","pricing_plan_id":"free"},{"bike_id":"5bfebcf7-9ae5-4eb4-86a5-85f4cdf7a976","system_id":"levelo_inurba_marseille","lat":43.30297,"lon":5.39198,"is_reserved":false,"is_disabled":false,"rental_uris":{"android":"levelo://app?vid=5bfebcf7-9ae5-4eb4-86a5-85f4cdf7a976","ios":"levelo://app?vid=5bfebcf7-9ae5-4eb4-86a5-85f4cdf7a976"},"vehicle_type_id":"4","last_reported":1692500805,"current_range_meters":18400,"station_id":"ce4bgkh2rcd13ifvqbk0","pricing_plan_id":"free"},{"bike_id":"147ac3aa-bb07-4dfb-bc98-a594818a4f0c","system_id":"levelo_inurba_marseille","lat":43.30303,"lon":5.39204,"is_reserved":false,"is_disabled":false,"rental_uris":{"android":"levelo://app?vid=147ac3aa-bb07-4dfb-bc98-a594818a4f0c","ios":"levelo://app?vid=147ac3aa-bb07-4dfb-bc98-a594818a4f0c"},"vehicle_type_id":"4","last_reported":1692500805,"current_range_meters":26400,"station_id":"ce4bgkh2rcd13ifvqbk0","pricing_plan_id":"free"},{"bike_id":"0724f352-a262-45b7-9b71-9a09ff17d945","system_id":"levelo_inurba_marseille","lat":43.30297,"lon":5.39201,"is_reserved":false,"is_disabled":false,"rental_uris":{"android":"levelo://app?vid=0724f352-a262-45b7-9b71-9a09ff17d945","ios":"levelo://app?vid=0724f352-a262-45b7-9b71-9a09ff17d945"},"vehicle_type_id":"4","last_reported":1692500805,"current_range_meters":22400,"station_id":"ce4bgkh2rcd13ifvqbk0","pricing_plan_id":"free"},{"bike_id":"525ccdde-2738-4131-a327-2ec754bafd50","system_id":"levelo_inurba_marseille","lat":43.30295,"lon":5.392,"is_reserved":false,"is_disabled":false,"rental_uris":{"android":"levelo://app?vid=525ccdde-2738-4131-a327-2ec754bafd50","ios":"levelo://app?vid=525ccdde-2738-4131-a327-2ec754bafd50"},"vehicle_type_id":"4","last_reported":1692500805,"current_range_meters":31200,"station_id":"ce4bgkh2rcd13ifvqbk0","pricing_plan_id":"free"},{"bike_id":"1a2ee988-bb65-4f7b-bbee-02bd6242518f","system_id":"levelo_inurba_marseille","lat":43.302992,"lon":5.392136,"is_reserved":false,"is_disabled":false,"rental_uris":{"android":"levelo://app?vid=1a2ee988-bb65-4f7b-bbee-02bd6242518f","ios":"levelo://app?vid=1a2ee988-bb65-4f7b-bbee-02bd6242518f"},"vehicle_type_id":"4","last_reported":1692500805,"current_range_meters":13200,"station_id":"ce4bgkh2rcd13ifvqbk0","pricing_plan_id":"free"},{"bike_id":"7d5601a2-d6af-4ef6-94b7-e7f1320d61f2","system_id":"levelo_inurba_marseille","lat":43.302992,"lon":5.392136,"is_reserved":false,"is_disabled":false,"rental_uris":{"android":"levelo://app?vid=7d5601a2-d6af-4ef6-94b7-e7f1320d61f2","ios":"levelo://app?vid=7d5601a2-d6af-4ef6-94b7-e7f1320d61f2"},"vehicle_type_id":"4","last_reported":1692500805,"current_range_meters":30400,"station_id":"ce4bgkh2rcd13ifvqbk0","pricing_plan_id":"free"},{"bike_id":"d4a82709-3ab2-41ef-82f6-e0f9ff474b4a","system_id":"levelo_inurba_marseille","lat":43.302992,"lon":5.392136,"is_reserved":false,"is_disabled":false,"rental_uris":{"android":"levelo://app?vid=d4a82709-3ab2-41ef-82f6-e0f9ff474b4a","ios":"levelo://app?vid=d4a82709-3ab2-41ef-82f6-e0f9ff474b4a"},"vehicle_type_id":"4","last_reported":1692500805,"current_range_meters":31200,"station_id":"ce4bgkh2rcd13ifvqbk0","pricing_plan_id":"free"},{"bike_id":"428c038c-fff1-493f-b5e3-2e94fcf39a76","system_id":"levelo_inurba_marseille","lat":43.302992,"lon":5.392136,"is_reserved":false,"is_disabled":false,"rental_uris":{"android":"levelo://app?vid=428c038c-fff1-493f-b5e3-2e94fcf39a76","ios":"levelo://app?vid=428c038c-fff1-493f-b5e3-2e94fcf39a76"},"vehicle_type_id":"4","last_reported":1692500805,"current_range_meters":31200,"station_id":"ce4bgkh2rcd13ifvqbk0","pricing_plan_id":"free"},{"bike_id":"21fb045c-22a9-40e4-9024-ca5207b8c753","system_id":"levelo_inurba_marseille","lat":43.2936,"lon":5.37835,"is_reserved":false,"is_disabled":false,"rental_uris":{"android":"levelo://app?vid=21fb045c-22a9-40e4-9024-ca5207b8c753","ios":"levelo://app?vid=21fb045c-22a9-40e4-9024-ca5207b8c753"},"vehicle_type_id":"4","last_reported":1692500805,"current_range_meters":20800,"station_id":"ce4bgjh2rcd13ifvqbf0","pricing_plan_id":"free"},{"bike_id":"6a6826ab-ffa9-41f9-8c1f-922e099a8298","system_id":"levelo_inurba_marseille","lat":43.2919,"lon":5.35797,"is_reserved":false,"is_disabled":false,"rental_uris":{"android":"levelo://app?vid=6a6826ab-ffa9-41f9-8c1f-922e099a8298","ios":"levelo://app?vid=6a6826ab-ffa9-41f9-8c1f-922e099a8298"},"vehicle_type_id":"4","last_reported":1692500805,"current_range_meters":7200,"station_id":"ce4bhb12rcd13ifvqel0","pricing_plan_id":"free"},{"bike_id":"f1354d52-2b4b-45c7-bd9c-17131a0594c0","system_id":"levelo_inurba_marseille","lat":43.31332,"lon":5.39693,"is_reserved":false,"is_disabled":false,"rental_uris":{"android":"levelo://app?vid=f1354d52-2b4b-45c7-bd9c-17131a0594c0","ios":"levelo://app?vid=f1354d52-2b4b-45c7-bd9c-17131a0594c0"},"vehicle_type_id":"4","last_reported":1692500805,"current_range_meters":7200,"station_id":"ce4bgvp2rcd13ifvqcu0","pricing_plan_id":"free"},{"bike_id":"6b8672ce-1661-4975-8f27-e70f0732b50a","system_id":"levelo_inurba_marseille","lat":43.29529,"lon":5.385581,"is_reserved":false,"is_disabled":false,"rental_uris":{"android":"levelo://app?vid=6b8672ce-1661-4975-8f27-e70f0732b50a","ios":"levelo://app?vid=6b8672ce-1661-4975-8f27-e70f0732b50a"},"vehicle_type_id":"4","last_reported":1692500805,"current_range_meters":10400,"station_id":"ce4bgih2rcd13ifvqba0","pricing_plan_id":"free"},{"bike_id":"07f48092-2ee8-45c7-af29-578111da4e71","system_id":"levelo_inurba_marseille","lat":43.29529,"lon":5.385581,"is_reserved":false,"is_disabled":false,"rental_uris":{"android":"levelo://app?vid=07f48092-2ee8-45c7-af29-578111da4e71","ios":"levelo://app?vid=07f48092-2ee8-45c7-af29-578111da4e71"},"vehicle_type_id":"4","last_reported":1692500805,"current_range_meters":29600,"station_id":"ce4bgih2rcd13ifvqba0","pricing_plan_id":"free"},{"bike_id":"0d1633fd-d665-4b79-980d-ff489dab9f7a","system_id":"levelo_inurba_marseille","lat":43.302008,"lon":5.394694,"is_reserved":false,"is_disabled":false,"rental_uris":{"android":"levelo://app?vid=0d1633fd-d665-4b79-980d-ff489dab9f7a","ios":"levelo://app?vid=0d1633fd-d665-4b79-980d-ff489dab9f7a"},"vehicle_type_id":"4","last_reported":1692500805,"current_range_meters":30400,"station_id":"ce4bh0p2rcd13ifvqd70","pricing_plan_id":"free"},{"bike_id":"dd09f299-2f02-4f90-ac73-c0c40947e6b7","system_id":"levelo_inurba_marseille","lat":43.302008,"lon":5.394694,"is_reserved":false,"is_disabled":false,"rental_uris":{"android":"levelo://app?vid=dd09f299-2f02-4f90-ac73-c0c40947e6b7","ios":"levelo://app?vid=dd09f299-2f02-4f90-ac73-c0c40947e6b7"},"vehicle_type_id":"4","last_reported":1692500805,"current_range_meters":30000,"station_id":"ce4bh0p2rcd13ifvqd70","pricing_plan_id":"free"},{"bike_id":"11618fee-1f41-41a7-9b93-5ff555baadd0","system_id":"levelo_inurba_marseille","lat":43.290631,"lon":5.359244,"is_reserved":false,"is_disabled":false,"rental_uris":{"android":"levelo://app?vid=11618fee-1f41-41a7-9b93-5ff555baadd0","ios":"levelo://app?vid=11618fee-1f41-41a7-9b93-5ff555baadd0"},"vehicle_type_id":"4","last_reported":1692500805,"current_range_meters":0,"station_id":"ce4bha92rcd13ifvqeg0","pricing_plan_id":"free"},{"bike_id":"b3b0fd35-fe1c-490e-a2b7-db5cda36e836","system_id":"levelo_inurba_marseille","lat":43.29042,"lon":5.37575,"is_reserved":false,"is_disabled":false,"rental_uris":{"android":"levelo://app?vid=b3b0fd35-fe1c-490e-a2b7-db5cda36e836","ios":"levelo://app?vid=b3b0fd35-fe1c-490e-a2b7-db5cda36e836"},"vehicle_type_id":"4","last_reported":1692500805,"current_range_meters":0,"station_id":"ce4bh692rcd13ifvqe90","pricing_plan_id":"free"},{"bike_id":"968a531e-87a5-4e50-a117-5c53cc92076d","system_id":"levelo_inurba_marseille","lat":43.294153,"lon":5.386305,"is_reserved":false,"is_disabled":false,"rental_uris":{"android":"levelo://app?vid=968a531e-87a5-4e50-a117-5c53cc92076d","ios":"levelo://app?vid=968a531e-87a5-4e50-a117-5c53cc92076d"},"vehicle_type_id":"4","last_reported":1692500805,"current_range_meters":6000,"station_id":"ce4bh2h2rcd13ifvqdh0","pricing_plan_id":"free"},{"bike_id":"3314a68f-2111-499c-a875-176b06983572","system_id":"levelo_inurba_marseille","lat":43.294153,"lon":5.386305,"is_reserved":false,"is_disabled":false,"rental_uris":{"android":"levelo://app?vid=3314a68f-2111-499c-a875-176b06983572","ios":"levelo://app?vid=3314a68f-2111-499c-a875-176b06983572"},"vehicle_type_id":"4","last_reported":1692500805,"current_range_meters":12400,"station_id":"ce4bh2h2rcd13ifvqdh0","pricing_plan_id":"free"},{"bike_id":"bdcecd0f-335e-49c2-88df-41e731f49dc0","system_id":"levelo_inurba_marseille","lat":43.294153,"lon":5.386305,"is_reserved":false,"is_disabled":false,"rental_uris":{"android":"levelo://app?vid=bdcecd0f-335e-49c2-88df-41e731f49dc0","ios":"levelo://app?vid=bdcecd0f-335e-49c2-88df-41e731f49dc0"},"vehicle_type_id":"4","last_reported":1692500805,"current_range_meters":3600,"station_id":"ce4bh2h2rcd13ifvqdh0","pricing_plan_id":"free"},{"bike_id":"1a32cc70-36a3-43f4-8bd4-07206867ab84","system_id":"levelo_inurba_marseille","lat":43.294162,"lon":5.386292,"is_reserved":false,"is_disabled":false,"rental_uris":{"android":"levelo://app?vid=1a32cc70-36a3-43f4-8bd4-07206867ab84","ios":"levelo://app?vid=1a32cc70-36a3-43f4-8bd4-07206867ab84"},"vehicle_type_id":"4","last_reported":1692500805,"current_range_meters":23200,"station_id":"ce4bh2h2rcd13ifvqdh0","pricing_plan_id":"free"},{"bike_id":"ab3aa57e-4c49-4768-b838-0e2a7eea17b1","system_id":"levelo_inurba_marseille","lat":43.294153,"lon":5.386305,"is_reserved":false,"is_disabled":false,"rental_uris":{"android":"levelo://app?vid=ab3aa57e-4c49-4768-b838-0e2a7eea17b1","ios":"levelo://app?vid=ab3aa57e-4c49-4768-b838-0e2a7eea17b1"},"vehicle_type_id":"4","last_reported":1692500805,"current_range_meters":6000,"station_id":"ce4bh2h2rcd13ifvqdh0","pricing_plan_id":"free"},{"bike_id":"e6a461d3-0742-4768-9da8-fb9c817782d7","system_id":"levelo_inurba_marseille","lat":43.294162,"lon":5.386292,"is_reserved":false,"is_disabled":false,"rental_uris":{"android":"levelo://app?vid=e6a461d3-0742-4768-9da8-fb9c817782d7","ios":"levelo://app?vid=e6a461d3-0742-4768-9da8-fb9c817782d7"},"vehicle_type_id":"4","last_reported":1692500805,"current_range_meters":24800,"station_id":"ce4bh2h2rcd13ifvqdh0","pricing_plan_id":"free"},{"bike_id":"36994353-ccd8-4d3e-a5f7-f92f7196c9f3","system_id":"levelo_inurba_marseille","lat":43.29033,"lon":5.37575,"is_reserved":false,"is_disabled":false,"rental_uris":{"android":"levelo://app?vid=36994353-ccd8-4d3e-a5f7-f92f7196c9f3","ios":"levelo://app?vid=36994353-ccd8-4d3e-a5f7-f92f7196c9f3"},"vehicle_type_id":"4","last_reported":1692500805,"current_range_meters":9600,"station_id":"ce4bh692rcd13ifvqe90","pricing_plan_id":"free"},{"bike_id":"ef645e39-e665-4f8b-a8a8-61ded30edaf3","system_id":"levelo_inurba_marseille","lat":43.294162,"lon":5.386292,"is_reserved":false,"is_disabled":false,"rental_uris":{"android":"levelo://app?vid=ef645e39-e665-4f8b-a8a8-61ded30edaf3","ios":"levelo://app?vid=ef645e39-e665-4f8b-a8a8-61ded30edaf3"},"vehicle_type_id":"4","last_reported":1692500805,"current_range_meters":16000,"station_id":"ce4bh2h2rcd13ifvqdh0","pricing_plan_id":"free"},{"bike_id":"23d8207c-4c3d-40fa-b47f-4cbbd36b8e78","system_id":"levelo_inurba_marseille","lat":43.294162,"lon":5.386292,"is_reserved":false,"is_disabled":false,"rental_uris":{"android":"levelo://app?vid=23d8207c-4c3d-40fa-b47f-4cbbd36b8e78","ios":"levelo://app?vid=23d8207c-4c3d-40fa-b47f-4cbbd36b8e78"},"vehicle_type_id":"4","last_reported":1692500805,"current_range_meters":16400,"station_id":"ce4bh2h2rcd13ifvqdh0","pricing_plan_id":"free"},{"bike_id":"fc4c6eb9-f4ea-4966-89ab-4c07840a3b8d","system_id":"levelo_inurba_marseille","lat":43.294162,"lon":5.386292,"is_reserved":false,"is_disabled":false,"rental_uris":{"android":"levelo://app?vid=fc4c6eb9-f4ea-4966-89ab-4c07840a3b8d","ios":"levelo://app?vid=fc4c6eb9-f4ea-4966-89ab-4c07840a3b8d"},"vehicle_type_id":"4","last_reported":1692500805,"current_range_meters":31200,"station_id":"ce4bh2h2rcd13ifvqdh0","pricing_plan_id":"free"},{"bike_id":"f45b7903-9296-4502-8400-1364b94ee1ee","system_id":"levelo_inurba_marseille","lat":43.289468,"lon":5.363719,"is_reserved":false,"is_disabled":false,"rental_uris":{"android":"levelo://app?vid=f45b7903-9296-4502-8400-1364b94ee1ee","ios":"levelo://app?vid=f45b7903-9296-4502-8400-1364b94ee1ee"},"vehicle_type_id":"4","last_reported":1692500805,"current_range_meters":6400,"station_id":"ce4bhc92rcd13ifvqetg","pricing_plan_id":"free"},{"bike_id":"224b081d-1745-44ab-ae70-5db61c949f63","system_id":"levelo_inurba_marseille","lat":43.304296,"lon":5.397513,"is_reserved":false,"is_disabled":false,"rental_uris":{"android":"levelo://app?vid=224b081d-1745-44ab-ae70-5db61c949f63","ios":"levelo://app?vid=224b081d-1745-44ab-ae70-5db61c949f63"},"vehicle_type_id":"4","last_reported":1692500805,"current_range_meters":22400,"station_id":"ce4bh092rcd13ifvqd20","pricing_plan_id":"free"},{"bike_id":"01de731e-a9e2-4dc4-bd15-6eaeeb2d93ef","system_id":"levelo_inurba_marseille","lat":43.304274,"lon":5.397513,"is_reserved":false,"is_disabled":false,"rental_uris":{"android":"levelo://app?vid=01de731e-a9e2-4dc4-bd15-6eaeeb2d93ef","ios":"levelo://app?vid=01de731e-a9e2-4dc4-bd15-6eaeeb2d93ef"},"vehicle_type_id":"4","last_reported":1692500805,"current_range_meters":30800,"station_id":"ce4bh092rcd13ifvqd20","pricing_plan_id":"free"},{"bike_id":"8fecf605-5db9-45b8-aad5-8fa49046348a","system_id":"levelo_inurba_marseille","lat":43.304296,"lon":5.397513,"is_reserved":false,"is_disabled":false,"rental_uris":{"android":"levelo://app?vid=8fecf605-5db9-45b8-aad5-8fa49046348a","ios":"levelo://app?vid=8fecf605-5db9-45b8-aad5-8fa49046348a"},"vehicle_type_id":"4","last_reported":1692500805,"current_range_meters":28400,"station_id":"ce4bh092rcd13ifvqd20","pricing_plan_id":"free"},{"bike_id":"a506871c-63c8-4f68-bbd4-e4702c79a1f9","system_id":"levelo_inurba_marseille","lat":43.292644,"lon":5.384257,"is_reserved":false,"is_disabled":false,"rental_uris":{"android":"levelo://app?vid=a506871c-63c8-4f68-bbd4-e4702c79a1f9","ios":"levelo://app?vid=a506871c-63c8-4f68-bbd4-e4702c79a1f9"},"vehicle_type_id":"4","last_reported":1692500805,"current_range_meters":6400,"station_id":"ce4bh692rcd13ifvqea0","pricing_plan_id":"free"},{"bike_id":"79488ae4-4c0a-4f44-98f9-5b1857bb2c7e","system_id":"levelo_inurba_marseille","lat":43.304274,"lon":5.397513,"is_reserved":false,"is_disabled":false,"rental_uris":{"android":"levelo://app?vid=79488ae4-4c0a-4f44-98f9-5b1857bb2c7e","ios":"levelo://app?vid=79488ae4-4c0a-4f44-98f9-5b1857bb2c7e"},"vehicle_type_id":"4","last_reported":1692500805,"current_range_meters":31200,"station_id":"ce4bh092rcd13ifvqd20","pricing_plan_id":"free"},{"bike_id":"f2de89b7-a319-4365-84ea-2dc96ee8f79d","system_id":"levelo_inurba_marseille","lat":43.304296,"lon":5.397513,"is_reserved":false,"is_disabled":false,"rental_uris":{"android":"levelo://app?vid=f2de89b7-a319-4365-84ea-2dc96ee8f79d","ios":"levelo://app?vid=f2de89b7-a319-4365-84ea-2dc96ee8f79d"},"vehicle_type_id":"4","last_reported":1692500805,"current_range_meters":30400,"station_id":"ce4bh092rcd13ifvqd20","pricing_plan_id":"free"},{"bike_id":"d2b15eb2-4474-4e56-aace-fe335ab0092e","system_id":"levelo_inurba_marseille","lat":43.33038,"lon":5.38924,"is_reserved":false,"is_disabled":false,"rental_uris":{"android":"levelo://app?vid=d2b15eb2-4474-4e56-aace-fe335ab0092e","ios":"levelo://app?vid=d2b15eb2-4474-4e56-aace-fe335ab0092e"},"vehicle_type_id":"4","last_reported":1692500805,"current_range_meters":14000,"station_id":"ce4bhr92rcd13ifvqhrg","pricing_plan_id":"free"},{"bike_id":"a5d7998c-4c76-4390-bbcf-8c2a2abd7eba","system_id":"levelo_inurba_marseille","lat":43.3304,"lon":5.38923,"is_reserved":false,"is_disabled":false,"rental_uris":{"android":"levelo://app?vid=a5d7998c-4c76-4390-bbcf-8c2a2abd7eba","ios":"levelo://app?vid=a5d7998c-4c76-4390-bbcf-8c2a2abd7eba"},"vehicle_type_id":"4","last_reported":1692500805,"current_range_meters":30800,"station_id":"ce4bhr92rcd13ifvqhrg","pricing_plan_id":"free"},{"bike_id":"de450cac-4370-4660-9455-3e94463307a2","system_id":"levelo_inurba_marseille","lat":43.33039,"lon":5.38925,"is_reserved":false,"is_disabled":false,"rental_uris":{"android":"levelo://app?vid=de450cac-4370-4660-9455-3e94463307a2","ios":"levelo://app?vid=de450cac-4370-4660-9455-3e94463307a2"},"vehicle_type_id":"4","last_reported":1692500805,"current_range_meters":17200,"station_id":"ce4bhr92rcd13ifvqhrg","pricing_plan_id":"free"},{"bike_id":"c8619c93-5f6a-45f4-8e07-c81fcc1e21be","system_id":"levelo_inurba_marseille","lat":43.33044,"lon":5.38919,"is_reserved":false,"is_disabled":false,"rental_uris":{"android":"levelo://app?vid=c8619c93-5f6a-45f4-8e07-c81fcc1e21be","ios":"levelo://app?vid=c8619c93-5f6a-45f4-8e07-c81fcc1e21be"},"vehicle_type_id":"4","last_reported":1692500805,"current_range_meters":26800,"station_id":"ce4bhr92rcd13ifvqhrg","pricing_plan_id":"free"},{"bike_id":"86eac789-1e56-496d-abfa-705e29d378c7","system_id":"levelo_inurba_marseille","lat":43.33043,"lon":5.38921,"is_reserved":false,"is_disabled":false,"rental_uris":{"android":"levelo://app?vid=86eac789-1e56-496d-abfa-705e29d378c7","ios":"levelo://app?vid=86eac789-1e56-496d-abfa-705e29d378c7"},"vehicle_type_id":"4","last_reported":1692500805,"current_range_meters":29200,"station_id":"ce4bhr92rcd13ifvqhrg","pricing_plan_id":"free"},{"bike_id":"3b3e7c42-cded-4bde-b175-99650afa4f17","system_id":"levelo_inurba_marseille","lat":43.33046,"lon":5.38918,"is_reserved":false,"is_disabled":false,"rental_uris":{"android":"levelo://app?vid=3b3e7c42-cded-4bde-b175-99650afa4f17","ios":"levelo://app?vid=3b3e7c42-cded-4bde-b175-99650afa4f17"},"vehicle_type_id":"4","last_reported":1692500805,"current_range_meters":23600,"station_id":"ce4bhr92rcd13ifvqhrg","pricing_plan_id":"free"},{"bike_id":"70576a93-fbdb-4696-908e-c08c0f1995f8","system_id":"levelo_inurba_marseille","lat":43.33046,"lon":5.3892,"is_reserved":false,"is_disabled":false,"rental_uris":{"android":"levelo://app?vid=70576a93-fbdb-4696-908e-c08c0f1995f8","ios":"levelo://app?vid=70576a93-fbdb-4696-908e-c08c0f1995f8"},"vehicle_type_id":"4","last_reported":1692500805,"current_range_meters":25200,"station_id":"ce4bhr92rcd13ifvqhrg","pricing_plan_id":"free"},{"bike_id":"9ec93851-2c12-4e8a-b52c-89084ec976ac","system_id":"levelo_inurba_marseille","lat":43.33046,"lon":5.3892,"is_reserved":false,"is_disabled":false,"rental_uris":{"android":"levelo://app?vid=9ec93851-2c12-4e8a-b52c-89084ec976ac","ios":"levelo://app?vid=9ec93851-2c12-4e8a-b52c-89084ec976ac"},"vehicle_type_id":"4","last_reported":1692500805,"current_range_meters":1600,"station_id":"ce4bhr92rcd13ifvqhrg","pricing_plan_id":"free"},{"bike_id":"9e24a65c-fe1e-45dc-88b9-dd0cad85064c","system_id":"levelo_inurba_marseille","lat":43.33047,"lon":5.38919,"is_reserved":false,"is_disabled":false,"rental_uris":{"android":"levelo://app?vid=9e24a65c-fe1e-45dc-88b9-dd0cad85064c","ios":"levelo://app?vid=9e24a65c-fe1e-45dc-88b9-dd0cad85064c"},"vehicle_type_id":"4","last_reported":1692500805,"current_range_meters":28800,"station_id":"ce4bhr92rcd13ifvqhrg","pricing_plan_id":"free"},{"bike_id":"4acef044-58d4-4046-9f8b-3557af517e74","system_id":"levelo_inurba_marseille","lat":43.33045,"lon":5.38923,"is_reserved":false,"is_disabled":false,"rental_uris":{"android":"levelo://app?vid=4acef044-58d4-4046-9f8b-3557af517e74","ios":"levelo://app?vid=4acef044-58d4-4046-9f8b-3557af517e74"},"vehicle_type_id":"4","last_reported":1692500805,"current_range_meters":12000,"station_id":"ce4bhr92rcd13ifvqhrg","pricing_plan_id":"free"},{"bike_id":"024f4d94-1555-4991-925c-5e7448051bbb","system_id":"levelo_inurba_marseille","lat":43.33046,"lon":5.38922,"is_reserved":false,"is_disabled":false,"rental_uris":{"android":"levelo://app?vid=024f4d94-1555-4991-925c-5e7448051bbb","ios":"levelo://app?vid=024f4d94-1555-4991-925c-5e7448051bbb"},"vehicle_type_id":"4","last_reported":1692500805,"current_range_meters":28000,"station_id":"ce4bhr92rcd13ifvqhrg","pricing_plan_id":"free"},{"bike_id":"5c8c244a-8618-42d9-abf2-521b07f6577d","system_id":"levelo_inurba_marseille","lat":43.33044,"lon":5.38925,"is_reserved":false,"is_disabled":false,"rental_uris":{"android":"levelo://app?vid=5c8c244a-8618-42d9-abf2-521b07f6577d","ios":"levelo://app?vid=5c8c244a-8618-42d9-abf2-521b07f6577d"},"vehicle_type_id":"4","last_reported":1692500805,"current_range_meters":26800,"station_id":"ce4bhr92rcd13ifvqhrg","pricing_plan_id":"free"},{"bike_id":"eb950724-6c95-4fb2-915f-35b08a8cfd23","system_id":"levelo_inurba_marseille","lat":43.33048,"lon":5.38919,"is_reserved":false,"is_disabled":false,"rental_uris":{"android":"levelo://app?vid=eb950724-6c95-4fb2-915f-35b08a8cfd23","ios":"levelo://app?vid=eb950724-6c95-4fb2-915f-35b08a8cfd23"},"vehicle_type_id":"4","last_reported":1692500805,"current_range_meters":18800,"station_id":"ce4bhr92rcd13ifvqhrg","pricing_plan_id":"free"},{"bike_id":"86535332-25ae-4735-984f-2b7a7387a6af","system_id":"levelo_inurba_marseille","lat":43.33046,"lon":5.38923,"is_reserved":false,"is_disabled":false,"rental_uris":{"android":"levelo://app?vid=86535332-25ae-4735-984f-2b7a7387a6af","ios":"levelo://app?vid=86535332-25ae-4735-984f-2b7a7387a6af"},"vehicle_type_id":"4","last_reported":1692500805,"current_range_meters":29600,"station_id":"ce4bhr92rcd13ifvqhrg","pricing_plan_id":"free"},{"bike_id":"52662068-d06a-40c1-bfee-ce6664dc3a83","system_id":"levelo_inurba_marseille","lat":43.33048,"lon":5.3892,"is_reserved":false,"is_disabled":false,"rental_uris":{"android":"levelo://app?vid=52662068-d06a-40c1-bfee-ce6664dc3a83","ios":"levelo://app?vid=52662068-d06a-40c1-bfee-ce6664dc3a83"},"vehicle_type_id":"4","last_reported":1692500805,"current_range_meters":2800,"station_id":"ce4bhr92rcd13ifvqhrg","pricing_plan_id":"free"},{"bike_id":"331b6e0a-8cfc-4305-9eef-0266cde03da7","system_id":"levelo_inurba_marseille","lat":43.33042,"lon":5.38929,"is_reserved":false,"is_disabled":false,"rental_uris":{"android":"levelo://app?vid=331b6e0a-8cfc-4305-9eef-0266cde03da7","ios":"levelo://app?vid=331b6e0a-8cfc-4305-9eef-0266cde03da7"},"vehicle_type_id":"4","last_reported":1692500805,"current_range_meters":15200,"station_id":"ce4bhr92rcd13ifvqhrg","pricing_plan_id":"free"},{"bike_id":"708f7f21-b221-4c14-94b6-b5d8e3289350","system_id":"levelo_inurba_marseille","lat":43.33046,"lon":5.38925,"is_reserved":false,"is_disabled":false,"rental_uris":{"android":"levelo://app?vid=708f7f21-b221-4c14-94b6-b5d8e3289350","ios":"levelo://app?vid=708f7f21-b221-4c14-94b6-b5d8e3289350"},"vehicle_type_id":"4","last_reported":1692500805,"current_range_meters":20400,"station_id":"ce4bhr92rcd13ifvqhrg","pricing_plan_id":"free"},{"bike_id":"5036c72a-6252-47f4-a9fb-50fd514d506a","system_id":"levelo_inurba_marseille","lat":43.33045,"lon":5.38927,"is_reserved":false,"is_disabled":false,"rental_uris":{"android":"levelo://app?vid=5036c72a-6252-47f4-a9fb-50fd514d506a","ios":"levelo://app?vid=5036c72a-6252-47f4-a9fb-50fd514d506a"},"vehicle_type_id":"4","last_reported":1692500805,"current_range_meters":22000,"station_id":"ce4bhr92rcd13ifvqhrg","pricing_plan_id":"free"},{"bike_id":"7d19a255-9f7a-4d0e-beba-2bfebb3c7b5e","system_id":"levelo_inurba_marseille","lat":43.3305,"lon":5.3892,"is_reserved":false,"is_disabled":false,"rental_uris":{"android":"levelo://app?vid=7d19a255-9f7a-4d0e-beba-2bfebb3c7b5e","ios":"levelo://app?vid=7d19a255-9f7a-4d0e-beba-2bfebb3c7b5e"},"vehicle_type_id":"4","last_reported":1692500805,"current_range_meters":21600,"station_id":"ce4bhr92rcd13ifvqhrg","pricing_plan_id":"free"},{"bike_id":"16105e4d-cb4a-4aae-91bb-2ecd41a7406b","system_id":"levelo_inurba_marseille","lat":43.33045,"lon":5.38928,"is_reserved":false,"is_disabled":false,"rental_uris":{"android":"levelo://app?vid=16105e4d-cb4a-4aae-91bb-2ecd41a7406b","ios":"levelo://app?vid=16105e4d-cb4a-4aae-91bb-2ecd41a7406b"},"vehicle_type_id":"4","last_reported":1692500805,"current_range_meters":22000,"station_id":"ce4bhr92rcd13ifvqhrg","pricing_plan_id":"free"},{"bike_id":"869bf6d1-0465-4382-b1f6-b0afc8d8f7a2","system_id":"levelo_inurba_marseille","lat":43.290995,"lon":5.381361,"is_reserved":false,"is_disabled":false,"rental_uris":{"android":"levelo://app?vid=869bf6d1-0465-4382-b1f6-b0afc8d8f7a2","ios":"levelo://app?vid=869bf6d1-0465-4382-b1f6-b0afc8d8f7a2"},"vehicle_type_id":"4","last_reported":1692500805,"current_range_meters":8800,"station_id":"ce4bh512rcd13ifvqe2g","pricing_plan_id":"free"},{"bike_id":"7fb9add6-ad5f-46e9-9edf-59decb5fc8e3","system_id":"levelo_inurba_marseille","lat":43.297815,"lon":5.393548,"is_reserved":false,"is_disabled":false,"rental_uris":{"android":"levelo://app?vid=7fb9add6-ad5f-46e9-9edf-59decb5fc8e3","ios":"levelo://app?vid=7fb9add6-ad5f-46e9-9edf-59decb5fc8e3"},"vehicle_type_id":"4","last_reported":1692500805,"current_range_meters":14400,"station_id":"chh1huq6cuj3fo74tm60","pricing_plan_id":"free"},{"bike_id":"078f5a2f-f4cd-4a87-9a48-b04c1caccf80","system_id":"levelo_inurba_marseille","lat":43.295169,"lon":5.390426,"is_reserved":false,"is_disabled":false,"rental_uris":{"android":"levelo://app?vid=078f5a2f-f4cd-4a87-9a48-b04c1caccf80","ios":"levelo://app?vid=078f5a2f-f4cd-4a87-9a48-b04c1caccf80"},"vehicle_type_id":"4","last_reported":1692500805,"current_range_meters":4800,"station_id":"ce4bh3p2rcd13ifvqdp0","pricing_plan_id":"free"},{"bike_id":"db19ca18-b11a-4bf4-9e4a-c786cb448dbc","system_id":"levelo_inurba_marseille","lat":43.295169,"lon":5.390426,"is_reserved":false,"is_disabled":false,"rental_uris":{"android":"levelo://app?vid=db19ca18-b11a-4bf4-9e4a-c786cb448dbc","ios":"levelo://app?vid=db19ca18-b11a-4bf4-9e4a-c786cb448dbc"},"vehicle_type_id":"4","last_reported":1692500805,"current_range_meters":23600,"station_id":"ce4bh3p2rcd13ifvqdp0","pricing_plan_id":"free"},{"bike_id":"17c360a3-e983-4fbc-a826-ad337845f2e2","system_id":"levelo_inurba_marseille","lat":43.295169,"lon":5.390426,"is_reserved":false,"is_disabled":false,"rental_uris":{"android":"levelo://app?vid=17c360a3-e983-4fbc-a826-ad337845f2e2","ios":"levelo://app?vid=17c360a3-e983-4fbc-a826-ad337845f2e2"},"vehicle_type_id":"4","last_reported":1692500805,"current_range_meters":22800,"station_id":"ce4bh3p2rcd13ifvqdp0","pricing_plan_id":"free"},{"bike_id":"f2aab0b5-2c19-4d7f-a2da-a92af13b8444","system_id":"levelo_inurba_marseille","lat":43.295169,"lon":5.390426,"is_reserved":false,"is_disabled":false,"rental_uris":{"android":"levelo://app?vid=f2aab0b5-2c19-4d7f-a2da-a92af13b8444","ios":"levelo://app?vid=f2aab0b5-2c19-4d7f-a2da-a92af13b8444"},"vehicle_type_id":"4","last_reported":1692500805,"current_range_meters":26800,"station_id":"ce4bh3p2rcd13ifvqdp0","pricing_plan_id":"free"},{"bike_id":"c8777180-c492-4948-8bd8-577db87b4cc8","system_id":"levelo_inurba_marseille","lat":43.295169,"lon":5.390426,"is_reserved":false,"is_disabled":false,"rental_uris":{"android":"levelo://app?vid=c8777180-c492-4948-8bd8-577db87b4cc8","ios":"levelo://app?vid=c8777180-c492-4948-8bd8-577db87b4cc8"},"vehicle_type_id":"4","last_reported":1692500805,"current_range_meters":31200,"station_id":"ce4bh3p2rcd13ifvqdp0","pricing_plan_id":"free"},{"bike_id":"7d5cd0ac-df93-451b-bca1-cc12cc71a006","system_id":"levelo_inurba_marseille","lat":43.290104,"lon":5.356111,"is_reserved":false,"is_disabled":false,"rental_uris":{"android":"levelo://app?vid=7d5cd0ac-df93-451b-bca1-cc12cc71a006","ios":"levelo://app?vid=7d5cd0ac-df93-451b-bca1-cc12cc71a006"},"vehicle_type_id":"4","last_reported":1692500805,"current_range_meters":4800,"station_id":"ce4bhb92rcd13ifvqen0","pricing_plan_id":"free"},{"bike_id":"732ec777-ed83-4bff-9abb-09bf728eba20","system_id":"levelo_inurba_marseille","lat":43.28856,"lon":5.358371,"is_reserved":false,"is_disabled":false,"rental_uris":{"android":"levelo://app?vid=732ec777-ed83-4bff-9abb-09bf728eba20","ios":"levelo://app?vid=732ec777-ed83-4bff-9abb-09bf728eba20"},"vehicle_type_id":"4","last_reported":1692500805,"current_range_meters":30400,"station_id":"ce4bhb12rcd13ifvqem0","pricing_plan_id":"free"},{"bike_id":"28721099-8cd9-4231-abc5-4f7d6fc4c8ea","system_id":"levelo_inurba_marseille","lat":43.28856,"lon":5.358371,"is_reserved":false,"is_disabled":false,"rental_uris":{"android":"levelo://app?vid=28721099-8cd9-4231-abc5-4f7d6fc4c8ea","ios":"levelo://app?vid=28721099-8cd9-4231-abc5-4f7d6fc4c8ea"},"vehicle_type_id":"4","last_reported":1692500805,"current_range_meters":0,"station_id":"ce4bhb12rcd13ifvqem0","pricing_plan_id":"free"},{"bike_id":"0d48d8dc-c1e3-44c9-83db-4ae454dfd464","system_id":"levelo_inurba_marseille","lat":43.309371,"lon":5.401449,"is_reserved":false,"is_disabled":false,"rental_uris":{"android":"levelo://app?vid=0d48d8dc-c1e3-44c9-83db-4ae454dfd464","ios":"levelo://app?vid=0d48d8dc-c1e3-44c9-83db-4ae454dfd464"},"vehicle_type_id":"4","last_reported":1692500805,"current_range_meters":30000,"station_id":"ce4bgvp2rcd13ifvqct0","pricing_plan_id":"free"},{"bike_id":"23d3aede-3791-4940-93c7-e4244dfad9e9","system_id":"levelo_inurba_marseille","lat":43.312609,"lon":5.401662,"is_reserved":false,"is_disabled":false,"rental_uris":{"android":"levelo://app?vid=23d3aede-3791-4940-93c7-e4244dfad9e9","ios":"levelo://app?vid=23d3aede-3791-4940-93c7-e4244dfad9e9"},"vehicle_type_id":"4","last_reported":1692500805,"current_range_meters":14800,"station_id":"ce4bh092rcd13ifvqd30","pricing_plan_id":"free"},{"bike_id":"a39594cb-feef-4e88-b68a-b6ca976c5339","system_id":"levelo_inurba_marseille","lat":43.312609,"lon":5.401662,"is_reserved":false,"is_disabled":false,"rental_uris":{"android":"levelo://app?vid=a39594cb-feef-4e88-b68a-b6ca976c5339","ios":"levelo://app?vid=a39594cb-feef-4e88-b68a-b6ca976c5339"},"vehicle_type_id":"4","last_reported":1692500805,"current_range_meters":31200,"station_id":"ce4bh092rcd13ifvqd30","pricing_plan_id":"free"},{"bike_id":"fdba5af8-2355-4f92-b9b1-7abebb728036","system_id":"levelo_inurba_marseille","lat":43.30932,"lon":5.40138,"is_reserved":false,"is_disabled":false,"rental_uris":{"android":"levelo://app?vid=fdba5af8-2355-4f92-b9b1-7abebb728036","ios":"levelo://app?vid=fdba5af8-2355-4f92-b9b1-7abebb728036"},"vehicle_type_id":"4","last_reported":1692500805,"current_range_meters":31200,"station_id":"ce4bgvp2rcd13ifvqct0","pricing_plan_id":"free"},{"bike_id":"f73fbd3c-1819-46cd-85b9-75a990ede307","system_id":"levelo_inurba_marseille","lat":43.30929,"lon":5.40138,"is_reserved":false,"is_disabled":false,"rental_uris":{"android":"levelo://app?vid=f73fbd3c-1819-46cd-85b9-75a990ede307","ios":"levelo://app?vid=f73fbd3c-1819-46cd-85b9-75a990ede307"},"vehicle_type_id":"4","last_reported":1692500805,"current_range_meters":28800,"station_id":"ce4bgvp2rcd13ifvqct0","pricing_plan_id":"free"},{"bike_id":"38cd9f63-a18d-4f06-91c5-b8e14018bad3","system_id":"levelo_inurba_marseille","lat":43.30929,"lon":5.40139,"is_reserved":false,"is_disabled":false,"rental_uris":{"android":"levelo://app?vid=38cd9f63-a18d-4f06-91c5-b8e14018bad3","ios":"levelo://app?vid=38cd9f63-a18d-4f06-91c5-b8e14018bad3"},"vehicle_type_id":"4","last_reported":1692500805,"current_range_meters":31200,"station_id":"ce4bgvp2rcd13ifvqct0","pricing_plan_id":"free"},{"bike_id":"5b62ba76-0add-43f3-8335-64521d878b13","system_id":"levelo_inurba_marseille","lat":43.312609,"lon":5.401662,"is_reserved":false,"is_disabled":false,"rental_uris":{"android":"levelo://app?vid=5b62ba76-0add-43f3-8335-64521d878b13","ios":"levelo://app?vid=5b62ba76-0add-43f3-8335-64521d878b13"},"vehicle_type_id":"4","last_reported":1692500805,"current_range_meters":31200,"station_id":"ce4bh092rcd13ifvqd30","pricing_plan_id":"free"},{"bike_id":"d6e3a149-f0d1-4d77-ab28-8ba4a21441dd","system_id":"levelo_inurba_marseille","lat":43.31285,"lon":5.40173,"is_reserved":false,"is_disabled":false,"rental_uris":{"android":"levelo://app?vid=d6e3a149-f0d1-4d77-ab28-8ba4a21441dd","ios":"levelo://app?vid=d6e3a149-f0d1-4d77-ab28-8ba4a21441dd"},"vehicle_type_id":"4","last_reported":1692500805,"current_range_meters":31200,"station_id":"ce4bh092rcd13ifvqd30","pricing_plan_id":"free"},{"bike_id":"2526366a-0519-4ef9-b097-307ddc011284","system_id":"levelo_inurba_marseille","lat":43.30932,"lon":5.40142,"is_reserved":false,"is_disabled":false,"rental_uris":{"android":"levelo://app?vid=2526366a-0519-4ef9-b097-307ddc011284","ios":"levelo://app?vid=2526366a-0519-4ef9-b097-307ddc011284"},"vehicle_type_id":"4","last_reported":1692500805,"current_range_meters":22800,"station_id":"ce4bgvp2rcd13ifvqct0","pricing_plan_id":"free"},{"bike_id":"c1c8578f-ac9f-4831-b2d5-21fee37bf7ef","system_id":"levelo_inurba_marseille","lat":43.30925,"lon":5.40141,"is_reserved":false,"is_disabled":false,"rental_uris":{"android":"levelo://app?vid=c1c8578f-ac9f-4831-b2d5-21fee37bf7ef","ios":"levelo://app?vid=c1c8578f-ac9f-4831-b2d5-21fee37bf7ef"},"vehicle_type_id":"4","last_reported":1692500805,"current_range_meters":31200,"station_id":"ce4bgvp2rcd13ifvqct0","pricing_plan_id":"free"},{"bike_id":"f17bc3d6-051b-476c-92d5-5d184d44700b","system_id":"levelo_inurba_marseille","lat":43.312755,"lon":5.401745,"is_reserved":false,"is_disabled":false,"rental_uris":{"android":"levelo://app?vid=f17bc3d6-051b-476c-92d5-5d184d44700b","ios":"levelo://app?vid=f17bc3d6-051b-476c-92d5-5d184d44700b"},"vehicle_type_id":"4","last_reported":1692500805,"current_range_meters":29200,"station_id":"","pricing_plan_id":"free"},{"bike_id":"97ea8b00-f737-476f-a8b5-f24b717c5780","system_id":"levelo_inurba_marseille","lat":43.30929,"lon":5.40143,"is_reserved":false,"is_disabled":false,"rental_uris":{"android":"levelo://app?vid=97ea8b00-f737-476f-a8b5-f24b717c5780","ios":"levelo://app?vid=97ea8b00-f737-476f-a8b5-f24b717c5780"},"vehicle_type_id":"4","last_reported":1692500805,"current_range_meters":31200,"station_id":"ce4bgvp2rcd13ifvqct0","pricing_plan_id":"free"},{"bike_id":"ebea3e90-b4a3-4a58-9d43-4dfbd0e962f3","system_id":"levelo_inurba_marseille","lat":43.337457,"lon":5.374633,"is_reserved":false,"is_disabled":false,"rental_uris":{"android":"levelo://app?vid=ebea3e90-b4a3-4a58-9d43-4dfbd0e962f3","ios":"levelo://app?vid=ebea3e90-b4a3-4a58-9d43-4dfbd0e962f3"},"vehicle_type_id":"4","last_reported":1692500805,"current_range_meters":29200,"station_id":"","pricing_plan_id":"free"},{"bike_id":"f329f103-9ace-43b1-a9cc-69644cb1db4c","system_id":"levelo_inurba_marseille","lat":43.30657,"lon":5.40071,"is_reserved":false,"is_disabled":false,"rental_uris":{"android":"levelo://app?vid=f329f103-9ace-43b1-a9cc-69644cb1db4c","ios":"levelo://app?vid=f329f103-9ace-43b1-a9cc-69644cb1db4c"},"vehicle_type_id":"4","last_reported":1692500805,"current_range_meters":31200,"station_id":"ce4bh112rcd13ifvqda0","pricing_plan_id":"free"},{"bike_id":"e637f043-d336-4bbe-b946-80f2461afea8","system_id":"levelo_inurba_marseille","lat":43.31283,"lon":5.40176,"is_reserved":false,"is_disabled":false,"rental_uris":{"android":"levelo://app?vid=e637f043-d336-4bbe-b946-80f2461afea8","ios":"levelo://app?vid=e637f043-d336-4bbe-b946-80f2461afea8"},"vehicle_type_id":"4","last_reported":1692500805,"current_range_meters":20400,"station_id":"ce4bh092rcd13ifvqd30","pricing_plan_id":"free"},{"bike_id":"694bfc51-811f-4687-b63f-20e7fdf1165d","system_id":"levelo_inurba_marseille","lat":43.3093,"lon":5.40144,"is_reserved":false,"is_disabled":false,"rental_uris":{"android":"levelo://app?vid=694bfc51-811f-4687-b63f-20e7fdf1165d","ios":"levelo://app?vid=694bfc51-811f-4687-b63f-20e7fdf1165d"},"vehicle_type_id":"4","last_reported":1692500805,"current_range_meters":15600,"station_id":"ce4bgvp2rcd13ifvqct0","pricing_plan_id":"free"},{"bike_id":"ec7d02e7-b2c5-4a0b-be07-8fa83483d049","system_id":"levelo_inurba_marseille","lat":43.30928,"lon":5.40149,"is_reserved":false,"is_disabled":false,"rental_uris":{"android":"levelo://app?vid=ec7d02e7-b2c5-4a0b-be07-8fa83483d049","ios":"levelo://app?vid=ec7d02e7-b2c5-4a0b-be07-8fa83483d049"},"vehicle_type_id":"4","last_reported":1692500805,"current_range_meters":19200,"station_id":"ce4bgvp2rcd13ifvqct0","pricing_plan_id":"free"},{"bike_id":"1f8f5944-99a4-45ec-9dab-5e54412fb947","system_id":"levelo_inurba_marseille","lat":43.30941,"lon":5.40153,"is_reserved":false,"is_disabled":false,"rental_uris":{"android":"levelo://app?vid=1f8f5944-99a4-45ec-9dab-5e54412fb947","ios":"levelo://app?vid=1f8f5944-99a4-45ec-9dab-5e54412fb947"},"vehicle_type_id":"4","last_reported":1692500805,"current_range_meters":5200,"station_id":"ce4bgvp2rcd13ifvqct0","pricing_plan_id":"free"},{"bike_id":"984eee33-f15a-4551-bd89-18c4cb14d00d","system_id":"levelo_inurba_marseille","lat":43.30661,"lon":5.40082,"is_reserved":false,"is_disabled":false,"rental_uris":{"android":"levelo://app?vid=984eee33-f15a-4551-bd89-18c4cb14d00d","ios":"levelo://app?vid=984eee33-f15a-4551-bd89-18c4cb14d00d"},"vehicle_type_id":"4","last_reported":1692500805,"current_range_meters":28800,"station_id":"ce4bh112rcd13ifvqda0","pricing_plan_id":"free"},{"bike_id":"4b820775-cd2d-4cfc-add9-6e9466f8f65a","system_id":"levelo_inurba_marseille","lat":43.3129,"lon":5.40189,"is_reserved":false,"is_disabled":false,"rental_uris":{"android":"levelo://app?vid=4b820775-cd2d-4cfc-add9-6e9466f8f65a","ios":"levelo://app?vid=4b820775-cd2d-4cfc-add9-6e9466f8f65a"},"vehicle_type_id":"4","last_reported":1692500805,"current_range_meters":14000,"station_id":"ce4bh092rcd13ifvqd30","pricing_plan_id":"free"},{"bike_id":"e999f68b-d5f0-4aa3-b82e-da9302a3e7fc","system_id":"levelo_inurba_marseille","lat":43.30936,"lon":5.4016,"is_reserved":false,"is_disabled":false,"rental_uris":{"android":"levelo://app?vid=e999f68b-d5f0-4aa3-b82e-da9302a3e7fc","ios":"levelo://app?vid=e999f68b-d5f0-4aa3-b82e-da9302a3e7fc"},"vehicle_type_id":"4","last_reported":1692500805,"current_range_meters":28400,"station_id":"ce4bgvp2rcd13ifvqct0","pricing_plan_id":"free"},{"bike_id":"118472c4-e69c-4b1b-aaf1-b866c7e2040b","system_id":"levelo_inurba_marseille","lat":43.309371,"lon":5.401449,"is_reserved":false,"is_disabled":false,"rental_uris":{"android":"levelo://app?vid=118472c4-e69c-4b1b-aaf1-b866c7e2040b","ios":"levelo://app?vid=118472c4-e69c-4b1b-aaf1-b866c7e2040b"},"vehicle_type_id":"4","last_reported":1692500805,"current_range_meters":31200,"station_id":"ce4bgvp2rcd13ifvqct0","pricing_plan_id":"free"},{"bike_id":"1c5b92ae-a0e0-45fe-92b7-d278417b2cfe","system_id":"levelo_inurba_marseille","lat":43.301117,"lon":5.398795,"is_reserved":false,"is_disabled":false,"rental_uris":{"android":"levelo://app?vid=1c5b92ae-a0e0-45fe-92b7-d278417b2cfe","ios":"levelo://app?vid=1c5b92ae-a0e0-45fe-92b7-d278417b2cfe"},"vehicle_type_id":"4","last_reported":1692500805,"current_range_meters":18800,"station_id":"ce4bh0h2rcd13ifvqd40","pricing_plan_id":"free"},{"bike_id":"2ce365fd-2fb9-47ef-9dcc-7c7d9b9207d9","system_id":"levelo_inurba_marseille","lat":43.298681,"lon":5.397225,"is_reserved":false,"is_disabled":false,"rental_uris":{"android":"levelo://app?vid=2ce365fd-2fb9-47ef-9dcc-7c7d9b9207d9","ios":"levelo://app?vid=2ce365fd-2fb9-47ef-9dcc-7c7d9b9207d9"},"vehicle_type_id":"4","last_reported":1692500805,"current_range_meters":31200,"station_id":"ce4bh0h2rcd13ifvqd50","pricing_plan_id":"free"},{"bike_id":"fa251b9f-22d3-48f0-b91b-8fa252123e59","system_id":"levelo_inurba_marseille","lat":43.298681,"lon":5.397225,"is_reserved":false,"is_disabled":false,"rental_uris":{"android":"levelo://app?vid=fa251b9f-22d3-48f0-b91b-8fa252123e59","ios":"levelo://app?vid=fa251b9f-22d3-48f0-b91b-8fa252123e59"},"vehicle_type_id":"4","last_reported":1692500805,"current_range_meters":28800,"station_id":"ce4bh0h2rcd13ifvqd50","pricing_plan_id":"free"},{"bike_id":"23542ef4-3ab2-45de-b0be-af3f2110fe9d","system_id":"levelo_inurba_marseille","lat":43.304188,"lon":5.412904,"is_reserved":false,"is_disabled":false,"rental_uris":{"android":"levelo://app?vid=23542ef4-3ab2-45de-b0be-af3f2110fe9d","ios":"levelo://app?vid=23542ef4-3ab2-45de-b0be-af3f2110fe9d"},"vehicle_type_id":"4","last_reported":1692500805,"current_range_meters":27200,"station_id":"ce4bhop2rcd13ifvqh8g","pricing_plan_id":"free"},{"bike_id":"b4c9e65f-e44a-48c0-ad13-34c92d3c2204","system_id":"levelo_inurba_marseille","lat":43.298681,"lon":5.397225,"is_reserved":false,"is_disabled":false,"rental_uris":{"android":"levelo://app?vid=b4c9e65f-e44a-48c0-ad13-34c92d3c2204","ios":"levelo://app?vid=b4c9e65f-e44a-48c0-ad13-34c92d3c2204"},"vehicle_type_id":"4","last_reported":1692500805,"current_range_meters":29200,"station_id":"ce4bh0h2rcd13ifvqd50","pricing_plan_id":"free"},{"bike_id":"75199276-b705-4ad7-b6a9-49aeaa84628a","system_id":"levelo_inurba_marseille","lat":43.286591,"lon":5.363346,"is_reserved":false,"is_disabled":false,"rental_uris":{"android":"levelo://app?vid=75199276-b705-4ad7-b6a9-49aeaa84628a","ios":"levelo://app?vid=75199276-b705-4ad7-b6a9-49aeaa84628a"},"vehicle_type_id":"4","last_reported":1692500805,"current_range_meters":30400,"station_id":"ce4bhah2rcd13ifvqej0","pricing_plan_id":"free"},{"bike_id":"0783266f-2cb6-4d0d-81e6-3b07153c953e","system_id":"levelo_inurba_marseille","lat":43.298681,"lon":5.397225,"is_reserved":false,"is_disabled":false,"rental_uris":{"android":"levelo://app?vid=0783266f-2cb6-4d0d-81e6-3b07153c953e","ios":"levelo://app?vid=0783266f-2cb6-4d0d-81e6-3b07153c953e"},"vehicle_type_id":"4","last_reported":1692500805,"current_range_meters":29200,"station_id":"ce4bh0h2rcd13ifvqd50","pricing_plan_id":"free"},{"bike_id":"25b3e2d2-ac3e-48ca-8f6e-1a8c916a574e","system_id":"levelo_inurba_marseille","lat":43.295196,"lon":5.39397,"is_reserved":false,"is_disabled":false,"rental_uris":{"android":"levelo://app?vid=25b3e2d2-ac3e-48ca-8f6e-1a8c916a574e","ios":"levelo://app?vid=25b3e2d2-ac3e-48ca-8f6e-1a8c916a574e"},"vehicle_type_id":"4","last_reported":1692500805,"current_range_meters":28800,"station_id":"ce4bh292rcd13ifvqdf0","pricing_plan_id":"free"},{"bike_id":"c74c6718-c75b-4a0d-8fa2-8ee95d11ade6","system_id":"levelo_inurba_marseille","lat":43.295194,"lon":5.39397,"is_reserved":false,"is_disabled":false,"rental_uris":{"android":"levelo://app?vid=c74c6718-c75b-4a0d-8fa2-8ee95d11ade6","ios":"levelo://app?vid=c74c6718-c75b-4a0d-8fa2-8ee95d11ade6"},"vehicle_type_id":"4","last_reported":1692500805,"current_range_meters":3600,"station_id":"ce4bh292rcd13ifvqdf0","pricing_plan_id":"free"},{"bike_id":"02076c38-02f2-454a-a923-24f3ba4cf21a","system_id":"levelo_inurba_marseille","lat":43.302759,"lon":5.400793,"is_reserved":false,"is_disabled":false,"rental_uris":{"android":"levelo://app?vid=02076c38-02f2-454a-a923-24f3ba4cf21a","ios":"levelo://app?vid=02076c38-02f2-454a-a923-24f3ba4cf21a"},"vehicle_type_id":"4","last_reported":1692500805,"current_range_meters":31200,"station_id":"ce4bgvh2rcd13ifvqcs0","pricing_plan_id":"free"},{"bike_id":"eb3fc6b8-2474-42cd-9d65-b60e4e448723","system_id":"levelo_inurba_marseille","lat":43.290336,"lon":5.386425,"is_reserved":false,"is_disabled":false,"rental_uris":{"android":"levelo://app?vid=eb3fc6b8-2474-42cd-9d65-b60e4e448723","ios":"levelo://app?vid=eb3fc6b8-2474-42cd-9d65-b60e4e448723"},"vehicle_type_id":"4","last_reported":1692500805,"current_range_meters":26000,"station_id":"ce4bh4p2rcd13ifvqe0g","pricing_plan_id":"free"},{"bike_id":"f33cf668-2b4f-400b-b15b-10c10dc74be5","system_id":"levelo_inurba_marseille","lat":43.302759,"lon":5.400793,"is_reserved":false,"is_disabled":false,"rental_uris":{"android":"levelo://app?vid=f33cf668-2b4f-400b-b15b-10c10dc74be5","ios":"levelo://app?vid=f33cf668-2b4f-400b-b15b-10c10dc74be5"},"vehicle_type_id":"4","last_reported":1692500805,"current_range_meters":30800,"station_id":"ce4bgvh2rcd13ifvqcs0","pricing_plan_id":"free"},{"bike_id":"fcb7be7f-c05e-4cbf-9fff-867a40073dad","system_id":"levelo_inurba_marseille","lat":43.290336,"lon":5.386425,"is_reserved":false,"is_disabled":false,"rental_uris":{"android":"levelo://app?vid=fcb7be7f-c05e-4cbf-9fff-867a40073dad","ios":"levelo://app?vid=fcb7be7f-c05e-4cbf-9fff-867a40073dad"},"vehicle_type_id":"4","last_reported":1692500805,"current_range_meters":3200,"station_id":"ce4bh4p2rcd13ifvqe0g","pricing_plan_id":"free"},{"bike_id":"4ae00035-f661-4343-8548-c6a621612092","system_id":"levelo_inurba_marseille","lat":43.302759,"lon":5.400793,"is_reserved":false,"is_disabled":false,"rental_uris":{"android":"levelo://app?vid=4ae00035-f661-4343-8548-c6a621612092","ios":"levelo://app?vid=4ae00035-f661-4343-8548-c6a621612092"},"vehicle_type_id":"4","last_reported":1692500805,"current_range_meters":31200,"station_id":"ce4bgvh2rcd13ifvqcs0","pricing_plan_id":"free"},{"bike_id":"51a22133-4ca2-49bd-8e53-bdb6cc510853","system_id":"levelo_inurba_marseille","lat":43.30252,"lon":5.40064,"is_reserved":false,"is_disabled":false,"rental_uris":{"android":"levelo://app?vid=51a22133-4ca2-49bd-8e53-bdb6cc510853","ios":"levelo://app?vid=51a22133-4ca2-49bd-8e53-bdb6cc510853"},"vehicle_type_id":"4","last_reported":1692500805,"current_range_meters":30400,"station_id":"ce4bgvh2rcd13ifvqcs0","pricing_plan_id":"free"},{"bike_id":"7af33a0f-faa4-459a-8ff7-b29e7a95bfcc","system_id":"levelo_inurba_marseille","lat":43.302759,"lon":5.400793,"is_reserved":false,"is_disabled":false,"rental_uris":{"android":"levelo://app?vid=7af33a0f-faa4-459a-8ff7-b29e7a95bfcc","ios":"levelo://app?vid=7af33a0f-faa4-459a-8ff7-b29e7a95bfcc"},"vehicle_type_id":"4","last_reported":1692500805,"current_range_meters":28800,"station_id":"ce4bgvh2rcd13ifvqcs0","pricing_plan_id":"free"},{"bike_id":"24a32764-9cfa-445a-8cc5-9478fca2ecbf","system_id":"levelo_inurba_marseille","lat":43.302759,"lon":5.400793,"is_reserved":false,"is_disabled":false,"rental_uris":{"android":"levelo://app?vid=24a32764-9cfa-445a-8cc5-9478fca2ecbf","ios":"levelo://app?vid=24a32764-9cfa-445a-8cc5-9478fca2ecbf"},"vehicle_type_id":"4","last_reported":1692500805,"current_range_meters":30000,"station_id":"ce4bgvh2rcd13ifvqcs0","pricing_plan_id":"free"},{"bike_id":"c6dd3d83-8bde-435a-b895-ee66de9b2197","system_id":"levelo_inurba_marseille","lat":43.302759,"lon":5.400793,"is_reserved":false,"is_disabled":false,"rental_uris":{"android":"levelo://app?vid=c6dd3d83-8bde-435a-b895-ee66de9b2197","ios":"levelo://app?vid=c6dd3d83-8bde-435a-b895-ee66de9b2197"},"vehicle_type_id":"4","last_reported":1692500805,"current_range_meters":31200,"station_id":"ce4bgvh2rcd13ifvqcs0","pricing_plan_id":"free"},{"bike_id":"da316603-6749-4d6b-a024-9aa160c64611","system_id":"levelo_inurba_marseille","lat":43.302759,"lon":5.400793,"is_reserved":false,"is_disabled":false,"rental_uris":{"android":"levelo://app?vid=da316603-6749-4d6b-a024-9aa160c64611","ios":"levelo://app?vid=da316603-6749-4d6b-a024-9aa160c64611"},"vehicle_type_id":"4","last_reported":1692500805,"current_range_meters":31200,"station_id":"ce4bgvh2rcd13ifvqcs0","pricing_plan_id":"free"},{"bike_id":"8fffe0e4-090d-4f6e-9053-47d0233f4796","system_id":"levelo_inurba_marseille","lat":43.287184,"lon":5.37937,"is_reserved":false,"is_disabled":false,"rental_uris":{"android":"levelo://app?vid=8fffe0e4-090d-4f6e-9053-47d0233f4796","ios":"levelo://app?vid=8fffe0e4-090d-4f6e-9053-47d0233f4796"},"vehicle_type_id":"4","last_reported":1692500805,"current_range_meters":14800,"station_id":"ce4bh9p2rcd13ifvqec0","pricing_plan_id":"free"},{"bike_id":"bb05d5de-a596-4577-ba70-a59463fa439c","system_id":"levelo_inurba_marseille","lat":43.31642,"lon":5.40428,"is_reserved":false,"is_disabled":false,"rental_uris":{"android":"levelo://app?vid=bb05d5de-a596-4577-ba70-a59463fa439c","ios":"levelo://app?vid=bb05d5de-a596-4577-ba70-a59463fa439c"},"vehicle_type_id":"4","last_reported":1692500805,"current_range_meters":31200,"station_id":"ce4bh012rcd13ifvqd00","pricing_plan_id":"free"},{"bike_id":"7da9e437-1e79-4b5f-9ab0-65254ac17dd7","system_id":"levelo_inurba_marseille","lat":43.31641,"lon":5.40433,"is_reserved":false,"is_disabled":false,"rental_uris":{"android":"levelo://app?vid=7da9e437-1e79-4b5f-9ab0-65254ac17dd7","ios":"levelo://app?vid=7da9e437-1e79-4b5f-9ab0-65254ac17dd7"},"vehicle_type_id":"4","last_reported":1692500805,"current_range_meters":23200,"station_id":"ce4bh012rcd13ifvqd00","pricing_plan_id":"free"},{"bike_id":"77f690d2-59aa-4836-8abb-a03fd6b57c3c","system_id":"levelo_inurba_marseille","lat":43.31643,"lon":5.40434,"is_reserved":false,"is_disabled":false,"rental_uris":{"android":"levelo://app?vid=77f690d2-59aa-4836-8abb-a03fd6b57c3c","ios":"levelo://app?vid=77f690d2-59aa-4836-8abb-a03fd6b57c3c"},"vehicle_type_id":"4","last_reported":1692500805,"current_range_meters":30800,"station_id":"ce4bh012rcd13ifvqd00","pricing_plan_id":"free"},{"bike_id":"9884d10a-f71f-46d9-a317-89f19dcdaf89","system_id":"levelo_inurba_marseille","lat":43.31642,"lon":5.40436,"is_reserved":false,"is_disabled":false,"rental_uris":{"android":"levelo://app?vid=9884d10a-f71f-46d9-a317-89f19dcdaf89","ios":"levelo://app?vid=9884d10a-f71f-46d9-a317-89f19dcdaf89"},"vehicle_type_id":"4","last_reported":1692500805,"current_range_meters":8400,"station_id":"ce4bh012rcd13ifvqd00","pricing_plan_id":"free"},{"bike_id":"6a13e00c-5c02-4bf2-a000-3257752288a2","system_id":"levelo_inurba_marseille","lat":43.31642,"lon":5.40437,"is_reserved":false,"is_disabled":false,"rental_uris":{"android":"levelo://app?vid=6a13e00c-5c02-4bf2-a000-3257752288a2","ios":"levelo://app?vid=6a13e00c-5c02-4bf2-a000-3257752288a2"},"vehicle_type_id":"4","last_reported":1692500805,"current_range_meters":11600,"station_id":"ce4bh012rcd13ifvqd00","pricing_plan_id":"free"},{"bike_id":"ede3cb35-ef45-47b7-8e45-bfa997cf1250","system_id":"levelo_inurba_marseille","lat":43.31646,"lon":5.4044,"is_reserved":false,"is_disabled":false,"rental_uris":{"android":"levelo://app?vid=ede3cb35-ef45-47b7-8e45-bfa997cf1250","ios":"levelo://app?vid=ede3cb35-ef45-47b7-8e45-bfa997cf1250"},"vehicle_type_id":"4","last_reported":1692500805,"current_range_meters":30000,"station_id":"ce4bh012rcd13ifvqd00","pricing_plan_id":"free"},{"bike_id":"df33f7b0-50e0-4ed8-9daf-9ff98e9fe60b","system_id":"levelo_inurba_marseille","lat":43.291994,"lon":5.392907,"is_reserved":false,"is_disabled":false,"rental_uris":{"android":"levelo://app?vid=df33f7b0-50e0-4ed8-9daf-9ff98e9fe60b","ios":"levelo://app?vid=df33f7b0-50e0-4ed8-9daf-9ff98e9fe60b"},"vehicle_type_id":"4","last_reported":1692500805,"current_range_meters":30000,"station_id":"ce4bh192rcd13ifvqdd0","pricing_plan_id":"free"},{"bike_id":"863352c1-a89f-4cfd-bade-b09f3c5f6ecb","system_id":"levelo_inurba_marseille","lat":43.284538,"lon":5.358657,"is_reserved":false,"is_disabled":false,"rental_uris":{"android":"levelo://app?vid=863352c1-a89f-4cfd-bade-b09f3c5f6ecb","ios":"levelo://app?vid=863352c1-a89f-4cfd-bade-b09f3c5f6ecb"},"vehicle_type_id":"4","last_reported":1692500805,"current_range_meters":31600,"station_id":"ce4bhah2rcd13ifvqei0","pricing_plan_id":"free"},{"bike_id":"0dfed0fa-28a6-45de-87f0-e7588e6707b6","system_id":"levelo_inurba_marseille","lat":43.284534,"lon":5.358662,"is_reserved":false,"is_disabled":false,"rental_uris":{"android":"levelo://app?vid=0dfed0fa-28a6-45de-87f0-e7588e6707b6","ios":"levelo://app?vid=0dfed0fa-28a6-45de-87f0-e7588e6707b6"},"vehicle_type_id":"4","last_reported":1692500805,"current_range_meters":28400,"station_id":"ce4bhah2rcd13ifvqei0","pricing_plan_id":"free"},{"bike_id":"d4c280b7-86a6-44dc-99a5-8c11b9135797","system_id":"levelo_inurba_marseille","lat":43.284538,"lon":5.358657,"is_reserved":false,"is_disabled":false,"rental_uris":{"android":"levelo://app?vid=d4c280b7-86a6-44dc-99a5-8c11b9135797","ios":"levelo://app?vid=d4c280b7-86a6-44dc-99a5-8c11b9135797"},"vehicle_type_id":"4","last_reported":1692500805,"current_range_meters":21600,"station_id":"ce4bhah2rcd13ifvqei0","pricing_plan_id":"free"},{"bike_id":"f9ee59f2-60d5-41c6-8ac1-a5ad4da915f8","system_id":"levelo_inurba_marseille","lat":43.284538,"lon":5.358657,"is_reserved":false,"is_disabled":false,"rental_uris":{"android":"levelo://app?vid=f9ee59f2-60d5-41c6-8ac1-a5ad4da915f8","ios":"levelo://app?vid=f9ee59f2-60d5-41c6-8ac1-a5ad4da915f8"},"vehicle_type_id":"4","last_reported":1692500805,"current_range_meters":2000,"station_id":"ce4bhah2rcd13ifvqei0","pricing_plan_id":"free"},{"bike_id":"75bf11c5-641f-469a-a939-e15e8ea98bf8","system_id":"levelo_inurba_marseille","lat":43.284538,"lon":5.358657,"is_reserved":false,"is_disabled":false,"rental_uris":{"android":"levelo://app?vid=75bf11c5-641f-469a-a939-e15e8ea98bf8","ios":"levelo://app?vid=75bf11c5-641f-469a-a939-e15e8ea98bf8"},"vehicle_type_id":"4","last_reported":1692500805,"current_range_meters":12000,"station_id":"ce4bhah2rcd13ifvqei0","pricing_plan_id":"free"},{"bike_id":"f4ebc368-5b24-45ad-9c0c-ff5d494e3485","system_id":"levelo_inurba_marseille","lat":43.284538,"lon":5.358657,"is_reserved":false,"is_disabled":false,"rental_uris":{"android":"levelo://app?vid=f4ebc368-5b24-45ad-9c0c-ff5d494e3485","ios":"levelo://app?vid=f4ebc368-5b24-45ad-9c0c-ff5d494e3485"},"vehicle_type_id":"4","last_reported":1692500805,"current_range_meters":26800,"station_id":"ce4bhah2rcd13ifvqei0","pricing_plan_id":"free"},{"bike_id":"c6894e34-03a2-4d4f-bc54-6952aaf665f5","system_id":"levelo_inurba_marseille","lat":43.284534,"lon":5.358662,"is_reserved":false,"is_disabled":false,"rental_uris":{"android":"levelo://app?vid=c6894e34-03a2-4d4f-bc54-6952aaf665f5","ios":"levelo://app?vid=c6894e34-03a2-4d4f-bc54-6952aaf665f5"},"vehicle_type_id":"4","last_reported":1692500805,"current_range_meters":31200,"station_id":"ce4bhah2rcd13ifvqei0","pricing_plan_id":"free"},