{"last_updated":1737893687,"ttl":60,"version":"2.2","data":{"bikes":[{"bike_id":"19b52e2a-05cf-4365-83c4-bc0dee285d83","system_id":"levelo_inurba_marseille","lat":43.30144,"lon":5.38084,"is_reserved":false,"is_disabled":false,"rental_uris":{"android":"levelo://app?vid=19b52e2a-05cf-4365-83c4-bc0dee285d83","ios":"levelo://app?vid=19b52e2a-05cf-4365-83c4-bc0dee285d83"},"vehicle_type_id":"4","last_reported":1737893688,"current_range_meters":39200,"station_id":"ce4bgjp2rcd13ifvqbh0","pricing_plan_id":"cebpf4jnsgd1na2vs0mg"},{"bike_id":"03c64e80-5e01-4332-bc90-93a2fb6ac145","system_id":"levelo_inurba_marseille","lat":43.22928,"lon":5.35394,"is_reserved":false,"is_disabled":false,"rental_uris":{"android":"levelo://app?vid=03c64e80-5e01-4332-bc90-93a2fb6ac145","ios":"levelo://app?vid=03c64e80-5e01-4332-bc90-93a2fb6ac145"},"vehicle_type_id":"4","last_reported":1737893688,"current_range_meters":37600,"station_id":"cpo3532slgdg3j2ikp40","pricing_plan_id":"cebpf4jnsgd1na2vs0mg"},{"bike_id":"35262862-1811-452b-bb47-81920716faef","system_id":"levelo_inurba_marseille","lat":43.28264,"lon":5.35067,"is_reserved":false,"is_disabled":false,"rental_uris":{"android":"levelo://app?vid=35262862-1811-452b-bb47-81920716faef","ios":"levelo://app?vid=35262862-1811-452b-bb47-81920716faef"},"vehicle_type_id":"4","last_reported":1737893688,"current_range_meters":16800,"station_id":"ce4bhbp2rcd13ifvqerg","pricing_plan_id":"cebpf4jnsgd1na2vs0mg"},{"bike_id":"7cb17210-e6bd-4f16-9d5a-6665c44a1097","system_id":"levelo_inurba_marseille","lat":43.26053,"lon":5.39415,"is_reserved":false,"is_disabled":false,"rental_uris":{"android":"levelo://app?vid=7cb17210-e6bd-4f16-9d5a-6665c44a1097","ios":"levelo://app?vid=7cb17210-e6bd-4f16-9d5a-6665c44a1097"},"vehicle_type_id":"4","last_reported":1737893688,"current_range_meters":38800,"station_id":"ce4bhh92rcd13ifvqfj0","pricing_plan_id":"cebpf4jnsgd1na2vs0mg"},{"bike_id":"22fdda07-29f7-4097-aa7c-457566d3caba","system_id":"levelo_inurba_marseille","lat":43.25082,"lon":5.39537,"is_reserved":false,"is_disabled":false,"rental_uris":{"android":"levelo://app?vid=22fdda07-29f7-4097-aa7c-457566d3caba","ios":"levelo://app?vid=22fdda07-29f7-4097-aa7c-457566d3caba"},"vehicle_type_id":"4","last_reported":1737893688,"current_range_meters":26000,"station_id":"ce4bhm12rcd13ifvqgkg","pricing_plan_id":"cebpf4jnsgd1na2vs0mg"},{"bike_id":"0f37f612-bab0-4811-95c1-da64c54e0705","system_id":"levelo_inurba_marseille","lat":43.27965,"lon":5.41644,"is_reserved":false,"is_disabled":false,"rental_uris":{"android":"levelo://app?vid=0f37f612-bab0-4811-95c1-da64c54e0705","ios":"levelo://app?vid=0f37f612-bab0-4811-95c1-da64c54e0705"},"vehicle_type_id":"4","last_reported":1737893688,"current_range_meters":37600,"station_id":"ce4bho12rcd13ifvqh1g","pricing_plan_id":"cebpf4jnsgd1na2vs0mg"},{"bike_id":"b037c3ae-8195-465d-9526-617a49374658","system_id":"levelo_inurba_marseille","lat":43.30423,"lon":5.41301,"is_reserved":false,"is_disabled":false,"rental_uris":{"android":"levelo://app?vid=b037c3ae-8195-465d-9526-617a49374658","ios":"levelo://app?vid=b037c3ae-8195-465d-9526-617a49374658"},"vehicle_type_id":"4","last_reported":1737893688,"current_range_meters":28000,"station_id":"ce4bhop2rcd13ifvqh8g","pricing_plan_id":"cebpf4jnsgd1na2vs0mg"},{"bike_id":"58d9e3df-28a3-4560-b2cd-4d33fefbd544","system_id":"levelo_inurba_marseille","lat":43.28377,"lon":5.38155,"is_reserved":false,"is_disabled":true,"rental_uris":{"android":"levelo://app?vid=58d9e3df-28a3-4560-b2cd-4d33fefbd544","ios":"levelo://app?vid=58d9e3df-28a3-4560-b2cd-4d33fefbd544"},"vehicle_type_id":"4","last_reported":1737893688,"current_range_meters":17200,"station_id":"ce4bh412rcd13ifvqdr0","pricing_plan_id":"cebpf4jnsgd1na2vs0mg"},{"bike_id":"fa5cc696-fa74-45d7-9894-bb340f9342a9","system_id":"levelo_inurba_marseille","lat":43.28676,"lon":5.36348,"is_reserved":false,"is_disabled":true,"rental_uris":{"android":"levelo://app?vid=fa5cc696-fa74-45d7-9894-bb340f9342a9","ios":"levelo://app?vid=fa5cc696-fa74-45d7-9894-bb340f9342a9"},"vehicle_type_id":"4","last_reported":1737893688,"current_range_meters":0,"station_id":"ce4bhah2rcd13ifvqej0","pricing_plan_id":"cebpf4jnsgd1na2vs0mg"},{"bike_id":"8a0e0678-6d35-481a-b62a-f9a4896bdc72","system_id":"levelo_inurba_marseille","lat":43.27207,"lon":5.39166,"is_reserved":false,"is_disabled":false,"rental_uris":{"android":"levelo://app?vid=8a0e0678-6d35-481a-b62a-f9a4896bdc72","ios":"levelo://app?vid=8a0e0678-6d35-481a-b62a-f9a4896bdc72"},"vehicle_type_id":"4","last_reported":1737893688,"current_range_meters":28800,"station_id":"ce4bhhp2rcd13ifvqfm0","pricing_plan_id":"cebpf4jnsgd1na2vs0mg"},{"bike_id":"d7c679d8-4279-46d2-9de9-cdf9d0fbe6c5","system_id":"levelo_inurba_marseille","lat":43.30142,"lon":5.37409,"is_reserved":false,"is_disabled":true,"rental_uris":{"android":"levelo://app?vid=d7c679d8-4279-46d2-9de9-cdf9d0fbe6c5","ios":"levelo://app?vid=d7c679d8-4279-46d2-9de9-cdf9d0fbe6c5"},"vehicle_type_id":"4","last_reported":1737893688,"current_range_meters":38800,"station_id":"ce4bgs92rcd13ifvqcc0","pricing_plan_id":"cebpf4jnsgd1na2vs0mg"},{"bike_id":"1decbaba-ade5-485c-a51a-90b107b2b81b","system_id":"levelo_inurba_marseille","lat":43.30286,"lon":5.37704,"is_reserved":false,"is_disabled":false,"rental_uris":{"android":"levelo://app?vid=1decbaba-ade5-485c-a51a-90b107b2b81b","ios":"levelo://app?vid=1decbaba-ade5-485c-a51a-90b107b2b81b"},"vehicle_type_id":"4","last_reported":1737893688,"current_range_meters":18800,"station_id":"ce4bguh2rcd13ifvqcj0","pricing_plan_id":"cebpf4jnsgd1na2vs0mg"},{"bike_id":"99676360-4326-4830-9645-65ec283f07b1","system_id":"levelo_inurba_marseille","lat":43.30165,"lon":5.3808,"is_reserved":false,"is_disabled":false,"rental_uris":{"android":"levelo://app?vid=99676360-4326-4830-9645-65ec283f07b1","ios":"levelo://app?vid=99676360-4326-4830-9645-65ec283f07b1"},"vehicle_type_id":"4","last_reported":1737893688,"current_range_meters":38400,"station_id":"ce4bgjp2rcd13ifvqbh0","pricing_plan_id":"cebpf4jnsgd1na2vs0mg"},{"bike_id":"cdbaac92-4816-4648-be04-eedb516e152d","system_id":"levelo_inurba_marseille","lat":43.27813,"lon":5.40721,"is_reserved":false,"is_disabled":false,"rental_uris":{"android":"levelo://app?vid=cdbaac92-4816-4648-be04-eedb516e152d","ios":"levelo://app?vid=cdbaac92-4816-4648-be04-eedb516e152d"},"vehicle_type_id":"4","last_reported":1737893688,"current_range_meters":30400,"station_id":"ce4bhnh2rcd13ifvqgtg","pricing_plan_id":"cebpf4jnsgd1na2vs0mg"},{"bike_id":"2b67dc9f-1e10-497e-af38-ea5cf1d371ff","system_id":"levelo_inurba_marseille","lat":43.32001,"lon":5.41495,"is_reserved":false,"is_disabled":false,"rental_uris":{"android":"levelo://app?vid=2b67dc9f-1e10-497e-af38-ea5cf1d371ff","ios":"levelo://app?vid=2b67dc9f-1e10-497e-af38-ea5cf1d371ff"},"vehicle_type_id":"4","last_reported":1737893688,"current_range_meters":39200,"station_id":"ce4bhq92rcd13ifvqhkg","pricing_plan_id":"cebpf4jnsgd1na2vs0mg"},{"bike_id":"80260c06-7fe7-4e2c-81e9-17ba17efcf20","system_id":"levelo_inurba_marseille","lat":43.2668,"lon":5.38271,"is_reserved":false,"is_disabled":false,"rental_uris":{"android":"levelo://app?vid=80260c06-7fe7-4e2c-81e9-17ba17efcf20","ios":"levelo://app?vid=80260c06-7fe7-4e2c-81e9-17ba17efcf20"},"vehicle_type_id":"4","last_reported":1737893688,"current_range_meters":38800,"station_id":"ce4bhg92rcd13ifvqf90","pricing_plan_id":"cebpf4jnsgd1na2vs0mg"},{"bike_id":"457dbd0e-8f95-45e9-8ae6-40b39a5ca596","system_id":"levelo_inurba_marseille","lat":43.23185,"lon":5.35538,"is_reserved":false,"is_disabled":false,"rental_uris":{"android":"levelo://app?vid=457dbd0e-8f95-45e9-8ae6-40b39a5ca596","ios":"levelo://app?vid=457dbd0e-8f95-45e9-8ae6-40b39a5ca596"},"vehicle_type_id":"4","last_reported":1737893688,"current_range_meters":36000,"station_id":"ce4bhu92rcd13ifvqi70","pricing_plan_id":"cebpf4jnsgd1na2vs0mg"},{"bike_id":"d77db00f-908b-4381-ac06-dc3e91b69008","system_id":"levelo_inurba_marseille","lat":43.255788,"lon":5.382298,"is_reserved":false,"is_disabled":false,"rental_uris":{"android":"levelo://app?vid=d77db00f-908b-4381-ac06-dc3e91b69008","ios":"levelo://app?vid=d77db00f-908b-4381-ac06-dc3e91b69008"},"vehicle_type_id":"4","last_reported":1737893688,"current_range_meters":6000,"station_id":"ce4bhih2rcd13ifvqfs0","pricing_plan_id":"cebpf4jnsgd1na2vs0mg"},{"bike_id":"e052512e-d0fe-4bbe-8fcb-e38e187d8be4","system_id":"levelo_inurba_marseille","lat":43.23962,"lon":5.36635,"is_reserved":false,"is_disabled":false,"rental_uris":{"android":"levelo://app?vid=e052512e-d0fe-4bbe-8fcb-e38e187d8be4","ios":"levelo://app?vid=e052512e-d0fe-4bbe-8fcb-e38e187d8be4"},"vehicle_type_id":"4","last_reported":1737893688,"current_range_meters":30800,"station_id":"ce4bhi12rcd13ifvqfp0","pricing_plan_id":"cebpf4jnsgd1na2vs0mg"},{"bike_id":"b059518b-cf2e-465f-b01b-867541f3ad91","system_id":"levelo_inurba_marseille","lat":43.24076,"lon":5.37762,"is_reserved":false,"is_disabled":false,"rental_uris":{"android":"levelo://app?vid=b059518b-cf2e-465f-b01b-867541f3ad91","ios":"levelo://app?vid=b059518b-cf2e-465f-b01b-867541f3ad91"},"vehicle_type_id":"4","last_reported":1737893688,"current_range_meters":38800,"station_id":"ce4bhnp2rcd13ifvqgvg","pricing_plan_id":"cebpf4jnsgd1na2vs0mg"},{"bike_id":"4e4a5c41-6ed2-435b-9c6a-dbaeecb8e0b1","system_id":"levelo_inurba_marseille","lat":43.29901,"lon":5.43673,"is_reserved":false,"is_disabled":false,"rental_uris":{"android":"levelo://app?vid=4e4a5c41-6ed2-435b-9c6a-dbaeecb8e0b1","ios":"levelo://app?vid=4e4a5c41-6ed2-435b-9c6a-dbaeecb8e0b1"},"vehicle_type_id":"4","last_reported":1737893688,"current_range_meters":16400,"station_id":"ce4bhpp2rcd13ifvqhfg","pricing_plan_id":"cebpf4jnsgd1na2vs0mg"},{"bike_id":"d06b6dd8-7b26-4e14-8483-8f8817ba9baf","system_id":"levelo_inurba_marseille","lat":43.32023,"lon":5.41575,"is_reserved":false,"is_disabled":false,"rental_uris":{"android":"levelo://app?vid=d06b6dd8-7b26-4e14-8483-8f8817ba9baf","ios":"levelo://app?vid=d06b6dd8-7b26-4e14-8483-8f8817ba9baf"},"vehicle_type_id":"4","last_reported":1737893688,"current_range_meters":38400,"station_id":"ce4bhq92rcd13ifvqhkg","pricing_plan_id":"cebpf4jnsgd1na2vs0mg"},{"bike_id":"210624a0-0160-4ca7-abdb-10185ab00b32","system_id":"levelo_inurba_marseille","lat":43.31697,"lon":5.3779,"is_reserved":false,"is_disabled":false,"rental_uris":{"android":"levelo://app?vid=210624a0-0160-4ca7-abdb-10185ab00b32","ios":"levelo://app?vid=210624a0-0160-4ca7-abdb-10185ab00b32"},"vehicle_type_id":"4","last_reported":1737893688,"current_range_meters":38800,"station_id":"ce4bgth2rcd13ifvqch0","pricing_plan_id":"cebpf4jnsgd1na2vs0mg"},{"bike_id":"f65786a8-8c3b-40b9-a305-53e47b5c7019","system_id":"levelo_inurba_marseille","lat":43.25497,"lon":5.37664,"is_reserved":false,"is_disabled":false,"rental_uris":{"android":"levelo://app?vid=f65786a8-8c3b-40b9-a305-53e47b5c7019","ios":"levelo://app?vid=f65786a8-8c3b-40b9-a305-53e47b5c7019"},"vehicle_type_id":"4","last_reported":1737893688,"current_range_meters":38800,"station_id":"ce4bhh12rcd13ifvqff0","pricing_plan_id":"cebpf4jnsgd1na2vs0mg"},{"bike_id":"0886edf6-4f7e-49f5-80d6-fa517f687991","system_id":"levelo_inurba_marseille","lat":43.28258,"lon":5.35066,"is_reserved":false,"is_disabled":false,"rental_uris":{"android":"levelo://app?vid=0886edf6-4f7e-49f5-80d6-fa517f687991","ios":"levelo://app?vid=0886edf6-4f7e-49f5-80d6-fa517f687991"},"vehicle_type_id":"4","last_reported":1737893688,"current_range_meters":18000,"station_id":"ce4bhbp2rcd13ifvqerg","pricing_plan_id":"cebpf4jnsgd1na2vs0mg"},{"bike_id":"0cd73bdc-cd0c-4df3-872c-1c4be61bdf54","system_id":"levelo_inurba_marseille","lat":43.29196,"lon":5.35803,"is_reserved":false,"is_disabled":false,"rental_uris":{"android":"levelo://app?vid=0cd73bdc-cd0c-4df3-872c-1c4be61bdf54","ios":"levelo://app?vid=0cd73bdc-cd0c-4df3-872c-1c4be61bdf54"},"vehicle_type_id":"4","last_reported":1737893688,"current_range_meters":15200,"station_id":"ce4bhb12rcd13ifvqel0","pricing_plan_id":"cebpf4jnsgd1na2vs0mg"},{"bike_id":"4ee228f4-d876-40c1-a3ee-470ecaf3e882","system_id":"levelo_inurba_marseille","lat":43.31946,"lon":5.3712,"is_reserved":false,"is_disabled":false,"rental_uris":{"android":"levelo://app?vid=4ee228f4-d876-40c1-a3ee-470ecaf3e882","ios":"levelo://app?vid=4ee228f4-d876-40c1-a3ee-470ecaf3e882"},"vehicle_type_id":"4","last_reported":1737893688,"current_range_meters":32800,"station_id":"","pricing_plan_id":"cebpf4jnsgd1na2vs0mg"},{"bike_id":"e9b18d33-2c32-4c0b-bac5-aee7380b5154","system_id":"levelo_inurba_marseille","lat":43.25089,"lon":5.39526,"is_reserved":false,"is_disabled":false,"rental_uris":{"android":"levelo://app?vid=e9b18d33-2c32-4c0b-bac5-aee7380b5154","ios":"levelo://app?vid=e9b18d33-2c32-4c0b-bac5-aee7380b5154"},"vehicle_type_id":"4","last_reported":1737893688,"current_range_meters":34000,"station_id":"ce4bhm12rcd13ifvqgkg","pricing_plan_id":"cebpf4jnsgd1na2vs0mg"},{"bike_id":"1edc3a9d-b073-4200-8435-21288127161e","system_id":"levelo_inurba_marseille","lat":43.31392,"lon":5.36676,"is_reserved":false,"is_disabled":false,"rental_uris":{"android":"levelo://app?vid=1edc3a9d-b073-4200-8435-21288127161e","ios":"levelo://app?vid=1edc3a9d-b073-4200-8435-21288127161e"},"vehicle_type_id":"4","last_reported":1737893688,"current_range_meters":16000,"station_id":"","pricing_plan_id":"cebpf4jnsgd1na2vs0mg"},{"bike_id":"bb9df935-971d-48fe-841d-0dade0ac91aa","system_id":"levelo_inurba_marseille","lat":43.2953,"lon":5.38563,"is_reserved":false,"is_disabled":true,"rental_uris":{"android":"levelo://app?vid=bb9df935-971d-48fe-841d-0dade0ac91aa","ios":"levelo://app?vid=bb9df935-971d-48fe-841d-0dade0ac91aa"},"vehicle_type_id":"4","last_reported":1737893688,"current_range_meters":30800,"station_id":"ce4bgih2rcd13ifvqba0","pricing_plan_id":"cebpf4jnsgd1na2vs0mg"},{"bike_id":"c5496b0b-85c0-45ba-8ce4-2730a8f4bd84","system_id":"levelo_inurba_marseille","lat":43.30554,"lon":5.36537,"is_reserved":false,"is_disabled":false,"rental_uris":{"android":"levelo://app?vid=c5496b0b-85c0-45ba-8ce4-2730a8f4bd84","ios":"levelo://app?vid=c5496b0b-85c0-45ba-8ce4-2730a8f4bd84"},"vehicle_type_id":"4","last_reported":1737893688,"current_range_meters":19200,"station_id":"ce4bgs12rcd13ifvqcag","pricing_plan_id":"cebpf4jnsgd1na2vs0mg"},{"bike_id":"b8c7ac08-94bb-4c1a-be59-442ad905fc87","system_id":"levelo_inurba_marseille","lat":43.29226,"lon":5.36608,"is_reserved":false,"is_disabled":false,"rental_uris":{"android":"levelo://app?vid=b8c7ac08-94bb-4c1a-be59-442ad905fc87","ios":"levelo://app?vid=b8c7ac08-94bb-4c1a-be59-442ad905fc87"},"vehicle_type_id":"4","last_reported":1737893688,"current_range_meters":30400,"station_id":"","pricing_plan_id":"cebpf4jnsgd1na2vs0mg"},{"bike_id":"90e237f0-93b1-4db3-9e98-47d2a0d9dced","system_id":"levelo_inurba_marseille","lat":43.25004,"lon":5.38953,"is_reserved":false,"is_disabled":false,"rental_uris":{"android":"levelo://app?vid=90e237f0-93b1-4db3-9e98-47d2a0d9dced","ios":"levelo://app?vid=90e237f0-93b1-4db3-9e98-47d2a0d9dced"},"vehicle_type_id":"4","last_reported":1737893688,"current_range_meters":26000,"station_id":"ce4bhgp2rcd13ifvqfd0","pricing_plan_id":"cebpf4jnsgd1na2vs0mg"},{"bike_id":"dfa0434d-1fcb-472f-ae41-10d6789a2191","system_id":"levelo_inurba_marseille","lat":43.304648,"lon":5.365712,"is_reserved":false,"is_disabled":false,"rental_uris":{"android":"levelo://app?vid=dfa0434d-1fcb-472f-ae41-10d6789a2191","ios":"levelo://app?vid=dfa0434d-1fcb-472f-ae41-10d6789a2191"},"vehicle_type_id":"4","last_reported":1737893688,"current_range_meters":15200,"station_id":"ce4bgs12rcd13ifvqcag","pricing_plan_id":"cebpf4jnsgd1na2vs0mg"},{"bike_id":"2b1f2c73-a648-48ba-86a5-fada76619153","system_id":"levelo_inurba_marseille","lat":43.31333,"lon":5.39709,"is_reserved":false,"is_disabled":false,"rental_uris":{"android":"levelo://app?vid=2b1f2c73-a648-48ba-86a5-fada76619153","ios":"levelo://app?vid=2b1f2c73-a648-48ba-86a5-fada76619153"},"vehicle_type_id":"4","last_reported":1737893688,"current_range_meters":38800,"station_id":"ce4bgvp2rcd13ifvqcu0","pricing_plan_id":"cebpf4jnsgd1na2vs0mg"},{"bike_id":"2e3ff8ed-3443-4c7b-8de2-de9de90c7912","system_id":"levelo_inurba_marseille","lat":43.32477,"lon":5.36594,"is_reserved":false,"is_disabled":false,"rental_uris":{"android":"levelo://app?vid=2e3ff8ed-3443-4c7b-8de2-de9de90c7912","ios":"levelo://app?vid=2e3ff8ed-3443-4c7b-8de2-de9de90c7912"},"vehicle_type_id":"4","last_reported":1737893688,"current_range_meters":38000,"station_id":"ce4bhs12rcd13ifvqhvg","pricing_plan_id":"cebpf4jnsgd1na2vs0mg"},{"bike_id":"1b5250e4-2470-4d40-86ca-5191077c26d9","system_id":"levelo_inurba_marseille","lat":43.27067,"lon":5.42296,"is_reserved":false,"is_disabled":false,"rental_uris":{"android":"levelo://app?vid=1b5250e4-2470-4d40-86ca-5191077c26d9","ios":"levelo://app?vid=1b5250e4-2470-4d40-86ca-5191077c26d9"},"vehicle_type_id":"4","last_reported":1737893688,"current_range_meters":39200,"station_id":"ce4bhk92rcd13ifvqgb0","pricing_plan_id":"cebpf4jnsgd1na2vs0mg"},{"bike_id":"30e291bd-c487-45e7-9c5e-9e29705a33a8","system_id":"levelo_inurba_marseille","lat":43.28439,"lon":5.39201,"is_reserved":false,"is_disabled":false,"rental_uris":{"android":"levelo://app?vid=30e291bd-c487-45e7-9c5e-9e29705a33a8","ios":"levelo://app?vid=30e291bd-c487-45e7-9c5e-9e29705a33a8"},"vehicle_type_id":"4","last_reported":1737893688,"current_range_meters":38000,"station_id":"ce4bhoh2rcd13ifvqh5g","pricing_plan_id":"cebpf4jnsgd1na2vs0mg"},{"bike_id":"079f7137-0e1a-4071-bafa-6606808fdda1","system_id":"levelo_inurba_marseille","lat":43.2621,"lon":5.3744,"is_reserved":false,"is_disabled":false,"rental_uris":{"android":"levelo://app?vid=079f7137-0e1a-4071-bafa-6606808fdda1","ios":"levelo://app?vid=079f7137-0e1a-4071-bafa-6606808fdda1"},"vehicle_type_id":"4","last_reported":1737893688,"current_range_meters":19600,"station_id":"ce4bhgp2rcd13ifvqfc0","pricing_plan_id":"cebpf4jnsgd1na2vs0mg"},{"bike_id":"63478736-837d-41fa-9e91-7be0d1155be3","system_id":"levelo_inurba_marseille","lat":43.31766,"lon":5.39016,"is_reserved":false,"is_disabled":false,"rental_uris":{"android":"levelo://app?vid=63478736-837d-41fa-9e91-7be0d1155be3","ios":"levelo://app?vid=63478736-837d-41fa-9e91-7be0d1155be3"},"vehicle_type_id":"4","last_reported":1737893688,"current_range_meters":38800,"station_id":"ce4bhqp2rcd13ifvqhng","pricing_plan_id":"cebpf4jnsgd1na2vs0mg"},{"bike_id":"88e10c79-68e2-484a-bc0e-09589e82e52b","system_id":"levelo_inurba_marseille","lat":43.28951,"lon":5.36609,"is_reserved":false,"is_disabled":true,"rental_uris":{"android":"levelo://app?vid=88e10c79-68e2-484a-bc0e-09589e82e52b","ios":"levelo://app?vid=88e10c79-68e2-484a-bc0e-09589e82e52b"},"vehicle_type_id":"4","last_reported":1737893688,"current_range_meters":33200,"station_id":"ce4bhap2rcd13ifvqek0","pricing_plan_id":"cebpf4jnsgd1na2vs0mg"},{"bike_id":"2581265e-461e-4093-96e3-176dcfa2ce51","system_id":"levelo_inurba_marseille","lat":43.24649,"lon":5.3889,"is_reserved":false,"is_disabled":false,"rental_uris":{"android":"levelo://app?vid=2581265e-461e-4093-96e3-176dcfa2ce51","ios":"levelo://app?vid=2581265e-461e-4093-96e3-176dcfa2ce51"},"vehicle_type_id":"4","last_reported":1737893688,"current_range_meters":38800,"station_id":"ce4bhg12rcd13ifvqf60","pricing_plan_id":"cebpf4jnsgd1na2vs0mg"},{"bike_id":"c0e635c8-e6f3-4193-9644-78b3ef59aa41","system_id":"levelo_inurba_marseille","lat":43.29805,"lon":5.39787,"is_reserved":false,"is_disabled":true,"rental_uris":{"android":"levelo://app?vid=c0e635c8-e6f3-4193-9644-78b3ef59aa41","ios":"levelo://app?vid=c0e635c8-e6f3-4193-9644-78b3ef59aa41"},"vehicle_type_id":"4","last_reported":1737893688,"current_range_meters":1200,"station_id":"","pricing_plan_id":"cebpf4jnsgd1na2vs0mg"},{"bike_id":"0661c734-5d2c-4ad3-b72b-0375e796cecb","system_id":"levelo_inurba_marseille","lat":43.2502,"lon":5.38934,"is_reserved":false,"is_disabled":false,"rental_uris":{"android":"levelo://app?vid=0661c734-5d2c-4ad3-b72b-0375e796cecb","ios":"levelo://app?vid=0661c734-5d2c-4ad3-b72b-0375e796cecb"},"vehicle_type_id":"4","last_reported":1737893688,"current_range_meters":30800,"station_id":"ce4bhgp2rcd13ifvqfd0","pricing_plan_id":"cebpf4jnsgd1na2vs0mg"},{"bike_id":"bbdbc408-97dc-42d6-b7fa-026162f6d34d","system_id":"levelo_inurba_marseille","lat":43.29569,"lon":5.37525,"is_reserved":false,"is_disabled":false,"rental_uris":{"android":"levelo://app?vid=bbdbc408-97dc-42d6-b7fa-026162f6d34d","ios":"levelo://app?vid=bbdbc408-97dc-42d6-b7fa-026162f6d34d"},"vehicle_type_id":"4","last_reported":1737893688,"current_range_meters":8800,"station_id":"ce4bgh92rcd13ifvqb50","pricing_plan_id":"cebpf4jnsgd1na2vs0mg"},{"bike_id":"909a1c2e-107c-48f7-aae9-c2b5d9ac6e94","system_id":"levelo_inurba_marseille","lat":43.30902,"lon":5.36856,"is_reserved":false,"is_disabled":false,"rental_uris":{"android":"levelo://app?vid=909a1c2e-107c-48f7-aae9-c2b5d9ac6e94","ios":"levelo://app?vid=909a1c2e-107c-48f7-aae9-c2b5d9ac6e94"},"vehicle_type_id":"4","last_reported":1737893688,"current_range_meters":2800,"station_id":"ce4bgn92rcd13ifvqbvg","pricing_plan_id":"cebpf4jnsgd1na2vs0mg"},{"bike_id":"9709eec8-913d-43c3-8b2d-ebae3fa3e2ae","system_id":"levelo_inurba_marseille","lat":43.31486,"lon":5.37314,"is_reserved":false,"is_disabled":false,"rental_uris":{"android":"levelo://app?vid=9709eec8-913d-43c3-8b2d-ebae3fa3e2ae","ios":"levelo://app?vid=9709eec8-913d-43c3-8b2d-ebae3fa3e2ae"},"vehicle_type_id":"4","last_reported":1737893688,"current_range_meters":24400,"station_id":"ce4bgt12rcd13ifvqcd0","pricing_plan_id":"cebpf4jnsgd1na2vs0mg"},{"bike_id":"a9641c5b-171a-4976-b9f9-fdfa44f463f3","system_id":"levelo_inurba_marseille","lat":43.239671,"lon":5.366384,"is_reserved":false,"is_disabled":false,"rental_uris":{"android":"levelo://app?vid=a9641c5b-171a-4976-b9f9-fdfa44f463f3","ios":"levelo://app?vid=a9641c5b-171a-4976-b9f9-fdfa44f463f3"},"vehicle_type_id":"4","last_reported":1737893688,"current_range_meters":35600,"station_id":"ce4bhi12rcd13ifvqfp0","pricing_plan_id":"cebpf4jnsgd1na2vs0mg"},{"bike_id":"5a504fe4-0ab6-4eed-b9ef-e27131441d67","system_id":"levelo_inurba_marseille","lat":43.30293,"lon":5.37892,"is_reserved":false,"is_disabled":false,"rental_uris":{"android":"levelo://app?vid=5a504fe4-0ab6-4eed-b9ef-e27131441d67","ios":"levelo://app?vid=5a504fe4-0ab6-4eed-b9ef-e27131441d67"},"vehicle_type_id":"4","last_reported":1737893688,"current_range_meters":28400,"station_id":"","pricing_plan_id":"cebpf4jnsgd1na2vs0mg"},{"bike_id":"c2da4c3a-293f-4a31-be55-9bcc391cb620","system_id":"levelo_inurba_marseille","lat":43.26217,"lon":5.37442,"is_reserved":false,"is_disabled":false,"rental_uris":{"android":"levelo://app?vid=c2da4c3a-293f-4a31-be55-9bcc391cb620","ios":"levelo://app?vid=c2da4c3a-293f-4a31-be55-9bcc391cb620"},"vehicle_type_id":"4","last_reported":1737893688,"current_range_meters":22000,"station_id":"ce4bhgp2rcd13ifvqfc0","pricing_plan_id":"cebpf4jnsgd1na2vs0mg"},{"bike_id":"29537b6d-60f6-4053-b601-105bf13a2e3a","system_id":"levelo_inurba_marseille","lat":43.28473,"lon":5.3842,"is_reserved":false,"is_disabled":true,"rental_uris":{"android":"levelo://app?vid=29537b6d-60f6-4053-b601-105bf13a2e3a","ios":"levelo://app?vid=29537b6d-60f6-4053-b601-105bf13a2e3a"},"vehicle_type_id":"4","last_reported":1737893688,"current_range_meters":2800,"station_id":"ce4bh512rcd13ifvqe3g","pricing_plan_id":"cebpf4jnsgd1na2vs0mg"},{"bike_id":"beb8719e-9c00-4513-9a7f-ed3e580411cb","system_id":"levelo_inurba_marseille","lat":43.30486,"lon":5.37892,"is_reserved":false,"is_disabled":false,"rental_uris":{"android":"levelo://app?vid=beb8719e-9c00-4513-9a7f-ed3e580411cb","ios":"levelo://app?vid=beb8719e-9c00-4513-9a7f-ed3e580411cb"},"vehicle_type_id":"4","last_reported":1737893688,"current_range_meters":25600,"station_id":"ce4bgup2rcd13ifvqcn0","pricing_plan_id":"cebpf4jnsgd1na2vs0mg"},{"bike_id":"1bea2fdf-fd4c-4cef-8ac6-d7d41b543601","system_id":"levelo_inurba_marseille","lat":43.25486,"lon":5.37614,"is_reserved":false,"is_disabled":false,"rental_uris":{"android":"levelo://app?vid=1bea2fdf-fd4c-4cef-8ac6-d7d41b543601","ios":"levelo://app?vid=1bea2fdf-fd4c-4cef-8ac6-d7d41b543601"},"vehicle_type_id":"4","last_reported":1737893688,"current_range_meters":30800,"station_id":"ce4bhh12rcd13ifvqff0","pricing_plan_id":"cebpf4jnsgd1na2vs0mg"},{"bike_id":"c54f5b2e-f783-418a-8119-a38c5ea2c0aa","system_id":"levelo_inurba_marseille","lat":43.29007,"lon":5.35615,"is_reserved":false,"is_disabled":true,"rental_uris":{"android":"levelo://app?vid=c54f5b2e-f783-418a-8119-a38c5ea2c0aa","ios":"levelo://app?vid=c54f5b2e-f783-418a-8119-a38c5ea2c0aa"},"vehicle_type_id":"4","last_reported":1737893688,"current_range_meters":6000,"station_id":"ce4bhb92rcd13ifvqen0","pricing_plan_id":"cebpf4jnsgd1na2vs0mg"},{"bike_id":"9838cc78-2b53-49d3-ae13-82df62c4fd64","system_id":"levelo_inurba_marseille","lat":43.28402,"lon":5.40938,"is_reserved":false,"is_disabled":true,"rental_uris":{"android":"levelo://app?vid=9838cc78-2b53-49d3-ae13-82df62c4fd64","ios":"levelo://app?vid=9838cc78-2b53-49d3-ae13-82df62c4fd64"},"vehicle_type_id":"4","last_reported":1737893688,"current_range_meters":0,"station_id":"","pricing_plan_id":"cebpf4jnsgd1na2vs0mg"},{"bike_id":"1a12ccc4-119d-4583-9cd0-f3b08fa41a49","system_id":"levelo_inurba_marseille","lat":43.24071,"lon":5.37755,"is_reserved":false,"is_disabled":false,"rental_uris":{"android":"levelo://app?vid=1a12ccc4-119d-4583-9cd0-f3b08fa41a49","ios":"levelo://app?vid=1a12ccc4-119d-4583-9cd0-f3b08fa41a49"},"vehicle_type_id":"4","last_reported":1737893688,"current_range_meters":38400,"station_id":"ce4bhnp2rcd13ifvqgvg","pricing_plan_id":"cebpf4jnsgd1na2vs0mg"},{"bike_id":"50dea0e4-53d8-4743-8aea-07f37b70b654","system_id":"levelo_inurba_marseille","lat":43.34144,"lon":5.40909,"is_reserved":false,"is_disabled":false,"rental_uris":{"android":"levelo://app?vid=50dea0e4-53d8-4743-8aea-07f37b70b654","ios":"levelo://app?vid=50dea0e4-53d8-4743-8aea-07f37b70b654"},"vehicle_type_id":"4","last_reported":1737893688,"current_range_meters":39200,"station_id":"ce4bhqh2rcd13ifvqhlg","pricing_plan_id":"cebpf4jnsgd1na2vs0mg"},{"bike_id":"bf096a89-ee72-4f37-85bd-7b3cf9f0cb41","system_id":"levelo_inurba_marseille","lat":43.33731,"lon":5.392,"is_reserved":false,"is_disabled":false,"rental_uris":{"android":"levelo://app?vid=bf096a89-ee72-4f37-85bd-7b3cf9f0cb41","ios":"levelo://app?vid=bf096a89-ee72-4f37-85bd-7b3cf9f0cb41"},"vehicle_type_id":"4","last_reported":1737893688,"current_range_meters":28000,"station_id":"ce4bhr92rcd13ifvqhsg","pricing_plan_id":"cebpf4jnsgd1na2vs0mg"},{"bike_id":"f0f42544-104f-4439-9c78-bb57f092128f","system_id":"levelo_inurba_marseille","lat":43.27074,"lon":5.42286,"is_reserved":false,"is_disabled":false,"rental_uris":{"android":"levelo://app?vid=f0f42544-104f-4439-9c78-bb57f092128f","ios":"levelo://app?vid=f0f42544-104f-4439-9c78-bb57f092128f"},"vehicle_type_id":"4","last_reported":1737893688,"current_range_meters":39200,"station_id":"ce4bhk92rcd13ifvqgb0","pricing_plan_id":"cebpf4jnsgd1na2vs0mg"},{"bike_id":"c2378bb1-796c-4edf-bf87-198266dfa5e8","system_id":"levelo_inurba_marseille","lat":43.23203,"lon":5.355548,"is_reserved":false,"is_disabled":false,"rental_uris":{"android":"levelo://app?vid=c2378bb1-796c-4edf-bf87-198266dfa5e8","ios":"levelo://app?vid=c2378bb1-796c-4edf-bf87-198266dfa5e8"},"vehicle_type_id":"4","last_reported":1737893688,"current_range_meters":38400,"station_id":"ce4bhu92rcd13ifvqi70","pricing_plan_id":"cebpf4jnsgd1na2vs0mg"},{"bike_id":"e585e44a-58e3-4810-8523-ad3082df2ff0","system_id":"levelo_inurba_marseille","lat":43.23063,"lon":5.3549,"is_reserved":false,"is_disabled":false,"rental_uris":{"android":"levelo://app?vid=e585e44a-58e3-4810-8523-ad3082df2ff0","ios":"levelo://app?vid=e585e44a-58e3-4810-8523-ad3082df2ff0"},"vehicle_type_id":"4","last_reported":1737893688,"current_range_meters":7200,"station_id":"cpo3342slgdg3j2ifvpg","pricing_plan_id":"cebpf4jnsgd1na2vs0mg"},{"bike_id":"d69cf1fa-59ad-4f44-a9fb-82fbbe1b6b05","system_id":"levelo_inurba_marseille","lat":43.30816,"lon":5.43545,"is_reserved":false,"is_disabled":false,"rental_uris":{"android":"levelo://app?vid=d69cf1fa-59ad-4f44-a9fb-82fbbe1b6b05","ios":"levelo://app?vid=d69cf1fa-59ad-4f44-a9fb-82fbbe1b6b05"},"vehicle_type_id":"4","last_reported":1737893688,"current_range_meters":24800,"station_id":"ce4bhph2rcd13ifvqheg","pricing_plan_id":"cebpf4jnsgd1na2vs0mg"},{"bike_id":"6f3a1ff9-bc68-466e-baf9-12372c96b07b","system_id":"levelo_inurba_marseille","lat":43.29006,"lon":5.35608,"is_reserved":false,"is_disabled":false,"rental_uris":{"android":"levelo://app?vid=6f3a1ff9-bc68-466e-baf9-12372c96b07b","ios":"levelo://app?vid=6f3a1ff9-bc68-466e-baf9-12372c96b07b"},"vehicle_type_id":"4","last_reported":1737893688,"current_range_meters":38800,"station_id":"ce4bhb92rcd13ifvqen0","pricing_plan_id":"cebpf4jnsgd1na2vs0mg"},{"bike_id":"64f8b113-6460-4f0d-bf5f-6a6938afa43a","system_id":"levelo_inurba_marseille","lat":43.31074,"lon":5.40095,"is_reserved":false,"is_disabled":false,"rental_uris":{"android":"levelo://app?vid=64f8b113-6460-4f0d-bf5f-6a6938afa43a","ios":"levelo://app?vid=64f8b113-6460-4f0d-bf5f-6a6938afa43a"},"vehicle_type_id":"4","last_reported":1737893688,"current_range_meters":6800,"station_id":"","pricing_plan_id":"cebpf4jnsgd1na2vs0mg"},{"bike_id":"2e0a8b86-b457-48a0-8577-213b01080398","system_id":"levelo_inurba_marseille","lat":43.23195,"lon":5.35542,"is_reserved":false,"is_disabled":false,"rental_uris":{"android":"levelo://app?vid=2e0a8b86-b457-48a0-8577-213b01080398","ios":"levelo://app?vid=2e0a8b86-b457-48a0-8577-213b01080398"},"vehicle_type_id":"4","last_reported":1737893688,"current_range_meters":39200,"station_id":"ce4bhu92rcd13ifvqi70","pricing_plan_id":"cebpf4jnsgd1na2vs0mg"},{"bike_id":"a7cf4467-440c-4bb8-a849-e8f193507576","system_id":"levelo_inurba_marseille","lat":43.297097,"lon":5.376701,"is_reserved":false,"is_disabled":false,"rental_uris":{"android":"levelo://app?vid=a7cf4467-440c-4bb8-a849-e8f193507576","ios":"levelo://app?vid=a7cf4467-440c-4bb8-a849-e8f193507576"},"vehicle_type_id":"4","last_reported":1737893688,"current_range_meters":28400,"station_id":"ce4bgkh2rcd13ifvqbl0","pricing_plan_id":"cebpf4jnsgd1na2vs0mg"},{"bike_id":"d979d8d2-ec65-47af-9229-e4270aab279a","system_id":"levelo_inurba_marseille","lat":43.23063,"lon":5.35491,"is_reserved":false,"is_disabled":false,"rental_uris":{"android":"levelo://app?vid=d979d8d2-ec65-47af-9229-e4270aab279a","ios":"levelo://app?vid=d979d8d2-ec65-47af-9229-e4270aab279a"},"vehicle_type_id":"4","last_reported":1737893688,"current_range_meters":30400,"station_id":"cpo3342slgdg3j2ifvpg","pricing_plan_id":"cebpf4jnsgd1na2vs0mg"},{"bike_id":"f8e492eb-dc36-4051-8252-2795c1e60d93","system_id":"levelo_inurba_marseille","lat":43.29555,"lon":5.42291,"is_reserved":false,"is_disabled":false,"rental_uris":{"android":"levelo://app?vid=f8e492eb-dc36-4051-8252-2795c1e60d93","ios":"levelo://app?vid=f8e492eb-dc36-4051-8252-2795c1e60d93"},"vehicle_type_id":"4","last_reported":1737893688,"current_range_meters":38800,"station_id":"ce4bhph2rcd13ifvqhdg","pricing_plan_id":"cebpf4jnsgd1na2vs0mg"},{"bike_id":"62400b69-2161-47c1-9f20-157304736db7","system_id":"levelo_inurba_marseille","lat":43.30536,"lon":5.36556,"is_reserved":false,"is_disabled":false,"rental_uris":{"android":"levelo://app?vid=62400b69-2161-47c1-9f20-157304736db7","ios":"levelo://app?vid=62400b69-2161-47c1-9f20-157304736db7"},"vehicle_type_id":"4","last_reported":1737893688,"current_range_meters":23200,"station_id":"ce4bgs12rcd13ifvqcag","pricing_plan_id":"cebpf4jnsgd1na2vs0mg"},{"bike_id":"87a5bed0-aef1-423b-bd85-fe44fdeeb863","system_id":"levelo_inurba_marseille","lat":43.33729,"lon":5.39183,"is_reserved":false,"is_disabled":false,"rental_uris":{"android":"levelo://app?vid=87a5bed0-aef1-423b-bd85-fe44fdeeb863","ios":"levelo://app?vid=87a5bed0-aef1-423b-bd85-fe44fdeeb863"},"vehicle_type_id":"4","last_reported":1737893688,"current_range_meters":35200,"station_id":"ce4bhr92rcd13ifvqhsg","pricing_plan_id":"cebpf4jnsgd1na2vs0mg"},{"bike_id":"bdec0346-331f-428d-ba08-cd71a7167114","system_id":"levelo_inurba_marseille","lat":43.26808,"lon":5.40273,"is_reserved":false,"is_disabled":false,"rental_uris":{"android":"levelo://app?vid=bdec0346-331f-428d-ba08-cd71a7167114","ios":"levelo://app?vid=bdec0346-331f-428d-ba08-cd71a7167114"},"vehicle_type_id":"4","last_reported":1737893688,"current_range_meters":38800,"station_id":"ce501612rcd8frsf0b60","pricing_plan_id":"cebpf4jnsgd1na2vs0mg"},{"bike_id":"770988d0-47fd-4d12-8823-5c1dca0d5dcb","system_id":"levelo_inurba_marseille","lat":43.27368,"lon":5.36256,"is_reserved":false,"is_disabled":false,"rental_uris":{"android":"levelo://app?vid=770988d0-47fd-4d12-8823-5c1dca0d5dcb","ios":"levelo://app?vid=770988d0-47fd-4d12-8823-5c1dca0d5dcb"},"vehicle_type_id":"4","last_reported":1737893688,"current_range_meters":38000,"station_id":"ce4bhbh2rcd13ifvqeo0","pricing_plan_id":"cebpf4jnsgd1na2vs0mg"},{"bike_id":"672498f6-2f09-4e5b-8f89-7143ebfb39c6","system_id":"levelo_inurba_marseille","lat":43.33012,"lon":5.39045,"is_reserved":false,"is_disabled":false,"rental_uris":{"android":"levelo://app?vid=672498f6-2f09-4e5b-8f89-7143ebfb39c6","ios":"levelo://app?vid=672498f6-2f09-4e5b-8f89-7143ebfb39c6"},"vehicle_type_id":"4","last_reported":1737893688,"current_range_meters":38400,"station_id":"ce4bhr92rcd13ifvqhrg","pricing_plan_id":"cebpf4jnsgd1na2vs0mg"},{"bike_id":"c9a44569-494e-4c0f-b049-f060ecec970b","system_id":"levelo_inurba_marseille","lat":43.310653,"lon":5.383571,"is_reserved":false,"is_disabled":false,"rental_uris":{"android":"levelo://app?vid=c9a44569-494e-4c0f-b049-f060ecec970b","ios":"levelo://app?vid=c9a44569-494e-4c0f-b049-f060ecec970b"},"vehicle_type_id":"4","last_reported":1737893688,"current_range_meters":23200,"station_id":"ce4bgv92rcd13ifvqcr0","pricing_plan_id":"cebpf4jnsgd1na2vs0mg"},{"bike_id":"71da579c-cda3-4821-8a44-f2f668c2dca9","system_id":"levelo_inurba_marseille","lat":43.24656,"lon":5.38918,"is_reserved":false,"is_disabled":false,"rental_uris":{"android":"levelo://app?vid=71da579c-cda3-4821-8a44-f2f668c2dca9","ios":"levelo://app?vid=71da579c-cda3-4821-8a44-f2f668c2dca9"},"vehicle_type_id":"4","last_reported":1737893688,"current_range_meters":38800,"station_id":"ce4bhg12rcd13ifvqf60","pricing_plan_id":"cebpf4jnsgd1na2vs0mg"},{"bike_id":"521d942e-819b-4e72-a661-13cf9795186e","system_id":"levelo_inurba_marseille","lat":43.26551,"lon":5.37286,"is_reserved":false,"is_disabled":true,"rental_uris":{"android":"levelo://app?vid=521d942e-819b-4e72-a661-13cf9795186e","ios":"levelo://app?vid=521d942e-819b-4e72-a661-13cf9795186e"},"vehicle_type_id":"4","last_reported":1737893688,"current_range_meters":0,"station_id":"ce4bhg12rcd13ifvqf70","pricing_plan_id":"cebpf4jnsgd1na2vs0mg"},{"bike_id":"a466f83a-57a5-4cca-a7af-dc17d6c05cfd","system_id":"levelo_inurba_marseille","lat":43.28408,"lon":5.35017,"is_reserved":false,"is_disabled":false,"rental_uris":{"android":"levelo://app?vid=a466f83a-57a5-4cca-a7af-dc17d6c05cfd","ios":"levelo://app?vid=a466f83a-57a5-4cca-a7af-dc17d6c05cfd"},"vehicle_type_id":"4","last_reported":1737893688,"current_range_meters":36400,"station_id":"ce4bhbh2rcd13ifvqepg","pricing_plan_id":"cebpf4jnsgd1na2vs0mg"},{"bike_id":"b2a6f4ce-e5e6-4b95-91b9-5cf515000dc6","system_id":"levelo_inurba_marseille","lat":43.31292,"lon":5.40166,"is_reserved":false,"is_disabled":true,"rental_uris":{"android":"levelo://app?vid=b2a6f4ce-e5e6-4b95-91b9-5cf515000dc6","ios":"levelo://app?vid=b2a6f4ce-e5e6-4b95-91b9-5cf515000dc6"},"vehicle_type_id":"4","last_reported":1737893688,"current_range_meters":23200,"station_id":"ce4bh092rcd13ifvqd30","pricing_plan_id":"cebpf4jnsgd1na2vs0mg"},{"bike_id":"16b423f5-fefb-4d7b-8507-b9985fa027a0","system_id":"levelo_inurba_marseille","lat":43.33744,"lon":5.39192,"is_reserved":false,"is_disabled":false,"rental_uris":{"android":"levelo://app?vid=16b423f5-fefb-4d7b-8507-b9985fa027a0","ios":"levelo://app?vid=16b423f5-fefb-4d7b-8507-b9985fa027a0"},"vehicle_type_id":"4","last_reported":1737893688,"current_range_meters":38400,"station_id":"ce4bhr92rcd13ifvqhsg","pricing_plan_id":"cebpf4jnsgd1na2vs0mg"},{"bike_id":"14f6274e-574a-40d1-a38d-5d7f092064b7","system_id":"levelo_inurba_marseille","lat":43.28,"lon":5.4001,"is_reserved":false,"is_disabled":false,"rental_uris":{"android":"levelo://app?vid=14f6274e-574a-40d1-a38d-5d7f092064b7","ios":"levelo://app?vid=14f6274e-574a-40d1-a38d-5d7f092064b7"},"vehicle_type_id":"4","last_reported":1737893688,"current_range_meters":24000,"station_id":"ce4bho92rcd13ifvqh4g","pricing_plan_id":"cebpf4jnsgd1na2vs0mg"},{"bike_id":"64e9009f-c066-4018-b62f-9a29844a1d10","system_id":"levelo_inurba_marseille","lat":43.32055,"lon":5.41574,"is_reserved":false,"is_disabled":false,"rental_uris":{"android":"levelo://app?vid=64e9009f-c066-4018-b62f-9a29844a1d10","ios":"levelo://app?vid=64e9009f-c066-4018-b62f-9a29844a1d10"},"vehicle_type_id":"4","last_reported":1737893688,"current_range_meters":38800,"station_id":"ce4bhq92rcd13ifvqhkg","pricing_plan_id":"cebpf4jnsgd1na2vs0mg"},{"bike_id":"53183fac-c09c-444c-813d-b61b94b6428a","system_id":"levelo_inurba_marseille","lat":43.26065,"lon":5.3939,"is_reserved":false,"is_disabled":true,"rental_uris":{"android":"levelo://app?vid=53183fac-c09c-444c-813d-b61b94b6428a","ios":"levelo://app?vid=53183fac-c09c-444c-813d-b61b94b6428a"},"vehicle_type_id":"4","last_reported":1737893688,"current_range_meters":0,"station_id":"ce4bhh92rcd13ifvqfj0","pricing_plan_id":"cebpf4jnsgd1na2vs0mg"},{"bike_id":"aa5db7fd-895d-475c-8db1-359b628c6ce4","system_id":"levelo_inurba_marseille","lat":43.23961,"lon":5.36637,"is_reserved":false,"is_disabled":false,"rental_uris":{"android":"levelo://app?vid=aa5db7fd-895d-475c-8db1-359b628c6ce4","ios":"levelo://app?vid=aa5db7fd-895d-475c-8db1-359b628c6ce4"},"vehicle_type_id":"4","last_reported":1737893688,"current_range_meters":12800,"station_id":"ce4bhi12rcd13ifvqfp0","pricing_plan_id":"cebpf4jnsgd1na2vs0mg"},{"bike_id":"3fdd7e70-3e83-43bd-b13e-16385dfa32fb","system_id":"levelo_inurba_marseille","lat":43.2454,"lon":5.39526,"is_reserved":false,"is_disabled":false,"rental_uris":{"android":"levelo://app?vid=3fdd7e70-3e83-43bd-b13e-16385dfa32fb","ios":"levelo://app?vid=3fdd7e70-3e83-43bd-b13e-16385dfa32fb"},"vehicle_type_id":"4","last_reported":1737893688,"current_range_meters":19600,"station_id":"ce4bhlp2rcd13ifvqgjg","pricing_plan_id":"cebpf4jnsgd1na2vs0mg"},{"bike_id":"acf4cec9-04b2-432c-83ba-19cc7ebac443","system_id":"levelo_inurba_marseille","lat":43.2903,"lon":5.38138,"is_reserved":false,"is_disabled":true,"rental_uris":{"android":"levelo://app?vid=acf4cec9-04b2-432c-83ba-19cc7ebac443","ios":"levelo://app?vid=acf4cec9-04b2-432c-83ba-19cc7ebac443"},"vehicle_type_id":"4","last_reported":1737893688,"current_range_meters":27600,"station_id":"ce4bh4p2rcd13ifvqe1g","pricing_plan_id":"cebpf4jnsgd1na2vs0mg"},{"bike_id":"b03d6000-0f41-4952-9864-a660b0194488","system_id":"levelo_inurba_marseille","lat":43.27206,"lon":5.39179,"is_reserved":false,"is_disabled":false,"rental_uris":{"android":"levelo://app?vid=b03d6000-0f41-4952-9864-a660b0194488","ios":"levelo://app?vid=b03d6000-0f41-4952-9864-a660b0194488"},"vehicle_type_id":"4","last_reported":1737893688,"current_range_meters":6800,"station_id":"ce4bhhp2rcd13ifvqfm0","pricing_plan_id":"cebpf4jnsgd1na2vs0mg"},{"bike_id":"f3d632ae-39fa-4c9b-850e-9a79d0cb959c","system_id":"levelo_inurba_marseille","lat":43.24804,"lon":5.37453,"is_reserved":false,"is_disabled":false,"rental_uris":{"android":"levelo://app?vid=f3d632ae-39fa-4c9b-850e-9a79d0cb959c","ios":"levelo://app?vid=f3d632ae-39fa-4c9b-850e-9a79d0cb959c"},"vehicle_type_id":"4","last_reported":1737893688,"current_range_meters":24400,"station_id":"ce4bhgh2rcd13ifvqfb0","pricing_plan_id":"cebpf4jnsgd1na2vs0mg"},{"bike_id":"dcf9d711-ba99-4755-b27f-9c85313f69fe","system_id":"levelo_inurba_marseille","lat":43.2841,"lon":5.3499,"is_reserved":false,"is_disabled":false,"rental_uris":{"android":"levelo://app?vid=dcf9d711-ba99-4755-b27f-9c85313f69fe","ios":"levelo://app?vid=dcf9d711-ba99-4755-b27f-9c85313f69fe"},"vehicle_type_id":"4","last_reported":1737893688,"current_range_meters":31200,"station_id":"ce4bhbh2rcd13ifvqepg","pricing_plan_id":"cebpf4jnsgd1na2vs0mg"},{"bike_id":"a8ebf96a-72c6-49a1-9891-ec74b107e794","system_id":"levelo_inurba_marseille","lat":43.23195,"lon":5.35547,"is_reserved":false,"is_disabled":false,"rental_uris":{"android":"levelo://app?vid=a8ebf96a-72c6-49a1-9891-ec74b107e794","ios":"levelo://app?vid=a8ebf96a-72c6-49a1-9891-ec74b107e794"},"vehicle_type_id":"4","last_reported":1737893688,"current_range_meters":16800,"station_id":"ce4bhu92rcd13ifvqi70","pricing_plan_id":"cebpf4jnsgd1na2vs0mg"},{"bike_id":"2d0d2073-d710-414b-b25b-4383422beed0","system_id":"levelo_inurba_marseille","lat":43.27985,"lon":5.41665,"is_reserved":false,"is_disabled":false,"rental_uris":{"android":"levelo://app?vid=2d0d2073-d710-414b-b25b-4383422beed0","ios":"levelo://app?vid=2d0d2073-d710-414b-b25b-4383422beed0"},"vehicle_type_id":"4","last_reported":1737893688,"current_range_meters":38800,"station_id":"ce4bho12rcd13ifvqh1g","pricing_plan_id":"cebpf4jnsgd1na2vs0mg"},{"bike_id":"53893159-1296-4aed-9fa8-45be978a80b2","system_id":"levelo_inurba_marseille","lat":43.24177,"lon":5.39735,"is_reserved":false,"is_disabled":false,"rental_uris":{"android":"levelo://app?vid=53893159-1296-4aed-9fa8-45be978a80b2","ios":"levelo://app?vid=53893159-1296-4aed-9fa8-45be978a80b2"},"vehicle_type_id":"4","last_reported":1737893688,"current_range_meters":17600,"station_id":"ce4bhn12rcd13ifvqgpg","pricing_plan_id":"cebpf4jnsgd1na2vs0mg"},{"bike_id":"09b3a993-b0f4-423e-b7ef-ca7f54ef70f8","system_id":"levelo_inurba_marseille","lat":43.307893,"lon":5.376487,"is_reserved":false,"is_disabled":false,"rental_uris":{"android":"levelo://app?vid=09b3a993-b0f4-423e-b7ef-ca7f54ef70f8","ios":"levelo://app?vid=09b3a993-b0f4-423e-b7ef-ca7f54ef70f8"},"vehicle_type_id":"4","last_reported":1737893688,"current_range_meters":38000,"station_id":"ce4bgv92rcd13ifvqcq0","pricing_plan_id":"cebpf4jnsgd1na2vs0mg"},{"bike_id":"4ccbf077-b469-4332-be13-30a0efa27f35","system_id":"levelo_inurba_marseille","lat":43.27057,"lon":5.40255,"is_reserved":false,"is_disabled":false,"rental_uris":{"android":"levelo://app?vid=4ccbf077-b469-4332-be13-30a0efa27f35","ios":"levelo://app?vid=4ccbf077-b469-4332-be13-30a0efa27f35"},"vehicle_type_id":"4","last_reported":1737893688,"current_range_meters":7200,"station_id":"ce4bhk92rcd13ifvqgc0","pricing_plan_id":"cebpf4jnsgd1na2vs0mg"},{"bike_id":"e9bc701b-86ce-45d6-bb9e-c295f6ce732c","system_id":"levelo_inurba_marseille","lat":43.30645,"lon":5.40084,"is_reserved":false,"is_disabled":true,"rental_uris":{"android":"levelo://app?vid=e9bc701b-86ce-45d6-bb9e-c295f6ce732c","ios":"levelo://app?vid=e9bc701b-86ce-45d6-bb9e-c295f6ce732c"},"vehicle_type_id":"4","last_reported":1737893688,"current_range_meters":35600,"station_id":"ce4bh112rcd13ifvqda0","pricing_plan_id":"cebpf4jnsgd1na2vs0mg"},{"bike_id":"ebbb6dd1-ea2a-4b9e-a0fd-f2fc38df1042","system_id":"levelo_inurba_marseille","lat":43.25003,"lon":5.38944,"is_reserved":false,"is_disabled":true,"rental_uris":{"android":"levelo://app?vid=ebbb6dd1-ea2a-4b9e-a0fd-f2fc38df1042","ios":"levelo://app?vid=ebbb6dd1-ea2a-4b9e-a0fd-f2fc38df1042"},"vehicle_type_id":"4","last_reported":1737893688,"current_range_meters":38800,"station_id":"ce4bhgp2rcd13ifvqfd0","pricing_plan_id":"cebpf4jnsgd1na2vs0mg"},{"bike_id":"4e152df1-4a51-4476-9a45-d534d6af41dc","system_id":"levelo_inurba_marseille","lat":43.30146,"lon":5.3742,"is_reserved":false,"is_disabled":false,"rental_uris":{"android":"levelo://app?vid=4e152df1-4a51-4476-9a45-d534d6af41dc","ios":"levelo://app?vid=4e152df1-4a51-4476-9a45-d534d6af41dc"},"vehicle_type_id":"4","last_reported":1737893688,"current_range_meters":9200,"station_id":"ce4bgs92rcd13ifvqcc0","pricing_plan_id":"cebpf4jnsgd1na2vs0mg"},{"bike_id":"1443fb5e-0b40-40e5-94a9-9b083facf73a","system_id":"levelo_inurba_marseille","lat":43.30884,"lon":5.39661,"is_reserved":false,"is_disabled":false,"rental_uris":{"android":"levelo://app?vid=1443fb5e-0b40-40e5-94a9-9b083facf73a","ios":"levelo://app?vid=1443fb5e-0b40-40e5-94a9-9b083facf73a"},"vehicle_type_id":"4","last_reported":1737893688,"current_range_meters":21600,"station_id":"ce4bh012rcd13ifvqcv0","pricing_plan_id":"cebpf4jnsgd1na2vs0mg"},{"bike_id":"8b725177-651f-43e6-ad53-b47c0d241f8c","system_id":"levelo_inurba_marseille","lat":43.26825,"lon":5.39441,"is_reserved":false,"is_disabled":false,"rental_uris":{"android":"levelo://app?vid=8b725177-651f-43e6-ad53-b47c0d241f8c","ios":"levelo://app?vid=8b725177-651f-43e6-ad53-b47c0d241f8c"},"vehicle_type_id":"4","last_reported":1737893688,"current_range_meters":32800,"station_id":"ce4bhh12rcd13ifvqfg0","pricing_plan_id":"cebpf4jnsgd1na2vs0mg"},{"bike_id":"a585a9b5-dfad-4548-b7cf-f7b4672cde0a","system_id":"levelo_inurba_marseille","lat":43.30242,"lon":5.4008,"is_reserved":false,"is_disabled":false,"rental_uris":{"android":"levelo://app?vid=a585a9b5-dfad-4548-b7cf-f7b4672cde0a","ios":"levelo://app?vid=a585a9b5-dfad-4548-b7cf-f7b4672cde0a"},"vehicle_type_id":"4","last_reported":1737893688,"current_range_meters":39200,"station_id":"ce4bgvh2rcd13ifvqcs0","pricing_plan_id":"cebpf4jnsgd1na2vs0mg"},{"bike_id":"2912f582-1290-436d-a625-5ec226991db2","system_id":"levelo_inurba_marseille","lat":43.29617,"lon":5.37171,"is_reserved":false,"is_disabled":false,"rental_uris":{"android":"levelo://app?vid=2912f582-1290-436d-a625-5ec226991db2","ios":"levelo://app?vid=2912f582-1290-436d-a625-5ec226991db2"},"vehicle_type_id":"4","last_reported":1737893688,"current_range_meters":38800,"station_id":"ce4bgnh2rcd13ifvqc0g","pricing_plan_id":"cebpf4jnsgd1na2vs0mg"},{"bike_id":"6f20f9a6-b786-4af4-81af-ba59be1217ef","system_id":"levelo_inurba_marseille","lat":43.32001,"lon":5.38162,"is_reserved":false,"is_disabled":false,"rental_uris":{"android":"levelo://app?vid=6f20f9a6-b786-4af4-81af-ba59be1217ef","ios":"levelo://app?vid=6f20f9a6-b786-4af4-81af-ba59be1217ef"},"vehicle_type_id":"4","last_reported":1737893688,"current_range_meters":38400,"station_id":"ce4bhr12rcd13ifvqhpg","pricing_plan_id":"cebpf4jnsgd1na2vs0mg"},{"bike_id":"cefcd8c3-10ea-4497-95e8-7880b4b8a12b","system_id":"levelo_inurba_marseille","lat":43.24814,"lon":5.37446,"is_reserved":false,"is_disabled":false,"rental_uris":{"android":"levelo://app?vid=cefcd8c3-10ea-4497-95e8-7880b4b8a12b","ios":"levelo://app?vid=cefcd8c3-10ea-4497-95e8-7880b4b8a12b"},"vehicle_type_id":"4","last_reported":1737893688,"current_range_meters":32000,"station_id":"ce4bhgh2rcd13ifvqfb0","pricing_plan_id":"cebpf4jnsgd1na2vs0mg"},{"bike_id":"e88400e9-8c92-4316-bea9-56c1c974c030","system_id":"levelo_inurba_marseille","lat":43.302554,"lon":5.400832,"is_reserved":false,"is_disabled":false,"rental_uris":{"android":"levelo://app?vid=e88400e9-8c92-4316-bea9-56c1c974c030","ios":"levelo://app?vid=e88400e9-8c92-4316-bea9-56c1c974c030"},"vehicle_type_id":"4","last_reported":1737893688,"current_range_meters":36400,"station_id":"ce4bgvh2rcd13ifvqcs0","pricing_plan_id":"cebpf4jnsgd1na2vs0mg"},{"bike_id":"5d01d30a-8f08-4da7-ba9d-36f97507c308","system_id":"levelo_inurba_marseille","lat":43.23203,"lon":5.35555,"is_reserved":false,"is_disabled":false,"rental_uris":{"android":"levelo://app?vid=5d01d30a-8f08-4da7-ba9d-36f97507c308","ios":"levelo://app?vid=5d01d30a-8f08-4da7-ba9d-36f97507c308"},"vehicle_type_id":"4","last_reported":1737893688,"current_range_meters":24800,"station_id":"ce4bhu92rcd13ifvqi70","pricing_plan_id":"cebpf4jnsgd1na2vs0mg"},{"bike_id":"ce38d97c-05df-4dae-95c2-6861f124cdcb","system_id":"levelo_inurba_marseille","lat":43.29003,"lon":5.35613,"is_reserved":false,"is_disabled":false,"rental_uris":{"android":"levelo://app?vid=ce38d97c-05df-4dae-95c2-6861f124cdcb","ios":"levelo://app?vid=ce38d97c-05df-4dae-95c2-6861f124cdcb"},"vehicle_type_id":"4","last_reported":1737893688,"current_range_meters":26000,"station_id":"ce4bhb92rcd13ifvqen0","pricing_plan_id":"cebpf4jnsgd1na2vs0mg"},{"bike_id":"d54e7416-9133-47cb-bc55-3d590b1f98b8","system_id":"levelo_inurba_marseille","lat":43.28659,"lon":5.36362,"is_reserved":false,"is_disabled":true,"rental_uris":{"android":"levelo://app?vid=d54e7416-9133-47cb-bc55-3d590b1f98b8","ios":"levelo://app?vid=d54e7416-9133-47cb-bc55-3d590b1f98b8"},"vehicle_type_id":"4","last_reported":1737893688,"current_range_meters":0,"station_id":"ce4bhah2rcd13ifvqej0","pricing_plan_id":"cebpf4jnsgd1na2vs0mg"},{"bike_id":"e913bd84-19f8-4e2f-84d1-a869140e8e88","system_id":"levelo_inurba_marseille","lat":43.30182,"lon":5.36626,"is_reserved":false,"is_disabled":false,"rental_uris":{"android":"levelo://app?vid=e913bd84-19f8-4e2f-84d1-a869140e8e88","ios":"levelo://app?vid=e913bd84-19f8-4e2f-84d1-a869140e8e88"},"vehicle_type_id":"4","last_reported":1737893688,"current_range_meters":28800,"station_id":"ce4bgrh2rcd13ifvqc8g","pricing_plan_id":"cebpf4jnsgd1na2vs0mg"},{"bike_id":"e7b5364d-47e7-45d1-bfb6-e29107864918","system_id":"levelo_inurba_marseille","lat":43.29887,"lon":5.43662,"is_reserved":false,"is_disabled":false,"rental_uris":{"android":"levelo://app?vid=e7b5364d-47e7-45d1-bfb6-e29107864918","ios":"levelo://app?vid=e7b5364d-47e7-45d1-bfb6-e29107864918"},"vehicle_type_id":"4","last_reported":1737893688,"current_range_meters":8800,"station_id":"ce4bhpp2rcd13ifvqhfg","pricing_plan_id":"cebpf4jnsgd1na2vs0mg"},{"bike_id":"24282da7-04e9-451e-ad7e-9cbd59ac2553","system_id":"levelo_inurba_marseille","lat":43.30901,"lon":5.37186,"is_reserved":false,"is_disabled":false,"rental_uris":{"android":"levelo://app?vid=24282da7-04e9-451e-ad7e-9cbd59ac2553","ios":"levelo://app?vid=24282da7-04e9-451e-ad7e-9cbd59ac2553"},"vehicle_type_id":"4","last_reported":1737893688,"current_range_meters":20400,"station_id":"ce4bguh2rcd13ifvqckg","pricing_plan_id":"cebpf4jnsgd1na2vs0mg"},{"bike_id":"1c35c755-8b1c-439e-8798-f1a001a3969d","system_id":"levelo_inurba_marseille","lat":43.28027,"lon":5.38427,"is_reserved":false,"is_disabled":true,"rental_uris":{"android":"levelo://app?vid=1c35c755-8b1c-439e-8798-f1a001a3969d","ios":"levelo://app?vid=1c35c755-8b1c-439e-8798-f1a001a3969d"},"vehicle_type_id":"4","last_reported":1737893688,"current_range_meters":0,"station_id":"ce4bha12rcd13ifvqee0","pricing_plan_id":"cebpf4jnsgd1na2vs0mg"},{"bike_id":"b2376c1c-6bab-4134-870f-d3a1be44d849","system_id":"levelo_inurba_marseille","lat":43.30883,"lon":5.39657,"is_reserved":false,"is_disabled":false,"rental_uris":{"android":"levelo://app?vid=b2376c1c-6bab-4134-870f-d3a1be44d849","ios":"levelo://app?vid=b2376c1c-6bab-4134-870f-d3a1be44d849"},"vehicle_type_id":"4","last_reported":1737893688,"current_range_meters":16400,"station_id":"ce4bh012rcd13ifvqcv0","pricing_plan_id":"cebpf4jnsgd1na2vs0mg"},{"bike_id":"f786b634-1b37-45bf-8fa7-de5cc47b608c","system_id":"levelo_inurba_marseille","lat":43.28359,"lon":5.38111,"is_reserved":false,"is_disabled":false,"rental_uris":{"android":"levelo://app?vid=f786b634-1b37-45bf-8fa7-de5cc47b608c","ios":"levelo://app?vid=f786b634-1b37-45bf-8fa7-de5cc47b608c"},"vehicle_type_id":"4","last_reported":1737893688,"current_range_meters":22400,"station_id":"ce4bh412rcd13ifvqdr0","pricing_plan_id":"cebpf4jnsgd1na2vs0mg"},{"bike_id":"884f4337-debb-4f4e-9ffb-854d7bf11416","system_id":"levelo_inurba_marseille","lat":43.317406,"lon":5.389757,"is_reserved":false,"is_disabled":false,"rental_uris":{"android":"levelo://app?vid=884f4337-debb-4f4e-9ffb-854d7bf11416","ios":"levelo://app?vid=884f4337-debb-4f4e-9ffb-854d7bf11416"},"vehicle_type_id":"4","last_reported":1737893688,"current_range_meters":38400,"station_id":"ce4bhqp2rcd13ifvqhng","pricing_plan_id":"cebpf4jnsgd1na2vs0mg"},{"bike_id":"41a5fe36-0784-4da6-b041-56cd8adaa061","system_id":"levelo_inurba_marseille","lat":43.29569,"lon":5.37524,"is_reserved":false,"is_disabled":false,"rental_uris":{"android":"levelo://app?vid=41a5fe36-0784-4da6-b041-56cd8adaa061","ios":"levelo://app?vid=41a5fe36-0784-4da6-b041-56cd8adaa061"},"vehicle_type_id":"4","last_reported":1737893688,"current_range_meters":30800,"station_id":"ce4bgh92rcd13ifvqb50","pricing_plan_id":"cebpf4jnsgd1na2vs0mg"},{"bike_id":"f449d01f-cde9-4e06-8134-443d9b565a07","system_id":"levelo_inurba_marseille","lat":43.31073,"lon":5.38354,"is_reserved":false,"is_disabled":false,"rental_uris":{"android":"levelo://app?vid=f449d01f-cde9-4e06-8134-443d9b565a07","ios":"levelo://app?vid=f449d01f-cde9-4e06-8134-443d9b565a07"},"vehicle_type_id":"4","last_reported":1737893688,"current_range_meters":31200,"station_id":"ce4bgv92rcd13ifvqcr0","pricing_plan_id":"cebpf4jnsgd1na2vs0mg"},{"bike_id":"b96c22ba-a4c6-4ca8-b881-a2a2972e9bc2","system_id":"levelo_inurba_marseille","lat":43.26017,"lon":5.37607,"is_reserved":false,"is_disabled":true,"rental_uris":{"android":"levelo://app?vid=b96c22ba-a4c6-4ca8-b881-a2a2972e9bc2","ios":"levelo://app?vid=b96c22ba-a4c6-4ca8-b881-a2a2972e9bc2"},"vehicle_type_id":"4","last_reported":1737893688,"current_range_meters":32400,"station_id":"","pricing_plan_id":"cebpf4jnsgd1na2vs0mg"},{"bike_id":"485cbd1a-d0c5-4e75-b546-fd083fb2d58e","system_id":"levelo_inurba_marseille","lat":43.28618,"lon":5.35103,"is_reserved":false,"is_disabled":false,"rental_uris":{"android":"levelo://app?vid=485cbd1a-d0c5-4e75-b546-fd083fb2d58e","ios":"levelo://app?vid=485cbd1a-d0c5-4e75-b546-fd083fb2d58e"},"vehicle_type_id":"4","last_reported":1737893688,"current_range_meters":8800,"station_id":"ce4bhch2rcd13ifvqeug","pricing_plan_id":"cebpf4jnsgd1na2vs0mg"},{"bike_id":"a0197b34-0c71-4348-a85c-357ca99a2b75","system_id":"levelo_inurba_marseille","lat":43.26062,"lon":5.39396,"is_reserved":false,"is_disabled":false,"rental_uris":{"android":"levelo://app?vid=a0197b34-0c71-4348-a85c-357ca99a2b75","ios":"levelo://app?vid=a0197b34-0c71-4348-a85c-357ca99a2b75"},"vehicle_type_id":"4","last_reported":1737893688,"current_range_meters":9600,"station_id":"ce4bhh92rcd13ifvqfj0","pricing_plan_id":"cebpf4jnsgd1na2vs0mg"},{"bike_id":"51adf815-3e2b-4809-811a-15ec0cf3b375","system_id":"levelo_inurba_marseille","lat":43.28462,"lon":5.35893,"is_reserved":false,"is_disabled":false,"rental_uris":{"android":"levelo://app?vid=51adf815-3e2b-4809-811a-15ec0cf3b375","ios":"levelo://app?vid=51adf815-3e2b-4809-811a-15ec0cf3b375"},"vehicle_type_id":"4","last_reported":1737893688,"current_range_meters":16400,"station_id":"ce4bhah2rcd13ifvqei0","pricing_plan_id":"cebpf4jnsgd1na2vs0mg"},{"bike_id":"dcb50635-0e5e-4da9-b4df-329e73a63f8f","system_id":"levelo_inurba_marseille","lat":43.24172,"lon":5.39736,"is_reserved":false,"is_disabled":false,"rental_uris":{"android":"levelo://app?vid=dcb50635-0e5e-4da9-b4df-329e73a63f8f","ios":"levelo://app?vid=dcb50635-0e5e-4da9-b4df-329e73a63f8f"},"vehicle_type_id":"4","last_reported":1737893688,"current_range_meters":27600,"station_id":"ce4bhn12rcd13ifvqgpg","pricing_plan_id":"cebpf4jnsgd1na2vs0mg"},{"bike_id":"98a2cb10-0f11-4a3f-b5c2-fb63add72da7","system_id":"levelo_inurba_marseille","lat":43.23197,"lon":5.35554,"is_reserved":false,"is_disabled":false,"rental_uris":{"android":"levelo://app?vid=98a2cb10-0f11-4a3f-b5c2-fb63add72da7","ios":"levelo://app?vid=98a2cb10-0f11-4a3f-b5c2-fb63add72da7"},"vehicle_type_id":"4","last_reported":1737893688,"current_range_meters":29600,"station_id":"ce4bhu92rcd13ifvqi70","pricing_plan_id":"cebpf4jnsgd1na2vs0mg"},{"bike_id":"1346ff93-9ddb-4093-aa5d-b6cb09dfef3c","system_id":"levelo_inurba_marseille","lat":43.284749,"lon":5.368129,"is_reserved":false,"is_disabled":true,"rental_uris":{"android":"levelo://app?vid=1346ff93-9ddb-4093-aa5d-b6cb09dfef3c","ios":"levelo://app?vid=1346ff93-9ddb-4093-aa5d-b6cb09dfef3c"},"vehicle_type_id":"4","last_reported":1737893688,"current_range_meters":0,"station_id":"","pricing_plan_id":"cebpf4jnsgd1na2vs0mg"},{"bike_id":"3266850a-5ee3-4db4-ad76-b3cc25a45b79","system_id":"levelo_inurba_marseille","lat":43.32684,"lon":5.40993,"is_reserved":false,"is_disabled":false,"rental_uris":{"android":"levelo://app?vid=3266850a-5ee3-4db4-ad76-b3cc25a45b79","ios":"levelo://app?vid=3266850a-5ee3-4db4-ad76-b3cc25a45b79"},"vehicle_type_id":"4","last_reported":1737893688,"current_range_meters":36800,"station_id":"ce4bhpp2rcd13ifvqhgg","pricing_plan_id":"cebpf4jnsgd1na2vs0mg"},{"bike_id":"6cee621e-f9ce-4bb3-899c-eb3b501313a8","system_id":"levelo_inurba_marseille","lat":43.24983,"lon":5.38927,"is_reserved":false,"is_disabled":false,"rental_uris":{"android":"levelo://app?vid=6cee621e-f9ce-4bb3-899c-eb3b501313a8","ios":"levelo://app?vid=6cee621e-f9ce-4bb3-899c-eb3b501313a8"},"vehicle_type_id":"4","last_reported":1737893688,"current_range_meters":36400,"station_id":"ce4bhgp2rcd13ifvqfd0","pricing_plan_id":"cebpf4jnsgd1na2vs0mg"},{"bike_id":"cff6a491-5284-4b58-81b6-6f262d74c4a9","system_id":"levelo_inurba_marseille","lat":43.27812,"lon":5.40737,"is_reserved":false,"is_disabled":false,"rental_uris":{"android":"levelo://app?vid=cff6a491-5284-4b58-81b6-6f262d74c4a9","ios":"levelo://app?vid=cff6a491-5284-4b58-81b6-6f262d74c4a9"},"vehicle_type_id":"4","last_reported":1737893688,"current_range_meters":38800,"station_id":"ce4bhnh2rcd13ifvqgtg","pricing_plan_id":"cebpf4jnsgd1na2vs0mg"},{"bike_id":"7c3a1add-fa1a-44e9-b210-58865ab9c863","system_id":"levelo_inurba_marseille","lat":43.32097,"lon":5.36772,"is_reserved":false,"is_disabled":false,"rental_uris":{"android":"levelo://app?vid=7c3a1add-fa1a-44e9-b210-58865ab9c863","ios":"levelo://app?vid=7c3a1add-fa1a-44e9-b210-58865ab9c863"},"vehicle_type_id":"4","last_reported":1737893688,"current_range_meters":28800,"station_id":"ce4bhrh2rcd13ifvqhug","pricing_plan_id":"cebpf4jnsgd1na2vs0mg"},{"bike_id":"5658bf19-5e40-4edf-ac7a-3999a5207afd","system_id":"levelo_inurba_marseille","lat":43.232,"lon":5.35549,"is_reserved":false,"is_disabled":false,"rental_uris":{"android":"levelo://app?vid=5658bf19-5e40-4edf-ac7a-3999a5207afd","ios":"levelo://app?vid=5658bf19-5e40-4edf-ac7a-3999a5207afd"},"vehicle_type_id":"4","last_reported":1737893688,"current_range_meters":38800,"station_id":"ce4bhu92rcd13ifvqi70","pricing_plan_id":"cebpf4jnsgd1na2vs0mg"},{"bike_id":"b01b0706-3a3a-4ff1-ac0d-6b17e48eff7a","system_id":"levelo_inurba_marseille","lat":43.23191,"lon":5.3553,"is_reserved":false,"is_disabled":true,"rental_uris":{"android":"levelo://app?vid=b01b0706-3a3a-4ff1-ac0d-6b17e48eff7a","ios":"levelo://app?vid=b01b0706-3a3a-4ff1-ac0d-6b17e48eff7a"},"vehicle_type_id":"4","last_reported":1737893688,"current_range_meters":0,"station_id":"ce4bhu92rcd13ifvqi70","pricing_plan_id":"cebpf4jnsgd1na2vs0mg"},{"bike_id":"35422ebd-a2cf-42b2-9801-6e7f91d03f6b","system_id":"levelo_inurba_marseille","lat":43.28403,"lon":5.34995,"is_reserved":false,"is_disabled":false,"rental_uris":{"android":"levelo://app?vid=35422ebd-a2cf-42b2-9801-6e7f91d03f6b","ios":"levelo://app?vid=35422ebd-a2cf-42b2-9801-6e7f91d03f6b"},"vehicle_type_id":"4","last_reported":1737893688,"current_range_meters":36800,"station_id":"ce4bhbh2rcd13ifvqepg","pricing_plan_id":"cebpf4jnsgd1na2vs0mg"},{"bike_id":"c9324c64-4c4d-481d-a82c-777a9a5408cf","system_id":"levelo_inurba_marseille","lat":43.30145,"lon":5.38076,"is_reserved":false,"is_disabled":false,"rental_uris":{"android":"levelo://app?vid=c9324c64-4c4d-481d-a82c-777a9a5408cf","ios":"levelo://app?vid=c9324c64-4c4d-481d-a82c-777a9a5408cf"},"vehicle_type_id":"4","last_reported":1737893688,"current_range_meters":27200,"station_id":"ce4bgjp2rcd13ifvqbh0","pricing_plan_id":"cebpf4jnsgd1na2vs0mg"},{"bike_id":"66743e23-0594-4715-a08c-22434e1ddfd8","system_id":"levelo_inurba_marseille","lat":43.28015,"lon":5.41231,"is_reserved":false,"is_disabled":false,"rental_uris":{"android":"levelo://app?vid=66743e23-0594-4715-a08c-22434e1ddfd8","ios":"levelo://app?vid=66743e23-0594-4715-a08c-22434e1ddfd8"},"vehicle_type_id":"4","last_reported":1737893688,"current_range_meters":31200,"station_id":"","pricing_plan_id":"cebpf4jnsgd1na2vs0mg"},{"bike_id":"82268c69-bcd8-49fb-91ea-6277b4711aa7","system_id":"levelo_inurba_marseille","lat":43.25553,"lon":5.39788,"is_reserved":false,"is_disabled":false,"rental_uris":{"android":"levelo://app?vid=82268c69-bcd8-49fb-91ea-6277b4711aa7","ios":"levelo://app?vid=82268c69-bcd8-49fb-91ea-6277b4711aa7"},"vehicle_type_id":"4","last_reported":1737893688,"current_range_meters":29600,"station_id":"","pricing_plan_id":"cebpf4jnsgd1na2vs0mg"},{"bike_id":"adfa4f1f-9f94-47fd-9088-5952e32d699d","system_id":"levelo_inurba_marseille","lat":43.26202,"lon":5.37927,"is_reserved":false,"is_disabled":false,"rental_uris":{"android":"levelo://app?vid=adfa4f1f-9f94-47fd-9088-5952e32d699d","ios":"levelo://app?vid=adfa4f1f-9f94-47fd-9088-5952e32d699d"},"vehicle_type_id":"4","last_reported":1737893688,"current_range_meters":18000,"station_id":"ce4bhjp2rcd13ifvqg90","pricing_plan_id":"cebpf4jnsgd1na2vs0mg"},{"bike_id":"4f3aa407-8754-4e52-b1ac-a45a6af013fe","system_id":"levelo_inurba_marseille","lat":43.24074,"lon":5.37765,"is_reserved":false,"is_disabled":false,"rental_uris":{"android":"levelo://app?vid=4f3aa407-8754-4e52-b1ac-a45a6af013fe","ios":"levelo://app?vid=4f3aa407-8754-4e52-b1ac-a45a6af013fe"},"vehicle_type_id":"4","last_reported":1737893688,"current_range_meters":35600,"station_id":"ce4bhnp2rcd13ifvqgvg","pricing_plan_id":"cebpf4jnsgd1na2vs0mg"},{"bike_id":"cbefa6fa-60b6-4f2e-9de1-cf9c930b9ae2","system_id":"levelo_inurba_marseille","lat":43.26557,"lon":5.3904,"is_reserved":false,"is_disabled":false,"rental_uris":{"android":"levelo://app?vid=cbefa6fa-60b6-4f2e-9de1-cf9c930b9ae2","ios":"levelo://app?vid=cbefa6fa-60b6-4f2e-9de1-cf9c930b9ae2"},"vehicle_type_id":"4","last_reported":1737893688,"current_range_meters":10800,"station_id":"ce4bhe12rcd13ifvqf30","pricing_plan_id":"cebpf4jnsgd1na2vs0mg"},{"bike_id":"79bc66a4-aeed-4eda-a560-099c58d7dbf9","system_id":"levelo_inurba_marseille","lat":43.31499,"lon":5.37309,"is_reserved":false,"is_disabled":true,"rental_uris":{"android":"levelo://app?vid=79bc66a4-aeed-4eda-a560-099c58d7dbf9","ios":"levelo://app?vid=79bc66a4-aeed-4eda-a560-099c58d7dbf9"},"vehicle_type_id":"4","last_reported":1737893688,"current_range_meters":16000,"station_id":"ce4bgt12rcd13ifvqcd0","pricing_plan_id":"cebpf4jnsgd1na2vs0mg"},{"bike_id":"10b1a047-be93-49dc-bba5-67085f222023","system_id":"levelo_inurba_marseille","lat":43.25579,"lon":5.38251,"is_reserved":false,"is_disabled":false,"rental_uris":{"android":"levelo://app?vid=10b1a047-be93-49dc-bba5-67085f222023","ios":"levelo://app?vid=10b1a047-be93-49dc-bba5-67085f222023"},"vehicle_type_id":"4","last_reported":1737893688,"current_range_meters":16800,"station_id":"ce4bhih2rcd13ifvqfs0","pricing_plan_id":"cebpf4jnsgd1na2vs0mg"},{"bike_id":"4b5a5088-a688-485b-824e-9d0ab741f8be","system_id":"levelo_inurba_marseille","lat":43.23186,"lon":5.40005,"is_reserved":false,"is_disabled":false,"rental_uris":{"android":"levelo://app?vid=4b5a5088-a688-485b-824e-9d0ab741f8be","ios":"levelo://app?vid=4b5a5088-a688-485b-824e-9d0ab741f8be"},"vehicle_type_id":"4","last_reported":1737893688,"current_range_meters":38800,"station_id":"ce4bhn12rcd13ifvqgqg","pricing_plan_id":"cebpf4jnsgd1na2vs0mg"},{"bike_id":"612cdb80-e2cc-4b64-a057-2821874f17be","system_id":"levelo_inurba_marseille","lat":43.323403,"lon":5.406143,"is_reserved":false,"is_disabled":false,"rental_uris":{"android":"levelo://app?vid=612cdb80-e2cc-4b64-a057-2821874f17be","ios":"levelo://app?vid=612cdb80-e2cc-4b64-a057-2821874f17be"},"vehicle_type_id":"4","last_reported":1737893688,"current_range_meters":39200,"station_id":"ce4bhq92rcd13ifvqhjg","pricing_plan_id":"cebpf4jnsgd1na2vs0mg"},{"bike_id":"14549f3c-9b93-4dce-b64e-10da7e275aeb","system_id":"levelo_inurba_marseille","lat":43.31506,"lon":5.3749,"is_reserved":false,"is_disabled":false,"rental_uris":{"android":"levelo://app?vid=14549f3c-9b93-4dce-b64e-10da7e275aeb","ios":"levelo://app?vid=14549f3c-9b93-4dce-b64e-10da7e275aeb"},"vehicle_type_id":"4","last_reported":1737893688,"current_range_meters":32800,"station_id":"","pricing_plan_id":"cebpf4jnsgd1na2vs0mg"},{"bike_id":"e84ea28d-d6c1-4a23-bfa5-fecf89bc2a9f","system_id":"levelo_inurba_marseille","lat":43.32481,"lon":5.36555,"is_reserved":false,"is_disabled":false,"rental_uris":{"android":"levelo://app?vid=e84ea28d-d6c1-4a23-bfa5-fecf89bc2a9f","ios":"levelo://app?vid=e84ea28d-d6c1-4a23-bfa5-fecf89bc2a9f"},"vehicle_type_id":"4","last_reported":1737893688,"current_range_meters":31200,"station_id":"ce4bhs12rcd13ifvqhvg","pricing_plan_id":"cebpf4jnsgd1na2vs0mg"},{"bike_id":"dafec449-6f01-4925-8e56-6c965195a730","system_id":"levelo_inurba_marseille","lat":43.29611,"lon":5.37726,"is_reserved":false,"is_disabled":false,"rental_uris":{"android":"levelo://app?vid=dafec449-6f01-4925-8e56-6c965195a730","ios":"levelo://app?vid=dafec449-6f01-4925-8e56-6c965195a730"},"vehicle_type_id":"4","last_reported":1737893688,"current_range_meters":32800,"station_id":"ce4bgi92rcd13ifvqb90","pricing_plan_id":"cebpf4jnsgd1na2vs0mg"},{"bike_id":"57823e25-308b-4f11-a2b6-a7f52902c1c5","system_id":"levelo_inurba_marseille","lat":43.30815,"lon":5.38182,"is_reserved":false,"is_disabled":true,"rental_uris":{"android":"levelo://app?vid=57823e25-308b-4f11-a2b6-a7f52902c1c5","ios":"levelo://app?vid=57823e25-308b-4f11-a2b6-a7f52902c1c5"},"vehicle_type_id":"4","last_reported":1737893688,"current_range_meters":20800,"station_id":"ce4bgt12rcd13ifvqce0","pricing_plan_id":"cebpf4jnsgd1na2vs0mg"},{"bike_id":"ff68af14-5554-4f8d-a3de-4549d987f602","system_id":"levelo_inurba_marseille","lat":43.29891,"lon":5.43677,"is_reserved":false,"is_disabled":false,"rental_uris":{"android":"levelo://app?vid=ff68af14-5554-4f8d-a3de-4549d987f602","ios":"levelo://app?vid=ff68af14-5554-4f8d-a3de-4549d987f602"},"vehicle_type_id":"4","last_reported":1737893688,"current_range_meters":8400,"station_id":"ce4bhpp2rcd13ifvqhfg","pricing_plan_id":"cebpf4jnsgd1na2vs0mg"},{"bike_id":"68b28b90-d9d5-4ef4-9d96-79b28519ebc3","system_id":"levelo_inurba_marseille","lat":43.27173,"lon":5.40995,"is_reserved":false,"is_disabled":false,"rental_uris":{"android":"levelo://app?vid=68b28b90-d9d5-4ef4-9d96-79b28519ebc3","ios":"levelo://app?vid=68b28b90-d9d5-4ef4-9d96-79b28519ebc3"},"vehicle_type_id":"4","last_reported":1737893688,"current_range_meters":38800,"station_id":"ce4bhl12rcd13ifvqgf0","pricing_plan_id":"cebpf4jnsgd1na2vs0mg"},{"bike_id":"787fabc3-eb91-469a-81b6-44a6fdcc4a9b","system_id":"levelo_inurba_marseille","lat":43.23071,"lon":5.35523,"is_reserved":false,"is_disabled":false,"rental_uris":{"android":"levelo://app?vid=787fabc3-eb91-469a-81b6-44a6fdcc4a9b","ios":"levelo://app?vid=787fabc3-eb91-469a-81b6-44a6fdcc4a9b"},"vehicle_type_id":"4","last_reported":1737893688,"current_range_meters":37600,"station_id":"cpo3342slgdg3j2ifvpg","pricing_plan_id":"cebpf4jnsgd1na2vs0mg"},{"bike_id":"e78c1169-47c8-4567-972b-d01ea79ea5f0","system_id":"levelo_inurba_marseille","lat":43.32473,"lon":5.36543,"is_reserved":false,"is_disabled":false,"rental_uris":{"android":"levelo://app?vid=e78c1169-47c8-4567-972b-d01ea79ea5f0","ios":"levelo://app?vid=e78c1169-47c8-4567-972b-d01ea79ea5f0"},"vehicle_type_id":"4","last_reported":1737893688,"current_range_meters":13600,"station_id":"ce4bhs12rcd13ifvqhvg","pricing_plan_id":"cebpf4jnsgd1na2vs0mg"},{"bike_id":"f1d6acc9-f981-4077-9bb4-6c21ab88bc70","system_id":"levelo_inurba_marseille","lat":43.29195,"lon":5.3581,"is_reserved":false,"is_disabled":false,"rental_uris":{"android":"levelo://app?vid=f1d6acc9-f981-4077-9bb4-6c21ab88bc70","ios":"levelo://app?vid=f1d6acc9-f981-4077-9bb4-6c21ab88bc70"},"vehicle_type_id":"4","last_reported":1737893688,"current_range_meters":38000,"station_id":"ce4bhb12rcd13ifvqel0","pricing_plan_id":"cebpf4jnsgd1na2vs0mg"},{"bike_id":"1e328aaf-06e5-4767-a395-a9b21576497f","system_id":"levelo_inurba_marseille","lat":43.29762,"lon":5.37122,"is_reserved":false,"is_disabled":true,"rental_uris":{"android":"levelo://app?vid=1e328aaf-06e5-4767-a395-a9b21576497f","ios":"levelo://app?vid=1e328aaf-06e5-4767-a395-a9b21576497f"},"vehicle_type_id":"4","last_reported":1737893688,"current_range_meters":18000,"station_id":"ce4bgop2rcd13ifvqc1g","pricing_plan_id":"cebpf4jnsgd1na2vs0mg"},{"bike_id":"0d3d372f-af99-4896-b902-8e06a6c302f8","system_id":"levelo_inurba_marseille","lat":43.27375,"lon":5.36257,"is_reserved":false,"is_disabled":false,"rental_uris":{"android":"levelo://app?vid=0d3d372f-af99-4896-b902-8e06a6c302f8","ios":"levelo://app?vid=0d3d372f-af99-4896-b902-8e06a6c302f8"},"vehicle_type_id":"4","last_reported":1737893688,"current_range_meters":39200,"station_id":"ce4bhbh2rcd13ifvqeo0","pricing_plan_id":"cebpf4jnsgd1na2vs0mg"},{"bike_id":"7facede7-71a3-4129-a1f3-f8692190d63d","system_id":"levelo_inurba_marseille","lat":43.32441,"lon":5.36595,"is_reserved":false,"is_disabled":false,"rental_uris":{"android":"levelo://app?vid=7facede7-71a3-4129-a1f3-f8692190d63d","ios":"levelo://app?vid=7facede7-71a3-4129-a1f3-f8692190d63d"},"vehicle_type_id":"4","last_reported":1737893688,"current_range_meters":19200,"station_id":"","pricing_plan_id":"cebpf4jnsgd1na2vs0mg"},{"bike_id":"6cb85097-e0aa-4066-a346-3afe34bfdb4c","system_id":"levelo_inurba_marseille","lat":43.30546,"lon":5.36531,"is_reserved":false,"is_disabled":false,"rental_uris":{"android":"levelo://app?vid=6cb85097-e0aa-4066-a346-3afe34bfdb4c","ios":"levelo://app?vid=6cb85097-e0aa-4066-a346-3afe34bfdb4c"},"vehicle_type_id":"4","last_reported":1737893688,"current_range_meters":32000,"station_id":"ce4bgs12rcd13ifvqcag","pricing_plan_id":"cebpf4jnsgd1na2vs0mg"},{"bike_id":"498ec3fe-53c3-421d-b9ea-1e3adf65603a","system_id":"levelo_inurba_marseille","lat":43.30095,"lon":5.39081,"is_reserved":false,"is_disabled":false,"rental_uris":{"android":"levelo://app?vid=498ec3fe-53c3-421d-b9ea-1e3adf65603a","ios":"levelo://app?vid=498ec3fe-53c3-421d-b9ea-1e3adf65603a"},"vehicle_type_id":"4","last_reported":1737893688,"current_range_meters":20800,"station_id":"","pricing_plan_id":"cebpf4jnsgd1na2vs0mg"},{"bike_id":"ab6a9684-1b72-4041-8bd6-e6521cc25d15","system_id":"levelo_inurba_marseille","lat":43.30129,"lon":5.39875,"is_reserved":false,"is_disabled":false,"rental_uris":{"android":"levelo://app?vid=ab6a9684-1b72-4041-8bd6-e6521cc25d15","ios":"levelo://app?vid=ab6a9684-1b72-4041-8bd6-e6521cc25d15"},"vehicle_type_id":"4","last_reported":1737893688,"current_range_meters":22400,"station_id":"ce4bh0h2rcd13ifvqd40","pricing_plan_id":"cebpf4jnsgd1na2vs0mg"},{"bike_id":"9dfebde1-25e4-4d42-95ff-1de403b41221","system_id":"levelo_inurba_marseille","lat":43.28921,"lon":5.36641,"is_reserved":false,"is_disabled":true,"rental_uris":{"android":"levelo://app?vid=9dfebde1-25e4-4d42-95ff-1de403b41221","ios":"levelo://app?vid=9dfebde1-25e4-4d42-95ff-1de403b41221"},"vehicle_type_id":"4","last_reported":1737893688,"current_range_meters":0,"station_id":"ce4bhap2rcd13ifvqek0","pricing_plan_id":"cebpf4jnsgd1na2vs0mg"},{"bike_id":"97c0f59e-575e-4f10-a51b-15c4d796a792","system_id":"levelo_inurba_marseille","lat":43.30947,"lon":5.39036,"is_reserved":false,"is_disabled":true,"rental_uris":{"android":"levelo://app?vid=97c0f59e-575e-4f10-a51b-15c4d796a792","ios":"levelo://app?vid=97c0f59e-575e-4f10-a51b-15c4d796a792"},"vehicle_type_id":"4","last_reported":1737893688,"current_range_meters":0,"station_id":"ce4bgkh2rcd13ifvqbk0","pricing_plan_id":"cebpf4jnsgd1na2vs0mg"},{"bike_id":"a7fcc53e-6f14-41c5-8b6d-25ab86bedc5f","system_id":"levelo_inurba_marseille","lat":43.29031,"lon":5.38658,"is_reserved":false,"is_disabled":true,"rental_uris":{"android":"levelo://app?vid=a7fcc53e-6f14-41c5-8b6d-25ab86bedc5f","ios":"levelo://app?vid=a7fcc53e-6f14-41c5-8b6d-25ab86bedc5f"},"vehicle_type_id":"4","last_reported":1737893688,"current_range_meters":31200,"station_id":"ce4bh4p2rcd13ifvqe0g","pricing_plan_id":"cebpf4jnsgd1na2vs0mg"},{"bike_id":"03cfeb2a-ce31-483a-be69-826132ecd719","system_id":"levelo_inurba_marseille","lat":43.25814,"lon":5.3943,"is_reserved":false,"is_disabled":false,"rental_uris":{"android":"levelo://app?vid=03cfeb2a-ce31-483a-be69-826132ecd719","ios":"levelo://app?vid=03cfeb2a-ce31-483a-be69-826132ecd719"},"vehicle_type_id":"4","last_reported":1737893688,"current_range_meters":30800,"station_id":"ce4bhip2rcd13ifvqft0","pricing_plan_id":"cebpf4jnsgd1na2vs0mg"},{"bike_id":"035327b0-1051-463a-856f-659dfccf59a0","system_id":"levelo_inurba_marseille","lat":43.30464,"lon":5.37898,"is_reserved":false,"is_disabled":false,"rental_uris":{"android":"levelo://app?vid=035327b0-1051-463a-856f-659dfccf59a0","ios":"levelo://app?vid=035327b0-1051-463a-856f-659dfccf59a0"},"vehicle_type_id":"4","last_reported":1737893688,"current_range_meters":23200,"station_id":"ce4bgup2rcd13ifvqcn0","pricing_plan_id":"cebpf4jnsgd1na2vs0mg"},{"bike_id":"13e11421-4f29-4395-84aa-513663a9b6f8","system_id":"levelo_inurba_marseille","lat":43.27626,"lon":5.36118,"is_reserved":false,"is_disabled":false,"rental_uris":{"android":"levelo://app?vid=13e11421-4f29-4395-84aa-513663a9b6f8","ios":"levelo://app?vid=13e11421-4f29-4395-84aa-513663a9b6f8"},"vehicle_type_id":"4","last_reported":1737893688,"current_range_meters":37600,"station_id":"ce4bgj92rcd13ifvqbe0","pricing_plan_id":"cebpf4jnsgd1na2vs0mg"},{"bike_id":"42b84b83-a007-432b-942c-d0f972c3135f","system_id":"levelo_inurba_marseille","lat":43.24081,"lon":5.37758,"is_reserved":false,"is_disabled":false,"rental_uris":{"android":"levelo://app?vid=42b84b83-a007-432b-942c-d0f972c3135f","ios":"levelo://app?vid=42b84b83-a007-432b-942c-d0f972c3135f"},"vehicle_type_id":"4","last_reported":1737893688,"current_range_meters":10800,"station_id":"ce4bhnp2rcd13ifvqgvg","pricing_plan_id":"cebpf4jnsgd1na2vs0mg"},{"bike_id":"c253f230-a50d-4269-9645-76ab7bb72f0c","system_id":"levelo_inurba_marseille","lat":43.29796,"lon":5.40412,"is_reserved":false,"is_disabled":false,"rental_uris":{"android":"levelo://app?vid=c253f230-a50d-4269-9645-76ab7bb72f0c","ios":"levelo://app?vid=c253f230-a50d-4269-9645-76ab7bb72f0c"},"vehicle_type_id":"4","last_reported":1737893688,"current_range_meters":38400,"station_id":"ce4bh112rcd13ifvqd90","pricing_plan_id":"cebpf4jnsgd1na2vs0mg"},{"bike_id":"09351cb6-0309-44f4-8933-453ff4176d18","system_id":"levelo_inurba_marseille","lat":43.24811,"lon":5.37464,"is_reserved":false,"is_disabled":false,"rental_uris":{"android":"levelo://app?vid=09351cb6-0309-44f4-8933-453ff4176d18","ios":"levelo://app?vid=09351cb6-0309-44f4-8933-453ff4176d18"},"vehicle_type_id":"4","last_reported":1737893688,"current_range_meters":32000,"station_id":"ce4bhgh2rcd13ifvqfb0","pricing_plan_id":"cebpf4jnsgd1na2vs0mg"},{"bike_id":"e4b89815-f3d7-4d26-a380-9ca88709db83","system_id":"levelo_inurba_marseille","lat":43.28471,"lon":5.38437,"is_reserved":false,"is_disabled":false,"rental_uris":{"android":"levelo://app?vid=e4b89815-f3d7-4d26-a380-9ca88709db83","ios":"levelo://app?vid=e4b89815-f3d7-4d26-a380-9ca88709db83"},"vehicle_type_id":"4","last_reported":1737893688,"current_range_meters":38800,"station_id":"ce4bh512rcd13ifvqe3g","pricing_plan_id":"cebpf4jnsgd1na2vs0mg"},{"bike_id":"316bfc64-127c-41bd-945d-ad55df794c9b","system_id":"levelo_inurba_marseille","lat":43.28472,"lon":5.38434,"is_reserved":false,"is_disabled":true,"rental_uris":{"android":"levelo://app?vid=316bfc64-127c-41bd-945d-ad55df794c9b","ios":"levelo://app?vid=316bfc64-127c-41bd-945d-ad55df794c9b"},"vehicle_type_id":"4","last_reported":1737893688,"current_range_meters":16000,"station_id":"ce4bh512rcd13ifvqe3g","pricing_plan_id":"cebpf4jnsgd1na2vs0mg"},{"bike_id":"004a7a47-5d83-4665-99d7-44777518ca05","system_id":"levelo_inurba_marseille","lat":43.30931,"lon":5.40149,"is_reserved":false,"is_disabled":false,"rental_uris":{"android":"levelo://app?vid=004a7a47-5d83-4665-99d7-44777518ca05","ios":"levelo://app?vid=004a7a47-5d83-4665-99d7-44777518ca05"},"vehicle_type_id":"4","last_reported":1737893688,"current_range_meters":27200,"station_id":"ce4bgvp2rcd13ifvqct0","pricing_plan_id":"cebpf4jnsgd1na2vs0mg"},{"bike_id":"ff7d4cfe-e894-4a96-a2c3-4cd61018e1f8","system_id":"levelo_inurba_marseille","lat":43.29724,"lon":5.37703,"is_reserved":false,"is_disabled":false,"rental_uris":{"android":"levelo://app?vid=ff7d4cfe-e894-4a96-a2c3-4cd61018e1f8","ios":"levelo://app?vid=ff7d4cfe-e894-4a96-a2c3-4cd61018e1f8"},"vehicle_type_id":"4","last_reported":1737893688,"current_range_meters":19600,"station_id":"ce4bgkh2rcd13ifvqbl0","pricing_plan_id":"cebpf4jnsgd1na2vs0mg"},{"bike_id":"06db7b38-d368-4168-a3af-68cb37ab41ea","system_id":"levelo_inurba_marseille","lat":43.31707,"lon":5.40468,"is_reserved":false,"is_disabled":false,"rental_uris":{"android":"levelo://app?vid=06db7b38-d368-4168-a3af-68cb37ab41ea","ios":"levelo://app?vid=06db7b38-d368-4168-a3af-68cb37ab41ea"},"vehicle_type_id":"4","last_reported":1737893688,"current_range_meters":38800,"station_id":"ce4bh012rcd13ifvqd00","pricing_plan_id":"cebpf4jnsgd1na2vs0mg"},{"bike_id":"e2fa58e8-528f-41ef-938e-9a27257248e0","system_id":"levelo_inurba_marseille","lat":43.27075,"lon":5.42274,"is_reserved":false,"is_disabled":false,"rental_uris":{"android":"levelo://app?vid=e2fa58e8-528f-41ef-938e-9a27257248e0","ios":"levelo://app?vid=e2fa58e8-528f-41ef-938e-9a27257248e0"},"vehicle_type_id":"4","last_reported":1737893688,"current_range_meters":36400,"station_id":"ce4bhk92rcd13ifvqgb0","pricing_plan_id":"cebpf4jnsgd1na2vs0mg"},{"bike_id":"1e270496-6fac-41a1-bd27-7195eb51b61a","system_id":"levelo_inurba_marseille","lat":43.32659,"lon":5.40998,"is_reserved":false,"is_disabled":false,"rental_uris":{"android":"levelo://app?vid=1e270496-6fac-41a1-bd27-7195eb51b61a","ios":"levelo://app?vid=1e270496-6fac-41a1-bd27-7195eb51b61a"},"vehicle_type_id":"4","last_reported":1737893688,"current_range_meters":38800,"station_id":"ce4bhpp2rcd13ifvqhgg","pricing_plan_id":"cebpf4jnsgd1na2vs0mg"},{"bike_id":"3933e0a0-5351-4fbe-b321-53774862e3a6","system_id":"levelo_inurba_marseille","lat":43.30158,"lon":5.38091,"is_reserved":false,"is_disabled":false,"rental_uris":{"android":"levelo://app?vid=3933e0a0-5351-4fbe-b321-53774862e3a6","ios":"levelo://app?vid=3933e0a0-5351-4fbe-b321-53774862e3a6"},"vehicle_type_id":"4","last_reported":1737893688,"current_range_meters":26000,"station_id":"ce4bgjp2rcd13ifvqbh0","pricing_plan_id":"cebpf4jnsgd1na2vs0mg"},{"bike_id":"406f3a4e-22c7-4501-a7fe-e475a9f714e4","system_id":"levelo_inurba_marseille","lat":43.23215,"lon":5.35553,"is_reserved":false,"is_disabled":false,"rental_uris":{"android":"levelo://app?vid=406f3a4e-22c7-4501-a7fe-e475a9f714e4","ios":"levelo://app?vid=406f3a4e-22c7-4501-a7fe-e475a9f714e4"},"vehicle_type_id":"4","last_reported":1737893688,"current_range_meters":19600,"station_id":"ce4bhu92rcd13ifvqi70","pricing_plan_id":"cebpf4jnsgd1na2vs0mg"},{"bike_id":"e7965682-cb07-492d-a8dc-957cdc5a4b6e","system_id":"levelo_inurba_marseille","lat":43.29973,"lon":5.38504,"is_reserved":false,"is_disabled":true,"rental_uris":{"android":"levelo://app?vid=e7965682-cb07-492d-a8dc-957cdc5a4b6e","ios":"levelo://app?vid=e7965682-cb07-492d-a8dc-957cdc5a4b6e"},"vehicle_type_id":"4","last_reported":1737893688,"current_range_meters":8400,"station_id":"ce4bgj92rcd13ifvqbd0","pricing_plan_id":"cebpf4jnsgd1na2vs0mg"},{"bike_id":"9a7368ed-b4dc-4588-984f-050921bfed4c","system_id":"levelo_inurba_marseille","lat":43.2306,"lon":5.35492,"is_reserved":false,"is_disabled":true,"rental_uris":{"android":"levelo://app?vid=9a7368ed-b4dc-4588-984f-050921bfed4c","ios":"levelo://app?vid=9a7368ed-b4dc-4588-984f-050921bfed4c"},"vehicle_type_id":"4","last_reported":1737893688,"current_range_meters":0,"station_id":"cpo3342slgdg3j2ifvpg","pricing_plan_id":"cebpf4jnsgd1na2vs0mg"},{"bike_id":"06c3e76e-c1e9-4491-a816-69dfa242b750","system_id":"levelo_inurba_marseille","lat":43.29977,"lon":5.41332,"is_reserved":false,"is_disabled":false,"rental_uris":{"android":"levelo://app?vid=06c3e76e-c1e9-4491-a816-69dfa242b750","ios":"levelo://app?vid=06c3e76e-c1e9-4491-a816-69dfa242b750"},"vehicle_type_id":"4","last_reported":1737893688,"current_range_meters":39200,"station_id":"ce4bhp12rcd13ifvqh9g","pricing_plan_id":"cebpf4jnsgd1na2vs0mg"},{"bike_id":"de6c4a59-36a1-48bf-9750-a7d9914a8195","system_id":"levelo_inurba_marseille","lat":43.23059,"lon":5.35492,"is_reserved":false,"is_disabled":false,"rental_uris":{"android":"levelo://app?vid=de6c4a59-36a1-48bf-9750-a7d9914a8195","ios":"levelo://app?vid=de6c4a59-36a1-48bf-9750-a7d9914a8195"},"vehicle_type_id":"4","last_reported":1737893688,"current_range_meters":8000,"station_id":"cpo3342slgdg3j2ifvpg","pricing_plan_id":"cebpf4jnsgd1na2vs0mg"},{"bike_id":"e7b63a5d-2827-4f63-83cd-321e7b17d5d6","system_id":"levelo_inurba_marseille","lat":43.31353,"lon":5.38506,"is_reserved":false,"is_disabled":false,"rental_uris":{"android":"levelo://app?vid=e7b63a5d-2827-4f63-83cd-321e7b17d5d6","ios":"levelo://app?vid=e7b63a5d-2827-4f63-83cd-321e7b17d5d6"},"vehicle_type_id":"4","last_reported":1737893688,"current_range_meters":34800,"station_id":"ce4bgt92rcd13ifvqcf0","pricing_plan_id":"cebpf4jnsgd1na2vs0mg"},{"bike_id":"26d3de6a-b7db-4cd7-885c-9cb71bb28aa5","system_id":"levelo_inurba_marseille","lat":43.27369,"lon":5.36255,"is_reserved":false,"is_disabled":false,"rental_uris":{"android":"levelo://app?vid=26d3de6a-b7db-4cd7-885c-9cb71bb28aa5","ios":"levelo://app?vid=26d3de6a-b7db-4cd7-885c-9cb71bb28aa5"},"vehicle_type_id":"4","last_reported":1737893688,"current_range_meters":36400,"station_id":"ce4bhbh2rcd13ifvqeo0","pricing_plan_id":"cebpf4jnsgd1na2vs0mg"},{"bike_id":"07162cf2-9520-4954-8d12-669f863694e1","system_id":"levelo_inurba_marseille","lat":43.2558,"lon":5.38239,"is_reserved":false,"is_disabled":false,"rental_uris":{"android":"levelo://app?vid=07162cf2-9520-4954-8d12-669f863694e1","ios":"levelo://app?vid=07162cf2-9520-4954-8d12-669f863694e1"},"vehicle_type_id":"4","last_reported":1737893688,"current_range_meters":36800,"station_id":"ce4bhih2rcd13ifvqfs0","pricing_plan_id":"cebpf4jnsgd1na2vs0mg"},{"bike_id":"7c78a755-c7f5-4f07-a96b-621451d47948","system_id":"levelo_inurba_marseille","lat":43.29904,"lon":5.4365,"is_reserved":false,"is_disabled":false,"rental_uris":{"android":"levelo://app?vid=7c78a755-c7f5-4f07-a96b-621451d47948","ios":"levelo://app?vid=7c78a755-c7f5-4f07-a96b-621451d47948"},"vehicle_type_id":"4","last_reported":1737893688,"current_range_meters":31200,"station_id":"ce4bhpp2rcd13ifvqhfg","pricing_plan_id":"cebpf4jnsgd1na2vs0mg"},{"bike_id":"8824a766-a73e-4374-945c-560cef4cef4c","system_id":"levelo_inurba_marseille","lat":43.3032,"lon":5.40433,"is_reserved":false,"is_disabled":false,"rental_uris":{"android":"levelo://app?vid=8824a766-a73e-4374-945c-560cef4cef4c","ios":"levelo://app?vid=8824a766-a73e-4374-945c-560cef4cef4c"},"vehicle_type_id":"4","last_reported":1737893688,"current_range_meters":31200,"station_id":"ce4bh012rcd13ifvqd10","pricing_plan_id":"cebpf4jnsgd1na2vs0mg"},{"bike_id":"0b19feca-787c-4b77-ac84-946319d51b2b","system_id":"levelo_inurba_marseille","lat":43.28604,"lon":5.37056,"is_reserved":false,"is_disabled":false,"rental_uris":{"android":"levelo://app?vid=0b19feca-787c-4b77-ac84-946319d51b2b","ios":"levelo://app?vid=0b19feca-787c-4b77-ac84-946319d51b2b"},"vehicle_type_id":"4","last_reported":1737893688,"current_range_meters":24000,"station_id":"ce4bht12rcd13ifvqi60","pricing_plan_id":"cebpf4jnsgd1na2vs0mg"},{"bike_id":"411db94d-2a28-4940-91b6-7af39e445c36","system_id":"levelo_inurba_marseille","lat":43.27308,"lon":5.39097,"is_reserved":false,"is_disabled":false,"rental_uris":{"android":"levelo://app?vid=411db94d-2a28-4940-91b6-7af39e445c36","ios":"levelo://app?vid=411db94d-2a28-4940-91b6-7af39e445c36"},"vehicle_type_id":"4","last_reported":1737893688,"current_range_meters":4400,"station_id":"ce4bhgp2rcd13ifvqfe0","pricing_plan_id":"cebpf4jnsgd1na2vs0mg"},{"bike_id":"e4f34db4-be4b-445b-91b7-c3d5ebc6530c","system_id":"levelo_inurba_marseille","lat":43.31287,"lon":5.40161,"is_reserved":false,"is_disabled":false,"rental_uris":{"android":"levelo://app?vid=e4f34db4-be4b-445b-91b7-c3d5ebc6530c","ios":"levelo://app?vid=e4f34db4-be4b-445b-91b7-c3d5ebc6530c"},"vehicle_type_id":"4","last_reported":1737893688,"current_range_meters":38800,"station_id":"ce4bh092rcd13ifvqd30","pricing_plan_id":"cebpf4jnsgd1na2vs0mg"},{"bike_id":"a48a4fa8-387b-4ecc-bc7a-c3f07822bf47","system_id":"levelo_inurba_marseille","lat":43.27072,"lon":5.39243,"is_reserved":false,"is_disabled":true,"rental_uris":{"android":"levelo://app?vid=a48a4fa8-387b-4ecc-bc7a-c3f07822bf47","ios":"levelo://app?vid=a48a4fa8-387b-4ecc-bc7a-c3f07822bf47"},"vehicle_type_id":"4","last_reported":1737893688,"current_range_meters":0,"station_id":"","pricing_plan_id":"cebpf4jnsgd1na2vs0mg"},{"bike_id":"fd38b4b0-f42b-4d68-b90d-cf0284d0f76e","system_id":"levelo_inurba_marseille","lat":43.24011,"lon":5.37675,"is_reserved":false,"is_disabled":false,"rental_uris":{"android":"levelo://app?vid=fd38b4b0-f42b-4d68-b90d-cf0284d0f76e","ios":"levelo://app?vid=fd38b4b0-f42b-4d68-b90d-cf0284d0f76e"},"vehicle_type_id":"4","last_reported":1737893688,"current_range_meters":6800,"station_id":"","pricing_plan_id":"cebpf4jnsgd1na2vs0mg"},{"bike_id":"075a614f-33be-4230-a7c2-253faeedb1ed","system_id":"levelo_inurba_marseille","lat":43.29572,"lon":5.37525,"is_reserved":false,"is_disabled":false,"rental_uris":{"android":"levelo://app?vid=075a614f-33be-4230-a7c2-253faeedb1ed","ios":"levelo://app?vid=075a614f-33be-4230-a7c2-253faeedb1ed"},"vehicle_type_id":"4","last_reported":1737893688,"current_range_meters":28000,"station_id":"ce4bgh92rcd13ifvqb50","pricing_plan_id":"cebpf4jnsgd1na2vs0mg"},{"bike_id":"2609de48-ed86-408f-b9ad-84a6eacce2a8","system_id":"levelo_inurba_marseille","lat":43.25821,"lon":5.39436,"is_reserved":false,"is_disabled":false,"rental_uris":{"android":"levelo://app?vid=2609de48-ed86-408f-b9ad-84a6eacce2a8","ios":"levelo://app?vid=2609de48-ed86-408f-b9ad-84a6eacce2a8"},"vehicle_type_id":"4","last_reported":1737893688,"current_range_meters":18800,"station_id":"ce4bhip2rcd13ifvqft0","pricing_plan_id":"cebpf4jnsgd1na2vs0mg"},{"bike_id":"8fd0082a-8558-471d-bd5c-8f2bb03de120","system_id":"levelo_inurba_marseille","lat":43.28686,"lon":5.4003,"is_reserved":false,"is_disabled":true,"rental_uris":{"android":"levelo://app?vid=8fd0082a-8558-471d-bd5c-8f2bb03de120","ios":"levelo://app?vid=8fd0082a-8558-471d-bd5c-8f2bb03de120"},"vehicle_type_id":"4","last_reported":1737893688,"current_range_meters":27200,"station_id":"ce4bho92rcd13ifvqh3g","pricing_plan_id":"cebpf4jnsgd1na2vs0mg"},{"bike_id":"a5e8f8f2-f5f3-442d-9dd2-1e7284910bbd","system_id":"levelo_inurba_marseille","lat":43.27306,"lon":5.39107,"is_reserved":false,"is_disabled":false,"rental_uris":{"android":"levelo://app?vid=a5e8f8f2-f5f3-442d-9dd2-1e7284910bbd","ios":"levelo://app?vid=a5e8f8f2-f5f3-442d-9dd2-1e7284910bbd"},"vehicle_type_id":"4","last_reported":1737893688,"current_range_meters":32000,"station_id":"","pricing_plan_id":"cebpf4jnsgd1na2vs0mg"},{"bike_id":"9c09af66-30f1-488d-910d-a8a905d02871","system_id":"levelo_inurba_marseille","lat":43.29369,"lon":5.37933,"is_reserved":false,"is_disabled":true,"rental_uris":{"android":"levelo://app?vid=9c09af66-30f1-488d-910d-a8a905d02871","ios":"levelo://app?vid=9c09af66-30f1-488d-910d-a8a905d02871"},"vehicle_type_id":"4","last_reported":1737893688,"current_range_meters":0,"station_id":"","pricing_plan_id":"cebpf4jnsgd1na2vs0mg"},{"bike_id":"718ff68a-4148-45b0-a17d-b53a6bd08fc5","system_id":"levelo_inurba_marseille","lat":43.26198,"lon":5.37447,"is_reserved":false,"is_disabled":false,"rental_uris":{"android":"levelo://app?vid=718ff68a-4148-45b0-a17d-b53a6bd08fc5","ios":"levelo://app?vid=718ff68a-4148-45b0-a17d-b53a6bd08fc5"},"vehicle_type_id":"4","last_reported":1737893688,"current_range_meters":28000,"station_id":"ce4bhgp2rcd13ifvqfc0","pricing_plan_id":"cebpf4jnsgd1na2vs0mg"},{"bike_id":"fdfb41bd-61c7-48ed-91a4-1ae8fd7fa7e7","system_id":"levelo_inurba_marseille","lat":43.29569,"lon":5.42295,"is_reserved":false,"is_disabled":false,"rental_uris":{"android":"levelo://app?vid=fdfb41bd-61c7-48ed-91a4-1ae8fd7fa7e7","ios":"levelo://app?vid=fdfb41bd-61c7-48ed-91a4-1ae8fd7fa7e7"},"vehicle_type_id":"4","last_reported":1737893688,"current_range_meters":31200,"station_id":"ce4bhph2rcd13ifvqhdg","pricing_plan_id":"cebpf4jnsgd1na2vs0mg"},{"bike_id":"4e465c23-e844-4a4d-85c1-36bc212e035e","system_id":"levelo_inurba_marseille","lat":43.28604,"lon":5.3706,"is_reserved":false,"is_disabled":false,"rental_uris":{"android":"levelo://app?vid=4e465c23-e844-4a4d-85c1-36bc212e035e","ios":"levelo://app?vid=4e465c23-e844-4a4d-85c1-36bc212e035e"},"vehicle_type_id":"4","last_reported":1737893688,"current_range_meters":38000,"station_id":"ce4bht12rcd13ifvqi60","pricing_plan_id":"cebpf4jnsgd1na2vs0mg"},{"bike_id":"c438c788-2c8f-4eda-8233-a8485c23c4af","system_id":"levelo_inurba_marseille","lat":43.30412,"lon":5.41298,"is_reserved":false,"is_disabled":true,"rental_uris":{"android":"levelo://app?vid=c438c788-2c8f-4eda-8233-a8485c23c4af","ios":"levelo://app?vid=c438c788-2c8f-4eda-8233-a8485c23c4af"},"vehicle_type_id":"4","last_reported":1737893688,"current_range_meters":0,"station_id":"ce4bhop2rcd13ifvqh8g","pricing_plan_id":"cebpf4jnsgd1na2vs0mg"},{"bike_id":"9353a8c9-0fb0-4e94-853c-ea392ad3a4d6","system_id":"levelo_inurba_marseille","lat":43.33024,"lon":5.39049,"is_reserved":false,"is_disabled":false,"rental_uris":{"android":"levelo://app?vid=9353a8c9-0fb0-4e94-853c-ea392ad3a4d6","ios":"levelo://app?vid=9353a8c9-0fb0-4e94-853c-ea392ad3a4d6"},"vehicle_type_id":"4","last_reported":1737893688,"current_range_meters":25200,"station_id":"ce4bhr92rcd13ifvqhrg","pricing_plan_id":"cebpf4jnsgd1na2vs0mg"},{"bike_id":"0be02369-c19e-487b-9c89-47947b36981b","system_id":"levelo_inurba_marseille","lat":43.28684,"lon":5.37402,"is_reserved":false,"is_disabled":false,"rental_uris":{"android":"levelo://app?vid=0be02369-c19e-487b-9c89-47947b36981b","ios":"levelo://app?vid=0be02369-c19e-487b-9c89-47947b36981b"},"vehicle_type_id":"4","last_reported":1737893688,"current_range_meters":16400,"station_id":"ce4bh3p2rcd13ifvqdq0","pricing_plan_id":"cebpf4jnsgd1na2vs0mg"},{"bike_id":"4f1dbc2f-1feb-47d9-bb81-d3e6faf38891","system_id":"levelo_inurba_marseille","lat":43.32347,"lon":5.40622,"is_reserved":false,"is_disabled":false,"rental_uris":{"android":"levelo://app?vid=4f1dbc2f-1feb-47d9-bb81-d3e6faf38891","ios":"levelo://app?vid=4f1dbc2f-1feb-47d9-bb81-d3e6faf38891"},"vehicle_type_id":"4","last_reported":1737893688,"current_range_meters":6400,"station_id":"ce4bhq92rcd13ifvqhjg","pricing_plan_id":"cebpf4jnsgd1na2vs0mg"},{"bike_id":"3d98c6ce-e80d-46e8-b577-648cd8c28632","system_id":"levelo_inurba_marseille","lat":43.3505,"lon":5.35061,"is_reserved":false,"is_disabled":true,"rental_uris":{"android":"levelo://app?vid=3d98c6ce-e80d-46e8-b577-648cd8c28632","ios":"levelo://app?vid=3d98c6ce-e80d-46e8-b577-648cd8c28632"},"vehicle_type_id":"4","last_reported":1737893688,"current_range_meters":0,"station_id":"","pricing_plan_id":"cebpf4jnsgd1na2vs0mg"},{"bike_id":"f13404b2-fb3e-4db4-bc17-139ef572528a","system_id":"levelo_inurba_marseille","lat":43.2755,"lon":5.36017,"is_reserved":false,"is_disabled":false,"rental_uris":{"android":"levelo://app?vid=f13404b2-fb3e-4db4-bc17-139ef572528a","ios":"levelo://app?vid=f13404b2-fb3e-4db4-bc17-139ef572528a"},"vehicle_type_id":"4","last_reported":1737893688,"current_range_meters":9200,"station_id":"ce4bgj92rcd13ifvqbe0","pricing_plan_id":"cebpf4jnsgd1na2vs0mg"},{"bike_id":"86167669-87ec-46d8-942a-1b0cb002dce8","system_id":"levelo_inurba_marseille","lat":43.29378,"lon":5.40106,"is_reserved":false,"is_disabled":true,"rental_uris":{"android":"levelo://app?vid=86167669-87ec-46d8-942a-1b0cb002dce8","ios":"levelo://app?vid=86167669-87ec-46d8-942a-1b0cb002dce8"},"vehicle_type_id":"4","last_reported":1737893688,"current_range_meters":26000,"station_id":"","pricing_plan_id":"cebpf4jnsgd1na2vs0mg"},{"bike_id":"6975cfd6-2081-4544-8ad1-47f93123d5f7","system_id":"levelo_inurba_marseille","lat":43.28716,"lon":5.39996,"is_reserved":false,"is_disabled":true,"rental_uris":{"android":"levelo://app?vid=6975cfd6-2081-4544-8ad1-47f93123d5f7","ios":"levelo://app?vid=6975cfd6-2081-4544-8ad1-47f93123d5f7"},"vehicle_type_id":"4","last_reported":1737893688,"current_range_meters":4400,"station_id":"ce4bho92rcd13ifvqh3g","pricing_plan_id":"cebpf4jnsgd1na2vs0mg"},{"bike_id":"16cba4e1-cb10-44ef-b1a1-eca95385335f","system_id":"levelo_inurba_marseille","lat":43.284184,"lon":5.349929,"is_reserved":false,"is_disabled":true,"rental_uris":{"android":"levelo://app?vid=16cba4e1-cb10-44ef-b1a1-eca95385335f","ios":"levelo://app?vid=16cba4e1-cb10-44ef-b1a1-eca95385335f"},"vehicle_type_id":"4","last_reported":1737893688,"current_range_meters":0,"station_id":"ce4bhbh2rcd13ifvqepg","pricing_plan_id":"cebpf4jnsgd1na2vs0mg"},{"bike_id":"344ef44a-2cdb-4e30-bebf-60ee63f80757","system_id":"levelo_inurba_marseille","lat":43.28938,"lon":5.36641,"is_reserved":false,"is_disabled":false,"rental_uris":{"android":"levelo://app?vid=344ef44a-2cdb-4e30-bebf-60ee63f80757","ios":"levelo://app?vid=344ef44a-2cdb-4e30-bebf-60ee63f80757"},"vehicle_type_id":"4","last_reported":1737893688,"current_range_meters":14000,"station_id":"ce4bhap2rcd13ifvqek0","pricing_plan_id":"cebpf4jnsgd1na2vs0mg"},{"bike_id":"b77efc8b-41fe-4709-b58e-05026c2b2ca6","system_id":"levelo_inurba_marseille","lat":43.30802,"lon":5.43526,"is_reserved":false,"is_disabled":false,"rental_uris":{"android":"levelo://app?vid=b77efc8b-41fe-4709-b58e-05026c2b2ca6","ios":"levelo://app?vid=b77efc8b-41fe-4709-b58e-05026c2b2ca6"},"vehicle_type_id":"4","last_reported":1737893688,"current_range_meters":16800,"station_id":"ce4bhph2rcd13ifvqheg","pricing_plan_id":"cebpf4jnsgd1na2vs0mg"},{"bike_id":"8842d916-4a9b-44b4-9461-385e6931162f","system_id":"levelo_inurba_marseille","lat":43.25494,"lon":5.37649,"is_reserved":false,"is_disabled":false,"rental_uris":{"android":"levelo://app?vid=8842d916-4a9b-44b4-9461-385e6931162f","ios":"levelo://app?vid=8842d916-4a9b-44b4-9461-385e6931162f"},"vehicle_type_id":"4","last_reported":1737893688,"current_range_meters":26800,"station_id":"ce4bhh12rcd13ifvqff0","pricing_plan_id":"cebpf4jnsgd1na2vs0mg"},{"bike_id":"8fc5f132-29ed-47c1-bff0-bf17728d82ae","system_id":"levelo_inurba_marseille","lat":43.29378,"lon":5.37878,"is_reserved":false,"is_disabled":true,"rental_uris":{"android":"levelo://app?vid=8fc5f132-29ed-47c1-bff0-bf17728d82ae","ios":"levelo://app?vid=8fc5f132-29ed-47c1-bff0-bf17728d82ae"},"vehicle_type_id":"4","last_reported":1737893688,"current_range_meters":34000,"station_id":"ce4bgjh2rcd13ifvqbf0","pricing_plan_id":"cebpf4jnsgd1na2vs0mg"},{"bike_id":"283cfd58-c0a1-4ca4-9c49-d4e7d8f088a6","system_id":"levelo_inurba_marseille","lat":43.273121,"lon":5.39081,"is_reserved":false,"is_disabled":false,"rental_uris":{"android":"levelo://app?vid=283cfd58-c0a1-4ca4-9c49-d4e7d8f088a6","ios":"levelo://app?vid=283cfd58-c0a1-4ca4-9c49-d4e7d8f088a6"},"vehicle_type_id":"4","last_reported":1737893688,"current_range_meters":17600,"station_id":"ce4bhgp2rcd13ifvqfe0","pricing_plan_id":"cebpf4jnsgd1na2vs0mg"},{"bike_id":"0409c418-1a87-452b-be7c-84da8e4aa35a","system_id":"levelo_inurba_marseille","lat":43.319945,"lon":5.381508,"is_reserved":false,"is_disabled":true,"rental_uris":{"android":"levelo://app?vid=0409c418-1a87-452b-be7c-84da8e4aa35a","ios":"levelo://app?vid=0409c418-1a87-452b-be7c-84da8e4aa35a"},"vehicle_type_id":"4","last_reported":1737893688,"current_range_meters":0,"station_id":"ce4bhr12rcd13ifvqhpg","pricing_plan_id":"cebpf4jnsgd1na2vs0mg"},{"bike_id":"e2b481af-a742-476b-8558-f6402fb49992","system_id":"levelo_inurba_marseille","lat":43.23148,"lon":5.43709,"is_reserved":false,"is_disabled":false,"rental_uris":{"android":"levelo://app?vid=e2b481af-a742-476b-8558-f6402fb49992","ios":"levelo://app?vid=e2b481af-a742-476b-8558-f6402fb49992"},"vehicle_type_id":"4","last_reported":1737893688,"current_range_meters":14400,"station_id":"ce4bhmp2rcd13ifvqgog","pricing_plan_id":"cebpf4jnsgd1na2vs0mg"},{"bike_id":"dc16bd0c-0faa-4e10-8caa-552e467e81e6","system_id":"levelo_inurba_marseille","lat":43.26215,"lon":5.3744,"is_reserved":false,"is_disabled":false,"rental_uris":{"android":"levelo://app?vid=dc16bd0c-0faa-4e10-8caa-552e467e81e6","ios":"levelo://app?vid=dc16bd0c-0faa-4e10-8caa-552e467e81e6"},"vehicle_type_id":"4","last_reported":1737893688,"current_range_meters":11600,"station_id":"ce4bhgp2rcd13ifvqfc0","pricing_plan_id":"cebpf4jnsgd1na2vs0mg"},{"bike_id":"91d66d54-aabf-44b7-ac3a-355a4b9e5628","system_id":"levelo_inurba_marseille","lat":43.24065,"lon":5.3776,"is_reserved":false,"is_disabled":true,"rental_uris":{"android":"levelo://app?vid=91d66d54-aabf-44b7-ac3a-355a4b9e5628","ios":"levelo://app?vid=91d66d54-aabf-44b7-ac3a-355a4b9e5628"},"vehicle_type_id":"4","last_reported":1737893688,"current_range_meters":38800,"station_id":"ce4bhnp2rcd13ifvqgvg","pricing_plan_id":"cebpf4jnsgd1na2vs0mg"},{"bike_id":"5b62bf0a-c3a3-442a-864e-e3e71616323c","system_id":"levelo_inurba_marseille","lat":43.3015,"lon":5.38079,"is_reserved":false,"is_disabled":false,"rental_uris":{"android":"levelo://app?vid=5b62bf0a-c3a3-442a-864e-e3e71616323c","ios":"levelo://app?vid=5b62bf0a-c3a3-442a-864e-e3e71616323c"},"vehicle_type_id":"4","last_reported":1737893688,"current_range_meters":13600,"station_id":"ce4bgjp2rcd13ifvqbh0","pricing_plan_id":"cebpf4jnsgd1na2vs0mg"},{"bike_id":"a05ddfe2-06a2-476e-98df-96b8f25cd95b","system_id":"levelo_inurba_marseille","lat":43.30541,"lon":5.36534,"is_reserved":false,"is_disabled":false,"rental_uris":{"android":"levelo://app?vid=a05ddfe2-06a2-476e-98df-96b8f25cd95b","ios":"levelo://app?vid=a05ddfe2-06a2-476e-98df-96b8f25cd95b"},"vehicle_type_id":"4","last_reported":1737893688,"current_range_meters":38800,"station_id":"ce4bgs12rcd13ifvqcag","pricing_plan_id":"cebpf4jnsgd1na2vs0mg"},{"bike_id":"a164554d-7c5e-4990-b022-26b5003f7ab3","system_id":"levelo_inurba_marseille","lat":43.27495,"lon":5.42457,"is_reserved":false,"is_disabled":false,"rental_uris":{"android":"levelo://app?vid=a164554d-7c5e-4990-b022-26b5003f7ab3","ios":"levelo://app?vid=a164554d-7c5e-4990-b022-26b5003f7ab3"},"vehicle_type_id":"4","last_reported":1737893688,"current_range_meters":9200,"station_id":"ce4bhn92rcd13ifvqgrg","pricing_plan_id":"cebpf4jnsgd1na2vs0mg"},{"bike_id":"1034d541-3c0d-4d8f-a939-7b844cd7a6ec","system_id":"levelo_inurba_marseille","lat":43.27994,"lon":5.41675,"is_reserved":false,"is_disabled":true,"rental_uris":{"android":"levelo://app?vid=1034d541-3c0d-4d8f-a939-7b844cd7a6ec","ios":"levelo://app?vid=1034d541-3c0d-4d8f-a939-7b844cd7a6ec"},"vehicle_type_id":"4","last_reported":1737893688,"current_range_meters":0,"station_id":"ce4bho12rcd13ifvqh1g","pricing_plan_id":"cebpf4jnsgd1na2vs0mg"},{"bike_id":"f4a67fd7-7ba0-462e-b321-724410a83bc3","system_id":"levelo_inurba_marseille","lat":43.28609,"lon":5.35105,"is_reserved":false,"is_disabled":true,"rental_uris":{"android":"levelo://app?vid=f4a67fd7-7ba0-462e-b321-724410a83bc3","ios":"levelo://app?vid=f4a67fd7-7ba0-462e-b321-724410a83bc3"},"vehicle_type_id":"4","last_reported":1737893688,"current_range_meters":0,"station_id":"ce4bhch2rcd13ifvqeug","pricing_plan_id":"cebpf4jnsgd1na2vs0mg"},{"bike_id":"4d0812b8-8d48-4ac4-92a6-af1bc54afb43","system_id":"levelo_inurba_marseille","lat":43.23054,"lon":5.3548,"is_reserved":false,"is_disabled":false,"rental_uris":{"android":"levelo://app?vid=4d0812b8-8d48-4ac4-92a6-af1bc54afb43","ios":"levelo://app?vid=4d0812b8-8d48-4ac4-92a6-af1bc54afb43"},"vehicle_type_id":"4","last_reported":1737893688,"current_range_meters":17600,"station_id":"cpo3342slgdg3j2ifvpg","pricing_plan_id":"cebpf4jnsgd1na2vs0mg"},{"bike_id":"481fe4ce-6ca0-4c8f-a684-d49e2c72d42d","system_id":"levelo_inurba_marseille","lat":43.27819,"lon":5.4073,"is_reserved":false,"is_disabled":false,"rental_uris":{"android":"levelo://app?vid=481fe4ce-6ca0-4c8f-a684-d49e2c72d42d","ios":"levelo://app?vid=481fe4ce-6ca0-4c8f-a684-d49e2c72d42d"},"vehicle_type_id":"4","last_reported":1737893688,"current_range_meters":38000,"station_id":"ce4bhnh2rcd13ifvqgtg","pricing_plan_id":"cebpf4jnsgd1na2vs0mg"},{"bike_id":"d1e24b63-5f3b-42be-a266-7a5f03dd9434","system_id":"levelo_inurba_marseille","lat":43.2418,"lon":5.39723,"is_reserved":false,"is_disabled":false,"rental_uris":{"android":"levelo://app?vid=d1e24b63-5f3b-42be-a266-7a5f03dd9434","ios":"levelo://app?vid=d1e24b63-5f3b-42be-a266-7a5f03dd9434"},