{"last_updated":1746634414,"ttl":60,"version":"2.2","data":{"bikes":[{"bike_id":"5ff59f3d-4cba-4ae6-8436-b50571528098","system_id":"levelo_inurba_marseille","lat":43.29267,"lon":5.38448,"is_reserved":false,"is_disabled":false,"rental_uris":{"android":"levelo://app?vid=5ff59f3d-4cba-4ae6-8436-b50571528098","ios":"levelo://app?vid=5ff59f3d-4cba-4ae6-8436-b50571528098"},"vehicle_type_id":"4","last_reported":1746634414,"current_range_meters":2800,"station_id":"ce4bh692rcd13ifvqea0","pricing_plan_id":"cebpf4jnsgd1na2vs0mg"},{"bike_id":"668c20c8-71e7-401f-bf1d-ccccf041a906","system_id":"levelo_inurba_marseille","lat":43.3101,"lon":5.37552,"is_reserved":false,"is_disabled":false,"rental_uris":{"android":"levelo://app?vid=668c20c8-71e7-401f-bf1d-ccccf041a906","ios":"levelo://app?vid=668c20c8-71e7-401f-bf1d-ccccf041a906"},"vehicle_type_id":"4","last_reported":1746634414,"current_range_meters":3200,"station_id":"","pricing_plan_id":"cebpf4jnsgd1na2vs0mg"},{"bike_id":"68a5450e-63b4-4066-9f51-7d50151fba09","system_id":"levelo_inurba_marseille","lat":43.30304,"lon":5.392165,"is_reserved":false,"is_disabled":false,"rental_uris":{"android":"levelo://app?vid=68a5450e-63b4-4066-9f51-7d50151fba09","ios":"levelo://app?vid=68a5450e-63b4-4066-9f51-7d50151fba09"},"vehicle_type_id":"4","last_reported":1746634414,"current_range_meters":2800,"station_id":"ce4bgkh2rcd13ifvqbk0","pricing_plan_id":"cebpf4jnsgd1na2vs0mg"},{"bike_id":"c1d60e39-bee4-4d0b-87ce-2a42256c59ef","system_id":"levelo_inurba_marseille","lat":43.32104,"lon":5.36772,"is_reserved":false,"is_disabled":false,"rental_uris":{"android":"levelo://app?vid=c1d60e39-bee4-4d0b-87ce-2a42256c59ef","ios":"levelo://app?vid=c1d60e39-bee4-4d0b-87ce-2a42256c59ef"},"vehicle_type_id":"4","last_reported":1746634414,"current_range_meters":3200,"station_id":"ce4bhrh2rcd13ifvqhug","pricing_plan_id":"cebpf4jnsgd1na2vs0mg"},{"bike_id":"6b6d2582-c0c1-4ae3-8a56-dcdbe55e5437","system_id":"levelo_inurba_marseille","lat":43.306207,"lon":5.38486,"is_reserved":false,"is_disabled":false,"rental_uris":{"android":"levelo://app?vid=6b6d2582-c0c1-4ae3-8a56-dcdbe55e5437","ios":"levelo://app?vid=6b6d2582-c0c1-4ae3-8a56-dcdbe55e5437"},"vehicle_type_id":"4","last_reported":1746634414,"current_range_meters":3200,"station_id":"","pricing_plan_id":"cebpf4jnsgd1na2vs0mg"},{"bike_id":"618faf14-27aa-40ae-94a3-43380b4a30db","system_id":"levelo_inurba_marseille","lat":43.28941,"lon":5.3664,"is_reserved":false,"is_disabled":false,"rental_uris":{"android":"levelo://app?vid=618faf14-27aa-40ae-94a3-43380b4a30db","ios":"levelo://app?vid=618faf14-27aa-40ae-94a3-43380b4a30db"},"vehicle_type_id":"4","last_reported":1746634414,"current_range_meters":3600,"station_id":"ce4bhap2rcd13ifvqek0","pricing_plan_id":"cebpf4jnsgd1na2vs0mg"},{"bike_id":"bfa9cdca-8823-4751-ae40-ab5de7a6d466","system_id":"levelo_inurba_marseille","lat":43.23175,"lon":5.39994,"is_reserved":false,"is_disabled":false,"rental_uris":{"android":"levelo://app?vid=bfa9cdca-8823-4751-ae40-ab5de7a6d466","ios":"levelo://app?vid=bfa9cdca-8823-4751-ae40-ab5de7a6d466"},"vehicle_type_id":"4","last_reported":1746634414,"current_range_meters":3600,"station_id":"ce4bhn12rcd13ifvqgqg","pricing_plan_id":"cebpf4jnsgd1na2vs0mg"},{"bike_id":"a9f6e9a6-8a2e-4d34-8a62-319f2c30dc22","system_id":"levelo_inurba_marseille","lat":43.23181,"lon":5.39989,"is_reserved":false,"is_disabled":false,"rental_uris":{"android":"levelo://app?vid=a9f6e9a6-8a2e-4d34-8a62-319f2c30dc22","ios":"levelo://app?vid=a9f6e9a6-8a2e-4d34-8a62-319f2c30dc22"},"vehicle_type_id":"4","last_reported":1746634414,"current_range_meters":3600,"station_id":"ce4bhn12rcd13ifvqgqg","pricing_plan_id":"cebpf4jnsgd1na2vs0mg"},{"bike_id":"86cec31b-53bd-4dc8-9eee-b4c0f884f0ac","system_id":"levelo_inurba_marseille","lat":43.29715,"lon":5.37688,"is_reserved":false,"is_disabled":false,"rental_uris":{"android":"levelo://app?vid=86cec31b-53bd-4dc8-9eee-b4c0f884f0ac","ios":"levelo://app?vid=86cec31b-53bd-4dc8-9eee-b4c0f884f0ac"},"vehicle_type_id":"4","last_reported":1746634414,"current_range_meters":3600,"station_id":"ce4bgkh2rcd13ifvqbl0","pricing_plan_id":"cebpf4jnsgd1na2vs0mg"},{"bike_id":"879af0e5-5368-4c8a-a113-a9d279bec406","system_id":"levelo_inurba_marseille","lat":43.30784,"lon":5.37124,"is_reserved":false,"is_disabled":false,"rental_uris":{"android":"levelo://app?vid=879af0e5-5368-4c8a-a113-a9d279bec406","ios":"levelo://app?vid=879af0e5-5368-4c8a-a113-a9d279bec406"},"vehicle_type_id":"4","last_reported":1746634414,"current_range_meters":3600,"station_id":"","pricing_plan_id":"cebpf4jnsgd1na2vs0mg"},{"bike_id":"c594ed9b-bfb2-4a5b-9232-86c5f8013bd2","system_id":"levelo_inurba_marseille","lat":43.30354,"lon":5.41879,"is_reserved":false,"is_disabled":false,"rental_uris":{"android":"levelo://app?vid=c594ed9b-bfb2-4a5b-9232-86c5f8013bd2","ios":"levelo://app?vid=c594ed9b-bfb2-4a5b-9232-86c5f8013bd2"},"vehicle_type_id":"4","last_reported":1746634414,"current_range_meters":3600,"station_id":"ce4bhop2rcd13ifvqh7g","pricing_plan_id":"cebpf4jnsgd1na2vs0mg"},{"bike_id":"9d8f73eb-df09-4699-86a7-d631e2319093","system_id":"levelo_inurba_marseille","lat":43.26288,"lon":5.37453,"is_reserved":false,"is_disabled":false,"rental_uris":{"android":"levelo://app?vid=9d8f73eb-df09-4699-86a7-d631e2319093","ios":"levelo://app?vid=9d8f73eb-df09-4699-86a7-d631e2319093"},"vehicle_type_id":"4","last_reported":1746634414,"current_range_meters":3600,"station_id":"","pricing_plan_id":"cebpf4jnsgd1na2vs0mg"},{"bike_id":"be7dd09f-110e-4c39-bb73-760d76245a75","system_id":"levelo_inurba_marseille","lat":43.29211,"lon":5.3609,"is_reserved":false,"is_disabled":false,"rental_uris":{"android":"levelo://app?vid=be7dd09f-110e-4c39-bb73-760d76245a75","ios":"levelo://app?vid=be7dd09f-110e-4c39-bb73-760d76245a75"},"vehicle_type_id":"4","last_reported":1746634414,"current_range_meters":3600,"station_id":"ce4bhbh2rcd13ifvqeqg","pricing_plan_id":"cebpf4jnsgd1na2vs0mg"},{"bike_id":"18dba06f-d6ee-4d3e-9cb7-f80d5877b630","system_id":"levelo_inurba_marseille","lat":43.2836,"lon":5.38648,"is_reserved":false,"is_disabled":false,"rental_uris":{"android":"levelo://app?vid=18dba06f-d6ee-4d3e-9cb7-f80d5877b630","ios":"levelo://app?vid=18dba06f-d6ee-4d3e-9cb7-f80d5877b630"},"vehicle_type_id":"4","last_reported":1746634414,"current_range_meters":3600,"station_id":"ce4bh492rcd13ifvqdvg","pricing_plan_id":"cebpf4jnsgd1na2vs0mg"},{"bike_id":"06c31a0e-577f-421f-b2f9-7e71b76c76ba","system_id":"levelo_inurba_marseille","lat":43.29004,"lon":5.35615,"is_reserved":false,"is_disabled":false,"rental_uris":{"android":"levelo://app?vid=06c31a0e-577f-421f-b2f9-7e71b76c76ba","ios":"levelo://app?vid=06c31a0e-577f-421f-b2f9-7e71b76c76ba"},"vehicle_type_id":"4","last_reported":1746634414,"current_range_meters":3200,"station_id":"ce4bhb92rcd13ifvqen0","pricing_plan_id":"cebpf4jnsgd1na2vs0mg"},{"bike_id":"04c38ddd-13a9-482b-9e44-7a82b9708ec0","system_id":"levelo_inurba_marseille","lat":43.23195,"lon":5.35551,"is_reserved":false,"is_disabled":false,"rental_uris":{"android":"levelo://app?vid=04c38ddd-13a9-482b-9e44-7a82b9708ec0","ios":"levelo://app?vid=04c38ddd-13a9-482b-9e44-7a82b9708ec0"},"vehicle_type_id":"4","last_reported":1746634414,"current_range_meters":3200,"station_id":"ce4bhu92rcd13ifvqi70","pricing_plan_id":"cebpf4jnsgd1na2vs0mg"},{"bike_id":"5d018af0-0321-4dc2-87a7-75af2d841c80","system_id":"levelo_inurba_marseille","lat":43.29037,"lon":5.37572,"is_reserved":false,"is_disabled":false,"rental_uris":{"android":"levelo://app?vid=5d018af0-0321-4dc2-87a7-75af2d841c80","ios":"levelo://app?vid=5d018af0-0321-4dc2-87a7-75af2d841c80"},"vehicle_type_id":"4","last_reported":1746634414,"current_range_meters":4000,"station_id":"ce4bh692rcd13ifvqe90","pricing_plan_id":"cebpf4jnsgd1na2vs0mg"},{"bike_id":"d309d842-88fa-4468-92c0-95c3817a3184","system_id":"levelo_inurba_marseille","lat":43.30648,"lon":5.40085,"is_reserved":false,"is_disabled":false,"rental_uris":{"android":"levelo://app?vid=d309d842-88fa-4468-92c0-95c3817a3184","ios":"levelo://app?vid=d309d842-88fa-4468-92c0-95c3817a3184"},"vehicle_type_id":"4","last_reported":1746634414,"current_range_meters":4000,"station_id":"ce4bh112rcd13ifvqda0","pricing_plan_id":"cebpf4jnsgd1na2vs0mg"},{"bike_id":"2ee8d731-d38d-421c-8e0c-6bb4d891ddb0","system_id":"levelo_inurba_marseille","lat":43.27555,"lon":5.38416,"is_reserved":false,"is_disabled":false,"rental_uris":{"android":"levelo://app?vid=2ee8d731-d38d-421c-8e0c-6bb4d891ddb0","ios":"levelo://app?vid=2ee8d731-d38d-421c-8e0c-6bb4d891ddb0"},"vehicle_type_id":"4","last_reported":1746634414,"current_range_meters":4400,"station_id":"ce4bhh92rcd13ifvqfi0","pricing_plan_id":"cebpf4jnsgd1na2vs0mg"},{"bike_id":"777a7acc-6c76-4a7b-aea5-3c3eb7d399b1","system_id":"levelo_inurba_marseille","lat":43.31327,"lon":5.39691,"is_reserved":false,"is_disabled":false,"rental_uris":{"android":"levelo://app?vid=777a7acc-6c76-4a7b-aea5-3c3eb7d399b1","ios":"levelo://app?vid=777a7acc-6c76-4a7b-aea5-3c3eb7d399b1"},"vehicle_type_id":"4","last_reported":1746634414,"current_range_meters":4400,"station_id":"ce4bgvp2rcd13ifvqcu0","pricing_plan_id":"cebpf4jnsgd1na2vs0mg"},{"bike_id":"9748a0c4-d6b8-4d04-814d-c8cd66193aaf","system_id":"levelo_inurba_marseille","lat":43.25228,"lon":5.4105,"is_reserved":false,"is_disabled":false,"rental_uris":{"android":"levelo://app?vid=9748a0c4-d6b8-4d04-814d-c8cd66193aaf","ios":"levelo://app?vid=9748a0c4-d6b8-4d04-814d-c8cd66193aaf"},"vehicle_type_id":"4","last_reported":1746634414,"current_range_meters":4400,"station_id":"","pricing_plan_id":"cebpf4jnsgd1na2vs0mg"},{"bike_id":"c0faf23e-81a7-4ca3-895d-283152fd6265","system_id":"levelo_inurba_marseille","lat":43.29607,"lon":5.39616,"is_reserved":false,"is_disabled":false,"rental_uris":{"android":"levelo://app?vid=c0faf23e-81a7-4ca3-895d-283152fd6265","ios":"levelo://app?vid=c0faf23e-81a7-4ca3-895d-283152fd6265"},"vehicle_type_id":"4","last_reported":1746634414,"current_range_meters":4800,"station_id":"","pricing_plan_id":"cebpf4jnsgd1na2vs0mg"},{"bike_id":"6c8118db-fa95-45a9-8f13-2136f1fa2cb4","system_id":"levelo_inurba_marseille","lat":43.29791,"lon":5.39343,"is_reserved":false,"is_disabled":false,"rental_uris":{"android":"levelo://app?vid=6c8118db-fa95-45a9-8f13-2136f1fa2cb4","ios":"levelo://app?vid=6c8118db-fa95-45a9-8f13-2136f1fa2cb4"},"vehicle_type_id":"4","last_reported":1746634414,"current_range_meters":4400,"station_id":"chh1huq6cuj3fo74tm60","pricing_plan_id":"cebpf4jnsgd1na2vs0mg"},{"bike_id":"85d998c3-debc-4e94-8c85-a37fd585ee3a","system_id":"levelo_inurba_marseille","lat":43.28453,"lon":5.35883,"is_reserved":false,"is_disabled":false,"rental_uris":{"android":"levelo://app?vid=85d998c3-debc-4e94-8c85-a37fd585ee3a","ios":"levelo://app?vid=85d998c3-debc-4e94-8c85-a37fd585ee3a"},"vehicle_type_id":"4","last_reported":1746634414,"current_range_meters":4800,"station_id":"ce4bhah2rcd13ifvqei0","pricing_plan_id":"cebpf4jnsgd1na2vs0mg"},{"bike_id":"a1f30d70-006c-4cc7-b090-7335a6377ed1","system_id":"levelo_inurba_marseille","lat":43.31335,"lon":5.39681,"is_reserved":false,"is_disabled":false,"rental_uris":{"android":"levelo://app?vid=a1f30d70-006c-4cc7-b090-7335a6377ed1","ios":"levelo://app?vid=a1f30d70-006c-4cc7-b090-7335a6377ed1"},"vehicle_type_id":"4","last_reported":1746634414,"current_range_meters":4800,"station_id":"ce4bgvp2rcd13ifvqcu0","pricing_plan_id":"cebpf4jnsgd1na2vs0mg"},{"bike_id":"9b9a1771-b8f5-4777-bf45-ed5665b1b64f","system_id":"levelo_inurba_marseille","lat":43.30654,"lon":5.40103,"is_reserved":false,"is_disabled":false,"rental_uris":{"android":"levelo://app?vid=9b9a1771-b8f5-4777-bf45-ed5665b1b64f","ios":"levelo://app?vid=9b9a1771-b8f5-4777-bf45-ed5665b1b64f"},"vehicle_type_id":"4","last_reported":1746634414,"current_range_meters":4800,"station_id":"ce4bh112rcd13ifvqda0","pricing_plan_id":"cebpf4jnsgd1na2vs0mg"},{"bike_id":"f46ae0d7-03f3-41e1-96db-970fe58465cc","system_id":"levelo_inurba_marseille","lat":43.33012,"lon":5.38235,"is_reserved":false,"is_disabled":false,"rental_uris":{"android":"levelo://app?vid=f46ae0d7-03f3-41e1-96db-970fe58465cc","ios":"levelo://app?vid=f46ae0d7-03f3-41e1-96db-970fe58465cc"},"vehicle_type_id":"4","last_reported":1746634414,"current_range_meters":5600,"station_id":"","pricing_plan_id":"cebpf4jnsgd1na2vs0mg"},{"bike_id":"82bccb7c-3d8e-4f36-8756-8e5bc5662e05","system_id":"levelo_inurba_marseille","lat":43.28107,"lon":5.37839,"is_reserved":false,"is_disabled":false,"rental_uris":{"android":"levelo://app?vid=82bccb7c-3d8e-4f36-8756-8e5bc5662e05","ios":"levelo://app?vid=82bccb7c-3d8e-4f36-8756-8e5bc5662e05"},"vehicle_type_id":"4","last_reported":1746634414,"current_range_meters":5600,"station_id":"ce4bha12rcd13ifvqee0","pricing_plan_id":"cebpf4jnsgd1na2vs0mg"},{"bike_id":"3d17d911-9008-4e09-a9dc-050dc23bd781","system_id":"levelo_inurba_marseille","lat":43.25107,"lon":5.4032,"is_reserved":false,"is_disabled":false,"rental_uris":{"android":"levelo://app?vid=3d17d911-9008-4e09-a9dc-050dc23bd781","ios":"levelo://app?vid=3d17d911-9008-4e09-a9dc-050dc23bd781"},"vehicle_type_id":"4","last_reported":1746634414,"current_range_meters":8400,"station_id":"ce4bhlh2rcd13ifvqgig","pricing_plan_id":"cebpf4jnsgd1na2vs0mg"},{"bike_id":"f52b682a-1ca5-4604-bb20-9a59861648ff","system_id":"levelo_inurba_marseille","lat":43.28465,"lon":5.35892,"is_reserved":false,"is_disabled":false,"rental_uris":{"android":"levelo://app?vid=f52b682a-1ca5-4604-bb20-9a59861648ff","ios":"levelo://app?vid=f52b682a-1ca5-4604-bb20-9a59861648ff"},"vehicle_type_id":"4","last_reported":1746634414,"current_range_meters":5600,"station_id":"ce4bhah2rcd13ifvqei0","pricing_plan_id":"cebpf4jnsgd1na2vs0mg"},{"bike_id":"c9592205-9409-4f74-aed1-7c4141a58caa","system_id":"levelo_inurba_marseille","lat":43.27126,"lon":5.36364,"is_reserved":false,"is_disabled":false,"rental_uris":{"android":"levelo://app?vid=c9592205-9409-4f74-aed1-7c4141a58caa","ios":"levelo://app?vid=c9592205-9409-4f74-aed1-7c4141a58caa"},"vehicle_type_id":"4","last_reported":1746634414,"current_range_meters":6000,"station_id":"","pricing_plan_id":"cebpf4jnsgd1na2vs0mg"},{"bike_id":"8cb2862b-2863-4d99-97e3-b31542220713","system_id":"levelo_inurba_marseille","lat":43.25119,"lon":5.40314,"is_reserved":false,"is_disabled":false,"rental_uris":{"android":"levelo://app?vid=8cb2862b-2863-4d99-97e3-b31542220713","ios":"levelo://app?vid=8cb2862b-2863-4d99-97e3-b31542220713"},"vehicle_type_id":"4","last_reported":1746634414,"current_range_meters":6000,"station_id":"ce4bhlh2rcd13ifvqgig","pricing_plan_id":"cebpf4jnsgd1na2vs0mg"},{"bike_id":"1464ee49-4bd6-435e-ab7f-11713f1d8fd5","system_id":"levelo_inurba_marseille","lat":43.306381,"lon":5.400774,"is_reserved":false,"is_disabled":false,"rental_uris":{"android":"levelo://app?vid=1464ee49-4bd6-435e-ab7f-11713f1d8fd5","ios":"levelo://app?vid=1464ee49-4bd6-435e-ab7f-11713f1d8fd5"},"vehicle_type_id":"4","last_reported":1746634414,"current_range_meters":5600,"station_id":"ce4bh112rcd13ifvqda0","pricing_plan_id":"cebpf4jnsgd1na2vs0mg"},{"bike_id":"ee67bacf-0e6c-4981-8924-b5839b985e09","system_id":"levelo_inurba_marseille","lat":43.25724,"lon":5.41115,"is_reserved":false,"is_disabled":false,"rental_uris":{"android":"levelo://app?vid=ee67bacf-0e6c-4981-8924-b5839b985e09","ios":"levelo://app?vid=ee67bacf-0e6c-4981-8924-b5839b985e09"},"vehicle_type_id":"4","last_reported":1746634414,"current_range_meters":5600,"station_id":"ce4bhkp2rcd13ifvqgd0","pricing_plan_id":"cebpf4jnsgd1na2vs0mg"},{"bike_id":"420bd24b-2bb1-4a77-b768-174e98a02abf","system_id":"levelo_inurba_marseille","lat":43.29418,"lon":5.38631,"is_reserved":false,"is_disabled":false,"rental_uris":{"android":"levelo://app?vid=420bd24b-2bb1-4a77-b768-174e98a02abf","ios":"levelo://app?vid=420bd24b-2bb1-4a77-b768-174e98a02abf"},"vehicle_type_id":"4","last_reported":1746634414,"current_range_meters":6000,"station_id":"ce4bh2h2rcd13ifvqdh0","pricing_plan_id":"cebpf4jnsgd1na2vs0mg"},{"bike_id":"63cb73aa-86fe-4599-9b76-3790ec130780","system_id":"levelo_inurba_marseille","lat":43.29586,"lon":5.37892,"is_reserved":false,"is_disabled":false,"rental_uris":{"android":"levelo://app?vid=63cb73aa-86fe-4599-9b76-3790ec130780","ios":"levelo://app?vid=63cb73aa-86fe-4599-9b76-3790ec130780"},"vehicle_type_id":"4","last_reported":1746634414,"current_range_meters":6000,"station_id":"","pricing_plan_id":"cebpf4jnsgd1na2vs0mg"},{"bike_id":"db97f7d1-d35d-4dcd-976a-fbe1c8cbdd29","system_id":"levelo_inurba_marseille","lat":43.32633,"lon":5.42945,"is_reserved":false,"is_disabled":false,"rental_uris":{"android":"levelo://app?vid=db97f7d1-d35d-4dcd-976a-fbe1c8cbdd29","ios":"levelo://app?vid=db97f7d1-d35d-4dcd-976a-fbe1c8cbdd29"},"vehicle_type_id":"4","last_reported":1746634414,"current_range_meters":6400,"station_id":"","pricing_plan_id":"cebpf4jnsgd1na2vs0mg"},{"bike_id":"a58aa4f7-bdde-40ae-ac9c-f6123b4155e7","system_id":"levelo_inurba_marseille","lat":43.28939,"lon":5.36638,"is_reserved":false,"is_disabled":false,"rental_uris":{"android":"levelo://app?vid=a58aa4f7-bdde-40ae-ac9c-f6123b4155e7","ios":"levelo://app?vid=a58aa4f7-bdde-40ae-ac9c-f6123b4155e7"},"vehicle_type_id":"4","last_reported":1746634414,"current_range_meters":6000,"station_id":"ce4bhap2rcd13ifvqek0","pricing_plan_id":"cebpf4jnsgd1na2vs0mg"},{"bike_id":"aefde00d-5b66-4d5c-8b23-882a3a9cd888","system_id":"levelo_inurba_marseille","lat":43.31333,"lon":5.39685,"is_reserved":false,"is_disabled":false,"rental_uris":{"android":"levelo://app?vid=aefde00d-5b66-4d5c-8b23-882a3a9cd888","ios":"levelo://app?vid=aefde00d-5b66-4d5c-8b23-882a3a9cd888"},"vehicle_type_id":"4","last_reported":1746634414,"current_range_meters":6400,"station_id":"ce4bgvp2rcd13ifvqcu0","pricing_plan_id":"cebpf4jnsgd1na2vs0mg"},{"bike_id":"125f2b4d-793c-4faf-a6bb-3777076468f6","system_id":"levelo_inurba_marseille","lat":43.242896,"lon":5.396658,"is_reserved":false,"is_disabled":false,"rental_uris":{"android":"levelo://app?vid=125f2b4d-793c-4faf-a6bb-3777076468f6","ios":"levelo://app?vid=125f2b4d-793c-4faf-a6bb-3777076468f6"},"vehicle_type_id":"4","last_reported":1746634414,"current_range_meters":6800,"station_id":"cjm6bp8fraef2m0cb0m0","pricing_plan_id":"cebpf4jnsgd1na2vs0mg"},{"bike_id":"f3b0975f-d8db-4207-ba1b-e125029eb936","system_id":"levelo_inurba_marseille","lat":43.28,"lon":5.40019,"is_reserved":false,"is_disabled":false,"rental_uris":{"android":"levelo://app?vid=f3b0975f-d8db-4207-ba1b-e125029eb936","ios":"levelo://app?vid=f3b0975f-d8db-4207-ba1b-e125029eb936"},"vehicle_type_id":"4","last_reported":1746634414,"current_range_meters":6400,"station_id":"ce4bho92rcd13ifvqh4g","pricing_plan_id":"cebpf4jnsgd1na2vs0mg"},{"bike_id":"5e1a59d2-88ca-49a8-bd25-9a7dbdcd274d","system_id":"levelo_inurba_marseille","lat":43.27994,"lon":5.4166,"is_reserved":false,"is_disabled":false,"rental_uris":{"android":"levelo://app?vid=5e1a59d2-88ca-49a8-bd25-9a7dbdcd274d","ios":"levelo://app?vid=5e1a59d2-88ca-49a8-bd25-9a7dbdcd274d"},"vehicle_type_id":"4","last_reported":1746634414,"current_range_meters":6800,"station_id":"ce4bho12rcd13ifvqh1g","pricing_plan_id":"cebpf4jnsgd1na2vs0mg"},{"bike_id":"260652c5-34f6-47ca-b9da-b5d0e0bcf665","system_id":"levelo_inurba_marseille","lat":43.29425,"lon":5.38617,"is_reserved":false,"is_disabled":false,"rental_uris":{"android":"levelo://app?vid=260652c5-34f6-47ca-b9da-b5d0e0bcf665","ios":"levelo://app?vid=260652c5-34f6-47ca-b9da-b5d0e0bcf665"},"vehicle_type_id":"4","last_reported":1746634414,"current_range_meters":6800,"station_id":"ce4bh2h2rcd13ifvqdh0","pricing_plan_id":"cebpf4jnsgd1na2vs0mg"},{"bike_id":"9e5e8878-1a9f-4c01-8331-e3cac2c7196b","system_id":"levelo_inurba_marseille","lat":43.2846,"lon":5.35889,"is_reserved":false,"is_disabled":false,"rental_uris":{"android":"levelo://app?vid=9e5e8878-1a9f-4c01-8331-e3cac2c7196b","ios":"levelo://app?vid=9e5e8878-1a9f-4c01-8331-e3cac2c7196b"},"vehicle_type_id":"4","last_reported":1746634414,"current_range_meters":6800,"station_id":"ce4bhah2rcd13ifvqei0","pricing_plan_id":"cebpf4jnsgd1na2vs0mg"},{"bike_id":"0b47297a-446c-4caa-ae45-980d511fe2f2","system_id":"levelo_inurba_marseille","lat":43.29171,"lon":5.37142,"is_reserved":false,"is_disabled":false,"rental_uris":{"android":"levelo://app?vid=0b47297a-446c-4caa-ae45-980d511fe2f2","ios":"levelo://app?vid=0b47297a-446c-4caa-ae45-980d511fe2f2"},"vehicle_type_id":"4","last_reported":1746634414,"current_range_meters":6000,"station_id":"ce4bha92rcd13ifvqeh0","pricing_plan_id":"cebpf4jnsgd1na2vs0mg"},{"bike_id":"04c59f7f-7655-44c5-a0b0-2a420971c6d4","system_id":"levelo_inurba_marseille","lat":43.30416,"lon":5.4128,"is_reserved":false,"is_disabled":false,"rental_uris":{"android":"levelo://app?vid=04c59f7f-7655-44c5-a0b0-2a420971c6d4","ios":"levelo://app?vid=04c59f7f-7655-44c5-a0b0-2a420971c6d4"},"vehicle_type_id":"4","last_reported":1746634414,"current_range_meters":6800,"station_id":"ce4bhop2rcd13ifvqh8g","pricing_plan_id":"cebpf4jnsgd1na2vs0mg"},{"bike_id":"faf497ad-8e2e-490a-b16b-c5934b6884a8","system_id":"levelo_inurba_marseille","lat":43.31276,"lon":5.40171,"is_reserved":false,"is_disabled":false,"rental_uris":{"android":"levelo://app?vid=faf497ad-8e2e-490a-b16b-c5934b6884a8","ios":"levelo://app?vid=faf497ad-8e2e-490a-b16b-c5934b6884a8"},"vehicle_type_id":"4","last_reported":1746634414,"current_range_meters":6800,"station_id":"ce4bh092rcd13ifvqd30","pricing_plan_id":"cebpf4jnsgd1na2vs0mg"},{"bike_id":"31db730c-641e-4b7e-9688-34455d733f02","system_id":"levelo_inurba_marseille","lat":43.284376,"lon":5.392078,"is_reserved":false,"is_disabled":false,"rental_uris":{"android":"levelo://app?vid=31db730c-641e-4b7e-9688-34455d733f02","ios":"levelo://app?vid=31db730c-641e-4b7e-9688-34455d733f02"},"vehicle_type_id":"4","last_reported":1746634414,"current_range_meters":6800,"station_id":"ce4bhoh2rcd13ifvqh5g","pricing_plan_id":"cebpf4jnsgd1na2vs0mg"},{"bike_id":"490c14ff-73ce-4e69-98f8-7a87525e49db","system_id":"levelo_inurba_marseille","lat":43.307315,"lon":5.424403,"is_reserved":false,"is_disabled":false,"rental_uris":{"android":"levelo://app?vid=490c14ff-73ce-4e69-98f8-7a87525e49db","ios":"levelo://app?vid=490c14ff-73ce-4e69-98f8-7a87525e49db"},"vehicle_type_id":"4","last_reported":1746634414,"current_range_meters":6800,"station_id":"st_cvj6ca6bvosntc0bfgr0","pricing_plan_id":"cebpf4jnsgd1na2vs0mg"},{"bike_id":"705f1f6f-d92c-4df1-a512-943b0bf79900","system_id":"levelo_inurba_marseille","lat":43.2251,"lon":5.347721,"is_reserved":false,"is_disabled":false,"rental_uris":{"android":"levelo://app?vid=705f1f6f-d92c-4df1-a512-943b0bf79900","ios":"levelo://app?vid=705f1f6f-d92c-4df1-a512-943b0bf79900"},"vehicle_type_id":"4","last_reported":1746634414,"current_range_meters":6800,"station_id":"st_cvj5dfep6f1abm77gieg","pricing_plan_id":"cebpf4jnsgd1na2vs0mg"},{"bike_id":"16db306e-2033-4d77-851c-a0eb03fd235b","system_id":"levelo_inurba_marseille","lat":43.24072,"lon":5.3776,"is_reserved":false,"is_disabled":false,"rental_uris":{"android":"levelo://app?vid=16db306e-2033-4d77-851c-a0eb03fd235b","ios":"levelo://app?vid=16db306e-2033-4d77-851c-a0eb03fd235b"},"vehicle_type_id":"4","last_reported":1746634414,"current_range_meters":7200,"station_id":"ce4bhnp2rcd13ifvqgvg","pricing_plan_id":"cebpf4jnsgd1na2vs0mg"},{"bike_id":"058c04c0-a83a-4af5-a5f8-af2e07c7895c","system_id":"levelo_inurba_marseille","lat":43.33003,"lon":5.39322,"is_reserved":false,"is_disabled":false,"rental_uris":{"android":"levelo://app?vid=058c04c0-a83a-4af5-a5f8-af2e07c7895c","ios":"levelo://app?vid=058c04c0-a83a-4af5-a5f8-af2e07c7895c"},"vehicle_type_id":"4","last_reported":1746634414,"current_range_meters":7200,"station_id":"","pricing_plan_id":"cebpf4jnsgd1na2vs0mg"},{"bike_id":"1ef43e1c-bd43-498e-a2fb-70dd6a03b78c","system_id":"levelo_inurba_marseille","lat":43.29867,"lon":5.39735,"is_reserved":false,"is_disabled":false,"rental_uris":{"android":"levelo://app?vid=1ef43e1c-bd43-498e-a2fb-70dd6a03b78c","ios":"levelo://app?vid=1ef43e1c-bd43-498e-a2fb-70dd6a03b78c"},"vehicle_type_id":"4","last_reported":1746634414,"current_range_meters":7200,"station_id":"ce4bh0h2rcd13ifvqd50","pricing_plan_id":"cebpf4jnsgd1na2vs0mg"},{"bike_id":"f0f96e1c-b73f-4928-aa68-c26fd136f54b","system_id":"levelo_inurba_marseille","lat":43.29031,"lon":5.37566,"is_reserved":false,"is_disabled":false,"rental_uris":{"android":"levelo://app?vid=f0f96e1c-b73f-4928-aa68-c26fd136f54b","ios":"levelo://app?vid=f0f96e1c-b73f-4928-aa68-c26fd136f54b"},"vehicle_type_id":"4","last_reported":1746634414,"current_range_meters":7200,"station_id":"ce4bh692rcd13ifvqe90","pricing_plan_id":"cebpf4jnsgd1na2vs0mg"},{"bike_id":"d6833c2b-29ec-4e3d-81cc-1b35536dd7b9","system_id":"levelo_inurba_marseille","lat":43.29004,"lon":5.3561,"is_reserved":false,"is_disabled":false,"rental_uris":{"android":"levelo://app?vid=d6833c2b-29ec-4e3d-81cc-1b35536dd7b9","ios":"levelo://app?vid=d6833c2b-29ec-4e3d-81cc-1b35536dd7b9"},"vehicle_type_id":"4","last_reported":1746634414,"current_range_meters":3600,"station_id":"ce4bhb92rcd13ifvqen0","pricing_plan_id":"cebpf4jnsgd1na2vs0mg"},{"bike_id":"1b617b33-4bbe-49ab-862d-58bf6223d8e9","system_id":"levelo_inurba_marseille","lat":43.32664,"lon":5.42904,"is_reserved":false,"is_disabled":false,"rental_uris":{"android":"levelo://app?vid=1b617b33-4bbe-49ab-862d-58bf6223d8e9","ios":"levelo://app?vid=1b617b33-4bbe-49ab-862d-58bf6223d8e9"},"vehicle_type_id":"4","last_reported":1746634414,"current_range_meters":7200,"station_id":"","pricing_plan_id":"cebpf4jnsgd1na2vs0mg"},{"bike_id":"8f86f6bb-8e4c-450d-bed4-98b39f9e3f0e","system_id":"levelo_inurba_marseille","lat":43.32368,"lon":5.3889,"is_reserved":false,"is_disabled":false,"rental_uris":{"android":"levelo://app?vid=8f86f6bb-8e4c-450d-bed4-98b39f9e3f0e","ios":"levelo://app?vid=8f86f6bb-8e4c-450d-bed4-98b39f9e3f0e"},"vehicle_type_id":"4","last_reported":1746634414,"current_range_meters":8000,"station_id":"ce4bhqp2rcd13ifvqhog","pricing_plan_id":"cebpf4jnsgd1na2vs0mg"},{"bike_id":"65e1084f-ebcf-4601-908e-c0c52240a2e5","system_id":"levelo_inurba_marseille","lat":43.262087,"lon":5.379243,"is_reserved":false,"is_disabled":true,"rental_uris":{"android":"levelo://app?vid=65e1084f-ebcf-4601-908e-c0c52240a2e5","ios":"levelo://app?vid=65e1084f-ebcf-4601-908e-c0c52240a2e5"},"vehicle_type_id":"4","last_reported":1746634414,"current_range_meters":8000,"station_id":"ce4bhjp2rcd13ifvqg90","pricing_plan_id":"cebpf4jnsgd1na2vs0mg"},{"bike_id":"31f6c821-4c9b-4d67-99da-51fd5f98e406","system_id":"levelo_inurba_marseille","lat":43.29549,"lon":5.39931,"is_reserved":false,"is_disabled":false,"rental_uris":{"android":"levelo://app?vid=31f6c821-4c9b-4d67-99da-51fd5f98e406","ios":"levelo://app?vid=31f6c821-4c9b-4d67-99da-51fd5f98e406"},"vehicle_type_id":"4","last_reported":1746634414,"current_range_meters":8400,"station_id":"ce4bh312rcd13ifvqdj0","pricing_plan_id":"cebpf4jnsgd1na2vs0mg"},{"bike_id":"048086b7-bc4f-4c4d-8a80-39e6c44e2ff3","system_id":"levelo_inurba_marseille","lat":43.28986,"lon":5.37844,"is_reserved":false,"is_disabled":false,"rental_uris":{"android":"levelo://app?vid=048086b7-bc4f-4c4d-8a80-39e6c44e2ff3","ios":"levelo://app?vid=048086b7-bc4f-4c4d-8a80-39e6c44e2ff3"},"vehicle_type_id":"4","last_reported":1746634414,"current_range_meters":8400,"station_id":"ce4bh9p2rcd13ifvqed0","pricing_plan_id":"cebpf4jnsgd1na2vs0mg"},{"bike_id":"dce814c0-4c4e-4a20-a33b-97af480f0bcb","system_id":"levelo_inurba_marseille","lat":43.29025,"lon":5.42652,"is_reserved":false,"is_disabled":false,"rental_uris":{"android":"levelo://app?vid=dce814c0-4c4e-4a20-a33b-97af480f0bcb","ios":"levelo://app?vid=dce814c0-4c4e-4a20-a33b-97af480f0bcb"},"vehicle_type_id":"4","last_reported":1746634414,"current_range_meters":8400,"station_id":"","pricing_plan_id":"cebpf4jnsgd1na2vs0mg"},{"bike_id":"9984e37c-463a-40fc-a3fb-d3ee07d77ed1","system_id":"levelo_inurba_marseille","lat":43.29264,"lon":5.40915,"is_reserved":false,"is_disabled":false,"rental_uris":{"android":"levelo://app?vid=9984e37c-463a-40fc-a3fb-d3ee07d77ed1","ios":"levelo://app?vid=9984e37c-463a-40fc-a3fb-d3ee07d77ed1"},"vehicle_type_id":"4","last_reported":1746634414,"current_range_meters":8000,"station_id":"ce4bh192rcd13ifvqdc0","pricing_plan_id":"cebpf4jnsgd1na2vs0mg"},{"bike_id":"ac5e2c3a-5ebb-4083-8989-d3ce63a36f3f","system_id":"levelo_inurba_marseille","lat":43.29036,"lon":5.37572,"is_reserved":false,"is_disabled":false,"rental_uris":{"android":"levelo://app?vid=ac5e2c3a-5ebb-4083-8989-d3ce63a36f3f","ios":"levelo://app?vid=ac5e2c3a-5ebb-4083-8989-d3ce63a36f3f"},"vehicle_type_id":"4","last_reported":1746634414,"current_range_meters":8400,"station_id":"ce4bh692rcd13ifvqe90","pricing_plan_id":"cebpf4jnsgd1na2vs0mg"},{"bike_id":"3e1ca513-aa1b-4a6f-a747-9f51804048af","system_id":"levelo_inurba_marseille","lat":43.27625,"lon":5.36088,"is_reserved":false,"is_disabled":false,"rental_uris":{"android":"levelo://app?vid=3e1ca513-aa1b-4a6f-a747-9f51804048af","ios":"levelo://app?vid=3e1ca513-aa1b-4a6f-a747-9f51804048af"},"vehicle_type_id":"4","last_reported":1746634414,"current_range_meters":8400,"station_id":"ce4bgj92rcd13ifvqbe0","pricing_plan_id":"cebpf4jnsgd1na2vs0mg"},{"bike_id":"95551177-d054-4b62-a254-248a5c7b6dec","system_id":"levelo_inurba_marseille","lat":43.26928,"lon":5.3893,"is_reserved":false,"is_disabled":false,"rental_uris":{"android":"levelo://app?vid=95551177-d054-4b62-a254-248a5c7b6dec","ios":"levelo://app?vid=95551177-d054-4b62-a254-248a5c7b6dec"},"vehicle_type_id":"4","last_reported":1746634414,"current_range_meters":8000,"station_id":"ce4bhhh2rcd13ifvqfl0","pricing_plan_id":"cebpf4jnsgd1na2vs0mg"},{"bike_id":"254fc81b-90b5-4361-9bf7-9f62802cae27","system_id":"levelo_inurba_marseille","lat":43.27978,"lon":5.4,"is_reserved":false,"is_disabled":false,"rental_uris":{"android":"levelo://app?vid=254fc81b-90b5-4361-9bf7-9f62802cae27","ios":"levelo://app?vid=254fc81b-90b5-4361-9bf7-9f62802cae27"},"vehicle_type_id":"4","last_reported":1746634414,"current_range_meters":8400,"station_id":"ce4bho92rcd13ifvqh4g","pricing_plan_id":"cebpf4jnsgd1na2vs0mg"},{"bike_id":"999aae98-2eba-46d9-b257-9df1feca2c99","system_id":"levelo_inurba_marseille","lat":43.29711,"lon":5.36605,"is_reserved":false,"is_disabled":false,"rental_uris":{"android":"levelo://app?vid=999aae98-2eba-46d9-b257-9df1feca2c99","ios":"levelo://app?vid=999aae98-2eba-46d9-b257-9df1feca2c99"},"vehicle_type_id":"4","last_reported":1746634414,"current_range_meters":8800,"station_id":"ce4bgn12rcd13ifvqbt0","pricing_plan_id":"cebpf4jnsgd1na2vs0mg"},{"bike_id":"58fd925f-ad3e-4a26-997c-fed962d6e683","system_id":"levelo_inurba_marseille","lat":43.30126,"lon":5.38781,"is_reserved":false,"is_disabled":true,"rental_uris":{"android":"levelo://app?vid=58fd925f-ad3e-4a26-997c-fed962d6e683","ios":"levelo://app?vid=58fd925f-ad3e-4a26-997c-fed962d6e683"},"vehicle_type_id":"4","last_reported":1746634414,"current_range_meters":8800,"station_id":"ce4bghh2rcd13ifvqb60","pricing_plan_id":"cebpf4jnsgd1na2vs0mg"},{"bike_id":"52a9522b-2625-4bc8-98e8-8d7186b7e5d2","system_id":"levelo_inurba_marseille","lat":43.28676,"lon":5.38714,"is_reserved":false,"is_disabled":false,"rental_uris":{"android":"levelo://app?vid=52a9522b-2625-4bc8-98e8-8d7186b7e5d2","ios":"levelo://app?vid=52a9522b-2625-4bc8-98e8-8d7186b7e5d2"},"vehicle_type_id":"4","last_reported":1746634414,"current_range_meters":8800,"station_id":"ce4bh492rcd13ifvqdug","pricing_plan_id":"cebpf4jnsgd1na2vs0mg"},{"bike_id":"77f59214-f429-4425-8487-9600e7eabd23","system_id":"levelo_inurba_marseille","lat":43.30935,"lon":5.37117,"is_reserved":false,"is_disabled":false,"rental_uris":{"android":"levelo://app?vid=77f59214-f429-4425-8487-9600e7eabd23","ios":"levelo://app?vid=77f59214-f429-4425-8487-9600e7eabd23"},"vehicle_type_id":"4","last_reported":1746634414,"current_range_meters":8800,"station_id":"","pricing_plan_id":"cebpf4jnsgd1na2vs0mg"},{"bike_id":"dfd27e22-9b34-42f8-9fdf-f3a07c5bdce7","system_id":"levelo_inurba_marseille","lat":43.24166,"lon":5.36403,"is_reserved":false,"is_disabled":false,"rental_uris":{"android":"levelo://app?vid=dfd27e22-9b34-42f8-9fdf-f3a07c5bdce7","ios":"levelo://app?vid=dfd27e22-9b34-42f8-9fdf-f3a07c5bdce7"},"vehicle_type_id":"4","last_reported":1746634414,"current_range_meters":8800,"station_id":"cpo36qri1sfpv3e86is0","pricing_plan_id":"cebpf4jnsgd1na2vs0mg"},{"bike_id":"c7741849-e541-44df-8dea-1d3f1b8cc5f0","system_id":"levelo_inurba_marseille","lat":43.330175,"lon":5.390399,"is_reserved":false,"is_disabled":false,"rental_uris":{"android":"levelo://app?vid=c7741849-e541-44df-8dea-1d3f1b8cc5f0","ios":"levelo://app?vid=c7741849-e541-44df-8dea-1d3f1b8cc5f0"},"vehicle_type_id":"4","last_reported":1746634414,"current_range_meters":8800,"station_id":"ce4bhr92rcd13ifvqhrg","pricing_plan_id":"cebpf4jnsgd1na2vs0mg"},{"bike_id":"236d6d49-8435-4c00-b9e9-f02729218eca","system_id":"levelo_inurba_marseille","lat":43.292102,"lon":5.358938,"is_reserved":false,"is_disabled":false,"rental_uris":{"android":"levelo://app?vid=236d6d49-8435-4c00-b9e9-f02729218eca","ios":"levelo://app?vid=236d6d49-8435-4c00-b9e9-f02729218eca"},"vehicle_type_id":"4","last_reported":1746634414,"current_range_meters":8800,"station_id":"ce4bhb92rcd13ifvqen0","pricing_plan_id":"cebpf4jnsgd1na2vs0mg"},{"bike_id":"4e135142-b93d-4af2-abe2-1c6242312c21","system_id":"levelo_inurba_marseille","lat":43.31338,"lon":5.39691,"is_reserved":false,"is_disabled":false,"rental_uris":{"android":"levelo://app?vid=4e135142-b93d-4af2-abe2-1c6242312c21","ios":"levelo://app?vid=4e135142-b93d-4af2-abe2-1c6242312c21"},"vehicle_type_id":"4","last_reported":1746634414,"current_range_meters":9200,"station_id":"ce4bgvp2rcd13ifvqcu0","pricing_plan_id":"cebpf4jnsgd1na2vs0mg"},{"bike_id":"52e1afe7-419b-4439-a6f0-4583e1c0ad38","system_id":"levelo_inurba_marseille","lat":43.27987,"lon":5.40022,"is_reserved":false,"is_disabled":false,"rental_uris":{"android":"levelo://app?vid=52e1afe7-419b-4439-a6f0-4583e1c0ad38","ios":"levelo://app?vid=52e1afe7-419b-4439-a6f0-4583e1c0ad38"},"vehicle_type_id":"4","last_reported":1746634414,"current_range_meters":9200,"station_id":"ce4bho92rcd13ifvqh4g","pricing_plan_id":"cebpf4jnsgd1na2vs0mg"},{"bike_id":"ed7db648-4dce-4ec9-8153-f82b9a4a106d","system_id":"levelo_inurba_marseille","lat":43.29261,"lon":5.38443,"is_reserved":false,"is_disabled":false,"rental_uris":{"android":"levelo://app?vid=ed7db648-4dce-4ec9-8153-f82b9a4a106d","ios":"levelo://app?vid=ed7db648-4dce-4ec9-8153-f82b9a4a106d"},"vehicle_type_id":"4","last_reported":1746634414,"current_range_meters":9200,"station_id":"ce4bh692rcd13ifvqea0","pricing_plan_id":"cebpf4jnsgd1na2vs0mg"},{"bike_id":"fa63a7e4-e781-4293-89ae-80fbf3b33863","system_id":"levelo_inurba_marseille","lat":43.25447,"lon":5.41884,"is_reserved":false,"is_disabled":false,"rental_uris":{"android":"levelo://app?vid=fa63a7e4-e781-4293-89ae-80fbf3b33863","ios":"levelo://app?vid=fa63a7e4-e781-4293-89ae-80fbf3b33863"},"vehicle_type_id":"4","last_reported":1746634414,"current_range_meters":9600,"station_id":"","pricing_plan_id":"cebpf4jnsgd1na2vs0mg"},{"bike_id":"b7bdbe3a-b7ec-4256-908f-dfa71835a5d1","system_id":"levelo_inurba_marseille","lat":43.28886,"lon":5.37149,"is_reserved":false,"is_disabled":false,"rental_uris":{"android":"levelo://app?vid=b7bdbe3a-b7ec-4256-908f-dfa71835a5d1","ios":"levelo://app?vid=b7bdbe3a-b7ec-4256-908f-dfa71835a5d1"},"vehicle_type_id":"4","last_reported":1746634414,"current_range_meters":9600,"station_id":"","pricing_plan_id":"cebpf4jnsgd1na2vs0mg"},{"bike_id":"30db7e5a-ee07-405d-8bcf-730423356dc2","system_id":"levelo_inurba_marseille","lat":43.28078,"lon":5.3966,"is_reserved":false,"is_disabled":false,"rental_uris":{"android":"levelo://app?vid=30db7e5a-ee07-405d-8bcf-730423356dc2","ios":"levelo://app?vid=30db7e5a-ee07-405d-8bcf-730423356dc2"},"vehicle_type_id":"4","last_reported":1746634414,"current_range_meters":10000,"station_id":"ce4bho12rcd13ifvqh2g","pricing_plan_id":"cebpf4jnsgd1na2vs0mg"},{"bike_id":"f5af581d-5f8a-44f4-8a42-533e29b9c521","system_id":"levelo_inurba_marseille","lat":43.30318,"lon":5.39192,"is_reserved":false,"is_disabled":true,"rental_uris":{"android":"levelo://app?vid=f5af581d-5f8a-44f4-8a42-533e29b9c521","ios":"levelo://app?vid=f5af581d-5f8a-44f4-8a42-533e29b9c521"},"vehicle_type_id":"4","last_reported":1746634414,"current_range_meters":10000,"station_id":"ce4bgkh2rcd13ifvqbk0","pricing_plan_id":"cebpf4jnsgd1na2vs0mg"},{"bike_id":"45082317-7477-4476-8774-36dc2a137585","system_id":"levelo_inurba_marseille","lat":43.33149,"lon":5.38159,"is_reserved":false,"is_disabled":false,"rental_uris":{"android":"levelo://app?vid=45082317-7477-4476-8774-36dc2a137585","ios":"levelo://app?vid=45082317-7477-4476-8774-36dc2a137585"},"vehicle_type_id":"4","last_reported":1746634414,"current_range_meters":10000,"station_id":"","pricing_plan_id":"cebpf4jnsgd1na2vs0mg"},{"bike_id":"56c7c600-1069-4395-be37-7dec8e1968dd","system_id":"levelo_inurba_marseille","lat":43.28839,"lon":5.39296,"is_reserved":false,"is_disabled":false,"rental_uris":{"android":"levelo://app?vid=56c7c600-1069-4395-be37-7dec8e1968dd","ios":"levelo://app?vid=56c7c600-1069-4395-be37-7dec8e1968dd"},"vehicle_type_id":"4","last_reported":1746634414,"current_range_meters":9600,"station_id":"ce4bh2p2rcd13ifvqdi0","pricing_plan_id":"cebpf4jnsgd1na2vs0mg"},{"bike_id":"dd568fe3-b787-4845-a1e4-0ca3d718f6b7","system_id":"levelo_inurba_marseille","lat":43.23185,"lon":5.3998,"is_reserved":false,"is_disabled":false,"rental_uris":{"android":"levelo://app?vid=dd568fe3-b787-4845-a1e4-0ca3d718f6b7","ios":"levelo://app?vid=dd568fe3-b787-4845-a1e4-0ca3d718f6b7"},"vehicle_type_id":"4","last_reported":1746634414,"current_range_meters":9600,"station_id":"ce4bhn12rcd13ifvqgqg","pricing_plan_id":"cebpf4jnsgd1na2vs0mg"},{"bike_id":"89420609-8590-4e4d-9042-8fb0e02b5686","system_id":"levelo_inurba_marseille","lat":43.24195,"lon":5.36412,"is_reserved":false,"is_disabled":false,"rental_uris":{"android":"levelo://app?vid=89420609-8590-4e4d-9042-8fb0e02b5686","ios":"levelo://app?vid=89420609-8590-4e4d-9042-8fb0e02b5686"},"vehicle_type_id":"4","last_reported":1746634414,"current_range_meters":10000,"station_id":"cpo36qri1sfpv3e86is0","pricing_plan_id":"cebpf4jnsgd1na2vs0mg"},{"bike_id":"45954270-27e2-4055-a956-be91bf2234cd","system_id":"levelo_inurba_marseille","lat":43.30148,"lon":5.39882,"is_reserved":false,"is_disabled":false,"rental_uris":{"android":"levelo://app?vid=45954270-27e2-4055-a956-be91bf2234cd","ios":"levelo://app?vid=45954270-27e2-4055-a956-be91bf2234cd"},"vehicle_type_id":"4","last_reported":1746634414,"current_range_meters":10000,"station_id":"ce4bh0h2rcd13ifvqd40","pricing_plan_id":"cebpf4jnsgd1na2vs0mg"},{"bike_id":"741922f7-49ff-4751-a228-5a73f2c8c24d","system_id":"levelo_inurba_marseille","lat":43.241721,"lon":5.364017,"is_reserved":false,"is_disabled":false,"rental_uris":{"android":"levelo://app?vid=741922f7-49ff-4751-a228-5a73f2c8c24d","ios":"levelo://app?vid=741922f7-49ff-4751-a228-5a73f2c8c24d"},"vehicle_type_id":"4","last_reported":1746634414,"current_range_meters":10000,"station_id":"cpo36qri1sfpv3e86is0","pricing_plan_id":"cebpf4jnsgd1na2vs0mg"},{"bike_id":"44cbfb87-c061-475a-8611-cc58080a287d","system_id":"levelo_inurba_marseille","lat":43.30055,"lon":5.38073,"is_reserved":false,"is_disabled":false,"rental_uris":{"android":"levelo://app?vid=44cbfb87-c061-475a-8611-cc58080a287d","ios":"levelo://app?vid=44cbfb87-c061-475a-8611-cc58080a287d"},"vehicle_type_id":"4","last_reported":1746634414,"current_range_meters":10000,"station_id":"","pricing_plan_id":"cebpf4jnsgd1na2vs0mg"},{"bike_id":"028c3799-fdb4-49d4-90e9-300404e8fc36","system_id":"levelo_inurba_marseille","lat":43.32474,"lon":5.36594,"is_reserved":false,"is_disabled":true,"rental_uris":{"android":"levelo://app?vid=028c3799-fdb4-49d4-90e9-300404e8fc36","ios":"levelo://app?vid=028c3799-fdb4-49d4-90e9-300404e8fc36"},"vehicle_type_id":"4","last_reported":1746634414,"current_range_meters":10000,"station_id":"ce4bhs12rcd13ifvqhvg","pricing_plan_id":"cebpf4jnsgd1na2vs0mg"},{"bike_id":"e85bb400-a53a-454d-8b28-bb3656a62c6d","system_id":"levelo_inurba_marseille","lat":43.31336,"lon":5.39688,"is_reserved":false,"is_disabled":false,"rental_uris":{"android":"levelo://app?vid=e85bb400-a53a-454d-8b28-bb3656a62c6d","ios":"levelo://app?vid=e85bb400-a53a-454d-8b28-bb3656a62c6d"},"vehicle_type_id":"4","last_reported":1746634414,"current_range_meters":10800,"station_id":"ce4bgvp2rcd13ifvqcu0","pricing_plan_id":"cebpf4jnsgd1na2vs0mg"},{"bike_id":"2c6c53cd-9fdd-489b-ae9a-91bf743469df","system_id":"levelo_inurba_marseille","lat":43.3116,"lon":5.38717,"is_reserved":false,"is_disabled":false,"rental_uris":{"android":"levelo://app?vid=2c6c53cd-9fdd-489b-ae9a-91bf743469df","ios":"levelo://app?vid=2c6c53cd-9fdd-489b-ae9a-91bf743469df"},"vehicle_type_id":"4","last_reported":1746634414,"current_range_meters":10800,"station_id":"ce4bgv12rcd13ifvqcp0","pricing_plan_id":"cebpf4jnsgd1na2vs0mg"},{"bike_id":"cbf61958-4fbb-4797-b45a-581b18314e8c","system_id":"levelo_inurba_marseille","lat":43.30887,"lon":5.37197,"is_reserved":false,"is_disabled":false,"rental_uris":{"android":"levelo://app?vid=cbf61958-4fbb-4797-b45a-581b18314e8c","ios":"levelo://app?vid=cbf61958-4fbb-4797-b45a-581b18314e8c"},"vehicle_type_id":"4","last_reported":1746634414,"current_range_meters":10800,"station_id":"ce4bguh2rcd13ifvqckg","pricing_plan_id":"cebpf4jnsgd1na2vs0mg"},{"bike_id":"c5e9ba19-f55e-421d-b707-5ab5bf8fa99e","system_id":"levelo_inurba_marseille","lat":43.30308,"lon":5.39219,"is_reserved":false,"is_disabled":false,"rental_uris":{"android":"levelo://app?vid=c5e9ba19-f55e-421d-b707-5ab5bf8fa99e","ios":"levelo://app?vid=c5e9ba19-f55e-421d-b707-5ab5bf8fa99e"},"vehicle_type_id":"4","last_reported":1746634414,"current_range_meters":10000,"station_id":"ce4bgkh2rcd13ifvqbk0","pricing_plan_id":"cebpf4jnsgd1na2vs0mg"},{"bike_id":"c650db92-e467-494a-8ffb-fba552729a60","system_id":"levelo_inurba_marseille","lat":43.23966,"lon":5.3664,"is_reserved":false,"is_disabled":false,"rental_uris":{"android":"levelo://app?vid=c650db92-e467-494a-8ffb-fba552729a60","ios":"levelo://app?vid=c650db92-e467-494a-8ffb-fba552729a60"},"vehicle_type_id":"4","last_reported":1746634414,"current_range_meters":10800,"station_id":"ce4bhi12rcd13ifvqfp0","pricing_plan_id":"cebpf4jnsgd1na2vs0mg"},{"bike_id":"be844afd-e7ea-4d8f-b015-d061fb8ef793","system_id":"levelo_inurba_marseille","lat":43.2942,"lon":5.38622,"is_reserved":false,"is_disabled":false,"rental_uris":{"android":"levelo://app?vid=be844afd-e7ea-4d8f-b015-d061fb8ef793","ios":"levelo://app?vid=be844afd-e7ea-4d8f-b015-d061fb8ef793"},"vehicle_type_id":"4","last_reported":1746634414,"current_range_meters":11200,"station_id":"ce4bh2h2rcd13ifvqdh0","pricing_plan_id":"cebpf4jnsgd1na2vs0mg"},{"bike_id":"67840512-5629-4cb3-a828-be2b85c9c03d","system_id":"levelo_inurba_marseille","lat":43.307975,"lon":5.381486,"is_reserved":false,"is_disabled":false,"rental_uris":{"android":"levelo://app?vid=67840512-5629-4cb3-a828-be2b85c9c03d","ios":"levelo://app?vid=67840512-5629-4cb3-a828-be2b85c9c03d"},"vehicle_type_id":"4","last_reported":1746634414,"current_range_meters":11200,"station_id":"ce4bgt12rcd13ifvqce0","pricing_plan_id":"cebpf4jnsgd1na2vs0mg"},{"bike_id":"41ed17c6-0b22-43d8-8583-026240c9104b","system_id":"levelo_inurba_marseille","lat":43.30243,"lon":5.40049,"is_reserved":false,"is_disabled":false,"rental_uris":{"android":"levelo://app?vid=41ed17c6-0b22-43d8-8583-026240c9104b","ios":"levelo://app?vid=41ed17c6-0b22-43d8-8583-026240c9104b"},"vehicle_type_id":"4","last_reported":1746634414,"current_range_meters":11600,"station_id":"ce4bgvh2rcd13ifvqcs0","pricing_plan_id":"cebpf4jnsgd1na2vs0mg"},{"bike_id":"26346828-3bdc-4d5e-a933-008e010c6706","system_id":"levelo_inurba_marseille","lat":43.32081,"lon":5.36742,"is_reserved":false,"is_disabled":false,"rental_uris":{"android":"levelo://app?vid=26346828-3bdc-4d5e-a933-008e010c6706","ios":"levelo://app?vid=26346828-3bdc-4d5e-a933-008e010c6706"},"vehicle_type_id":"4","last_reported":1746634414,"current_range_meters":11600,"station_id":"ce4bhrh2rcd13ifvqhug","pricing_plan_id":"cebpf4jnsgd1na2vs0mg"},{"bike_id":"a96833c3-7aad-4769-953e-d8192a324355","system_id":"levelo_inurba_marseille","lat":43.337444,"lon":5.374475,"is_reserved":false,"is_disabled":false,"rental_uris":{"android":"levelo://app?vid=a96833c3-7aad-4769-953e-d8192a324355","ios":"levelo://app?vid=a96833c3-7aad-4769-953e-d8192a324355"},"vehicle_type_id":"4","last_reported":1746634414,"current_range_meters":11600,"station_id":"","pricing_plan_id":"cebpf4jnsgd1na2vs0mg"},{"bike_id":"4f1a88a4-1181-4d3f-b789-78471e07d698","system_id":"levelo_inurba_marseille","lat":43.2757,"lon":5.38425,"is_reserved":false,"is_disabled":false,"rental_uris":{"android":"levelo://app?vid=4f1a88a4-1181-4d3f-b789-78471e07d698","ios":"levelo://app?vid=4f1a88a4-1181-4d3f-b789-78471e07d698"},"vehicle_type_id":"4","last_reported":1746634414,"current_range_meters":11600,"station_id":"ce4bhh92rcd13ifvqfi0","pricing_plan_id":"cebpf4jnsgd1na2vs0mg"},{"bike_id":"adf0a64b-5b9f-429b-87c1-926ff04f9c27","system_id":"levelo_inurba_marseille","lat":43.3176,"lon":5.39016,"is_reserved":false,"is_disabled":false,"rental_uris":{"android":"levelo://app?vid=adf0a64b-5b9f-429b-87c1-926ff04f9c27","ios":"levelo://app?vid=adf0a64b-5b9f-429b-87c1-926ff04f9c27"},"vehicle_type_id":"4","last_reported":1746634414,"current_range_meters":11600,"station_id":"ce4bhqp2rcd13ifvqhng","pricing_plan_id":"cebpf4jnsgd1na2vs0mg"},{"bike_id":"30dffdab-3b4c-4d30-86cc-7ddeb0fe41d0","system_id":"levelo_inurba_marseille","lat":43.3021,"lon":5.39473,"is_reserved":false,"is_disabled":false,"rental_uris":{"android":"levelo://app?vid=30dffdab-3b4c-4d30-86cc-7ddeb0fe41d0","ios":"levelo://app?vid=30dffdab-3b4c-4d30-86cc-7ddeb0fe41d0"},"vehicle_type_id":"4","last_reported":1746634414,"current_range_meters":11600,"station_id":"ce4bh0p2rcd13ifvqd70","pricing_plan_id":"cebpf4jnsgd1na2vs0mg"},{"bike_id":"ad60c40b-9b84-4067-acda-05a1b160f2ca","system_id":"levelo_inurba_marseille","lat":43.28099,"lon":5.37836,"is_reserved":false,"is_disabled":false,"rental_uris":{"android":"levelo://app?vid=ad60c40b-9b84-4067-acda-05a1b160f2ca","ios":"levelo://app?vid=ad60c40b-9b84-4067-acda-05a1b160f2ca"},"vehicle_type_id":"4","last_reported":1746634414,"current_range_meters":12000,"station_id":"ce4bha12rcd13ifvqee0","pricing_plan_id":"cebpf4jnsgd1na2vs0mg"},{"bike_id":"7cb8b133-ac0a-498e-99aa-4e792645ad68","system_id":"levelo_inurba_marseille","lat":43.27175,"lon":5.40993,"is_reserved":false,"is_disabled":false,"rental_uris":{"android":"levelo://app?vid=7cb8b133-ac0a-498e-99aa-4e792645ad68","ios":"levelo://app?vid=7cb8b133-ac0a-498e-99aa-4e792645ad68"},"vehicle_type_id":"4","last_reported":1746634414,"current_range_meters":12000,"station_id":"ce4bhl12rcd13ifvqgf0","pricing_plan_id":"cebpf4jnsgd1na2vs0mg"},{"bike_id":"d04798c3-9753-4fb0-a926-d222d4cc74bd","system_id":"levelo_inurba_marseille","lat":43.28708,"lon":5.37399,"is_reserved":false,"is_disabled":false,"rental_uris":{"android":"levelo://app?vid=d04798c3-9753-4fb0-a926-d222d4cc74bd","ios":"levelo://app?vid=d04798c3-9753-4fb0-a926-d222d4cc74bd"},"vehicle_type_id":"4","last_reported":1746634414,"current_range_meters":12000,"station_id":"ce4bh3p2rcd13ifvqdq0","pricing_plan_id":"cebpf4jnsgd1na2vs0mg"},{"bike_id":"da969974-22aa-46db-8410-739525a3b9a9","system_id":"levelo_inurba_marseille","lat":43.229313,"lon":5.35379,"is_reserved":false,"is_disabled":false,"rental_uris":{"android":"levelo://app?vid=da969974-22aa-46db-8410-739525a3b9a9","ios":"levelo://app?vid=da969974-22aa-46db-8410-739525a3b9a9"},"vehicle_type_id":"4","last_reported":1746634414,"current_range_meters":12000,"station_id":"cpo3532slgdg3j2ikp40","pricing_plan_id":"cebpf4jnsgd1na2vs0mg"},{"bike_id":"eb0ab778-07d3-4e77-9c9e-f2a89f5517c5","system_id":"levelo_inurba_marseille","lat":43.23239,"lon":5.35572,"is_reserved":false,"is_disabled":false,"rental_uris":{"android":"levelo://app?vid=eb0ab778-07d3-4e77-9c9e-f2a89f5517c5","ios":"levelo://app?vid=eb0ab778-07d3-4e77-9c9e-f2a89f5517c5"},"vehicle_type_id":"4","last_reported":1746634414,"current_range_meters":12400,"station_id":"ce4bhu92rcd13ifvqi70","pricing_plan_id":"cebpf4jnsgd1na2vs0mg"},{"bike_id":"fff549e0-9244-43fc-8fec-869bb4c6c3bc","system_id":"levelo_inurba_marseille","lat":43.26572,"lon":5.39008,"is_reserved":false,"is_disabled":false,"rental_uris":{"android":"levelo://app?vid=fff549e0-9244-43fc-8fec-869bb4c6c3bc","ios":"levelo://app?vid=fff549e0-9244-43fc-8fec-869bb4c6c3bc"},"vehicle_type_id":"4","last_reported":1746634414,"current_range_meters":12400,"station_id":"ce4bhe12rcd13ifvqf30","pricing_plan_id":"cebpf4jnsgd1na2vs0mg"},{"bike_id":"827bb395-ef38-48eb-82a6-82745a5b064c","system_id":"levelo_inurba_marseille","lat":43.31334,"lon":5.397023,"is_reserved":false,"is_disabled":true,"rental_uris":{"android":"levelo://app?vid=827bb395-ef38-48eb-82a6-82745a5b064c","ios":"levelo://app?vid=827bb395-ef38-48eb-82a6-82745a5b064c"},"vehicle_type_id":"4","last_reported":1746634414,"current_range_meters":12400,"station_id":"ce4bgvp2rcd13ifvqcu0","pricing_plan_id":"cebpf4jnsgd1na2vs0mg"},{"bike_id":"a5a4ea9e-366f-47ca-91c2-0089ddc5e409","system_id":"levelo_inurba_marseille","lat":43.29883,"lon":5.39736,"is_reserved":false,"is_disabled":false,"rental_uris":{"android":"levelo://app?vid=a5a4ea9e-366f-47ca-91c2-0089ddc5e409","ios":"levelo://app?vid=a5a4ea9e-366f-47ca-91c2-0089ddc5e409"},"vehicle_type_id":"4","last_reported":1746634414,"current_range_meters":12400,"station_id":"ce4bh0h2rcd13ifvqd50","pricing_plan_id":"cebpf4jnsgd1na2vs0mg"},{"bike_id":"ad3912e1-02bc-450f-9f15-6e4766049115","system_id":"levelo_inurba_marseille","lat":43.29551,"lon":5.42292,"is_reserved":false,"is_disabled":false,"rental_uris":{"android":"levelo://app?vid=ad3912e1-02bc-450f-9f15-6e4766049115","ios":"levelo://app?vid=ad3912e1-02bc-450f-9f15-6e4766049115"},"vehicle_type_id":"4","last_reported":1746634414,"current_range_meters":12800,"station_id":"ce4bhph2rcd13ifvqhdg","pricing_plan_id":"cebpf4jnsgd1na2vs0mg"},{"bike_id":"2000b44b-8ea2-47ff-b924-129580a74c4b","system_id":"levelo_inurba_marseille","lat":43.29893,"lon":5.3889,"is_reserved":false,"is_disabled":false,"rental_uris":{"android":"levelo://app?vid=2000b44b-8ea2-47ff-b924-129580a74c4b","ios":"levelo://app?vid=2000b44b-8ea2-47ff-b924-129580a74c4b"},"vehicle_type_id":"4","last_reported":1746634414,"current_range_meters":12400,"station_id":"ce4bh392rcd13ifvqdl0","pricing_plan_id":"cebpf4jnsgd1na2vs0mg"},{"bike_id":"52e2986e-9fb6-4dcd-8ff0-087b21c70bac","system_id":"levelo_inurba_marseille","lat":43.29277,"lon":5.40116,"is_reserved":false,"is_disabled":false,"rental_uris":{"android":"levelo://app?vid=52e2986e-9fb6-4dcd-8ff0-087b21c70bac","ios":"levelo://app?vid=52e2986e-9fb6-4dcd-8ff0-087b21c70bac"},"vehicle_type_id":"4","last_reported":1746634414,"current_range_meters":12800,"station_id":"ce4bh312rcd13ifvqdk0","pricing_plan_id":"cebpf4jnsgd1na2vs0mg"},{"bike_id":"cb804ca6-4e74-4d08-aea7-2b4aae9112aa","system_id":"levelo_inurba_marseille","lat":43.29974,"lon":5.37905,"is_reserved":false,"is_disabled":false,"rental_uris":{"android":"levelo://app?vid=cb804ca6-4e74-4d08-aea7-2b4aae9112aa","ios":"levelo://app?vid=cb804ca6-4e74-4d08-aea7-2b4aae9112aa"},"vehicle_type_id":"4","last_reported":1746634414,"current_range_meters":13600,"station_id":"","pricing_plan_id":"cebpf4jnsgd1na2vs0mg"},{"bike_id":"f7bc230a-cbee-4bc0-9c6b-a6211311308a","system_id":"levelo_inurba_marseille","lat":43.29254,"lon":5.40899,"is_reserved":false,"is_disabled":false,"rental_uris":{"android":"levelo://app?vid=f7bc230a-cbee-4bc0-9c6b-a6211311308a","ios":"levelo://app?vid=f7bc230a-cbee-4bc0-9c6b-a6211311308a"},"vehicle_type_id":"4","last_reported":1746634414,"current_range_meters":13600,"station_id":"ce4bh192rcd13ifvqdc0","pricing_plan_id":"cebpf4jnsgd1na2vs0mg"},{"bike_id":"a7ef1b70-846f-4579-931b-939ca1e9d709","system_id":"levelo_inurba_marseille","lat":43.31689,"lon":5.37808,"is_reserved":false,"is_disabled":false,"rental_uris":{"android":"levelo://app?vid=a7ef1b70-846f-4579-931b-939ca1e9d709","ios":"levelo://app?vid=a7ef1b70-846f-4579-931b-939ca1e9d709"},"vehicle_type_id":"4","last_reported":1746634414,"current_range_meters":13600,"station_id":"ce4bgth2rcd13ifvqch0","pricing_plan_id":"cebpf4jnsgd1na2vs0mg"},{"bike_id":"80c5d1ce-bad4-41d3-8d08-0744c36fe7a1","system_id":"levelo_inurba_marseille","lat":43.29307,"lon":5.37176,"is_reserved":false,"is_disabled":false,"rental_uris":{"android":"levelo://app?vid=80c5d1ce-bad4-41d3-8d08-0744c36fe7a1","ios":"levelo://app?vid=80c5d1ce-bad4-41d3-8d08-0744c36fe7a1"},"vehicle_type_id":"4","last_reported":1746634414,"current_range_meters":13600,"station_id":"ce4bgh92rcd13ifvqb40","pricing_plan_id":"cebpf4jnsgd1na2vs0mg"},{"bike_id":"4992687b-d79a-47a0-a81f-6f801e6380a7","system_id":"levelo_inurba_marseille","lat":43.28608,"lon":5.35115,"is_reserved":false,"is_disabled":false,"rental_uris":{"android":"levelo://app?vid=4992687b-d79a-47a0-a81f-6f801e6380a7","ios":"levelo://app?vid=4992687b-d79a-47a0-a81f-6f801e6380a7"},"vehicle_type_id":"4","last_reported":1746634414,"current_range_meters":13600,"station_id":"ce4bhch2rcd13ifvqeug","pricing_plan_id":"cebpf4jnsgd1na2vs0mg"},{"bike_id":"202a01ac-2af8-4962-9a2f-88e764063e44","system_id":"levelo_inurba_marseille","lat":43.24174,"lon":5.39747,"is_reserved":false,"is_disabled":false,"rental_uris":{"android":"levelo://app?vid=202a01ac-2af8-4962-9a2f-88e764063e44","ios":"levelo://app?vid=202a01ac-2af8-4962-9a2f-88e764063e44"},"vehicle_type_id":"4","last_reported":1746634414,"current_range_meters":14000,"station_id":"ce4bhn12rcd13ifvqgpg","pricing_plan_id":"cebpf4jnsgd1na2vs0mg"},{"bike_id":"19ad47df-c310-4b94-85a6-13b227999e75","system_id":"levelo_inurba_marseille","lat":43.28462,"lon":5.3589,"is_reserved":false,"is_disabled":false,"rental_uris":{"android":"levelo://app?vid=19ad47df-c310-4b94-85a6-13b227999e75","ios":"levelo://app?vid=19ad47df-c310-4b94-85a6-13b227999e75"},"vehicle_type_id":"4","last_reported":1746634414,"current_range_meters":14400,"station_id":"ce4bhah2rcd13ifvqei0","pricing_plan_id":"cebpf4jnsgd1na2vs0mg"},{"bike_id":"436df80c-e394-4f02-9ced-0897c61f567c","system_id":"levelo_inurba_marseille","lat":43.245657,"lon":5.394536,"is_reserved":false,"is_disabled":false,"rental_uris":{"android":"levelo://app?vid=436df80c-e394-4f02-9ced-0897c61f567c","ios":"levelo://app?vid=436df80c-e394-4f02-9ced-0897c61f567c"},"vehicle_type_id":"4","last_reported":1746634414,"current_range_meters":14400,"station_id":"ce4bhn12rcd13ifvqgqg","pricing_plan_id":"cebpf4jnsgd1na2vs0mg"},{"bike_id":"ed09e4a3-5356-4faa-85db-5ac950e48037","system_id":"levelo_inurba_marseille","lat":43.294344,"lon":5.39754,"is_reserved":false,"is_disabled":false,"rental_uris":{"android":"levelo://app?vid=ed09e4a3-5356-4faa-85db-5ac950e48037","ios":"levelo://app?vid=ed09e4a3-5356-4faa-85db-5ac950e48037"},"vehicle_type_id":"4","last_reported":1746634414,"current_range_meters":14000,"station_id":"ce4bh3h2rcd13ifvqdo0","pricing_plan_id":"cebpf4jnsgd1na2vs0mg"},{"bike_id":"77c2302c-cd55-4d63-af72-417634890e85","system_id":"levelo_inurba_marseille","lat":43.27983,"lon":5.41657,"is_reserved":false,"is_disabled":false,"rental_uris":{"android":"levelo://app?vid=77c2302c-cd55-4d63-af72-417634890e85","ios":"levelo://app?vid=77c2302c-cd55-4d63-af72-417634890e85"},"vehicle_type_id":"4","last_reported":1746634414,"current_range_meters":14400,"station_id":"ce4bho12rcd13ifvqh1g","pricing_plan_id":"cebpf4jnsgd1na2vs0mg"},{"bike_id":"69257732-cdef-4e22-9c01-54fd6f11cf23","system_id":"levelo_inurba_marseille","lat":43.284747,"lon":5.38416,"is_reserved":false,"is_disabled":false,"rental_uris":{"android":"levelo://app?vid=69257732-cdef-4e22-9c01-54fd6f11cf23","ios":"levelo://app?vid=69257732-cdef-4e22-9c01-54fd6f11cf23"},"vehicle_type_id":"4","last_reported":1746634414,"current_range_meters":14400,"station_id":"ce4bh512rcd13ifvqe3g","pricing_plan_id":"cebpf4jnsgd1na2vs0mg"},{"bike_id":"cb5561fb-3ed2-49bf-bd58-7c8862116c78","system_id":"levelo_inurba_marseille","lat":43.21221,"lon":5.35091,"is_reserved":false,"is_disabled":false,"rental_uris":{"android":"levelo://app?vid=cb5561fb-3ed2-49bf-bd58-7c8862116c78","ios":"levelo://app?vid=cb5561fb-3ed2-49bf-bd58-7c8862116c78"},"vehicle_type_id":"4","last_reported":1746634414,"current_range_meters":14400,"station_id":"st_cvj6sg6p6f1abm77japg","pricing_plan_id":"cebpf4jnsgd1na2vs0mg"},{"bike_id":"87fefbfe-0f9b-4dbc-abd4-492d1a97fc7e","system_id":"levelo_inurba_marseille","lat":43.28466,"lon":5.35887,"is_reserved":false,"is_disabled":false,"rental_uris":{"android":"levelo://app?vid=87fefbfe-0f9b-4dbc-abd4-492d1a97fc7e","ios":"levelo://app?vid=87fefbfe-0f9b-4dbc-abd4-492d1a97fc7e"},"vehicle_type_id":"4","last_reported":1746634414,"current_range_meters":14400,"station_id":"ce4bhah2rcd13ifvqei0","pricing_plan_id":"cebpf4jnsgd1na2vs0mg"},{"bike_id":"3ca884da-70d5-4ab4-8dd0-252992c299f9","system_id":"levelo_inurba_marseille","lat":43.25111,"lon":5.40318,"is_reserved":false,"is_disabled":false,"rental_uris":{"android":"levelo://app?vid=3ca884da-70d5-4ab4-8dd0-252992c299f9","ios":"levelo://app?vid=3ca884da-70d5-4ab4-8dd0-252992c299f9"},"vehicle_type_id":"4","last_reported":1746634414,"current_range_meters":14400,"station_id":"ce4bhlh2rcd13ifvqgig","pricing_plan_id":"cebpf4jnsgd1na2vs0mg"},{"bike_id":"08386171-e0bf-4ee3-9747-f0da25cc74ff","system_id":"levelo_inurba_marseille","lat":43.28621,"lon":5.35104,"is_reserved":false,"is_disabled":false,"rental_uris":{"android":"levelo://app?vid=08386171-e0bf-4ee3-9747-f0da25cc74ff","ios":"levelo://app?vid=08386171-e0bf-4ee3-9747-f0da25cc74ff"},"vehicle_type_id":"4","last_reported":1746634414,"current_range_meters":14800,"station_id":"ce4bhch2rcd13ifvqeug","pricing_plan_id":"cebpf4jnsgd1na2vs0mg"},{"bike_id":"d22afb11-f65a-4e74-a409-c3d5a0ba6919","system_id":"levelo_inurba_marseille","lat":43.30457,"lon":5.37903,"is_reserved":false,"is_disabled":false,"rental_uris":{"android":"levelo://app?vid=d22afb11-f65a-4e74-a409-c3d5a0ba6919","ios":"levelo://app?vid=d22afb11-f65a-4e74-a409-c3d5a0ba6919"},"vehicle_type_id":"4","last_reported":1746634414,"current_range_meters":14800,"station_id":"ce4bgup2rcd13ifvqcn0","pricing_plan_id":"cebpf4jnsgd1na2vs0mg"},{"bike_id":"77f94d02-8240-4e64-8f39-3f4916f73ad1","system_id":"levelo_inurba_marseille","lat":43.27372,"lon":5.36261,"is_reserved":false,"is_disabled":false,"rental_uris":{"android":"levelo://app?vid=77f94d02-8240-4e64-8f39-3f4916f73ad1","ios":"levelo://app?vid=77f94d02-8240-4e64-8f39-3f4916f73ad1"},"vehicle_type_id":"4","last_reported":1746634414,"current_range_meters":14800,"station_id":"ce4bhbh2rcd13ifvqeo0","pricing_plan_id":"cebpf4jnsgd1na2vs0mg"},{"bike_id":"7f340a62-7235-4b26-abce-da5278743a6b","system_id":"levelo_inurba_marseille","lat":43.2737,"lon":5.36257,"is_reserved":false,"is_disabled":false,"rental_uris":{"android":"levelo://app?vid=7f340a62-7235-4b26-abce-da5278743a6b","ios":"levelo://app?vid=7f340a62-7235-4b26-abce-da5278743a6b"},"vehicle_type_id":"4","last_reported":1746634414,"current_range_meters":10800,"station_id":"ce4bhbh2rcd13ifvqeo0","pricing_plan_id":"cebpf4jnsgd1na2vs0mg"},{"bike_id":"916739f3-c955-44da-9872-da7d6253d9d2","system_id":"levelo_inurba_marseille","lat":43.28466,"lon":5.35891,"is_reserved":false,"is_disabled":false,"rental_uris":{"android":"levelo://app?vid=916739f3-c955-44da-9872-da7d6253d9d2","ios":"levelo://app?vid=916739f3-c955-44da-9872-da7d6253d9d2"},"vehicle_type_id":"4","last_reported":1746634414,"current_range_meters":15200,"station_id":"ce4bhah2rcd13ifvqei0","pricing_plan_id":"cebpf4jnsgd1na2vs0mg"},{"bike_id":"4e0caac7-636b-4847-8e1a-24bb8e17623d","system_id":"levelo_inurba_marseille","lat":43.31895,"lon":5.40751,"is_reserved":false,"is_disabled":false,"rental_uris":{"android":"levelo://app?vid=4e0caac7-636b-4847-8e1a-24bb8e17623d","ios":"levelo://app?vid=4e0caac7-636b-4847-8e1a-24bb8e17623d"},"vehicle_type_id":"4","last_reported":1746634414,"current_range_meters":15200,"station_id":"ce4bhq12rcd13ifvqhig","pricing_plan_id":"cebpf4jnsgd1na2vs0mg"},{"bike_id":"c9dfd4e7-0c03-4b66-a6ac-2c8303a17277","system_id":"levelo_inurba_marseille","lat":43.28582,"lon":5.39498,"is_reserved":false,"is_disabled":false,"rental_uris":{"android":"levelo://app?vid=c9dfd4e7-0c03-4b66-a6ac-2c8303a17277","ios":"levelo://app?vid=c9dfd4e7-0c03-4b66-a6ac-2c8303a17277"},"vehicle_type_id":"4","last_reported":1746634414,"current_range_meters":15200,"station_id":"ce4bh292rcd13ifvqdg0","pricing_plan_id":"cebpf4jnsgd1na2vs0mg"},{"bike_id":"ca6c7a19-a54b-4dac-8de4-ecb60034ccbb","system_id":"levelo_inurba_marseille","lat":43.3033,"lon":5.40436,"is_reserved":false,"is_disabled":false,"rental_uris":{"android":"levelo://app?vid=ca6c7a19-a54b-4dac-8de4-ecb60034ccbb","ios":"levelo://app?vid=ca6c7a19-a54b-4dac-8de4-ecb60034ccbb"},"vehicle_type_id":"4","last_reported":1746634414,"current_range_meters":15200,"station_id":"ce4bh012rcd13ifvqd10","pricing_plan_id":"cebpf4jnsgd1na2vs0mg"},{"bike_id":"56314909-87ea-442e-a1e3-1a8a8c678af4","system_id":"levelo_inurba_marseille","lat":43.31329,"lon":5.3969,"is_reserved":false,"is_disabled":true,"rental_uris":{"android":"levelo://app?vid=56314909-87ea-442e-a1e3-1a8a8c678af4","ios":"levelo://app?vid=56314909-87ea-442e-a1e3-1a8a8c678af4"},"vehicle_type_id":"4","last_reported":1746634414,"current_range_meters":16000,"station_id":"ce4bgvp2rcd13ifvqcu0","pricing_plan_id":"cebpf4jnsgd1na2vs0mg"},{"bike_id":"10554388-48f4-48c1-937e-7829c87ea57d","system_id":"levelo_inurba_marseille","lat":43.28031,"lon":5.36958,"is_reserved":false,"is_disabled":false,"rental_uris":{"android":"levelo://app?vid=10554388-48f4-48c1-937e-7829c87ea57d","ios":"levelo://app?vid=10554388-48f4-48c1-937e-7829c87ea57d"},"vehicle_type_id":"4","last_reported":1746634414,"current_range_meters":16000,"station_id":"ce4bha12rcd13ifvqef0","pricing_plan_id":"cebpf4jnsgd1na2vs0mg"},{"bike_id":"809c8673-c032-46b9-aa07-62c38e26d44e","system_id":"levelo_inurba_marseille","lat":43.25039,"lon":5.38794,"is_reserved":false,"is_disabled":false,"rental_uris":{"android":"levelo://app?vid=809c8673-c032-46b9-aa07-62c38e26d44e","ios":"levelo://app?vid=809c8673-c032-46b9-aa07-62c38e26d44e"},"vehicle_type_id":"4","last_reported":1746634414,"current_range_meters":16400,"station_id":"","pricing_plan_id":"cebpf4jnsgd1na2vs0mg"},{"bike_id":"fedba124-3d6a-4a0e-9e17-4baf0f9d3939","system_id":"levelo_inurba_marseille","lat":43.27997,"lon":5.41661,"is_reserved":false,"is_disabled":false,"rental_uris":{"android":"levelo://app?vid=fedba124-3d6a-4a0e-9e17-4baf0f9d3939","ios":"levelo://app?vid=fedba124-3d6a-4a0e-9e17-4baf0f9d3939"},"vehicle_type_id":"4","last_reported":1746634414,"current_range_meters":16400,"station_id":"ce4bho12rcd13ifvqh1g","pricing_plan_id":"cebpf4jnsgd1na2vs0mg"},{"bike_id":"4aae8f2e-5422-4b0e-be12-8def74dd8bcf","system_id":"levelo_inurba_marseille","lat":43.330246,"lon":5.390522,"is_reserved":false,"is_disabled":false,"rental_uris":{"android":"levelo://app?vid=4aae8f2e-5422-4b0e-be12-8def74dd8bcf","ios":"levelo://app?vid=4aae8f2e-5422-4b0e-be12-8def74dd8bcf"},"vehicle_type_id":"4","last_reported":1746634414,"current_range_meters":16400,"station_id":"ce4bhr92rcd13ifvqhrg","pricing_plan_id":"cebpf4jnsgd1na2vs0mg"},{"bike_id":"e945a495-d359-4bb7-bb94-1340aff95955","system_id":"levelo_inurba_marseille","lat":43.28147,"lon":5.40636,"is_reserved":false,"is_disabled":false,"rental_uris":{"android":"levelo://app?vid=e945a495-d359-4bb7-bb94-1340aff95955","ios":"levelo://app?vid=e945a495-d359-4bb7-bb94-1340aff95955"},"vehicle_type_id":"4","last_reported":1746634414,"current_range_meters":16400,"station_id":"","pricing_plan_id":"cebpf4jnsgd1na2vs0mg"},{"bike_id":"e6282093-23fb-41a9-859d-c0d9ad966535","system_id":"levelo_inurba_marseille","lat":43.31797,"lon":5.37896,"is_reserved":false,"is_disabled":false,"rental_uris":{"android":"levelo://app?vid=e6282093-23fb-41a9-859d-c0d9ad966535","ios":"levelo://app?vid=e6282093-23fb-41a9-859d-c0d9ad966535"},"vehicle_type_id":"4","last_reported":1746634414,"current_range_meters":16400,"station_id":"","pricing_plan_id":"cebpf4jnsgd1na2vs0mg"},{"bike_id":"6156f6bd-4d54-481a-aeb3-359716dd69e8","system_id":"levelo_inurba_marseille","lat":43.29268,"lon":5.38449,"is_reserved":false,"is_disabled":false,"rental_uris":{"android":"levelo://app?vid=6156f6bd-4d54-481a-aeb3-359716dd69e8","ios":"levelo://app?vid=6156f6bd-4d54-481a-aeb3-359716dd69e8"},"vehicle_type_id":"4","last_reported":1746634414,"current_range_meters":16400,"station_id":"ce4bh692rcd13ifvqea0","pricing_plan_id":"cebpf4jnsgd1na2vs0mg"},{"bike_id":"f88c22a7-4a1d-4f0a-89c5-9f9644a33717","system_id":"levelo_inurba_marseille","lat":43.29045,"lon":5.37584,"is_reserved":false,"is_disabled":false,"rental_uris":{"android":"levelo://app?vid=f88c22a7-4a1d-4f0a-89c5-9f9644a33717","ios":"levelo://app?vid=f88c22a7-4a1d-4f0a-89c5-9f9644a33717"},"vehicle_type_id":"4","last_reported":1746634414,"current_range_meters":16400,"station_id":"ce4bh692rcd13ifvqe90","pricing_plan_id":"cebpf4jnsgd1na2vs0mg"},{"bike_id":"ab6b1c8a-fa01-4dfd-95a7-1d2ab14483c4","system_id":"levelo_inurba_marseille","lat":43.314994,"lon":5.380537,"is_reserved":false,"is_disabled":false,"rental_uris":{"android":"levelo://app?vid=ab6b1c8a-fa01-4dfd-95a7-1d2ab14483c4","ios":"levelo://app?vid=ab6b1c8a-fa01-4dfd-95a7-1d2ab14483c4"},"vehicle_type_id":"4","last_reported":1746634414,"current_range_meters":16400,"station_id":"ce4bhsp2rcd13ifvqi50","pricing_plan_id":"cebpf4jnsgd1na2vs0mg"},{"bike_id":"65bcb2ae-7d38-4f88-aab4-9a0dc7510a37","system_id":"levelo_inurba_marseille","lat":43.28934,"lon":5.36641,"is_reserved":false,"is_disabled":false,"rental_uris":{"android":"levelo://app?vid=65bcb2ae-7d38-4f88-aab4-9a0dc7510a37","ios":"levelo://app?vid=65bcb2ae-7d38-4f88-aab4-9a0dc7510a37"},"vehicle_type_id":"4","last_reported":1746634414,"current_range_meters":16800,"station_id":"ce4bhap2rcd13ifvqek0","pricing_plan_id":"cebpf4jnsgd1na2vs0mg"},{"bike_id":"4c1fc945-3746-4b9f-9882-6d7cd6314302","system_id":"levelo_inurba_marseille","lat":43.309014,"lon":5.396535,"is_reserved":false,"is_disabled":false,"rental_uris":{"android":"levelo://app?vid=4c1fc945-3746-4b9f-9882-6d7cd6314302","ios":"levelo://app?vid=4c1fc945-3746-4b9f-9882-6d7cd6314302"},"vehicle_type_id":"4","last_reported":1746634414,"current_range_meters":16800,"station_id":"ce4bh012rcd13ifvqcv0","pricing_plan_id":"cebpf4jnsgd1na2vs0mg"},{"bike_id":"bbbb1db2-7ce6-49d9-bcab-78cf8c82e524","system_id":"levelo_inurba_marseille","lat":43.29516,"lon":5.39398,"is_reserved":false,"is_disabled":false,"rental_uris":{"android":"levelo://app?vid=bbbb1db2-7ce6-49d9-bcab-78cf8c82e524","ios":"levelo://app?vid=bbbb1db2-7ce6-49d9-bcab-78cf8c82e524"},"vehicle_type_id":"4","last_reported":1746634414,"current_range_meters":16800,"station_id":"ce4bh292rcd13ifvqdf0","pricing_plan_id":"cebpf4jnsgd1na2vs0mg"},{"bike_id":"2ed327f6-8175-4783-a942-a15e7df3127f","system_id":"levelo_inurba_marseille","lat":43.31749,"lon":5.39022,"is_reserved":false,"is_disabled":true,"rental_uris":{"android":"levelo://app?vid=2ed327f6-8175-4783-a942-a15e7df3127f","ios":"levelo://app?vid=2ed327f6-8175-4783-a942-a15e7df3127f"},"vehicle_type_id":"4","last_reported":1746634414,"current_range_meters":16800,"station_id":"ce4bhqp2rcd13ifvqhng","pricing_plan_id":"cebpf4jnsgd1na2vs0mg"},{"bike_id":"bae56cee-120e-4700-87a6-fea1e2933e78","system_id":"levelo_inurba_marseille","lat":43.27839,"lon":5.39212,"is_reserved":false,"is_disabled":false,"rental_uris":{"android":"levelo://app?vid=bae56cee-120e-4700-87a6-fea1e2933e78","ios":"levelo://app?vid=bae56cee-120e-4700-87a6-fea1e2933e78"},"vehicle_type_id":"4","last_reported":1746634414,"current_range_meters":16800,"station_id":"ce4bhjp2rcd13ifvqga0","pricing_plan_id":"cebpf4jnsgd1na2vs0mg"},{"bike_id":"376989a1-20d1-43ca-af8e-b102a4b082ac","system_id":"levelo_inurba_marseille","lat":43.29777,"lon":5.39377,"is_reserved":false,"is_disabled":false,"rental_uris":{"android":"levelo://app?vid=376989a1-20d1-43ca-af8e-b102a4b082ac","ios":"levelo://app?vid=376989a1-20d1-43ca-af8e-b102a4b082ac"},"vehicle_type_id":"4","last_reported":1746634414,"current_range_meters":16800,"station_id":"chh1huq6cuj3fo74tm60","pricing_plan_id":"cebpf4jnsgd1na2vs0mg"},{"bike_id":"d11e994e-f473-4a24-b446-80331187241b","system_id":"levelo_inurba_marseille","lat":43.21751,"lon":5.34602,"is_reserved":false,"is_disabled":false,"rental_uris":{"android":"levelo://app?vid=d11e994e-f473-4a24-b446-80331187241b","ios":"levelo://app?vid=d11e994e-f473-4a24-b446-80331187241b"},"vehicle_type_id":"4","last_reported":1746634414,"current_range_meters":17200,"station_id":"st_cvj6r9ubvosntc0bgbag","pricing_plan_id":"cebpf4jnsgd1na2vs0mg"},{"bike_id":"2042f4ec-6314-4888-a650-66bc02cd123e","system_id":"levelo_inurba_marseille","lat":43.29053,"lon":5.38671,"is_reserved":false,"is_disabled":false,"rental_uris":{"android":"levelo://app?vid=2042f4ec-6314-4888-a650-66bc02cd123e","ios":"levelo://app?vid=2042f4ec-6314-4888-a650-66bc02cd123e"},"vehicle_type_id":"4","last_reported":1746634414,"current_range_meters":17200,"station_id":"ce4bh4p2rcd13ifvqe0g","pricing_plan_id":"cebpf4jnsgd1na2vs0mg"},{"bike_id":"c596c2d8-a473-404a-8a26-fa4812d717bf","system_id":"levelo_inurba_marseille","lat":43.29735,"lon":5.37704,"is_reserved":false,"is_disabled":false,"rental_uris":{"android":"levelo://app?vid=c596c2d8-a473-404a-8a26-fa4812d717bf","ios":"levelo://app?vid=c596c2d8-a473-404a-8a26-fa4812d717bf"},"vehicle_type_id":"4","last_reported":1746634414,"current_range_meters":17200,"station_id":"ce4bgkh2rcd13ifvqbl0","pricing_plan_id":"cebpf4jnsgd1na2vs0mg"},{"bike_id":"179e39d6-f393-46e0-b36a-f5293148431d","system_id":"levelo_inurba_marseille","lat":43.32475,"lon":5.36587,"is_reserved":false,"is_disabled":true,"rental_uris":{"android":"levelo://app?vid=179e39d6-f393-46e0-b36a-f5293148431d","ios":"levelo://app?vid=179e39d6-f393-46e0-b36a-f5293148431d"},"vehicle_type_id":"4","last_reported":1746634414,"current_range_meters":17200,"station_id":"ce4bhs12rcd13ifvqhvg","pricing_plan_id":"cebpf4jnsgd1na2vs0mg"},{"bike_id":"15fc99ff-1873-449a-9f6c-bbc059b14d36","system_id":"levelo_inurba_marseille","lat":43.30432,"lon":5.39745,"is_reserved":false,"is_disabled":false,"rental_uris":{"android":"levelo://app?vid=15fc99ff-1873-449a-9f6c-bbc059b14d36","ios":"levelo://app?vid=15fc99ff-1873-449a-9f6c-bbc059b14d36"},"vehicle_type_id":"4","last_reported":1746634414,"current_range_meters":17600,"station_id":"ce4bh092rcd13ifvqd20","pricing_plan_id":"cebpf4jnsgd1na2vs0mg"},{"bike_id":"6ffc2813-535f-4412-bd1b-1cc36dabda7e","system_id":"levelo_inurba_marseille","lat":43.32484,"lon":5.36565,"is_reserved":false,"is_disabled":false,"rental_uris":{"android":"levelo://app?vid=6ffc2813-535f-4412-bd1b-1cc36dabda7e","ios":"levelo://app?vid=6ffc2813-535f-4412-bd1b-1cc36dabda7e"},"vehicle_type_id":"4","last_reported":1746634414,"current_range_meters":17200,"station_id":"ce4bhs12rcd13ifvqhvg","pricing_plan_id":"cebpf4jnsgd1na2vs0mg"},{"bike_id":"2939e4aa-7148-4e7d-88e1-fa804b56dd45","system_id":"levelo_inurba_marseille","lat":43.2846,"lon":5.35884,"is_reserved":false,"is_disabled":false,"rental_uris":{"android":"levelo://app?vid=2939e4aa-7148-4e7d-88e1-fa804b56dd45","ios":"levelo://app?vid=2939e4aa-7148-4e7d-88e1-fa804b56dd45"},"vehicle_type_id":"4","last_reported":1746634414,"current_range_meters":17600,"station_id":"ce4bhah2rcd13ifvqei0","pricing_plan_id":"cebpf4jnsgd1na2vs0mg"},{"bike_id":"d13b12b8-aaf1-4683-ad9d-edd50038f65f","system_id":"levelo_inurba_marseille","lat":43.29261,"lon":5.38456,"is_reserved":false,"is_disabled":false,"rental_uris":{"android":"levelo://app?vid=d13b12b8-aaf1-4683-ad9d-edd50038f65f","ios":"levelo://app?vid=d13b12b8-aaf1-4683-ad9d-edd50038f65f"},"vehicle_type_id":"4","last_reported":1746634414,"current_range_meters":18000,"station_id":"ce4bh692rcd13ifvqea0","pricing_plan_id":"cebpf4jnsgd1na2vs0mg"},{"bike_id":"43187a54-60ff-40e0-a6e7-7887f2fe646e","system_id":"levelo_inurba_marseille","lat":43.289355,"lon":5.384043,"is_reserved":false,"is_disabled":false,"rental_uris":{"android":"levelo://app?vid=43187a54-60ff-40e0-a6e7-7887f2fe646e","ios":"levelo://app?vid=43187a54-60ff-40e0-a6e7-7887f2fe646e"},"vehicle_type_id":"4","last_reported":1746634414,"current_range_meters":17600,"station_id":"ce4bh612rcd13ifvqe6g","pricing_plan_id":"cebpf4jnsgd1na2vs0mg"},{"bike_id":"ddea751f-4c27-43e1-aeb8-37dc4b911d08","system_id":"levelo_inurba_marseille","lat":43.31118,"lon":5.37769,"is_reserved":false,"is_disabled":false,"rental_uris":{"android":"levelo://app?vid=ddea751f-4c27-43e1-aeb8-37dc4b911d08","ios":"levelo://app?vid=ddea751f-4c27-43e1-aeb8-37dc4b911d08"},"vehicle_type_id":"4","last_reported":1746634414,"current_range_meters":18800,"station_id":"ce4bgt92rcd13ifvqcg0","pricing_plan_id":"cebpf4jnsgd1na2vs0mg"},{"bike_id":"89f953df-2061-408d-8f0d-6a2938e5443a","system_id":"levelo_inurba_marseille","lat":43.23679,"lon":5.4035,"is_reserved":false,"is_disabled":false,"rental_uris":{"android":"levelo://app?vid=89f953df-2061-408d-8f0d-6a2938e5443a","ios":"levelo://app?vid=89f953df-2061-408d-8f0d-6a2938e5443a"},"vehicle_type_id":"4","last_reported":1746634414,"current_range_meters":18800,"station_id":"","pricing_plan_id":"cebpf4jnsgd1na2vs0mg"},{"bike_id":"baba5b78-493c-4bf6-9ba8-c172432ebb96","system_id":"levelo_inurba_marseille","lat":43.297904,"lon":5.393403,"is_reserved":false,"is_disabled":false,"rental_uris":{"android":"levelo://app?vid=baba5b78-493c-4bf6-9ba8-c172432ebb96","ios":"levelo://app?vid=baba5b78-493c-4bf6-9ba8-c172432ebb96"},"vehicle_type_id":"4","last_reported":1746634414,"current_range_meters":18000,"station_id":"chh1huq6cuj3fo74tm60","pricing_plan_id":"cebpf4jnsgd1na2vs0mg"},{"bike_id":"7cb84a55-eae0-4ff8-a8e8-801fd7179396","system_id":"levelo_inurba_marseille","lat":43.30599,"lon":5.37362,"is_reserved":false,"is_disabled":false,"rental_uris":{"android":"levelo://app?vid=7cb84a55-eae0-4ff8-a8e8-801fd7179396","ios":"levelo://app?vid=7cb84a55-eae0-4ff8-a8e8-801fd7179396"},"vehicle_type_id":"4","last_reported":1746634414,"current_range_meters":18800,"station_id":"","pricing_plan_id":"cebpf4jnsgd1na2vs0mg"},{"bike_id":"04d99d6f-86ef-45f3-8e9c-4fdc9dd7d8a4","system_id":"levelo_inurba_marseille","lat":43.28398,"lon":5.37517,"is_reserved":false,"is_disabled":false,"rental_uris":{"android":"levelo://app?vid=04d99d6f-86ef-45f3-8e9c-4fdc9dd7d8a4","ios":"levelo://app?vid=04d99d6f-86ef-45f3-8e9c-4fdc9dd7d8a4"},"vehicle_type_id":"4","last_reported":1746634414,"current_range_meters":19200,"station_id":"ce4bh412rcd13ifvqds0","pricing_plan_id":"cebpf4jnsgd1na2vs0mg"},{"bike_id":"6c990ab7-1787-46fb-bf99-030755abaccf","system_id":"levelo_inurba_marseille","lat":43.272039,"lon":5.392036,"is_reserved":false,"is_disabled":true,"rental_uris":{"android":"levelo://app?vid=6c990ab7-1787-46fb-bf99-030755abaccf","ios":"levelo://app?vid=6c990ab7-1787-46fb-bf99-030755abaccf"},"vehicle_type_id":"4","last_reported":1746634414,"current_range_meters":19200,"station_id":"ce4bhhp2rcd13ifvqfm0","pricing_plan_id":"cebpf4jnsgd1na2vs0mg"},{"bike_id":"5685c192-af0e-432e-a78b-7859fcd0e0d6","system_id":"levelo_inurba_marseille","lat":43.30996,"lon":5.37949,"is_reserved":false,"is_disabled":false,"rental_uris":{"android":"levelo://app?vid=5685c192-af0e-432e-a78b-7859fcd0e0d6","ios":"levelo://app?vid=5685c192-af0e-432e-a78b-7859fcd0e0d6"},"vehicle_type_id":"4","last_reported":1746634414,"current_range_meters":19200,"station_id":"","pricing_plan_id":"cebpf4jnsgd1na2vs0mg"},{"bike_id":"1028c097-79ff-48fd-9ffe-e70b01695048","system_id":"levelo_inurba_marseille","lat":43.312809,"lon":5.401847,"is_reserved":false,"is_disabled":false,"rental_uris":{"android":"levelo://app?vid=1028c097-79ff-48fd-9ffe-e70b01695048","ios":"levelo://app?vid=1028c097-79ff-48fd-9ffe-e70b01695048"},"vehicle_type_id":"4","last_reported":1746634414,"current_range_meters":19200,"station_id":"ce4bh092rcd13ifvqd30","pricing_plan_id":"cebpf4jnsgd1na2vs0mg"},{"bike_id":"c133f8d4-58a2-459d-b55d-72a333f0f5ea","system_id":"levelo_inurba_marseille","lat":43.295392,"lon":5.375007,"is_reserved":false,"is_disabled":false,"rental_uris":{"android":"levelo://app?vid=c133f8d4-58a2-459d-b55d-72a333f0f5ea","ios":"levelo://app?vid=c133f8d4-58a2-459d-b55d-72a333f0f5ea"},"vehicle_type_id":"4","last_reported":1746634414,"current_range_meters":19200,"station_id":"ce4bgkp2rcd13ifvqbmg","pricing_plan_id":"cebpf4jnsgd1na2vs0mg"},{"bike_id":"a20ab2a9-3776-4fa4-94ee-3438b55b74f9","system_id":"levelo_inurba_marseille","lat":43.28566,"lon":5.39502,"is_reserved":false,"is_disabled":false,"rental_uris":{"android":"levelo://app?vid=a20ab2a9-3776-4fa4-94ee-3438b55b74f9","ios":"levelo://app?vid=a20ab2a9-3776-4fa4-94ee-3438b55b74f9"},"vehicle_type_id":"4","last_reported":1746634414,"current_range_meters":19600,"station_id":"ce4bh292rcd13ifvqdg0","pricing_plan_id":"cebpf4jnsgd1na2vs0mg"},{"bike_id":"dfa6fc98-4c50-4f0a-a7d7-aa25de52aca0","system_id":"levelo_inurba_marseille","lat":43.29851,"lon":5.3628,"is_reserved":false,"is_disabled":false,"rental_uris":{"android":"levelo://app?vid=dfa6fc98-4c50-4f0a-a7d7-aa25de52aca0","ios":"levelo://app?vid=dfa6fc98-4c50-4f0a-a7d7-aa25de52aca0"},"vehicle_type_id":"4","last_reported":1746634414,"current_range_meters":20000,"station_id":"","pricing_plan_id":"cebpf4jnsgd1na2vs0mg"},{"bike_id":"12f6c70c-182c-4663-9437-d014813c6e60","system_id":"levelo_inurba_marseille","lat":43.32357,"lon":5.38888,"is_reserved":false,"is_disabled":false,"rental_uris":{"android":"levelo://app?vid=12f6c70c-182c-4663-9437-d014813c6e60","ios":"levelo://app?vid=12f6c70c-182c-4663-9437-d014813c6e60"},"vehicle_type_id":"4","last_reported":1746634414,"current_range_meters":19200,"station_id":"ce4bhqp2rcd13ifvqhog","pricing_plan_id":"cebpf4jnsgd1na2vs0mg"},{"bike_id":"973567b9-04fa-4de5-85c9-a7d6dc859073","system_id":"levelo_inurba_marseille","lat":43.29954,"lon":5.41327,"is_reserved":false,"is_disabled":false,"rental_uris":{"android":"levelo://app?vid=973567b9-04fa-4de5-85c9-a7d6dc859073","ios":"levelo://app?vid=973567b9-04fa-4de5-85c9-a7d6dc859073"},"vehicle_type_id":"4","last_reported":1746634414,"current_range_meters":19600,"station_id":"ce4bhp12rcd13ifvqh9g","pricing_plan_id":"cebpf4jnsgd1na2vs0mg"},{"bike_id":"8064bf14-e2f5-4563-8255-059795d546fd","system_id":"levelo_inurba_marseille","lat":43.292105,"lon":5.383008,"is_reserved":false,"is_disabled":false,"rental_uris":{"android":"levelo://app?vid=8064bf14-e2f5-4563-8255-059795d546fd","ios":"levelo://app?vid=8064bf14-e2f5-4563-8255-059795d546fd"},"vehicle_type_id":"4","last_reported":1746634414,"current_range_meters":20000,"station_id":"ce4bhah2rcd13ifvqej0","pricing_plan_id":"cebpf4jnsgd1na2vs0mg"},{"bike_id":"70a29a45-574c-4ff1-aca3-740aa0e705be","system_id":"levelo_inurba_marseille","lat":43.24172,"lon":5.36405,"is_reserved":false,"is_disabled":false,"rental_uris":{"android":"levelo://app?vid=70a29a45-574c-4ff1-aca3-740aa0e705be","ios":"levelo://app?vid=70a29a45-574c-4ff1-aca3-740aa0e705be"},"vehicle_type_id":"4","last_reported":1746634414,"current_range_meters":20000,"station_id":"cpo36qri1sfpv3e86is0","pricing_plan_id":"cebpf4jnsgd1na2vs0mg"},{"bike_id":"3fd1550b-aad6-4e04-8d90-b18de63dba28","system_id":"levelo_inurba_marseille","lat":43.31698,"lon":5.43708,"is_reserved":false,"is_disabled":false,"rental_uris":{"android":"levelo://app?vid=3fd1550b-aad6-4e04-8d90-b18de63dba28","ios":"levelo://app?vid=3fd1550b-aad6-4e04-8d90-b18de63dba28"},"vehicle_type_id":"4","last_reported":1746634414,"current_range_meters":20000,"station_id":"ce4bhp92rcd13ifvqhcg","pricing_plan_id":"cebpf4jnsgd1na2vs0mg"},{"bike_id":"48435904-9fbc-4c1b-a807-09b4f3d83256","system_id":"levelo_inurba_marseille","lat":43.30132,"lon":5.39861,"is_reserved":false,"is_disabled":false,"rental_uris":{"android":"levelo://app?vid=48435904-9fbc-4c1b-a807-09b4f3d83256","ios":"levelo://app?vid=48435904-9fbc-4c1b-a807-09b4f3d83256"},"vehicle_type_id":"4","last_reported":1746634414,"current_range_meters":20000,"station_id":"ce4bh0h2rcd13ifvqd40","pricing_plan_id":"cebpf4jnsgd1na2vs0mg"},{"bike_id":"707e6543-cad7-4e25-a61f-a0ca490207a6","system_id":"levelo_inurba_marseille","lat":43.26943,"lon":5.40246,"is_reserved":false,"is_disabled":false,"rental_uris":{"android":"levelo://app?vid=707e6543-cad7-4e25-a61f-a0ca490207a6","ios":"levelo://app?vid=707e6543-cad7-4e25-a61f-a0ca490207a6"},"vehicle_type_id":"4","last_reported":1746634414,"current_range_meters":20400,"station_id":"cjm6bp8fraef2m0cb0m0","pricing_plan_id":"cebpf4jnsgd1na2vs0mg"},{"bike_id":"f8889d40-2c5b-413e-a56f-ff1d4ac09cc9","system_id":"levelo_inurba_marseille","lat":43.22933,"lon":5.35376,"is_reserved":false,"is_disabled":false,"rental_uris":{"android":"levelo://app?vid=f8889d40-2c5b-413e-a56f-ff1d4ac09cc9","ios":"levelo://app?vid=f8889d40-2c5b-413e-a56f-ff1d4ac09cc9"},"vehicle_type_id":"4","last_reported":1746634414,"current_range_meters":20400,"station_id":"cpo3532slgdg3j2ikp40","pricing_plan_id":"cebpf4jnsgd1na2vs0mg"},{"bike_id":"3e01c26c-570c-40bf-9f5f-7ccb2b0243a4","system_id":"levelo_inurba_marseille","lat":43.29529,"lon":5.37492,"is_reserved":false,"is_disabled":false,"rental_uris":{"android":"levelo://app?vid=3e01c26c-570c-40bf-9f5f-7ccb2b0243a4","ios":"levelo://app?vid=3e01c26c-570c-40bf-9f5f-7ccb2b0243a4"},"vehicle_type_id":"4","last_reported":1746634414,"current_range_meters":20400,"station_id":"ce4bgkp2rcd13ifvqbmg","pricing_plan_id":"cebpf4jnsgd1na2vs0mg"},{"bike_id":"327cc39f-d91f-4b77-aab9-5dc3bf60ad82","system_id":"levelo_inurba_marseille","lat":43.25087,"lon":5.39529,"is_reserved":false,"is_disabled":false,"rental_uris":{"android":"levelo://app?vid=327cc39f-d91f-4b77-aab9-5dc3bf60ad82","ios":"levelo://app?vid=327cc39f-d91f-4b77-aab9-5dc3bf60ad82"},"vehicle_type_id":"4","last_reported":1746634414,"current_range_meters":20400,"station_id":"ce4bhm12rcd13ifvqgkg","pricing_plan_id":"cebpf4jnsgd1na2vs0mg"},{"bike_id":"03e12d3f-0bb9-4920-b6d3-8068289a7f15","system_id":"levelo_inurba_marseille","lat":43.31116,"lon":5.37755,"is_reserved":false,"is_disabled":false,"rental_uris":{"android":"levelo://app?vid=03e12d3f-0bb9-4920-b6d3-8068289a7f15","ios":"levelo://app?vid=03e12d3f-0bb9-4920-b6d3-8068289a7f15"},"vehicle_type_id":"4","last_reported":1746634414,"current_range_meters":20400,"station_id":"ce4bgt92rcd13ifvqcg0","pricing_plan_id":"cebpf4jnsgd1na2vs0mg"},{"bike_id":"4ac8f55d-5346-4627-8eb1-e2bb312db305","system_id":"levelo_inurba_marseille","lat":43.27174,"lon":5.40993,"is_reserved":false,"is_disabled":false,"rental_uris":{"android":"levelo://app?vid=4ac8f55d-5346-4627-8eb1-e2bb312db305","ios":"levelo://app?vid=4ac8f55d-5346-4627-8eb1-e2bb312db305"},"vehicle_type_id":"4","last_reported":1746634414,"current_range_meters":20400,"station_id":"ce4bhl12rcd13ifvqgf0","pricing_plan_id":"cebpf4jnsgd1na2vs0mg"},{"bike_id":"65ba91a6-2a36-474d-8c37-c52ea5f515c1","system_id":"levelo_inurba_marseille","lat":43.28997,"lon":5.37827,"is_reserved":false,"is_disabled":false,"rental_uris":{"android":"levelo://app?vid=65ba91a6-2a36-474d-8c37-c52ea5f515c1","ios":"levelo://app?vid=65ba91a6-2a36-474d-8c37-c52ea5f515c1"},"vehicle_type_id":"4","last_reported":1746634414,"current_range_meters":20800,"station_id":"ce4bh9p2rcd13ifvqed0","pricing_plan_id":"cebpf4jnsgd1na2vs0mg"},{"bike_id":"5ba8bc33-ae35-41c5-9fc0-89bf2036ef22","system_id":"levelo_inurba_marseille","lat":43.29304,"lon":5.41043,"is_reserved":false,"is_disabled":false,"rental_uris":{"android":"levelo://app?vid=5ba8bc33-ae35-41c5-9fc0-89bf2036ef22","ios":"levelo://app?vid=5ba8bc33-ae35-41c5-9fc0-89bf2036ef22"},"vehicle_type_id":"4","last_reported":1746634414,"current_range_meters":20800,"station_id":"ce4bh192rcd13ifvqdc0","pricing_plan_id":"cebpf4jnsgd1na2vs0mg"},{"bike_id":"b991379a-1b0b-4335-9531-e73bbdf54de4","system_id":"levelo_inurba_marseille","lat":43.24068,"lon":5.37767,"is_reserved":false,"is_disabled":false,"rental_uris":{"android":"levelo://app?vid=b991379a-1b0b-4335-9531-e73bbdf54de4","ios":"levelo://app?vid=b991379a-1b0b-4335-9531-e73bbdf54de4"},"vehicle_type_id":"4","last_reported":1746634414,"current_range_meters":21600,"station_id":"ce4bhnp2rcd13ifvqgvg","pricing_plan_id":"cebpf4jnsgd1na2vs0mg"},{"bike_id":"18d472d5-44c9-4eb7-84e4-c89525f23f26","system_id":"levelo_inurba_marseille","lat":43.25103,"lon":5.40332,"is_reserved":false,"is_disabled":false,"rental_uris":{"android":"levelo://app?vid=18d472d5-44c9-4eb7-84e4-c89525f23f26","ios":"levelo://app?vid=18d472d5-44c9-4eb7-84e4-c89525f23f26"},"vehicle_type_id":"4","last_reported":1746634414,"current_range_meters":21600,"station_id":"ce4bhlh2rcd13ifvqgig","pricing_plan_id":"cebpf4jnsgd1na2vs0mg"},{"bike_id":"89b5c51b-cd9c-475c-ba7a-726b12d22f75","system_id":"levelo_inurba_marseille","lat":43.21194,"lon":5.35072,"is_reserved":false,"is_disabled":false,"rental_uris":{"android":"levelo://app?vid=89b5c51b-cd9c-475c-ba7a-726b12d22f75","ios":"levelo://app?vid=89b5c51b-cd9c-475c-ba7a-726b12d22f75"},"vehicle_type_id":"4","last_reported":1746634414,"current_range_meters":21600,"station_id":"st_cvj6sg6p6f1abm77japg","pricing_plan_id":"cebpf4jnsgd1na2vs0mg"},{"bike_id":"ade8b151-edee-411b-b43b-d6d3efbe5b7d","system_id":"levelo_inurba_marseille","lat":43.28567,"lon":5.39501,"is_reserved":false,"is_disabled":false,"rental_uris":{"android":"levelo://app?vid=ade8b151-edee-411b-b43b-d6d3efbe5b7d","ios":"levelo://app?vid=ade8b151-edee-411b-b43b-d6d3efbe5b7d"},"vehicle_type_id":"4","last_reported":1746634414,"current_range_meters":21600,"station_id":"ce4bh292rcd13ifvqdg0","pricing_plan_id":"cebpf4jnsgd1na2vs0mg"},{"bike_id":"16d82653-e2e5-4531-a384-7902e244f0cf","system_id":"levelo_inurba_marseille","lat":43.22507,"lon":5.34791,"is_reserved":false,"is_disabled":false,"rental_uris":{"android":"levelo://app?vid=16d82653-e2e5-4531-a384-7902e244f0cf","ios":"levelo://app?vid=16d82653-e2e5-4531-a384-7902e244f0cf"},"vehicle_type_id":"4","last_reported":1746634414,"current_range_meters":22000,"station_id":"st_cvj5dfep6f1abm77gieg","pricing_plan_id":"cebpf4jnsgd1na2vs0mg"},{"bike_id":"c9884fa5-25f9-48f5-909b-c1dd28da596c","system_id":"levelo_inurba_marseille","lat":43.31077,"lon":5.38354,"is_reserved":false,"is_disabled":false,"rental_uris":{"android":"levelo://app?vid=c9884fa5-25f9-48f5-909b-c1dd28da596c","ios":"levelo://app?vid=c9884fa5-25f9-48f5-909b-c1dd28da596c"},"vehicle_type_id":"4","last_reported":1746634414,"current_range_meters":22000,"station_id":"ce4bgv92rcd13ifvqcr0","pricing_plan_id":"cebpf4jnsgd1na2vs0mg"},{"bike_id":"a38c5fcd-2a3e-4e2c-b5be-bfb908394086","system_id":"levelo_inurba_marseille","lat":43.32772,"lon":5.39111,"is_reserved":false,"is_disabled":false,"rental_uris":{"android":"levelo://app?vid=a38c5fcd-2a3e-4e2c-b5be-bfb908394086","ios":"levelo://app?vid=a38c5fcd-2a3e-4e2c-b5be-bfb908394086"},"vehicle_type_id":"4","last_reported":1746634414,"current_range_meters":22000,"station_id":"","pricing_plan_id":"cebpf4jnsgd1na2vs0mg"},{"bike_id":"ba29f11a-fea7-45cb-93dc-05fe8c9931c0","system_id":"levelo_inurba_marseille","lat":43.26954,"lon":5.3863,"is_reserved":false,"is_disabled":false,"rental_uris":{"android":"levelo://app?vid=ba29f11a-fea7-45cb-93dc-05fe8c9931c0","ios":"levelo://app?vid=ba29f11a-fea7-45cb-93dc-05fe8c9931c0"},"vehicle_type_id":"4","last_reported":1746634414,"current_range_meters":22000,"station_id":"ce4bhh92rcd13ifvqfh0","pricing_plan_id":"cebpf4jnsgd1na2vs0mg"},{"bike_id":"1c1fca0b-674c-4e89-8deb-9b2c621de51e","system_id":"levelo_inurba_marseille","lat":43.29414,"lon":5.38627,"is_reserved":false,"is_disabled":false,"rental_uris":{"android":"levelo://app?vid=1c1fca0b-674c-4e89-8deb-9b2c621de51e","ios":"levelo://app?vid=1c1fca0b-674c-4e89-8deb-9b2c621de51e"},"vehicle_type_id":"4","last_reported":1746634414,"current_range_meters":22000,"station_id":"ce4bh2h2rcd13ifvqdh0","pricing_plan_id":"cebpf4jnsgd1na2vs0mg"},{"bike_id":"a27f1055-4df4-4ea6-8ee3-29e20ba078fc","system_id":"levelo_inurba_marseille","lat":43.29267,"lon":5.38466,"is_reserved":false,"is_disabled":false,"rental_uris":{"android":"levelo://app?vid=a27f1055-4df4-4ea6-8ee3-29e20ba078fc","ios":"levelo://app?vid=a27f1055-4df4-4ea6-8ee3-29e20ba078fc"},"vehicle_type_id":"4","last_reported":1746634414,"current_range_meters":22000,"station_id":"ce4bh692rcd13ifvqea0","pricing_plan_id":"cebpf4jnsgd1na2vs0mg"},{"bike_id":"ff807334-3ad3-4e40-bbde-648eb2b1c45b","system_id":"levelo_inurba_marseille","lat":43.212026,"lon":5.350738,"is_reserved":false,"is_disabled":false,"rental_uris":{"android":"levelo://app?vid=ff807334-3ad3-4e40-bbde-648eb2b1c45b","ios":"levelo://app?vid=ff807334-3ad3-4e40-bbde-648eb2b1c45b"},"vehicle_type_id":"4","last_reported":1746634414,"current_range_meters":22000,"station_id":"st_cvj6sg6p6f1abm77japg","pricing_plan_id":"cebpf4jnsgd1na2vs0mg"},{"bike_id":"96ba868d-44b8-45a3-8ad4-d074f7a02784","system_id":"levelo_inurba_marseille","lat":43.31709,"lon":5.43706,"is_reserved":false,"is_disabled":false,"rental_uris":{"android":"levelo://app?vid=96ba868d-44b8-45a3-8ad4-d074f7a02784","ios":"levelo://app?vid=96ba868d-44b8-45a3-8ad4-d074f7a02784"},"vehicle_type_id":"4","last_reported":1746634414,"current_range_meters":21600,"station_id":"ce4bhp92rcd13ifvqhcg","pricing_plan_id":"cebpf4jnsgd1na2vs0mg"},{"bike_id":"5ddf8db6-e1f0-46f3-90cb-4897d3722890","system_id":"levelo_inurba_marseille","lat":43.28269,"lon":5.35091,"is_reserved":false,"is_disabled":false,"rental_uris":{"android":"levelo://app?vid=5ddf8db6-e1f0-46f3-90cb-4897d3722890","ios":"levelo://app?vid=5ddf8db6-e1f0-46f3-90cb-4897d3722890"},"vehicle_type_id":"4","last_reported":1746634414,"current_range_meters":22000,"station_id":"ce4bhbp2rcd13ifvqerg","pricing_plan_id":"cebpf4jnsgd1na2vs0mg"},{"bike_id":"a851ff4c-b238-4f25-aa41-f86cf2b49321","system_id":"levelo_inurba_marseille","lat":43.31722,"lon":5.42396,"is_reserved":false,"is_disabled":false,"rental_uris":{"android":"levelo://app?vid=a851ff4c-b238-4f25-aa41-f86cf2b49321","ios":"levelo://app?vid=a851ff4c-b238-4f25-aa41-f86cf2b49321"},"vehicle_type_id":"4","last_reported":1746634414,"current_range_meters":22000,"station_id":"ce4bhp92rcd13ifvqhbg","pricing_plan_id":"cebpf4jnsgd1na2vs0mg"},{"bike_id":"385efc73-c8f2-4acf-91a3-ae63842dcfc6","system_id":"levelo_inurba_marseille","lat":43.28646,"lon":5.37042,"is_reserved":false,"is_disabled":false,"rental_uris":{"android":"levelo://app?vid=385efc73-c8f2-4acf-91a3-ae63842dcfc6","ios":"levelo://app?vid=385efc73-c8f2-4acf-91a3-ae63842dcfc6"},"vehicle_type_id":"4","last_reported":1746634414,"current_range_meters":22400,"station_id":"","pricing_plan_id":"cebpf4jnsgd1na2vs0mg"},{"bike_id":"c3d4cc20-4f49-4995-a3a4-fc162bb6763e","system_id":"levelo_inurba_marseille","lat":43.27561,"lon":5.38416,"is_reserved":false,"is_disabled":false,"rental_uris":{"android":"levelo://app?vid=c3d4cc20-4f49-4995-a3a4-fc162bb6763e","ios":"levelo://app?vid=c3d4cc20-4f49-4995-a3a4-fc162bb6763e"},"vehicle_type_id":"4","last_reported":1746634414,"current_range_meters":22400,"station_id":"ce4bhh92rcd13ifvqfi0","pricing_plan_id":"cebpf4jnsgd1na2vs0mg"},{"bike_id":"ff6bb555-3798-44a6-961f-b66bc6a34918","system_id":"levelo_inurba_marseille","lat":43.29255,"lon":5.40902,"is_reserved":false,"is_disabled":false,"rental_uris":{"android":"levelo://app?vid=ff6bb555-3798-44a6-961f-b66bc6a34918","ios":"levelo://app?vid=ff6bb555-3798-44a6-961f-b66bc6a34918"},"vehicle_type_id":"4","last_reported":1746634414,"current_range_meters":22400,"station_id":"ce4bh192rcd13ifvqdc0","pricing_plan_id":"cebpf4jnsgd1na2vs0mg"},{"bike_id":"045ed889-89ae-46aa-ab46-798eb95b0b76","system_id":"levelo_inurba_marseille","lat":43.28447,"lon":5.39206,"is_reserved":false,"is_disabled":false,"rental_uris":{"android":"levelo://app?vid=045ed889-89ae-46aa-ab46-798eb95b0b76","ios":"levelo://app?vid=045ed889-89ae-46aa-ab46-798eb95b0b76"},"vehicle_type_id":"4","last_reported":1746634414,"current_range_meters":22400,"station_id":"ce4bhoh2rcd13ifvqh5g","pricing_plan_id":"cebpf4jnsgd1na2vs0mg"},{"bike_id":"01b944f5-220d-425d-a8d8-2b22922118e4","system_id":"levelo_inurba_marseille","lat":43.265899,"lon":5.390049,"is_reserved":false,"is_disabled":false,"rental_uris":{"android":"levelo://app?vid=01b944f5-220d-425d-a8d8-2b22922118e4","ios":"levelo://app?vid=01b944f5-220d-425d-a8d8-2b22922118e4"},"vehicle_type_id":"4","last_reported":1746634414,"current_range_meters":22400,"station_id":"ce4bhe12rcd13ifvqf30","pricing_plan_id":"cebpf4jnsgd1na2vs0mg"},{"bike_id":"b609afb5-a242-4128-acbc-c97ea2e47741","system_id":"levelo_inurba_marseille","lat":43.28936,"lon":5.36631,"is_reserved":false,"is_disabled":false,"rental_uris":{"android":"levelo://app?vid=b609afb5-a242-4128-acbc-c97ea2e47741","ios":"levelo://app?vid=b609afb5-a242-4128-acbc-c97ea2e47741"},"vehicle_type_id":"4","last_reported":1746634414,"current_range_meters":22800,"station_id":"ce4bhap2rcd13ifvqek0","pricing_plan_id":"cebpf4jnsgd1na2vs0mg"},{"bike_id":"8a8c4919-45b8-4ac8-b8c4-489ee69ecafd","system_id":"levelo_inurba_marseille","lat":43.28464,"lon":5.3589,"is_reserved":false,"is_disabled":false,"rental_uris":{"android":"levelo://app?vid=8a8c4919-45b8-4ac8-b8c4-489ee69ecafd","ios":"levelo://app?vid=8a8c4919-45b8-4ac8-b8c4-489ee69ecafd"},"vehicle_type_id":"4","last_reported":1746634414,"current_range_meters":19200,"station_id":"ce4bhah2rcd13ifvqei0","pricing_plan_id":"cebpf4jnsgd1na2vs0mg"},{"bike_id":"2de506a3-6af5-48a6-8e17-96925d0b6fa0","system_id":"levelo_inurba_marseille","lat":43.30314,"lon":5.4043,"is_reserved":false,"is_disabled":false,"rental_uris":{"android":"levelo://app?vid=2de506a3-6af5-48a6-8e17-96925d0b6fa0","ios":"levelo://app?vid=2de506a3-6af5-48a6-8e17-96925d0b6fa0"},"vehicle_type_id":"4","last_reported":1746634414,"current_range_meters":22800,"station_id":"ce4bh012rcd13ifvqd10","pricing_plan_id":"cebpf4jnsgd1na2vs0mg"},{"bike_id":"a88eec37-c6d7-4a7b-94cd-14741758fbb5","system_id":"levelo_inurba_marseille","lat":43.30646,"lon":5.40081,"is_reserved":false,"is_disabled":false,"rental_uris":{"android":"levelo://app?vid=a88eec37-c6d7-4a7b-94cd-14741758fbb5","ios":"levelo://app?vid=a88eec37-c6d7-4a7b-94cd-14741758fbb5"},"vehicle_type_id":"4","last_reported":1746634414,"current_range_meters":22800,"station_id":"ce4bh112rcd13ifvqda0","pricing_plan_id":"cebpf4jnsgd1na2vs0mg"},{"bike_id":"0078e013-1a39-4d8b-a252-a5e131773f13","system_id":"levelo_inurba_marseille","lat":43.28633,"lon":5.35106,"is_reserved":false,"is_disabled":true,"rental_uris":{"android":"levelo://app?vid=0078e013-1a39-4d8b-a252-a5e131773f13","ios":"levelo://app?vid=0078e013-1a39-4d8b-a252-a5e131773f13"},"vehicle_type_id":"4","last_reported":1746634414,"current_range_meters":22800,"station_id":"","pricing_plan_id":"cebpf4jnsgd1na2vs0mg"},{"bike_id":"f96724f5-21c8-46e7-be00-d51d1fddfdc4","system_id":"levelo_inurba_marseille","lat":43.281,"lon":5.37832,"is_reserved":false,"is_disabled":false,"rental_uris":{"android":"levelo://app?vid=f96724f5-21c8-46e7-be00-d51d1fddfdc4","ios":"levelo://app?vid=f96724f5-21c8-46e7-be00-d51d1fddfdc4"},"vehicle_type_id":"4","last_reported":1746634414,"current_range_meters":23200,"station_id":"ce4bha12rcd13ifvqee0","pricing_plan_id":"cebpf4jnsgd1na2vs0mg"},{"bike_id":"17028dce-ac3c-4d22-ad78-009b97cf7396","system_id":"levelo_inurba_marseille","lat":43.29412,"lon":5.38623,"is_reserved":false,"is_disabled":false,"rental_uris":{"android":"levelo://app?vid=17028dce-ac3c-4d22-ad78-009b97cf7396","ios":"levelo://app?vid=17028dce-ac3c-4d22-ad78-009b97cf7396"},"vehicle_type_id":"4","last_reported":1746634414,"current_range_meters":23200,"station_id":"ce4bh2h2rcd13ifvqdh0","pricing_plan_id":"cebpf4jnsgd1na2vs0mg"},{"bike_id":"f3e9ab38-3242-4aa5-83f9-529a16ccf936","system_id":"levelo_inurba_marseille","lat":43.22517,"lon":5.34776,"is_reserved":false,"is_disabled":false,"rental_uris":{"android":"levelo://app?vid=f3e9ab38-3242-4aa5-83f9-529a16ccf936","ios":"levelo://app?vid=f3e9ab38-3242-4aa5-83f9-529a16ccf936"},"vehicle_type_id":"4","last_reported":1746634414,"current_range_meters":23200,"station_id":"st_cvj5dfep6f1abm77gieg","pricing_plan_id":"cebpf4jnsgd1na2vs0mg"},{"bike_id":"d298191f-a816-43c9-9847-f2b38665be48","system_id":"levelo_inurba_marseille","lat":43.29913,"lon":5.38151,"is_reserved":false,"is_disabled":false,"rental_uris":{"android":"levelo://app?vid=d298191f-a816-43c9-9847-f2b38665be48","ios":"levelo://app?vid=d298191f-a816-43c9-9847-f2b38665be48"},"vehicle_type_id":"4","last_reported":1746634414,"current_range_meters":23200,"station_id":"ce4bgj12rcd13ifvqbc0","pricing_plan_id":"cebpf4jnsgd1na2vs0mg"},{"bike_id":"1c99f420-027f-4443-a54d-05885986ffeb","system_id":"levelo_inurba_marseille","lat":43.29715,"lon":5.36619,"is_reserved":false,"is_disabled":false,"rental_uris":{"android":"levelo://app?vid=1c99f420-027f-4443-a54d-05885986ffeb","ios":"levelo://app?vid=1c99f420-027f-4443-a54d-05885986ffeb"},"vehicle_type_id":"4","last_reported":1746634414,"current_range_meters":22800,"station_id":"ce4bgn12rcd13ifvqbt0","pricing_plan_id":"cebpf4jnsgd1na2vs0mg"},{"bike_id":"1f60255e-1363-490f-8cb1-75ef5010a515","system_id":"levelo_inurba_marseille","lat":43.27954,"lon":5.38737,"is_reserved":false,"is_disabled":false,"rental_uris":{"android":"levelo://app?vid=1f60255e-1363-490f-8cb1-75ef5010a515","ios":"levelo://app?vid=1f60255e-1363-490f-8cb1-75ef5010a515"},"vehicle_type_id":"4","last_reported":1746634414,"current_range_meters":23200,"station_id":"ce4bhg12rcd13ifvqf80","pricing_plan_id":"cebpf4jnsgd1na2vs0mg"},{"bike_id":"205ebe43-f6a3-413d-b5d7-f858ba7984fb","system_id":"levelo_inurba_marseille","lat":43.30738,"lon":5.4244,"is_reserved":false,"is_disabled":false,"rental_uris":{"android":"levelo://app?vid=205ebe43-f6a3-413d-b5d7-f858ba7984fb","ios":"levelo://app?vid=205ebe43-f6a3-413d-b5d7-f858ba7984fb"},"vehicle_type_id":"4","last_reported":1746634414,"current_range_meters":23200,"station_id":"st_cvj6ca6bvosntc0bfgr0","pricing_plan_id":"cebpf4jnsgd1na2vs0mg"},{"bike_id":"8d60192b-c4b7-4cf9-8f7e-505a80b56cd7","system_id":"levelo_inurba_marseille","lat":43.28463,"lon":5.35886,"is_reserved":false,"is_disabled":false,"rental_uris":{"android":"levelo://app?vid=8d60192b-c4b7-4cf9-8f7e-505a80b56cd7","ios":"levelo://app?vid=8d60192b-c4b7-4cf9-8f7e-505a80b56cd7"},"vehicle_type_id":"4","last_reported":1746634414,"current_range_meters":23200,"station_id":"ce4bhah2rcd13ifvqei0","pricing_plan_id":"cebpf4jnsgd1na2vs0mg"},{"bike_id":"082577de-2702-4e5b-b12d-be3ad8a2a796","system_id":"levelo_inurba_marseille","lat":43.31082,"lon":5.42431,"is_reserved":false,"is_disabled":false,"rental_uris":{"android":"levelo://app?vid=082577de-2702-4e5b-b12d-be3ad8a2a796","ios":"levelo://app?vid=082577de-2702-4e5b-b12d-be3ad8a2a796"},"vehicle_type_id":"4","last_reported":1746634414,"current_range_meters":23200,"station_id":"ce4bhp92rcd13ifvqhag","pricing_plan_id":"cebpf4jnsgd1na2vs0mg"},{"bike_id":"91e162dc-df90-4b10-94c0-748de28a9b55","system_id":"levelo_inurba_marseille","lat":43.27804,"lon":5.39986,"is_reserved":false,"is_disabled":false,"rental_uris":{"android":"levelo://app?vid=91e162dc-df90-4b10-94c0-748de28a9b55","ios":"levelo://app?vid=91e162dc-df90-4b10-94c0-748de28a9b55"},"vehicle_type_id":"4","last_reported":1746634414,"current_range_meters":24000,"station_id":"","pricing_plan_id":"cebpf4jnsgd1na2vs0mg"},{"bike_id":"f73d450b-fde6-4898-99b1-916875a407c6","system_id":"levelo_inurba_marseille","lat":43.22505,"lon":5.34786,"is_reserved":false,"is_disabled":false,"rental_uris":{"android":"levelo://app?vid=f73d450b-fde6-4898-99b1-916875a407c6","ios":"levelo://app?vid=f73d450b-fde6-4898-99b1-916875a407c6"},"vehicle_type_id":"4","last_reported":1746634414,"current_range_meters":24000,"station_id":"st_cvj5dfep6f1abm77gieg","pricing_plan_id":"cebpf4jnsgd1na2vs0mg"},{"bike_id":"cd76fe3c-457e-4979-a9cc-442905f874ee","system_id":"levelo_inurba_marseille","lat":43.31445,"lon":5.36894,"is_reserved":false,"is_disabled":false,"rental_uris":{"android":"levelo://app?vid=cd76fe3c-457e-4979-a9cc-442905f874ee","ios":"levelo://app?vid=cd76fe3c-457e-4979-a9cc-442905f874ee"},"vehicle_type_id":"4","last_reported":1746634414,"current_range_meters":24000,"station_id":"","pricing_plan_id":"cebpf4jnsgd1na2vs0mg"},