{"last_updated":1762679387,"ttl":60,"version":"2.2","data":{"bikes":[{"bike_id":"9d8b20ec-88dc-4f51-98e9-5bd8cf39c228","system_id":"levelo_inurba_marseille","lat":43.270732,"lon":5.383168,"is_reserved":false,"is_disabled":false,"rental_uris":{"android":"levelo://app?vid=9d8b20ec-88dc-4f51-98e9-5bd8cf39c228","ios":"levelo://app?vid=9d8b20ec-88dc-4f51-98e9-5bd8cf39c228"},"vehicle_type_id":"4","last_reported":1762679387,"current_range_meters":2800,"station_id":"st_d3n2fo6cfp8s73cte1j0","pricing_plan_id":"cebpf4jnsgd1na2vs0mg"},{"bike_id":"956a5a53-b6ad-430a-a882-6747d208efa2","system_id":"levelo_inurba_marseille","lat":43.30131,"lon":5.39871,"is_reserved":false,"is_disabled":false,"rental_uris":{"android":"levelo://app?vid=956a5a53-b6ad-430a-a882-6747d208efa2","ios":"levelo://app?vid=956a5a53-b6ad-430a-a882-6747d208efa2"},"vehicle_type_id":"4","last_reported":1762679387,"current_range_meters":2800,"station_id":"ce4bh0h2rcd13ifvqd40","pricing_plan_id":"cebpf4jnsgd1na2vs0mg"},{"bike_id":"92fed800-094c-4636-a805-84cb903accc8","system_id":"levelo_inurba_marseille","lat":43.25729,"lon":5.41138,"is_reserved":false,"is_disabled":false,"rental_uris":{"android":"levelo://app?vid=92fed800-094c-4636-a805-84cb903accc8","ios":"levelo://app?vid=92fed800-094c-4636-a805-84cb903accc8"},"vehicle_type_id":"4","last_reported":1762679387,"current_range_meters":2800,"station_id":"ce4bhkp2rcd13ifvqgd0","pricing_plan_id":"cebpf4jnsgd1na2vs0mg"},{"bike_id":"09ef64c9-8369-4998-8a84-5b278effc959","system_id":"levelo_inurba_marseille","lat":43.29597,"lon":5.4031,"is_reserved":false,"is_disabled":false,"rental_uris":{"android":"levelo://app?vid=09ef64c9-8369-4998-8a84-5b278effc959","ios":"levelo://app?vid=09ef64c9-8369-4998-8a84-5b278effc959"},"vehicle_type_id":"4","last_reported":1762679387,"current_range_meters":2800,"station_id":"","pricing_plan_id":"cebpf4jnsgd1na2vs0mg"},{"bike_id":"5d63f2aa-8446-4f1d-92da-1e2d5b4a6cc8","system_id":"levelo_inurba_marseille","lat":43.296682,"lon":5.377602,"is_reserved":false,"is_disabled":false,"rental_uris":{"android":"levelo://app?vid=5d63f2aa-8446-4f1d-92da-1e2d5b4a6cc8","ios":"levelo://app?vid=5d63f2aa-8446-4f1d-92da-1e2d5b4a6cc8"},"vehicle_type_id":"4","last_reported":1762679387,"current_range_meters":3200,"station_id":"","pricing_plan_id":"cebpf4jnsgd1na2vs0mg"},{"bike_id":"7c392732-2900-41fd-8c6d-e5b49cdf67b5","system_id":"levelo_inurba_marseille","lat":43.29718,"lon":5.38233,"is_reserved":false,"is_disabled":false,"rental_uris":{"android":"levelo://app?vid=7c392732-2900-41fd-8c6d-e5b49cdf67b5","ios":"levelo://app?vid=7c392732-2900-41fd-8c6d-e5b49cdf67b5"},"vehicle_type_id":"4","last_reported":1762679387,"current_range_meters":3200,"station_id":"","pricing_plan_id":"cebpf4jnsgd1na2vs0mg"},{"bike_id":"e9a64202-3996-4029-8a32-068968a73b0b","system_id":"levelo_inurba_marseille","lat":43.29843,"lon":5.36265,"is_reserved":false,"is_disabled":false,"rental_uris":{"android":"levelo://app?vid=e9a64202-3996-4029-8a32-068968a73b0b","ios":"levelo://app?vid=e9a64202-3996-4029-8a32-068968a73b0b"},"vehicle_type_id":"4","last_reported":1762679387,"current_range_meters":3200,"station_id":"ce4bgpp2rcd13ifvqc3g","pricing_plan_id":"cebpf4jnsgd1na2vs0mg"},{"bike_id":"6580beb2-f281-473f-9ef4-7b331653ef2e","system_id":"levelo_inurba_marseille","lat":43.29134,"lon":5.40795,"is_reserved":false,"is_disabled":false,"rental_uris":{"android":"levelo://app?vid=6580beb2-f281-473f-9ef4-7b331653ef2e","ios":"levelo://app?vid=6580beb2-f281-473f-9ef4-7b331653ef2e"},"vehicle_type_id":"4","last_reported":1762679387,"current_range_meters":3200,"station_id":"","pricing_plan_id":"cebpf4jnsgd1na2vs0mg"},{"bike_id":"a0b3959d-b00c-4496-a279-7bac098afc5b","system_id":"levelo_inurba_marseille","lat":43.29939,"lon":5.3655,"is_reserved":false,"is_disabled":false,"rental_uris":{"android":"levelo://app?vid=a0b3959d-b00c-4496-a279-7bac098afc5b","ios":"levelo://app?vid=a0b3959d-b00c-4496-a279-7bac098afc5b"},"vehicle_type_id":"4","last_reported":1762679387,"current_range_meters":3600,"station_id":"ce4bgm92rcd13ifvqbr0","pricing_plan_id":"cebpf4jnsgd1na2vs0mg"},{"bike_id":"348bf609-07f6-4ffc-add0-6df7615d023f","system_id":"levelo_inurba_marseille","lat":43.337669,"lon":5.37438,"is_reserved":false,"is_disabled":false,"rental_uris":{"android":"levelo://app?vid=348bf609-07f6-4ffc-add0-6df7615d023f","ios":"levelo://app?vid=348bf609-07f6-4ffc-add0-6df7615d023f"},"vehicle_type_id":"4","last_reported":1762679387,"current_range_meters":3600,"station_id":"","pricing_plan_id":"cebpf4jnsgd1na2vs0mg"},{"bike_id":"c03bd52b-534b-4ae1-bb73-924e391fe2f5","system_id":"levelo_inurba_marseille","lat":43.25514,"lon":5.37649,"is_reserved":false,"is_disabled":true,"rental_uris":{"android":"levelo://app?vid=c03bd52b-534b-4ae1-bb73-924e391fe2f5","ios":"levelo://app?vid=c03bd52b-534b-4ae1-bb73-924e391fe2f5"},"vehicle_type_id":"4","last_reported":1762679387,"current_range_meters":4000,"station_id":"ce4bhh12rcd13ifvqff0","pricing_plan_id":"cebpf4jnsgd1na2vs0mg"},{"bike_id":"c3c86825-336c-4b16-ae42-e6f6e539afbe","system_id":"levelo_inurba_marseille","lat":43.257235,"lon":5.383016,"is_reserved":false,"is_disabled":false,"rental_uris":{"android":"levelo://app?vid=c3c86825-336c-4b16-ae42-e6f6e539afbe","ios":"levelo://app?vid=c3c86825-336c-4b16-ae42-e6f6e539afbe"},"vehicle_type_id":"4","last_reported":1762679387,"current_range_meters":4000,"station_id":"ce4bhih2rcd13ifvqfs0","pricing_plan_id":"cebpf4jnsgd1na2vs0mg"},{"bike_id":"76a55cd6-b65b-459d-a324-14aa77a3403c","system_id":"levelo_inurba_marseille","lat":43.29249,"lon":5.38435,"is_reserved":false,"is_disabled":false,"rental_uris":{"android":"levelo://app?vid=76a55cd6-b65b-459d-a324-14aa77a3403c","ios":"levelo://app?vid=76a55cd6-b65b-459d-a324-14aa77a3403c"},"vehicle_type_id":"4","last_reported":1762679387,"current_range_meters":4000,"station_id":"ce4bh692rcd13ifvqea0","pricing_plan_id":"cebpf4jnsgd1na2vs0mg"},{"bike_id":"34c14480-831b-41a9-b30b-a1e8f994a110","system_id":"levelo_inurba_marseille","lat":43.30874,"lon":5.37174,"is_reserved":false,"is_disabled":false,"rental_uris":{"android":"levelo://app?vid=34c14480-831b-41a9-b30b-a1e8f994a110","ios":"levelo://app?vid=34c14480-831b-41a9-b30b-a1e8f994a110"},"vehicle_type_id":"4","last_reported":1762679387,"current_range_meters":4000,"station_id":"ce4bguh2rcd13ifvqckg","pricing_plan_id":"cebpf4jnsgd1na2vs0mg"},{"bike_id":"5bee8f0f-57fe-4257-a72a-04a4967570b5","system_id":"levelo_inurba_marseille","lat":43.30035,"lon":5.37718,"is_reserved":false,"is_disabled":false,"rental_uris":{"android":"levelo://app?vid=5bee8f0f-57fe-4257-a72a-04a4967570b5","ios":"levelo://app?vid=5bee8f0f-57fe-4257-a72a-04a4967570b5"},"vehicle_type_id":"4","last_reported":1762679387,"current_range_meters":4000,"station_id":"","pricing_plan_id":"cebpf4jnsgd1na2vs0mg"},{"bike_id":"b244e63f-2736-4592-bd42-3ed07c477bf1","system_id":"levelo_inurba_marseille","lat":43.303067,"lon":5.369241,"is_reserved":false,"is_disabled":false,"rental_uris":{"android":"levelo://app?vid=b244e63f-2736-4592-bd42-3ed07c477bf1","ios":"levelo://app?vid=b244e63f-2736-4592-bd42-3ed07c477bf1"},"vehicle_type_id":"4","last_reported":1762679387,"current_range_meters":4400,"station_id":"ce4bgqh2rcd13ifvqc5g","pricing_plan_id":"cebpf4jnsgd1na2vs0mg"},{"bike_id":"4fa93e58-ad51-41bb-b7cd-c71dad4e22b9","system_id":"levelo_inurba_marseille","lat":43.21193,"lon":5.350772,"is_reserved":false,"is_disabled":true,"rental_uris":{"android":"levelo://app?vid=4fa93e58-ad51-41bb-b7cd-c71dad4e22b9","ios":"levelo://app?vid=4fa93e58-ad51-41bb-b7cd-c71dad4e22b9"},"vehicle_type_id":"4","last_reported":1762679387,"current_range_meters":4800,"station_id":"st_cvj6sg6p6f1abm77japg","pricing_plan_id":"cebpf4jnsgd1na2vs0mg"},{"bike_id":"8adceed4-99fa-4042-9822-c8ee8eab7221","system_id":"levelo_inurba_marseille","lat":43.23153,"lon":5.43704,"is_reserved":false,"is_disabled":false,"rental_uris":{"android":"levelo://app?vid=8adceed4-99fa-4042-9822-c8ee8eab7221","ios":"levelo://app?vid=8adceed4-99fa-4042-9822-c8ee8eab7221"},"vehicle_type_id":"4","last_reported":1762679387,"current_range_meters":4800,"station_id":"ce4bhmp2rcd13ifvqgog","pricing_plan_id":"cebpf4jnsgd1na2vs0mg"},{"bike_id":"2bda9569-8855-4749-9a29-a9c55ba153ed","system_id":"levelo_inurba_marseille","lat":43.22559,"lon":5.41622,"is_reserved":false,"is_disabled":false,"rental_uris":{"android":"levelo://app?vid=2bda9569-8855-4749-9a29-a9c55ba153ed","ios":"levelo://app?vid=2bda9569-8855-4749-9a29-a9c55ba153ed"},"vehicle_type_id":"4","last_reported":1762679387,"current_range_meters":5600,"station_id":"st_d2o4gvlbi1j2169b742g","pricing_plan_id":"cebpf4jnsgd1na2vs0mg"},{"bike_id":"432e622f-f036-4a06-be51-daa9d6d37a6f","system_id":"levelo_inurba_marseille","lat":43.27065,"lon":5.40262,"is_reserved":false,"is_disabled":false,"rental_uris":{"android":"levelo://app?vid=432e622f-f036-4a06-be51-daa9d6d37a6f","ios":"levelo://app?vid=432e622f-f036-4a06-be51-daa9d6d37a6f"},"vehicle_type_id":"4","last_reported":1762679387,"current_range_meters":5600,"station_id":"ce4bhk92rcd13ifvqgc0","pricing_plan_id":"cebpf4jnsgd1na2vs0mg"},{"bike_id":"3df1ea74-4323-4495-adf2-6ebb2ea74981","system_id":"levelo_inurba_marseille","lat":43.28105,"lon":5.37828,"is_reserved":false,"is_disabled":false,"rental_uris":{"android":"levelo://app?vid=3df1ea74-4323-4495-adf2-6ebb2ea74981","ios":"levelo://app?vid=3df1ea74-4323-4495-adf2-6ebb2ea74981"},"vehicle_type_id":"4","last_reported":1762679387,"current_range_meters":5600,"station_id":"ce4bha12rcd13ifvqee0","pricing_plan_id":"cebpf4jnsgd1na2vs0mg"},{"bike_id":"7ad73cbf-6e7f-40c6-9f01-5beee285b1af","system_id":"levelo_inurba_marseille","lat":43.32356,"lon":5.36743,"is_reserved":false,"is_disabled":false,"rental_uris":{"android":"levelo://app?vid=7ad73cbf-6e7f-40c6-9f01-5beee285b1af","ios":"levelo://app?vid=7ad73cbf-6e7f-40c6-9f01-5beee285b1af"},"vehicle_type_id":"4","last_reported":1762679387,"current_range_meters":6000,"station_id":"ce4bhsh2rcd13ifvqi2g","pricing_plan_id":"cebpf4jnsgd1na2vs0mg"},{"bike_id":"5c17ed12-8897-4f84-bbfc-85419a7f8038","system_id":"levelo_inurba_marseille","lat":43.270711,"lon":5.394755,"is_reserved":false,"is_disabled":false,"rental_uris":{"android":"levelo://app?vid=5c17ed12-8897-4f84-bbfc-85419a7f8038","ios":"levelo://app?vid=5c17ed12-8897-4f84-bbfc-85419a7f8038"},"vehicle_type_id":"4","last_reported":1762679387,"current_range_meters":6000,"station_id":"","pricing_plan_id":"cebpf4jnsgd1na2vs0mg"},{"bike_id":"eb46c66d-5104-4495-80f5-a25d45718f4c","system_id":"levelo_inurba_marseille","lat":43.30359,"lon":5.42462,"is_reserved":false,"is_disabled":false,"rental_uris":{"android":"levelo://app?vid=eb46c66d-5104-4495-80f5-a25d45718f4c","ios":"levelo://app?vid=eb46c66d-5104-4495-80f5-a25d45718f4c"},"vehicle_type_id":"4","last_reported":1762679387,"current_range_meters":6000,"station_id":"ce4bhoh2rcd13ifvqh6g","pricing_plan_id":"cebpf4jnsgd1na2vs0mg"},{"bike_id":"97ac3eaf-7e56-4407-a5b1-b006bafc42ee","system_id":"levelo_inurba_marseille","lat":43.290115,"lon":5.381489,"is_reserved":false,"is_disabled":false,"rental_uris":{"android":"levelo://app?vid=97ac3eaf-7e56-4407-a5b1-b006bafc42ee","ios":"levelo://app?vid=97ac3eaf-7e56-4407-a5b1-b006bafc42ee"},"vehicle_type_id":"4","last_reported":1762679387,"current_range_meters":6000,"station_id":"ce4bgip2rcd13ifvqbb0","pricing_plan_id":"cebpf4jnsgd1na2vs0mg"},{"bike_id":"a0ea519d-554f-42a0-93a3-d4c181552c78","system_id":"levelo_inurba_marseille","lat":43.31279,"lon":5.37752,"is_reserved":false,"is_disabled":false,"rental_uris":{"android":"levelo://app?vid=a0ea519d-554f-42a0-93a3-d4c181552c78","ios":"levelo://app?vid=a0ea519d-554f-42a0-93a3-d4c181552c78"},"vehicle_type_id":"4","last_reported":1762679387,"current_range_meters":6000,"station_id":"","pricing_plan_id":"cebpf4jnsgd1na2vs0mg"},{"bike_id":"a3a26465-b70c-4479-b741-843f16621c8d","system_id":"levelo_inurba_marseille","lat":43.284247,"lon":5.37525,"is_reserved":false,"is_disabled":false,"rental_uris":{"android":"levelo://app?vid=a3a26465-b70c-4479-b741-843f16621c8d","ios":"levelo://app?vid=a3a26465-b70c-4479-b741-843f16621c8d"},"vehicle_type_id":"4","last_reported":1762679387,"current_range_meters":6400,"station_id":"ce4bh412rcd13ifvqds0","pricing_plan_id":"cebpf4jnsgd1na2vs0mg"},{"bike_id":"f114550f-0e97-467f-a15f-491fe7ea5021","system_id":"levelo_inurba_marseille","lat":43.29333,"lon":5.37165,"is_reserved":false,"is_disabled":true,"rental_uris":{"android":"levelo://app?vid=f114550f-0e97-467f-a15f-491fe7ea5021","ios":"levelo://app?vid=f114550f-0e97-467f-a15f-491fe7ea5021"},"vehicle_type_id":"4","last_reported":1762679387,"current_range_meters":6400,"station_id":"ce4bgh92rcd13ifvqb40","pricing_plan_id":"cebpf4jnsgd1na2vs0mg"},{"bike_id":"9bc3bbff-37bb-41d1-80dc-b7cb1a77b9d9","system_id":"levelo_inurba_marseille","lat":43.302538,"lon":5.400649,"is_reserved":false,"is_disabled":false,"rental_uris":{"android":"levelo://app?vid=9bc3bbff-37bb-41d1-80dc-b7cb1a77b9d9","ios":"levelo://app?vid=9bc3bbff-37bb-41d1-80dc-b7cb1a77b9d9"},"vehicle_type_id":"4","last_reported":1762679387,"current_range_meters":6400,"station_id":"ce4bgvh2rcd13ifvqcs0","pricing_plan_id":"cebpf4jnsgd1na2vs0mg"},{"bike_id":"b05048b6-3636-4628-97b9-678771374061","system_id":"levelo_inurba_marseille","lat":43.3119,"lon":5.37665,"is_reserved":false,"is_disabled":true,"rental_uris":{"android":"levelo://app?vid=b05048b6-3636-4628-97b9-678771374061","ios":"levelo://app?vid=b05048b6-3636-4628-97b9-678771374061"},"vehicle_type_id":"4","last_reported":1762679387,"current_range_meters":6400,"station_id":"","pricing_plan_id":"cebpf4jnsgd1na2vs0mg"},{"bike_id":"820a08d3-d2c4-4f28-9dcd-e032f879f1ff","system_id":"levelo_inurba_marseille","lat":43.29845,"lon":5.36272,"is_reserved":false,"is_disabled":false,"rental_uris":{"android":"levelo://app?vid=820a08d3-d2c4-4f28-9dcd-e032f879f1ff","ios":"levelo://app?vid=820a08d3-d2c4-4f28-9dcd-e032f879f1ff"},"vehicle_type_id":"4","last_reported":1762679387,"current_range_meters":6800,"station_id":"ce4bgpp2rcd13ifvqc3g","pricing_plan_id":"cebpf4jnsgd1na2vs0mg"},{"bike_id":"eb592abc-3441-4ded-8c1c-a5bddf2bbc04","system_id":"levelo_inurba_marseille","lat":43.280007,"lon":5.416674,"is_reserved":false,"is_disabled":false,"rental_uris":{"android":"levelo://app?vid=eb592abc-3441-4ded-8c1c-a5bddf2bbc04","ios":"levelo://app?vid=eb592abc-3441-4ded-8c1c-a5bddf2bbc04"},"vehicle_type_id":"4","last_reported":1762679387,"current_range_meters":6800,"station_id":"ce4bho12rcd13ifvqh1g","pricing_plan_id":"cebpf4jnsgd1na2vs0mg"},{"bike_id":"26aad628-bd01-4664-890e-ba85447bad9f","system_id":"levelo_inurba_marseille","lat":43.303332,"lon":5.40429,"is_reserved":false,"is_disabled":true,"rental_uris":{"android":"levelo://app?vid=26aad628-bd01-4664-890e-ba85447bad9f","ios":"levelo://app?vid=26aad628-bd01-4664-890e-ba85447bad9f"},"vehicle_type_id":"4","last_reported":1762679387,"current_range_meters":6800,"station_id":"ce4bh012rcd13ifvqd10","pricing_plan_id":"cebpf4jnsgd1na2vs0mg"},{"bike_id":"bad93078-b484-4873-a1ce-359b2e630abc","system_id":"levelo_inurba_marseille","lat":43.2937,"lon":5.38507,"is_reserved":false,"is_disabled":false,"rental_uris":{"android":"levelo://app?vid=bad93078-b484-4873-a1ce-359b2e630abc","ios":"levelo://app?vid=bad93078-b484-4873-a1ce-359b2e630abc"},"vehicle_type_id":"4","last_reported":1762679387,"current_range_meters":6800,"station_id":"","pricing_plan_id":"cebpf4jnsgd1na2vs0mg"},{"bike_id":"c1b86ae8-b253-438b-9bbf-af25272fe008","system_id":"levelo_inurba_marseille","lat":43.23153,"lon":5.43716,"is_reserved":false,"is_disabled":false,"rental_uris":{"android":"levelo://app?vid=c1b86ae8-b253-438b-9bbf-af25272fe008","ios":"levelo://app?vid=c1b86ae8-b253-438b-9bbf-af25272fe008"},"vehicle_type_id":"4","last_reported":1762679387,"current_range_meters":6800,"station_id":"ce4bhmp2rcd13ifvqgog","pricing_plan_id":"cebpf4jnsgd1na2vs0mg"},{"bike_id":"d13f7aac-3326-47eb-8c83-0485dd333747","system_id":"levelo_inurba_marseille","lat":43.30456,"lon":5.39262,"is_reserved":false,"is_disabled":false,"rental_uris":{"android":"levelo://app?vid=d13f7aac-3326-47eb-8c83-0485dd333747","ios":"levelo://app?vid=d13f7aac-3326-47eb-8c83-0485dd333747"},"vehicle_type_id":"4","last_reported":1762679387,"current_range_meters":6800,"station_id":"","pricing_plan_id":"cebpf4jnsgd1na2vs0mg"},{"bike_id":"c49c0d1a-c18e-4002-a8eb-4b631ca823a3","system_id":"levelo_inurba_marseille","lat":43.29036,"lon":5.38152,"is_reserved":false,"is_disabled":false,"rental_uris":{"android":"levelo://app?vid=c49c0d1a-c18e-4002-a8eb-4b631ca823a3","ios":"levelo://app?vid=c49c0d1a-c18e-4002-a8eb-4b631ca823a3"},"vehicle_type_id":"4","last_reported":1762679387,"current_range_meters":7200,"station_id":"ce4bh4p2rcd13ifvqe1g","pricing_plan_id":"cebpf4jnsgd1na2vs0mg"},{"bike_id":"9a959a9d-3741-405c-a6ee-fd06ae076c40","system_id":"levelo_inurba_marseille","lat":43.217486,"lon":5.346218,"is_reserved":false,"is_disabled":false,"rental_uris":{"android":"levelo://app?vid=9a959a9d-3741-405c-a6ee-fd06ae076c40","ios":"levelo://app?vid=9a959a9d-3741-405c-a6ee-fd06ae076c40"},"vehicle_type_id":"4","last_reported":1762679387,"current_range_meters":7200,"station_id":"st_cvj6r9ubvosntc0bgbag","pricing_plan_id":"cebpf4jnsgd1na2vs0mg"},{"bike_id":"a3b73820-c223-44f2-9c47-8ca5181a2f61","system_id":"levelo_inurba_marseille","lat":43.24393,"lon":5.37066,"is_reserved":false,"is_disabled":false,"rental_uris":{"android":"levelo://app?vid=a3b73820-c223-44f2-9c47-8ca5181a2f61","ios":"levelo://app?vid=a3b73820-c223-44f2-9c47-8ca5181a2f61"},"vehicle_type_id":"4","last_reported":1762679387,"current_range_meters":7200,"station_id":"ce4bhhh2rcd13ifvqfk0","pricing_plan_id":"cebpf4jnsgd1na2vs0mg"},{"bike_id":"b2d48150-55e3-4135-9625-37c0e5c6cbd0","system_id":"levelo_inurba_marseille","lat":43.29578,"lon":5.36731,"is_reserved":false,"is_disabled":false,"rental_uris":{"android":"levelo://app?vid=b2d48150-55e3-4135-9625-37c0e5c6cbd0","ios":"levelo://app?vid=b2d48150-55e3-4135-9625-37c0e5c6cbd0"},"vehicle_type_id":"4","last_reported":1762679387,"current_range_meters":7200,"station_id":"ce4bgph2rcd13ifvqc2g","pricing_plan_id":"cebpf4jnsgd1na2vs0mg"},{"bike_id":"95565d88-4e0c-4b5d-b6d1-9a4c73bcb1f1","system_id":"levelo_inurba_marseille","lat":43.33749,"lon":5.37403,"is_reserved":false,"is_disabled":false,"rental_uris":{"android":"levelo://app?vid=95565d88-4e0c-4b5d-b6d1-9a4c73bcb1f1","ios":"levelo://app?vid=95565d88-4e0c-4b5d-b6d1-9a4c73bcb1f1"},"vehicle_type_id":"4","last_reported":1762679387,"current_range_meters":7200,"station_id":"","pricing_plan_id":"cebpf4jnsgd1na2vs0mg"},{"bike_id":"76c4d482-e1df-4f99-9c79-8f5260ec540c","system_id":"levelo_inurba_marseille","lat":43.29965,"lon":5.38493,"is_reserved":false,"is_disabled":false,"rental_uris":{"android":"levelo://app?vid=76c4d482-e1df-4f99-9c79-8f5260ec540c","ios":"levelo://app?vid=76c4d482-e1df-4f99-9c79-8f5260ec540c"},"vehicle_type_id":"4","last_reported":1762679387,"current_range_meters":8000,"station_id":"ce4bgj92rcd13ifvqbd0","pricing_plan_id":"cebpf4jnsgd1na2vs0mg"},{"bike_id":"b98c59d1-12c0-4a03-b198-cf728a9bdad0","system_id":"levelo_inurba_marseille","lat":43.29322,"lon":5.37155,"is_reserved":false,"is_disabled":false,"rental_uris":{"android":"levelo://app?vid=b98c59d1-12c0-4a03-b198-cf728a9bdad0","ios":"levelo://app?vid=b98c59d1-12c0-4a03-b198-cf728a9bdad0"},"vehicle_type_id":"4","last_reported":1762679387,"current_range_meters":8000,"station_id":"","pricing_plan_id":"cebpf4jnsgd1na2vs0mg"},{"bike_id":"fecd52af-29bb-4bb2-9160-9e83d6376c53","system_id":"levelo_inurba_marseille","lat":43.28726,"lon":5.396,"is_reserved":false,"is_disabled":false,"rental_uris":{"android":"levelo://app?vid=fecd52af-29bb-4bb2-9160-9e83d6376c53","ios":"levelo://app?vid=fecd52af-29bb-4bb2-9160-9e83d6376c53"},"vehicle_type_id":"4","last_reported":1762679387,"current_range_meters":8000,"station_id":"","pricing_plan_id":"cebpf4jnsgd1na2vs0mg"},{"bike_id":"9f611ac1-6f6a-4437-9025-ea87f35606a4","system_id":"levelo_inurba_marseille","lat":43.28547,"lon":5.37784,"is_reserved":false,"is_disabled":false,"rental_uris":{"android":"levelo://app?vid=9f611ac1-6f6a-4437-9025-ea87f35606a4","ios":"levelo://app?vid=9f611ac1-6f6a-4437-9025-ea87f35606a4"},"vehicle_type_id":"4","last_reported":1762679387,"current_range_meters":8000,"station_id":"","pricing_plan_id":"cebpf4jnsgd1na2vs0mg"},{"bike_id":"cd36fb7c-4385-47bd-96a8-f8889a6e3476","system_id":"levelo_inurba_marseille","lat":43.298993,"lon":5.436519,"is_reserved":false,"is_disabled":false,"rental_uris":{"android":"levelo://app?vid=cd36fb7c-4385-47bd-96a8-f8889a6e3476","ios":"levelo://app?vid=cd36fb7c-4385-47bd-96a8-f8889a6e3476"},"vehicle_type_id":"4","last_reported":1762679387,"current_range_meters":8000,"station_id":"ce4bhpp2rcd13ifvqhfg","pricing_plan_id":"cebpf4jnsgd1na2vs0mg"},{"bike_id":"59736966-d2af-4cbc-8ac5-e955aeb2f190","system_id":"levelo_inurba_marseille","lat":43.28866,"lon":5.42512,"is_reserved":false,"is_disabled":false,"rental_uris":{"android":"levelo://app?vid=59736966-d2af-4cbc-8ac5-e955aeb2f190","ios":"levelo://app?vid=59736966-d2af-4cbc-8ac5-e955aeb2f190"},"vehicle_type_id":"4","last_reported":1762679387,"current_range_meters":8000,"station_id":"st_d3b462108ojc7389ooeg","pricing_plan_id":"cebpf4jnsgd1na2vs0mg"},{"bike_id":"dc58dc2a-4288-4904-a946-5351816ff20d","system_id":"levelo_inurba_marseille","lat":43.239521,"lon":5.366283,"is_reserved":false,"is_disabled":false,"rental_uris":{"android":"levelo://app?vid=dc58dc2a-4288-4904-a946-5351816ff20d","ios":"levelo://app?vid=dc58dc2a-4288-4904-a946-5351816ff20d"},"vehicle_type_id":"4","last_reported":1762679387,"current_range_meters":8000,"station_id":"ce4bhi12rcd13ifvqfp0","pricing_plan_id":"cebpf4jnsgd1na2vs0mg"},{"bike_id":"c0969de0-74b0-4b5a-9248-b43b0ee3e19e","system_id":"levelo_inurba_marseille","lat":43.24911,"lon":5.37657,"is_reserved":false,"is_disabled":false,"rental_uris":{"android":"levelo://app?vid=c0969de0-74b0-4b5a-9248-b43b0ee3e19e","ios":"levelo://app?vid=c0969de0-74b0-4b5a-9248-b43b0ee3e19e"},"vehicle_type_id":"4","last_reported":1762679387,"current_range_meters":8000,"station_id":"","pricing_plan_id":"cebpf4jnsgd1na2vs0mg"},{"bike_id":"90d845dd-09d8-4c1f-9fa2-5113db539a05","system_id":"levelo_inurba_marseille","lat":43.29316,"lon":5.37464,"is_reserved":false,"is_disabled":false,"rental_uris":{"android":"levelo://app?vid=90d845dd-09d8-4c1f-9fa2-5113db539a05","ios":"levelo://app?vid=90d845dd-09d8-4c1f-9fa2-5113db539a05"},"vehicle_type_id":"4","last_reported":1762679387,"current_range_meters":8000,"station_id":"ce4bgi12rcd13ifvqb70","pricing_plan_id":"cebpf4jnsgd1na2vs0mg"},{"bike_id":"3b294fa9-3f9f-4381-a2a8-e3592d375a68","system_id":"levelo_inurba_marseille","lat":43.26703,"lon":5.39683,"is_reserved":false,"is_disabled":false,"rental_uris":{"android":"levelo://app?vid=3b294fa9-3f9f-4381-a2a8-e3592d375a68","ios":"levelo://app?vid=3b294fa9-3f9f-4381-a2a8-e3592d375a68"},"vehicle_type_id":"4","last_reported":1762679387,"current_range_meters":8000,"station_id":"","pricing_plan_id":"cebpf4jnsgd1na2vs0mg"},{"bike_id":"69acbfae-0031-4cd5-8e22-3e901a52d5bc","system_id":"levelo_inurba_marseille","lat":43.24958,"lon":5.40504,"is_reserved":false,"is_disabled":false,"rental_uris":{"android":"levelo://app?vid=69acbfae-0031-4cd5-8e22-3e901a52d5bc","ios":"levelo://app?vid=69acbfae-0031-4cd5-8e22-3e901a52d5bc"},"vehicle_type_id":"4","last_reported":1762679387,"current_range_meters":8400,"station_id":"st_d2ngiaodas8pm72gd1h0","pricing_plan_id":"cebpf4jnsgd1na2vs0mg"},{"bike_id":"382f597e-181c-4839-b1de-04339df9aa55","system_id":"levelo_inurba_marseille","lat":43.26782,"lon":5.40281,"is_reserved":false,"is_disabled":true,"rental_uris":{"android":"levelo://app?vid=382f597e-181c-4839-b1de-04339df9aa55","ios":"levelo://app?vid=382f597e-181c-4839-b1de-04339df9aa55"},"vehicle_type_id":"4","last_reported":1762679387,"current_range_meters":8400,"station_id":"ce501612rcd8frsf0b60","pricing_plan_id":"cebpf4jnsgd1na2vs0mg"},{"bike_id":"d43dfd54-6f69-4bcb-9682-026c3281cae4","system_id":"levelo_inurba_marseille","lat":43.29256,"lon":5.38437,"is_reserved":false,"is_disabled":false,"rental_uris":{"android":"levelo://app?vid=d43dfd54-6f69-4bcb-9682-026c3281cae4","ios":"levelo://app?vid=d43dfd54-6f69-4bcb-9682-026c3281cae4"},"vehicle_type_id":"4","last_reported":1762679387,"current_range_meters":8400,"station_id":"ce4bh692rcd13ifvqea0","pricing_plan_id":"cebpf4jnsgd1na2vs0mg"},{"bike_id":"9606f59c-b785-468b-bf32-4f7152eb69f7","system_id":"levelo_inurba_marseille","lat":43.25333,"lon":5.42157,"is_reserved":false,"is_disabled":false,"rental_uris":{"android":"levelo://app?vid=9606f59c-b785-468b-bf32-4f7152eb69f7","ios":"levelo://app?vid=9606f59c-b785-468b-bf32-4f7152eb69f7"},"vehicle_type_id":"4","last_reported":1762679387,"current_range_meters":8400,"station_id":"st_d2m65c5bi1j21697t3ng","pricing_plan_id":"cebpf4jnsgd1na2vs0mg"},{"bike_id":"d510b29d-06c6-4a67-8cee-2182097a14e2","system_id":"levelo_inurba_marseille","lat":43.29278,"lon":5.37611,"is_reserved":false,"is_disabled":true,"rental_uris":{"android":"levelo://app?vid=d510b29d-06c6-4a67-8cee-2182097a14e2","ios":"levelo://app?vid=d510b29d-06c6-4a67-8cee-2182097a14e2"},"vehicle_type_id":"4","last_reported":1762679387,"current_range_meters":8400,"station_id":"ce4bgi12rcd13ifvqb80","pricing_plan_id":"cebpf4jnsgd1na2vs0mg"},{"bike_id":"321d43c2-a97c-419e-a110-a172b4ee23e9","system_id":"levelo_inurba_marseille","lat":43.26164,"lon":5.4177,"is_reserved":false,"is_disabled":false,"rental_uris":{"android":"levelo://app?vid=321d43c2-a97c-419e-a110-a172b4ee23e9","ios":"levelo://app?vid=321d43c2-a97c-419e-a110-a172b4ee23e9"},"vehicle_type_id":"4","last_reported":1762679387,"current_range_meters":8400,"station_id":"","pricing_plan_id":"cebpf4jnsgd1na2vs0mg"},{"bike_id":"a4b610ef-5dc5-47fb-9228-87e17fe490d3","system_id":"levelo_inurba_marseille","lat":43.270674,"lon":5.422769,"is_reserved":false,"is_disabled":true,"rental_uris":{"android":"levelo://app?vid=a4b610ef-5dc5-47fb-9228-87e17fe490d3","ios":"levelo://app?vid=a4b610ef-5dc5-47fb-9228-87e17fe490d3"},"vehicle_type_id":"4","last_reported":1762679387,"current_range_meters":8400,"station_id":"ce4bhk92rcd13ifvqgb0","pricing_plan_id":"cebpf4jnsgd1na2vs0mg"},{"bike_id":"b2042346-ee6d-4777-ba1d-c7f348d0e347","system_id":"levelo_inurba_marseille","lat":43.24394,"lon":5.37069,"is_reserved":false,"is_disabled":false,"rental_uris":{"android":"levelo://app?vid=b2042346-ee6d-4777-ba1d-c7f348d0e347","ios":"levelo://app?vid=b2042346-ee6d-4777-ba1d-c7f348d0e347"},"vehicle_type_id":"4","last_reported":1762679387,"current_range_meters":8400,"station_id":"ce4bhhh2rcd13ifvqfk0","pricing_plan_id":"cebpf4jnsgd1na2vs0mg"},{"bike_id":"0e481b69-920b-48e1-b4f6-7ad29c4b0bcb","system_id":"levelo_inurba_marseille","lat":43.246481,"lon":5.431366,"is_reserved":false,"is_disabled":false,"rental_uris":{"android":"levelo://app?vid=0e481b69-920b-48e1-b4f6-7ad29c4b0bcb","ios":"levelo://app?vid=0e481b69-920b-48e1-b4f6-7ad29c4b0bcb"},"vehicle_type_id":"4","last_reported":1762679387,"current_range_meters":8800,"station_id":"st_d2m6c4gdas8pm72e190g","pricing_plan_id":"cebpf4jnsgd1na2vs0mg"},{"bike_id":"cffbbe1a-a2d6-4568-a434-d135beee6c30","system_id":"levelo_inurba_marseille","lat":43.26566,"lon":5.39002,"is_reserved":false,"is_disabled":false,"rental_uris":{"android":"levelo://app?vid=cffbbe1a-a2d6-4568-a434-d135beee6c30","ios":"levelo://app?vid=cffbbe1a-a2d6-4568-a434-d135beee6c30"},"vehicle_type_id":"4","last_reported":1762679387,"current_range_meters":8800,"station_id":"ce4bhe12rcd13ifvqf30","pricing_plan_id":"cebpf4jnsgd1na2vs0mg"},{"bike_id":"5916b080-126b-493e-9d76-68ff8df78665","system_id":"levelo_inurba_marseille","lat":43.25124,"lon":5.4033,"is_reserved":false,"is_disabled":false,"rental_uris":{"android":"levelo://app?vid=5916b080-126b-493e-9d76-68ff8df78665","ios":"levelo://app?vid=5916b080-126b-493e-9d76-68ff8df78665"},"vehicle_type_id":"4","last_reported":1762679387,"current_range_meters":8800,"station_id":"ce4bhlh2rcd13ifvqgig","pricing_plan_id":"cebpf4jnsgd1na2vs0mg"},{"bike_id":"a9865bd5-be41-486d-b55c-2a75c0334784","system_id":"levelo_inurba_marseille","lat":43.28353,"lon":5.38097,"is_reserved":false,"is_disabled":false,"rental_uris":{"android":"levelo://app?vid=a9865bd5-be41-486d-b55c-2a75c0334784","ios":"levelo://app?vid=a9865bd5-be41-486d-b55c-2a75c0334784"},"vehicle_type_id":"4","last_reported":1762679387,"current_range_meters":8800,"station_id":"ce4bh412rcd13ifvqdr0","pricing_plan_id":"cebpf4jnsgd1na2vs0mg"},{"bike_id":"e14dda37-224b-49e5-897c-26f7a8c31c5e","system_id":"levelo_inurba_marseille","lat":43.31667,"lon":5.42709,"is_reserved":false,"is_disabled":false,"rental_uris":{"android":"levelo://app?vid=e14dda37-224b-49e5-897c-26f7a8c31c5e","ios":"levelo://app?vid=e14dda37-224b-49e5-897c-26f7a8c31c5e"},"vehicle_type_id":"4","last_reported":1762679387,"current_range_meters":8800,"station_id":"","pricing_plan_id":"cebpf4jnsgd1na2vs0mg"},{"bike_id":"d55a41ff-86ff-4350-b564-393826a61050","system_id":"levelo_inurba_marseille","lat":43.24947,"lon":5.40485,"is_reserved":false,"is_disabled":false,"rental_uris":{"android":"levelo://app?vid=d55a41ff-86ff-4350-b564-393826a61050","ios":"levelo://app?vid=d55a41ff-86ff-4350-b564-393826a61050"},"vehicle_type_id":"4","last_reported":1762679387,"current_range_meters":8800,"station_id":"st_d2ngiaodas8pm72gd1h0","pricing_plan_id":"cebpf4jnsgd1na2vs0mg"},{"bike_id":"acebb37f-10a9-4fea-ba6c-a317484bde56","system_id":"levelo_inurba_marseille","lat":43.29835,"lon":5.36476,"is_reserved":false,"is_disabled":false,"rental_uris":{"android":"levelo://app?vid=acebb37f-10a9-4fea-ba6c-a317484bde56","ios":"levelo://app?vid=acebb37f-10a9-4fea-ba6c-a317484bde56"},"vehicle_type_id":"4","last_reported":1762679387,"current_range_meters":8800,"station_id":"","pricing_plan_id":"cebpf4jnsgd1na2vs0mg"},{"bike_id":"1339ef90-7056-4f6c-97e9-32c4fa532151","system_id":"levelo_inurba_marseille","lat":43.24024,"lon":5.37749,"is_reserved":false,"is_disabled":false,"rental_uris":{"android":"levelo://app?vid=1339ef90-7056-4f6c-97e9-32c4fa532151","ios":"levelo://app?vid=1339ef90-7056-4f6c-97e9-32c4fa532151"},"vehicle_type_id":"4","last_reported":1762679387,"current_range_meters":8800,"station_id":"","pricing_plan_id":"cebpf4jnsgd1na2vs0mg"},{"bike_id":"4bce02cb-bdba-488a-a39f-eae80d4c7da8","system_id":"levelo_inurba_marseille","lat":43.28219,"lon":5.39041,"is_reserved":false,"is_disabled":true,"rental_uris":{"android":"levelo://app?vid=4bce02cb-bdba-488a-a39f-eae80d4c7da8","ios":"levelo://app?vid=4bce02cb-bdba-488a-a39f-eae80d4c7da8"},"vehicle_type_id":"4","last_reported":1762679387,"current_range_meters":8800,"station_id":"ce4bhn92rcd13ifvqgsg","pricing_plan_id":"cebpf4jnsgd1na2vs0mg"},{"bike_id":"c9a952da-dd0a-4da2-aadd-286f83de39b3","system_id":"levelo_inurba_marseille","lat":43.23178,"lon":5.39988,"is_reserved":false,"is_disabled":false,"rental_uris":{"android":"levelo://app?vid=c9a952da-dd0a-4da2-aadd-286f83de39b3","ios":"levelo://app?vid=c9a952da-dd0a-4da2-aadd-286f83de39b3"},"vehicle_type_id":"4","last_reported":1762679387,"current_range_meters":9200,"station_id":"ce4bhn12rcd13ifvqgqg","pricing_plan_id":"cebpf4jnsgd1na2vs0mg"},{"bike_id":"60c530a0-69e7-4ff7-af8a-3ef4e145092d","system_id":"levelo_inurba_marseille","lat":43.217412,"lon":5.346061,"is_reserved":false,"is_disabled":false,"rental_uris":{"android":"levelo://app?vid=60c530a0-69e7-4ff7-af8a-3ef4e145092d","ios":"levelo://app?vid=60c530a0-69e7-4ff7-af8a-3ef4e145092d"},"vehicle_type_id":"4","last_reported":1762679387,"current_range_meters":9200,"station_id":"","pricing_plan_id":"cebpf4jnsgd1na2vs0mg"},{"bike_id":"9740c8e5-19a7-40b9-b20a-4e0dd3ed4204","system_id":"levelo_inurba_marseille","lat":43.29576,"lon":5.39988,"is_reserved":false,"is_disabled":false,"rental_uris":{"android":"levelo://app?vid=9740c8e5-19a7-40b9-b20a-4e0dd3ed4204","ios":"levelo://app?vid=9740c8e5-19a7-40b9-b20a-4e0dd3ed4204"},"vehicle_type_id":"4","last_reported":1762679387,"current_range_meters":9200,"station_id":"ce4bh312rcd13ifvqdj0","pricing_plan_id":"cebpf4jnsgd1na2vs0mg"},{"bike_id":"870a9ad1-db35-4ab0-bc9a-84476efc6571","system_id":"levelo_inurba_marseille","lat":43.32787,"lon":5.42655,"is_reserved":false,"is_disabled":false,"rental_uris":{"android":"levelo://app?vid=870a9ad1-db35-4ab0-bc9a-84476efc6571","ios":"levelo://app?vid=870a9ad1-db35-4ab0-bc9a-84476efc6571"},"vehicle_type_id":"4","last_reported":1762679387,"current_range_meters":9200,"station_id":"","pricing_plan_id":"cebpf4jnsgd1na2vs0mg"},{"bike_id":"d2991a60-dcfa-4252-8f9d-bfff4b1dc433","system_id":"levelo_inurba_marseille","lat":43.31072,"lon":5.37071,"is_reserved":false,"is_disabled":false,"rental_uris":{"android":"levelo://app?vid=d2991a60-dcfa-4252-8f9d-bfff4b1dc433","ios":"levelo://app?vid=d2991a60-dcfa-4252-8f9d-bfff4b1dc433"},"vehicle_type_id":"4","last_reported":1762679387,"current_range_meters":9200,"station_id":"","pricing_plan_id":"cebpf4jnsgd1na2vs0mg"},{"bike_id":"dfde87bb-1a24-4866-bcda-6d9da60c1cf9","system_id":"levelo_inurba_marseille","lat":43.28595,"lon":5.39372,"is_reserved":false,"is_disabled":false,"rental_uris":{"android":"levelo://app?vid=dfde87bb-1a24-4866-bcda-6d9da60c1cf9","ios":"levelo://app?vid=dfde87bb-1a24-4866-bcda-6d9da60c1cf9"},"vehicle_type_id":"4","last_reported":1762679387,"current_range_meters":9200,"station_id":"","pricing_plan_id":"cebpf4jnsgd1na2vs0mg"},{"bike_id":"ea369eb4-f14e-431e-9345-0f9312e0cd00","system_id":"levelo_inurba_marseille","lat":43.23789,"lon":5.36626,"is_reserved":false,"is_disabled":false,"rental_uris":{"android":"levelo://app?vid=ea369eb4-f14e-431e-9345-0f9312e0cd00","ios":"levelo://app?vid=ea369eb4-f14e-431e-9345-0f9312e0cd00"},"vehicle_type_id":"4","last_reported":1762679387,"current_range_meters":9600,"station_id":"st_d3nk18o9ro0c73en2l3g","pricing_plan_id":"cebpf4jnsgd1na2vs0mg"},{"bike_id":"1c96cc64-0234-4ae0-b5ee-3c65f4e1762a","system_id":"levelo_inurba_marseille","lat":43.24549,"lon":5.39529,"is_reserved":false,"is_disabled":false,"rental_uris":{"android":"levelo://app?vid=1c96cc64-0234-4ae0-b5ee-3c65f4e1762a","ios":"levelo://app?vid=1c96cc64-0234-4ae0-b5ee-3c65f4e1762a"},"vehicle_type_id":"4","last_reported":1762679387,"current_range_meters":9600,"station_id":"ce4bhlp2rcd13ifvqgjg","pricing_plan_id":"cebpf4jnsgd1na2vs0mg"},{"bike_id":"54fa92af-5541-4137-afea-d36fade5cb4b","system_id":"levelo_inurba_marseille","lat":43.24652,"lon":5.43105,"is_reserved":false,"is_disabled":false,"rental_uris":{"android":"levelo://app?vid=54fa92af-5541-4137-afea-d36fade5cb4b","ios":"levelo://app?vid=54fa92af-5541-4137-afea-d36fade5cb4b"},"vehicle_type_id":"4","last_reported":1762679387,"current_range_meters":9600,"station_id":"st_d2m6c4gdas8pm72e190g","pricing_plan_id":"cebpf4jnsgd1na2vs0mg"},{"bike_id":"fdfdde80-7f98-4492-a263-3964ecfbbb45","system_id":"levelo_inurba_marseille","lat":43.28279,"lon":5.35067,"is_reserved":false,"is_disabled":true,"rental_uris":{"android":"levelo://app?vid=fdfdde80-7f98-4492-a263-3964ecfbbb45","ios":"levelo://app?vid=fdfdde80-7f98-4492-a263-3964ecfbbb45"},"vehicle_type_id":"4","last_reported":1762679387,"current_range_meters":9600,"station_id":"ce4bhbp2rcd13ifvqerg","pricing_plan_id":"cebpf4jnsgd1na2vs0mg"},{"bike_id":"968e9c29-84ee-4827-bcab-ac08bc4ab6d5","system_id":"levelo_inurba_marseille","lat":43.29286,"lon":5.36843,"is_reserved":false,"is_disabled":true,"rental_uris":{"android":"levelo://app?vid=968e9c29-84ee-4827-bcab-ac08bc4ab6d5","ios":"levelo://app?vid=968e9c29-84ee-4827-bcab-ac08bc4ab6d5"},"vehicle_type_id":"4","last_reported":1762679387,"current_range_meters":9600,"station_id":"ce4bhbp2rcd13ifvqesg","pricing_plan_id":"cebpf4jnsgd1na2vs0mg"},{"bike_id":"034b45fe-fc8a-40e2-930b-00715a4950c7","system_id":"levelo_inurba_marseille","lat":43.22528,"lon":5.34829,"is_reserved":false,"is_disabled":false,"rental_uris":{"android":"levelo://app?vid=034b45fe-fc8a-40e2-930b-00715a4950c7","ios":"levelo://app?vid=034b45fe-fc8a-40e2-930b-00715a4950c7"},"vehicle_type_id":"4","last_reported":1762679387,"current_range_meters":10000,"station_id":"","pricing_plan_id":"cebpf4jnsgd1na2vs0mg"},{"bike_id":"825a1957-d327-49da-97b3-2485c79c40e7","system_id":"levelo_inurba_marseille","lat":43.21752,"lon":5.34594,"is_reserved":false,"is_disabled":true,"rental_uris":{"android":"levelo://app?vid=825a1957-d327-49da-97b3-2485c79c40e7","ios":"levelo://app?vid=825a1957-d327-49da-97b3-2485c79c40e7"},"vehicle_type_id":"4","last_reported":1762679387,"current_range_meters":10000,"station_id":"","pricing_plan_id":"cebpf4jnsgd1na2vs0mg"},{"bike_id":"1f95699b-5498-4194-a0e4-6863698420ac","system_id":"levelo_inurba_marseille","lat":43.27925,"lon":5.39585,"is_reserved":false,"is_disabled":false,"rental_uris":{"android":"levelo://app?vid=1f95699b-5498-4194-a0e4-6863698420ac","ios":"levelo://app?vid=1f95699b-5498-4194-a0e4-6863698420ac"},"vehicle_type_id":"4","last_reported":1762679387,"current_range_meters":10000,"station_id":"ce4bhf92rcd13ifvqf40","pricing_plan_id":"cebpf4jnsgd1na2vs0mg"},{"bike_id":"6e516340-9641-4325-9cd8-46780776c1ed","system_id":"levelo_inurba_marseille","lat":43.30525,"lon":5.36709,"is_reserved":false,"is_disabled":true,"rental_uris":{"android":"levelo://app?vid=6e516340-9641-4325-9cd8-46780776c1ed","ios":"levelo://app?vid=6e516340-9641-4325-9cd8-46780776c1ed"},"vehicle_type_id":"4","last_reported":1762679387,"current_range_meters":10000,"station_id":"ce4bgrp2rcd13ifvqc9g","pricing_plan_id":"cebpf4jnsgd1na2vs0mg"},{"bike_id":"d97cf44f-2c0c-496c-90a1-3d83b075dae7","system_id":"levelo_inurba_marseille","lat":43.26209,"lon":5.37441,"is_reserved":false,"is_disabled":false,"rental_uris":{"android":"levelo://app?vid=d97cf44f-2c0c-496c-90a1-3d83b075dae7","ios":"levelo://app?vid=d97cf44f-2c0c-496c-90a1-3d83b075dae7"},"vehicle_type_id":"4","last_reported":1762679387,"current_range_meters":10000,"station_id":"ce4bhgp2rcd13ifvqfc0","pricing_plan_id":"cebpf4jnsgd1na2vs0mg"},{"bike_id":"94be1cfc-3d42-4578-9c35-3f09e63c73eb","system_id":"levelo_inurba_marseille","lat":43.27555,"lon":5.38436,"is_reserved":false,"is_disabled":false,"rental_uris":{"android":"levelo://app?vid=94be1cfc-3d42-4578-9c35-3f09e63c73eb","ios":"levelo://app?vid=94be1cfc-3d42-4578-9c35-3f09e63c73eb"},"vehicle_type_id":"4","last_reported":1762679387,"current_range_meters":10000,"station_id":"ce4bhh92rcd13ifvqfi0","pricing_plan_id":"cebpf4jnsgd1na2vs0mg"},{"bike_id":"21dcb4e2-bef4-415f-aa59-cd0b9e2cb07b","system_id":"levelo_inurba_marseille","lat":43.2283,"lon":5.43485,"is_reserved":false,"is_disabled":false,"rental_uris":{"android":"levelo://app?vid=21dcb4e2-bef4-415f-aa59-cd0b9e2cb07b","ios":"levelo://app?vid=21dcb4e2-bef4-415f-aa59-cd0b9e2cb07b"},"vehicle_type_id":"4","last_reported":1762679387,"current_range_meters":10000,"station_id":"","pricing_plan_id":"cebpf4jnsgd1na2vs0mg"},{"bike_id":"6fb9aaeb-fd54-4120-8c7f-cb19a69f6629","system_id":"levelo_inurba_marseille","lat":43.235747,"lon":5.374769,"is_reserved":false,"is_disabled":false,"rental_uris":{"android":"levelo://app?vid=6fb9aaeb-fd54-4120-8c7f-cb19a69f6629","ios":"levelo://app?vid=6fb9aaeb-fd54-4120-8c7f-cb19a69f6629"},"vehicle_type_id":"4","last_reported":1762679387,"current_range_meters":10800,"station_id":"","pricing_plan_id":"cebpf4jnsgd1na2vs0mg"},{"bike_id":"00a9969d-61b2-4fdd-bff1-9604d9c17fcc","system_id":"levelo_inurba_marseille","lat":43.28679,"lon":5.36357,"is_reserved":false,"is_disabled":false,"rental_uris":{"android":"levelo://app?vid=00a9969d-61b2-4fdd-bff1-9604d9c17fcc","ios":"levelo://app?vid=00a9969d-61b2-4fdd-bff1-9604d9c17fcc"},"vehicle_type_id":"4","last_reported":1762679387,"current_range_meters":10800,"station_id":"ce4bhah2rcd13ifvqej0","pricing_plan_id":"cebpf4jnsgd1na2vs0mg"},{"bike_id":"c73c5513-728d-4700-9395-e31e4399cd51","system_id":"levelo_inurba_marseille","lat":43.29209,"lon":5.40285,"is_reserved":false,"is_disabled":false,"rental_uris":{"android":"levelo://app?vid=c73c5513-728d-4700-9395-e31e4399cd51","ios":"levelo://app?vid=c73c5513-728d-4700-9395-e31e4399cd51"},"vehicle_type_id":"4","last_reported":1762679387,"current_range_meters":10800,"station_id":"","pricing_plan_id":"cebpf4jnsgd1na2vs0mg"},{"bike_id":"755cc534-8502-443b-99ad-796f64a01270","system_id":"levelo_inurba_marseille","lat":43.24172,"lon":5.39724,"is_reserved":false,"is_disabled":false,"rental_uris":{"android":"levelo://app?vid=755cc534-8502-443b-99ad-796f64a01270","ios":"levelo://app?vid=755cc534-8502-443b-99ad-796f64a01270"},"vehicle_type_id":"4","last_reported":1762679387,"current_range_meters":10800,"station_id":"ce4bhn12rcd13ifvqgpg","pricing_plan_id":"cebpf4jnsgd1na2vs0mg"},{"bike_id":"5c91f7a5-bf4a-47b4-82be-e1c1e11e7df2","system_id":"levelo_inurba_marseille","lat":43.294885,"lon":5.433119,"is_reserved":false,"is_disabled":false,"rental_uris":{"android":"levelo://app?vid=5c91f7a5-bf4a-47b4-82be-e1c1e11e7df2","ios":"levelo://app?vid=5c91f7a5-bf4a-47b4-82be-e1c1e11e7df2"},"vehicle_type_id":"4","last_reported":1762679387,"current_range_meters":10800,"station_id":"st_d3j5ugp08ojc73fj9d10","pricing_plan_id":"cebpf4jnsgd1na2vs0mg"},{"bike_id":"462fd3fb-de6a-4a66-9e94-cfd2b0d801c6","system_id":"levelo_inurba_marseille","lat":43.30314,"lon":5.37671,"is_reserved":false,"is_disabled":false,"rental_uris":{"android":"levelo://app?vid=462fd3fb-de6a-4a66-9e94-cfd2b0d801c6","ios":"levelo://app?vid=462fd3fb-de6a-4a66-9e94-cfd2b0d801c6"},"vehicle_type_id":"4","last_reported":1762679387,"current_range_meters":10800,"station_id":"","pricing_plan_id":"cebpf4jnsgd1na2vs0mg"},{"bike_id":"8e140702-853d-4aa7-abe8-645805aa250e","system_id":"levelo_inurba_marseille","lat":43.26562,"lon":5.40319,"is_reserved":false,"is_disabled":false,"rental_uris":{"android":"levelo://app?vid=8e140702-853d-4aa7-abe8-645805aa250e","ios":"levelo://app?vid=8e140702-853d-4aa7-abe8-645805aa250e"},"vehicle_type_id":"4","last_reported":1762679387,"current_range_meters":11200,"station_id":"ce4bhmp2rcd13ifvqgng","pricing_plan_id":"cebpf4jnsgd1na2vs0mg"},{"bike_id":"1a85bd73-f6c9-483d-ac28-5d95b6775d78","system_id":"levelo_inurba_marseille","lat":43.28709,"lon":5.37929,"is_reserved":false,"is_disabled":true,"rental_uris":{"android":"levelo://app?vid=1a85bd73-f6c9-483d-ac28-5d95b6775d78","ios":"levelo://app?vid=1a85bd73-f6c9-483d-ac28-5d95b6775d78"},"vehicle_type_id":"4","last_reported":1762679387,"current_range_meters":11200,"station_id":"ce4bh9p2rcd13ifvqec0","pricing_plan_id":"cebpf4jnsgd1na2vs0mg"},{"bike_id":"15db09df-59b0-446a-87c5-e354a3319258","system_id":"levelo_inurba_marseille","lat":43.28486,"lon":5.48384,"is_reserved":false,"is_disabled":false,"rental_uris":{"android":"levelo://app?vid=15db09df-59b0-446a-87c5-e354a3319258","ios":"levelo://app?vid=15db09df-59b0-446a-87c5-e354a3319258"},"vehicle_type_id":"4","last_reported":1762679387,"current_range_meters":11200,"station_id":"","pricing_plan_id":"cebpf4jnsgd1na2vs0mg"},{"bike_id":"6c3a40b5-fcef-426e-8a9c-85e786754dc6","system_id":"levelo_inurba_marseille","lat":43.30262,"lon":5.40102,"is_reserved":false,"is_disabled":false,"rental_uris":{"android":"levelo://app?vid=6c3a40b5-fcef-426e-8a9c-85e786754dc6","ios":"levelo://app?vid=6c3a40b5-fcef-426e-8a9c-85e786754dc6"},"vehicle_type_id":"4","last_reported":1762679387,"current_range_meters":11200,"station_id":"ce4bgvh2rcd13ifvqcs0","pricing_plan_id":"cebpf4jnsgd1na2vs0mg"},{"bike_id":"0438f67e-f1fb-4064-8a55-a78fd643a326","system_id":"levelo_inurba_marseille","lat":43.23586,"lon":5.37481,"is_reserved":false,"is_disabled":false,"rental_uris":{"android":"levelo://app?vid=0438f67e-f1fb-4064-8a55-a78fd643a326","ios":"levelo://app?vid=0438f67e-f1fb-4064-8a55-a78fd643a326"},"vehicle_type_id":"4","last_reported":1762679387,"current_range_meters":11200,"station_id":"","pricing_plan_id":"cebpf4jnsgd1na2vs0mg"},{"bike_id":"84138f31-9213-45c3-a4c2-e6e9fdfb5ae1","system_id":"levelo_inurba_marseille","lat":43.292311,"lon":5.364797,"is_reserved":false,"is_disabled":false,"rental_uris":{"android":"levelo://app?vid=84138f31-9213-45c3-a4c2-e6e9fdfb5ae1","ios":"levelo://app?vid=84138f31-9213-45c3-a4c2-e6e9fdfb5ae1"},"vehicle_type_id":"4","last_reported":1762679387,"current_range_meters":11600,"station_id":"","pricing_plan_id":"cebpf4jnsgd1na2vs0mg"},{"bike_id":"96b2482f-648d-43a4-be62-da9678bd96ec","system_id":"levelo_inurba_marseille","lat":43.30907,"lon":5.37174,"is_reserved":false,"is_disabled":false,"rental_uris":{"android":"levelo://app?vid=96b2482f-648d-43a4-be62-da9678bd96ec","ios":"levelo://app?vid=96b2482f-648d-43a4-be62-da9678bd96ec"},"vehicle_type_id":"4","last_reported":1762679387,"current_range_meters":11600,"station_id":"ce4bguh2rcd13ifvqckg","pricing_plan_id":"cebpf4jnsgd1na2vs0mg"},{"bike_id":"b6e4535c-5cae-4935-a3fb-2bbd0399a4f7","system_id":"levelo_inurba_marseille","lat":43.21198,"lon":5.35059,"is_reserved":false,"is_disabled":false,"rental_uris":{"android":"levelo://app?vid=b6e4535c-5cae-4935-a3fb-2bbd0399a4f7","ios":"levelo://app?vid=b6e4535c-5cae-4935-a3fb-2bbd0399a4f7"},"vehicle_type_id":"4","last_reported":1762679387,"current_range_meters":11600,"station_id":"st_cvj6sg6p6f1abm77japg","pricing_plan_id":"cebpf4jnsgd1na2vs0mg"},{"bike_id":"3e2b6028-a539-4e64-9081-578276ce4315","system_id":"levelo_inurba_marseille","lat":43.24574,"lon":5.42112,"is_reserved":false,"is_disabled":false,"rental_uris":{"android":"levelo://app?vid=3e2b6028-a539-4e64-9081-578276ce4315","ios":"levelo://app?vid=3e2b6028-a539-4e64-9081-578276ce4315"},"vehicle_type_id":"4","last_reported":1762679387,"current_range_meters":12000,"station_id":"","pricing_plan_id":"cebpf4jnsgd1na2vs0mg"},{"bike_id":"5320d673-8f17-42b0-b637-4e20de7189dd","system_id":"levelo_inurba_marseille","lat":43.299426,"lon":5.365393,"is_reserved":false,"is_disabled":true,"rental_uris":{"android":"levelo://app?vid=5320d673-8f17-42b0-b637-4e20de7189dd","ios":"levelo://app?vid=5320d673-8f17-42b0-b637-4e20de7189dd"},"vehicle_type_id":"4","last_reported":1762679387,"current_range_meters":12000,"station_id":"ce4bgm92rcd13ifvqbr0","pricing_plan_id":"cebpf4jnsgd1na2vs0mg"},{"bike_id":"10a7e279-c629-4639-aa63-9915e8f58ed9","system_id":"levelo_inurba_marseille","lat":43.23965,"lon":5.36628,"is_reserved":false,"is_disabled":false,"rental_uris":{"android":"levelo://app?vid=10a7e279-c629-4639-aa63-9915e8f58ed9","ios":"levelo://app?vid=10a7e279-c629-4639-aa63-9915e8f58ed9"},"vehicle_type_id":"4","last_reported":1762679387,"current_range_meters":12000,"station_id":"ce4bhi12rcd13ifvqfp0","pricing_plan_id":"cebpf4jnsgd1na2vs0mg"},{"bike_id":"e374f4d6-676c-4d62-af2d-1f0734c48172","system_id":"levelo_inurba_marseille","lat":43.294939,"lon":5.433132,"is_reserved":false,"is_disabled":false,"rental_uris":{"android":"levelo://app?vid=e374f4d6-676c-4d62-af2d-1f0734c48172","ios":"levelo://app?vid=e374f4d6-676c-4d62-af2d-1f0734c48172"},"vehicle_type_id":"4","last_reported":1762679387,"current_range_meters":12000,"station_id":"st_d3j5ugp08ojc73fj9d10","pricing_plan_id":"cebpf4jnsgd1na2vs0mg"},{"bike_id":"6ca580b9-ae87-4e9b-a62c-4e0f6a07370c","system_id":"levelo_inurba_marseille","lat":43.21181,"lon":5.3507,"is_reserved":false,"is_disabled":false,"rental_uris":{"android":"levelo://app?vid=6ca580b9-ae87-4e9b-a62c-4e0f6a07370c","ios":"levelo://app?vid=6ca580b9-ae87-4e9b-a62c-4e0f6a07370c"},"vehicle_type_id":"4","last_reported":1762679387,"current_range_meters":12000,"station_id":"st_cvj6sg6p6f1abm77japg","pricing_plan_id":"cebpf4jnsgd1na2vs0mg"},{"bike_id":"c6d5d8d4-4173-4646-a45b-e93034e39692","system_id":"levelo_inurba_marseille","lat":43.231425,"lon":5.437201,"is_reserved":false,"is_disabled":false,"rental_uris":{"android":"levelo://app?vid=c6d5d8d4-4173-4646-a45b-e93034e39692","ios":"levelo://app?vid=c6d5d8d4-4173-4646-a45b-e93034e39692"},"vehicle_type_id":"4","last_reported":1762679387,"current_range_meters":12000,"station_id":"ce4bhmp2rcd13ifvqgog","pricing_plan_id":"cebpf4jnsgd1na2vs0mg"},{"bike_id":"5a5328e0-d49a-47f5-b845-fc6cc4d47ca6","system_id":"levelo_inurba_marseille","lat":43.28423,"lon":5.34999,"is_reserved":false,"is_disabled":false,"rental_uris":{"android":"levelo://app?vid=5a5328e0-d49a-47f5-b845-fc6cc4d47ca6","ios":"levelo://app?vid=5a5328e0-d49a-47f5-b845-fc6cc4d47ca6"},"vehicle_type_id":"4","last_reported":1762679387,"current_range_meters":12000,"station_id":"ce4bhbh2rcd13ifvqepg","pricing_plan_id":"cebpf4jnsgd1na2vs0mg"},{"bike_id":"da9201ef-5e04-4b91-9b16-bb1b65b92aff","system_id":"levelo_inurba_marseille","lat":43.29859,"lon":5.36287,"is_reserved":false,"is_disabled":false,"rental_uris":{"android":"levelo://app?vid=da9201ef-5e04-4b91-9b16-bb1b65b92aff","ios":"levelo://app?vid=da9201ef-5e04-4b91-9b16-bb1b65b92aff"},"vehicle_type_id":"4","last_reported":1762679387,"current_range_meters":12000,"station_id":"ce4bgpp2rcd13ifvqc3g","pricing_plan_id":"cebpf4jnsgd1na2vs0mg"},{"bike_id":"ce8c961a-85c8-44ab-ae83-7f378b5ad238","system_id":"levelo_inurba_marseille","lat":43.281467,"lon":5.426365,"is_reserved":false,"is_disabled":false,"rental_uris":{"android":"levelo://app?vid=ce8c961a-85c8-44ab-ae83-7f378b5ad238","ios":"levelo://app?vid=ce8c961a-85c8-44ab-ae83-7f378b5ad238"},"vehicle_type_id":"4","last_reported":1762679387,"current_range_meters":12000,"station_id":"ce4bhnh2rcd13ifvqgug","pricing_plan_id":"cebpf4jnsgd1na2vs0mg"},{"bike_id":"4d3645a5-3961-4699-94c9-178d2badf3d4","system_id":"levelo_inurba_marseille","lat":43.29844,"lon":5.36272,"is_reserved":false,"is_disabled":false,"rental_uris":{"android":"levelo://app?vid=4d3645a5-3961-4699-94c9-178d2badf3d4","ios":"levelo://app?vid=4d3645a5-3961-4699-94c9-178d2badf3d4"},"vehicle_type_id":"4","last_reported":1762679387,"current_range_meters":12000,"station_id":"ce4bgpp2rcd13ifvqc3g","pricing_plan_id":"cebpf4jnsgd1na2vs0mg"},{"bike_id":"64afb97e-7246-4474-83af-cffeee346617","system_id":"levelo_inurba_marseille","lat":43.29197,"lon":5.35807,"is_reserved":false,"is_disabled":false,"rental_uris":{"android":"levelo://app?vid=64afb97e-7246-4474-83af-cffeee346617","ios":"levelo://app?vid=64afb97e-7246-4474-83af-cffeee346617"},"vehicle_type_id":"4","last_reported":1762679387,"current_range_meters":12000,"station_id":"ce4bhb12rcd13ifvqel0","pricing_plan_id":"cebpf4jnsgd1na2vs0mg"},{"bike_id":"50f530d8-a703-4d21-9bca-1083f2e62edb","system_id":"levelo_inurba_marseille","lat":43.25327,"lon":5.42159,"is_reserved":false,"is_disabled":false,"rental_uris":{"android":"levelo://app?vid=50f530d8-a703-4d21-9bca-1083f2e62edb","ios":"levelo://app?vid=50f530d8-a703-4d21-9bca-1083f2e62edb"},"vehicle_type_id":"4","last_reported":1762679387,"current_range_meters":12400,"station_id":"st_d2m65c5bi1j21697t3ng","pricing_plan_id":"cebpf4jnsgd1na2vs0mg"},{"bike_id":"4132147f-7431-4834-888a-022eef83d616","system_id":"levelo_inurba_marseille","lat":43.27413,"lon":5.39397,"is_reserved":false,"is_disabled":false,"rental_uris":{"android":"levelo://app?vid=4132147f-7431-4834-888a-022eef83d616","ios":"levelo://app?vid=4132147f-7431-4834-888a-022eef83d616"},"vehicle_type_id":"4","last_reported":1762679387,"current_range_meters":12400,"station_id":"ce4bhdp2rcd13ifvqf20","pricing_plan_id":"cebpf4jnsgd1na2vs0mg"},{"bike_id":"06b572d6-d95a-4f1a-9a9a-b316897ad6d5","system_id":"levelo_inurba_marseille","lat":43.29545,"lon":5.3752,"is_reserved":false,"is_disabled":false,"rental_uris":{"android":"levelo://app?vid=06b572d6-d95a-4f1a-9a9a-b316897ad6d5","ios":"levelo://app?vid=06b572d6-d95a-4f1a-9a9a-b316897ad6d5"},"vehicle_type_id":"4","last_reported":1762679387,"current_range_meters":12400,"station_id":"ce4bgkp2rcd13ifvqbmg","pricing_plan_id":"cebpf4jnsgd1na2vs0mg"},{"bike_id":"b343e7d4-d786-4665-9636-a7f91c01ef9b","system_id":"levelo_inurba_marseille","lat":43.253268,"lon":5.421713,"is_reserved":false,"is_disabled":false,"rental_uris":{"android":"levelo://app?vid=b343e7d4-d786-4665-9636-a7f91c01ef9b","ios":"levelo://app?vid=b343e7d4-d786-4665-9636-a7f91c01ef9b"},"vehicle_type_id":"4","last_reported":1762679387,"current_range_meters":12400,"station_id":"st_d2m65c5bi1j21697t3ng","pricing_plan_id":"cebpf4jnsgd1na2vs0mg"},{"bike_id":"2b1e0c4b-c73b-415a-b52c-8778d2bdbadb","system_id":"levelo_inurba_marseille","lat":43.3004,"lon":5.38141,"is_reserved":false,"is_disabled":false,"rental_uris":{"android":"levelo://app?vid=2b1e0c4b-c73b-415a-b52c-8778d2bdbadb","ios":"levelo://app?vid=2b1e0c4b-c73b-415a-b52c-8778d2bdbadb"},"vehicle_type_id":"4","last_reported":1762679387,"current_range_meters":12400,"station_id":"","pricing_plan_id":"cebpf4jnsgd1na2vs0mg"},{"bike_id":"ac1012d0-7872-4c6e-85e6-fc8eaff39396","system_id":"levelo_inurba_marseille","lat":43.28471,"lon":5.35887,"is_reserved":false,"is_disabled":true,"rental_uris":{"android":"levelo://app?vid=ac1012d0-7872-4c6e-85e6-fc8eaff39396","ios":"levelo://app?vid=ac1012d0-7872-4c6e-85e6-fc8eaff39396"},"vehicle_type_id":"4","last_reported":1762679387,"current_range_meters":12400,"station_id":"ce4bhah2rcd13ifvqei0","pricing_plan_id":"cebpf4jnsgd1na2vs0mg"},{"bike_id":"74573cb4-9773-4fb0-b048-61ac3a6954a7","system_id":"levelo_inurba_marseille","lat":43.284119,"lon":5.375348,"is_reserved":false,"is_disabled":false,"rental_uris":{"android":"levelo://app?vid=74573cb4-9773-4fb0-b048-61ac3a6954a7","ios":"levelo://app?vid=74573cb4-9773-4fb0-b048-61ac3a6954a7"},"vehicle_type_id":"4","last_reported":1762679387,"current_range_meters":12800,"station_id":"ce4bh412rcd13ifvqds0","pricing_plan_id":"cebpf4jnsgd1na2vs0mg"},{"bike_id":"260e08db-ebe0-43dc-841f-0b6cfdac9a2f","system_id":"levelo_inurba_marseille","lat":43.25113,"lon":5.40331,"is_reserved":false,"is_disabled":false,"rental_uris":{"android":"levelo://app?vid=260e08db-ebe0-43dc-841f-0b6cfdac9a2f","ios":"levelo://app?vid=260e08db-ebe0-43dc-841f-0b6cfdac9a2f"},"vehicle_type_id":"4","last_reported":1762679387,"current_range_meters":12800,"station_id":"ce4bhlh2rcd13ifvqgig","pricing_plan_id":"cebpf4jnsgd1na2vs0mg"},{"bike_id":"bcb7664a-39c2-46f8-930f-41cebd3d0b86","system_id":"levelo_inurba_marseille","lat":43.211835,"lon":5.350841,"is_reserved":false,"is_disabled":true,"rental_uris":{"android":"levelo://app?vid=bcb7664a-39c2-46f8-930f-41cebd3d0b86","ios":"levelo://app?vid=bcb7664a-39c2-46f8-930f-41cebd3d0b86"},"vehicle_type_id":"4","last_reported":1762679387,"current_range_meters":12800,"station_id":"st_cvj6sg6p6f1abm77japg","pricing_plan_id":"cebpf4jnsgd1na2vs0mg"},{"bike_id":"7251439b-7fee-4423-83ad-8a0dbd1ea6cd","system_id":"levelo_inurba_marseille","lat":43.24103,"lon":5.37728,"is_reserved":false,"is_disabled":false,"rental_uris":{"android":"levelo://app?vid=7251439b-7fee-4423-83ad-8a0dbd1ea6cd","ios":"levelo://app?vid=7251439b-7fee-4423-83ad-8a0dbd1ea6cd"},"vehicle_type_id":"4","last_reported":1762679387,"current_range_meters":12800,"station_id":"ce4bhnp2rcd13ifvqgvg","pricing_plan_id":"cebpf4jnsgd1na2vs0mg"},{"bike_id":"90e75491-f300-4cd4-95d9-4fcce675996b","system_id":"levelo_inurba_marseille","lat":43.28402,"lon":5.37525,"is_reserved":false,"is_disabled":true,"rental_uris":{"android":"levelo://app?vid=90e75491-f300-4cd4-95d9-4fcce675996b","ios":"levelo://app?vid=90e75491-f300-4cd4-95d9-4fcce675996b"},"vehicle_type_id":"4","last_reported":1762679387,"current_range_meters":13600,"station_id":"ce4bh412rcd13ifvqds0","pricing_plan_id":"cebpf4jnsgd1na2vs0mg"},{"bike_id":"317822ad-eebe-4d49-be47-de3738a7f974","system_id":"levelo_inurba_marseille","lat":43.33162,"lon":5.3769,"is_reserved":false,"is_disabled":false,"rental_uris":{"android":"levelo://app?vid=317822ad-eebe-4d49-be47-de3738a7f974","ios":"levelo://app?vid=317822ad-eebe-4d49-be47-de3738a7f974"},"vehicle_type_id":"4","last_reported":1762679387,"current_range_meters":13600,"station_id":"st_d46cu089ee8s73dldbu0","pricing_plan_id":"cebpf4jnsgd1na2vs0mg"},{"bike_id":"8104c69d-4db3-489d-9298-81ea4e398d16","system_id":"levelo_inurba_marseille","lat":43.27928,"lon":5.41042,"is_reserved":false,"is_disabled":false,"rental_uris":{"android":"levelo://app?vid=8104c69d-4db3-489d-9298-81ea4e398d16","ios":"levelo://app?vid=8104c69d-4db3-489d-9298-81ea4e398d16"},"vehicle_type_id":"4","last_reported":1762679387,"current_range_meters":13600,"station_id":"ce4bhnp2rcd13ifvqh0g","pricing_plan_id":"cebpf4jnsgd1na2vs0mg"},{"bike_id":"de55c010-abe2-4f50-9186-e780ceeace4d","system_id":"levelo_inurba_marseille","lat":43.312695,"lon":5.401643,"is_reserved":false,"is_disabled":false,"rental_uris":{"android":"levelo://app?vid=de55c010-abe2-4f50-9186-e780ceeace4d","ios":"levelo://app?vid=de55c010-abe2-4f50-9186-e780ceeace4d"},"vehicle_type_id":"4","last_reported":1762679387,"current_range_meters":13600,"station_id":"ce4bh092rcd13ifvqd30","pricing_plan_id":"cebpf4jnsgd1na2vs0mg"},{"bike_id":"d4d905e3-5d4c-4dcf-b2a7-a39dd627b8e4","system_id":"levelo_inurba_marseille","lat":43.25354,"lon":5.42159,"is_reserved":false,"is_disabled":false,"rental_uris":{"android":"levelo://app?vid=d4d905e3-5d4c-4dcf-b2a7-a39dd627b8e4","ios":"levelo://app?vid=d4d905e3-5d4c-4dcf-b2a7-a39dd627b8e4"},"vehicle_type_id":"4","last_reported":1762679387,"current_range_meters":13600,"station_id":"st_d2m65c5bi1j21697t3ng","pricing_plan_id":"cebpf4jnsgd1na2vs0mg"},{"bike_id":"ecd9fbaa-71af-4da1-a554-7b75e9d6ed32","system_id":"levelo_inurba_marseille","lat":43.30424,"lon":5.4128,"is_reserved":false,"is_disabled":false,"rental_uris":{"android":"levelo://app?vid=ecd9fbaa-71af-4da1-a554-7b75e9d6ed32","ios":"levelo://app?vid=ecd9fbaa-71af-4da1-a554-7b75e9d6ed32"},"vehicle_type_id":"4","last_reported":1762679387,"current_range_meters":14000,"station_id":"ce4bhop2rcd13ifvqh8g","pricing_plan_id":"cebpf4jnsgd1na2vs0mg"},{"bike_id":"b49e1e21-7305-46c8-b5b5-789ab51498ce","system_id":"levelo_inurba_marseille","lat":43.32538,"lon":5.4143,"is_reserved":false,"is_disabled":false,"rental_uris":{"android":"levelo://app?vid=b49e1e21-7305-46c8-b5b5-789ab51498ce","ios":"levelo://app?vid=b49e1e21-7305-46c8-b5b5-789ab51498ce"},"vehicle_type_id":"4","last_reported":1762679387,"current_range_meters":14000,"station_id":"ce4bhq12rcd13ifvqhhg","pricing_plan_id":"cebpf4jnsgd1na2vs0mg"},{"bike_id":"a697c050-65cb-4cad-975c-84488c6104a1","system_id":"levelo_inurba_marseille","lat":43.319963,"lon":5.381548,"is_reserved":false,"is_disabled":false,"rental_uris":{"android":"levelo://app?vid=a697c050-65cb-4cad-975c-84488c6104a1","ios":"levelo://app?vid=a697c050-65cb-4cad-975c-84488c6104a1"},"vehicle_type_id":"4","last_reported":1762679387,"current_range_meters":14000,"station_id":"ce4bhr12rcd13ifvqhpg","pricing_plan_id":"cebpf4jnsgd1na2vs0mg"},{"bike_id":"2e27933d-fc18-453e-ad3c-dfe367228a43","system_id":"levelo_inurba_marseille","lat":43.253352,"lon":5.421751,"is_reserved":false,"is_disabled":false,"rental_uris":{"android":"levelo://app?vid=2e27933d-fc18-453e-ad3c-dfe367228a43","ios":"levelo://app?vid=2e27933d-fc18-453e-ad3c-dfe367228a43"},"vehicle_type_id":"4","last_reported":1762679387,"current_range_meters":14000,"station_id":"st_d2m65c5bi1j21697t3ng","pricing_plan_id":"cebpf4jnsgd1na2vs0mg"},{"bike_id":"a5a51bf9-9908-420d-8212-6ef8d2db5d39","system_id":"levelo_inurba_marseille","lat":43.273839,"lon":5.362568,"is_reserved":false,"is_disabled":false,"rental_uris":{"android":"levelo://app?vid=a5a51bf9-9908-420d-8212-6ef8d2db5d39","ios":"levelo://app?vid=a5a51bf9-9908-420d-8212-6ef8d2db5d39"},"vehicle_type_id":"4","last_reported":1762679387,"current_range_meters":14400,"station_id":"ce4bhbh2rcd13ifvqeo0","pricing_plan_id":"cebpf4jnsgd1na2vs0mg"},{"bike_id":"345285ad-10a7-49ef-b97f-7faa01587ccf","system_id":"levelo_inurba_marseille","lat":43.24628,"lon":5.43148,"is_reserved":false,"is_disabled":false,"rental_uris":{"android":"levelo://app?vid=345285ad-10a7-49ef-b97f-7faa01587ccf","ios":"levelo://app?vid=345285ad-10a7-49ef-b97f-7faa01587ccf"},"vehicle_type_id":"4","last_reported":1762679387,"current_range_meters":14400,"station_id":"st_d2m6c4gdas8pm72e190g","pricing_plan_id":"cebpf4jnsgd1na2vs0mg"},{"bike_id":"26c32945-808a-409c-bed9-55194900b0be","system_id":"levelo_inurba_marseille","lat":43.26193,"lon":5.37448,"is_reserved":false,"is_disabled":false,"rental_uris":{"android":"levelo://app?vid=26c32945-808a-409c-bed9-55194900b0be","ios":"levelo://app?vid=26c32945-808a-409c-bed9-55194900b0be"},"vehicle_type_id":"4","last_reported":1762679387,"current_range_meters":14400,"station_id":"ce4bhgp2rcd13ifvqfc0","pricing_plan_id":"cebpf4jnsgd1na2vs0mg"},{"bike_id":"b0370738-4d86-4710-99fc-c5094c79dcbe","system_id":"levelo_inurba_marseille","lat":43.29195,"lon":5.35804,"is_reserved":false,"is_disabled":false,"rental_uris":{"android":"levelo://app?vid=b0370738-4d86-4710-99fc-c5094c79dcbe","ios":"levelo://app?vid=b0370738-4d86-4710-99fc-c5094c79dcbe"},"vehicle_type_id":"4","last_reported":1762679387,"current_range_meters":14400,"station_id":"ce4bhb12rcd13ifvqel0","pricing_plan_id":"cebpf4jnsgd1na2vs0mg"},{"bike_id":"68e2a4eb-9515-41fd-aa1c-8497e40ac482","system_id":"levelo_inurba_marseille","lat":43.29923,"lon":5.38135,"is_reserved":false,"is_disabled":true,"rental_uris":{"android":"levelo://app?vid=68e2a4eb-9515-41fd-aa1c-8497e40ac482","ios":"levelo://app?vid=68e2a4eb-9515-41fd-aa1c-8497e40ac482"},"vehicle_type_id":"4","last_reported":1762679387,"current_range_meters":14400,"station_id":"ce4bgj12rcd13ifvqbc0","pricing_plan_id":"cebpf4jnsgd1na2vs0mg"},{"bike_id":"d8a2355e-a776-4b85-8a3e-22368796688d","system_id":"levelo_inurba_marseille","lat":43.308002,"lon":5.368435,"is_reserved":false,"is_disabled":false,"rental_uris":{"android":"levelo://app?vid=d8a2355e-a776-4b85-8a3e-22368796688d","ios":"levelo://app?vid=d8a2355e-a776-4b85-8a3e-22368796688d"},"vehicle_type_id":"4","last_reported":1762679387,"current_range_meters":14400,"station_id":"","pricing_plan_id":"cebpf4jnsgd1na2vs0mg"},{"bike_id":"beb94f55-7cad-4f93-b357-1a1cafd7bcec","system_id":"levelo_inurba_marseille","lat":43.24632,"lon":5.43135,"is_reserved":false,"is_disabled":false,"rental_uris":{"android":"levelo://app?vid=beb94f55-7cad-4f93-b357-1a1cafd7bcec","ios":"levelo://app?vid=beb94f55-7cad-4f93-b357-1a1cafd7bcec"},"vehicle_type_id":"4","last_reported":1762679387,"current_range_meters":14400,"station_id":"st_d2m6c4gdas8pm72e190g","pricing_plan_id":"cebpf4jnsgd1na2vs0mg"},{"bike_id":"07487456-04db-4d2a-9c08-bc3d6a0a4071","system_id":"levelo_inurba_marseille","lat":43.281526,"lon":5.426396,"is_reserved":false,"is_disabled":false,"rental_uris":{"android":"levelo://app?vid=07487456-04db-4d2a-9c08-bc3d6a0a4071","ios":"levelo://app?vid=07487456-04db-4d2a-9c08-bc3d6a0a4071"},"vehicle_type_id":"4","last_reported":1762679387,"current_range_meters":14800,"station_id":"ce4bhnh2rcd13ifvqgug","pricing_plan_id":"cebpf4jnsgd1na2vs0mg"},{"bike_id":"2af63f6c-5625-4c1c-aec0-be4ec80aef16","system_id":"levelo_inurba_marseille","lat":43.28268,"lon":5.35075,"is_reserved":false,"is_disabled":false,"rental_uris":{"android":"levelo://app?vid=2af63f6c-5625-4c1c-aec0-be4ec80aef16","ios":"levelo://app?vid=2af63f6c-5625-4c1c-aec0-be4ec80aef16"},"vehicle_type_id":"4","last_reported":1762679387,"current_range_meters":14800,"station_id":"ce4bhbp2rcd13ifvqerg","pricing_plan_id":"cebpf4jnsgd1na2vs0mg"},{"bike_id":"dcd1985a-4a4f-4ac3-8905-c1636fbf304c","system_id":"levelo_inurba_marseille","lat":43.23155,"lon":5.43716,"is_reserved":false,"is_disabled":false,"rental_uris":{"android":"levelo://app?vid=dcd1985a-4a4f-4ac3-8905-c1636fbf304c","ios":"levelo://app?vid=dcd1985a-4a4f-4ac3-8905-c1636fbf304c"},"vehicle_type_id":"4","last_reported":1762679387,"current_range_meters":14800,"station_id":"ce4bhmp2rcd13ifvqgog","pricing_plan_id":"cebpf4jnsgd1na2vs0mg"},{"bike_id":"32d2b8fd-3cd3-49af-870c-09c843c31bf2","system_id":"levelo_inurba_marseille","lat":43.28859,"lon":5.35857,"is_reserved":false,"is_disabled":false,"rental_uris":{"android":"levelo://app?vid=32d2b8fd-3cd3-49af-870c-09c843c31bf2","ios":"levelo://app?vid=32d2b8fd-3cd3-49af-870c-09c843c31bf2"},"vehicle_type_id":"4","last_reported":1762679387,"current_range_meters":14800,"station_id":"ce4bhb12rcd13ifvqem0","pricing_plan_id":"cebpf4jnsgd1na2vs0mg"},{"bike_id":"c197fb5b-6ad3-43e6-ba7c-1a3724b70895","system_id":"levelo_inurba_marseille","lat":43.265646,"lon":5.390036,"is_reserved":false,"is_disabled":false,"rental_uris":{"android":"levelo://app?vid=c197fb5b-6ad3-43e6-ba7c-1a3724b70895","ios":"levelo://app?vid=c197fb5b-6ad3-43e6-ba7c-1a3724b70895"},"vehicle_type_id":"4","last_reported":1762679387,"current_range_meters":14800,"station_id":"ce4bhe12rcd13ifvqf30","pricing_plan_id":"cebpf4jnsgd1na2vs0mg"},{"bike_id":"c19b9475-1f49-4df3-a555-5f8ad7c35f16","system_id":"levelo_inurba_marseille","lat":43.22547,"lon":5.34828,"is_reserved":false,"is_disabled":false,"rental_uris":{"android":"levelo://app?vid=c19b9475-1f49-4df3-a555-5f8ad7c35f16","ios":"levelo://app?vid=c19b9475-1f49-4df3-a555-5f8ad7c35f16"},"vehicle_type_id":"4","last_reported":1762679387,"current_range_meters":14800,"station_id":"","pricing_plan_id":"cebpf4jnsgd1na2vs0mg"},{"bike_id":"c951a2d2-0b26-446b-a758-101a6b8cb4e2","system_id":"levelo_inurba_marseille","lat":43.290639,"lon":5.359271,"is_reserved":false,"is_disabled":false,"rental_uris":{"android":"levelo://app?vid=c951a2d2-0b26-446b-a758-101a6b8cb4e2","ios":"levelo://app?vid=c951a2d2-0b26-446b-a758-101a6b8cb4e2"},"vehicle_type_id":"4","last_reported":1762679387,"current_range_meters":14800,"station_id":"ce4bha92rcd13ifvqeg0","pricing_plan_id":"cebpf4jnsgd1na2vs0mg"},{"bike_id":"5f51530e-ad6d-4525-9dbe-df8ccdff7435","system_id":"levelo_inurba_marseille","lat":43.316031,"lon":5.381882,"is_reserved":false,"is_disabled":false,"rental_uris":{"android":"levelo://app?vid=5f51530e-ad6d-4525-9dbe-df8ccdff7435","ios":"levelo://app?vid=5f51530e-ad6d-4525-9dbe-df8ccdff7435"},"vehicle_type_id":"4","last_reported":1762679387,"current_range_meters":14800,"station_id":"","pricing_plan_id":"cebpf4jnsgd1na2vs0mg"},{"bike_id":"f4b3610c-ddfd-461d-9ea3-633c91510343","system_id":"levelo_inurba_marseille","lat":43.24626,"lon":5.43129,"is_reserved":false,"is_disabled":false,"rental_uris":{"android":"levelo://app?vid=f4b3610c-ddfd-461d-9ea3-633c91510343","ios":"levelo://app?vid=f4b3610c-ddfd-461d-9ea3-633c91510343"},"vehicle_type_id":"4","last_reported":1762679387,"current_range_meters":15200,"station_id":"st_d2m6c4gdas8pm72e190g","pricing_plan_id":"cebpf4jnsgd1na2vs0mg"},{"bike_id":"fee4f445-bba8-4be4-a3da-4decf51271b2","system_id":"levelo_inurba_marseille","lat":43.31843,"lon":5.407118,"is_reserved":false,"is_disabled":false,"rental_uris":{"android":"levelo://app?vid=fee4f445-bba8-4be4-a3da-4decf51271b2","ios":"levelo://app?vid=fee4f445-bba8-4be4-a3da-4decf51271b2"},"vehicle_type_id":"4","last_reported":1762679387,"current_range_meters":15200,"station_id":"","pricing_plan_id":"cebpf4jnsgd1na2vs0mg"},{"bike_id":"9a776a3f-cab6-4283-a416-cc8852920997","system_id":"levelo_inurba_marseille","lat":43.22533,"lon":5.34837,"is_reserved":false,"is_disabled":false,"rental_uris":{"android":"levelo://app?vid=9a776a3f-cab6-4283-a416-cc8852920997","ios":"levelo://app?vid=9a776a3f-cab6-4283-a416-cc8852920997"},"vehicle_type_id":"4","last_reported":1762679387,"current_range_meters":15200,"station_id":"","pricing_plan_id":"cebpf4jnsgd1na2vs0mg"},{"bike_id":"b0c93f39-2f4b-4a4b-92c9-fdf9f6e8a0e9","system_id":"levelo_inurba_marseille","lat":43.27204,"lon":5.39173,"is_reserved":false,"is_disabled":false,"rental_uris":{"android":"levelo://app?vid=b0c93f39-2f4b-4a4b-92c9-fdf9f6e8a0e9","ios":"levelo://app?vid=b0c93f39-2f4b-4a4b-92c9-fdf9f6e8a0e9"},"vehicle_type_id":"4","last_reported":1762679387,"current_range_meters":15200,"station_id":"ce4bhhp2rcd13ifvqfm0","pricing_plan_id":"cebpf4jnsgd1na2vs0mg"},{"bike_id":"4eac3eb9-9ac1-4ff6-ad57-ed359befeed2","system_id":"levelo_inurba_marseille","lat":43.22857,"lon":5.40236,"is_reserved":false,"is_disabled":false,"rental_uris":{"android":"levelo://app?vid=4eac3eb9-9ac1-4ff6-ad57-ed359befeed2","ios":"levelo://app?vid=4eac3eb9-9ac1-4ff6-ad57-ed359befeed2"},"vehicle_type_id":"4","last_reported":1762679387,"current_range_meters":15200,"station_id":"","pricing_plan_id":"cebpf4jnsgd1na2vs0mg"},{"bike_id":"c1783fb2-6784-4b7f-92a8-0112651e291c","system_id":"levelo_inurba_marseille","lat":43.29757,"lon":5.42784,"is_reserved":false,"is_disabled":false,"rental_uris":{"android":"levelo://app?vid=c1783fb2-6784-4b7f-92a8-0112651e291c","ios":"levelo://app?vid=c1783fb2-6784-4b7f-92a8-0112651e291c"},"vehicle_type_id":"4","last_reported":1762679387,"current_range_meters":15200,"station_id":"st_d3md5207bmas73dh9klg","pricing_plan_id":"cebpf4jnsgd1na2vs0mg"},{"bike_id":"77042096-63cb-4335-bf22-55e62e432f14","system_id":"levelo_inurba_marseille","lat":43.26207,"lon":5.3744,"is_reserved":false,"is_disabled":false,"rental_uris":{"android":"levelo://app?vid=77042096-63cb-4335-bf22-55e62e432f14","ios":"levelo://app?vid=77042096-63cb-4335-bf22-55e62e432f14"},"vehicle_type_id":"4","last_reported":1762679387,"current_range_meters":15200,"station_id":"ce4bhgp2rcd13ifvqfc0","pricing_plan_id":"cebpf4jnsgd1na2vs0mg"},{"bike_id":"7cd82efc-cab1-4304-a152-fb4844e81213","system_id":"levelo_inurba_marseille","lat":43.3032,"lon":5.40443,"is_reserved":false,"is_disabled":false,"rental_uris":{"android":"levelo://app?vid=7cd82efc-cab1-4304-a152-fb4844e81213","ios":"levelo://app?vid=7cd82efc-cab1-4304-a152-fb4844e81213"},"vehicle_type_id":"4","last_reported":1762679387,"current_range_meters":15200,"station_id":"ce4bh012rcd13ifvqd10","pricing_plan_id":"cebpf4jnsgd1na2vs0mg"},{"bike_id":"f08621f1-92b2-4985-8a3a-96dd283a7c2b","system_id":"levelo_inurba_marseille","lat":43.31354,"lon":5.37932,"is_reserved":false,"is_disabled":false,"rental_uris":{"android":"levelo://app?vid=f08621f1-92b2-4985-8a3a-96dd283a7c2b","ios":"levelo://app?vid=f08621f1-92b2-4985-8a3a-96dd283a7c2b"},"vehicle_type_id":"4","last_reported":1762679387,"current_range_meters":15200,"station_id":"","pricing_plan_id":"cebpf4jnsgd1na2vs0mg"},{"bike_id":"56c407da-7675-4f00-a1f7-f93d662c9aff","system_id":"levelo_inurba_marseille","lat":43.299332,"lon":5.365424,"is_reserved":false,"is_disabled":false,"rental_uris":{"android":"levelo://app?vid=56c407da-7675-4f00-a1f7-f93d662c9aff","ios":"levelo://app?vid=56c407da-7675-4f00-a1f7-f93d662c9aff"},"vehicle_type_id":"4","last_reported":1762679387,"current_range_meters":16000,"station_id":"ce4bgm92rcd13ifvqbr0","pricing_plan_id":"cebpf4jnsgd1na2vs0mg"},{"bike_id":"004653de-7c1b-4886-bdee-5252d1943d43","system_id":"levelo_inurba_marseille","lat":43.2848,"lon":5.38425,"is_reserved":false,"is_disabled":false,"rental_uris":{"android":"levelo://app?vid=004653de-7c1b-4886-bdee-5252d1943d43","ios":"levelo://app?vid=004653de-7c1b-4886-bdee-5252d1943d43"},"vehicle_type_id":"4","last_reported":1762679387,"current_range_meters":16000,"station_id":"","pricing_plan_id":"cebpf4jnsgd1na2vs0mg"},{"bike_id":"7fbd1ff9-4b4c-41ae-8d84-cca75e8f7f8a","system_id":"levelo_inurba_marseille","lat":43.273234,"lon":5.390707,"is_reserved":false,"is_disabled":false,"rental_uris":{"android":"levelo://app?vid=7fbd1ff9-4b4c-41ae-8d84-cca75e8f7f8a","ios":"levelo://app?vid=7fbd1ff9-4b4c-41ae-8d84-cca75e8f7f8a"},"vehicle_type_id":"4","last_reported":1762679387,"current_range_meters":16000,"station_id":"ce4bhgp2rcd13ifvqfe0","pricing_plan_id":"cebpf4jnsgd1na2vs0mg"},{"bike_id":"7cd9e916-7d6d-45e9-bc43-831fb322924d","system_id":"levelo_inurba_marseille","lat":43.27917,"lon":5.39576,"is_reserved":false,"is_disabled":false,"rental_uris":{"android":"levelo://app?vid=7cd9e916-7d6d-45e9-bc43-831fb322924d","ios":"levelo://app?vid=7cd9e916-7d6d-45e9-bc43-831fb322924d"},"vehicle_type_id":"4","last_reported":1762679387,"current_range_meters":16000,"station_id":"ce4bhf92rcd13ifvqf40","pricing_plan_id":"cebpf4jnsgd1na2vs0mg"},{"bike_id":"493d5586-9fc6-4f12-be84-9f6467f72b20","system_id":"levelo_inurba_marseille","lat":43.29218,"lon":5.36051,"is_reserved":false,"is_disabled":false,"rental_uris":{"android":"levelo://app?vid=493d5586-9fc6-4f12-be84-9f6467f72b20","ios":"levelo://app?vid=493d5586-9fc6-4f12-be84-9f6467f72b20"},"vehicle_type_id":"4","last_reported":1762679387,"current_range_meters":16000,"station_id":"ce4bhbh2rcd13ifvqeqg","pricing_plan_id":"cebpf4jnsgd1na2vs0mg"},{"bike_id":"2b6c7f17-6a0b-4c7e-9de0-10989be42791","system_id":"levelo_inurba_marseille","lat":43.29009,"lon":5.38447,"is_reserved":false,"is_disabled":false,"rental_uris":{"android":"levelo://app?vid=2b6c7f17-6a0b-4c7e-9de0-10989be42791","ios":"levelo://app?vid=2b6c7f17-6a0b-4c7e-9de0-10989be42791"},"vehicle_type_id":"4","last_reported":1762679387,"current_range_meters":16000,"station_id":"","pricing_plan_id":"cebpf4jnsgd1na2vs0mg"},{"bike_id":"823f9d7f-5db5-4876-8b5d-28b6923592c8","system_id":"levelo_inurba_marseille","lat":43.24945,"lon":5.40487,"is_reserved":false,"is_disabled":false,"rental_uris":{"android":"levelo://app?vid=823f9d7f-5db5-4876-8b5d-28b6923592c8","ios":"levelo://app?vid=823f9d7f-5db5-4876-8b5d-28b6923592c8"},"vehicle_type_id":"4","last_reported":1762679387,"current_range_meters":16000,"station_id":"st_d2ngiaodas8pm72gd1h0","pricing_plan_id":"cebpf4jnsgd1na2vs0mg"},{"bike_id":"53529ee7-fa79-4bfe-8ac3-2ffb63a46b11","system_id":"levelo_inurba_marseille","lat":43.31811,"lon":5.38823,"is_reserved":false,"is_disabled":false,"rental_uris":{"android":"levelo://app?vid=53529ee7-fa79-4bfe-8ac3-2ffb63a46b11","ios":"levelo://app?vid=53529ee7-fa79-4bfe-8ac3-2ffb63a46b11"},"vehicle_type_id":"4","last_reported":1762679387,"current_range_meters":16400,"station_id":"","pricing_plan_id":"cebpf4jnsgd1na2vs0mg"},{"bike_id":"e995c849-6e21-4213-b2c5-fabfd52ad1d7","system_id":"levelo_inurba_marseille","lat":43.298501,"lon":5.362876,"is_reserved":false,"is_disabled":false,"rental_uris":{"android":"levelo://app?vid=e995c849-6e21-4213-b2c5-fabfd52ad1d7","ios":"levelo://app?vid=e995c849-6e21-4213-b2c5-fabfd52ad1d7"},"vehicle_type_id":"4","last_reported":1762679387,"current_range_meters":16400,"station_id":"ce4bgpp2rcd13ifvqc3g","pricing_plan_id":"cebpf4jnsgd1na2vs0mg"},{"bike_id":"0392c01f-c7f1-41fd-9cd6-aa463c8d4035","system_id":"levelo_inurba_marseille","lat":43.244,"lon":5.37066,"is_reserved":false,"is_disabled":false,"rental_uris":{"android":"levelo://app?vid=0392c01f-c7f1-41fd-9cd6-aa463c8d4035","ios":"levelo://app?vid=0392c01f-c7f1-41fd-9cd6-aa463c8d4035"},"vehicle_type_id":"4","last_reported":1762679387,"current_range_meters":16400,"station_id":"ce4bhhh2rcd13ifvqfk0","pricing_plan_id":"cebpf4jnsgd1na2vs0mg"},{"bike_id":"6d7c1aaf-f4c7-4f1f-9842-eba300df5da2","system_id":"levelo_inurba_marseille","lat":43.29011,"lon":5.35608,"is_reserved":false,"is_disabled":false,"rental_uris":{"android":"levelo://app?vid=6d7c1aaf-f4c7-4f1f-9842-eba300df5da2","ios":"levelo://app?vid=6d7c1aaf-f4c7-4f1f-9842-eba300df5da2"},"vehicle_type_id":"4","last_reported":1762679387,"current_range_meters":16400,"station_id":"ce4bhb92rcd13ifvqen0","pricing_plan_id":"cebpf4jnsgd1na2vs0mg"},{"bike_id":"5f9a5a0f-2733-475e-89d8-03de8455b765","system_id":"levelo_inurba_marseille","lat":43.21742,"lon":5.34601,"is_reserved":false,"is_disabled":false,"rental_uris":{"android":"levelo://app?vid=5f9a5a0f-2733-475e-89d8-03de8455b765","ios":"levelo://app?vid=5f9a5a0f-2733-475e-89d8-03de8455b765"},"vehicle_type_id":"4","last_reported":1762679387,"current_range_meters":16400,"station_id":"","pricing_plan_id":"cebpf4jnsgd1na2vs0mg"},{"bike_id":"a9d08e4c-0813-4aef-85b1-1d50cf456f69","system_id":"levelo_inurba_marseille","lat":43.21749,"lon":5.34593,"is_reserved":false,"is_disabled":true,"rental_uris":{"android":"levelo://app?vid=a9d08e4c-0813-4aef-85b1-1d50cf456f69","ios":"levelo://app?vid=a9d08e4c-0813-4aef-85b1-1d50cf456f69"},"vehicle_type_id":"4","last_reported":1762679387,"current_range_meters":16800,"station_id":"","pricing_plan_id":"cebpf4jnsgd1na2vs0mg"},{"bike_id":"c1c2c044-4849-4924-8e74-c40d5933f91e","system_id":"levelo_inurba_marseille","lat":43.22534,"lon":5.34846,"is_reserved":false,"is_disabled":false,"rental_uris":{"android":"levelo://app?vid=c1c2c044-4849-4924-8e74-c40d5933f91e","ios":"levelo://app?vid=c1c2c044-4849-4924-8e74-c40d5933f91e"},"vehicle_type_id":"4","last_reported":1762679387,"current_range_meters":16800,"station_id":"","pricing_plan_id":"cebpf4jnsgd1na2vs0mg"},{"bike_id":"81117295-ef99-4696-a5e4-29e11d56d47c","system_id":"levelo_inurba_marseille","lat":43.32661,"lon":5.409889,"is_reserved":false,"is_disabled":false,"rental_uris":{"android":"levelo://app?vid=81117295-ef99-4696-a5e4-29e11d56d47c","ios":"levelo://app?vid=81117295-ef99-4696-a5e4-29e11d56d47c"},"vehicle_type_id":"4","last_reported":1762679387,"current_range_meters":16800,"station_id":"ce4bhpp2rcd13ifvqhgg","pricing_plan_id":"cebpf4jnsgd1na2vs0mg"},{"bike_id":"2db833f7-30c8-4ab8-90cb-f29430b1992a","system_id":"levelo_inurba_marseille","lat":43.29025,"lon":5.35597,"is_reserved":false,"is_disabled":false,"rental_uris":{"android":"levelo://app?vid=2db833f7-30c8-4ab8-90cb-f29430b1992a","ios":"levelo://app?vid=2db833f7-30c8-4ab8-90cb-f29430b1992a"},"vehicle_type_id":"4","last_reported":1762679387,"current_range_meters":16800,"station_id":"ce4bhb92rcd13ifvqen0","pricing_plan_id":"cebpf4jnsgd1na2vs0mg"},{"bike_id":"ab4ac132-5519-4aac-ac12-8b8c2929bb7e","system_id":"levelo_inurba_marseille","lat":43.32302,"lon":5.38493,"is_reserved":false,"is_disabled":false,"rental_uris":{"android":"levelo://app?vid=ab4ac132-5519-4aac-ac12-8b8c2929bb7e","ios":"levelo://app?vid=ab4ac132-5519-4aac-ac12-8b8c2929bb7e"},"vehicle_type_id":"4","last_reported":1762679387,"current_range_meters":16800,"station_id":"st_d45171o9ee8s73djdqug","pricing_plan_id":"cebpf4jnsgd1na2vs0mg"},{"bike_id":"b6ba799f-93a0-474d-970a-cd786094f7da","system_id":"levelo_inurba_marseille","lat":43.28483,"lon":5.38439,"is_reserved":false,"is_disabled":true,"rental_uris":{"android":"levelo://app?vid=b6ba799f-93a0-474d-970a-cd786094f7da","ios":"levelo://app?vid=b6ba799f-93a0-474d-970a-cd786094f7da"},"vehicle_type_id":"4","last_reported":1762679387,"current_range_meters":16800,"station_id":"ce4bh512rcd13ifvqe3g","pricing_plan_id":"cebpf4jnsgd1na2vs0mg"},{"bike_id":"52fb7e67-9da4-4ef0-8336-d669123c5362","system_id":"levelo_inurba_marseille","lat":43.24176,"lon":5.39729,"is_reserved":false,"is_disabled":false,"rental_uris":{"android":"levelo://app?vid=52fb7e67-9da4-4ef0-8336-d669123c5362","ios":"levelo://app?vid=52fb7e67-9da4-4ef0-8336-d669123c5362"},"vehicle_type_id":"4","last_reported":1762679387,"current_range_meters":16800,"station_id":"ce4bhn12rcd13ifvqgpg","pricing_plan_id":"cebpf4jnsgd1na2vs0mg"},{"bike_id":"d33cc7af-4f0c-48da-b8d5-abb4beb039a3","system_id":"levelo_inurba_marseille","lat":43.286132,"lon":5.351,"is_reserved":false,"is_disabled":false,"rental_uris":{"android":"levelo://app?vid=d33cc7af-4f0c-48da-b8d5-abb4beb039a3","ios":"levelo://app?vid=d33cc7af-4f0c-48da-b8d5-abb4beb039a3"},"vehicle_type_id":"4","last_reported":1762679387,"current_range_meters":16800,"station_id":"ce4bhch2rcd13ifvqeug","pricing_plan_id":"cebpf4jnsgd1na2vs0mg"},{"bike_id":"e083d16a-6dba-4905-a451-3761c3e28d39","system_id":"levelo_inurba_marseille","lat":43.31112,"lon":5.37775,"is_reserved":false,"is_disabled":false,"rental_uris":{"android":"levelo://app?vid=e083d16a-6dba-4905-a451-3761c3e28d39","ios":"levelo://app?vid=e083d16a-6dba-4905-a451-3761c3e28d39"},"vehicle_type_id":"4","last_reported":1762679387,"current_range_meters":16800,"station_id":"ce4bgt92rcd13ifvqcg0","pricing_plan_id":"cebpf4jnsgd1na2vs0mg"},{"bike_id":"e69e7294-0504-4d57-a490-e2b2b55a529c","system_id":"levelo_inurba_marseille","lat":43.31992,"lon":5.38135,"is_reserved":false,"is_disabled":false,"rental_uris":{"android":"levelo://app?vid=e69e7294-0504-4d57-a490-e2b2b55a529c","ios":"levelo://app?vid=e69e7294-0504-4d57-a490-e2b2b55a529c"},"vehicle_type_id":"4","last_reported":1762679387,"current_range_meters":16800,"station_id":"ce4bhr12rcd13ifvqhpg","pricing_plan_id":"cebpf4jnsgd1na2vs0mg"},{"bike_id":"b198113b-5d14-4872-9f7c-a319a263af41","system_id":"levelo_inurba_marseille","lat":43.28272,"lon":5.35066,"is_reserved":false,"is_disabled":false,"rental_uris":{"android":"levelo://app?vid=b198113b-5d14-4872-9f7c-a319a263af41","ios":"levelo://app?vid=b198113b-5d14-4872-9f7c-a319a263af41"},"vehicle_type_id":"4","last_reported":1762679387,"current_range_meters":16800,"station_id":"ce4bhbp2rcd13ifvqerg","pricing_plan_id":"cebpf4jnsgd1na2vs0mg"},{"bike_id":"2bee9d77-f4ce-40fb-a351-5c9f7e879e55","system_id":"levelo_inurba_marseille","lat":43.29655,"lon":5.40609,"is_reserved":false,"is_disabled":false,"rental_uris":{"android":"levelo://app?vid=2bee9d77-f4ce-40fb-a351-5c9f7e879e55","ios":"levelo://app?vid=2bee9d77-f4ce-40fb-a351-5c9f7e879e55"},"vehicle_type_id":"4","last_reported":1762679387,"current_range_meters":17200,"station_id":"ce4bh0h2rcd13ifvqd60","pricing_plan_id":"cebpf4jnsgd1na2vs0mg"},{"bike_id":"f4cd1f76-686b-443b-bf62-c78f0f11dda9","system_id":"levelo_inurba_marseille","lat":43.28411,"lon":5.37527,"is_reserved":false,"is_disabled":true,"rental_uris":{"android":"levelo://app?vid=f4cd1f76-686b-443b-bf62-c78f0f11dda9","ios":"levelo://app?vid=f4cd1f76-686b-443b-bf62-c78f0f11dda9"},"vehicle_type_id":"4","last_reported":1762679387,"current_range_meters":17200,"station_id":"ce4bh412rcd13ifvqds0","pricing_plan_id":"cebpf4jnsgd1na2vs0mg"},{"bike_id":"f94794f5-6317-40a3-af8c-b1d1c3971fc0","system_id":"levelo_inurba_marseille","lat":43.30745,"lon":5.4245,"is_reserved":false,"is_disabled":false,"rental_uris":{"android":"levelo://app?vid=f94794f5-6317-40a3-af8c-b1d1c3971fc0","ios":"levelo://app?vid=f94794f5-6317-40a3-af8c-b1d1c3971fc0"},"vehicle_type_id":"4","last_reported":1762679387,"current_range_meters":17200,"station_id":"st_cvj6ca6bvosntc0bfgr0","pricing_plan_id":"cebpf4jnsgd1na2vs0mg"},{"bike_id":"aaf560bb-adf8-4d7c-b749-b4c5ca2f2663","system_id":"levelo_inurba_marseille","lat":43.239527,"lon":5.366283,"is_reserved":false,"is_disabled":true,"rental_uris":{"android":"levelo://app?vid=aaf560bb-adf8-4d7c-b749-b4c5ca2f2663","ios":"levelo://app?vid=aaf560bb-adf8-4d7c-b749-b4c5ca2f2663"},"vehicle_type_id":"4","last_reported":1762679387,"current_range_meters":17200,"station_id":"ce4bhi12rcd13ifvqfp0","pricing_plan_id":"cebpf4jnsgd1na2vs0mg"},{"bike_id":"cf41bac8-b3bf-4d78-b58b-1504370da1f3","system_id":"levelo_inurba_marseille","lat":43.2175,"lon":5.34596,"is_reserved":false,"is_disabled":true,"rental_uris":{"android":"levelo://app?vid=cf41bac8-b3bf-4d78-b58b-1504370da1f3","ios":"levelo://app?vid=cf41bac8-b3bf-4d78-b58b-1504370da1f3"},"vehicle_type_id":"4","last_reported":1762679387,"current_range_meters":17200,"station_id":"st_cvj6r9ubvosntc0bgbag","pricing_plan_id":"cebpf4jnsgd1na2vs0mg"},{"bike_id":"80ec9664-856a-41c1-9784-773db588c1ff","system_id":"levelo_inurba_marseille","lat":43.264803,"lon":5.395422,"is_reserved":false,"is_disabled":false,"rental_uris":{"android":"levelo://app?vid=80ec9664-856a-41c1-9784-773db588c1ff","ios":"levelo://app?vid=80ec9664-856a-41c1-9784-773db588c1ff"},"vehicle_type_id":"4","last_reported":1762679387,"current_range_meters":17200,"station_id":"ce4bhi12rcd13ifvqfq0","pricing_plan_id":"cebpf4jnsgd1na2vs0mg"},{"bike_id":"b4cb9bc3-2674-422b-8c74-5594292dd02e","system_id":"levelo_inurba_marseille","lat":43.27523,"lon":5.3751,"is_reserved":false,"is_disabled":false,"rental_uris":{"android":"levelo://app?vid=b4cb9bc3-2674-422b-8c74-5594292dd02e","ios":"levelo://app?vid=b4cb9bc3-2674-422b-8c74-5594292dd02e"},"vehicle_type_id":"4","last_reported":1762679387,"current_range_meters":17200,"station_id":"","pricing_plan_id":"cebpf4jnsgd1na2vs0mg"},{"bike_id":"122b9ac4-5495-40d4-9745-ea8a1ca5d2c9","system_id":"levelo_inurba_marseille","lat":43.28856,"lon":5.35845,"is_reserved":false,"is_disabled":false,"rental_uris":{"android":"levelo://app?vid=122b9ac4-5495-40d4-9745-ea8a1ca5d2c9","ios":"levelo://app?vid=122b9ac4-5495-40d4-9745-ea8a1ca5d2c9"},"vehicle_type_id":"4","last_reported":1762679387,"current_range_meters":17600,"station_id":"ce4bhb12rcd13ifvqem0","pricing_plan_id":"cebpf4jnsgd1na2vs0mg"},{"bike_id":"f0f552c9-dd5b-44e5-8d71-e97f687d54ee","system_id":"levelo_inurba_marseille","lat":43.28431,"lon":5.34991,"is_reserved":false,"is_disabled":true,"rental_uris":{"android":"levelo://app?vid=f0f552c9-dd5b-44e5-8d71-e97f687d54ee","ios":"levelo://app?vid=f0f552c9-dd5b-44e5-8d71-e97f687d54ee"},"vehicle_type_id":"4","last_reported":1762679387,"current_range_meters":17600,"station_id":"ce4bhbh2rcd13ifvqepg","pricing_plan_id":"cebpf4jnsgd1na2vs0mg"},{"bike_id":"4a299e7b-fa77-4d39-93fa-a705e8d40c9f","system_id":"levelo_inurba_marseille","lat":43.3133,"lon":5.37923,"is_reserved":false,"is_disabled":false,"rental_uris":{"android":"levelo://app?vid=4a299e7b-fa77-4d39-93fa-a705e8d40c9f","ios":"levelo://app?vid=4a299e7b-fa77-4d39-93fa-a705e8d40c9f"},"vehicle_type_id":"4","last_reported":1762679387,"current_range_meters":17600,"station_id":"","pricing_plan_id":"cebpf4jnsgd1na2vs0mg"},{"bike_id":"5ba73132-4157-4dc7-b295-7a2352361d5c","system_id":"levelo_inurba_marseille","lat":43.23147,"lon":5.43725,"is_reserved":false,"is_disabled":false,"rental_uris":{"android":"levelo://app?vid=5ba73132-4157-4dc7-b295-7a2352361d5c","ios":"levelo://app?vid=5ba73132-4157-4dc7-b295-7a2352361d5c"},"vehicle_type_id":"4","last_reported":1762679387,"current_range_meters":17600,"station_id":"ce4bhmp2rcd13ifvqgog","pricing_plan_id":"cebpf4jnsgd1na2vs0mg"},{"bike_id":"77dd386a-c491-4903-b512-c2486567c465","system_id":"levelo_inurba_marseille","lat":43.28943,"lon":5.36627,"is_reserved":false,"is_disabled":false,"rental_uris":{"android":"levelo://app?vid=77dd386a-c491-4903-b512-c2486567c465","ios":"levelo://app?vid=77dd386a-c491-4903-b512-c2486567c465"},"vehicle_type_id":"4","last_reported":1762679387,"current_range_meters":17600,"station_id":"ce4bhap2rcd13ifvqek0","pricing_plan_id":"cebpf4jnsgd1na2vs0mg"},{"bike_id":"39ff6a52-7c15-4e36-9056-950efe8be9ca","system_id":"levelo_inurba_marseille","lat":43.28513,"lon":5.48356,"is_reserved":false,"is_disabled":false,"rental_uris":{"android":"levelo://app?vid=39ff6a52-7c15-4e36-9056-950efe8be9ca","ios":"levelo://app?vid=39ff6a52-7c15-4e36-9056-950efe8be9ca"},"vehicle_type_id":"4","last_reported":1762679387,"current_range_meters":17600,"station_id":"","pricing_plan_id":"cebpf4jnsgd1na2vs0mg"},{"bike_id":"96807a8e-1b45-4a36-b7ed-92091f4bcaf6","system_id":"levelo_inurba_marseille","lat":43.309306,"lon":5.401424,"is_reserved":false,"is_disabled":false,"rental_uris":{"android":"levelo://app?vid=96807a8e-1b45-4a36-b7ed-92091f4bcaf6","ios":"levelo://app?vid=96807a8e-1b45-4a36-b7ed-92091f4bcaf6"},"vehicle_type_id":"4","last_reported":1762679387,"current_range_meters":18000,"station_id":"","pricing_plan_id":"cebpf4jnsgd1na2vs0mg"},{"bike_id":"ac8a8750-1d87-4cf8-9c77-e78b99da5512","system_id":"levelo_inurba_marseille","lat":43.23605,"lon":5.361713,"is_reserved":false,"is_disabled":false,"rental_uris":{"android":"levelo://app?vid=ac8a8750-1d87-4cf8-9c77-e78b99da5512","ios":"levelo://app?vid=ac8a8750-1d87-4cf8-9c77-e78b99da5512"},"vehicle_type_id":"4","last_reported":1762679387,"current_range_meters":18000,"station_id":"","pricing_plan_id":"cebpf4jnsgd1na2vs0mg"},{"bike_id":"896a0fc4-e98e-425f-b646-7db4d5ace172","system_id":"levelo_inurba_marseille","lat":43.3199,"lon":5.38155,"is_reserved":false,"is_disabled":false,"rental_uris":{"android":"levelo://app?vid=896a0fc4-e98e-425f-b646-7db4d5ace172","ios":"levelo://app?vid=896a0fc4-e98e-425f-b646-7db4d5ace172"},"vehicle_type_id":"4","last_reported":1762679387,"current_range_meters":18000,"station_id":"ce4bhr12rcd13ifvqhpg","pricing_plan_id":"cebpf4jnsgd1na2vs0mg"},{"bike_id":"299c4817-5eda-4794-9cef-e96f1d16422a","system_id":"levelo_inurba_marseille","lat":43.251148,"lon":5.403244,"is_reserved":false,"is_disabled":false,"rental_uris":{"android":"levelo://app?vid=299c4817-5eda-4794-9cef-e96f1d16422a","ios":"levelo://app?vid=299c4817-5eda-4794-9cef-e96f1d16422a"},"vehicle_type_id":"4","last_reported":1762679387,"current_range_meters":18000,"station_id":"ce4bhlh2rcd13ifvqgig","pricing_plan_id":"cebpf4jnsgd1na2vs0mg"},{"bike_id":"4c9cbee1-31fa-4183-bd50-6f568d7cd241","system_id":"levelo_inurba_marseille","lat":43.288645,"lon":5.425164,"is_reserved":false,"is_disabled":false,"rental_uris":{"android":"levelo://app?vid=4c9cbee1-31fa-4183-bd50-6f568d7cd241","ios":"levelo://app?vid=4c9cbee1-31fa-4183-bd50-6f568d7cd241"},"vehicle_type_id":"4","last_reported":1762679387,"current_range_meters":18000,"station_id":"st_d3b462108ojc7389ooeg","pricing_plan_id":"cebpf4jnsgd1na2vs0mg"},{"bike_id":"24de70df-9b80-4721-8771-f61cb7be1ef9","system_id":"levelo_inurba_marseille","lat":43.31996,"lon":5.38145,"is_reserved":false,"is_disabled":false,"rental_uris":{"android":"levelo://app?vid=24de70df-9b80-4721-8771-f61cb7be1ef9","ios":"levelo://app?vid=24de70df-9b80-4721-8771-f61cb7be1ef9"},"vehicle_type_id":"4","last_reported":1762679387,"current_range_meters":18000,"station_id":"ce4bhr12rcd13ifvqhpg","pricing_plan_id":"cebpf4jnsgd1na2vs0mg"},{"bike_id":"7ac68617-61f2-4b5c-b393-1a6d76597555","system_id":"levelo_inurba_marseille","lat":43.30562,"lon":5.38107,"is_reserved":false,"is_disabled":false,"rental_uris":{"android":"levelo://app?vid=7ac68617-61f2-4b5c-b393-1a6d76597555","ios":"levelo://app?vid=7ac68617-61f2-4b5c-b393-1a6d76597555"},"vehicle_type_id":"4","last_reported":1762679387,"current_range_meters":18000,"station_id":"","pricing_plan_id":"cebpf4jnsgd1na2vs0mg"},{"bike_id":"bc35dad8-239f-484b-8868-84adca944731","system_id":"levelo_inurba_marseille","lat":43.27917,"lon":5.39576,"is_reserved":false,"is_disabled":false,"rental_uris":{"android":"levelo://app?vid=bc35dad8-239f-484b-8868-84adca944731","ios":"levelo://app?vid=bc35dad8-239f-484b-8868-84adca944731"},"vehicle_type_id":"4","last_reported":1762679387,"current_range_meters":18000,"station_id":"ce4bhf92rcd13ifvqf40","pricing_plan_id":"cebpf4jnsgd1na2vs0mg"},{"bike_id":"f84b2f89-e5b1-4a3b-83ad-b7866bc3134f","system_id":"levelo_inurba_marseille","lat":43.22926,"lon":5.353823,"is_reserved":false,"is_disabled":false,"rental_uris":{"android":"levelo://app?vid=f84b2f89-e5b1-4a3b-83ad-b7866bc3134f","ios":"levelo://app?vid=f84b2f89-e5b1-4a3b-83ad-b7866bc3134f"},"vehicle_type_id":"4","last_reported":1762679387,"current_range_meters":18000,"station_id":"cpo3532slgdg3j2ikp40","pricing_plan_id":"cebpf4jnsgd1na2vs0mg"},{"bike_id":"a9c95ebd-ad7f-4560-a2c8-dac5a390364a","system_id":"levelo_inurba_marseille","lat":43.311171,"lon":5.377632,"is_reserved":false,"is_disabled":false,"rental_uris":{"android":"levelo://app?vid=a9c95ebd-ad7f-4560-a2c8-dac5a390364a","ios":"levelo://app?vid=a9c95ebd-ad7f-4560-a2c8-dac5a390364a"},"vehicle_type_id":"4","last_reported":1762679387,"current_range_meters":18000,"station_id":"ce4bgt92rcd13ifvqcg0","pricing_plan_id":"cebpf4jnsgd1na2vs0mg"},{"bike_id":"c6e95b05-7f2a-49c5-9e75-f39f813106aa","system_id":"levelo_inurba_marseille","lat":43.2396,"lon":5.36626,"is_reserved":false,"is_disabled":false,"rental_uris":{"android":"levelo://app?vid=c6e95b05-7f2a-49c5-9e75-f39f813106aa","ios":"levelo://app?vid=c6e95b05-7f2a-49c5-9e75-f39f813106aa"},"vehicle_type_id":"4","last_reported":1762679387,"current_range_meters":18000,"station_id":"ce4bhi12rcd13ifvqfp0","pricing_plan_id":"cebpf4jnsgd1na2vs0mg"},{"bike_id":"19221564-6c26-476b-aaee-5e0642937db4","system_id":"levelo_inurba_marseille","lat":43.251193,"lon":5.40324,"is_reserved":false,"is_disabled":false,"rental_uris":{"android":"levelo://app?vid=19221564-6c26-476b-aaee-5e0642937db4","ios":"levelo://app?vid=19221564-6c26-476b-aaee-5e0642937db4"},"vehicle_type_id":"4","last_reported":1762679387,"current_range_meters":18800,"station_id":"ce4bhlh2rcd13ifvqgig","pricing_plan_id":"cebpf4jnsgd1na2vs0mg"},{"bike_id":"2d003246-289e-4235-87e3-d86a55465f5e","system_id":"levelo_inurba_marseille","lat":43.29892,"lon":5.37537,"is_reserved":false,"is_disabled":false,"rental_uris":{"android":"levelo://app?vid=2d003246-289e-4235-87e3-d86a55465f5e","ios":"levelo://app?vid=2d003246-289e-4235-87e3-d86a55465f5e"},"vehicle_type_id":"4","last_reported":1762679387,"current_range_meters":18800,"station_id":"","pricing_plan_id":"cebpf4jnsgd1na2vs0mg"},{"bike_id":"a2ecfe82-7fe6-45e2-a362-b957ffb449ae","system_id":"levelo_inurba_marseille","lat":43.22573,"lon":5.41623,"is_reserved":false,"is_disabled":false,"rental_uris":{"android":"levelo://app?vid=a2ecfe82-7fe6-45e2-a362-b957ffb449ae","ios":"levelo://app?vid=a2ecfe82-7fe6-45e2-a362-b957ffb449ae"},"vehicle_type_id":"4","last_reported":1762679387,"current_range_meters":18800,"station_id":"st_d2o4gvlbi1j2169b742g","pricing_plan_id":"cebpf4jnsgd1na2vs0mg"},{"bike_id":"83788fb8-9de8-4347-876b-324f1550cc39","system_id":"levelo_inurba_marseille","lat":43.231764,"lon":5.399883,"is_reserved":false,"is_disabled":false,"rental_uris":{"android":"levelo://app?vid=83788fb8-9de8-4347-876b-324f1550cc39","ios":"levelo://app?vid=83788fb8-9de8-4347-876b-324f1550cc39"},"vehicle_type_id":"4","last_reported":1762679387,"current_range_meters":18800,"station_id":"ce4bhn12rcd13ifvqgqg","pricing_plan_id":"cebpf4jnsgd1na2vs0mg"},{"bike_id":"8142a16a-13a8-4636-80c8-f6fe96871316","system_id":"levelo_inurba_marseille","lat":43.24391,"lon":5.37072,"is_reserved":false,"is_disabled":true,"rental_uris":{"android":"levelo://app?vid=8142a16a-13a8-4636-80c8-f6fe96871316","ios":"levelo://app?vid=8142a16a-13a8-4636-80c8-f6fe96871316"},"vehicle_type_id":"4","last_reported":1762679387,"current_range_meters":18800,"station_id":"ce4bhhh2rcd13ifvqfk0","pricing_plan_id":"cebpf4jnsgd1na2vs0mg"},{"bike_id":"d237b476-122b-4912-82d3-7a3ffe838a5b","system_id":"levelo_inurba_marseille","lat":43.29008,"lon":5.35608,"is_reserved":false,"is_disabled":false,"rental_uris":{"android":"levelo://app?vid=d237b476-122b-4912-82d3-7a3ffe838a5b","ios":"levelo://app?vid=d237b476-122b-4912-82d3-7a3ffe838a5b"},"vehicle_type_id":"4","last_reported":1762679387,"current_range_meters":18800,"station_id":"ce4bhb92rcd13ifvqen0","pricing_plan_id":"cebpf4jnsgd1na2vs0mg"},{"bike_id":"3a9fc892-b145-4311-a15f-2f5e934fe83f","system_id":"levelo_inurba_marseille","lat":43.30181,"lon":5.36622,"is_reserved":false,"is_disabled":false,"rental_uris":{"android":"levelo://app?vid=3a9fc892-b145-4311-a15f-2f5e934fe83f","ios":"levelo://app?vid=3a9fc892-b145-4311-a15f-2f5e934fe83f"},"vehicle_type_id":"4","last_reported":1762679387,"current_range_meters":18800,"station_id":"ce4bgrh2rcd13ifvqc8g","pricing_plan_id":"cebpf4jnsgd1na2vs0mg"},{"bike_id":"2d89b7f6-869e-48c6-8fde-7a553cbc2ce5","system_id":"levelo_inurba_marseille","lat":43.29265,"lon":5.3685,"is_reserved":false,"is_disabled":false,"rental_uris":{"android":"levelo://app?vid=2d89b7f6-869e-48c6-8fde-7a553cbc2ce5","ios":"levelo://app?vid=2d89b7f6-869e-48c6-8fde-7a553cbc2ce5"},"vehicle_type_id":"4","last_reported":1762679387,"current_range_meters":18800,"station_id":"ce4bhbp2rcd13ifvqesg","pricing_plan_id":"cebpf4jnsgd1na2vs0mg"},{"bike_id":"e17839a3-96d6-489d-881e-36b6da5aeb29","system_id":"levelo_inurba_marseille","lat":43.28615,"lon":5.37049,"is_reserved":false,"is_disabled":true,"rental_uris":{"android":"levelo://app?vid=e17839a3-96d6-489d-881e-36b6da5aeb29","ios":"levelo://app?vid=e17839a3-96d6-489d-881e-36b6da5aeb29"},"vehicle_type_id":"4","last_reported":1762679387,"current_range_meters":18800,"station_id":"ce4bht12rcd13ifvqi60","pricing_plan_id":"cebpf4jnsgd1na2vs0mg"},{"bike_id":"7476204c-054f-4450-8e22-0ae63b3e2d97","system_id":"levelo_inurba_marseille","lat":43.25108,"lon":5.40323,"is_reserved":false,"is_disabled":false,"rental_uris":{"android":"levelo://app?vid=7476204c-054f-4450-8e22-0ae63b3e2d97","ios":"levelo://app?vid=7476204c-054f-4450-8e22-0ae63b3e2d97"},"vehicle_type_id":"4","last_reported":1762679387,"current_range_meters":18800,"station_id":"ce4bhlh2rcd13ifvqgig","pricing_plan_id":"cebpf4jnsgd1na2vs0mg"},{"bike_id":"1cb4814f-4d42-4232-b8ef-dc9988cfe62c","system_id":"levelo_inurba_marseille","lat":43.27625,"lon":5.36133,"is_reserved":false,"is_disabled":false,"rental_uris":{"android":"levelo://app?vid=1cb4814f-4d42-4232-b8ef-dc9988cfe62c","ios":"levelo://app?vid=1cb4814f-4d42-4232-b8ef-dc9988cfe62c"},"vehicle_type_id":"4","last_reported":1762679387,"current_range_meters":19200,"station_id":"ce4bgj92rcd13ifvqbe0","pricing_plan_id":"cebpf4jnsgd1na2vs0mg"},{"bike_id":"51a2794e-02eb-4f6d-aa6f-24293dd9b1d9","system_id":"levelo_inurba_marseille","lat":43.24067,"lon":5.37762,"is_reserved":false,"is_disabled":false,"rental_uris":{"android":"levelo://app?vid=51a2794e-02eb-4f6d-aa6f-24293dd9b1d9","ios":"levelo://app?vid=51a2794e-02eb-4f6d-aa6f-24293dd9b1d9"},"vehicle_type_id":"4","last_reported":1762679387,"current_range_meters":19200,"station_id":"ce4bhnp2rcd13ifvqgvg","pricing_plan_id":"cebpf4jnsgd1na2vs0mg"},{"bike_id":"7a817bec-5685-4e8a-a65c-103a0ffa1604","system_id":"levelo_inurba_marseille","lat":43.29203,"lon":5.36038,"is_reserved":false,"is_disabled":false,"rental_uris":{"android":"levelo://app?vid=7a817bec-5685-4e8a-a65c-103a0ffa1604","ios":"levelo://app?vid=7a817bec-5685-4e8a-a65c-103a0ffa1604"},"vehicle_type_id":"4","last_reported":1762679387,"current_range_meters":19200,"station_id":"ce4bhbh2rcd13ifvqeqg","pricing_plan_id":"cebpf4jnsgd1na2vs0mg"},{"bike_id":"a17e4c74-5774-4556-8e8d-3f21edde9d59","system_id":"levelo_inurba_marseille","lat":43.30582,"lon":5.38977,"is_reserved":false,"is_disabled":false,"rental_uris":{"android":"levelo://app?vid=a17e4c74-5774-4556-8e8d-3f21edde9d59","ios":"levelo://app?vid=a17e4c74-5774-4556-8e8d-3f21edde9d59"},"vehicle_type_id":"4","last_reported":1762679387,"current_range_meters":19200,"station_id":"","pricing_plan_id":"cebpf4jnsgd1na2vs0mg"},{"bike_id":"9005ba9f-0f01-40da-beb1-f7f4c248fcd0","system_id":"levelo_inurba_marseille","lat":43.2923,"lon":5.36048,"is_reserved":false,"is_disabled":false,"rental_uris":{"android":"levelo://app?vid=9005ba9f-0f01-40da-beb1-f7f4c248fcd0","ios":"levelo://app?vid=9005ba9f-0f01-40da-beb1-f7f4c248fcd0"},"vehicle_type_id":"4","last_reported":1762679387,"current_range_meters":19200,"station_id":"ce4bhbh2rcd13ifvqeqg","pricing_plan_id":"cebpf4jnsgd1na2vs0mg"},{"bike_id":"58afb123-caf0-4f8c-8a2d-b3a6669c0bc6","system_id":"levelo_inurba_marseille","lat":43.248008,"lon":5.374569,"is_reserved":false,"is_disabled":true,"rental_uris":{"android":"levelo://app?vid=58afb123-caf0-4f8c-8a2d-b3a6669c0bc6","ios":"levelo://app?vid=58afb123-caf0-4f8c-8a2d-b3a6669c0bc6"},"vehicle_type_id":"4","last_reported":1762679387,"current_range_meters":19200,"station_id":"","pricing_plan_id":"cebpf4jnsgd1na2vs0mg"},{"bike_id":"d19dc1b3-ba80-47da-b48d-afdb6e207b20","system_id":"levelo_inurba_marseille","lat":43.23193,"lon":5.35549,"is_reserved":false,"is_disabled":false,"rental_uris":{"android":"levelo://app?vid=d19dc1b3-ba80-47da-b48d-afdb6e207b20","ios":"levelo://app?vid=d19dc1b3-ba80-47da-b48d-afdb6e207b20"},"vehicle_type_id":"4","last_reported":1762679387,"current_range_meters":19200,"station_id":"ce4bhu92rcd13ifvqi70","pricing_plan_id":"cebpf4jnsgd1na2vs0mg"},{"bike_id":"93b49ebf-d9fa-49cd-9da3-22e867a810f3","system_id":"levelo_inurba_marseille","lat":43.297432,"lon":5.41108,"is_reserved":false,"is_disabled":false,"rental_uris":{"android":"levelo://app?vid=93b49ebf-d9fa-49cd-9da3-22e867a810f3","ios":"levelo://app?vid=93b49ebf-d9fa-49cd-9da3-22e867a810f3"},"vehicle_type_id":"4","last_reported":1762679387,"current_range_meters":19200,"station_id":"","pricing_plan_id":"cebpf4jnsgd1na2vs0mg"},{"bike_id":"f544e609-5f6e-49a9-8527-f1f86f491bca","system_id":"levelo_inurba_marseille","lat":43.246366,"lon":5.431447,"is_reserved":false,"is_disabled":false,"rental_uris":{"android":"levelo://app?vid=f544e609-5f6e-49a9-8527-f1f86f491bca","ios":"levelo://app?vid=f544e609-5f6e-49a9-8527-f1f86f491bca"},"vehicle_type_id":"4","last_reported":1762679387,"current_range_meters":19200,"station_id":"st_d2m6c4gdas8pm72e190g","pricing_plan_id":"cebpf4jnsgd1na2vs0mg"},{"bike_id":"bd5f8506-f345-40e8-ae51-1efb099c8943","system_id":"levelo_inurba_marseille","lat":43.32689,"lon":5.392075,"is_reserved":false,"is_disabled":false,"rental_uris":{"android":"levelo://app?vid=bd5f8506-f345-40e8-ae51-1efb099c8943","ios":"levelo://app?vid=bd5f8506-f345-40e8-ae51-1efb099c8943"},"vehicle_type_id":"4","last_reported":1762679387,"current_range_meters":19200,"station_id":"","pricing_plan_id":"cebpf4jnsgd1na2vs0mg"},