{"last_updated":1736356065,"ttl":60,"version":"2.2","data":{"bikes":[{"bike_id":"e53ee841-b694-4ec4-b3ba-f18d13a12fbf","system_id":"levelo_inurba_marseille","lat":43.33011,"lon":5.39039,"is_reserved":false,"is_disabled":false,"rental_uris":{"android":"levelo://app?vid=e53ee841-b694-4ec4-b3ba-f18d13a12fbf","ios":"levelo://app?vid=e53ee841-b694-4ec4-b3ba-f18d13a12fbf"},"vehicle_type_id":"4","last_reported":1736356065,"current_range_meters":19600,"station_id":"ce4bhr92rcd13ifvqhrg","pricing_plan_id":"cebpf4jnsgd1na2vs0mg"},{"bike_id":"424b02a3-71fc-4629-934b-0ffcd9c06e9e","system_id":"levelo_inurba_marseille","lat":43.308889,"lon":5.39655,"is_reserved":false,"is_disabled":false,"rental_uris":{"android":"levelo://app?vid=424b02a3-71fc-4629-934b-0ffcd9c06e9e","ios":"levelo://app?vid=424b02a3-71fc-4629-934b-0ffcd9c06e9e"},"vehicle_type_id":"4","last_reported":1736356065,"current_range_meters":38800,"station_id":"ce4bh012rcd13ifvqcv0","pricing_plan_id":"cebpf4jnsgd1na2vs0mg"},{"bike_id":"079a2489-d193-414b-8b47-82e93bfb4b65","system_id":"levelo_inurba_marseille","lat":43.288948,"lon":5.37993,"is_reserved":false,"is_disabled":false,"rental_uris":{"android":"levelo://app?vid=079a2489-d193-414b-8b47-82e93bfb4b65","ios":"levelo://app?vid=079a2489-d193-414b-8b47-82e93bfb4b65"},"vehicle_type_id":"4","last_reported":1736356065,"current_range_meters":37600,"station_id":"","pricing_plan_id":"cebpf4jnsgd1na2vs0mg"},{"bike_id":"31010968-cae9-4e3c-9ab2-3cb8a752c00d","system_id":"levelo_inurba_marseille","lat":43.26563,"lon":5.39013,"is_reserved":false,"is_disabled":false,"rental_uris":{"android":"levelo://app?vid=31010968-cae9-4e3c-9ab2-3cb8a752c00d","ios":"levelo://app?vid=31010968-cae9-4e3c-9ab2-3cb8a752c00d"},"vehicle_type_id":"4","last_reported":1736356065,"current_range_meters":20800,"station_id":"ce4bhe12rcd13ifvqf30","pricing_plan_id":"cebpf4jnsgd1na2vs0mg"},{"bike_id":"d1244aa9-0aef-4cc0-95b0-1ab2bc0f68a2","system_id":"levelo_inurba_marseille","lat":43.271911,"lon":5.410026,"is_reserved":false,"is_disabled":false,"rental_uris":{"android":"levelo://app?vid=d1244aa9-0aef-4cc0-95b0-1ab2bc0f68a2","ios":"levelo://app?vid=d1244aa9-0aef-4cc0-95b0-1ab2bc0f68a2"},"vehicle_type_id":"4","last_reported":1736356065,"current_range_meters":37600,"station_id":"ce4bhl12rcd13ifvqgf0","pricing_plan_id":"cebpf4jnsgd1na2vs0mg"},{"bike_id":"95441836-7d57-4a6c-8cdb-64e7d50c6a32","system_id":"levelo_inurba_marseille","lat":43.25872,"lon":5.39895,"is_reserved":false,"is_disabled":false,"rental_uris":{"android":"levelo://app?vid=95441836-7d57-4a6c-8cdb-64e7d50c6a32","ios":"levelo://app?vid=95441836-7d57-4a6c-8cdb-64e7d50c6a32"},"vehicle_type_id":"4","last_reported":1736356065,"current_range_meters":38800,"station_id":"ce4bhl92rcd13ifvqghg","pricing_plan_id":"cebpf4jnsgd1na2vs0mg"},{"bike_id":"43f98a94-359b-46a3-9f7a-10237f3a2ee6","system_id":"levelo_inurba_marseille","lat":43.30327,"lon":5.40438,"is_reserved":false,"is_disabled":false,"rental_uris":{"android":"levelo://app?vid=43f98a94-359b-46a3-9f7a-10237f3a2ee6","ios":"levelo://app?vid=43f98a94-359b-46a3-9f7a-10237f3a2ee6"},"vehicle_type_id":"4","last_reported":1736356065,"current_range_meters":38800,"station_id":"ce4bh012rcd13ifvqd10","pricing_plan_id":"cebpf4jnsgd1na2vs0mg"},{"bike_id":"784c114c-6b4b-4d66-8437-8a364b7d7999","system_id":"levelo_inurba_marseille","lat":43.3376,"lon":5.39172,"is_reserved":false,"is_disabled":false,"rental_uris":{"android":"levelo://app?vid=784c114c-6b4b-4d66-8437-8a364b7d7999","ios":"levelo://app?vid=784c114c-6b4b-4d66-8437-8a364b7d7999"},"vehicle_type_id":"4","last_reported":1736356065,"current_range_meters":34800,"station_id":"ce4bhr92rcd13ifvqhsg","pricing_plan_id":"cebpf4jnsgd1na2vs0mg"},{"bike_id":"2d20b6b5-32c6-4efa-ac67-3ef11bb114d4","system_id":"levelo_inurba_marseille","lat":43.29428,"lon":5.38624,"is_reserved":false,"is_disabled":true,"rental_uris":{"android":"levelo://app?vid=2d20b6b5-32c6-4efa-ac67-3ef11bb114d4","ios":"levelo://app?vid=2d20b6b5-32c6-4efa-ac67-3ef11bb114d4"},"vehicle_type_id":"4","last_reported":1736356065,"current_range_meters":0,"station_id":"ce4bh2h2rcd13ifvqdh0","pricing_plan_id":"cebpf4jnsgd1na2vs0mg"},{"bike_id":"2a250d61-8a11-4f0c-8194-7f90eada69de","system_id":"levelo_inurba_marseille","lat":43.31328,"lon":5.3968,"is_reserved":false,"is_disabled":false,"rental_uris":{"android":"levelo://app?vid=2a250d61-8a11-4f0c-8194-7f90eada69de","ios":"levelo://app?vid=2a250d61-8a11-4f0c-8194-7f90eada69de"},"vehicle_type_id":"4","last_reported":1736356065,"current_range_meters":27600,"station_id":"ce4bgvp2rcd13ifvqcu0","pricing_plan_id":"cebpf4jnsgd1na2vs0mg"},{"bike_id":"be78eeb8-0352-4d6d-b539-175bed2fcb03","system_id":"levelo_inurba_marseille","lat":43.2846,"lon":5.3589,"is_reserved":false,"is_disabled":false,"rental_uris":{"android":"levelo://app?vid=be78eeb8-0352-4d6d-b539-175bed2fcb03","ios":"levelo://app?vid=be78eeb8-0352-4d6d-b539-175bed2fcb03"},"vehicle_type_id":"4","last_reported":1736356065,"current_range_meters":28800,"station_id":"ce4bhah2rcd13ifvqei0","pricing_plan_id":"cebpf4jnsgd1na2vs0mg"},{"bike_id":"f40a23e1-4db4-43c9-bf26-5d3436aadc87","system_id":"levelo_inurba_marseille","lat":43.28339,"lon":5.38628,"is_reserved":false,"is_disabled":true,"rental_uris":{"android":"levelo://app?vid=f40a23e1-4db4-43c9-bf26-5d3436aadc87","ios":"levelo://app?vid=f40a23e1-4db4-43c9-bf26-5d3436aadc87"},"vehicle_type_id":"4","last_reported":1736356065,"current_range_meters":36800,"station_id":"ce4bh492rcd13ifvqdvg","pricing_plan_id":"cebpf4jnsgd1na2vs0mg"},{"bike_id":"a8ce43be-4cc1-4b4c-a3a3-d5048bc9b7fa","system_id":"levelo_inurba_marseille","lat":43.33015,"lon":5.39038,"is_reserved":false,"is_disabled":false,"rental_uris":{"android":"levelo://app?vid=a8ce43be-4cc1-4b4c-a3a3-d5048bc9b7fa","ios":"levelo://app?vid=a8ce43be-4cc1-4b4c-a3a3-d5048bc9b7fa"},"vehicle_type_id":"4","last_reported":1736356065,"current_range_meters":37600,"station_id":"ce4bhr92rcd13ifvqhrg","pricing_plan_id":"cebpf4jnsgd1na2vs0mg"},{"bike_id":"73eb524f-2d58-4a00-9fa5-76f6077910dd","system_id":"levelo_inurba_marseille","lat":43.23193,"lon":5.39995,"is_reserved":false,"is_disabled":true,"rental_uris":{"android":"levelo://app?vid=73eb524f-2d58-4a00-9fa5-76f6077910dd","ios":"levelo://app?vid=73eb524f-2d58-4a00-9fa5-76f6077910dd"},"vehicle_type_id":"4","last_reported":1736356065,"current_range_meters":12000,"station_id":"ce4bhn12rcd13ifvqgqg","pricing_plan_id":"cebpf4jnsgd1na2vs0mg"},{"bike_id":"c13e404c-3822-47fa-98e3-b2f91eef48ac","system_id":"levelo_inurba_marseille","lat":43.28928,"lon":5.39703,"is_reserved":false,"is_disabled":false,"rental_uris":{"android":"levelo://app?vid=c13e404c-3822-47fa-98e3-b2f91eef48ac","ios":"levelo://app?vid=c13e404c-3822-47fa-98e3-b2f91eef48ac"},"vehicle_type_id":"4","last_reported":1736356065,"current_range_meters":16400,"station_id":"","pricing_plan_id":"cebpf4jnsgd1na2vs0mg"},{"bike_id":"2199d219-e0ca-4b28-a772-ba63161f237a","system_id":"levelo_inurba_marseille","lat":43.32122,"lon":5.36796,"is_reserved":false,"is_disabled":false,"rental_uris":{"android":"levelo://app?vid=2199d219-e0ca-4b28-a772-ba63161f237a","ios":"levelo://app?vid=2199d219-e0ca-4b28-a772-ba63161f237a"},"vehicle_type_id":"4","last_reported":1736356065,"current_range_meters":18000,"station_id":"ce4bhrh2rcd13ifvqhug","pricing_plan_id":"cebpf4jnsgd1na2vs0mg"},{"bike_id":"54ec9102-0bb8-4aef-876d-986f3750ee3e","system_id":"levelo_inurba_marseille","lat":43.26776,"lon":5.39413,"is_reserved":false,"is_disabled":false,"rental_uris":{"android":"levelo://app?vid=54ec9102-0bb8-4aef-876d-986f3750ee3e","ios":"levelo://app?vid=54ec9102-0bb8-4aef-876d-986f3750ee3e"},"vehicle_type_id":"4","last_reported":1736356065,"current_range_meters":36400,"station_id":"ce4bhh12rcd13ifvqfg0","pricing_plan_id":"cebpf4jnsgd1na2vs0mg"},{"bike_id":"57c4f29a-4c3a-46c7-b489-c2dfb21b38d8","system_id":"levelo_inurba_marseille","lat":43.28663,"lon":5.3634,"is_reserved":false,"is_disabled":false,"rental_uris":{"android":"levelo://app?vid=57c4f29a-4c3a-46c7-b489-c2dfb21b38d8","ios":"levelo://app?vid=57c4f29a-4c3a-46c7-b489-c2dfb21b38d8"},"vehicle_type_id":"4","last_reported":1736356065,"current_range_meters":11600,"station_id":"ce4bhah2rcd13ifvqej0","pricing_plan_id":"cebpf4jnsgd1na2vs0mg"},{"bike_id":"7acd47a1-9ff2-4095-b1b7-7c8bf58dfd0c","system_id":"levelo_inurba_marseille","lat":43.29574,"lon":5.39985,"is_reserved":false,"is_disabled":false,"rental_uris":{"android":"levelo://app?vid=7acd47a1-9ff2-4095-b1b7-7c8bf58dfd0c","ios":"levelo://app?vid=7acd47a1-9ff2-4095-b1b7-7c8bf58dfd0c"},"vehicle_type_id":"4","last_reported":1736356065,"current_range_meters":5600,"station_id":"ce4bh312rcd13ifvqdj0","pricing_plan_id":"cebpf4jnsgd1na2vs0mg"},{"bike_id":"e9811af6-2b58-44bf-8a8f-1cf010738c20","system_id":"levelo_inurba_marseille","lat":43.23226,"lon":5.39949,"is_reserved":false,"is_disabled":false,"rental_uris":{"android":"levelo://app?vid=e9811af6-2b58-44bf-8a8f-1cf010738c20","ios":"levelo://app?vid=e9811af6-2b58-44bf-8a8f-1cf010738c20"},"vehicle_type_id":"4","last_reported":1736356065,"current_range_meters":27200,"station_id":"","pricing_plan_id":"cebpf4jnsgd1na2vs0mg"},{"bike_id":"c2db8e30-9123-457b-9793-749757086728","system_id":"levelo_inurba_marseille","lat":43.29052,"lon":5.37164,"is_reserved":false,"is_disabled":false,"rental_uris":{"android":"levelo://app?vid=c2db8e30-9123-457b-9793-749757086728","ios":"levelo://app?vid=c2db8e30-9123-457b-9793-749757086728"},"vehicle_type_id":"4","last_reported":1736356065,"current_range_meters":15200,"station_id":"ce4bh5p2rcd13ifvqe4g","pricing_plan_id":"cebpf4jnsgd1na2vs0mg"},{"bike_id":"5f01e351-0beb-4bec-99a6-8ccfaafab549","system_id":"levelo_inurba_marseille","lat":43.29025,"lon":5.38143,"is_reserved":false,"is_disabled":true,"rental_uris":{"android":"levelo://app?vid=5f01e351-0beb-4bec-99a6-8ccfaafab549","ios":"levelo://app?vid=5f01e351-0beb-4bec-99a6-8ccfaafab549"},"vehicle_type_id":"4","last_reported":1736356065,"current_range_meters":38800,"station_id":"ce4bh4p2rcd13ifvqe1g","pricing_plan_id":"cebpf4jnsgd1na2vs0mg"},{"bike_id":"de1eee12-3f63-40b1-b326-e706897b2471","system_id":"levelo_inurba_marseille","lat":43.26199,"lon":5.37935,"is_reserved":false,"is_disabled":false,"rental_uris":{"android":"levelo://app?vid=de1eee12-3f63-40b1-b326-e706897b2471","ios":"levelo://app?vid=de1eee12-3f63-40b1-b326-e706897b2471"},"vehicle_type_id":"4","last_reported":1736356065,"current_range_meters":36800,"station_id":"ce4bhjp2rcd13ifvqg90","pricing_plan_id":"cebpf4jnsgd1na2vs0mg"},{"bike_id":"b3e8a142-768b-4d34-93d8-6fd0d09a4f96","system_id":"levelo_inurba_marseille","lat":43.32656,"lon":5.40979,"is_reserved":false,"is_disabled":false,"rental_uris":{"android":"levelo://app?vid=b3e8a142-768b-4d34-93d8-6fd0d09a4f96","ios":"levelo://app?vid=b3e8a142-768b-4d34-93d8-6fd0d09a4f96"},"vehicle_type_id":"4","last_reported":1736356065,"current_range_meters":35200,"station_id":"ce4bhpp2rcd13ifvqhgg","pricing_plan_id":"cebpf4jnsgd1na2vs0mg"},{"bike_id":"87f4c409-a8ca-412c-b5e1-d59f3635ae4a","system_id":"levelo_inurba_marseille","lat":43.29369,"lon":5.37856,"is_reserved":false,"is_disabled":false,"rental_uris":{"android":"levelo://app?vid=87f4c409-a8ca-412c-b5e1-d59f3635ae4a","ios":"levelo://app?vid=87f4c409-a8ca-412c-b5e1-d59f3635ae4a"},"vehicle_type_id":"4","last_reported":1736356065,"current_range_meters":4000,"station_id":"ce4bgjh2rcd13ifvqbf0","pricing_plan_id":"cebpf4jnsgd1na2vs0mg"},{"bike_id":"df02e1b6-3a50-4ccf-933f-7b5e41abfc53","system_id":"levelo_inurba_marseille","lat":43.31326,"lon":5.39704,"is_reserved":false,"is_disabled":false,"rental_uris":{"android":"levelo://app?vid=df02e1b6-3a50-4ccf-933f-7b5e41abfc53","ios":"levelo://app?vid=df02e1b6-3a50-4ccf-933f-7b5e41abfc53"},"vehicle_type_id":"4","last_reported":1736356065,"current_range_meters":38800,"station_id":"ce4bgvp2rcd13ifvqcu0","pricing_plan_id":"cebpf4jnsgd1na2vs0mg"},{"bike_id":"e601d8b6-f206-400a-be15-a8cb866ef7c3","system_id":"levelo_inurba_marseille","lat":43.29373,"lon":5.37854,"is_reserved":false,"is_disabled":true,"rental_uris":{"android":"levelo://app?vid=e601d8b6-f206-400a-be15-a8cb866ef7c3","ios":"levelo://app?vid=e601d8b6-f206-400a-be15-a8cb866ef7c3"},"vehicle_type_id":"4","last_reported":1736356065,"current_range_meters":38800,"station_id":"ce4bgjh2rcd13ifvqbf0","pricing_plan_id":"cebpf4jnsgd1na2vs0mg"},{"bike_id":"be4c59f4-a498-44be-a430-245c96b05e75","system_id":"levelo_inurba_marseille","lat":43.328573,"lon":5.391634,"is_reserved":false,"is_disabled":false,"rental_uris":{"android":"levelo://app?vid=be4c59f4-a498-44be-a430-245c96b05e75","ios":"levelo://app?vid=be4c59f4-a498-44be-a430-245c96b05e75"},"vehicle_type_id":"4","last_reported":1736356065,"current_range_meters":16000,"station_id":"","pricing_plan_id":"cebpf4jnsgd1na2vs0mg"},{"bike_id":"feeeae9a-4bcc-477a-bc8c-e9391fa8aedd","system_id":"levelo_inurba_marseille","lat":43.29187,"lon":5.39322,"is_reserved":false,"is_disabled":true,"rental_uris":{"android":"levelo://app?vid=feeeae9a-4bcc-477a-bc8c-e9391fa8aedd","ios":"levelo://app?vid=feeeae9a-4bcc-477a-bc8c-e9391fa8aedd"},"vehicle_type_id":"4","last_reported":1736356065,"current_range_meters":2800,"station_id":"ce4bh192rcd13ifvqdd0","pricing_plan_id":"cebpf4jnsgd1na2vs0mg"},{"bike_id":"1dcd6fff-abda-4c1a-a5b6-6f56dff54d32","system_id":"levelo_inurba_marseille","lat":43.29537,"lon":5.39399,"is_reserved":false,"is_disabled":false,"rental_uris":{"android":"levelo://app?vid=1dcd6fff-abda-4c1a-a5b6-6f56dff54d32","ios":"levelo://app?vid=1dcd6fff-abda-4c1a-a5b6-6f56dff54d32"},"vehicle_type_id":"4","last_reported":1736356065,"current_range_meters":32000,"station_id":"ce4bh292rcd13ifvqdf0","pricing_plan_id":"cebpf4jnsgd1na2vs0mg"},{"bike_id":"dbe4d7d2-95f9-4a28-b000-f9ac7c3f52eb","system_id":"levelo_inurba_marseille","lat":43.29194,"lon":5.39357,"is_reserved":false,"is_disabled":true,"rental_uris":{"android":"levelo://app?vid=dbe4d7d2-95f9-4a28-b000-f9ac7c3f52eb","ios":"levelo://app?vid=dbe4d7d2-95f9-4a28-b000-f9ac7c3f52eb"},"vehicle_type_id":"4","last_reported":1736356065,"current_range_meters":3200,"station_id":"","pricing_plan_id":"cebpf4jnsgd1na2vs0mg"},{"bike_id":"8dbe984d-a495-4550-9f90-89df3bd24be5","system_id":"levelo_inurba_marseille","lat":43.323026,"lon":5.382652,"is_reserved":false,"is_disabled":false,"rental_uris":{"android":"levelo://app?vid=8dbe984d-a495-4550-9f90-89df3bd24be5","ios":"levelo://app?vid=8dbe984d-a495-4550-9f90-89df3bd24be5"},"vehicle_type_id":"4","last_reported":1736356065,"current_range_meters":5600,"station_id":"ce4bhr12rcd13ifvqhqg","pricing_plan_id":"cebpf4jnsgd1na2vs0mg"},{"bike_id":"b02ae6ee-06d8-4b9f-9872-c8fcf9b7576a","system_id":"levelo_inurba_marseille","lat":43.30552,"lon":5.36539,"is_reserved":false,"is_disabled":true,"rental_uris":{"android":"levelo://app?vid=b02ae6ee-06d8-4b9f-9872-c8fcf9b7576a","ios":"levelo://app?vid=b02ae6ee-06d8-4b9f-9872-c8fcf9b7576a"},"vehicle_type_id":"4","last_reported":1736356065,"current_range_meters":24400,"station_id":"ce4bgs12rcd13ifvqcag","pricing_plan_id":"cebpf4jnsgd1na2vs0mg"},{"bike_id":"6c8c065c-4f64-45a3-975e-0153510e3a84","system_id":"levelo_inurba_marseille","lat":43.25583,"lon":5.38222,"is_reserved":false,"is_disabled":false,"rental_uris":{"android":"levelo://app?vid=6c8c065c-4f64-45a3-975e-0153510e3a84","ios":"levelo://app?vid=6c8c065c-4f64-45a3-975e-0153510e3a84"},"vehicle_type_id":"4","last_reported":1736356065,"current_range_meters":16400,"station_id":"ce4bhih2rcd13ifvqfs0","pricing_plan_id":"cebpf4jnsgd1na2vs0mg"},{"bike_id":"aebe2352-326e-4ac6-a0cd-f6b8ecb7471b","system_id":"levelo_inurba_marseille","lat":43.30931,"lon":5.40141,"is_reserved":false,"is_disabled":false,"rental_uris":{"android":"levelo://app?vid=aebe2352-326e-4ac6-a0cd-f6b8ecb7471b","ios":"levelo://app?vid=aebe2352-326e-4ac6-a0cd-f6b8ecb7471b"},"vehicle_type_id":"4","last_reported":1736356065,"current_range_meters":23200,"station_id":"ce4bgvp2rcd13ifvqct0","pricing_plan_id":"cebpf4jnsgd1na2vs0mg"},{"bike_id":"9aec225d-a400-4174-9206-a94af0438f62","system_id":"levelo_inurba_marseille","lat":43.29567,"lon":5.42275,"is_reserved":false,"is_disabled":false,"rental_uris":{"android":"levelo://app?vid=9aec225d-a400-4174-9206-a94af0438f62","ios":"levelo://app?vid=9aec225d-a400-4174-9206-a94af0438f62"},"vehicle_type_id":"4","last_reported":1736356065,"current_range_meters":10000,"station_id":"ce4bhph2rcd13ifvqhdg","pricing_plan_id":"cebpf4jnsgd1na2vs0mg"},{"bike_id":"e2acd9f6-5f33-4c0e-920c-54eacc624380","system_id":"levelo_inurba_marseille","lat":43.24651,"lon":5.38893,"is_reserved":false,"is_disabled":false,"rental_uris":{"android":"levelo://app?vid=e2acd9f6-5f33-4c0e-920c-54eacc624380","ios":"levelo://app?vid=e2acd9f6-5f33-4c0e-920c-54eacc624380"},"vehicle_type_id":"4","last_reported":1736356065,"current_range_meters":35200,"station_id":"ce4bhg12rcd13ifvqf60","pricing_plan_id":"cebpf4jnsgd1na2vs0mg"},{"bike_id":"1989341c-6af5-432f-bbb9-4276728e7d75","system_id":"levelo_inurba_marseille","lat":43.24641,"lon":5.389,"is_reserved":false,"is_disabled":false,"rental_uris":{"android":"levelo://app?vid=1989341c-6af5-432f-bbb9-4276728e7d75","ios":"levelo://app?vid=1989341c-6af5-432f-bbb9-4276728e7d75"},"vehicle_type_id":"4","last_reported":1736356065,"current_range_meters":19200,"station_id":"ce4bhg12rcd13ifvqf60","pricing_plan_id":"cebpf4jnsgd1na2vs0mg"},{"bike_id":"a3814904-b1bd-480e-b485-639be2f1d2ed","system_id":"levelo_inurba_marseille","lat":43.29797,"lon":5.40405,"is_reserved":false,"is_disabled":false,"rental_uris":{"android":"levelo://app?vid=a3814904-b1bd-480e-b485-639be2f1d2ed","ios":"levelo://app?vid=a3814904-b1bd-480e-b485-639be2f1d2ed"},"vehicle_type_id":"4","last_reported":1736356065,"current_range_meters":23200,"station_id":"ce4bh112rcd13ifvqd90","pricing_plan_id":"cebpf4jnsgd1na2vs0mg"},{"bike_id":"0bb18fce-6faa-40ab-8066-a4cf72d623a7","system_id":"levelo_inurba_marseille","lat":43.28713,"lon":5.37381,"is_reserved":false,"is_disabled":false,"rental_uris":{"android":"levelo://app?vid=0bb18fce-6faa-40ab-8066-a4cf72d623a7","ios":"levelo://app?vid=0bb18fce-6faa-40ab-8066-a4cf72d623a7"},"vehicle_type_id":"4","last_reported":1736356065,"current_range_meters":39200,"station_id":"ce4bh3p2rcd13ifvqdq0","pricing_plan_id":"cebpf4jnsgd1na2vs0mg"},{"bike_id":"76e10f59-9938-4eff-b8e2-2388523cdd7b","system_id":"levelo_inurba_marseille","lat":43.301672,"lon":5.366202,"is_reserved":false,"is_disabled":false,"rental_uris":{"android":"levelo://app?vid=76e10f59-9938-4eff-b8e2-2388523cdd7b","ios":"levelo://app?vid=76e10f59-9938-4eff-b8e2-2388523cdd7b"},"vehicle_type_id":"4","last_reported":1736356065,"current_range_meters":22400,"station_id":"ce4bgrh2rcd13ifvqc8g","pricing_plan_id":"cebpf4jnsgd1na2vs0mg"},{"bike_id":"83e7e804-2b99-4e06-93a6-e481d372b06c","system_id":"levelo_inurba_marseille","lat":43.27811,"lon":5.40716,"is_reserved":false,"is_disabled":false,"rental_uris":{"android":"levelo://app?vid=83e7e804-2b99-4e06-93a6-e481d372b06c","ios":"levelo://app?vid=83e7e804-2b99-4e06-93a6-e481d372b06c"},"vehicle_type_id":"4","last_reported":1736356065,"current_range_meters":32000,"station_id":"ce4bhnh2rcd13ifvqgtg","pricing_plan_id":"cebpf4jnsgd1na2vs0mg"},{"bike_id":"f5ca1501-67dc-4227-a538-3638c9573471","system_id":"levelo_inurba_marseille","lat":43.25725,"lon":5.41102,"is_reserved":false,"is_disabled":false,"rental_uris":{"android":"levelo://app?vid=f5ca1501-67dc-4227-a538-3638c9573471","ios":"levelo://app?vid=f5ca1501-67dc-4227-a538-3638c9573471"},"vehicle_type_id":"4","last_reported":1736356065,"current_range_meters":38800,"station_id":"ce4bhkp2rcd13ifvqgd0","pricing_plan_id":"cebpf4jnsgd1na2vs0mg"},{"bike_id":"85eff86b-c3f9-4eae-ad2e-c9ad1645a25e","system_id":"levelo_inurba_marseille","lat":43.26568,"lon":5.39006,"is_reserved":false,"is_disabled":false,"rental_uris":{"android":"levelo://app?vid=85eff86b-c3f9-4eae-ad2e-c9ad1645a25e","ios":"levelo://app?vid=85eff86b-c3f9-4eae-ad2e-c9ad1645a25e"},"vehicle_type_id":"4","last_reported":1736356065,"current_range_meters":15200,"station_id":"ce4bhe12rcd13ifvqf30","pricing_plan_id":"cebpf4jnsgd1na2vs0mg"},{"bike_id":"e0c5bcca-f38c-4415-8d3c-64dad8e411d9","system_id":"levelo_inurba_marseille","lat":43.27376,"lon":5.36256,"is_reserved":false,"is_disabled":false,"rental_uris":{"android":"levelo://app?vid=e0c5bcca-f38c-4415-8d3c-64dad8e411d9","ios":"levelo://app?vid=e0c5bcca-f38c-4415-8d3c-64dad8e411d9"},"vehicle_type_id":"4","last_reported":1736356065,"current_range_meters":38800,"station_id":"ce4bhbh2rcd13ifvqeo0","pricing_plan_id":"cebpf4jnsgd1na2vs0mg"},{"bike_id":"128e494f-c5f6-49d1-8da7-12ffc5ea9838","system_id":"levelo_inurba_marseille","lat":43.24165,"lon":5.36397,"is_reserved":false,"is_disabled":false,"rental_uris":{"android":"levelo://app?vid=128e494f-c5f6-49d1-8da7-12ffc5ea9838","ios":"levelo://app?vid=128e494f-c5f6-49d1-8da7-12ffc5ea9838"},"vehicle_type_id":"4","last_reported":1736356065,"current_range_meters":16400,"station_id":"cpo36qri1sfpv3e86is0","pricing_plan_id":"cebpf4jnsgd1na2vs0mg"},{"bike_id":"87cd4c8e-dd31-49cb-a754-0e97614559ef","system_id":"levelo_inurba_marseille","lat":43.29385,"lon":5.37856,"is_reserved":false,"is_disabled":false,"rental_uris":{"android":"levelo://app?vid=87cd4c8e-dd31-49cb-a754-0e97614559ef","ios":"levelo://app?vid=87cd4c8e-dd31-49cb-a754-0e97614559ef"},"vehicle_type_id":"4","last_reported":1736356065,"current_range_meters":30800,"station_id":"ce4bgjh2rcd13ifvqbf0","pricing_plan_id":"cebpf4jnsgd1na2vs0mg"},{"bike_id":"afd4d053-5b2c-4b95-974c-108689eb1cdd","system_id":"levelo_inurba_marseille","lat":43.27185,"lon":5.40998,"is_reserved":false,"is_disabled":false,"rental_uris":{"android":"levelo://app?vid=afd4d053-5b2c-4b95-974c-108689eb1cdd","ios":"levelo://app?vid=afd4d053-5b2c-4b95-974c-108689eb1cdd"},"vehicle_type_id":"4","last_reported":1736356065,"current_range_meters":38000,"station_id":"ce4bhl12rcd13ifvqgf0","pricing_plan_id":"cebpf4jnsgd1na2vs0mg"},{"bike_id":"a0ea376d-9064-4b49-8eb9-bb53b0ba8aef","system_id":"levelo_inurba_marseille","lat":43.30325,"lon":5.40437,"is_reserved":false,"is_disabled":false,"rental_uris":{"android":"levelo://app?vid=a0ea376d-9064-4b49-8eb9-bb53b0ba8aef","ios":"levelo://app?vid=a0ea376d-9064-4b49-8eb9-bb53b0ba8aef"},"vehicle_type_id":"4","last_reported":1736356065,"current_range_meters":15200,"station_id":"ce4bh012rcd13ifvqd10","pricing_plan_id":"cebpf4jnsgd1na2vs0mg"},{"bike_id":"607f36c7-3f25-43a0-aea5-52069d6de697","system_id":"levelo_inurba_marseille","lat":43.28706,"lon":5.3739,"is_reserved":false,"is_disabled":false,"rental_uris":{"android":"levelo://app?vid=607f36c7-3f25-43a0-aea5-52069d6de697","ios":"levelo://app?vid=607f36c7-3f25-43a0-aea5-52069d6de697"},"vehicle_type_id":"4","last_reported":1736356065,"current_range_meters":28400,"station_id":"ce4bh3p2rcd13ifvqdq0","pricing_plan_id":"cebpf4jnsgd1na2vs0mg"},{"bike_id":"7e647b87-ee39-48c8-8a57-8ca415c7293d","system_id":"levelo_inurba_marseille","lat":43.23058,"lon":5.35491,"is_reserved":false,"is_disabled":false,"rental_uris":{"android":"levelo://app?vid=7e647b87-ee39-48c8-8a57-8ca415c7293d","ios":"levelo://app?vid=7e647b87-ee39-48c8-8a57-8ca415c7293d"},"vehicle_type_id":"4","last_reported":1736356065,"current_range_meters":36800,"station_id":"cpo3342slgdg3j2ifvpg","pricing_plan_id":"cebpf4jnsgd1na2vs0mg"},{"bike_id":"aceef6fa-931b-41fa-a6dc-a1210054114a","system_id":"levelo_inurba_marseille","lat":43.24544,"lon":5.39523,"is_reserved":false,"is_disabled":false,"rental_uris":{"android":"levelo://app?vid=aceef6fa-931b-41fa-a6dc-a1210054114a","ios":"levelo://app?vid=aceef6fa-931b-41fa-a6dc-a1210054114a"},"vehicle_type_id":"4","last_reported":1736356065,"current_range_meters":36800,"station_id":"ce4bhlp2rcd13ifvqgjg","pricing_plan_id":"cebpf4jnsgd1na2vs0mg"},{"bike_id":"531ec133-6663-49ae-861e-9917a3ad1e75","system_id":"levelo_inurba_marseille","lat":43.27835,"lon":5.39202,"is_reserved":false,"is_disabled":false,"rental_uris":{"android":"levelo://app?vid=531ec133-6663-49ae-861e-9917a3ad1e75","ios":"levelo://app?vid=531ec133-6663-49ae-861e-9917a3ad1e75"},"vehicle_type_id":"4","last_reported":1736356065,"current_range_meters":8000,"station_id":"ce4bhjp2rcd13ifvqga0","pricing_plan_id":"cebpf4jnsgd1na2vs0mg"},{"bike_id":"102cb488-e37e-4a25-ae00-7f174450be41","system_id":"levelo_inurba_marseille","lat":43.275617,"lon":5.384248,"is_reserved":false,"is_disabled":true,"rental_uris":{"android":"levelo://app?vid=102cb488-e37e-4a25-ae00-7f174450be41","ios":"levelo://app?vid=102cb488-e37e-4a25-ae00-7f174450be41"},"vehicle_type_id":"4","last_reported":1736356065,"current_range_meters":800,"station_id":"ce4bhh92rcd13ifvqfi0","pricing_plan_id":"cebpf4jnsgd1na2vs0mg"},{"bike_id":"295b1cd6-ba86-4be2-a2a5-dfa1adb3f42f","system_id":"levelo_inurba_marseille","lat":43.31071,"lon":5.40096,"is_reserved":false,"is_disabled":false,"rental_uris":{"android":"levelo://app?vid=295b1cd6-ba86-4be2-a2a5-dfa1adb3f42f","ios":"levelo://app?vid=295b1cd6-ba86-4be2-a2a5-dfa1adb3f42f"},"vehicle_type_id":"4","last_reported":1736356065,"current_range_meters":38800,"station_id":"","pricing_plan_id":"cebpf4jnsgd1na2vs0mg"},{"bike_id":"eb0656b7-67de-4260-b67c-b9031deeaa0d","system_id":"levelo_inurba_marseille","lat":43.29056,"lon":5.35913,"is_reserved":false,"is_disabled":false,"rental_uris":{"android":"levelo://app?vid=eb0656b7-67de-4260-b67c-b9031deeaa0d","ios":"levelo://app?vid=eb0656b7-67de-4260-b67c-b9031deeaa0d"},"vehicle_type_id":"4","last_reported":1736356065,"current_range_meters":11600,"station_id":"ce4bha92rcd13ifvqeg0","pricing_plan_id":"cebpf4jnsgd1na2vs0mg"},{"bike_id":"c00adc61-52cb-4003-80be-896057156f78","system_id":"levelo_inurba_marseille","lat":43.25573,"lon":5.38238,"is_reserved":false,"is_disabled":false,"rental_uris":{"android":"levelo://app?vid=c00adc61-52cb-4003-80be-896057156f78","ios":"levelo://app?vid=c00adc61-52cb-4003-80be-896057156f78"},"vehicle_type_id":"4","last_reported":1736356065,"current_range_meters":35200,"station_id":"ce4bhih2rcd13ifvqfs0","pricing_plan_id":"cebpf4jnsgd1na2vs0mg"},{"bike_id":"4db3f818-4750-4b0f-bfb7-7f7f491458d7","system_id":"levelo_inurba_marseille","lat":43.28847,"lon":5.35862,"is_reserved":false,"is_disabled":false,"rental_uris":{"android":"levelo://app?vid=4db3f818-4750-4b0f-bfb7-7f7f491458d7","ios":"levelo://app?vid=4db3f818-4750-4b0f-bfb7-7f7f491458d7"},"vehicle_type_id":"4","last_reported":1736356065,"current_range_meters":38800,"station_id":"ce4bhb12rcd13ifvqem0","pricing_plan_id":"cebpf4jnsgd1na2vs0mg"},{"bike_id":"11d07089-c5fa-485c-a301-bf7c13747aef","system_id":"levelo_inurba_marseille","lat":43.28615,"lon":5.3705,"is_reserved":false,"is_disabled":false,"rental_uris":{"android":"levelo://app?vid=11d07089-c5fa-485c-a301-bf7c13747aef","ios":"levelo://app?vid=11d07089-c5fa-485c-a301-bf7c13747aef"},"vehicle_type_id":"4","last_reported":1736356065,"current_range_meters":32400,"station_id":"ce4bht12rcd13ifvqi60","pricing_plan_id":"cebpf4jnsgd1na2vs0mg"},{"bike_id":"e39f6b1f-389e-44fc-b750-d548ad83bcc0","system_id":"levelo_inurba_marseille","lat":43.26805,"lon":5.40261,"is_reserved":false,"is_disabled":false,"rental_uris":{"android":"levelo://app?vid=e39f6b1f-389e-44fc-b750-d548ad83bcc0","ios":"levelo://app?vid=e39f6b1f-389e-44fc-b750-d548ad83bcc0"},"vehicle_type_id":"4","last_reported":1736356065,"current_range_meters":36400,"station_id":"ce501612rcd8frsf0b60","pricing_plan_id":"cebpf4jnsgd1na2vs0mg"},{"bike_id":"80716bfe-ce4c-458a-a817-cd7a4ffc01a2","system_id":"levelo_inurba_marseille","lat":43.31716,"lon":5.37747,"is_reserved":false,"is_disabled":false,"rental_uris":{"android":"levelo://app?vid=80716bfe-ce4c-458a-a817-cd7a4ffc01a2","ios":"levelo://app?vid=80716bfe-ce4c-458a-a817-cd7a4ffc01a2"},"vehicle_type_id":"4","last_reported":1736356065,"current_range_meters":36000,"station_id":"ce4bgth2rcd13ifvqch0","pricing_plan_id":"cebpf4jnsgd1na2vs0mg"},{"bike_id":"f6a799ec-f653-4e00-9baf-61c8c0ea4636","system_id":"levelo_inurba_marseille","lat":43.24808,"lon":5.37471,"is_reserved":false,"is_disabled":false,"rental_uris":{"android":"levelo://app?vid=f6a799ec-f653-4e00-9baf-61c8c0ea4636","ios":"levelo://app?vid=f6a799ec-f653-4e00-9baf-61c8c0ea4636"},"vehicle_type_id":"4","last_reported":1736356065,"current_range_meters":16000,"station_id":"ce4bhgh2rcd13ifvqfb0","pricing_plan_id":"cebpf4jnsgd1na2vs0mg"},{"bike_id":"8f33b294-2c84-45c2-989d-b07deac2f792","system_id":"levelo_inurba_marseille","lat":43.25501,"lon":5.37647,"is_reserved":false,"is_disabled":false,"rental_uris":{"android":"levelo://app?vid=8f33b294-2c84-45c2-989d-b07deac2f792","ios":"levelo://app?vid=8f33b294-2c84-45c2-989d-b07deac2f792"},"vehicle_type_id":"4","last_reported":1736356065,"current_range_meters":8000,"station_id":"ce4bhh12rcd13ifvqff0","pricing_plan_id":"cebpf4jnsgd1na2vs0mg"},{"bike_id":"39faa2fe-395f-49c9-9056-e37436793a85","system_id":"levelo_inurba_marseille","lat":43.30324,"lon":5.40431,"is_reserved":false,"is_disabled":true,"rental_uris":{"android":"levelo://app?vid=39faa2fe-395f-49c9-9056-e37436793a85","ios":"levelo://app?vid=39faa2fe-395f-49c9-9056-e37436793a85"},"vehicle_type_id":"4","last_reported":1736356065,"current_range_meters":32000,"station_id":"ce4bh012rcd13ifvqd10","pricing_plan_id":"cebpf4jnsgd1na2vs0mg"},{"bike_id":"21fdd4e2-bbc1-43cb-86c0-97b28f9abeac","system_id":"levelo_inurba_marseille","lat":43.27821,"lon":5.40704,"is_reserved":false,"is_disabled":false,"rental_uris":{"android":"levelo://app?vid=21fdd4e2-bbc1-43cb-86c0-97b28f9abeac","ios":"levelo://app?vid=21fdd4e2-bbc1-43cb-86c0-97b28f9abeac"},"vehicle_type_id":"4","last_reported":1736356065,"current_range_meters":6400,"station_id":"ce4bhnh2rcd13ifvqgtg","pricing_plan_id":"cebpf4jnsgd1na2vs0mg"},{"bike_id":"995c0590-781a-4b91-89cd-c0aeaeb619c1","system_id":"levelo_inurba_marseille","lat":43.286121,"lon":5.37049,"is_reserved":false,"is_disabled":false,"rental_uris":{"android":"levelo://app?vid=995c0590-781a-4b91-89cd-c0aeaeb619c1","ios":"levelo://app?vid=995c0590-781a-4b91-89cd-c0aeaeb619c1"},"vehicle_type_id":"4","last_reported":1736356065,"current_range_meters":38800,"station_id":"ce4bht12rcd13ifvqi60","pricing_plan_id":"cebpf4jnsgd1na2vs0mg"},{"bike_id":"4057a6a5-62d0-4a8f-bb97-2a269af90373","system_id":"levelo_inurba_marseille","lat":43.25717,"lon":5.41119,"is_reserved":false,"is_disabled":true,"rental_uris":{"android":"levelo://app?vid=4057a6a5-62d0-4a8f-bb97-2a269af90373","ios":"levelo://app?vid=4057a6a5-62d0-4a8f-bb97-2a269af90373"},"vehicle_type_id":"4","last_reported":1736356065,"current_range_meters":0,"station_id":"ce4bhkp2rcd13ifvqgd0","pricing_plan_id":"cebpf4jnsgd1na2vs0mg"},{"bike_id":"7ebb43df-616b-455b-9dbe-27ebf4670007","system_id":"levelo_inurba_marseille","lat":43.30148,"lon":5.37403,"is_reserved":false,"is_disabled":false,"rental_uris":{"android":"levelo://app?vid=7ebb43df-616b-455b-9dbe-27ebf4670007","ios":"levelo://app?vid=7ebb43df-616b-455b-9dbe-27ebf4670007"},"vehicle_type_id":"4","last_reported":1736356065,"current_range_meters":8800,"station_id":"ce4bgs92rcd13ifvqcc0","pricing_plan_id":"cebpf4jnsgd1na2vs0mg"},{"bike_id":"4b1bcc07-82a7-477b-8def-610d4f653cb3","system_id":"levelo_inurba_marseille","lat":43.29026,"lon":5.38137,"is_reserved":false,"is_disabled":true,"rental_uris":{"android":"levelo://app?vid=4b1bcc07-82a7-477b-8def-610d4f653cb3","ios":"levelo://app?vid=4b1bcc07-82a7-477b-8def-610d4f653cb3"},"vehicle_type_id":"4","last_reported":1736356065,"current_range_meters":26800,"station_id":"ce4bh4p2rcd13ifvqe1g","pricing_plan_id":"cebpf4jnsgd1na2vs0mg"},{"bike_id":"b69e39e4-e108-465d-bddd-4ffc1dea8f10","system_id":"levelo_inurba_marseille","lat":43.25726,"lon":5.411,"is_reserved":false,"is_disabled":false,"rental_uris":{"android":"levelo://app?vid=b69e39e4-e108-465d-bddd-4ffc1dea8f10","ios":"levelo://app?vid=b69e39e4-e108-465d-bddd-4ffc1dea8f10"},"vehicle_type_id":"4","last_reported":1736356065,"current_range_meters":38800,"station_id":"ce4bhkp2rcd13ifvqgd0","pricing_plan_id":"cebpf4jnsgd1na2vs0mg"},{"bike_id":"f2536309-8d2b-4ccd-86e1-4c168080c77c","system_id":"levelo_inurba_marseille","lat":43.23189,"lon":5.3553,"is_reserved":false,"is_disabled":false,"rental_uris":{"android":"levelo://app?vid=f2536309-8d2b-4ccd-86e1-4c168080c77c","ios":"levelo://app?vid=f2536309-8d2b-4ccd-86e1-4c168080c77c"},"vehicle_type_id":"4","last_reported":1736356065,"current_range_meters":9600,"station_id":"ce4bhu92rcd13ifvqi70","pricing_plan_id":"cebpf4jnsgd1na2vs0mg"},{"bike_id":"8bcf41b6-deb6-4885-bd8e-ef97fb3f3142","system_id":"levelo_inurba_marseille","lat":43.28562,"lon":5.39506,"is_reserved":false,"is_disabled":false,"rental_uris":{"android":"levelo://app?vid=8bcf41b6-deb6-4885-bd8e-ef97fb3f3142","ios":"levelo://app?vid=8bcf41b6-deb6-4885-bd8e-ef97fb3f3142"},"vehicle_type_id":"4","last_reported":1736356065,"current_range_meters":35200,"station_id":"ce4bh292rcd13ifvqdg0","pricing_plan_id":"cebpf4jnsgd1na2vs0mg"},{"bike_id":"b8b738cb-ef0c-4357-b3a7-9b64021e64ef","system_id":"levelo_inurba_marseille","lat":43.33011,"lon":5.38975,"is_reserved":false,"is_disabled":false,"rental_uris":{"android":"levelo://app?vid=b8b738cb-ef0c-4357-b3a7-9b64021e64ef","ios":"levelo://app?vid=b8b738cb-ef0c-4357-b3a7-9b64021e64ef"},"vehicle_type_id":"4","last_reported":1736356065,"current_range_meters":37600,"station_id":"","pricing_plan_id":"cebpf4jnsgd1na2vs0mg"},{"bike_id":"bb636211-c010-46b6-b358-bf7db6dac6a4","system_id":"levelo_inurba_marseille","lat":43.29028,"lon":5.3813,"is_reserved":false,"is_disabled":true,"rental_uris":{"android":"levelo://app?vid=bb636211-c010-46b6-b358-bf7db6dac6a4","ios":"levelo://app?vid=bb636211-c010-46b6-b358-bf7db6dac6a4"},"vehicle_type_id":"4","last_reported":1736356065,"current_range_meters":38800,"station_id":"ce4bh4p2rcd13ifvqe1g","pricing_plan_id":"cebpf4jnsgd1na2vs0mg"},{"bike_id":"c1c85e08-d46b-4acc-8c0b-4216783e7468","system_id":"levelo_inurba_marseille","lat":43.26393,"lon":5.396024,"is_reserved":false,"is_disabled":false,"rental_uris":{"android":"levelo://app?vid=c1c85e08-d46b-4acc-8c0b-4216783e7468","ios":"levelo://app?vid=c1c85e08-d46b-4acc-8c0b-4216783e7468"},"vehicle_type_id":"4","last_reported":1736356065,"current_range_meters":24400,"station_id":"ce4bhi12rcd13ifvqfq0","pricing_plan_id":"cebpf4jnsgd1na2vs0mg"},{"bike_id":"a023b9e2-2413-4b3d-a218-b9727e7097b5","system_id":"levelo_inurba_marseille","lat":43.292991,"lon":5.374633,"is_reserved":false,"is_disabled":true,"rental_uris":{"android":"levelo://app?vid=a023b9e2-2413-4b3d-a218-b9727e7097b5","ios":"levelo://app?vid=a023b9e2-2413-4b3d-a218-b9727e7097b5"},"vehicle_type_id":"4","last_reported":1736356065,"current_range_meters":33200,"station_id":"ce4bgi12rcd13ifvqb70","pricing_plan_id":"cebpf4jnsgd1na2vs0mg"},{"bike_id":"412c961b-9eee-480e-9da4-be4fd2e54380","system_id":"levelo_inurba_marseille","lat":43.29553,"lon":5.42278,"is_reserved":false,"is_disabled":false,"rental_uris":{"android":"levelo://app?vid=412c961b-9eee-480e-9da4-be4fd2e54380","ios":"levelo://app?vid=412c961b-9eee-480e-9da4-be4fd2e54380"},"vehicle_type_id":"4","last_reported":1736356065,"current_range_meters":38800,"station_id":"ce4bhph2rcd13ifvqhdg","pricing_plan_id":"cebpf4jnsgd1na2vs0mg"},{"bike_id":"0738368e-bb66-45af-a35b-10f02dbbeef6","system_id":"levelo_inurba_marseille","lat":43.27835,"lon":5.40695,"is_reserved":false,"is_disabled":false,"rental_uris":{"android":"levelo://app?vid=0738368e-bb66-45af-a35b-10f02dbbeef6","ios":"levelo://app?vid=0738368e-bb66-45af-a35b-10f02dbbeef6"},"vehicle_type_id":"4","last_reported":1736356065,"current_range_meters":30000,"station_id":"ce4bhnh2rcd13ifvqgtg","pricing_plan_id":"cebpf4jnsgd1na2vs0mg"},{"bike_id":"4795cc5a-7058-456b-bbbb-cdaf0bc9586c","system_id":"levelo_inurba_marseille","lat":43.29982,"lon":5.38481,"is_reserved":false,"is_disabled":true,"rental_uris":{"android":"levelo://app?vid=4795cc5a-7058-456b-bbbb-cdaf0bc9586c","ios":"levelo://app?vid=4795cc5a-7058-456b-bbbb-cdaf0bc9586c"},"vehicle_type_id":"4","last_reported":1736356065,"current_range_meters":38800,"station_id":"ce4bgj92rcd13ifvqbd0","pricing_plan_id":"cebpf4jnsgd1na2vs0mg"},{"bike_id":"d02f1fa8-cecb-45dd-b6b1-cdf3151e1f9b","system_id":"levelo_inurba_marseille","lat":43.2842,"lon":5.34987,"is_reserved":false,"is_disabled":false,"rental_uris":{"android":"levelo://app?vid=d02f1fa8-cecb-45dd-b6b1-cdf3151e1f9b","ios":"levelo://app?vid=d02f1fa8-cecb-45dd-b6b1-cdf3151e1f9b"},"vehicle_type_id":"4","last_reported":1736356065,"current_range_meters":28400,"station_id":"ce4bhbh2rcd13ifvqepg","pricing_plan_id":"cebpf4jnsgd1na2vs0mg"},{"bike_id":"dc8d7f0f-af7e-4a05-91b0-02689ba2347a","system_id":"levelo_inurba_marseille","lat":43.24681,"lon":5.38134,"is_reserved":false,"is_disabled":false,"rental_uris":{"android":"levelo://app?vid=dc8d7f0f-af7e-4a05-91b0-02689ba2347a","ios":"levelo://app?vid=dc8d7f0f-af7e-4a05-91b0-02689ba2347a"},"vehicle_type_id":"4","last_reported":1736356065,"current_range_meters":24000,"station_id":"ce4bhih2rcd13ifvqfr0","pricing_plan_id":"cebpf4jnsgd1na2vs0mg"},{"bike_id":"2825a119-5b5a-4630-b83a-5a86bf58ccad","system_id":"levelo_inurba_marseille","lat":43.31288,"lon":5.37384,"is_reserved":false,"is_disabled":false,"rental_uris":{"android":"levelo://app?vid=2825a119-5b5a-4630-b83a-5a86bf58ccad","ios":"levelo://app?vid=2825a119-5b5a-4630-b83a-5a86bf58ccad"},"vehicle_type_id":"4","last_reported":1736356065,"current_range_meters":8800,"station_id":"","pricing_plan_id":"cebpf4jnsgd1na2vs0mg"},{"bike_id":"b90023b0-7488-401d-b7e9-7d42852f2c28","system_id":"levelo_inurba_marseille","lat":43.26533,"lon":5.39513,"is_reserved":false,"is_disabled":false,"rental_uris":{"android":"levelo://app?vid=b90023b0-7488-401d-b7e9-7d42852f2c28","ios":"levelo://app?vid=b90023b0-7488-401d-b7e9-7d42852f2c28"},"vehicle_type_id":"4","last_reported":1736356065,"current_range_meters":20800,"station_id":"ce4bhi12rcd13ifvqfq0","pricing_plan_id":"cebpf4jnsgd1na2vs0mg"},{"bike_id":"f61c5466-f861-45b4-9f45-b9ed5239356d","system_id":"levelo_inurba_marseille","lat":43.29308,"lon":5.37153,"is_reserved":false,"is_disabled":false,"rental_uris":{"android":"levelo://app?vid=f61c5466-f861-45b4-9f45-b9ed5239356d","ios":"levelo://app?vid=f61c5466-f861-45b4-9f45-b9ed5239356d"},"vehicle_type_id":"4","last_reported":1736356065,"current_range_meters":38000,"station_id":"ce4bgh92rcd13ifvqb40","pricing_plan_id":"cebpf4jnsgd1na2vs0mg"},{"bike_id":"aad7c5a1-0975-4b5f-90aa-8f13bc3a1b0e","system_id":"levelo_inurba_marseille","lat":43.29663,"lon":5.37171,"is_reserved":false,"is_disabled":false,"rental_uris":{"android":"levelo://app?vid=aad7c5a1-0975-4b5f-90aa-8f13bc3a1b0e","ios":"levelo://app?vid=aad7c5a1-0975-4b5f-90aa-8f13bc3a1b0e"},"vehicle_type_id":"4","last_reported":1736356065,"current_range_meters":8400,"station_id":"","pricing_plan_id":"cebpf4jnsgd1na2vs0mg"},{"bike_id":"84e666da-67af-4688-95c7-a611aeedd4ee","system_id":"levelo_inurba_marseille","lat":43.31665,"lon":5.40681,"is_reserved":false,"is_disabled":false,"rental_uris":{"android":"levelo://app?vid=84e666da-67af-4688-95c7-a611aeedd4ee","ios":"levelo://app?vid=84e666da-67af-4688-95c7-a611aeedd4ee"},"vehicle_type_id":"4","last_reported":1736356065,"current_range_meters":32400,"station_id":"","pricing_plan_id":"cebpf4jnsgd1na2vs0mg"},{"bike_id":"7ef3bb2c-b966-460c-962b-2db3dbe63526","system_id":"levelo_inurba_marseille","lat":43.23181,"lon":5.39994,"is_reserved":false,"is_disabled":false,"rental_uris":{"android":"levelo://app?vid=7ef3bb2c-b966-460c-962b-2db3dbe63526","ios":"levelo://app?vid=7ef3bb2c-b966-460c-962b-2db3dbe63526"},"vehicle_type_id":"4","last_reported":1736356065,"current_range_meters":20800,"station_id":"ce4bhn12rcd13ifvqgqg","pricing_plan_id":"cebpf4jnsgd1na2vs0mg"},{"bike_id":"f5b2de69-ea07-4b33-a436-49a7f21ea0f9","system_id":"levelo_inurba_marseille","lat":43.29592,"lon":5.36724,"is_reserved":false,"is_disabled":false,"rental_uris":{"android":"levelo://app?vid=f5b2de69-ea07-4b33-a436-49a7f21ea0f9","ios":"levelo://app?vid=f5b2de69-ea07-4b33-a436-49a7f21ea0f9"},"vehicle_type_id":"4","last_reported":1736356065,"current_range_meters":38800,"station_id":"ce4bgph2rcd13ifvqc2g","pricing_plan_id":"cebpf4jnsgd1na2vs0mg"},{"bike_id":"7a0a8a69-615c-43f3-a001-073b74f4a57b","system_id":"levelo_inurba_marseille","lat":43.25588,"lon":5.38243,"is_reserved":false,"is_disabled":false,"rental_uris":{"android":"levelo://app?vid=7a0a8a69-615c-43f3-a001-073b74f4a57b","ios":"levelo://app?vid=7a0a8a69-615c-43f3-a001-073b74f4a57b"},"vehicle_type_id":"4","last_reported":1736356065,"current_range_meters":34800,"station_id":"ce4bhih2rcd13ifvqfs0","pricing_plan_id":"cebpf4jnsgd1na2vs0mg"},{"bike_id":"d03baa4e-a1ff-4dbb-aa3a-8f7610789178","system_id":"levelo_inurba_marseille","lat":43.33703,"lon":5.39186,"is_reserved":false,"is_disabled":false,"rental_uris":{"android":"levelo://app?vid=d03baa4e-a1ff-4dbb-aa3a-8f7610789178","ios":"levelo://app?vid=d03baa4e-a1ff-4dbb-aa3a-8f7610789178"},"vehicle_type_id":"4","last_reported":1736356065,"current_range_meters":38800,"station_id":"ce4bhr92rcd13ifvqhsg","pricing_plan_id":"cebpf4jnsgd1na2vs0mg"},{"bike_id":"98209f35-e1f1-4314-8331-390098c11944","system_id":"levelo_inurba_marseille","lat":43.27828,"lon":5.39211,"is_reserved":false,"is_disabled":false,"rental_uris":{"android":"levelo://app?vid=98209f35-e1f1-4314-8331-390098c11944","ios":"levelo://app?vid=98209f35-e1f1-4314-8331-390098c11944"},"vehicle_type_id":"4","last_reported":1736356065,"current_range_meters":31200,"station_id":"ce4bhjp2rcd13ifvqga0","pricing_plan_id":"cebpf4jnsgd1na2vs0mg"},{"bike_id":"9308698d-9faf-4979-8f6d-251c315fc975","system_id":"levelo_inurba_marseille","lat":43.26554,"lon":5.37283,"is_reserved":false,"is_disabled":false,"rental_uris":{"android":"levelo://app?vid=9308698d-9faf-4979-8f6d-251c315fc975","ios":"levelo://app?vid=9308698d-9faf-4979-8f6d-251c315fc975"},"vehicle_type_id":"4","last_reported":1736356065,"current_range_meters":35200,"station_id":"ce4bhg12rcd13ifvqf70","pricing_plan_id":"cebpf4jnsgd1na2vs0mg"},{"bike_id":"6634f8bf-9d52-4118-86a1-d5dfb9f73ba8","system_id":"levelo_inurba_marseille","lat":43.28472,"lon":5.39091,"is_reserved":false,"is_disabled":true,"rental_uris":{"android":"levelo://app?vid=6634f8bf-9d52-4118-86a1-d5dfb9f73ba8","ios":"levelo://app?vid=6634f8bf-9d52-4118-86a1-d5dfb9f73ba8"},"vehicle_type_id":"4","last_reported":1736356065,"current_range_meters":0,"station_id":"ce4bhoh2rcd13ifvqh5g","pricing_plan_id":"cebpf4jnsgd1na2vs0mg"},{"bike_id":"58a1ab09-3af8-49c4-988b-7342a3c81f56","system_id":"levelo_inurba_marseille","lat":43.25587,"lon":5.38215,"is_reserved":false,"is_disabled":false,"rental_uris":{"android":"levelo://app?vid=58a1ab09-3af8-49c4-988b-7342a3c81f56","ios":"levelo://app?vid=58a1ab09-3af8-49c4-988b-7342a3c81f56"},"vehicle_type_id":"4","last_reported":1736356065,"current_range_meters":6800,"station_id":"ce4bhih2rcd13ifvqfs0","pricing_plan_id":"cebpf4jnsgd1na2vs0mg"},{"bike_id":"f022a794-8806-4476-8427-85df022cd74e","system_id":"levelo_inurba_marseille","lat":43.27192,"lon":5.40965,"is_reserved":false,"is_disabled":false,"rental_uris":{"android":"levelo://app?vid=f022a794-8806-4476-8427-85df022cd74e","ios":"levelo://app?vid=f022a794-8806-4476-8427-85df022cd74e"},"vehicle_type_id":"4","last_reported":1736356065,"current_range_meters":19200,"station_id":"ce4bhl12rcd13ifvqgf0","pricing_plan_id":"cebpf4jnsgd1na2vs0mg"},{"bike_id":"c8620edc-4b1a-4a54-992f-df9b92a06d3c","system_id":"levelo_inurba_marseille","lat":43.29052,"lon":5.35906,"is_reserved":false,"is_disabled":false,"rental_uris":{"android":"levelo://app?vid=c8620edc-4b1a-4a54-992f-df9b92a06d3c","ios":"levelo://app?vid=c8620edc-4b1a-4a54-992f-df9b92a06d3c"},"vehicle_type_id":"4","last_reported":1736356065,"current_range_meters":32000,"station_id":"ce4bha92rcd13ifvqeg0","pricing_plan_id":"cebpf4jnsgd1na2vs0mg"},{"bike_id":"009c25a7-be29-4f11-aa85-c394f8d0b453","system_id":"levelo_inurba_marseille","lat":43.28936,"lon":5.36636,"is_reserved":false,"is_disabled":false,"rental_uris":{"android":"levelo://app?vid=009c25a7-be29-4f11-aa85-c394f8d0b453","ios":"levelo://app?vid=009c25a7-be29-4f11-aa85-c394f8d0b453"},"vehicle_type_id":"4","last_reported":1736356065,"current_range_meters":4800,"station_id":"ce4bhap2rcd13ifvqek0","pricing_plan_id":"cebpf4jnsgd1na2vs0mg"},{"bike_id":"b753435e-f6bb-4c1f-9e42-1ce67c2a1696","system_id":"levelo_inurba_marseille","lat":43.27501,"lon":5.42435,"is_reserved":false,"is_disabled":true,"rental_uris":{"android":"levelo://app?vid=b753435e-f6bb-4c1f-9e42-1ce67c2a1696","ios":"levelo://app?vid=b753435e-f6bb-4c1f-9e42-1ce67c2a1696"},"vehicle_type_id":"4","last_reported":1736356065,"current_range_meters":0,"station_id":"ce4bhn92rcd13ifvqgrg","pricing_plan_id":"cebpf4jnsgd1na2vs0mg"},{"bike_id":"45a2c051-dfb3-4537-ba9c-33219043c3d3","system_id":"levelo_inurba_marseille","lat":43.29265,"lon":5.36853,"is_reserved":false,"is_disabled":true,"rental_uris":{"android":"levelo://app?vid=45a2c051-dfb3-4537-ba9c-33219043c3d3","ios":"levelo://app?vid=45a2c051-dfb3-4537-ba9c-33219043c3d3"},"vehicle_type_id":"4","last_reported":1736356065,"current_range_meters":1600,"station_id":"ce4bhbp2rcd13ifvqesg","pricing_plan_id":"cebpf4jnsgd1na2vs0mg"},{"bike_id":"dd1b4e87-2335-4f29-8589-61ce4c3b9784","system_id":"levelo_inurba_marseille","lat":43.26194,"lon":5.37449,"is_reserved":false,"is_disabled":false,"rental_uris":{"android":"levelo://app?vid=dd1b4e87-2335-4f29-8589-61ce4c3b9784","ios":"levelo://app?vid=dd1b4e87-2335-4f29-8589-61ce4c3b9784"},"vehicle_type_id":"4","last_reported":1736356065,"current_range_meters":4000,"station_id":"ce4bhgp2rcd13ifvqfc0","pricing_plan_id":"cebpf4jnsgd1na2vs0mg"},{"bike_id":"705157bd-db76-408e-8a69-66f12909cb65","system_id":"levelo_inurba_marseille","lat":43.26931,"lon":5.38901,"is_reserved":false,"is_disabled":false,"rental_uris":{"android":"levelo://app?vid=705157bd-db76-408e-8a69-66f12909cb65","ios":"levelo://app?vid=705157bd-db76-408e-8a69-66f12909cb65"},"vehicle_type_id":"4","last_reported":1736356065,"current_range_meters":38000,"station_id":"ce4bhhh2rcd13ifvqfl0","pricing_plan_id":"cebpf4jnsgd1na2vs0mg"},{"bike_id":"6e7ac35d-6105-490f-a33d-f3a0c4369438","system_id":"levelo_inurba_marseille","lat":43.30805,"lon":5.38157,"is_reserved":false,"is_disabled":false,"rental_uris":{"android":"levelo://app?vid=6e7ac35d-6105-490f-a33d-f3a0c4369438","ios":"levelo://app?vid=6e7ac35d-6105-490f-a33d-f3a0c4369438"},"vehicle_type_id":"4","last_reported":1736356065,"current_range_meters":14800,"station_id":"ce4bgt12rcd13ifvqce0","pricing_plan_id":"cebpf4jnsgd1na2vs0mg"},{"bike_id":"67bc9667-3b32-4acf-9b36-b2469f025548","system_id":"levelo_inurba_marseille","lat":43.30238,"lon":5.4005,"is_reserved":false,"is_disabled":false,"rental_uris":{"android":"levelo://app?vid=67bc9667-3b32-4acf-9b36-b2469f025548","ios":"levelo://app?vid=67bc9667-3b32-4acf-9b36-b2469f025548"},"vehicle_type_id":"4","last_reported":1736356065,"current_range_meters":13600,"station_id":"ce4bgvh2rcd13ifvqcs0","pricing_plan_id":"cebpf4jnsgd1na2vs0mg"},{"bike_id":"61f80575-9f0e-4647-b8bb-2460d9473614","system_id":"levelo_inurba_marseille","lat":43.27574,"lon":5.384232,"is_reserved":false,"is_disabled":true,"rental_uris":{"android":"levelo://app?vid=61f80575-9f0e-4647-b8bb-2460d9473614","ios":"levelo://app?vid=61f80575-9f0e-4647-b8bb-2460d9473614"},"vehicle_type_id":"4","last_reported":1736356065,"current_range_meters":0,"station_id":"ce4bhh92rcd13ifvqfi0","pricing_plan_id":"cebpf4jnsgd1na2vs0mg"},{"bike_id":"bd427596-95ed-4f23-b5da-8874fff3266a","system_id":"levelo_inurba_marseille","lat":43.30211,"lon":5.39461,"is_reserved":false,"is_disabled":false,"rental_uris":{"android":"levelo://app?vid=bd427596-95ed-4f23-b5da-8874fff3266a","ios":"levelo://app?vid=bd427596-95ed-4f23-b5da-8874fff3266a"},"vehicle_type_id":"4","last_reported":1736356065,"current_range_meters":39200,"station_id":"ce4bh0p2rcd13ifvqd70","pricing_plan_id":"cebpf4jnsgd1na2vs0mg"},{"bike_id":"37d8e1ef-d932-49d7-b893-49542cf44d13","system_id":"levelo_inurba_marseille","lat":43.32345,"lon":5.40629,"is_reserved":false,"is_disabled":true,"rental_uris":{"android":"levelo://app?vid=37d8e1ef-d932-49d7-b893-49542cf44d13","ios":"levelo://app?vid=37d8e1ef-d932-49d7-b893-49542cf44d13"},"vehicle_type_id":"4","last_reported":1736356065,"current_range_meters":0,"station_id":"ce4bhq92rcd13ifvqhjg","pricing_plan_id":"cebpf4jnsgd1na2vs0mg"},{"bike_id":"32a4fb87-34f7-41cc-a1bf-df05e6828b58","system_id":"levelo_inurba_marseille","lat":43.31328,"lon":5.39713,"is_reserved":false,"is_disabled":false,"rental_uris":{"android":"levelo://app?vid=32a4fb87-34f7-41cc-a1bf-df05e6828b58","ios":"levelo://app?vid=32a4fb87-34f7-41cc-a1bf-df05e6828b58"},"vehicle_type_id":"4","last_reported":1736356065,"current_range_meters":38800,"station_id":"ce4bgvp2rcd13ifvqcu0","pricing_plan_id":"cebpf4jnsgd1na2vs0mg"},{"bike_id":"d9849cba-b37f-4317-8e2b-f47be77339e7","system_id":"levelo_inurba_marseille","lat":43.27213,"lon":5.39187,"is_reserved":false,"is_disabled":false,"rental_uris":{"android":"levelo://app?vid=d9849cba-b37f-4317-8e2b-f47be77339e7","ios":"levelo://app?vid=d9849cba-b37f-4317-8e2b-f47be77339e7"},"vehicle_type_id":"4","last_reported":1736356065,"current_range_meters":3200,"station_id":"ce4bhhp2rcd13ifvqfm0","pricing_plan_id":"cebpf4jnsgd1na2vs0mg"},{"bike_id":"e9cc5cd9-63af-4ca7-a1c2-1af2eb0beadb","system_id":"levelo_inurba_marseille","lat":43.29274,"lon":5.40112,"is_reserved":false,"is_disabled":false,"rental_uris":{"android":"levelo://app?vid=e9cc5cd9-63af-4ca7-a1c2-1af2eb0beadb","ios":"levelo://app?vid=e9cc5cd9-63af-4ca7-a1c2-1af2eb0beadb"},"vehicle_type_id":"4","last_reported":1736356065,"current_range_meters":28000,"station_id":"ce4bh312rcd13ifvqdk0","pricing_plan_id":"cebpf4jnsgd1na2vs0mg"},{"bike_id":"63c817a8-7fe4-4bba-9c1c-70e578257f97","system_id":"levelo_inurba_marseille","lat":43.23974,"lon":5.36612,"is_reserved":false,"is_disabled":false,"rental_uris":{"android":"levelo://app?vid=63c817a8-7fe4-4bba-9c1c-70e578257f97","ios":"levelo://app?vid=63c817a8-7fe4-4bba-9c1c-70e578257f97"},"vehicle_type_id":"4","last_reported":1736356065,"current_range_meters":38800,"station_id":"ce4bhi12rcd13ifvqfp0","pricing_plan_id":"cebpf4jnsgd1na2vs0mg"},{"bike_id":"9b2f55e0-edd8-4d6c-b73b-00ee1872c633","system_id":"levelo_inurba_marseille","lat":43.330268,"lon":5.390359,"is_reserved":false,"is_disabled":false,"rental_uris":{"android":"levelo://app?vid=9b2f55e0-edd8-4d6c-b73b-00ee1872c633","ios":"levelo://app?vid=9b2f55e0-edd8-4d6c-b73b-00ee1872c633"},"vehicle_type_id":"4","last_reported":1736356065,"current_range_meters":12400,"station_id":"ce4bhr92rcd13ifvqhrg","pricing_plan_id":"cebpf4jnsgd1na2vs0mg"},{"bike_id":"ec070c9b-b204-4195-8da4-627432f984a9","system_id":"levelo_inurba_marseille","lat":43.2622,"lon":5.374253,"is_reserved":false,"is_disabled":false,"rental_uris":{"android":"levelo://app?vid=ec070c9b-b204-4195-8da4-627432f984a9","ios":"levelo://app?vid=ec070c9b-b204-4195-8da4-627432f984a9"},"vehicle_type_id":"4","last_reported":1736356065,"current_range_meters":34000,"station_id":"ce4bhgp2rcd13ifvqfc0","pricing_plan_id":"cebpf4jnsgd1na2vs0mg"},{"bike_id":"62f17cb9-2c66-4cff-81db-916d063de829","system_id":"levelo_inurba_marseille","lat":43.3299,"lon":5.39038,"is_reserved":false,"is_disabled":false,"rental_uris":{"android":"levelo://app?vid=62f17cb9-2c66-4cff-81db-916d063de829","ios":"levelo://app?vid=62f17cb9-2c66-4cff-81db-916d063de829"},"vehicle_type_id":"4","last_reported":1736356065,"current_range_meters":38400,"station_id":"ce4bhr92rcd13ifvqhrg","pricing_plan_id":"cebpf4jnsgd1na2vs0mg"},{"bike_id":"f162e091-eaf8-40f8-b4ce-6d0b5a00bdb2","system_id":"levelo_inurba_marseille","lat":43.28039,"lon":5.36937,"is_reserved":false,"is_disabled":false,"rental_uris":{"android":"levelo://app?vid=f162e091-eaf8-40f8-b4ce-6d0b5a00bdb2","ios":"levelo://app?vid=f162e091-eaf8-40f8-b4ce-6d0b5a00bdb2"},"vehicle_type_id":"4","last_reported":1736356065,"current_range_meters":34000,"station_id":"ce4bha12rcd13ifvqef0","pricing_plan_id":"cebpf4jnsgd1na2vs0mg"},{"bike_id":"6d7e916a-3bc4-430f-9cea-fcbd69995af4","system_id":"levelo_inurba_marseille","lat":43.29268,"lon":5.36849,"is_reserved":false,"is_disabled":false,"rental_uris":{"android":"levelo://app?vid=6d7e916a-3bc4-430f-9cea-fcbd69995af4","ios":"levelo://app?vid=6d7e916a-3bc4-430f-9cea-fcbd69995af4"},"vehicle_type_id":"4","last_reported":1736356065,"current_range_meters":16000,"station_id":"ce4bhbp2rcd13ifvqesg","pricing_plan_id":"cebpf4jnsgd1na2vs0mg"},{"bike_id":"db657076-5d98-41da-860a-11779a937773","system_id":"levelo_inurba_marseille","lat":43.26819,"lon":5.40249,"is_reserved":false,"is_disabled":false,"rental_uris":{"android":"levelo://app?vid=db657076-5d98-41da-860a-11779a937773","ios":"levelo://app?vid=db657076-5d98-41da-860a-11779a937773"},"vehicle_type_id":"4","last_reported":1736356065,"current_range_meters":26800,"station_id":"ce501612rcd8frsf0b60","pricing_plan_id":"cebpf4jnsgd1na2vs0mg"},{"bike_id":"35b824e7-70fc-4c05-8f88-95ce2cc32ac3","system_id":"levelo_inurba_marseille","lat":43.29037,"lon":5.37569,"is_reserved":false,"is_disabled":false,"rental_uris":{"android":"levelo://app?vid=35b824e7-70fc-4c05-8f88-95ce2cc32ac3","ios":"levelo://app?vid=35b824e7-70fc-4c05-8f88-95ce2cc32ac3"},"vehicle_type_id":"4","last_reported":1736356065,"current_range_meters":10800,"station_id":"ce4bh692rcd13ifvqe90","pricing_plan_id":"cebpf4jnsgd1na2vs0mg"},{"bike_id":"60ce1b70-e47d-4caf-abee-52e7d5bfe299","system_id":"levelo_inurba_marseille","lat":43.24646,"lon":5.3889,"is_reserved":false,"is_disabled":false,"rental_uris":{"android":"levelo://app?vid=60ce1b70-e47d-4caf-abee-52e7d5bfe299","ios":"levelo://app?vid=60ce1b70-e47d-4caf-abee-52e7d5bfe299"},"vehicle_type_id":"4","last_reported":1736356065,"current_range_meters":38800,"station_id":"ce4bhg12rcd13ifvqf60","pricing_plan_id":"cebpf4jnsgd1na2vs0mg"},{"bike_id":"7a004e40-b678-43fe-9c5f-9d73ed349887","system_id":"levelo_inurba_marseille","lat":43.28909,"lon":5.37772,"is_reserved":false,"is_disabled":false,"rental_uris":{"android":"levelo://app?vid=7a004e40-b678-43fe-9c5f-9d73ed349887","ios":"levelo://app?vid=7a004e40-b678-43fe-9c5f-9d73ed349887"},"vehicle_type_id":"4","last_reported":1736356065,"current_range_meters":16000,"station_id":"","pricing_plan_id":"cebpf4jnsgd1na2vs0mg"},{"bike_id":"0478d28c-b43f-4970-994b-096cc0901586","system_id":"levelo_inurba_marseille","lat":43.31689,"lon":5.40478,"is_reserved":false,"is_disabled":false,"rental_uris":{"android":"levelo://app?vid=0478d28c-b43f-4970-994b-096cc0901586","ios":"levelo://app?vid=0478d28c-b43f-4970-994b-096cc0901586"},"vehicle_type_id":"4","last_reported":1736356065,"current_range_meters":16800,"station_id":"ce4bh012rcd13ifvqd00","pricing_plan_id":"cebpf4jnsgd1na2vs0mg"},{"bike_id":"ba2a18e9-d2a5-4fc8-a4b6-3b6ef76241df","system_id":"levelo_inurba_marseille","lat":43.255803,"lon":5.382083,"is_reserved":false,"is_disabled":false,"rental_uris":{"android":"levelo://app?vid=ba2a18e9-d2a5-4fc8-a4b6-3b6ef76241df","ios":"levelo://app?vid=ba2a18e9-d2a5-4fc8-a4b6-3b6ef76241df"},"vehicle_type_id":"4","last_reported":1736356065,"current_range_meters":26000,"station_id":"ce4bhih2rcd13ifvqfs0","pricing_plan_id":"cebpf4jnsgd1na2vs0mg"},{"bike_id":"48ce03f6-f3a8-490e-8671-5ca1c760d650","system_id":"levelo_inurba_marseille","lat":43.28935,"lon":5.36629,"is_reserved":false,"is_disabled":true,"rental_uris":{"android":"levelo://app?vid=48ce03f6-f3a8-490e-8671-5ca1c760d650","ios":"levelo://app?vid=48ce03f6-f3a8-490e-8671-5ca1c760d650"},"vehicle_type_id":"4","last_reported":1736356065,"current_range_meters":38400,"station_id":"ce4bhap2rcd13ifvqek0","pricing_plan_id":"cebpf4jnsgd1na2vs0mg"},{"bike_id":"c5f66bda-18c5-4a25-98e4-d2cbdcb1c8b2","system_id":"levelo_inurba_marseille","lat":43.28722,"lon":5.36077,"is_reserved":false,"is_disabled":false,"rental_uris":{"android":"levelo://app?vid=c5f66bda-18c5-4a25-98e4-d2cbdcb1c8b2","ios":"levelo://app?vid=c5f66bda-18c5-4a25-98e4-d2cbdcb1c8b2"},"vehicle_type_id":"4","last_reported":1736356065,"current_range_meters":10800,"station_id":"cki0cbj6b192h4jlfktg","pricing_plan_id":"cebpf4jnsgd1na2vs0mg"},{"bike_id":"6c9daffc-e174-4a9a-8b3e-30a6cf4027c8","system_id":"levelo_inurba_marseille","lat":43.3212,"lon":5.36758,"is_reserved":false,"is_disabled":false,"rental_uris":{"android":"levelo://app?vid=6c9daffc-e174-4a9a-8b3e-30a6cf4027c8","ios":"levelo://app?vid=6c9daffc-e174-4a9a-8b3e-30a6cf4027c8"},"vehicle_type_id":"4","last_reported":1736356065,"current_range_meters":20000,"station_id":"ce4bhrh2rcd13ifvqhug","pricing_plan_id":"cebpf4jnsgd1na2vs0mg"},{"bike_id":"93b7e7bc-917a-4253-af1e-71755c2c5a70","system_id":"levelo_inurba_marseille","lat":43.29602,"lon":5.37722,"is_reserved":false,"is_disabled":true,"rental_uris":{"android":"levelo://app?vid=93b7e7bc-917a-4253-af1e-71755c2c5a70","ios":"levelo://app?vid=93b7e7bc-917a-4253-af1e-71755c2c5a70"},"vehicle_type_id":"4","last_reported":1736356065,"current_range_meters":16400,"station_id":"ce4bgi92rcd13ifvqb90","pricing_plan_id":"cebpf4jnsgd1na2vs0mg"},{"bike_id":"954827f5-e934-476d-945d-d134338afa03","system_id":"levelo_inurba_marseille","lat":43.32366,"lon":5.38879,"is_reserved":false,"is_disabled":false,"rental_uris":{"android":"levelo://app?vid=954827f5-e934-476d-945d-d134338afa03","ios":"levelo://app?vid=954827f5-e934-476d-945d-d134338afa03"},"vehicle_type_id":"4","last_reported":1736356065,"current_range_meters":21600,"station_id":"ce4bhqp2rcd13ifvqhog","pricing_plan_id":"cebpf4jnsgd1na2vs0mg"},{"bike_id":"aa93e012-148e-4dfc-80c5-c18401d721dd","system_id":"levelo_inurba_marseille","lat":43.27928,"lon":5.38761,"is_reserved":false,"is_disabled":true,"rental_uris":{"android":"levelo://app?vid=aa93e012-148e-4dfc-80c5-c18401d721dd","ios":"levelo://app?vid=aa93e012-148e-4dfc-80c5-c18401d721dd"},"vehicle_type_id":"4","last_reported":1736356065,"current_range_meters":1600,"station_id":"","pricing_plan_id":"cebpf4jnsgd1na2vs0mg"},{"bike_id":"834ffa15-5543-4ea9-ab5c-d8e4925fe53d","system_id":"levelo_inurba_marseille","lat":43.30155,"lon":5.38096,"is_reserved":false,"is_disabled":false,"rental_uris":{"android":"levelo://app?vid=834ffa15-5543-4ea9-ab5c-d8e4925fe53d","ios":"levelo://app?vid=834ffa15-5543-4ea9-ab5c-d8e4925fe53d"},"vehicle_type_id":"4","last_reported":1736356065,"current_range_meters":28400,"station_id":"ce4bgjp2rcd13ifvqbh0","pricing_plan_id":"cebpf4jnsgd1na2vs0mg"},{"bike_id":"49f71cfb-5f4f-4efd-8023-2c4eb676a391","system_id":"levelo_inurba_marseille","lat":43.2418,"lon":5.36374,"is_reserved":false,"is_disabled":false,"rental_uris":{"android":"levelo://app?vid=49f71cfb-5f4f-4efd-8023-2c4eb676a391","ios":"levelo://app?vid=49f71cfb-5f4f-4efd-8023-2c4eb676a391"},"vehicle_type_id":"4","last_reported":1736356065,"current_range_meters":36800,"station_id":"cpo36qri1sfpv3e86is0","pricing_plan_id":"cebpf4jnsgd1na2vs0mg"},{"bike_id":"cb32c347-6f72-49d8-a6aa-6bc078c210b8","system_id":"levelo_inurba_marseille","lat":43.29268,"lon":5.38442,"is_reserved":false,"is_disabled":false,"rental_uris":{"android":"levelo://app?vid=cb32c347-6f72-49d8-a6aa-6bc078c210b8","ios":"levelo://app?vid=cb32c347-6f72-49d8-a6aa-6bc078c210b8"},"vehicle_type_id":"4","last_reported":1736356065,"current_range_meters":31200,"station_id":"ce4bh692rcd13ifvqea0","pricing_plan_id":"cebpf4jnsgd1na2vs0mg"},{"bike_id":"53495e74-7d11-45c9-b642-f1e889f1d6f1","system_id":"levelo_inurba_marseille","lat":43.28437,"lon":5.39187,"is_reserved":false,"is_disabled":false,"rental_uris":{"android":"levelo://app?vid=53495e74-7d11-45c9-b642-f1e889f1d6f1","ios":"levelo://app?vid=53495e74-7d11-45c9-b642-f1e889f1d6f1"},"vehicle_type_id":"4","last_reported":1736356065,"current_range_meters":32400,"station_id":"ce4bhoh2rcd13ifvqh5g","pricing_plan_id":"cebpf4jnsgd1na2vs0mg"},{"bike_id":"13017816-3ab0-484a-ae75-e5c49659e9ac","system_id":"levelo_inurba_marseille","lat":43.25102,"lon":5.39502,"is_reserved":false,"is_disabled":true,"rental_uris":{"android":"levelo://app?vid=13017816-3ab0-484a-ae75-e5c49659e9ac","ios":"levelo://app?vid=13017816-3ab0-484a-ae75-e5c49659e9ac"},"vehicle_type_id":"4","last_reported":1736356065,"current_range_meters":0,"station_id":"ce4bhm12rcd13ifvqgkg","pricing_plan_id":"cebpf4jnsgd1na2vs0mg"},{"bike_id":"95d3448a-591f-493e-a463-7ae24e6b0478","system_id":"levelo_inurba_marseille","lat":43.30131,"lon":5.38771,"is_reserved":false,"is_disabled":true,"rental_uris":{"android":"levelo://app?vid=95d3448a-591f-493e-a463-7ae24e6b0478","ios":"levelo://app?vid=95d3448a-591f-493e-a463-7ae24e6b0478"},"vehicle_type_id":"4","last_reported":1736356065,"current_range_meters":18800,"station_id":"ce4bghh2rcd13ifvqb60","pricing_plan_id":"cebpf4jnsgd1na2vs0mg"},{"bike_id":"b1c05a28-e862-4024-a61b-ab8d551b8107","system_id":"levelo_inurba_marseille","lat":43.330288,"lon":5.390313,"is_reserved":false,"is_disabled":false,"rental_uris":{"android":"levelo://app?vid=b1c05a28-e862-4024-a61b-ab8d551b8107","ios":"levelo://app?vid=b1c05a28-e862-4024-a61b-ab8d551b8107"},"vehicle_type_id":"4","last_reported":1736356065,"current_range_meters":38000,"station_id":"ce4bhr92rcd13ifvqhrg","pricing_plan_id":"cebpf4jnsgd1na2vs0mg"},{"bike_id":"b743700a-ae91-4cc7-8a16-0e891534b405","system_id":"levelo_inurba_marseille","lat":43.28936,"lon":5.38387,"is_reserved":false,"is_disabled":false,"rental_uris":{"android":"levelo://app?vid=b743700a-ae91-4cc7-8a16-0e891534b405","ios":"levelo://app?vid=b743700a-ae91-4cc7-8a16-0e891534b405"},"vehicle_type_id":"4","last_reported":1736356065,"current_range_meters":39200,"station_id":"ce4bh612rcd13ifvqe6g","pricing_plan_id":"cebpf4jnsgd1na2vs0mg"},{"bike_id":"056e6a25-022b-4f1b-be62-fca4c87d1663","system_id":"levelo_inurba_marseille","lat":43.28458,"lon":5.35886,"is_reserved":false,"is_disabled":false,"rental_uris":{"android":"levelo://app?vid=056e6a25-022b-4f1b-be62-fca4c87d1663","ios":"levelo://app?vid=056e6a25-022b-4f1b-be62-fca4c87d1663"},"vehicle_type_id":"4","last_reported":1736356065,"current_range_meters":24800,"station_id":"ce4bhah2rcd13ifvqei0","pricing_plan_id":"cebpf4jnsgd1na2vs0mg"},{"bike_id":"30f12004-38e9-469d-a819-1c825686a374","system_id":"levelo_inurba_marseille","lat":43.27316,"lon":5.3906,"is_reserved":false,"is_disabled":false,"rental_uris":{"android":"levelo://app?vid=30f12004-38e9-469d-a819-1c825686a374","ios":"levelo://app?vid=30f12004-38e9-469d-a819-1c825686a374"},"vehicle_type_id":"4","last_reported":1736356065,"current_range_meters":9200,"station_id":"ce4bhgp2rcd13ifvqfe0","pricing_plan_id":"cebpf4jnsgd1na2vs0mg"},{"bike_id":"dffdd08f-2afe-4bb5-b8de-9150e3ae5d80","system_id":"levelo_inurba_marseille","lat":43.33607,"lon":5.41032,"is_reserved":false,"is_disabled":false,"rental_uris":{"android":"levelo://app?vid=dffdd08f-2afe-4bb5-b8de-9150e3ae5d80","ios":"levelo://app?vid=dffdd08f-2afe-4bb5-b8de-9150e3ae5d80"},"vehicle_type_id":"4","last_reported":1736356065,"current_range_meters":20800,"station_id":"ce4bhqh2rcd13ifvqhmg","pricing_plan_id":"cebpf4jnsgd1na2vs0mg"},{"bike_id":"c3fed3ff-6b92-4fcd-9518-3530a380cb58","system_id":"levelo_inurba_marseille","lat":43.28942,"lon":5.363924,"is_reserved":false,"is_disabled":true,"rental_uris":{"android":"levelo://app?vid=c3fed3ff-6b92-4fcd-9518-3530a380cb58","ios":"levelo://app?vid=c3fed3ff-6b92-4fcd-9518-3530a380cb58"},"vehicle_type_id":"4","last_reported":1736356065,"current_range_meters":38800,"station_id":"ce4bhc92rcd13ifvqetg","pricing_plan_id":"cebpf4jnsgd1na2vs0mg"},{"bike_id":"1e2223a2-c032-49e7-8dbf-982df86a0520","system_id":"levelo_inurba_marseille","lat":43.22924,"lon":5.35367,"is_reserved":false,"is_disabled":false,"rental_uris":{"android":"levelo://app?vid=1e2223a2-c032-49e7-8dbf-982df86a0520","ios":"levelo://app?vid=1e2223a2-c032-49e7-8dbf-982df86a0520"},"vehicle_type_id":"4","last_reported":1736356065,"current_range_meters":38800,"station_id":"cpo3532slgdg3j2ikp40","pricing_plan_id":"cebpf4jnsgd1na2vs0mg"},{"bike_id":"3759cfd5-03c3-4c7b-a343-a09826b1cf56","system_id":"levelo_inurba_marseille","lat":43.29839,"lon":5.36309,"is_reserved":false,"is_disabled":false,"rental_uris":{"android":"levelo://app?vid=3759cfd5-03c3-4c7b-a343-a09826b1cf56","ios":"levelo://app?vid=3759cfd5-03c3-4c7b-a343-a09826b1cf56"},"vehicle_type_id":"4","last_reported":1736356065,"current_range_meters":38800,"station_id":"ce4bgpp2rcd13ifvqc3g","pricing_plan_id":"cebpf4jnsgd1na2vs0mg"},{"bike_id":"3d3dad9a-b6b1-4cbc-a748-89257598fef2","system_id":"levelo_inurba_marseille","lat":43.294189,"lon":5.386155,"is_reserved":false,"is_disabled":true,"rental_uris":{"android":"levelo://app?vid=3d3dad9a-b6b1-4cbc-a748-89257598fef2","ios":"levelo://app?vid=3d3dad9a-b6b1-4cbc-a748-89257598fef2"},"vehicle_type_id":"4","last_reported":1736356065,"current_range_meters":0,"station_id":"ce4bh2h2rcd13ifvqdh0","pricing_plan_id":"cebpf4jnsgd1na2vs0mg"},{"bike_id":"25d4b0e5-3e74-4e6a-8670-6f4ce674c31d","system_id":"levelo_inurba_marseille","lat":43.25117,"lon":5.40316,"is_reserved":false,"is_disabled":false,"rental_uris":{"android":"levelo://app?vid=25d4b0e5-3e74-4e6a-8670-6f4ce674c31d","ios":"levelo://app?vid=25d4b0e5-3e74-4e6a-8670-6f4ce674c31d"},"vehicle_type_id":"4","last_reported":1736356065,"current_range_meters":32400,"station_id":"ce4bhlh2rcd13ifvqgig","pricing_plan_id":"cebpf4jnsgd1na2vs0mg"},{"bike_id":"be8a233f-ad85-41b2-af03-bfa1e3033438","system_id":"levelo_inurba_marseille","lat":43.2321,"lon":5.35558,"is_reserved":false,"is_disabled":false,"rental_uris":{"android":"levelo://app?vid=be8a233f-ad85-41b2-af03-bfa1e3033438","ios":"levelo://app?vid=be8a233f-ad85-41b2-af03-bfa1e3033438"},"vehicle_type_id":"4","last_reported":1736356065,"current_range_meters":31200,"station_id":"ce4bhu92rcd13ifvqi70","pricing_plan_id":"cebpf4jnsgd1na2vs0mg"},{"bike_id":"98ab625c-a622-4213-ba12-d88b9b4c3cc4","system_id":"levelo_inurba_marseille","lat":43.28841,"lon":5.35842,"is_reserved":false,"is_disabled":false,"rental_uris":{"android":"levelo://app?vid=98ab625c-a622-4213-ba12-d88b9b4c3cc4","ios":"levelo://app?vid=98ab625c-a622-4213-ba12-d88b9b4c3cc4"},"vehicle_type_id":"4","last_reported":1736356065,"current_range_meters":38800,"station_id":"ce4bhb12rcd13ifvqem0","pricing_plan_id":"cebpf4jnsgd1na2vs0mg"},{"bike_id":"07e6e137-ffe4-4406-8820-5cea14d15801","system_id":"levelo_inurba_marseille","lat":43.25829,"lon":5.39438,"is_reserved":false,"is_disabled":false,"rental_uris":{"android":"levelo://app?vid=07e6e137-ffe4-4406-8820-5cea14d15801","ios":"levelo://app?vid=07e6e137-ffe4-4406-8820-5cea14d15801"},"vehicle_type_id":"4","last_reported":1736356065,"current_range_meters":31200,"station_id":"ce4bhip2rcd13ifvqft0","pricing_plan_id":"cebpf4jnsgd1na2vs0mg"},{"bike_id":"65e45bc2-89fc-4f49-a256-2a9100c411cb","system_id":"levelo_inurba_marseille","lat":43.267866,"lon":5.394186,"is_reserved":false,"is_disabled":false,"rental_uris":{"android":"levelo://app?vid=65e45bc2-89fc-4f49-a256-2a9100c411cb","ios":"levelo://app?vid=65e45bc2-89fc-4f49-a256-2a9100c411cb"},"vehicle_type_id":"4","last_reported":1736356065,"current_range_meters":38800,"station_id":"ce4bhh12rcd13ifvqfg0","pricing_plan_id":"cebpf4jnsgd1na2vs0mg"},{"bike_id":"fdbd4426-d248-4ee5-942e-d8c3f440100b","system_id":"levelo_inurba_marseille","lat":43.3013,"lon":5.39851,"is_reserved":false,"is_disabled":false,"rental_uris":{"android":"levelo://app?vid=fdbd4426-d248-4ee5-942e-d8c3f440100b","ios":"levelo://app?vid=fdbd4426-d248-4ee5-942e-d8c3f440100b"},"vehicle_type_id":"4","last_reported":1736356065,"current_range_meters":32800,"station_id":"ce4bh0h2rcd13ifvqd40","pricing_plan_id":"cebpf4jnsgd1na2vs0mg"},{"bike_id":"e92013d7-e7fd-4a70-b5fb-40e0e2348217","system_id":"levelo_inurba_marseille","lat":43.29614,"lon":5.37726,"is_reserved":false,"is_disabled":true,"rental_uris":{"android":"levelo://app?vid=e92013d7-e7fd-4a70-b5fb-40e0e2348217","ios":"levelo://app?vid=e92013d7-e7fd-4a70-b5fb-40e0e2348217"},"vehicle_type_id":"4","last_reported":1736356065,"current_range_meters":37600,"station_id":"ce4bgi92rcd13ifvqb90","pricing_plan_id":"cebpf4jnsgd1na2vs0mg"},{"bike_id":"73a4e391-710f-48d2-a903-19a2a8689c73","system_id":"levelo_inurba_marseille","lat":43.28367,"lon":5.39846,"is_reserved":false,"is_disabled":false,"rental_uris":{"android":"levelo://app?vid=73a4e391-710f-48d2-a903-19a2a8689c73","ios":"levelo://app?vid=73a4e391-710f-48d2-a903-19a2a8689c73"},"vehicle_type_id":"4","last_reported":1736356065,"current_range_meters":29600,"station_id":"","pricing_plan_id":"cebpf4jnsgd1na2vs0mg"},{"bike_id":"a642fc20-cfeb-46e2-8d05-2b3d0a97d889","system_id":"levelo_inurba_marseille","lat":43.25719,"lon":5.41113,"is_reserved":false,"is_disabled":false,"rental_uris":{"android":"levelo://app?vid=a642fc20-cfeb-46e2-8d05-2b3d0a97d889","ios":"levelo://app?vid=a642fc20-cfeb-46e2-8d05-2b3d0a97d889"},"vehicle_type_id":"4","last_reported":1736356065,"current_range_meters":17200,"station_id":"ce4bhkp2rcd13ifvqgd0","pricing_plan_id":"cebpf4jnsgd1na2vs0mg"},{"bike_id":"00a72efa-a10f-49d0-aa70-242a46d93380","system_id":"levelo_inurba_marseille","lat":43.25502,"lon":5.37651,"is_reserved":false,"is_disabled":false,"rental_uris":{"android":"levelo://app?vid=00a72efa-a10f-49d0-aa70-242a46d93380","ios":"levelo://app?vid=00a72efa-a10f-49d0-aa70-242a46d93380"},"vehicle_type_id":"4","last_reported":1736356065,"current_range_meters":19600,"station_id":"ce4bhh12rcd13ifvqff0","pricing_plan_id":"cebpf4jnsgd1na2vs0mg"},{"bike_id":"0686a8cb-2b76-4424-87d1-4f58c91d61f2","system_id":"levelo_inurba_marseille","lat":43.25715,"lon":5.41102,"is_reserved":false,"is_disabled":false,"rental_uris":{"android":"levelo://app?vid=0686a8cb-2b76-4424-87d1-4f58c91d61f2","ios":"levelo://app?vid=0686a8cb-2b76-4424-87d1-4f58c91d61f2"},"vehicle_type_id":"4","last_reported":1736356065,"current_range_meters":38800,"station_id":"ce4bhkp2rcd13ifvqgd0","pricing_plan_id":"cebpf4jnsgd1na2vs0mg"},{"bike_id":"ad1dff91-2f95-4984-91ce-84be50678298","system_id":"levelo_inurba_marseille","lat":43.26198,"lon":5.37911,"is_reserved":false,"is_disabled":false,"rental_uris":{"android":"levelo://app?vid=ad1dff91-2f95-4984-91ce-84be50678298","ios":"levelo://app?vid=ad1dff91-2f95-4984-91ce-84be50678298"},"vehicle_type_id":"4","last_reported":1736356065,"current_range_meters":35200,"station_id":"ce4bhjp2rcd13ifvqg90","pricing_plan_id":"cebpf4jnsgd1na2vs0mg"},{"bike_id":"1f13abda-0c2f-485b-b7d9-de8f3b464a21","system_id":"levelo_inurba_marseille","lat":43.29611,"lon":5.37699,"is_reserved":false,"is_disabled":true,"rental_uris":{"android":"levelo://app?vid=1f13abda-0c2f-485b-b7d9-de8f3b464a21","ios":"levelo://app?vid=1f13abda-0c2f-485b-b7d9-de8f3b464a21"},"vehicle_type_id":"4","last_reported":1736356065,"current_range_meters":37600,"station_id":"ce4bgi92rcd13ifvqb90","pricing_plan_id":"cebpf4jnsgd1na2vs0mg"},{"bike_id":"34cb8090-cfb8-4338-aee7-9c83eb7af208","system_id":"levelo_inurba_marseille","lat":43.31128,"lon":5.37798,"is_reserved":false,"is_disabled":false,"rental_uris":{"android":"levelo://app?vid=34cb8090-cfb8-4338-aee7-9c83eb7af208","ios":"levelo://app?vid=34cb8090-cfb8-4338-aee7-9c83eb7af208"},"vehicle_type_id":"4","last_reported":1736356065,"current_range_meters":29600,"station_id":"ce4bgt92rcd13ifvqcg0","pricing_plan_id":"cebpf4jnsgd1na2vs0mg"},{"bike_id":"ca5b73b8-bbae-4af5-a5a9-ad3889f9d436","system_id":"levelo_inurba_marseille","lat":43.27377,"lon":5.3626,"is_reserved":false,"is_disabled":false,"rental_uris":{"android":"levelo://app?vid=ca5b73b8-bbae-4af5-a5a9-ad3889f9d436","ios":"levelo://app?vid=ca5b73b8-bbae-4af5-a5a9-ad3889f9d436"},"vehicle_type_id":"4","last_reported":1736356065,"current_range_meters":38800,"station_id":"ce4bhbh2rcd13ifvqeo0","pricing_plan_id":"cebpf4jnsgd1na2vs0mg"},{"bike_id":"ad28bd53-1c8c-44ea-9a1c-1e5a5b2498fe","system_id":"levelo_inurba_marseille","lat":43.241682,"lon":5.364079,"is_reserved":false,"is_disabled":false,"rental_uris":{"android":"levelo://app?vid=ad28bd53-1c8c-44ea-9a1c-1e5a5b2498fe","ios":"levelo://app?vid=ad28bd53-1c8c-44ea-9a1c-1e5a5b2498fe"},"vehicle_type_id":"4","last_reported":1736356065,"current_range_meters":18800,"station_id":"cpo36qri1sfpv3e86is0","pricing_plan_id":"cebpf4jnsgd1na2vs0mg"},{"bike_id":"0f032c2e-c163-4b1c-a872-453a417529f1","system_id":"levelo_inurba_marseille","lat":43.31323,"lon":5.39686,"is_reserved":false,"is_disabled":false,"rental_uris":{"android":"levelo://app?vid=0f032c2e-c163-4b1c-a872-453a417529f1","ios":"levelo://app?vid=0f032c2e-c163-4b1c-a872-453a417529f1"},"vehicle_type_id":"4","last_reported":1736356065,"current_range_meters":27600,"station_id":"ce4bgvp2rcd13ifvqcu0","pricing_plan_id":"cebpf4jnsgd1na2vs0mg"},{"bike_id":"356c48a4-6ddc-4500-9195-7c23c6e800b2","system_id":"levelo_inurba_marseille","lat":43.2926,"lon":5.40903,"is_reserved":false,"is_disabled":false,"rental_uris":{"android":"levelo://app?vid=356c48a4-6ddc-4500-9195-7c23c6e800b2","ios":"levelo://app?vid=356c48a4-6ddc-4500-9195-7c23c6e800b2"},"vehicle_type_id":"4","last_reported":1736356065,"current_range_meters":34800,"station_id":"ce4bh192rcd13ifvqdc0","pricing_plan_id":"cebpf4jnsgd1na2vs0mg"},{"bike_id":"46afa4bc-c930-44a2-adc9-94c8f932b324","system_id":"levelo_inurba_marseille","lat":43.28708,"lon":5.36425,"is_reserved":false,"is_disabled":false,"rental_uris":{"android":"levelo://app?vid=46afa4bc-c930-44a2-adc9-94c8f932b324","ios":"levelo://app?vid=46afa4bc-c930-44a2-adc9-94c8f932b324"},"vehicle_type_id":"4","last_reported":1736356065,"current_range_meters":9600,"station_id":"","pricing_plan_id":"cebpf4jnsgd1na2vs0mg"},{"bike_id":"c8ebe7df-006f-4929-bdb9-97e0f784e301","system_id":"levelo_inurba_marseille","lat":43.29586,"lon":5.36737,"is_reserved":false,"is_disabled":false,"rental_uris":{"android":"levelo://app?vid=c8ebe7df-006f-4929-bdb9-97e0f784e301","ios":"levelo://app?vid=c8ebe7df-006f-4929-bdb9-97e0f784e301"},"vehicle_type_id":"4","last_reported":1736356065,"current_range_meters":38800,"station_id":"ce4bgph2rcd13ifvqc2g","pricing_plan_id":"cebpf4jnsgd1na2vs0mg"},{"bike_id":"cecb496a-19a6-4ad5-b31b-eac3846b2c8c","system_id":"levelo_inurba_marseille","lat":43.29382,"lon":5.37862,"is_reserved":false,"is_disabled":true,"rental_uris":{"android":"levelo://app?vid=cecb496a-19a6-4ad5-b31b-eac3846b2c8c","ios":"levelo://app?vid=cecb496a-19a6-4ad5-b31b-eac3846b2c8c"},"vehicle_type_id":"4","last_reported":1736356065,"current_range_meters":2000,"station_id":"ce4bgjh2rcd13ifvqbf0","pricing_plan_id":"cebpf4jnsgd1na2vs0mg"},{"bike_id":"1eaabab8-2049-48b4-abbd-d6b2411bfb42","system_id":"levelo_inurba_marseille","lat":43.29581,"lon":5.36747,"is_reserved":false,"is_disabled":false,"rental_uris":{"android":"levelo://app?vid=1eaabab8-2049-48b4-abbd-d6b2411bfb42","ios":"levelo://app?vid=1eaabab8-2049-48b4-abbd-d6b2411bfb42"},"vehicle_type_id":"4","last_reported":1736356065,"current_range_meters":36800,"station_id":"ce4bgph2rcd13ifvqc2g","pricing_plan_id":"cebpf4jnsgd1na2vs0mg"},{"bike_id":"47fce4f8-7718-407d-9dee-89ea3cf87e47","system_id":"levelo_inurba_marseille","lat":43.2294,"lon":5.35377,"is_reserved":false,"is_disabled":false,"rental_uris":{"android":"levelo://app?vid=47fce4f8-7718-407d-9dee-89ea3cf87e47","ios":"levelo://app?vid=47fce4f8-7718-407d-9dee-89ea3cf87e47"},"vehicle_type_id":"4","last_reported":1736356065,"current_range_meters":24400,"station_id":"cpo3532slgdg3j2ikp40","pricing_plan_id":"cebpf4jnsgd1na2vs0mg"},{"bike_id":"f24c8a3c-fa35-4bc7-a0b5-430a3e39c318","system_id":"levelo_inurba_marseille","lat":43.29258,"lon":5.38437,"is_reserved":false,"is_disabled":false,"rental_uris":{"android":"levelo://app?vid=f24c8a3c-fa35-4bc7-a0b5-430a3e39c318","ios":"levelo://app?vid=f24c8a3c-fa35-4bc7-a0b5-430a3e39c318"},"vehicle_type_id":"4","last_reported":1736356065,"current_range_meters":12400,"station_id":"ce4bh692rcd13ifvqea0","pricing_plan_id":"cebpf4jnsgd1na2vs0mg"},{"bike_id":"9b8394f4-8355-4766-83cc-d75e5933c4be","system_id":"levelo_inurba_marseille","lat":43.31769,"lon":5.39008,"is_reserved":false,"is_disabled":false,"rental_uris":{"android":"levelo://app?vid=9b8394f4-8355-4766-83cc-d75e5933c4be","ios":"levelo://app?vid=9b8394f4-8355-4766-83cc-d75e5933c4be"},"vehicle_type_id":"4","last_reported":1736356065,"current_range_meters":31200,"station_id":"ce4bhqp2rcd13ifvqhng","pricing_plan_id":"cebpf4jnsgd1na2vs0mg"},{"bike_id":"5bfb38b3-cd0f-45ad-8b08-72611f08ffdb","system_id":"levelo_inurba_marseille","lat":43.2856,"lon":5.39488,"is_reserved":false,"is_disabled":false,"rental_uris":{"android":"levelo://app?vid=5bfb38b3-cd0f-45ad-8b08-72611f08ffdb","ios":"levelo://app?vid=5bfb38b3-cd0f-45ad-8b08-72611f08ffdb"},"vehicle_type_id":"4","last_reported":1736356065,"current_range_meters":24400,"station_id":"ce4bh292rcd13ifvqdg0","pricing_plan_id":"cebpf4jnsgd1na2vs0mg"},{"bike_id":"484ef2cf-d9aa-4d98-a849-1c40ecaf33ea","system_id":"levelo_inurba_marseille","lat":43.30188,"lon":5.36635,"is_reserved":false,"is_disabled":false,"rental_uris":{"android":"levelo://app?vid=484ef2cf-d9aa-4d98-a849-1c40ecaf33ea","ios":"levelo://app?vid=484ef2cf-d9aa-4d98-a849-1c40ecaf33ea"},"vehicle_type_id":"4","last_reported":1736356065,"current_range_meters":11200,"station_id":"ce4bgrh2rcd13ifvqc8g","pricing_plan_id":"cebpf4jnsgd1na2vs0mg"},{"bike_id":"a412c127-42d2-426f-8887-6e6167d789f2","system_id":"levelo_inurba_marseille","lat":43.32119,"lon":5.36766,"is_reserved":false,"is_disabled":false,"rental_uris":{"android":"levelo://app?vid=a412c127-42d2-426f-8887-6e6167d789f2","ios":"levelo://app?vid=a412c127-42d2-426f-8887-6e6167d789f2"},"vehicle_type_id":"4","last_reported":1736356065,"current_range_meters":38000,"station_id":"ce4bhrh2rcd13ifvqhug","pricing_plan_id":"cebpf4jnsgd1na2vs0mg"},{"bike_id":"cf73ed32-2149-4473-831e-3aa30e7ca303","system_id":"levelo_inurba_marseille","lat":43.28942,"lon":5.36635,"is_reserved":false,"is_disabled":false,"rental_uris":{"android":"levelo://app?vid=cf73ed32-2149-4473-831e-3aa30e7ca303","ios":"levelo://app?vid=cf73ed32-2149-4473-831e-3aa30e7ca303"},"vehicle_type_id":"4","last_reported":1736356065,"current_range_meters":37600,"station_id":"ce4bhap2rcd13ifvqek0","pricing_plan_id":"cebpf4jnsgd1na2vs0mg"},{"bike_id":"1ace9e65-a3fc-4489-a313-689327305bfa","system_id":"levelo_inurba_marseille","lat":43.29799,"lon":5.39311,"is_reserved":false,"is_disabled":false,"rental_uris":{"android":"levelo://app?vid=1ace9e65-a3fc-4489-a313-689327305bfa","ios":"levelo://app?vid=1ace9e65-a3fc-4489-a313-689327305bfa"},"vehicle_type_id":"4","last_reported":1736356065,"current_range_meters":38800,"station_id":"chh1huq6cuj3fo74tm60","pricing_plan_id":"cebpf4jnsgd1na2vs0mg"},{"bike_id":"d8b9e2b7-c1f2-4563-bc02-df9f2ace0536","system_id":"levelo_inurba_marseille","lat":43.25011,"lon":5.38917,"is_reserved":false,"is_disabled":false,"rental_uris":{"android":"levelo://app?vid=d8b9e2b7-c1f2-4563-bc02-df9f2ace0536","ios":"levelo://app?vid=d8b9e2b7-c1f2-4563-bc02-df9f2ace0536"},"vehicle_type_id":"4","last_reported":1736356065,"current_range_meters":38800,"station_id":"ce4bhgp2rcd13ifvqfd0","pricing_plan_id":"cebpf4jnsgd1na2vs0mg"},{"bike_id":"7bc5649e-6bf9-44e0-81e0-4779df803f45","system_id":"levelo_inurba_marseille","lat":43.28151,"lon":5.42634,"is_reserved":false,"is_disabled":true,"rental_uris":{"android":"levelo://app?vid=7bc5649e-6bf9-44e0-81e0-4779df803f45","ios":"levelo://app?vid=7bc5649e-6bf9-44e0-81e0-4779df803f45"},"vehicle_type_id":"4","last_reported":1736356065,"current_range_meters":0,"station_id":"ce4bhnh2rcd13ifvqgug","pricing_plan_id":"cebpf4jnsgd1na2vs0mg"},{"bike_id":"589ff427-7f96-42f4-8329-98df85bb3cc4","system_id":"levelo_inurba_marseille","lat":43.33015,"lon":5.39043,"is_reserved":false,"is_disabled":false,"rental_uris":{"android":"levelo://app?vid=589ff427-7f96-42f4-8329-98df85bb3cc4","ios":"levelo://app?vid=589ff427-7f96-42f4-8329-98df85bb3cc4"},"vehicle_type_id":"4","last_reported":1736356065,"current_range_meters":38000,"station_id":"ce4bhr92rcd13ifvqhrg","pricing_plan_id":"cebpf4jnsgd1na2vs0mg"},{"bike_id":"b52afaec-797c-4237-81dd-a84b1347d7d1","system_id":"levelo_inurba_marseille","lat":43.25866,"lon":5.39918,"is_reserved":false,"is_disabled":false,"rental_uris":{"android":"levelo://app?vid=b52afaec-797c-4237-81dd-a84b1347d7d1","ios":"levelo://app?vid=b52afaec-797c-4237-81dd-a84b1347d7d1"},"vehicle_type_id":"4","last_reported":1736356065,"current_range_meters":20400,"station_id":"ce4bhl92rcd13ifvqghg","pricing_plan_id":"cebpf4jnsgd1na2vs0mg"},{"bike_id":"3e9bad61-0010-4fd1-a570-c77726c17ef9","system_id":"levelo_inurba_marseille","lat":43.29754,"lon":5.37719,"is_reserved":false,"is_disabled":false,"rental_uris":{"android":"levelo://app?vid=3e9bad61-0010-4fd1-a570-c77726c17ef9","ios":"levelo://app?vid=3e9bad61-0010-4fd1-a570-c77726c17ef9"},"vehicle_type_id":"4","last_reported":1736356065,"current_range_meters":6400,"station_id":"ce4bgkh2rcd13ifvqbl0","pricing_plan_id":"cebpf4jnsgd1na2vs0mg"},{"bike_id":"77140e92-43d3-4e9c-b1bf-1a7db1513194","system_id":"levelo_inurba_marseille","lat":43.27816,"lon":5.40705,"is_reserved":false,"is_disabled":false,"rental_uris":{"android":"levelo://app?vid=77140e92-43d3-4e9c-b1bf-1a7db1513194","ios":"levelo://app?vid=77140e92-43d3-4e9c-b1bf-1a7db1513194"},"vehicle_type_id":"4","last_reported":1736356065,"current_range_meters":39200,"station_id":"ce4bhnh2rcd13ifvqgtg","pricing_plan_id":"cebpf4jnsgd1na2vs0mg"},{"bike_id":"af720f83-9bb6-4128-80e2-b556fc2473ce","system_id":"levelo_inurba_marseille","lat":43.27819,"lon":5.40692,"is_reserved":false,"is_disabled":false,"rental_uris":{"android":"levelo://app?vid=af720f83-9bb6-4128-80e2-b556fc2473ce","ios":"levelo://app?vid=af720f83-9bb6-4128-80e2-b556fc2473ce"},"vehicle_type_id":"4","last_reported":1736356065,"current_range_meters":36800,"station_id":"ce4bhnh2rcd13ifvqgtg","pricing_plan_id":"cebpf4jnsgd1na2vs0mg"},{"bike_id":"c1611393-9844-41e8-85a4-5aa8321ae0a8","system_id":"levelo_inurba_marseille","lat":43.29891,"lon":5.38894,"is_reserved":false,"is_disabled":false,"rental_uris":{"android":"levelo://app?vid=c1611393-9844-41e8-85a4-5aa8321ae0a8","ios":"levelo://app?vid=c1611393-9844-41e8-85a4-5aa8321ae0a8"},"vehicle_type_id":"4","last_reported":1736356065,"current_range_meters":17600,"station_id":"ce4bh392rcd13ifvqdl0","pricing_plan_id":"cebpf4jnsgd1na2vs0mg"},{"bike_id":"bf7eae56-070a-4bda-b9b7-49af1bf8c80a","system_id":"levelo_inurba_marseille","lat":43.29267,"lon":5.3844,"is_reserved":false,"is_disabled":false,"rental_uris":{"android":"levelo://app?vid=bf7eae56-070a-4bda-b9b7-49af1bf8c80a","ios":"levelo://app?vid=bf7eae56-070a-4bda-b9b7-49af1bf8c80a"},"vehicle_type_id":"4","last_reported":1736356065,"current_range_meters":24400,"station_id":"ce4bh692rcd13ifvqea0","pricing_plan_id":"cebpf4jnsgd1na2vs0mg"},{"bike_id":"0ce73ae1-b154-43da-a4ed-8140bf82ff61","system_id":"levelo_inurba_marseille","lat":43.28612,"lon":5.35093,"is_reserved":false,"is_disabled":true,"rental_uris":{"android":"levelo://app?vid=0ce73ae1-b154-43da-a4ed-8140bf82ff61","ios":"levelo://app?vid=0ce73ae1-b154-43da-a4ed-8140bf82ff61"},"vehicle_type_id":"4","last_reported":1736356065,"current_range_meters":0,"station_id":"ce4bhch2rcd13ifvqeug","pricing_plan_id":"cebpf4jnsgd1na2vs0mg"},{"bike_id":"2087c673-8bc9-4b01-b827-0ee077a6c1a0","system_id":"levelo_inurba_marseille","lat":43.26215,"lon":5.37434,"is_reserved":false,"is_disabled":false,"rental_uris":{"android":"levelo://app?vid=2087c673-8bc9-4b01-b827-0ee077a6c1a0","ios":"levelo://app?vid=2087c673-8bc9-4b01-b827-0ee077a6c1a0"},"vehicle_type_id":"4","last_reported":1736356065,"current_range_meters":28800,"station_id":"ce4bhgp2rcd13ifvqfc0","pricing_plan_id":"cebpf4jnsgd1na2vs0mg"},{"bike_id":"8a3e6b18-2c2b-49ca-9f0a-506d1fa5a0a1","system_id":"levelo_inurba_marseille","lat":43.27577,"lon":5.384,"is_reserved":false,"is_disabled":false,"rental_uris":{"android":"levelo://app?vid=8a3e6b18-2c2b-49ca-9f0a-506d1fa5a0a1","ios":"levelo://app?vid=8a3e6b18-2c2b-49ca-9f0a-506d1fa5a0a1"},"vehicle_type_id":"4","last_reported":1736356065,"current_range_meters":38800,"station_id":"ce4bhh92rcd13ifvqfi0","pricing_plan_id":"cebpf4jnsgd1na2vs0mg"},{"bike_id":"00078eda-2ff6-4cf3-a5b4-64f4b7f5c985","system_id":"levelo_inurba_marseille","lat":43.29509,"lon":5.39388,"is_reserved":false,"is_disabled":true,"rental_uris":{"android":"levelo://app?vid=00078eda-2ff6-4cf3-a5b4-64f4b7f5c985","ios":"levelo://app?vid=00078eda-2ff6-4cf3-a5b4-64f4b7f5c985"},"vehicle_type_id":"4","last_reported":1736356065,"current_range_meters":3600,"station_id":"ce4bh292rcd13ifvqdf0","pricing_plan_id":"cebpf4jnsgd1na2vs0mg"},{"bike_id":"93fa3cc7-a04d-4cab-9a1d-8675dc055467","system_id":"levelo_inurba_marseille","lat":43.26783,"lon":5.39411,"is_reserved":false,"is_disabled":false,"rental_uris":{"android":"levelo://app?vid=93fa3cc7-a04d-4cab-9a1d-8675dc055467","ios":"levelo://app?vid=93fa3cc7-a04d-4cab-9a1d-8675dc055467"},"vehicle_type_id":"4","last_reported":1736356065,"current_range_meters":9600,"station_id":"ce4bhh12rcd13ifvqfg0","pricing_plan_id":"cebpf4jnsgd1na2vs0mg"},{"bike_id":"b3b92ee9-f643-41a4-a439-2bf93e1c05c6","system_id":"levelo_inurba_marseille","lat":43.28611,"lon":5.37053,"is_reserved":false,"is_disabled":false,"rental_uris":{"android":"levelo://app?vid=b3b92ee9-f643-41a4-a439-2bf93e1c05c6","ios":"levelo://app?vid=b3b92ee9-f643-41a4-a439-2bf93e1c05c6"},"vehicle_type_id":"4","last_reported":1736356065,"current_range_meters":22000,"station_id":"ce4bht12rcd13ifvqi60","pricing_plan_id":"cebpf4jnsgd1na2vs0mg"},{"bike_id":"6f4f7cd4-04bd-4ff2-888a-2e933861228e","system_id":"levelo_inurba_marseille","lat":43.30353,"lon":5.41886,"is_reserved":false,"is_disabled":false,"rental_uris":{"android":"levelo://app?vid=6f4f7cd4-04bd-4ff2-888a-2e933861228e","ios":"levelo://app?vid=6f4f7cd4-04bd-4ff2-888a-2e933861228e"},"vehicle_type_id":"4","last_reported":1736356065,"current_range_meters":37600,"station_id":"ce4bhop2rcd13ifvqh7g","pricing_plan_id":"cebpf4jnsgd1na2vs0mg"},{"bike_id":"50c34ebb-5ab3-4c5f-bb8d-95c2d360e913","system_id":"levelo_inurba_marseille","lat":43.24654,"lon":5.38892,"is_reserved":false,"is_disabled":false,"rental_uris":{"android":"levelo://app?vid=50c34ebb-5ab3-4c5f-bb8d-95c2d360e913","ios":"levelo://app?vid=50c34ebb-5ab3-4c5f-bb8d-95c2d360e913"},"vehicle_type_id":"4","last_reported":1736356065,"current_range_meters":39200,"station_id":"ce4bhg12rcd13ifvqf60","pricing_plan_id":"cebpf4jnsgd1na2vs0mg"},{"bike_id":"c9a9b866-78de-4142-b4b0-d265a4ec9669","system_id":"levelo_inurba_marseille","lat":43.29828,"lon":5.43706,"is_reserved":false,"is_disabled":false,"rental_uris":{"android":"levelo://app?vid=c9a9b866-78de-4142-b4b0-d265a4ec9669","ios":"levelo://app?vid=c9a9b866-78de-4142-b4b0-d265a4ec9669"},"vehicle_type_id":"4","last_reported":1736356065,"current_range_meters":16400,"station_id":"","pricing_plan_id":"cebpf4jnsgd1na2vs0mg"},{"bike_id":"e9fad1e2-4dc7-4f19-a657-eac573518993","system_id":"levelo_inurba_marseille","lat":43.26496,"lon":5.39538,"is_reserved":false,"is_disabled":false,"rental_uris":{"android":"levelo://app?vid=e9fad1e2-4dc7-4f19-a657-eac573518993","ios":"levelo://app?vid=e9fad1e2-4dc7-4f19-a657-eac573518993"},"vehicle_type_id":"4","last_reported":1736356065,"current_range_meters":17200,"station_id":"ce4bhi12rcd13ifvqfq0","pricing_plan_id":"cebpf4jnsgd1na2vs0mg"},{"bike_id":"b241f517-541a-41c7-8418-c4dc2557ee7a","system_id":"levelo_inurba_marseille","lat":43.29202,"lon":5.35796,"is_reserved":false,"is_disabled":false,"rental_uris":{"android":"levelo://app?vid=b241f517-541a-41c7-8418-c4dc2557ee7a","ios":"levelo://app?vid=b241f517-541a-41c7-8418-c4dc2557ee7a"},"vehicle_type_id":"4","last_reported":1736356065,"current_range_meters":7200,"station_id":"ce4bhb12rcd13ifvqel0","pricing_plan_id":"cebpf4jnsgd1na2vs0mg"},{"bike_id":"94dcfaa4-32b6-4343-96d5-20edd54c839d","system_id":"levelo_inurba_marseille","lat":43.27315,"lon":5.39089,"is_reserved":false,"is_disabled":true,"rental_uris":{"android":"levelo://app?vid=94dcfaa4-32b6-4343-96d5-20edd54c839d","ios":"levelo://app?vid=94dcfaa4-32b6-4343-96d5-20edd54c839d"},"vehicle_type_id":"4","last_reported":1736356065,"current_range_meters":2000,"station_id":"ce4bhgp2rcd13ifvqfe0","pricing_plan_id":"cebpf4jnsgd1na2vs0mg"},{"bike_id":"a182a1fd-ef07-4d89-93fc-b80046ed0ade","system_id":"levelo_inurba_marseille","lat":43.2682,"lon":5.40239,"is_reserved":false,"is_disabled":false,"rental_uris":{"android":"levelo://app?vid=a182a1fd-ef07-4d89-93fc-b80046ed0ade","ios":"levelo://app?vid=a182a1fd-ef07-4d89-93fc-b80046ed0ade"},"vehicle_type_id":"4","last_reported":1736356065,"current_range_meters":33200,"station_id":"ce501612rcd8frsf0b60","pricing_plan_id":"cebpf4jnsgd1na2vs0mg"},{"bike_id":"07e45895-4310-481e-821d-b43808260341","system_id":"levelo_inurba_marseille","lat":43.2789,"lon":5.38014,"is_reserved":false,"is_disabled":false,"rental_uris":{"android":"levelo://app?vid=07e45895-4310-481e-821d-b43808260341","ios":"levelo://app?vid=07e45895-4310-481e-821d-b43808260341"},"vehicle_type_id":"4","last_reported":1736356065,"current_range_meters":20400,"station_id":"ce4bhf92rcd13ifvqf50","pricing_plan_id":"cebpf4jnsgd1na2vs0mg"},{"bike_id":"c833d07d-e828-4a83-a675-76086963257a","system_id":"levelo_inurba_marseille","lat":43.24551,"lon":5.39533,"is_reserved":false,"is_disabled":false,"rental_uris":{"android":"levelo://app?vid=c833d07d-e828-4a83-a675-76086963257a","ios":"levelo://app?vid=c833d07d-e828-4a83-a675-76086963257a"},"vehicle_type_id":"4","last_reported":1736356065,"current_range_meters":38800,"station_id":"ce4bhlp2rcd13ifvqgjg","pricing_plan_id":"cebpf4jnsgd1na2vs0mg"},{"bike_id":"e3c33a85-b129-4c45-a78a-8de1d4365706","system_id":"levelo_inurba_marseille","lat":43.30211,"lon":5.39472,"is_reserved":false,"is_disabled":false,"rental_uris":{"android":"levelo://app?vid=e3c33a85-b129-4c45-a78a-8de1d4365706","ios":"levelo://app?vid=e3c33a85-b129-4c45-a78a-8de1d4365706"},"vehicle_type_id":"4","last_reported":1736356065,"current_range_meters":24000,"station_id":"ce4bh0p2rcd13ifvqd70","pricing_plan_id":"cebpf4jnsgd1na2vs0mg"},{"bike_id":"e7bf0cdb-94e3-4c98-af70-0b5528bb8e8f","system_id":"levelo_inurba_marseille","lat":43.31322,"lon":5.39698,"is_reserved":false,"is_disabled":false,"rental_uris":{"android":"levelo://app?vid=e7bf0cdb-94e3-4c98-af70-0b5528bb8e8f","ios":"levelo://app?vid=e7bf0cdb-94e3-4c98-af70-0b5528bb8e8f"},"vehicle_type_id":"4","last_reported":1736356065,"current_range_meters":20000,"station_id":"ce4bgvp2rcd13ifvqcu0","pricing_plan_id":"cebpf4jnsgd1na2vs0mg"},{"bike_id":"567dbc2a-6c6d-41de-a127-a286ce1ae190","system_id":"levelo_inurba_marseille","lat":43.27994,"lon":5.40011,"is_reserved":false,"is_disabled":false,"rental_uris":{"android":"levelo://app?vid=567dbc2a-6c6d-41de-a127-a286ce1ae190","ios":"levelo://app?vid=567dbc2a-6c6d-41de-a127-a286ce1ae190"},"vehicle_type_id":"4","last_reported":1736356065,"current_range_meters":8800,"station_id":"ce4bho92rcd13ifvqh4g","pricing_plan_id":"cebpf4jnsgd1na2vs0mg"},{"bike_id":"fc4f973c-c491-4458-ba80-cfebf7c8dd0d","system_id":"levelo_inurba_marseille","lat":43.22946,"lon":5.35369,"is_reserved":false,"is_disabled":false,"rental_uris":{"android":"levelo://app?vid=fc4f973c-c491-4458-ba80-cfebf7c8dd0d","ios":"levelo://app?vid=fc4f973c-c491-4458-ba80-cfebf7c8dd0d"},"vehicle_type_id":"4","last_reported":1736356065,"current_range_meters":38800,"station_id":"cpo3532slgdg3j2ikp40","pricing_plan_id":"cebpf4jnsgd1na2vs0mg"},{"bike_id":"c74941d5-bd61-40c9-8c0d-3104b939ec30","system_id":"levelo_inurba_marseille","lat":43.30326,"lon":5.40427,"is_reserved":false,"is_disabled":false,"rental_uris":{"android":"levelo://app?vid=c74941d5-bd61-40c9-8c0d-3104b939ec30","ios":"levelo://app?vid=c74941d5-bd61-40c9-8c0d-3104b939ec30"},"vehicle_type_id":"4","last_reported":1736356065,"current_range_meters":11200,"station_id":"ce4bh012rcd13ifvqd10","pricing_plan_id":"cebpf4jnsgd1na2vs0mg"},{"bike_id":"f95277d2-6f50-4971-a5d0-0408234d7c69","system_id":"levelo_inurba_marseille","lat":43.26804,"lon":5.40251,"is_reserved":false,"is_disabled":false,"rental_uris":{"android":"levelo://app?vid=f95277d2-6f50-4971-a5d0-0408234d7c69","ios":"levelo://app?vid=f95277d2-6f50-4971-a5d0-0408234d7c69"},"vehicle_type_id":"4","last_reported":1736356065,"current_range_meters":17600,"station_id":"ce501612rcd8frsf0b60","pricing_plan_id":"cebpf4jnsgd1na2vs0mg"},{"bike_id":"63da2ccd-322f-4664-8fc3-e2e18e3c4164","system_id":"levelo_inurba_marseille","lat":43.28563,"lon":5.39503,"is_reserved":false,"is_disabled":false,"rental_uris":{"android":"levelo://app?vid=63da2ccd-322f-4664-8fc3-e2e18e3c4164","ios":"levelo://app?vid=63da2ccd-322f-4664-8fc3-e2e18e3c4164"},"vehicle_type_id":"4","last_reported":1736356065,"current_range_meters":30400,"station_id":"ce4bh292rcd13ifvqdg0","pricing_plan_id":"cebpf4jnsgd1na2vs0mg"},{"bike_id":"eb700a83-d115-4392-bd52-c7a8ef04eacc","system_id":"levelo_inurba_marseille","lat":43.26791,"lon":5.39406,"is_reserved":false,"is_disabled":false,"rental_uris":{"android":"levelo://app?vid=eb700a83-d115-4392-bd52-c7a8ef04eacc","ios":"levelo://app?vid=eb700a83-d115-4392-bd52-c7a8ef04eacc"},"vehicle_type_id":"4","last_reported":1736356065,"current_range_meters":11600,"station_id":"ce4bhh12rcd13ifvqfg0","pricing_plan_id":"cebpf4jnsgd1na2vs0mg"},{"bike_id":"6319fe85-44ea-4721-99c9-03be9afc7fde","system_id":"levelo_inurba_marseille","lat":43.2841,"lon":5.37506,"is_reserved":false,"is_disabled":false,"rental_uris":{"android":"levelo://app?vid=6319fe85-44ea-4721-99c9-03be9afc7fde","ios":"levelo://app?vid=6319fe85-44ea-4721-99c9-03be9afc7fde"},"vehicle_type_id":"4","last_reported":1736356065,"current_range_meters":31200,"station_id":"ce4bh412rcd13ifvqds0","pricing_plan_id":"cebpf4jnsgd1na2vs0mg"},{"bike_id":"fc7ae45b-afc1-49a3-97d8-11832ea99abb","system_id":"levelo_inurba_marseille","lat":43.29858,"lon":5.3629,"is_reserved":false,"is_disabled":true,"rental_uris":{"android":"levelo://app?vid=fc7ae45b-afc1-49a3-97d8-11832ea99abb","ios":"levelo://app?vid=fc7ae45b-afc1-49a3-97d8-11832ea99abb"},"vehicle_type_id":"4","last_reported":1736356065,"current_range_meters":36400,"station_id":"ce4bgpp2rcd13ifvqc3g","pricing_plan_id":"cebpf4jnsgd1na2vs0mg"},{"bike_id":"6fdecff2-2545-405f-8c66-4d246590b289","system_id":"levelo_inurba_marseille","lat":43.24176,"lon":5.36383,"is_reserved":false,"is_disabled":false,"rental_uris":{"android":"levelo://app?vid=6fdecff2-2545-405f-8c66-4d246590b289","ios":"levelo://app?vid=6fdecff2-2545-405f-8c66-4d246590b289"},"vehicle_type_id":"4","last_reported":1736356065,"current_range_meters":24000,"station_id":"cpo36qri1sfpv3e86is0","pricing_plan_id":"cebpf4jnsgd1na2vs0mg"},{"bike_id":"b9a3f77c-7f63-4ab8-a0bc-0b011bc2b93a","system_id":"levelo_inurba_marseille","lat":43.28454,"lon":5.3589,"is_reserved":false,"is_disabled":false,"rental_uris":{"android":"levelo://app?vid=b9a3f77c-7f63-4ab8-a0bc-0b011bc2b93a","ios":"levelo://app?vid=b9a3f77c-7f63-4ab8-a0bc-0b011bc2b93a"},"vehicle_type_id":"4","last_reported":1736356065,"current_range_meters":10800,"station_id":"ce4bhah2rcd13ifvqei0","pricing_plan_id":"cebpf4jnsgd1na2vs0mg"},{"bike_id":"df49446f-8668-431c-9b6f-795fdc81cad4","system_id":"levelo_inurba_marseille","lat":43.24665,"lon":5.38171,"is_reserved":false,"is_disabled":false,"rental_uris":{"android":"levelo://app?vid=df49446f-8668-431c-9b6f-795fdc81cad4","ios":"levelo://app?vid=df49446f-8668-431c-9b6f-795fdc81cad4"},"vehicle_type_id":"4","last_reported":1736356065,"current_range_meters":36400,"station_id":"ce4bhih2rcd13ifvqfr0","pricing_plan_id":"cebpf4jnsgd1na2vs0mg"},{"bike_id":"89b5dc32-9ab6-4dd9-adc2-e6d6a80963ed","system_id":"levelo_inurba_marseille","lat":43.29898,"lon":5.3811,"is_reserved":false,"is_disabled":true,"rental_uris":{"android":"levelo://app?vid=89b5dc32-9ab6-4dd9-adc2-e6d6a80963ed","ios":"levelo://app?vid=89b5dc32-9ab6-4dd9-adc2-e6d6a80963ed"},"vehicle_type_id":"4","last_reported":1736356065,"current_range_meters":6400,"station_id":"ce4bgj12rcd13ifvqbc0","pricing_plan_id":"cebpf4jnsgd1na2vs0mg"},{"bike_id":"062ea977-00ab-4d87-8ae4-ae683febe522","system_id":"levelo_inurba_marseille","lat":43.26943,"lon":5.40243,"is_reserved":false,"is_disabled":false,"rental_uris":{"android":"levelo://app?vid=062ea977-00ab-4d87-8ae4-ae683febe522","ios":"levelo://app?vid=062ea977-00ab-4d87-8ae4-ae683febe522"},"vehicle_type_id":"4","last_reported":1736356065,"current_range_meters":38800,"station_id":"cjm6bp8fraef2m0cb0m0","pricing_plan_id":"cebpf4jnsgd1na2vs0mg"},{"bike_id":"425cd8eb-6ed9-491c-acfa-f8db0f9f2515","system_id":"levelo_inurba_marseille","lat":43.28858,"lon":5.35852,"is_reserved":false,"is_disabled":false,"rental_uris":{"android":"levelo://app?vid=425cd8eb-6ed9-491c-acfa-f8db0f9f2515","ios":"levelo://app?vid=425cd8eb-6ed9-491c-acfa-f8db0f9f2515"},"vehicle_type_id":"4","last_reported":1736356065,"current_range_meters":16800,"station_id":"ce4bhb12rcd13ifvqem0","pricing_plan_id":"cebpf4jnsgd1na2vs0mg"},{"bike_id":"2ca5ecdb-fd64-43f4-bf3c-d6b670616471","system_id":"levelo_inurba_marseille","lat":43.31113,"lon":5.37769,"is_reserved":false,"is_disabled":false,"rental_uris":{"android":"levelo://app?vid=2ca5ecdb-fd64-43f4-bf3c-d6b670616471","ios":"levelo://app?vid=2ca5ecdb-fd64-43f4-bf3c-d6b670616471"},"vehicle_type_id":"4","last_reported":1736356065,"current_range_meters":17600,"station_id":"ce4bgt92rcd13ifvqcg0","pricing_plan_id":"cebpf4jnsgd1na2vs0mg"},{"bike_id":"8577db2a-c4e3-4b25-a2d8-748c02b0a27e","system_id":"levelo_inurba_marseille","lat":43.29686,"lon":5.37267,"is_reserved":false,"is_disabled":false,"rental_uris":{"android":"levelo://app?vid=8577db2a-c4e3-4b25-a2d8-748c02b0a27e","ios":"levelo://app?vid=8577db2a-c4e3-4b25-a2d8-748c02b0a27e"},"vehicle_type_id":"4","last_reported":1736356065,"current_range_meters":35200,"station_id":"ce4bgk12rcd13ifvqbj0","pricing_plan_id":"cebpf4jnsgd1na2vs0mg"},{"bike_id":"79e0d50d-92cd-4dee-b242-6a3ab4a489dd","system_id":"levelo_inurba_marseille","lat":43.31265,"lon":5.36957,"is_reserved":false,"is_disabled":false,"rental_uris":{"android":"levelo://app?vid=79e0d50d-92cd-4dee-b242-6a3ab4a489dd","ios":"levelo://app?vid=79e0d50d-92cd-4dee-b242-6a3ab4a489dd"},"vehicle_type_id":"4","last_reported":1736356065,"current_range_meters":22400,"station_id":"","pricing_plan_id":"cebpf4jnsgd1na2vs0mg"},{"bike_id":"d1d0082b-9aba-43b4-80cf-6fb1d733b5da","system_id":"levelo_inurba_marseille","lat":43.26819,"lon":5.40234,"is_reserved":false,"is_disabled":false,"rental_uris":{"android":"levelo://app?vid=d1d0082b-9aba-43b4-80cf-6fb1d733b5da","ios":"levelo://app?vid=d1d0082b-9aba-43b4-80cf-6fb1d733b5da"},"vehicle_type_id":"4","last_reported":1736356065,"current_range_meters":38800,"station_id":"ce501612rcd8frsf0b60","pricing_plan_id":"cebpf4jnsgd1na2vs0mg"},{"bike_id":"cf848e9d-50b8-4b12-890b-523f9ae6f540","system_id":"levelo_inurba_marseille","lat":43.26928,"lon":5.38922,"is_reserved":false,"is_disabled":true,"rental_uris":{"android":"levelo://app?vid=cf848e9d-50b8-4b12-890b-523f9ae6f540","ios":"levelo://app?vid=cf848e9d-50b8-4b12-890b-523f9ae6f540"},"vehicle_type_id":"4","last_reported":1736356065,"current_range_meters":800,"station_id":"ce4bhhh2rcd13ifvqfl0","pricing_plan_id":"cebpf4jnsgd1na2vs0mg"},{"bike_id":"b33de770-0176-4f2c-b1df-4981baef9ccc","system_id":"levelo_inurba_marseille","lat":43.28436,"lon":5.39197,"is_reserved":false,"is_disabled":false,"rental_uris":{"android":"levelo://app?vid=b33de770-0176-4f2c-b1df-4981baef9ccc","ios":"levelo://app?vid=b33de770-0176-4f2c-b1df-4981baef9ccc"},"vehicle_type_id":"4","last_reported":1736356065,"current_range_meters":39200,"station_id":"ce4bhoh2rcd13ifvqh5g","pricing_plan_id":"cebpf4jnsgd1na2vs0mg"},{"bike_id":"831c5f93-0d82-465d-b98b-0b97f9f5a990","system_id":"levelo_inurba_marseille","lat":43.2781,"lon":5.40716,"is_reserved":false,"is_disabled":false,"rental_uris":{"android":"levelo://app?vid=831c5f93-0d82-465d-b98b-0b97f9f5a990","ios":"levelo://app?vid=831c5f93-0d82-465d-b98b-0b97f9f5a990"},"vehicle_type_id":"4","last_reported":1736356065,"current_range_meters":18800,"station_id":"ce4bhnh2rcd13ifvqgtg","pricing_plan_id":"cebpf4jnsgd1na2vs0mg"},