{"last_updated":1750201830,"ttl":60,"version":"2.2","data":{"bikes":[{"bike_id":"3da29fb8-fc97-44c6-b9ac-31dd456b2fd4","system_id":"levelo_inurba_marseille","lat":43.33771,"lon":5.37424,"is_reserved":false,"is_disabled":true,"rental_uris":{"android":"levelo://app?vid=3da29fb8-fc97-44c6-b9ac-31dd456b2fd4","ios":"levelo://app?vid=3da29fb8-fc97-44c6-b9ac-31dd456b2fd4"},"vehicle_type_id":"4","last_reported":1750201830,"current_range_meters":0,"station_id":"","pricing_plan_id":"cebpf4jnsgd1na2vs0mg"},{"bike_id":"01861ad8-a8d7-4be6-816e-651927c87584","system_id":"levelo_inurba_marseille","lat":43.33751,"lon":5.37456,"is_reserved":false,"is_disabled":true,"rental_uris":{"android":"levelo://app?vid=01861ad8-a8d7-4be6-816e-651927c87584","ios":"levelo://app?vid=01861ad8-a8d7-4be6-816e-651927c87584"},"vehicle_type_id":"4","last_reported":1750201830,"current_range_meters":0,"station_id":"","pricing_plan_id":"cebpf4jnsgd1na2vs0mg"},{"bike_id":"dbfce7a3-3423-4296-b193-a177dea644ac","system_id":"levelo_inurba_marseille","lat":43.27284,"lon":5.41618,"is_reserved":false,"is_disabled":true,"rental_uris":{"android":"levelo://app?vid=dbfce7a3-3423-4296-b193-a177dea644ac","ios":"levelo://app?vid=dbfce7a3-3423-4296-b193-a177dea644ac"},"vehicle_type_id":"4","last_reported":1750201830,"current_range_meters":0,"station_id":"","pricing_plan_id":"cebpf4jnsgd1na2vs0mg"},{"bike_id":"d2bd57c8-6b64-48db-ad24-5398eb3fd9d6","system_id":"levelo_inurba_marseille","lat":43.337444,"lon":5.374475,"is_reserved":false,"is_disabled":true,"rental_uris":{"android":"levelo://app?vid=d2bd57c8-6b64-48db-ad24-5398eb3fd9d6","ios":"levelo://app?vid=d2bd57c8-6b64-48db-ad24-5398eb3fd9d6"},"vehicle_type_id":"4","last_reported":1750201830,"current_range_meters":0,"station_id":"","pricing_plan_id":"cebpf4jnsgd1na2vs0mg"},{"bike_id":"62a493c7-4534-4419-ad43-0582de34a72a","system_id":"levelo_inurba_marseille","lat":43.21366,"lon":5.355183,"is_reserved":false,"is_disabled":true,"rental_uris":{"android":"levelo://app?vid=62a493c7-4534-4419-ad43-0582de34a72a","ios":"levelo://app?vid=62a493c7-4534-4419-ad43-0582de34a72a"},"vehicle_type_id":"4","last_reported":1750201830,"current_range_meters":0,"station_id":"","pricing_plan_id":"cebpf4jnsgd1na2vs0mg"},{"bike_id":"8ad9234e-001a-4549-8bba-9baf2ef98804","system_id":"levelo_inurba_marseille","lat":43.27465,"lon":5.39823,"is_reserved":false,"is_disabled":true,"rental_uris":{"android":"levelo://app?vid=8ad9234e-001a-4549-8bba-9baf2ef98804","ios":"levelo://app?vid=8ad9234e-001a-4549-8bba-9baf2ef98804"},"vehicle_type_id":"4","last_reported":1750201830,"current_range_meters":0,"station_id":"","pricing_plan_id":"cebpf4jnsgd1na2vs0mg"},{"bike_id":"93af304b-67b5-47b8-a3fd-e0775f7cde8c","system_id":"levelo_inurba_marseille","lat":43.21529,"lon":5.34749,"is_reserved":false,"is_disabled":true,"rental_uris":{"android":"levelo://app?vid=93af304b-67b5-47b8-a3fd-e0775f7cde8c","ios":"levelo://app?vid=93af304b-67b5-47b8-a3fd-e0775f7cde8c"},"vehicle_type_id":"4","last_reported":1750201830,"current_range_meters":0,"station_id":"","pricing_plan_id":"cebpf4jnsgd1na2vs0mg"},{"bike_id":"d6609b4f-333b-43c1-9ebe-8726f5e76e88","system_id":"levelo_inurba_marseille","lat":43.337444,"lon":5.374475,"is_reserved":false,"is_disabled":true,"rental_uris":{"android":"levelo://app?vid=d6609b4f-333b-43c1-9ebe-8726f5e76e88","ios":"levelo://app?vid=d6609b4f-333b-43c1-9ebe-8726f5e76e88"},"vehicle_type_id":"4","last_reported":1750201830,"current_range_meters":0,"station_id":"","pricing_plan_id":"cebpf4jnsgd1na2vs0mg"},{"bike_id":"57c83ce1-960e-466a-b6c5-d93bc130c53a","system_id":"levelo_inurba_marseille","lat":43.24903,"lon":5.389543,"is_reserved":false,"is_disabled":true,"rental_uris":{"android":"levelo://app?vid=57c83ce1-960e-466a-b6c5-d93bc130c53a","ios":"levelo://app?vid=57c83ce1-960e-466a-b6c5-d93bc130c53a"},"vehicle_type_id":"4","last_reported":1750201830,"current_range_meters":0,"station_id":"","pricing_plan_id":"cebpf4jnsgd1na2vs0mg"},{"bike_id":"b9e37238-9abe-4b8b-b932-edaee33a7e59","system_id":"levelo_inurba_marseille","lat":43.27457,"lon":5.39002,"is_reserved":false,"is_disabled":true,"rental_uris":{"android":"levelo://app?vid=b9e37238-9abe-4b8b-b932-edaee33a7e59","ios":"levelo://app?vid=b9e37238-9abe-4b8b-b932-edaee33a7e59"},"vehicle_type_id":"4","last_reported":1750201830,"current_range_meters":400,"station_id":"","pricing_plan_id":"cebpf4jnsgd1na2vs0mg"},{"bike_id":"5da97664-e937-4d7b-aa84-649dea181ecb","system_id":"levelo_inurba_marseille","lat":43.2842,"lon":5.34984,"is_reserved":false,"is_disabled":true,"rental_uris":{"android":"levelo://app?vid=5da97664-e937-4d7b-aa84-649dea181ecb","ios":"levelo://app?vid=5da97664-e937-4d7b-aa84-649dea181ecb"},"vehicle_type_id":"4","last_reported":1750201830,"current_range_meters":400,"station_id":"ce4bhbh2rcd13ifvqepg","pricing_plan_id":"cebpf4jnsgd1na2vs0mg"},{"bike_id":"fad888b2-415f-4914-b968-ce7799d38de6","system_id":"levelo_inurba_marseille","lat":43.31518,"lon":5.367959,"is_reserved":false,"is_disabled":true,"rental_uris":{"android":"levelo://app?vid=fad888b2-415f-4914-b968-ce7799d38de6","ios":"levelo://app?vid=fad888b2-415f-4914-b968-ce7799d38de6"},"vehicle_type_id":"4","last_reported":1750201830,"current_range_meters":1200,"station_id":"ce4bgr92rcd13ifvqc6g","pricing_plan_id":"cebpf4jnsgd1na2vs0mg"},{"bike_id":"630f82b9-48b0-4b95-962a-22e603fa1467","system_id":"levelo_inurba_marseille","lat":43.28617,"lon":5.351063,"is_reserved":false,"is_disabled":true,"rental_uris":{"android":"levelo://app?vid=630f82b9-48b0-4b95-962a-22e603fa1467","ios":"levelo://app?vid=630f82b9-48b0-4b95-962a-22e603fa1467"},"vehicle_type_id":"4","last_reported":1750201830,"current_range_meters":1200,"station_id":"ce4bhch2rcd13ifvqeug","pricing_plan_id":"cebpf4jnsgd1na2vs0mg"},{"bike_id":"8d297b38-f666-4a46-9dee-0132f800019c","system_id":"levelo_inurba_marseille","lat":43.32171,"lon":5.3835,"is_reserved":false,"is_disabled":true,"rental_uris":{"android":"levelo://app?vid=8d297b38-f666-4a46-9dee-0132f800019c","ios":"levelo://app?vid=8d297b38-f666-4a46-9dee-0132f800019c"},"vehicle_type_id":"4","last_reported":1750201830,"current_range_meters":2000,"station_id":"","pricing_plan_id":"cebpf4jnsgd1na2vs0mg"},{"bike_id":"f0225a8f-650d-4232-ac75-6d34eea490f9","system_id":"levelo_inurba_marseille","lat":43.28401,"lon":5.37506,"is_reserved":false,"is_disabled":false,"rental_uris":{"android":"levelo://app?vid=f0225a8f-650d-4232-ac75-6d34eea490f9","ios":"levelo://app?vid=f0225a8f-650d-4232-ac75-6d34eea490f9"},"vehicle_type_id":"4","last_reported":1750201830,"current_range_meters":2000,"station_id":"ce4bh412rcd13ifvqds0","pricing_plan_id":"cebpf4jnsgd1na2vs0mg"},{"bike_id":"0f68cffc-8799-4eb2-86e1-eaa544a3ffe0","system_id":"levelo_inurba_marseille","lat":43.30318,"lon":5.40479,"is_reserved":false,"is_disabled":false,"rental_uris":{"android":"levelo://app?vid=0f68cffc-8799-4eb2-86e1-eaa544a3ffe0","ios":"levelo://app?vid=0f68cffc-8799-4eb2-86e1-eaa544a3ffe0"},"vehicle_type_id":"4","last_reported":1750201830,"current_range_meters":4000,"station_id":"ce4bh012rcd13ifvqd10","pricing_plan_id":"cebpf4jnsgd1na2vs0mg"},{"bike_id":"1c8dd34b-9d03-492f-aa85-8944da27fde3","system_id":"levelo_inurba_marseille","lat":43.286047,"lon":5.370543,"is_reserved":false,"is_disabled":false,"rental_uris":{"android":"levelo://app?vid=1c8dd34b-9d03-492f-aa85-8944da27fde3","ios":"levelo://app?vid=1c8dd34b-9d03-492f-aa85-8944da27fde3"},"vehicle_type_id":"4","last_reported":1750201830,"current_range_meters":4400,"station_id":"","pricing_plan_id":"cebpf4jnsgd1na2vs0mg"},{"bike_id":"9b83a8d6-0327-478b-b8a6-d7c2a965d539","system_id":"levelo_inurba_marseille","lat":43.28684,"lon":5.37424,"is_reserved":false,"is_disabled":false,"rental_uris":{"android":"levelo://app?vid=9b83a8d6-0327-478b-b8a6-d7c2a965d539","ios":"levelo://app?vid=9b83a8d6-0327-478b-b8a6-d7c2a965d539"},"vehicle_type_id":"4","last_reported":1750201830,"current_range_meters":4800,"station_id":"ce4bh3p2rcd13ifvqdq0","pricing_plan_id":"cebpf4jnsgd1na2vs0mg"},{"bike_id":"47196f00-388f-4b3b-a4de-3dba126cd107","system_id":"levelo_inurba_marseille","lat":43.24362,"lon":5.41168,"is_reserved":false,"is_disabled":false,"rental_uris":{"android":"levelo://app?vid=47196f00-388f-4b3b-a4de-3dba126cd107","ios":"levelo://app?vid=47196f00-388f-4b3b-a4de-3dba126cd107"},"vehicle_type_id":"4","last_reported":1750201830,"current_range_meters":6000,"station_id":"","pricing_plan_id":"cebpf4jnsgd1na2vs0mg"},{"bike_id":"4a007428-3f7b-4158-a69b-b5f9b19aa1b7","system_id":"levelo_inurba_marseille","lat":43.28656,"lon":5.36355,"is_reserved":false,"is_disabled":false,"rental_uris":{"android":"levelo://app?vid=4a007428-3f7b-4158-a69b-b5f9b19aa1b7","ios":"levelo://app?vid=4a007428-3f7b-4158-a69b-b5f9b19aa1b7"},"vehicle_type_id":"4","last_reported":1750201830,"current_range_meters":6000,"station_id":"ce4bhah2rcd13ifvqej0","pricing_plan_id":"cebpf4jnsgd1na2vs0mg"},{"bike_id":"92212e4d-7217-4ead-b453-7ca4b9ff37cb","system_id":"levelo_inurba_marseille","lat":43.28471,"lon":5.35898,"is_reserved":false,"is_disabled":false,"rental_uris":{"android":"levelo://app?vid=92212e4d-7217-4ead-b453-7ca4b9ff37cb","ios":"levelo://app?vid=92212e4d-7217-4ead-b453-7ca4b9ff37cb"},"vehicle_type_id":"4","last_reported":1750201830,"current_range_meters":7200,"station_id":"ce4bhah2rcd13ifvqei0","pricing_plan_id":"cebpf4jnsgd1na2vs0mg"},{"bike_id":"3c5a731a-41ea-4f66-8384-8dd61416f555","system_id":"levelo_inurba_marseille","lat":43.30416,"lon":5.41291,"is_reserved":false,"is_disabled":false,"rental_uris":{"android":"levelo://app?vid=3c5a731a-41ea-4f66-8384-8dd61416f555","ios":"levelo://app?vid=3c5a731a-41ea-4f66-8384-8dd61416f555"},"vehicle_type_id":"4","last_reported":1750201830,"current_range_meters":7200,"station_id":"ce4bhop2rcd13ifvqh8g","pricing_plan_id":"cebpf4jnsgd1na2vs0mg"},{"bike_id":"da3e1724-606c-4f9a-9130-d56dd48e22e0","system_id":"levelo_inurba_marseille","lat":43.32943,"lon":5.40653,"is_reserved":false,"is_disabled":false,"rental_uris":{"android":"levelo://app?vid=da3e1724-606c-4f9a-9130-d56dd48e22e0","ios":"levelo://app?vid=da3e1724-606c-4f9a-9130-d56dd48e22e0"},"vehicle_type_id":"4","last_reported":1750201830,"current_range_meters":8000,"station_id":"","pricing_plan_id":"cebpf4jnsgd1na2vs0mg"},{"bike_id":"d4e954d2-dc65-4f22-984e-459772f3259d","system_id":"levelo_inurba_marseille","lat":43.3079,"lon":5.38158,"is_reserved":false,"is_disabled":false,"rental_uris":{"android":"levelo://app?vid=d4e954d2-dc65-4f22-984e-459772f3259d","ios":"levelo://app?vid=d4e954d2-dc65-4f22-984e-459772f3259d"},"vehicle_type_id":"4","last_reported":1750201830,"current_range_meters":8000,"station_id":"ce4bgt12rcd13ifvqce0","pricing_plan_id":"cebpf4jnsgd1na2vs0mg"},{"bike_id":"7dd5c82a-e4be-4cab-a499-dfca4328d3bf","system_id":"levelo_inurba_marseille","lat":43.29279,"lon":5.40134,"is_reserved":false,"is_disabled":false,"rental_uris":{"android":"levelo://app?vid=7dd5c82a-e4be-4cab-a499-dfca4328d3bf","ios":"levelo://app?vid=7dd5c82a-e4be-4cab-a499-dfca4328d3bf"},"vehicle_type_id":"4","last_reported":1750201830,"current_range_meters":8000,"station_id":"ce4bh312rcd13ifvqdk0","pricing_plan_id":"cebpf4jnsgd1na2vs0mg"},{"bike_id":"e03a6d42-f362-4878-ab56-4b5afba95b0c","system_id":"levelo_inurba_marseille","lat":43.31505,"lon":5.36955,"is_reserved":false,"is_disabled":false,"rental_uris":{"android":"levelo://app?vid=e03a6d42-f362-4878-ab56-4b5afba95b0c","ios":"levelo://app?vid=e03a6d42-f362-4878-ab56-4b5afba95b0c"},"vehicle_type_id":"4","last_reported":1750201830,"current_range_meters":8400,"station_id":"","pricing_plan_id":"cebpf4jnsgd1na2vs0mg"},{"bike_id":"6ba80795-26da-43fa-ab60-6831760385ff","system_id":"levelo_inurba_marseille","lat":43.32567,"lon":5.42011,"is_reserved":false,"is_disabled":false,"rental_uris":{"android":"levelo://app?vid=6ba80795-26da-43fa-ab60-6831760385ff","ios":"levelo://app?vid=6ba80795-26da-43fa-ab60-6831760385ff"},"vehicle_type_id":"4","last_reported":1750201830,"current_range_meters":8400,"station_id":"","pricing_plan_id":"cebpf4jnsgd1na2vs0mg"},{"bike_id":"1a501d06-e467-4a02-ad29-e5e3288d4853","system_id":"levelo_inurba_marseille","lat":43.301272,"lon":5.398723,"is_reserved":false,"is_disabled":false,"rental_uris":{"android":"levelo://app?vid=1a501d06-e467-4a02-ad29-e5e3288d4853","ios":"levelo://app?vid=1a501d06-e467-4a02-ad29-e5e3288d4853"},"vehicle_type_id":"4","last_reported":1750201830,"current_range_meters":8800,"station_id":"ce4bh0h2rcd13ifvqd40","pricing_plan_id":"cebpf4jnsgd1na2vs0mg"},{"bike_id":"1463cf71-40d3-44b2-ac31-39c640264f3e","system_id":"levelo_inurba_marseille","lat":43.28832,"lon":5.39315,"is_reserved":false,"is_disabled":false,"rental_uris":{"android":"levelo://app?vid=1463cf71-40d3-44b2-ac31-39c640264f3e","ios":"levelo://app?vid=1463cf71-40d3-44b2-ac31-39c640264f3e"},"vehicle_type_id":"4","last_reported":1750201830,"current_range_meters":8800,"station_id":"ce4bh2p2rcd13ifvqdi0","pricing_plan_id":"cebpf4jnsgd1na2vs0mg"},{"bike_id":"3f4cc7ee-3e43-4309-8e81-a9314c89e8a7","system_id":"levelo_inurba_marseille","lat":43.29227,"lon":5.36077,"is_reserved":false,"is_disabled":false,"rental_uris":{"android":"levelo://app?vid=3f4cc7ee-3e43-4309-8e81-a9314c89e8a7","ios":"levelo://app?vid=3f4cc7ee-3e43-4309-8e81-a9314c89e8a7"},"vehicle_type_id":"4","last_reported":1750201830,"current_range_meters":8800,"station_id":"ce4bhbh2rcd13ifvqeqg","pricing_plan_id":"cebpf4jnsgd1na2vs0mg"},{"bike_id":"83f35a71-5456-4f5a-8a01-d943bd814fec","system_id":"levelo_inurba_marseille","lat":43.30382,"lon":5.42495,"is_reserved":false,"is_disabled":false,"rental_uris":{"android":"levelo://app?vid=83f35a71-5456-4f5a-8a01-d943bd814fec","ios":"levelo://app?vid=83f35a71-5456-4f5a-8a01-d943bd814fec"},"vehicle_type_id":"4","last_reported":1750201830,"current_range_meters":8800,"station_id":"ce4bhoh2rcd13ifvqh6g","pricing_plan_id":"cebpf4jnsgd1na2vs0mg"},{"bike_id":"3b136301-d892-4bf1-aa15-695ec30464ca","system_id":"levelo_inurba_marseille","lat":43.32089,"lon":5.36765,"is_reserved":false,"is_disabled":false,"rental_uris":{"android":"levelo://app?vid=3b136301-d892-4bf1-aa15-695ec30464ca","ios":"levelo://app?vid=3b136301-d892-4bf1-aa15-695ec30464ca"},"vehicle_type_id":"4","last_reported":1750201830,"current_range_meters":8800,"station_id":"ce4bhrh2rcd13ifvqhug","pricing_plan_id":"cebpf4jnsgd1na2vs0mg"},{"bike_id":"ae8524c6-7b10-43ef-8ed4-b8035f1213c1","system_id":"levelo_inurba_marseille","lat":43.33438,"lon":5.40192,"is_reserved":false,"is_disabled":false,"rental_uris":{"android":"levelo://app?vid=ae8524c6-7b10-43ef-8ed4-b8035f1213c1","ios":"levelo://app?vid=ae8524c6-7b10-43ef-8ed4-b8035f1213c1"},"vehicle_type_id":"4","last_reported":1750201830,"current_range_meters":9200,"station_id":"","pricing_plan_id":"cebpf4jnsgd1na2vs0mg"},{"bike_id":"95e0d29a-fdad-45eb-a9e3-07866f4eac6d","system_id":"levelo_inurba_marseille","lat":43.29652,"lon":5.36245,"is_reserved":false,"is_disabled":false,"rental_uris":{"android":"levelo://app?vid=95e0d29a-fdad-45eb-a9e3-07866f4eac6d","ios":"levelo://app?vid=95e0d29a-fdad-45eb-a9e3-07866f4eac6d"},"vehicle_type_id":"4","last_reported":1750201830,"current_range_meters":9200,"station_id":"","pricing_plan_id":"cebpf4jnsgd1na2vs0mg"},{"bike_id":"81d7bdb5-9785-4820-b40d-fc4e833bd5e2","system_id":"levelo_inurba_marseille","lat":43.30246,"lon":5.40066,"is_reserved":false,"is_disabled":false,"rental_uris":{"android":"levelo://app?vid=81d7bdb5-9785-4820-b40d-fc4e833bd5e2","ios":"levelo://app?vid=81d7bdb5-9785-4820-b40d-fc4e833bd5e2"},"vehicle_type_id":"4","last_reported":1750201830,"current_range_meters":9200,"station_id":"ce4bgvh2rcd13ifvqcs0","pricing_plan_id":"cebpf4jnsgd1na2vs0mg"},{"bike_id":"27c2d2f3-0763-4fba-bf41-b0429d56bfb6","system_id":"levelo_inurba_marseille","lat":43.285677,"lon":5.395009,"is_reserved":false,"is_disabled":false,"rental_uris":{"android":"levelo://app?vid=27c2d2f3-0763-4fba-bf41-b0429d56bfb6","ios":"levelo://app?vid=27c2d2f3-0763-4fba-bf41-b0429d56bfb6"},"vehicle_type_id":"4","last_reported":1750201830,"current_range_meters":9200,"station_id":"ce4bh292rcd13ifvqdg0","pricing_plan_id":"cebpf4jnsgd1na2vs0mg"},{"bike_id":"1e0ddbd1-45b4-4ac1-81e5-ae2fa0bf8686","system_id":"levelo_inurba_marseille","lat":43.26569,"lon":5.39025,"is_reserved":false,"is_disabled":false,"rental_uris":{"android":"levelo://app?vid=1e0ddbd1-45b4-4ac1-81e5-ae2fa0bf8686","ios":"levelo://app?vid=1e0ddbd1-45b4-4ac1-81e5-ae2fa0bf8686"},"vehicle_type_id":"4","last_reported":1750201830,"current_range_meters":9200,"station_id":"ce4bhe12rcd13ifvqf30","pricing_plan_id":"cebpf4jnsgd1na2vs0mg"},{"bike_id":"99cad508-6ecc-4a68-9c2f-388d966e9df1","system_id":"levelo_inurba_marseille","lat":43.3073,"lon":5.42445,"is_reserved":false,"is_disabled":false,"rental_uris":{"android":"levelo://app?vid=99cad508-6ecc-4a68-9c2f-388d966e9df1","ios":"levelo://app?vid=99cad508-6ecc-4a68-9c2f-388d966e9df1"},"vehicle_type_id":"4","last_reported":1750201830,"current_range_meters":9200,"station_id":"st_cvj6ca6bvosntc0bfgr0","pricing_plan_id":"cebpf4jnsgd1na2vs0mg"},{"bike_id":"ad347c14-931f-4261-ab3b-a1807595d5e4","system_id":"levelo_inurba_marseille","lat":43.3166,"lon":5.4049,"is_reserved":false,"is_disabled":false,"rental_uris":{"android":"levelo://app?vid=ad347c14-931f-4261-ab3b-a1807595d5e4","ios":"levelo://app?vid=ad347c14-931f-4261-ab3b-a1807595d5e4"},"vehicle_type_id":"4","last_reported":1750201830,"current_range_meters":9600,"station_id":"ce4bh012rcd13ifvqd00","pricing_plan_id":"cebpf4jnsgd1na2vs0mg"},{"bike_id":"035df5f9-5415-4646-b778-3e5c2fc962b5","system_id":"levelo_inurba_marseille","lat":43.30414,"lon":5.39743,"is_reserved":false,"is_disabled":false,"rental_uris":{"android":"levelo://app?vid=035df5f9-5415-4646-b778-3e5c2fc962b5","ios":"levelo://app?vid=035df5f9-5415-4646-b778-3e5c2fc962b5"},"vehicle_type_id":"4","last_reported":1750201830,"current_range_meters":9600,"station_id":"ce4bh092rcd13ifvqd20","pricing_plan_id":"cebpf4jnsgd1na2vs0mg"},{"bike_id":"c8403838-ebf2-481e-a573-10f233cb9622","system_id":"levelo_inurba_marseille","lat":43.28425,"lon":5.39223,"is_reserved":false,"is_disabled":false,"rental_uris":{"android":"levelo://app?vid=c8403838-ebf2-481e-a573-10f233cb9622","ios":"levelo://app?vid=c8403838-ebf2-481e-a573-10f233cb9622"},"vehicle_type_id":"4","last_reported":1750201830,"current_range_meters":9600,"station_id":"ce4bhoh2rcd13ifvqh5g","pricing_plan_id":"cebpf4jnsgd1na2vs0mg"},{"bike_id":"d31c5734-5db3-43fd-8bc4-31fce50e2834","system_id":"levelo_inurba_marseille","lat":43.30863,"lon":5.39602,"is_reserved":false,"is_disabled":false,"rental_uris":{"android":"levelo://app?vid=d31c5734-5db3-43fd-8bc4-31fce50e2834","ios":"levelo://app?vid=d31c5734-5db3-43fd-8bc4-31fce50e2834"},"vehicle_type_id":"4","last_reported":1750201830,"current_range_meters":10000,"station_id":"","pricing_plan_id":"cebpf4jnsgd1na2vs0mg"},{"bike_id":"e8794c91-9955-44b6-95fb-d7607645aa78","system_id":"levelo_inurba_marseille","lat":43.29281,"lon":5.40115,"is_reserved":false,"is_disabled":false,"rental_uris":{"android":"levelo://app?vid=e8794c91-9955-44b6-95fb-d7607645aa78","ios":"levelo://app?vid=e8794c91-9955-44b6-95fb-d7607645aa78"},"vehicle_type_id":"4","last_reported":1750201830,"current_range_meters":10000,"station_id":"ce4bh312rcd13ifvqdk0","pricing_plan_id":"cebpf4jnsgd1na2vs0mg"},{"bike_id":"84b0c19d-3c6a-48c7-ae72-a22a51d91e69","system_id":"levelo_inurba_marseille","lat":43.286701,"lon":5.38655,"is_reserved":false,"is_disabled":false,"rental_uris":{"android":"levelo://app?vid=84b0c19d-3c6a-48c7-ae72-a22a51d91e69","ios":"levelo://app?vid=84b0c19d-3c6a-48c7-ae72-a22a51d91e69"},"vehicle_type_id":"4","last_reported":1750201830,"current_range_meters":10000,"station_id":"ce4bh492rcd13ifvqdug","pricing_plan_id":"cebpf4jnsgd1na2vs0mg"},{"bike_id":"0e27dafc-21df-4fb1-bd36-2450a7866702","system_id":"levelo_inurba_marseille","lat":43.271632,"lon":5.399934,"is_reserved":false,"is_disabled":false,"rental_uris":{"android":"levelo://app?vid=0e27dafc-21df-4fb1-bd36-2450a7866702","ios":"levelo://app?vid=0e27dafc-21df-4fb1-bd36-2450a7866702"},"vehicle_type_id":"4","last_reported":1750201830,"current_range_meters":10800,"station_id":"","pricing_plan_id":"cebpf4jnsgd1na2vs0mg"},{"bike_id":"291e908c-dbad-4b5b-8d11-efbc9e25f64f","system_id":"levelo_inurba_marseille","lat":43.30253,"lon":5.40082,"is_reserved":false,"is_disabled":false,"rental_uris":{"android":"levelo://app?vid=291e908c-dbad-4b5b-8d11-efbc9e25f64f","ios":"levelo://app?vid=291e908c-dbad-4b5b-8d11-efbc9e25f64f"},"vehicle_type_id":"4","last_reported":1750201830,"current_range_meters":10800,"station_id":"ce4bgvh2rcd13ifvqcs0","pricing_plan_id":"cebpf4jnsgd1na2vs0mg"},{"bike_id":"7c7d8ab5-008b-47eb-a5ae-5a63a77e5f6a","system_id":"levelo_inurba_marseille","lat":43.292546,"lon":5.4091,"is_reserved":false,"is_disabled":false,"rental_uris":{"android":"levelo://app?vid=7c7d8ab5-008b-47eb-a5ae-5a63a77e5f6a","ios":"levelo://app?vid=7c7d8ab5-008b-47eb-a5ae-5a63a77e5f6a"},"vehicle_type_id":"4","last_reported":1750201830,"current_range_meters":10800,"station_id":"ce4bh192rcd13ifvqdc0","pricing_plan_id":"cebpf4jnsgd1na2vs0mg"},{"bike_id":"5ac83309-cdba-4c02-a874-1961a9c10ced","system_id":"levelo_inurba_marseille","lat":43.26488,"lon":5.39536,"is_reserved":false,"is_disabled":false,"rental_uris":{"android":"levelo://app?vid=5ac83309-cdba-4c02-a874-1961a9c10ced","ios":"levelo://app?vid=5ac83309-cdba-4c02-a874-1961a9c10ced"},"vehicle_type_id":"4","last_reported":1750201830,"current_range_meters":10800,"station_id":"ce4bhi12rcd13ifvqfq0","pricing_plan_id":"cebpf4jnsgd1na2vs0mg"},{"bike_id":"b5002037-f4b0-4634-8bc4-796d0c74810e","system_id":"levelo_inurba_marseille","lat":43.24335,"lon":5.41156,"is_reserved":false,"is_disabled":false,"rental_uris":{"android":"levelo://app?vid=b5002037-f4b0-4634-8bc4-796d0c74810e","ios":"levelo://app?vid=b5002037-f4b0-4634-8bc4-796d0c74810e"},"vehicle_type_id":"4","last_reported":1750201830,"current_range_meters":11200,"station_id":"","pricing_plan_id":"cebpf4jnsgd1na2vs0mg"},{"bike_id":"eca25bd6-1b44-4388-a7b0-074a85a4f502","system_id":"levelo_inurba_marseille","lat":43.31098,"lon":5.39758,"is_reserved":false,"is_disabled":false,"rental_uris":{"android":"levelo://app?vid=eca25bd6-1b44-4388-a7b0-074a85a4f502","ios":"levelo://app?vid=eca25bd6-1b44-4388-a7b0-074a85a4f502"},"vehicle_type_id":"4","last_reported":1750201830,"current_range_meters":11200,"station_id":"","pricing_plan_id":"cebpf4jnsgd1na2vs0mg"},{"bike_id":"20a79d6e-4d8c-4e1a-892d-31e75a2ac232","system_id":"levelo_inurba_marseille","lat":43.31075,"lon":5.38357,"is_reserved":false,"is_disabled":false,"rental_uris":{"android":"levelo://app?vid=20a79d6e-4d8c-4e1a-892d-31e75a2ac232","ios":"levelo://app?vid=20a79d6e-4d8c-4e1a-892d-31e75a2ac232"},"vehicle_type_id":"4","last_reported":1750201830,"current_range_meters":11200,"station_id":"ce4bgv92rcd13ifvqcr0","pricing_plan_id":"cebpf4jnsgd1na2vs0mg"},{"bike_id":"280bda03-716a-435b-8bd1-a6eb960c181a","system_id":"levelo_inurba_marseille","lat":43.30095,"lon":5.39102,"is_reserved":false,"is_disabled":false,"rental_uris":{"android":"levelo://app?vid=280bda03-716a-435b-8bd1-a6eb960c181a","ios":"levelo://app?vid=280bda03-716a-435b-8bd1-a6eb960c181a"},"vehicle_type_id":"4","last_reported":1750201830,"current_range_meters":11200,"station_id":"ce4bh192rcd13ifvqdb0","pricing_plan_id":"cebpf4jnsgd1na2vs0mg"},{"bike_id":"78d1ff95-0fa2-4f69-a07b-cb91192953a7","system_id":"levelo_inurba_marseille","lat":43.255,"lon":5.37653,"is_reserved":false,"is_disabled":false,"rental_uris":{"android":"levelo://app?vid=78d1ff95-0fa2-4f69-a07b-cb91192953a7","ios":"levelo://app?vid=78d1ff95-0fa2-4f69-a07b-cb91192953a7"},"vehicle_type_id":"4","last_reported":1750201830,"current_range_meters":11200,"station_id":"ce4bhh12rcd13ifvqff0","pricing_plan_id":"cebpf4jnsgd1na2vs0mg"},{"bike_id":"251f731b-5c47-48df-9683-25878d565ef9","system_id":"levelo_inurba_marseille","lat":43.307326,"lon":5.42442,"is_reserved":false,"is_disabled":false,"rental_uris":{"android":"levelo://app?vid=251f731b-5c47-48df-9683-25878d565ef9","ios":"levelo://app?vid=251f731b-5c47-48df-9683-25878d565ef9"},"vehicle_type_id":"4","last_reported":1750201830,"current_range_meters":11200,"station_id":"st_cvj6ca6bvosntc0bfgr0","pricing_plan_id":"cebpf4jnsgd1na2vs0mg"},{"bike_id":"6d2ce886-7f43-48c5-94fe-ec70698c7144","system_id":"levelo_inurba_marseille","lat":43.31366,"lon":5.38497,"is_reserved":false,"is_disabled":false,"rental_uris":{"android":"levelo://app?vid=6d2ce886-7f43-48c5-94fe-ec70698c7144","ios":"levelo://app?vid=6d2ce886-7f43-48c5-94fe-ec70698c7144"},"vehicle_type_id":"4","last_reported":1750201830,"current_range_meters":11600,"station_id":"ce4bgt92rcd13ifvqcf0","pricing_plan_id":"cebpf4jnsgd1na2vs0mg"},{"bike_id":"a10a1a3e-9972-432e-986f-95f8c28f23bb","system_id":"levelo_inurba_marseille","lat":43.30441,"lon":5.39749,"is_reserved":false,"is_disabled":false,"rental_uris":{"android":"levelo://app?vid=a10a1a3e-9972-432e-986f-95f8c28f23bb","ios":"levelo://app?vid=a10a1a3e-9972-432e-986f-95f8c28f23bb"},"vehicle_type_id":"4","last_reported":1750201830,"current_range_meters":11600,"station_id":"ce4bh092rcd13ifvqd20","pricing_plan_id":"cebpf4jnsgd1na2vs0mg"},{"bike_id":"5a8cc9ba-0ebb-49ed-b948-ed2376941d36","system_id":"levelo_inurba_marseille","lat":43.26192,"lon":5.37448,"is_reserved":false,"is_disabled":false,"rental_uris":{"android":"levelo://app?vid=5a8cc9ba-0ebb-49ed-b948-ed2376941d36","ios":"levelo://app?vid=5a8cc9ba-0ebb-49ed-b948-ed2376941d36"},"vehicle_type_id":"4","last_reported":1750201830,"current_range_meters":11600,"station_id":"ce4bhgp2rcd13ifvqfc0","pricing_plan_id":"cebpf4jnsgd1na2vs0mg"},{"bike_id":"83cfee7d-980d-496a-98c8-745c7e44c68d","system_id":"levelo_inurba_marseille","lat":43.32877,"lon":5.39097,"is_reserved":false,"is_disabled":false,"rental_uris":{"android":"levelo://app?vid=83cfee7d-980d-496a-98c8-745c7e44c68d","ios":"levelo://app?vid=83cfee7d-980d-496a-98c8-745c7e44c68d"},"vehicle_type_id":"4","last_reported":1750201830,"current_range_meters":12000,"station_id":"","pricing_plan_id":"cebpf4jnsgd1na2vs0mg"},{"bike_id":"f8b19c1d-5f94-49a4-a88f-016951f22114","system_id":"levelo_inurba_marseille","lat":43.28728,"lon":5.36074,"is_reserved":false,"is_disabled":false,"rental_uris":{"android":"levelo://app?vid=f8b19c1d-5f94-49a4-a88f-016951f22114","ios":"levelo://app?vid=f8b19c1d-5f94-49a4-a88f-016951f22114"},"vehicle_type_id":"4","last_reported":1750201830,"current_range_meters":12000,"station_id":"cki0cbj6b192h4jlfktg","pricing_plan_id":"cebpf4jnsgd1na2vs0mg"},{"bike_id":"a279c41c-844b-4f64-b4e6-e1cc04f0745b","system_id":"levelo_inurba_marseille","lat":43.31073,"lon":5.38357,"is_reserved":false,"is_disabled":false,"rental_uris":{"android":"levelo://app?vid=a279c41c-844b-4f64-b4e6-e1cc04f0745b","ios":"levelo://app?vid=a279c41c-844b-4f64-b4e6-e1cc04f0745b"},"vehicle_type_id":"4","last_reported":1750201830,"current_range_meters":12400,"station_id":"ce4bgv92rcd13ifvqcr0","pricing_plan_id":"cebpf4jnsgd1na2vs0mg"},{"bike_id":"91f78cd6-38a2-44e7-86aa-18811c270d91","system_id":"levelo_inurba_marseille","lat":43.24668,"lon":5.38196,"is_reserved":false,"is_disabled":false,"rental_uris":{"android":"levelo://app?vid=91f78cd6-38a2-44e7-86aa-18811c270d91","ios":"levelo://app?vid=91f78cd6-38a2-44e7-86aa-18811c270d91"},"vehicle_type_id":"4","last_reported":1750201830,"current_range_meters":12400,"station_id":"ce4bhih2rcd13ifvqfr0","pricing_plan_id":"cebpf4jnsgd1na2vs0mg"},{"bike_id":"2090556a-ebe6-4fcd-b60b-df67d7c8e4f7","system_id":"levelo_inurba_marseille","lat":43.29896,"lon":5.43656,"is_reserved":false,"is_disabled":false,"rental_uris":{"android":"levelo://app?vid=2090556a-ebe6-4fcd-b60b-df67d7c8e4f7","ios":"levelo://app?vid=2090556a-ebe6-4fcd-b60b-df67d7c8e4f7"},"vehicle_type_id":"4","last_reported":1750201830,"current_range_meters":12400,"station_id":"ce4bhpp2rcd13ifvqhfg","pricing_plan_id":"cebpf4jnsgd1na2vs0mg"},{"bike_id":"fcfc1fcd-53cc-4ac1-b6dc-bd5794e26f57","system_id":"levelo_inurba_marseille","lat":43.30931,"lon":5.40148,"is_reserved":false,"is_disabled":false,"rental_uris":{"android":"levelo://app?vid=fcfc1fcd-53cc-4ac1-b6dc-bd5794e26f57","ios":"levelo://app?vid=fcfc1fcd-53cc-4ac1-b6dc-bd5794e26f57"},"vehicle_type_id":"4","last_reported":1750201830,"current_range_meters":12800,"station_id":"ce4bgvp2rcd13ifvqct0","pricing_plan_id":"cebpf4jnsgd1na2vs0mg"},{"bike_id":"9a16dbc6-ebaf-4118-9922-ee05af967049","system_id":"levelo_inurba_marseille","lat":43.284576,"lon":5.358843,"is_reserved":false,"is_disabled":false,"rental_uris":{"android":"levelo://app?vid=9a16dbc6-ebaf-4118-9922-ee05af967049","ios":"levelo://app?vid=9a16dbc6-ebaf-4118-9922-ee05af967049"},"vehicle_type_id":"4","last_reported":1750201830,"current_range_meters":12800,"station_id":"ce4bhah2rcd13ifvqei0","pricing_plan_id":"cebpf4jnsgd1na2vs0mg"},{"bike_id":"3fe0e667-b432-4229-b11a-ae30377c9adf","system_id":"levelo_inurba_marseille","lat":43.25111,"lon":5.40336,"is_reserved":false,"is_disabled":false,"rental_uris":{"android":"levelo://app?vid=3fe0e667-b432-4229-b11a-ae30377c9adf","ios":"levelo://app?vid=3fe0e667-b432-4229-b11a-ae30377c9adf"},"vehicle_type_id":"4","last_reported":1750201830,"current_range_meters":12800,"station_id":"ce4bhlh2rcd13ifvqgig","pricing_plan_id":"cebpf4jnsgd1na2vs0mg"},{"bike_id":"3d71d4df-44d5-4a43-b95c-ebb9fbdb915f","system_id":"levelo_inurba_marseille","lat":43.279346,"lon":5.410429,"is_reserved":false,"is_disabled":false,"rental_uris":{"android":"levelo://app?vid=3d71d4df-44d5-4a43-b95c-ebb9fbdb915f","ios":"levelo://app?vid=3d71d4df-44d5-4a43-b95c-ebb9fbdb915f"},"vehicle_type_id":"4","last_reported":1750201830,"current_range_meters":12800,"station_id":"ce4bhnp2rcd13ifvqh0g","pricing_plan_id":"cebpf4jnsgd1na2vs0mg"},{"bike_id":"f771e14a-9ea0-4dc9-af21-0012c5f351b7","system_id":"levelo_inurba_marseille","lat":43.32633,"lon":5.40991,"is_reserved":false,"is_disabled":false,"rental_uris":{"android":"levelo://app?vid=f771e14a-9ea0-4dc9-af21-0012c5f351b7","ios":"levelo://app?vid=f771e14a-9ea0-4dc9-af21-0012c5f351b7"},"vehicle_type_id":"4","last_reported":1750201830,"current_range_meters":12800,"station_id":"ce4bhpp2rcd13ifvqhgg","pricing_plan_id":"cebpf4jnsgd1na2vs0mg"},{"bike_id":"af84950c-0035-443a-926a-32fea0b0917e","system_id":"levelo_inurba_marseille","lat":43.31882,"lon":5.40739,"is_reserved":false,"is_disabled":false,"rental_uris":{"android":"levelo://app?vid=af84950c-0035-443a-926a-32fea0b0917e","ios":"levelo://app?vid=af84950c-0035-443a-926a-32fea0b0917e"},"vehicle_type_id":"4","last_reported":1750201830,"current_range_meters":12800,"station_id":"ce4bhq12rcd13ifvqhig","pricing_plan_id":"cebpf4jnsgd1na2vs0mg"},{"bike_id":"ce51ebac-9d99-4da3-98cd-cdd805316d7b","system_id":"levelo_inurba_marseille","lat":43.297072,"lon":5.376928,"is_reserved":false,"is_disabled":false,"rental_uris":{"android":"levelo://app?vid=ce51ebac-9d99-4da3-98cd-cdd805316d7b","ios":"levelo://app?vid=ce51ebac-9d99-4da3-98cd-cdd805316d7b"},"vehicle_type_id":"4","last_reported":1750201830,"current_range_meters":13600,"station_id":"ce4bgkh2rcd13ifvqbl0","pricing_plan_id":"cebpf4jnsgd1na2vs0mg"},{"bike_id":"0e856b56-5a2d-4b24-92b4-bdb30d4d0448","system_id":"levelo_inurba_marseille","lat":43.30649,"lon":5.40071,"is_reserved":false,"is_disabled":false,"rental_uris":{"android":"levelo://app?vid=0e856b56-5a2d-4b24-92b4-bdb30d4d0448","ios":"levelo://app?vid=0e856b56-5a2d-4b24-92b4-bdb30d4d0448"},"vehicle_type_id":"4","last_reported":1750201830,"current_range_meters":13600,"station_id":"ce4bh112rcd13ifvqda0","pricing_plan_id":"cebpf4jnsgd1na2vs0mg"},{"bike_id":"081f8872-cfaf-4e08-a52c-be911a87a8ce","system_id":"levelo_inurba_marseille","lat":43.29273,"lon":5.4012,"is_reserved":false,"is_disabled":false,"rental_uris":{"android":"levelo://app?vid=081f8872-cfaf-4e08-a52c-be911a87a8ce","ios":"levelo://app?vid=081f8872-cfaf-4e08-a52c-be911a87a8ce"},"vehicle_type_id":"4","last_reported":1750201830,"current_range_meters":13600,"station_id":"ce4bh312rcd13ifvqdk0","pricing_plan_id":"cebpf4jnsgd1na2vs0mg"},{"bike_id":"e0bc94a7-5964-455d-ae90-dbf31bf1f516","system_id":"levelo_inurba_marseille","lat":43.2867,"lon":5.38659,"is_reserved":false,"is_disabled":false,"rental_uris":{"android":"levelo://app?vid=e0bc94a7-5964-455d-ae90-dbf31bf1f516","ios":"levelo://app?vid=e0bc94a7-5964-455d-ae90-dbf31bf1f516"},"vehicle_type_id":"4","last_reported":1750201830,"current_range_meters":13600,"station_id":"ce4bh492rcd13ifvqdug","pricing_plan_id":"cebpf4jnsgd1na2vs0mg"},{"bike_id":"e5578b6f-b272-47a8-aeb9-48c2f032356a","system_id":"levelo_inurba_marseille","lat":43.24647,"lon":5.38891,"is_reserved":false,"is_disabled":false,"rental_uris":{"android":"levelo://app?vid=e5578b6f-b272-47a8-aeb9-48c2f032356a","ios":"levelo://app?vid=e5578b6f-b272-47a8-aeb9-48c2f032356a"},"vehicle_type_id":"4","last_reported":1750201830,"current_range_meters":13600,"station_id":"ce4bhg12rcd13ifvqf60","pricing_plan_id":"cebpf4jnsgd1na2vs0mg"},{"bike_id":"df1581f9-fa89-41ff-be54-57a55d20b5e9","system_id":"levelo_inurba_marseille","lat":43.30373,"lon":5.42497,"is_reserved":false,"is_disabled":false,"rental_uris":{"android":"levelo://app?vid=df1581f9-fa89-41ff-be54-57a55d20b5e9","ios":"levelo://app?vid=df1581f9-fa89-41ff-be54-57a55d20b5e9"},"vehicle_type_id":"4","last_reported":1750201830,"current_range_meters":13600,"station_id":"ce4bhoh2rcd13ifvqh6g","pricing_plan_id":"cebpf4jnsgd1na2vs0mg"},{"bike_id":"ec791070-eafa-4c06-b970-7958cef6417d","system_id":"levelo_inurba_marseille","lat":43.23207,"lon":5.35556,"is_reserved":false,"is_disabled":false,"rental_uris":{"android":"levelo://app?vid=ec791070-eafa-4c06-b970-7958cef6417d","ios":"levelo://app?vid=ec791070-eafa-4c06-b970-7958cef6417d"},"vehicle_type_id":"4","last_reported":1750201830,"current_range_meters":13600,"station_id":"ce4bhu92rcd13ifvqi70","pricing_plan_id":"cebpf4jnsgd1na2vs0mg"},{"bike_id":"2696f42d-34f7-4c94-a7b4-c480656e1e0a","system_id":"levelo_inurba_marseille","lat":43.22926,"lon":5.35379,"is_reserved":false,"is_disabled":false,"rental_uris":{"android":"levelo://app?vid=2696f42d-34f7-4c94-a7b4-c480656e1e0a","ios":"levelo://app?vid=2696f42d-34f7-4c94-a7b4-c480656e1e0a"},"vehicle_type_id":"4","last_reported":1750201830,"current_range_meters":13600,"station_id":"cpo3532slgdg3j2ikp40","pricing_plan_id":"cebpf4jnsgd1na2vs0mg"},{"bike_id":"1197e330-995f-4f41-954b-3eea58f2a4c0","system_id":"levelo_inurba_marseille","lat":43.21193,"lon":5.35079,"is_reserved":false,"is_disabled":false,"rental_uris":{"android":"levelo://app?vid=1197e330-995f-4f41-954b-3eea58f2a4c0","ios":"levelo://app?vid=1197e330-995f-4f41-954b-3eea58f2a4c0"},"vehicle_type_id":"4","last_reported":1750201830,"current_range_meters":13600,"station_id":"st_cvj6sg6p6f1abm77japg","pricing_plan_id":"cebpf4jnsgd1na2vs0mg"},{"bike_id":"157fd7d0-8ea7-43d3-9fe6-54c2ebb9413e","system_id":"levelo_inurba_marseille","lat":43.30586,"lon":5.37207,"is_reserved":false,"is_disabled":false,"rental_uris":{"android":"levelo://app?vid=157fd7d0-8ea7-43d3-9fe6-54c2ebb9413e","ios":"levelo://app?vid=157fd7d0-8ea7-43d3-9fe6-54c2ebb9413e"},"vehicle_type_id":"4","last_reported":1750201830,"current_range_meters":14000,"station_id":"ce4bgqh2rcd13ifvqc4g","pricing_plan_id":"cebpf4jnsgd1na2vs0mg"},{"bike_id":"2df130c9-e79c-4424-b409-88639453e508","system_id":"levelo_inurba_marseille","lat":43.29262,"lon":5.40921,"is_reserved":false,"is_disabled":false,"rental_uris":{"android":"levelo://app?vid=2df130c9-e79c-4424-b409-88639453e508","ios":"levelo://app?vid=2df130c9-e79c-4424-b409-88639453e508"},"vehicle_type_id":"4","last_reported":1750201830,"current_range_meters":14000,"station_id":"ce4bh192rcd13ifvqdc0","pricing_plan_id":"cebpf4jnsgd1na2vs0mg"},{"bike_id":"de0f7c2b-5974-4035-a240-8ed367c0e3f3","system_id":"levelo_inurba_marseille","lat":43.31969,"lon":5.37618,"is_reserved":false,"is_disabled":false,"rental_uris":{"android":"levelo://app?vid=de0f7c2b-5974-4035-a240-8ed367c0e3f3","ios":"levelo://app?vid=de0f7c2b-5974-4035-a240-8ed367c0e3f3"},"vehicle_type_id":"4","last_reported":1750201830,"current_range_meters":14400,"station_id":"","pricing_plan_id":"cebpf4jnsgd1na2vs0mg"},{"bike_id":"971507ea-bc7d-4294-bc79-e0abbd8b507b","system_id":"levelo_inurba_marseille","lat":43.30444,"lon":5.39769,"is_reserved":false,"is_disabled":false,"rental_uris":{"android":"levelo://app?vid=971507ea-bc7d-4294-bc79-e0abbd8b507b","ios":"levelo://app?vid=971507ea-bc7d-4294-bc79-e0abbd8b507b"},"vehicle_type_id":"4","last_reported":1750201830,"current_range_meters":14400,"station_id":"ce4bh092rcd13ifvqd20","pricing_plan_id":"cebpf4jnsgd1na2vs0mg"},{"bike_id":"be314294-c027-4750-8947-558ae8f14279","system_id":"levelo_inurba_marseille","lat":43.2925,"lon":5.409,"is_reserved":false,"is_disabled":false,"rental_uris":{"android":"levelo://app?vid=be314294-c027-4750-8947-558ae8f14279","ios":"levelo://app?vid=be314294-c027-4750-8947-558ae8f14279"},"vehicle_type_id":"4","last_reported":1750201830,"current_range_meters":14400,"station_id":"ce4bh192rcd13ifvqdc0","pricing_plan_id":"cebpf4jnsgd1na2vs0mg"},{"bike_id":"60dbbff2-1b41-4ac7-b3d6-c7b5f639d090","system_id":"levelo_inurba_marseille","lat":43.29038,"lon":5.3997,"is_reserved":false,"is_disabled":false,"rental_uris":{"android":"levelo://app?vid=60dbbff2-1b41-4ac7-b3d6-c7b5f639d090","ios":"levelo://app?vid=60dbbff2-1b41-4ac7-b3d6-c7b5f639d090"},"vehicle_type_id":"4","last_reported":1750201830,"current_range_meters":14400,"station_id":"ce4bh392rcd13ifvqdm0","pricing_plan_id":"cebpf4jnsgd1na2vs0mg"},{"bike_id":"58a3d38d-8dc9-4b6e-afbf-3f4a2c2ff384","system_id":"levelo_inurba_marseille","lat":43.32654,"lon":5.41016,"is_reserved":false,"is_disabled":false,"rental_uris":{"android":"levelo://app?vid=58a3d38d-8dc9-4b6e-afbf-3f4a2c2ff384","ios":"levelo://app?vid=58a3d38d-8dc9-4b6e-afbf-3f4a2c2ff384"},"vehicle_type_id":"4","last_reported":1750201830,"current_range_meters":14400,"station_id":"ce4bhpp2rcd13ifvqhgg","pricing_plan_id":"cebpf4jnsgd1na2vs0mg"},{"bike_id":"932641f8-af14-454a-9d5d-c1cdd8df4a38","system_id":"levelo_inurba_marseille","lat":43.308622,"lon":5.389099,"is_reserved":false,"is_disabled":false,"rental_uris":{"android":"levelo://app?vid=932641f8-af14-454a-9d5d-c1cdd8df4a38","ios":"levelo://app?vid=932641f8-af14-454a-9d5d-c1cdd8df4a38"},"vehicle_type_id":"4","last_reported":1750201830,"current_range_meters":14800,"station_id":"","pricing_plan_id":"cebpf4jnsgd1na2vs0mg"},{"bike_id":"4b5469f4-1718-41b5-8cad-2d056074e350","system_id":"levelo_inurba_marseille","lat":43.31378,"lon":5.36722,"is_reserved":false,"is_disabled":false,"rental_uris":{"android":"levelo://app?vid=4b5469f4-1718-41b5-8cad-2d056074e350","ios":"levelo://app?vid=4b5469f4-1718-41b5-8cad-2d056074e350"},"vehicle_type_id":"4","last_reported":1750201830,"current_range_meters":14800,"station_id":"ce4bgr92rcd13ifvqc6g","pricing_plan_id":"cebpf4jnsgd1na2vs0mg"},{"bike_id":"f7fa858e-b7ee-404f-8191-6184cc003e2b","system_id":"levelo_inurba_marseille","lat":43.23187,"lon":5.35554,"is_reserved":false,"is_disabled":false,"rental_uris":{"android":"levelo://app?vid=f7fa858e-b7ee-404f-8191-6184cc003e2b","ios":"levelo://app?vid=f7fa858e-b7ee-404f-8191-6184cc003e2b"},"vehicle_type_id":"4","last_reported":1750201830,"current_range_meters":14800,"station_id":"ce4bhu92rcd13ifvqi70","pricing_plan_id":"cebpf4jnsgd1na2vs0mg"},{"bike_id":"e0a889cf-2327-4278-9b67-453fc8c6ae2a","system_id":"levelo_inurba_marseille","lat":43.30254,"lon":5.37452,"is_reserved":false,"is_disabled":false,"rental_uris":{"android":"levelo://app?vid=e0a889cf-2327-4278-9b67-453fc8c6ae2a","ios":"levelo://app?vid=e0a889cf-2327-4278-9b67-453fc8c6ae2a"},"vehicle_type_id":"4","last_reported":1750201830,"current_range_meters":15200,"station_id":"","pricing_plan_id":"cebpf4jnsgd1na2vs0mg"},{"bike_id":"3518210a-6d90-482f-a11b-11cb7c94acd1","system_id":"levelo_inurba_marseille","lat":43.26473,"lon":5.39207,"is_reserved":false,"is_disabled":false,"rental_uris":{"android":"levelo://app?vid=3518210a-6d90-482f-a11b-11cb7c94acd1","ios":"levelo://app?vid=3518210a-6d90-482f-a11b-11cb7c94acd1"},"vehicle_type_id":"4","last_reported":1750201830,"current_range_meters":15200,"station_id":"","pricing_plan_id":"cebpf4jnsgd1na2vs0mg"},{"bike_id":"b87c15f9-5723-4eb5-82c7-4efc7bd8b749","system_id":"levelo_inurba_marseille","lat":43.28861,"lon":5.39328,"is_reserved":false,"is_disabled":false,"rental_uris":{"android":"levelo://app?vid=b87c15f9-5723-4eb5-82c7-4efc7bd8b749","ios":"levelo://app?vid=b87c15f9-5723-4eb5-82c7-4efc7bd8b749"},"vehicle_type_id":"4","last_reported":1750201830,"current_range_meters":15200,"station_id":"ce4bh2p2rcd13ifvqdi0","pricing_plan_id":"cebpf4jnsgd1na2vs0mg"},{"bike_id":"32ee6c4a-ccab-41cb-b4a7-863095ced63d","system_id":"levelo_inurba_marseille","lat":43.28729,"lon":5.3996,"is_reserved":false,"is_disabled":false,"rental_uris":{"android":"levelo://app?vid=32ee6c4a-ccab-41cb-b4a7-863095ced63d","ios":"levelo://app?vid=32ee6c4a-ccab-41cb-b4a7-863095ced63d"},"vehicle_type_id":"4","last_reported":1750201830,"current_range_meters":15200,"station_id":"ce4bho92rcd13ifvqh3g","pricing_plan_id":"cebpf4jnsgd1na2vs0mg"},{"bike_id":"2f0f7865-53e4-4955-8eb9-1bb98bf95595","system_id":"levelo_inurba_marseille","lat":43.31732,"lon":5.37598,"is_reserved":false,"is_disabled":false,"rental_uris":{"android":"levelo://app?vid=2f0f7865-53e4-4955-8eb9-1bb98bf95595","ios":"levelo://app?vid=2f0f7865-53e4-4955-8eb9-1bb98bf95595"},"vehicle_type_id":"4","last_reported":1750201830,"current_range_meters":16000,"station_id":"","pricing_plan_id":"cebpf4jnsgd1na2vs0mg"},{"bike_id":"de0bda34-41a6-4231-8ed4-c93e07fc3176","system_id":"levelo_inurba_marseille","lat":43.32609,"lon":5.37513,"is_reserved":false,"is_disabled":false,"rental_uris":{"android":"levelo://app?vid=de0bda34-41a6-4231-8ed4-c93e07fc3176","ios":"levelo://app?vid=de0bda34-41a6-4231-8ed4-c93e07fc3176"},"vehicle_type_id":"4","last_reported":1750201830,"current_range_meters":16000,"station_id":"","pricing_plan_id":"cebpf4jnsgd1na2vs0mg"},{"bike_id":"2d88495d-1c5b-47ae-aa36-6a78be888f03","system_id":"levelo_inurba_marseille","lat":43.25721,"lon":5.41109,"is_reserved":false,"is_disabled":false,"rental_uris":{"android":"levelo://app?vid=2d88495d-1c5b-47ae-aa36-6a78be888f03","ios":"levelo://app?vid=2d88495d-1c5b-47ae-aa36-6a78be888f03"},"vehicle_type_id":"4","last_reported":1750201830,"current_range_meters":16000,"station_id":"ce4bhkp2rcd13ifvqgd0","pricing_plan_id":"cebpf4jnsgd1na2vs0mg"},{"bike_id":"4b8da722-ee9e-48a4-a5e5-3a8a10364708","system_id":"levelo_inurba_marseille","lat":43.31225,"lon":5.3782,"is_reserved":false,"is_disabled":false,"rental_uris":{"android":"levelo://app?vid=4b8da722-ee9e-48a4-a5e5-3a8a10364708","ios":"levelo://app?vid=4b8da722-ee9e-48a4-a5e5-3a8a10364708"},"vehicle_type_id":"4","last_reported":1750201830,"current_range_meters":16400,"station_id":"","pricing_plan_id":"cebpf4jnsgd1na2vs0mg"},{"bike_id":"4ce5b165-f22d-40cf-abd3-1cb294861955","system_id":"levelo_inurba_marseille","lat":43.21191,"lon":5.35082,"is_reserved":false,"is_disabled":false,"rental_uris":{"android":"levelo://app?vid=4ce5b165-f22d-40cf-abd3-1cb294861955","ios":"levelo://app?vid=4ce5b165-f22d-40cf-abd3-1cb294861955"},"vehicle_type_id":"4","last_reported":1750201830,"current_range_meters":16400,"station_id":"","pricing_plan_id":"cebpf4jnsgd1na2vs0mg"},{"bike_id":"2007fd58-7afa-4ede-9b33-2b48938ee35b","system_id":"levelo_inurba_marseille","lat":43.3012,"lon":5.39888,"is_reserved":false,"is_disabled":false,"rental_uris":{"android":"levelo://app?vid=2007fd58-7afa-4ede-9b33-2b48938ee35b","ios":"levelo://app?vid=2007fd58-7afa-4ede-9b33-2b48938ee35b"},"vehicle_type_id":"4","last_reported":1750201830,"current_range_meters":16400,"station_id":"ce4bh0h2rcd13ifvqd40","pricing_plan_id":"cebpf4jnsgd1na2vs0mg"},{"bike_id":"f0f47d63-d452-44e1-b1f1-3e753404e545","system_id":"levelo_inurba_marseille","lat":43.287047,"lon":5.374174,"is_reserved":false,"is_disabled":false,"rental_uris":{"android":"levelo://app?vid=f0f47d63-d452-44e1-b1f1-3e753404e545","ios":"levelo://app?vid=f0f47d63-d452-44e1-b1f1-3e753404e545"},"vehicle_type_id":"4","last_reported":1750201830,"current_range_meters":16400,"station_id":"ce4bh3p2rcd13ifvqdq0","pricing_plan_id":"cebpf4jnsgd1na2vs0mg"},{"bike_id":"558d7a83-fc5d-42ed-9050-5b2a22741628","system_id":"levelo_inurba_marseille","lat":43.25119,"lon":5.40329,"is_reserved":false,"is_disabled":false,"rental_uris":{"android":"levelo://app?vid=558d7a83-fc5d-42ed-9050-5b2a22741628","ios":"levelo://app?vid=558d7a83-fc5d-42ed-9050-5b2a22741628"},"vehicle_type_id":"4","last_reported":1750201830,"current_range_meters":16400,"station_id":"ce4bhlh2rcd13ifvqgig","pricing_plan_id":"cebpf4jnsgd1na2vs0mg"},{"bike_id":"ff5e6dfa-2472-4530-a109-50fcfe6d7f93","system_id":"levelo_inurba_marseille","lat":43.27828,"lon":5.40714,"is_reserved":false,"is_disabled":false,"rental_uris":{"android":"levelo://app?vid=ff5e6dfa-2472-4530-a109-50fcfe6d7f93","ios":"levelo://app?vid=ff5e6dfa-2472-4530-a109-50fcfe6d7f93"},"vehicle_type_id":"4","last_reported":1750201830,"current_range_meters":16400,"station_id":"ce4bhnh2rcd13ifvqgtg","pricing_plan_id":"cebpf4jnsgd1na2vs0mg"},{"bike_id":"ed7a1a04-2c11-455e-8214-8d1f33620e1c","system_id":"levelo_inurba_marseille","lat":43.280757,"lon":5.396624,"is_reserved":false,"is_disabled":false,"rental_uris":{"android":"levelo://app?vid=ed7a1a04-2c11-455e-8214-8d1f33620e1c","ios":"levelo://app?vid=ed7a1a04-2c11-455e-8214-8d1f33620e1c"},"vehicle_type_id":"4","last_reported":1750201830,"current_range_meters":16400,"station_id":"ce4bho12rcd13ifvqh2g","pricing_plan_id":"cebpf4jnsgd1na2vs0mg"},{"bike_id":"b3290a55-0dbc-4713-abcc-c34d1ef4d518","system_id":"levelo_inurba_marseille","lat":43.28427,"lon":5.39219,"is_reserved":false,"is_disabled":false,"rental_uris":{"android":"levelo://app?vid=b3290a55-0dbc-4713-abcc-c34d1ef4d518","ios":"levelo://app?vid=b3290a55-0dbc-4713-abcc-c34d1ef4d518"},"vehicle_type_id":"4","last_reported":1750201830,"current_range_meters":16400,"station_id":"ce4bhoh2rcd13ifvqh5g","pricing_plan_id":"cebpf4jnsgd1na2vs0mg"},{"bike_id":"cc8086c3-023b-4662-b7ba-91199240f1a1","system_id":"levelo_inurba_marseille","lat":43.230548,"lon":5.354899,"is_reserved":false,"is_disabled":false,"rental_uris":{"android":"levelo://app?vid=cc8086c3-023b-4662-b7ba-91199240f1a1","ios":"levelo://app?vid=cc8086c3-023b-4662-b7ba-91199240f1a1"},"vehicle_type_id":"4","last_reported":1750201830,"current_range_meters":16400,"station_id":"cpo3342slgdg3j2ifvpg","pricing_plan_id":"cebpf4jnsgd1na2vs0mg"},{"bike_id":"4cda9327-46c6-426e-87dd-c291d5dc5ff7","system_id":"levelo_inurba_marseille","lat":43.211923,"lon":5.350712,"is_reserved":false,"is_disabled":false,"rental_uris":{"android":"levelo://app?vid=4cda9327-46c6-426e-87dd-c291d5dc5ff7","ios":"levelo://app?vid=4cda9327-46c6-426e-87dd-c291d5dc5ff7"},"vehicle_type_id":"4","last_reported":1750201830,"current_range_meters":16400,"station_id":"st_cvj6sg6p6f1abm77japg","pricing_plan_id":"cebpf4jnsgd1na2vs0mg"},{"bike_id":"10ed2648-45ba-4c01-9e25-ba0d6411668f","system_id":"levelo_inurba_marseille","lat":43.30796,"lon":5.38163,"is_reserved":false,"is_disabled":false,"rental_uris":{"android":"levelo://app?vid=10ed2648-45ba-4c01-9e25-ba0d6411668f","ios":"levelo://app?vid=10ed2648-45ba-4c01-9e25-ba0d6411668f"},"vehicle_type_id":"4","last_reported":1750201830,"current_range_meters":16800,"station_id":"ce4bgt12rcd13ifvqce0","pricing_plan_id":"cebpf4jnsgd1na2vs0mg"},{"bike_id":"50eadcf1-b906-48b3-a8e0-7124bb0ec0ef","system_id":"levelo_inurba_marseille","lat":43.30641,"lon":5.40103,"is_reserved":false,"is_disabled":false,"rental_uris":{"android":"levelo://app?vid=50eadcf1-b906-48b3-a8e0-7124bb0ec0ef","ios":"levelo://app?vid=50eadcf1-b906-48b3-a8e0-7124bb0ec0ef"},"vehicle_type_id":"4","last_reported":1750201830,"current_range_meters":16800,"station_id":"ce4bh112rcd13ifvqda0","pricing_plan_id":"cebpf4jnsgd1na2vs0mg"},{"bike_id":"1e3b7fbb-83bd-417f-a36f-f0d184150527","system_id":"levelo_inurba_marseille","lat":43.29034,"lon":5.39979,"is_reserved":false,"is_disabled":false,"rental_uris":{"android":"levelo://app?vid=1e3b7fbb-83bd-417f-a36f-f0d184150527","ios":"levelo://app?vid=1e3b7fbb-83bd-417f-a36f-f0d184150527"},"vehicle_type_id":"4","last_reported":1750201830,"current_range_meters":16800,"station_id":"ce4bh392rcd13ifvqdm0","pricing_plan_id":"cebpf4jnsgd1na2vs0mg"},{"bike_id":"74f2ec71-7ff0-4593-9434-f2da432d71a3","system_id":"levelo_inurba_marseille","lat":43.28343,"lon":5.381067,"is_reserved":false,"is_disabled":false,"rental_uris":{"android":"levelo://app?vid=74f2ec71-7ff0-4593-9434-f2da432d71a3","ios":"levelo://app?vid=74f2ec71-7ff0-4593-9434-f2da432d71a3"},"vehicle_type_id":"4","last_reported":1750201830,"current_range_meters":16800,"station_id":"ce4bh412rcd13ifvqdr0","pricing_plan_id":"cebpf4jnsgd1na2vs0mg"},{"bike_id":"5cbdd979-131e-4b0a-a5c9-96ef156802c9","system_id":"levelo_inurba_marseille","lat":43.2842,"lon":5.39249,"is_reserved":false,"is_disabled":false,"rental_uris":{"android":"levelo://app?vid=5cbdd979-131e-4b0a-a5c9-96ef156802c9","ios":"levelo://app?vid=5cbdd979-131e-4b0a-a5c9-96ef156802c9"},"vehicle_type_id":"4","last_reported":1750201830,"current_range_meters":16800,"station_id":"ce4bhoh2rcd13ifvqh5g","pricing_plan_id":"cebpf4jnsgd1na2vs0mg"},{"bike_id":"653a05d9-205d-420f-b0c9-a638667f0917","system_id":"levelo_inurba_marseille","lat":43.211905,"lon":5.350744,"is_reserved":false,"is_disabled":false,"rental_uris":{"android":"levelo://app?vid=653a05d9-205d-420f-b0c9-a638667f0917","ios":"levelo://app?vid=653a05d9-205d-420f-b0c9-a638667f0917"},"vehicle_type_id":"4","last_reported":1750201830,"current_range_meters":16800,"station_id":"st_cvj6sg6p6f1abm77japg","pricing_plan_id":"cebpf4jnsgd1na2vs0mg"},{"bike_id":"6bbbc1ec-81ca-4516-a79f-791d22619392","system_id":"levelo_inurba_marseille","lat":43.314833,"lon":5.373003,"is_reserved":false,"is_disabled":false,"rental_uris":{"android":"levelo://app?vid=6bbbc1ec-81ca-4516-a79f-791d22619392","ios":"levelo://app?vid=6bbbc1ec-81ca-4516-a79f-791d22619392"},"vehicle_type_id":"4","last_reported":1750201830,"current_range_meters":17200,"station_id":"ce4bgt12rcd13ifvqcd0","pricing_plan_id":"cebpf4jnsgd1na2vs0mg"},{"bike_id":"c6495b46-1d84-4c21-8466-416c87420a9a","system_id":"levelo_inurba_marseille","lat":43.31357,"lon":5.38495,"is_reserved":false,"is_disabled":false,"rental_uris":{"android":"levelo://app?vid=c6495b46-1d84-4c21-8466-416c87420a9a","ios":"levelo://app?vid=c6495b46-1d84-4c21-8466-416c87420a9a"},"vehicle_type_id":"4","last_reported":1750201830,"current_range_meters":17200,"station_id":"ce4bgt92rcd13ifvqcf0","pricing_plan_id":"cebpf4jnsgd1na2vs0mg"},{"bike_id":"d35e1bee-6cd1-4d4c-b8ec-d60cc69d2c6d","system_id":"levelo_inurba_marseille","lat":43.27831,"lon":5.39208,"is_reserved":false,"is_disabled":false,"rental_uris":{"android":"levelo://app?vid=d35e1bee-6cd1-4d4c-b8ec-d60cc69d2c6d","ios":"levelo://app?vid=d35e1bee-6cd1-4d4c-b8ec-d60cc69d2c6d"},"vehicle_type_id":"4","last_reported":1750201830,"current_range_meters":17200,"station_id":"ce4bhjp2rcd13ifvqga0","pricing_plan_id":"cebpf4jnsgd1na2vs0mg"},{"bike_id":"4c87c61a-dd34-4a0d-ab04-f3ef07d67f0e","system_id":"levelo_inurba_marseille","lat":43.25097,"lon":5.40339,"is_reserved":false,"is_disabled":false,"rental_uris":{"android":"levelo://app?vid=4c87c61a-dd34-4a0d-ab04-f3ef07d67f0e","ios":"levelo://app?vid=4c87c61a-dd34-4a0d-ab04-f3ef07d67f0e"},"vehicle_type_id":"4","last_reported":1750201830,"current_range_meters":17200,"station_id":"ce4bhlh2rcd13ifvqgig","pricing_plan_id":"cebpf4jnsgd1na2vs0mg"},{"bike_id":"a08141f4-416b-4ca0-a6a8-ed9f076201e0","system_id":"levelo_inurba_marseille","lat":43.28069,"lon":5.39672,"is_reserved":false,"is_disabled":false,"rental_uris":{"android":"levelo://app?vid=a08141f4-416b-4ca0-a6a8-ed9f076201e0","ios":"levelo://app?vid=a08141f4-416b-4ca0-a6a8-ed9f076201e0"},"vehicle_type_id":"4","last_reported":1750201830,"current_range_meters":17200,"station_id":"ce4bho12rcd13ifvqh2g","pricing_plan_id":"cebpf4jnsgd1na2vs0mg"},{"bike_id":"4281bd69-e901-4e60-8003-271df3beeaca","system_id":"levelo_inurba_marseille","lat":43.3189,"lon":5.40748,"is_reserved":false,"is_disabled":false,"rental_uris":{"android":"levelo://app?vid=4281bd69-e901-4e60-8003-271df3beeaca","ios":"levelo://app?vid=4281bd69-e901-4e60-8003-271df3beeaca"},"vehicle_type_id":"4","last_reported":1750201830,"current_range_meters":17200,"station_id":"ce4bhq12rcd13ifvqhig","pricing_plan_id":"cebpf4jnsgd1na2vs0mg"},{"bike_id":"21cea077-97c0-4084-aafc-b5aef69a2db6","system_id":"levelo_inurba_marseille","lat":43.31523,"lon":5.38037,"is_reserved":false,"is_disabled":false,"rental_uris":{"android":"levelo://app?vid=21cea077-97c0-4084-aafc-b5aef69a2db6","ios":"levelo://app?vid=21cea077-97c0-4084-aafc-b5aef69a2db6"},"vehicle_type_id":"4","last_reported":1750201830,"current_range_meters":17200,"station_id":"ce4bhsp2rcd13ifvqi50","pricing_plan_id":"cebpf4jnsgd1na2vs0mg"},{"bike_id":"69391ca7-3f01-4e51-a628-257cf9ff7306","system_id":"levelo_inurba_marseille","lat":43.33761,"lon":5.37474,"is_reserved":false,"is_disabled":false,"rental_uris":{"android":"levelo://app?vid=69391ca7-3f01-4e51-a628-257cf9ff7306","ios":"levelo://app?vid=69391ca7-3f01-4e51-a628-257cf9ff7306"},"vehicle_type_id":"4","last_reported":1750201830,"current_range_meters":17600,"station_id":"","pricing_plan_id":"cebpf4jnsgd1na2vs0mg"},{"bike_id":"268aafb4-1331-426c-97bc-a7d6564caeb6","system_id":"levelo_inurba_marseille","lat":43.32933,"lon":5.3791,"is_reserved":false,"is_disabled":false,"rental_uris":{"android":"levelo://app?vid=268aafb4-1331-426c-97bc-a7d6564caeb6","ios":"levelo://app?vid=268aafb4-1331-426c-97bc-a7d6564caeb6"},"vehicle_type_id":"4","last_reported":1750201830,"current_range_meters":17600,"station_id":"","pricing_plan_id":"cebpf4jnsgd1na2vs0mg"},{"bike_id":"3151b431-ae3a-411c-8189-09c45ab38d79","system_id":"levelo_inurba_marseille","lat":43.308546,"lon":5.371899,"is_reserved":false,"is_disabled":false,"rental_uris":{"android":"levelo://app?vid=3151b431-ae3a-411c-8189-09c45ab38d79","ios":"levelo://app?vid=3151b431-ae3a-411c-8189-09c45ab38d79"},"vehicle_type_id":"4","last_reported":1750201830,"current_range_meters":17600,"station_id":"","pricing_plan_id":"cebpf4jnsgd1na2vs0mg"},{"bike_id":"e92bd4cd-e5c6-40c9-80e9-52bc96a037f0","system_id":"levelo_inurba_marseille","lat":43.25484,"lon":5.41694,"is_reserved":false,"is_disabled":false,"rental_uris":{"android":"levelo://app?vid=e92bd4cd-e5c6-40c9-80e9-52bc96a037f0","ios":"levelo://app?vid=e92bd4cd-e5c6-40c9-80e9-52bc96a037f0"},"vehicle_type_id":"4","last_reported":1750201830,"current_range_meters":17600,"station_id":"","pricing_plan_id":"cebpf4jnsgd1na2vs0mg"},{"bike_id":"09f48553-18dc-4f95-983d-e24c78b5490e","system_id":"levelo_inurba_marseille","lat":43.30784,"lon":5.38161,"is_reserved":false,"is_disabled":false,"rental_uris":{"android":"levelo://app?vid=09f48553-18dc-4f95-983d-e24c78b5490e","ios":"levelo://app?vid=09f48553-18dc-4f95-983d-e24c78b5490e"},"vehicle_type_id":"4","last_reported":1750201830,"current_range_meters":17600,"station_id":"ce4bgt12rcd13ifvqce0","pricing_plan_id":"cebpf4jnsgd1na2vs0mg"},{"bike_id":"f68d3bf7-f015-453d-8296-8d977c3e8998","system_id":"levelo_inurba_marseille","lat":43.30901,"lon":5.3969,"is_reserved":false,"is_disabled":false,"rental_uris":{"android":"levelo://app?vid=f68d3bf7-f015-453d-8296-8d977c3e8998","ios":"levelo://app?vid=f68d3bf7-f015-453d-8296-8d977c3e8998"},"vehicle_type_id":"4","last_reported":1750201830,"current_range_meters":17600,"station_id":"ce4bh012rcd13ifvqcv0","pricing_plan_id":"cebpf4jnsgd1na2vs0mg"},{"bike_id":"82dee435-d01c-47a7-91d2-7c3e11af14cc","system_id":"levelo_inurba_marseille","lat":43.281033,"lon":5.378347,"is_reserved":false,"is_disabled":false,"rental_uris":{"android":"levelo://app?vid=82dee435-d01c-47a7-91d2-7c3e11af14cc","ios":"levelo://app?vid=82dee435-d01c-47a7-91d2-7c3e11af14cc"},"vehicle_type_id":"4","last_reported":1750201830,"current_range_meters":18000,"station_id":"ce4bha12rcd13ifvqee0","pricing_plan_id":"cebpf4jnsgd1na2vs0mg"},{"bike_id":"2d059e04-6ea7-4929-8c98-ee846d8a472a","system_id":"levelo_inurba_marseille","lat":43.28724,"lon":5.39982,"is_reserved":false,"is_disabled":false,"rental_uris":{"android":"levelo://app?vid=2d059e04-6ea7-4929-8c98-ee846d8a472a","ios":"levelo://app?vid=2d059e04-6ea7-4929-8c98-ee846d8a472a"},"vehicle_type_id":"4","last_reported":1750201830,"current_range_meters":18000,"station_id":"ce4bho92rcd13ifvqh3g","pricing_plan_id":"cebpf4jnsgd1na2vs0mg"},{"bike_id":"f6fe0b31-6dad-4452-bb4c-33db02ed0769","system_id":"levelo_inurba_marseille","lat":43.284436,"lon":5.391833,"is_reserved":false,"is_disabled":false,"rental_uris":{"android":"levelo://app?vid=f6fe0b31-6dad-4452-bb4c-33db02ed0769","ios":"levelo://app?vid=f6fe0b31-6dad-4452-bb4c-33db02ed0769"},"vehicle_type_id":"4","last_reported":1750201830,"current_range_meters":18000,"station_id":"ce4bhoh2rcd13ifvqh5g","pricing_plan_id":"cebpf4jnsgd1na2vs0mg"},{"bike_id":"e921cee3-b8ce-4c00-b7eb-8ab335b5e125","system_id":"levelo_inurba_marseille","lat":43.30193,"lon":5.42263,"is_reserved":false,"is_disabled":false,"rental_uris":{"android":"levelo://app?vid=e921cee3-b8ce-4c00-b7eb-8ab335b5e125","ios":"levelo://app?vid=e921cee3-b8ce-4c00-b7eb-8ab335b5e125"},"vehicle_type_id":"4","last_reported":1750201830,"current_range_meters":18800,"station_id":"","pricing_plan_id":"cebpf4jnsgd1na2vs0mg"},{"bike_id":"3a79c9a9-99b3-4d00-8dcc-f494ffeec57e","system_id":"levelo_inurba_marseille","lat":43.31068,"lon":5.40103,"is_reserved":false,"is_disabled":false,"rental_uris":{"android":"levelo://app?vid=3a79c9a9-99b3-4d00-8dcc-f494ffeec57e","ios":"levelo://app?vid=3a79c9a9-99b3-4d00-8dcc-f494ffeec57e"},"vehicle_type_id":"4","last_reported":1750201830,"current_range_meters":18800,"station_id":"","pricing_plan_id":"cebpf4jnsgd1na2vs0mg"},{"bike_id":"65fe0c2e-fcc6-45c4-a172-8e2e81da84f7","system_id":"levelo_inurba_marseille","lat":43.33141,"lon":5.38185,"is_reserved":false,"is_disabled":false,"rental_uris":{"android":"levelo://app?vid=65fe0c2e-fcc6-45c4-a172-8e2e81da84f7","ios":"levelo://app?vid=65fe0c2e-fcc6-45c4-a172-8e2e81da84f7"},"vehicle_type_id":"4","last_reported":1750201830,"current_range_meters":18800,"station_id":"","pricing_plan_id":"cebpf4jnsgd1na2vs0mg"},{"bike_id":"6ef7b46b-3642-46d2-8249-af13f30ef696","system_id":"levelo_inurba_marseille","lat":43.306,"lon":5.39359,"is_reserved":false,"is_disabled":false,"rental_uris":{"android":"levelo://app?vid=6ef7b46b-3642-46d2-8249-af13f30ef696","ios":"levelo://app?vid=6ef7b46b-3642-46d2-8249-af13f30ef696"},"vehicle_type_id":"4","last_reported":1750201830,"current_range_meters":18800,"station_id":"ce4bh0p2rcd13ifvqd80","pricing_plan_id":"cebpf4jnsgd1na2vs0mg"},{"bike_id":"a3a65e20-72e8-4350-95e4-10108de6fbdb","system_id":"levelo_inurba_marseille","lat":43.2513,"lon":5.40359,"is_reserved":false,"is_disabled":false,"rental_uris":{"android":"levelo://app?vid=a3a65e20-72e8-4350-95e4-10108de6fbdb","ios":"levelo://app?vid=a3a65e20-72e8-4350-95e4-10108de6fbdb"},"vehicle_type_id":"4","last_reported":1750201830,"current_range_meters":18800,"station_id":"ce4bhlh2rcd13ifvqgig","pricing_plan_id":"cebpf4jnsgd1na2vs0mg"},{"bike_id":"3fb32369-1f25-46d2-9052-c30b5af8c776","system_id":"levelo_inurba_marseille","lat":43.2295,"lon":5.35381,"is_reserved":false,"is_disabled":false,"rental_uris":{"android":"levelo://app?vid=3fb32369-1f25-46d2-9052-c30b5af8c776","ios":"levelo://app?vid=3fb32369-1f25-46d2-9052-c30b5af8c776"},"vehicle_type_id":"4","last_reported":1750201830,"current_range_meters":18800,"station_id":"cpo3532slgdg3j2ikp40","pricing_plan_id":"cebpf4jnsgd1na2vs0mg"},{"bike_id":"4b6b2a2b-d3c4-4663-8ea1-de4eff39b7b2","system_id":"levelo_inurba_marseille","lat":43.212055,"lon":5.350586,"is_reserved":false,"is_disabled":false,"rental_uris":{"android":"levelo://app?vid=4b6b2a2b-d3c4-4663-8ea1-de4eff39b7b2","ios":"levelo://app?vid=4b6b2a2b-d3c4-4663-8ea1-de4eff39b7b2"},"vehicle_type_id":"4","last_reported":1750201830,"current_range_meters":18800,"station_id":"st_cvj6sg6p6f1abm77japg","pricing_plan_id":"cebpf4jnsgd1na2vs0mg"},{"bike_id":"0a49a4ae-60d8-4597-98b0-b45576998bd9","system_id":"levelo_inurba_marseille","lat":43.31196,"lon":5.38566,"is_reserved":false,"is_disabled":false,"rental_uris":{"android":"levelo://app?vid=0a49a4ae-60d8-4597-98b0-b45576998bd9","ios":"levelo://app?vid=0a49a4ae-60d8-4597-98b0-b45576998bd9"},"vehicle_type_id":"4","last_reported":1750201830,"current_range_meters":19200,"station_id":"","pricing_plan_id":"cebpf4jnsgd1na2vs0mg"},{"bike_id":"54cebbad-17db-4f40-8141-8eedac83be3f","system_id":"levelo_inurba_marseille","lat":43.3376,"lon":5.37414,"is_reserved":false,"is_disabled":false,"rental_uris":{"android":"levelo://app?vid=54cebbad-17db-4f40-8141-8eedac83be3f","ios":"levelo://app?vid=54cebbad-17db-4f40-8141-8eedac83be3f"},"vehicle_type_id":"4","last_reported":1750201830,"current_range_meters":19200,"station_id":"","pricing_plan_id":"cebpf4jnsgd1na2vs0mg"},{"bike_id":"b389aa1c-cc22-4ef3-9a99-8ed0d0dc75a9","system_id":"levelo_inurba_marseille","lat":43.29252,"lon":5.40913,"is_reserved":false,"is_disabled":false,"rental_uris":{"android":"levelo://app?vid=b389aa1c-cc22-4ef3-9a99-8ed0d0dc75a9","ios":"levelo://app?vid=b389aa1c-cc22-4ef3-9a99-8ed0d0dc75a9"},"vehicle_type_id":"4","last_reported":1750201830,"current_range_meters":19200,"station_id":"ce4bh192rcd13ifvqdc0","pricing_plan_id":"cebpf4jnsgd1na2vs0mg"},{"bike_id":"e66146e1-ce73-4786-959b-0b2df533f56d","system_id":"levelo_inurba_marseille","lat":43.25108,"lon":5.40344,"is_reserved":false,"is_disabled":false,"rental_uris":{"android":"levelo://app?vid=e66146e1-ce73-4786-959b-0b2df533f56d","ios":"levelo://app?vid=e66146e1-ce73-4786-959b-0b2df533f56d"},"vehicle_type_id":"4","last_reported":1750201830,"current_range_meters":19200,"station_id":"ce4bhlh2rcd13ifvqgig","pricing_plan_id":"cebpf4jnsgd1na2vs0mg"},{"bike_id":"a85b2000-e3ea-4c9d-8512-f632fbae13d6","system_id":"levelo_inurba_marseille","lat":43.301498,"lon":5.400935,"is_reserved":false,"is_disabled":false,"rental_uris":{"android":"levelo://app?vid=a85b2000-e3ea-4c9d-8512-f632fbae13d6","ios":"levelo://app?vid=a85b2000-e3ea-4c9d-8512-f632fbae13d6"},"vehicle_type_id":"4","last_reported":1750201830,"current_range_meters":19600,"station_id":"","pricing_plan_id":"cebpf4jnsgd1na2vs0mg"},{"bike_id":"60b79169-9150-4afc-8c0f-16c8531a8015","system_id":"levelo_inurba_marseille","lat":43.27332,"lon":5.43113,"is_reserved":false,"is_disabled":false,"rental_uris":{"android":"levelo://app?vid=60b79169-9150-4afc-8c0f-16c8531a8015","ios":"levelo://app?vid=60b79169-9150-4afc-8c0f-16c8531a8015"},"vehicle_type_id":"4","last_reported":1750201830,"current_range_meters":19600,"station_id":"","pricing_plan_id":"cebpf4jnsgd1na2vs0mg"},{"bike_id":"fefc83fb-369d-4b09-9c58-b63d39fdc380","system_id":"levelo_inurba_marseille","lat":43.30316,"lon":5.39203,"is_reserved":false,"is_disabled":false,"rental_uris":{"android":"levelo://app?vid=fefc83fb-369d-4b09-9c58-b63d39fdc380","ios":"levelo://app?vid=fefc83fb-369d-4b09-9c58-b63d39fdc380"},"vehicle_type_id":"4","last_reported":1750201830,"current_range_meters":19600,"station_id":"ce4bgkh2rcd13ifvqbk0","pricing_plan_id":"cebpf4jnsgd1na2vs0mg"},{"bike_id":"26a18e41-e97a-4315-bfeb-39f2d80aa1dd","system_id":"levelo_inurba_marseille","lat":43.30247,"lon":5.40061,"is_reserved":false,"is_disabled":false,"rental_uris":{"android":"levelo://app?vid=26a18e41-e97a-4315-bfeb-39f2d80aa1dd","ios":"levelo://app?vid=26a18e41-e97a-4315-bfeb-39f2d80aa1dd"},"vehicle_type_id":"4","last_reported":1750201830,"current_range_meters":19600,"station_id":"ce4bgvh2rcd13ifvqcs0","pricing_plan_id":"cebpf4jnsgd1na2vs0mg"},{"bike_id":"6c98f69a-ad16-4602-bd99-bece5c428b39","system_id":"levelo_inurba_marseille","lat":43.292807,"lon":5.401263,"is_reserved":false,"is_disabled":false,"rental_uris":{"android":"levelo://app?vid=6c98f69a-ad16-4602-bd99-bece5c428b39","ios":"levelo://app?vid=6c98f69a-ad16-4602-bd99-bece5c428b39"},"vehicle_type_id":"4","last_reported":1750201830,"current_range_meters":19600,"station_id":"ce4bh312rcd13ifvqdk0","pricing_plan_id":"cebpf4jnsgd1na2vs0mg"},{"bike_id":"cfef7392-1433-476b-a989-3fb180315ec3","system_id":"levelo_inurba_marseille","lat":43.24164,"lon":5.39727,"is_reserved":false,"is_disabled":false,"rental_uris":{"android":"levelo://app?vid=cfef7392-1433-476b-a989-3fb180315ec3","ios":"levelo://app?vid=cfef7392-1433-476b-a989-3fb180315ec3"},"vehicle_type_id":"4","last_reported":1750201830,"current_range_meters":19600,"station_id":"ce4bhn12rcd13ifvqgpg","pricing_plan_id":"cebpf4jnsgd1na2vs0mg"},{"bike_id":"67182dff-e855-49cd-80e3-2d4cc1bd98c0","system_id":"levelo_inurba_marseille","lat":43.28422,"lon":5.39196,"is_reserved":false,"is_disabled":false,"rental_uris":{"android":"levelo://app?vid=67182dff-e855-49cd-80e3-2d4cc1bd98c0","ios":"levelo://app?vid=67182dff-e855-49cd-80e3-2d4cc1bd98c0"},"vehicle_type_id":"4","last_reported":1750201830,"current_range_meters":19600,"station_id":"ce4bhoh2rcd13ifvqh5g","pricing_plan_id":"cebpf4jnsgd1na2vs0mg"},{"bike_id":"a7269e3f-e2c4-4028-b2ed-51436c8cf697","system_id":"levelo_inurba_marseille","lat":43.21188,"lon":5.35088,"is_reserved":false,"is_disabled":false,"rental_uris":{"android":"levelo://app?vid=a7269e3f-e2c4-4028-b2ed-51436c8cf697","ios":"levelo://app?vid=a7269e3f-e2c4-4028-b2ed-51436c8cf697"},"vehicle_type_id":"4","last_reported":1750201830,"current_range_meters":19600,"station_id":"st_cvj6sg6p6f1abm77japg","pricing_plan_id":"cebpf4jnsgd1na2vs0mg"},{"bike_id":"a44a3524-f1dc-4af3-9a66-e4b6fe15df56","system_id":"levelo_inurba_marseille","lat":43.308834,"lon":5.396554,"is_reserved":false,"is_disabled":false,"rental_uris":{"android":"levelo://app?vid=a44a3524-f1dc-4af3-9a66-e4b6fe15df56","ios":"levelo://app?vid=a44a3524-f1dc-4af3-9a66-e4b6fe15df56"},"vehicle_type_id":"4","last_reported":1750201830,"current_range_meters":20000,"station_id":"","pricing_plan_id":"cebpf4jnsgd1na2vs0mg"},{"bike_id":"99ce8592-0821-4472-afe4-59fea13f16f3","system_id":"levelo_inurba_marseille","lat":43.31364,"lon":5.38486,"is_reserved":false,"is_disabled":false,"rental_uris":{"android":"levelo://app?vid=99ce8592-0821-4472-afe4-59fea13f16f3","ios":"levelo://app?vid=99ce8592-0821-4472-afe4-59fea13f16f3"},"vehicle_type_id":"4","last_reported":1750201830,"current_range_meters":20000,"station_id":"ce4bgt92rcd13ifvqcf0","pricing_plan_id":"cebpf4jnsgd1na2vs0mg"},{"bike_id":"93a35b42-d0f4-423d-ac00-e923fd097ace","system_id":"levelo_inurba_marseille","lat":43.305976,"lon":5.393521,"is_reserved":false,"is_disabled":false,"rental_uris":{"android":"levelo://app?vid=93a35b42-d0f4-423d-ac00-e923fd097ace","ios":"levelo://app?vid=93a35b42-d0f4-423d-ac00-e923fd097ace"},"vehicle_type_id":"4","last_reported":1750201830,"current_range_meters":20000,"station_id":"ce4bh0p2rcd13ifvqd80","pricing_plan_id":"cebpf4jnsgd1na2vs0mg"},{"bike_id":"85928def-1a37-43ea-9429-e23fb7a1aa0b","system_id":"levelo_inurba_marseille","lat":43.29197,"lon":5.39365,"is_reserved":false,"is_disabled":false,"rental_uris":{"android":"levelo://app?vid=85928def-1a37-43ea-9429-e23fb7a1aa0b","ios":"levelo://app?vid=85928def-1a37-43ea-9429-e23fb7a1aa0b"},"vehicle_type_id":"4","last_reported":1750201830,"current_range_meters":20000,"station_id":"ce4bh192rcd13ifvqdd0","pricing_plan_id":"cebpf4jnsgd1na2vs0mg"},{"bike_id":"c8d970ef-20d6-4656-91db-56b2f39018a0","system_id":"levelo_inurba_marseille","lat":43.32352,"lon":5.38865,"is_reserved":false,"is_disabled":false,"rental_uris":{"android":"levelo://app?vid=c8d970ef-20d6-4656-91db-56b2f39018a0","ios":"levelo://app?vid=c8d970ef-20d6-4656-91db-56b2f39018a0"},"vehicle_type_id":"4","last_reported":1750201830,"current_range_meters":20000,"station_id":"ce4bhqp2rcd13ifvqhog","pricing_plan_id":"cebpf4jnsgd1na2vs0mg"},{"bike_id":"77ac8037-3c3c-493a-82c2-904a9ad6c7d0","system_id":"levelo_inurba_marseille","lat":43.26824,"lon":5.39076,"is_reserved":false,"is_disabled":false,"rental_uris":{"android":"levelo://app?vid=77ac8037-3c3c-493a-82c2-904a9ad6c7d0","ios":"levelo://app?vid=77ac8037-3c3c-493a-82c2-904a9ad6c7d0"},"vehicle_type_id":"4","last_reported":1750201830,"current_range_meters":20400,"station_id":"","pricing_plan_id":"cebpf4jnsgd1na2vs0mg"},{"bike_id":"e5863b13-0bb4-41ee-a7a1-72091c1036b5","system_id":"levelo_inurba_marseille","lat":43.31607,"lon":5.38406,"is_reserved":false,"is_disabled":false,"rental_uris":{"android":"levelo://app?vid=e5863b13-0bb4-41ee-a7a1-72091c1036b5","ios":"levelo://app?vid=e5863b13-0bb4-41ee-a7a1-72091c1036b5"},"vehicle_type_id":"4","last_reported":1750201830,"current_range_meters":20400,"station_id":"","pricing_plan_id":"cebpf4jnsgd1na2vs0mg"},{"bike_id":"94e2d494-f48f-4bc6-a0d3-27b15833ce63","system_id":"levelo_inurba_marseille","lat":43.30585,"lon":5.37256,"is_reserved":false,"is_disabled":false,"rental_uris":{"android":"levelo://app?vid=94e2d494-f48f-4bc6-a0d3-27b15833ce63","ios":"levelo://app?vid=94e2d494-f48f-4bc6-a0d3-27b15833ce63"},"vehicle_type_id":"4","last_reported":1750201830,"current_range_meters":20400,"station_id":"ce4bgqh2rcd13ifvqc4g","pricing_plan_id":"cebpf4jnsgd1na2vs0mg"},{"bike_id":"13f4fd08-6468-4103-86cd-f5e235369d24","system_id":"levelo_inurba_marseille","lat":43.31342,"lon":5.36729,"is_reserved":false,"is_disabled":false,"rental_uris":{"android":"levelo://app?vid=13f4fd08-6468-4103-86cd-f5e235369d24","ios":"levelo://app?vid=13f4fd08-6468-4103-86cd-f5e235369d24"},"vehicle_type_id":"4","last_reported":1750201830,"current_range_meters":20400,"station_id":"ce4bgr92rcd13ifvqc6g","pricing_plan_id":"cebpf4jnsgd1na2vs0mg"},{"bike_id":"d7bf2ba4-ea58-4e59-ad51-029f4239a248","system_id":"levelo_inurba_marseille","lat":43.284147,"lon":5.37514,"is_reserved":false,"is_disabled":false,"rental_uris":{"android":"levelo://app?vid=d7bf2ba4-ea58-4e59-ad51-029f4239a248","ios":"levelo://app?vid=d7bf2ba4-ea58-4e59-ad51-029f4239a248"},"vehicle_type_id":"4","last_reported":1750201830,"current_range_meters":20400,"station_id":"ce4bh412rcd13ifvqds0","pricing_plan_id":"cebpf4jnsgd1na2vs0mg"},{"bike_id":"d7558e1a-9760-4e88-80c3-302c33f5512c","system_id":"levelo_inurba_marseille","lat":43.323652,"lon":5.38886,"is_reserved":false,"is_disabled":false,"rental_uris":{"android":"levelo://app?vid=d7558e1a-9760-4e88-80c3-302c33f5512c","ios":"levelo://app?vid=d7558e1a-9760-4e88-80c3-302c33f5512c"},"vehicle_type_id":"4","last_reported":1750201830,"current_range_meters":20400,"station_id":"ce4bhqp2rcd13ifvqhog","pricing_plan_id":"cebpf4jnsgd1na2vs0mg"},{"bike_id":"b5e26d25-fec9-4586-9193-b16d9d9234ce","system_id":"levelo_inurba_marseille","lat":43.3169,"lon":5.40477,"is_reserved":false,"is_disabled":false,"rental_uris":{"android":"levelo://app?vid=b5e26d25-fec9-4586-9193-b16d9d9234ce","ios":"levelo://app?vid=b5e26d25-fec9-4586-9193-b16d9d9234ce"},"vehicle_type_id":"4","last_reported":1750201830,"current_range_meters":20800,"station_id":"ce4bh012rcd13ifvqd00","pricing_plan_id":"cebpf4jnsgd1na2vs0mg"},{"bike_id":"d4709bef-30c7-47e1-acb0-b62d446b415c","system_id":"levelo_inurba_marseille","lat":43.29279,"lon":5.40198,"is_reserved":false,"is_disabled":false,"rental_uris":{"android":"levelo://app?vid=d4709bef-30c7-47e1-acb0-b62d446b415c","ios":"levelo://app?vid=d4709bef-30c7-47e1-acb0-b62d446b415c"},"vehicle_type_id":"4","last_reported":1750201830,"current_range_meters":21600,"station_id":"","pricing_plan_id":"cebpf4jnsgd1na2vs0mg"},{"bike_id":"3c99143a-308d-4b71-b19e-d012e33ba9c5","system_id":"levelo_inurba_marseille","lat":43.29622,"lon":5.37739,"is_reserved":false,"is_disabled":false,"rental_uris":{"android":"levelo://app?vid=3c99143a-308d-4b71-b19e-d012e33ba9c5","ios":"levelo://app?vid=3c99143a-308d-4b71-b19e-d012e33ba9c5"},"vehicle_type_id":"4","last_reported":1750201830,"current_range_meters":21600,"station_id":"ce4bgi92rcd13ifvqb90","pricing_plan_id":"cebpf4jnsgd1na2vs0mg"},{"bike_id":"195942bd-a3b6-48eb-8d9f-1662df19caa2","system_id":"levelo_inurba_marseille","lat":43.31114,"lon":5.37776,"is_reserved":false,"is_disabled":false,"rental_uris":{"android":"levelo://app?vid=195942bd-a3b6-48eb-8d9f-1662df19caa2","ios":"levelo://app?vid=195942bd-a3b6-48eb-8d9f-1662df19caa2"},"vehicle_type_id":"4","last_reported":1750201830,"current_range_meters":21600,"station_id":"ce4bgt92rcd13ifvqcg0","pricing_plan_id":"cebpf4jnsgd1na2vs0mg"},{"bike_id":"27c7ec7c-b37e-4d83-9167-81e8138f3173","system_id":"levelo_inurba_marseille","lat":43.28705,"lon":5.37409,"is_reserved":false,"is_disabled":false,"rental_uris":{"android":"levelo://app?vid=27c7ec7c-b37e-4d83-9167-81e8138f3173","ios":"levelo://app?vid=27c7ec7c-b37e-4d83-9167-81e8138f3173"},"vehicle_type_id":"4","last_reported":1750201830,"current_range_meters":21600,"station_id":"ce4bh3p2rcd13ifvqdq0","pricing_plan_id":"cebpf4jnsgd1na2vs0mg"},{"bike_id":"72e9891b-ba88-4815-a991-094706100cd9","system_id":"levelo_inurba_marseille","lat":43.271774,"lon":5.409914,"is_reserved":false,"is_disabled":false,"rental_uris":{"android":"levelo://app?vid=72e9891b-ba88-4815-a991-094706100cd9","ios":"levelo://app?vid=72e9891b-ba88-4815-a991-094706100cd9"},"vehicle_type_id":"4","last_reported":1750201830,"current_range_meters":21600,"station_id":"ce4bhl12rcd13ifvqgf0","pricing_plan_id":"cebpf4jnsgd1na2vs0mg"},{"bike_id":"452de6f5-dcc4-40e6-91d1-27952aacbf43","system_id":"levelo_inurba_marseille","lat":43.23193,"lon":5.40012,"is_reserved":false,"is_disabled":false,"rental_uris":{"android":"levelo://app?vid=452de6f5-dcc4-40e6-91d1-27952aacbf43","ios":"levelo://app?vid=452de6f5-dcc4-40e6-91d1-27952aacbf43"},"vehicle_type_id":"4","last_reported":1750201830,"current_range_meters":21600,"station_id":"ce4bhn12rcd13ifvqgqg","pricing_plan_id":"cebpf4jnsgd1na2vs0mg"},{"bike_id":"97dbe3d4-f5f1-4df9-9c22-2c7c2edf12c9","system_id":"levelo_inurba_marseille","lat":43.32334,"lon":5.40615,"is_reserved":false,"is_disabled":false,"rental_uris":{"android":"levelo://app?vid=97dbe3d4-f5f1-4df9-9c22-2c7c2edf12c9","ios":"levelo://app?vid=97dbe3d4-f5f1-4df9-9c22-2c7c2edf12c9"},"vehicle_type_id":"4","last_reported":1750201830,"current_range_meters":21600,"station_id":"ce4bhq92rcd13ifvqhjg","pricing_plan_id":"cebpf4jnsgd1na2vs0mg"},{"bike_id":"27cd7138-8b58-4d27-b6bb-d957b614e63b","system_id":"levelo_inurba_marseille","lat":43.30158,"lon":5.3699,"is_reserved":false,"is_disabled":false,"rental_uris":{"android":"levelo://app?vid=27cd7138-8b58-4d27-b6bb-d957b614e63b","ios":"levelo://app?vid=27cd7138-8b58-4d27-b6bb-d957b614e63b"},"vehicle_type_id":"4","last_reported":1750201830,"current_range_meters":22000,"station_id":"","pricing_plan_id":"cebpf4jnsgd1na2vs0mg"},{"bike_id":"5a5794d3-2694-465e-8ad1-80a67bb37288","system_id":"levelo_inurba_marseille","lat":43.29569,"lon":5.39995,"is_reserved":false,"is_disabled":false,"rental_uris":{"android":"levelo://app?vid=5a5794d3-2694-465e-8ad1-80a67bb37288","ios":"levelo://app?vid=5a5794d3-2694-465e-8ad1-80a67bb37288"},"vehicle_type_id":"4","last_reported":1750201830,"current_range_meters":22000,"station_id":"ce4bh312rcd13ifvqdj0","pricing_plan_id":"cebpf4jnsgd1na2vs0mg"},{"bike_id":"ea8ec858-3097-42ad-a914-b64222dd3190","system_id":"levelo_inurba_marseille","lat":43.29522,"lon":5.39039,"is_reserved":false,"is_disabled":false,"rental_uris":{"android":"levelo://app?vid=ea8ec858-3097-42ad-a914-b64222dd3190","ios":"levelo://app?vid=ea8ec858-3097-42ad-a914-b64222dd3190"},"vehicle_type_id":"4","last_reported":1750201830,"current_range_meters":22000,"station_id":"ce4bh3p2rcd13ifvqdp0","pricing_plan_id":"cebpf4jnsgd1na2vs0mg"},{"bike_id":"5c2be166-0dcb-4503-b550-5a8156388737","system_id":"levelo_inurba_marseille","lat":43.28919,"lon":5.38391,"is_reserved":false,"is_disabled":false,"rental_uris":{"android":"levelo://app?vid=5c2be166-0dcb-4503-b550-5a8156388737","ios":"levelo://app?vid=5c2be166-0dcb-4503-b550-5a8156388737"},"vehicle_type_id":"4","last_reported":1750201830,"current_range_meters":22000,"station_id":"ce4bh612rcd13ifvqe6g","pricing_plan_id":"cebpf4jnsgd1na2vs0mg"},{"bike_id":"da1762e3-5e16-41b4-a3f2-46a8de3b1bf8","system_id":"levelo_inurba_marseille","lat":43.28457,"lon":5.35882,"is_reserved":false,"is_disabled":false,"rental_uris":{"android":"levelo://app?vid=da1762e3-5e16-41b4-a3f2-46a8de3b1bf8","ios":"levelo://app?vid=da1762e3-5e16-41b4-a3f2-46a8de3b1bf8"},"vehicle_type_id":"4","last_reported":1750201830,"current_range_meters":22000,"station_id":"ce4bhah2rcd13ifvqei0","pricing_plan_id":"cebpf4jnsgd1na2vs0mg"},{"bike_id":"64d38093-18fc-42ee-b311-3ea6cfb16a01","system_id":"levelo_inurba_marseille","lat":43.26207,"lon":5.37449,"is_reserved":false,"is_disabled":false,"rental_uris":{"android":"levelo://app?vid=64d38093-18fc-42ee-b311-3ea6cfb16a01","ios":"levelo://app?vid=64d38093-18fc-42ee-b311-3ea6cfb16a01"},"vehicle_type_id":"4","last_reported":1750201830,"current_range_meters":22000,"station_id":"ce4bhgp2rcd13ifvqfc0","pricing_plan_id":"cebpf4jnsgd1na2vs0mg"},{"bike_id":"5aa90c6a-eeb4-4feb-982b-3b07d3407bef","system_id":"levelo_inurba_marseille","lat":43.32535,"lon":5.41426,"is_reserved":false,"is_disabled":false,"rental_uris":{"android":"levelo://app?vid=5aa90c6a-eeb4-4feb-982b-3b07d3407bef","ios":"levelo://app?vid=5aa90c6a-eeb4-4feb-982b-3b07d3407bef"},"vehicle_type_id":"4","last_reported":1750201830,"current_range_meters":22000,"station_id":"ce4bhq12rcd13ifvqhhg","pricing_plan_id":"cebpf4jnsgd1na2vs0mg"},{"bike_id":"00e92443-35f7-4c50-ad67-cf55768122cc","system_id":"levelo_inurba_marseille","lat":43.24662,"lon":5.38165,"is_reserved":false,"is_disabled":false,"rental_uris":{"android":"levelo://app?vid=00e92443-35f7-4c50-ad67-cf55768122cc","ios":"levelo://app?vid=00e92443-35f7-4c50-ad67-cf55768122cc"},"vehicle_type_id":"4","last_reported":1750201830,"current_range_meters":22400,"station_id":"ce4bhih2rcd13ifvqfr0","pricing_plan_id":"cebpf4jnsgd1na2vs0mg"},{"bike_id":"da44e91f-d675-4c1a-8ba0-33ead0712f20","system_id":"levelo_inurba_marseille","lat":43.28725,"lon":5.36088,"is_reserved":false,"is_disabled":false,"rental_uris":{"android":"levelo://app?vid=da44e91f-d675-4c1a-8ba0-33ead0712f20","ios":"levelo://app?vid=da44e91f-d675-4c1a-8ba0-33ead0712f20"},"vehicle_type_id":"4","last_reported":1750201830,"current_range_meters":22400,"station_id":"cki0cbj6b192h4jlfktg","pricing_plan_id":"cebpf4jnsgd1na2vs0mg"},{"bike_id":"cfb7f9b9-be9e-4232-8cd8-ec2e8fc20ce8","system_id":"levelo_inurba_marseille","lat":43.29934,"lon":5.36559,"is_reserved":false,"is_disabled":false,"rental_uris":{"android":"levelo://app?vid=cfb7f9b9-be9e-4232-8cd8-ec2e8fc20ce8","ios":"levelo://app?vid=cfb7f9b9-be9e-4232-8cd8-ec2e8fc20ce8"},"vehicle_type_id":"4","last_reported":1750201830,"current_range_meters":22800,"station_id":"ce4bgm92rcd13ifvqbr0","pricing_plan_id":"cebpf4jnsgd1na2vs0mg"},{"bike_id":"2dbad3dc-2001-41c9-85cf-4ff03cb065f7","system_id":"levelo_inurba_marseille","lat":43.29833,"lon":5.36274,"is_reserved":false,"is_disabled":false,"rental_uris":{"android":"levelo://app?vid=2dbad3dc-2001-41c9-85cf-4ff03cb065f7","ios":"levelo://app?vid=2dbad3dc-2001-41c9-85cf-4ff03cb065f7"},"vehicle_type_id":"4","last_reported":1750201830,"current_range_meters":22800,"station_id":"ce4bgpp2rcd13ifvqc3g","pricing_plan_id":"cebpf4jnsgd1na2vs0mg"},{"bike_id":"5b1d2afa-7a0a-4f9c-8e44-693ec619a952","system_id":"levelo_inurba_marseille","lat":43.31113,"lon":5.3777,"is_reserved":false,"is_disabled":false,"rental_uris":{"android":"levelo://app?vid=5b1d2afa-7a0a-4f9c-8e44-693ec619a952","ios":"levelo://app?vid=5b1d2afa-7a0a-4f9c-8e44-693ec619a952"},"vehicle_type_id":"4","last_reported":1750201830,"current_range_meters":22800,"station_id":"ce4bgt92rcd13ifvqcg0","pricing_plan_id":"cebpf4jnsgd1na2vs0mg"},{"bike_id":"30ea9c58-b180-4dcb-ba62-5cbe0aff3645","system_id":"levelo_inurba_marseille","lat":43.308789,"lon":5.39643,"is_reserved":false,"is_disabled":false,"rental_uris":{"android":"levelo://app?vid=30ea9c58-b180-4dcb-ba62-5cbe0aff3645","ios":"levelo://app?vid=30ea9c58-b180-4dcb-ba62-5cbe0aff3645"},"vehicle_type_id":"4","last_reported":1750201830,"current_range_meters":22800,"station_id":"ce4bh012rcd13ifvqcv0","pricing_plan_id":"cebpf4jnsgd1na2vs0mg"},{"bike_id":"5654a528-9f83-4e01-8cee-bed7de331b3f","system_id":"levelo_inurba_marseille","lat":43.309453,"lon":5.390322,"is_reserved":false,"is_disabled":false,"rental_uris":{"android":"levelo://app?vid=5654a528-9f83-4e01-8cee-bed7de331b3f","ios":"levelo://app?vid=5654a528-9f83-4e01-8cee-bed7de331b3f"},"vehicle_type_id":"4","last_reported":1750201830,"current_range_meters":22800,"station_id":"ce4bh0p2rcd13ifvqd80","pricing_plan_id":"cebpf4jnsgd1na2vs0mg"},{"bike_id":"0c74e2e9-a71d-4f7c-825c-68730dd892f0","system_id":"levelo_inurba_marseille","lat":43.26953,"lon":5.38645,"is_reserved":false,"is_disabled":false,"rental_uris":{"android":"levelo://app?vid=0c74e2e9-a71d-4f7c-825c-68730dd892f0","ios":"levelo://app?vid=0c74e2e9-a71d-4f7c-825c-68730dd892f0"},"vehicle_type_id":"4","last_reported":1750201830,"current_range_meters":22800,"station_id":"ce4bhh92rcd13ifvqfh0","pricing_plan_id":"cebpf4jnsgd1na2vs0mg"},{"bike_id":"e3e17db5-e512-4930-95c5-4c942196b2f1","system_id":"levelo_inurba_marseille","lat":43.25724,"lon":5.41146,"is_reserved":false,"is_disabled":false,"rental_uris":{"android":"levelo://app?vid=e3e17db5-e512-4930-95c5-4c942196b2f1","ios":"levelo://app?vid=e3e17db5-e512-4930-95c5-4c942196b2f1"},"vehicle_type_id":"4","last_reported":1750201830,"current_range_meters":22800,"station_id":"ce4bhkp2rcd13ifvqgd0","pricing_plan_id":"cebpf4jnsgd1na2vs0mg"},{"bike_id":"ccd6125c-4b70-4154-8447-d8b590c0a354","system_id":"levelo_inurba_marseille","lat":43.316729,"lon":5.404626,"is_reserved":false,"is_disabled":false,"rental_uris":{"android":"levelo://app?vid=ccd6125c-4b70-4154-8447-d8b590c0a354","ios":"levelo://app?vid=ccd6125c-4b70-4154-8447-d8b590c0a354"},"vehicle_type_id":"4","last_reported":1750201830,"current_range_meters":23200,"station_id":"ce4bh012rcd13ifvqd00","pricing_plan_id":"cebpf4jnsgd1na2vs0mg"},{"bike_id":"dba75895-388c-4652-86bf-29c5596fe0f3","system_id":"levelo_inurba_marseille","lat":43.304204,"lon":5.397553,"is_reserved":false,"is_disabled":false,"rental_uris":{"android":"levelo://app?vid=dba75895-388c-4652-86bf-29c5596fe0f3","ios":"levelo://app?vid=dba75895-388c-4652-86bf-29c5596fe0f3"},"vehicle_type_id":"4","last_reported":1750201830,"current_range_meters":23200,"station_id":"ce4bh092rcd13ifvqd20","pricing_plan_id":"cebpf4jnsgd1na2vs0mg"},{"bike_id":"a673f03b-b2ad-443d-b427-f173fca6bb7c","system_id":"levelo_inurba_marseille","lat":43.29507,"lon":5.3941,"is_reserved":false,"is_disabled":false,"rental_uris":{"android":"levelo://app?vid=a673f03b-b2ad-443d-b427-f173fca6bb7c","ios":"levelo://app?vid=a673f03b-b2ad-443d-b427-f173fca6bb7c"},"vehicle_type_id":"4","last_reported":1750201830,"current_range_meters":23200,"station_id":"ce4bh292rcd13ifvqdf0","pricing_plan_id":"cebpf4jnsgd1na2vs0mg"},{"bike_id":"bc20619f-25b7-48f0-b6ee-7bda04f31ff6","system_id":"levelo_inurba_marseille","lat":43.288545,"lon":5.393265,"is_reserved":false,"is_disabled":false,"rental_uris":{"android":"levelo://app?vid=bc20619f-25b7-48f0-b6ee-7bda04f31ff6","ios":"levelo://app?vid=bc20619f-25b7-48f0-b6ee-7bda04f31ff6"},"vehicle_type_id":"4","last_reported":1750201830,"current_range_meters":23200,"station_id":"ce4bh2p2rcd13ifvqdi0","pricing_plan_id":"cebpf4jnsgd1na2vs0mg"},{"bike_id":"aef0b2f4-3b5f-4a5a-b54e-ca806dabb230","system_id":"levelo_inurba_marseille","lat":43.25115,"lon":5.40321,"is_reserved":false,"is_disabled":false,"rental_uris":{"android":"levelo://app?vid=aef0b2f4-3b5f-4a5a-b54e-ca806dabb230","ios":"levelo://app?vid=aef0b2f4-3b5f-4a5a-b54e-ca806dabb230"},"vehicle_type_id":"4","last_reported":1750201830,"current_range_meters":23200,"station_id":"ce4bhlh2rcd13ifvqgig","pricing_plan_id":"cebpf4jnsgd1na2vs0mg"},{"bike_id":"46b2785a-6550-40ad-8c08-d060facecf77","system_id":"levelo_inurba_marseille","lat":43.30945,"lon":5.39038,"is_reserved":false,"is_disabled":false,"rental_uris":{"android":"levelo://app?vid=46b2785a-6550-40ad-8c08-d060facecf77","ios":"levelo://app?vid=46b2785a-6550-40ad-8c08-d060facecf77"},"vehicle_type_id":"4","last_reported":1750201830,"current_range_meters":24000,"station_id":"ce4bgup2rcd13ifvqco0","pricing_plan_id":"cebpf4jnsgd1na2vs0mg"},{"bike_id":"17f20dd2-0685-4c20-bafa-ee3e4e2bfdf8","system_id":"levelo_inurba_marseille","lat":43.30648,"lon":5.40108,"is_reserved":false,"is_disabled":false,"rental_uris":{"android":"levelo://app?vid=17f20dd2-0685-4c20-bafa-ee3e4e2bfdf8","ios":"levelo://app?vid=17f20dd2-0685-4c20-bafa-ee3e4e2bfdf8"},"vehicle_type_id":"4","last_reported":1750201830,"current_range_meters":24000,"station_id":"ce4bh112rcd13ifvqda0","pricing_plan_id":"cebpf4jnsgd1na2vs0mg"},{"bike_id":"ae6b9b42-2b0e-4e34-b916-cfaa17bc830c","system_id":"levelo_inurba_marseille","lat":43.29542,"lon":5.39396,"is_reserved":false,"is_disabled":false,"rental_uris":{"android":"levelo://app?vid=ae6b9b42-2b0e-4e34-b916-cfaa17bc830c","ios":"levelo://app?vid=ae6b9b42-2b0e-4e34-b916-cfaa17bc830c"},"vehicle_type_id":"4","last_reported":1750201830,"current_range_meters":24000,"station_id":"ce4bh292rcd13ifvqdf0","pricing_plan_id":"cebpf4jnsgd1na2vs0mg"},{"bike_id":"704d0aae-4a1d-400b-8732-7de4ccabd9fb","system_id":"levelo_inurba_marseille","lat":43.287047,"lon":5.374083,"is_reserved":false,"is_disabled":false,"rental_uris":{"android":"levelo://app?vid=704d0aae-4a1d-400b-8732-7de4ccabd9fb","ios":"levelo://app?vid=704d0aae-4a1d-400b-8732-7de4ccabd9fb"},"vehicle_type_id":"4","last_reported":1750201830,"current_range_meters":24000,"station_id":"ce4bh3p2rcd13ifvqdq0","pricing_plan_id":"cebpf4jnsgd1na2vs0mg"},{"bike_id":"9c5f37f4-5924-4893-8bbb-390370869f85","system_id":"levelo_inurba_marseille","lat":43.25103,"lon":5.40324,"is_reserved":false,"is_disabled":false,"rental_uris":{"android":"levelo://app?vid=9c5f37f4-5924-4893-8bbb-390370869f85","ios":"levelo://app?vid=9c5f37f4-5924-4893-8bbb-390370869f85"},"vehicle_type_id":"4","last_reported":1750201830,"current_range_meters":24000,"station_id":"ce4bhlh2rcd13ifvqgig","pricing_plan_id":"cebpf4jnsgd1na2vs0mg"},{"bike_id":"1e716788-94d4-49f9-8262-a5fe985683ab","system_id":"levelo_inurba_marseille","lat":43.2988,"lon":5.43637,"is_reserved":false,"is_disabled":false,"rental_uris":{"android":"levelo://app?vid=1e716788-94d4-49f9-8262-a5fe985683ab","ios":"levelo://app?vid=1e716788-94d4-49f9-8262-a5fe985683ab"},"vehicle_type_id":"4","last_reported":1750201830,"current_range_meters":24000,"station_id":"ce4bhpp2rcd13ifvqhfg","pricing_plan_id":"cebpf4jnsgd1na2vs0mg"},{"bike_id":"0939b272-0385-4ae0-bc1a-12fb0b2f9ed8","system_id":"levelo_inurba_marseille","lat":43.30787,"lon":5.3764,"is_reserved":false,"is_disabled":false,"rental_uris":{"android":"levelo://app?vid=0939b272-0385-4ae0-bc1a-12fb0b2f9ed8","ios":"levelo://app?vid=0939b272-0385-4ae0-bc1a-12fb0b2f9ed8"},"vehicle_type_id":"4","last_reported":1750201830,"current_range_meters":24400,"station_id":"ce4bgv92rcd13ifvqcq0","pricing_plan_id":"cebpf4jnsgd1na2vs0mg"},{"bike_id":"8b2e633d-2ac3-4eaf-888a-7995f9331981","system_id":"levelo_inurba_marseille","lat":43.29282,"lon":5.40132,"is_reserved":false,"is_disabled":false,"rental_uris":{"android":"levelo://app?vid=8b2e633d-2ac3-4eaf-888a-7995f9331981","ios":"levelo://app?vid=8b2e633d-2ac3-4eaf-888a-7995f9331981"},"vehicle_type_id":"4","last_reported":1750201830,"current_range_meters":24400,"station_id":"ce4bh312rcd13ifvqdk0","pricing_plan_id":"cebpf4jnsgd1na2vs0mg"},{"bike_id":"3fa8b578-d1dd-4691-9dee-138f72b4478e","system_id":"levelo_inurba_marseille","lat":43.29037,"lon":5.39964,"is_reserved":false,"is_disabled":false,"rental_uris":{"android":"levelo://app?vid=3fa8b578-d1dd-4691-9dee-138f72b4478e","ios":"levelo://app?vid=3fa8b578-d1dd-4691-9dee-138f72b4478e"},"vehicle_type_id":"4","last_reported":1750201830,"current_range_meters":24400,"station_id":"ce4bh392rcd13ifvqdm0","pricing_plan_id":"cebpf4jnsgd1na2vs0mg"},{"bike_id":"6a5c0154-a905-4f23-adc9-437e3bb6570a","system_id":"levelo_inurba_marseille","lat":43.29431,"lon":5.39753,"is_reserved":false,"is_disabled":false,"rental_uris":{"android":"levelo://app?vid=6a5c0154-a905-4f23-adc9-437e3bb6570a","ios":"levelo://app?vid=6a5c0154-a905-4f23-adc9-437e3bb6570a"},"vehicle_type_id":"4","last_reported":1750201830,"current_range_meters":24400,"station_id":"ce4bh3h2rcd13ifvqdo0","pricing_plan_id":"cebpf4jnsgd1na2vs0mg"},{"bike_id":"b4a13b75-402d-41c6-aca7-326fd5447b84","system_id":"levelo_inurba_marseille","lat":43.30371,"lon":5.42482,"is_reserved":false,"is_disabled":false,"rental_uris":{"android":"levelo://app?vid=b4a13b75-402d-41c6-aca7-326fd5447b84","ios":"levelo://app?vid=b4a13b75-402d-41c6-aca7-326fd5447b84"},"vehicle_type_id":"4","last_reported":1750201830,"current_range_meters":24400,"station_id":"ce4bhoh2rcd13ifvqh6g","pricing_plan_id":"cebpf4jnsgd1na2vs0mg"},{"bike_id":"d1da8fb8-f435-462f-99a3-8ba810e3d01d","system_id":"levelo_inurba_marseille","lat":43.23201,"lon":5.35556,"is_reserved":false,"is_disabled":false,"rental_uris":{"android":"levelo://app?vid=d1da8fb8-f435-462f-99a3-8ba810e3d01d","ios":"levelo://app?vid=d1da8fb8-f435-462f-99a3-8ba810e3d01d"},"vehicle_type_id":"4","last_reported":1750201830,"current_range_meters":24400,"station_id":"ce4bhu92rcd13ifvqi70","pricing_plan_id":"cebpf4jnsgd1na2vs0mg"},{"bike_id":"54f65135-0bc3-425d-8e13-6c0b4f7e11df","system_id":"levelo_inurba_marseille","lat":43.337557,"lon":5.374415,"is_reserved":false,"is_disabled":false,"rental_uris":{"android":"levelo://app?vid=54f65135-0bc3-425d-8e13-6c0b4f7e11df","ios":"levelo://app?vid=54f65135-0bc3-425d-8e13-6c0b4f7e11df"},"vehicle_type_id":"4","last_reported":1750201830,"current_range_meters":24800,"station_id":"","pricing_plan_id":"cebpf4jnsgd1na2vs0mg"},{"bike_id":"b3332383-cdaa-4913-8187-74baf6cbe680","system_id":"levelo_inurba_marseille","lat":43.26512,"lon":5.39536,"is_reserved":false,"is_disabled":false,"rental_uris":{"android":"levelo://app?vid=b3332383-cdaa-4913-8187-74baf6cbe680","ios":"levelo://app?vid=b3332383-cdaa-4913-8187-74baf6cbe680"},"vehicle_type_id":"4","last_reported":1750201830,"current_range_meters":24800,"station_id":"","pricing_plan_id":"cebpf4jnsgd1na2vs0mg"},{"bike_id":"d652559b-b2b7-4206-965a-a58b76010f18","system_id":"levelo_inurba_marseille","lat":43.32205,"lon":5.38101,"is_reserved":false,"is_disabled":false,"rental_uris":{"android":"levelo://app?vid=d652559b-b2b7-4206-965a-a58b76010f18","ios":"levelo://app?vid=d652559b-b2b7-4206-965a-a58b76010f18"},"vehicle_type_id":"4","last_reported":1750201830,"current_range_meters":24800,"station_id":"","pricing_plan_id":"cebpf4jnsgd1na2vs0mg"},{"bike_id":"444aef53-77f0-484b-9a2b-78e7df8194e1","system_id":"levelo_inurba_marseille","lat":43.30606,"lon":5.37205,"is_reserved":false,"is_disabled":false,"rental_uris":{"android":"levelo://app?vid=444aef53-77f0-484b-9a2b-78e7df8194e1","ios":"levelo://app?vid=444aef53-77f0-484b-9a2b-78e7df8194e1"},"vehicle_type_id":"4","last_reported":1750201830,"current_range_meters":24800,"station_id":"ce4bgqh2rcd13ifvqc4g","pricing_plan_id":"cebpf4jnsgd1na2vs0mg"},{"bike_id":"7a7dedd4-8d82-4dd7-9bef-b5ab7efc4bbf","system_id":"levelo_inurba_marseille","lat":43.314499,"lon":5.373366,"is_reserved":false,"is_disabled":false,"rental_uris":{"android":"levelo://app?vid=7a7dedd4-8d82-4dd7-9bef-b5ab7efc4bbf","ios":"levelo://app?vid=7a7dedd4-8d82-4dd7-9bef-b5ab7efc4bbf"},"vehicle_type_id":"4","last_reported":1750201830,"current_range_meters":24800,"station_id":"ce4bgt12rcd13ifvqcd0","pricing_plan_id":"cebpf4jnsgd1na2vs0mg"},{"bike_id":"d8dd729a-bc39-4675-ab21-eff78977ea9f","system_id":"levelo_inurba_marseille","lat":43.30804,"lon":5.38184,"is_reserved":false,"is_disabled":false,"rental_uris":{"android":"levelo://app?vid=d8dd729a-bc39-4675-ab21-eff78977ea9f","ios":"levelo://app?vid=d8dd729a-bc39-4675-ab21-eff78977ea9f"},"vehicle_type_id":"4","last_reported":1750201830,"current_range_meters":24800,"station_id":"ce4bgt12rcd13ifvqce0","pricing_plan_id":"cebpf4jnsgd1na2vs0mg"},{"bike_id":"907308c7-b165-4c68-b510-20c3668629fd","system_id":"levelo_inurba_marseille","lat":43.24168,"lon":5.39708,"is_reserved":false,"is_disabled":false,"rental_uris":{"android":"levelo://app?vid=907308c7-b165-4c68-b510-20c3668629fd","ios":"levelo://app?vid=907308c7-b165-4c68-b510-20c3668629fd"},"vehicle_type_id":"4","last_reported":1750201830,"current_range_meters":24800,"station_id":"ce4bhn12rcd13ifvqgpg","pricing_plan_id":"cebpf4jnsgd1na2vs0mg"},{"bike_id":"352767fe-2351-4af6-920f-18006889729c","system_id":"levelo_inurba_marseille","lat":43.23193,"lon":5.40016,"is_reserved":false,"is_disabled":false,"rental_uris":{"android":"levelo://app?vid=352767fe-2351-4af6-920f-18006889729c","ios":"levelo://app?vid=352767fe-2351-4af6-920f-18006889729c"},"vehicle_type_id":"4","last_reported":1750201830,"current_range_meters":24800,"station_id":"ce4bhn12rcd13ifvqgqg","pricing_plan_id":"cebpf4jnsgd1na2vs0mg"},{"bike_id":"c9d5e6bd-ca92-4056-a2e8-57b743063014","system_id":"levelo_inurba_marseille","lat":43.24064,"lon":5.37753,"is_reserved":false,"is_disabled":false,"rental_uris":{"android":"levelo://app?vid=c9d5e6bd-ca92-4056-a2e8-57b743063014","ios":"levelo://app?vid=c9d5e6bd-ca92-4056-a2e8-57b743063014"},"vehicle_type_id":"4","last_reported":1750201830,"current_range_meters":24800,"station_id":"ce4bhnp2rcd13ifvqgvg","pricing_plan_id":"cebpf4jnsgd1na2vs0mg"},{"bike_id":"14f1f95b-4d64-4bd6-8308-475e22b29560","system_id":"levelo_inurba_marseille","lat":43.32332,"lon":5.40624,"is_reserved":false,"is_disabled":false,"rental_uris":{"android":"levelo://app?vid=14f1f95b-4d64-4bd6-8308-475e22b29560","ios":"levelo://app?vid=14f1f95b-4d64-4bd6-8308-475e22b29560"},"vehicle_type_id":"4","last_reported":1750201830,"current_range_meters":24800,"station_id":"ce4bhq92rcd13ifvqhjg","pricing_plan_id":"cebpf4jnsgd1na2vs0mg"},{"bike_id":"04e39078-68d5-400a-9ccd-b80e5b526026","system_id":"levelo_inurba_marseille","lat":43.323672,"lon":5.388782,"is_reserved":false,"is_disabled":false,"rental_uris":{"android":"levelo://app?vid=04e39078-68d5-400a-9ccd-b80e5b526026","ios":"levelo://app?vid=04e39078-68d5-400a-9ccd-b80e5b526026"},"vehicle_type_id":"4","last_reported":1750201830,"current_range_meters":24800,"station_id":"ce4bhqp2rcd13ifvqhog","pricing_plan_id":"cebpf4jnsgd1na2vs0mg"},{"bike_id":"ff8ee255-c828-40c1-8bb9-7939d81d4f79","system_id":"levelo_inurba_marseille","lat":43.2319,"lon":5.35555,"is_reserved":false,"is_disabled":false,"rental_uris":{"android":"levelo://app?vid=ff8ee255-c828-40c1-8bb9-7939d81d4f79","ios":"levelo://app?vid=ff8ee255-c828-40c1-8bb9-7939d81d4f79"},"vehicle_type_id":"4","last_reported":1750201830,"current_range_meters":24800,"station_id":"ce4bhu92rcd13ifvqi70","pricing_plan_id":"cebpf4jnsgd1na2vs0mg"},{"bike_id":"3c81b915-8573-4c12-b4f1-3cdae1f3ac0d","system_id":"levelo_inurba_marseille","lat":43.296122,"lon":5.406045,"is_reserved":false,"is_disabled":false,"rental_uris":{"android":"levelo://app?vid=3c81b915-8573-4c12-b4f1-3cdae1f3ac0d","ios":"levelo://app?vid=3c81b915-8573-4c12-b4f1-3cdae1f3ac0d"},"vehicle_type_id":"4","last_reported":1750201830,"current_range_meters":25200,"station_id":"ce4bh0h2rcd13ifvqd60","pricing_plan_id":"cebpf4jnsgd1na2vs0mg"},{"bike_id":"f1a53cfa-a179-4ceb-b422-e3c4e1732f9c","system_id":"levelo_inurba_marseille","lat":43.29272,"lon":5.40151,"is_reserved":false,"is_disabled":false,"rental_uris":{"android":"levelo://app?vid=f1a53cfa-a179-4ceb-b422-e3c4e1732f9c","ios":"levelo://app?vid=f1a53cfa-a179-4ceb-b422-e3c4e1732f9c"},"vehicle_type_id":"4","last_reported":1750201830,"current_range_meters":25200,"station_id":"ce4bh312rcd13ifvqdk0","pricing_plan_id":"cebpf4jnsgd1na2vs0mg"},{"bike_id":"6ab24aa7-92ee-428c-ab3f-e00a60c5347c","system_id":"levelo_inurba_marseille","lat":43.27931,"lon":5.41034,"is_reserved":false,"is_disabled":false,"rental_uris":{"android":"levelo://app?vid=6ab24aa7-92ee-428c-ab3f-e00a60c5347c","ios":"levelo://app?vid=6ab24aa7-92ee-428c-ab3f-e00a60c5347c"},"vehicle_type_id":"4","last_reported":1750201830,"current_range_meters":25200,"station_id":"ce4bhnp2rcd13ifvqh0g","pricing_plan_id":"cebpf4jnsgd1na2vs0mg"},{"bike_id":"e266192c-6dc2-4351-b1ff-d19b0cacf17e","system_id":"levelo_inurba_marseille","lat":43.31895,"lon":5.40756,"is_reserved":false,"is_disabled":false,"rental_uris":{"android":"levelo://app?vid=e266192c-6dc2-4351-b1ff-d19b0cacf17e","ios":"levelo://app?vid=e266192c-6dc2-4351-b1ff-d19b0cacf17e"},"vehicle_type_id":"4","last_reported":1750201830,"current_range_meters":25200,"station_id":"ce4bhq12rcd13ifvqhig","pricing_plan_id":"cebpf4jnsgd1na2vs0mg"},{"bike_id":"f9c81642-ccc3-452b-95bf-58249429a530","system_id":"levelo_inurba_marseille","lat":43.32319,"lon":5.40618,"is_reserved":false,"is_disabled":false,"rental_uris":{"android":"levelo://app?vid=f9c81642-ccc3-452b-95bf-58249429a530","ios":"levelo://app?vid=f9c81642-ccc3-452b-95bf-58249429a530"},"vehicle_type_id":"4","last_reported":1750201830,"current_range_meters":25200,"station_id":"ce4bhq92rcd13ifvqhjg","pricing_plan_id":"cebpf4jnsgd1na2vs0mg"},{"bike_id":"b6903d57-9c40-4023-baad-4e6e4cda8735","system_id":"levelo_inurba_marseille","lat":43.31182,"lon":5.38721,"is_reserved":false,"is_disabled":false,"rental_uris":{"android":"levelo://app?vid=b6903d57-9c40-4023-baad-4e6e4cda8735","ios":"levelo://app?vid=b6903d57-9c40-4023-baad-4e6e4cda8735"},"vehicle_type_id":"4","last_reported":1750201830,"current_range_meters":25600,"station_id":"ce4bgv12rcd13ifvqcp0","pricing_plan_id":"cebpf4jnsgd1na2vs0mg"},{"bike_id":"23e778f0-3b85-49e0-8525-b639678ee80e","system_id":"levelo_inurba_marseille","lat":43.30785,"lon":5.37648,"is_reserved":false,"is_disabled":false,"rental_uris":{"android":"levelo://app?vid=23e778f0-3b85-49e0-8525-b639678ee80e","ios":"levelo://app?vid=23e778f0-3b85-49e0-8525-b639678ee80e"},"vehicle_type_id":"4","last_reported":1750201830,"current_range_meters":25600,"station_id":"ce4bgv92rcd13ifvqcq0","pricing_plan_id":"cebpf4jnsgd1na2vs0mg"},{"bike_id":"aa386f6a-1f15-4922-8ee5-59b13ddc17b7","system_id":"levelo_inurba_marseille","lat":43.31079,"lon":5.38358,"is_reserved":false,"is_disabled":false,"rental_uris":{"android":"levelo://app?vid=aa386f6a-1f15-4922-8ee5-59b13ddc17b7","ios":"levelo://app?vid=aa386f6a-1f15-4922-8ee5-59b13ddc17b7"},"vehicle_type_id":"4","last_reported":1750201830,"current_range_meters":25600,"station_id":"ce4bgv92rcd13ifvqcr0","pricing_plan_id":"cebpf4jnsgd1na2vs0mg"},{"bike_id":"aabd3c54-24c2-4732-a124-6041e672efd7","system_id":"levelo_inurba_marseille","lat":43.30257,"lon":5.40068,"is_reserved":false,"is_disabled":false,"rental_uris":{"android":"levelo://app?vid=aabd3c54-24c2-4732-a124-6041e672efd7","ios":"levelo://app?vid=aabd3c54-24c2-4732-a124-6041e672efd7"},"vehicle_type_id":"4","last_reported":1750201830,"current_range_meters":25600,"station_id":"ce4bgvh2rcd13ifvqcs0","pricing_plan_id":"cebpf4jnsgd1na2vs0mg"},{"bike_id":"dfefbb2d-be12-4820-9b3c-8310334d138a","system_id":"levelo_inurba_marseille","lat":43.30124,"lon":5.39875,"is_reserved":false,"is_disabled":false,"rental_uris":{"android":"levelo://app?vid=dfefbb2d-be12-4820-9b3c-8310334d138a","ios":"levelo://app?vid=dfefbb2d-be12-4820-9b3c-8310334d138a"},"vehicle_type_id":"4","last_reported":1750201830,"current_range_meters":25600,"station_id":"ce4bh0h2rcd13ifvqd40","pricing_plan_id":"cebpf4jnsgd1na2vs0mg"},{"bike_id":"3444760b-1322-4ed0-969b-40107b21994c","system_id":"levelo_inurba_marseille","lat":43.30196,"lon":5.39468,"is_reserved":false,"is_disabled":false,"rental_uris":{"android":"levelo://app?vid=3444760b-1322-4ed0-969b-40107b21994c","ios":"levelo://app?vid=3444760b-1322-4ed0-969b-40107b21994c"},"vehicle_type_id":"4","last_reported":1750201830,"current_range_meters":25600,"station_id":"ce4bh0p2rcd13ifvqd70","pricing_plan_id":"cebpf4jnsgd1na2vs0mg"},{"bike_id":"f95266b3-a158-4d7a-bf2e-521b7cd25173","system_id":"levelo_inurba_marseille","lat":43.28943,"lon":5.39636,"is_reserved":false,"is_disabled":false,"rental_uris":{"android":"levelo://app?vid=f95266b3-a158-4d7a-bf2e-521b7cd25173","ios":"levelo://app?vid=f95266b3-a158-4d7a-bf2e-521b7cd25173"},