{"last_updated":1728490223,"ttl":60,"version":"2.2","data":{"bikes":[{"bike_id":"b53f77ab-ba1c-4ba1-af64-411b74248eb8","system_id":"levelo_inurba_marseille","lat":43.32289,"lon":5.38273,"is_reserved":false,"is_disabled":false,"rental_uris":{"android":"levelo://app?vid=b53f77ab-ba1c-4ba1-af64-411b74248eb8","ios":"levelo://app?vid=b53f77ab-ba1c-4ba1-af64-411b74248eb8"},"vehicle_type_id":"4","last_reported":1728490223,"current_range_meters":6400,"station_id":"ce4bhr12rcd13ifvqhqg","pricing_plan_id":"cebpf4jnsgd1na2vs0mg"},{"bike_id":"9454602d-c1bb-4f64-880a-9a9c9c532eb8","system_id":"levelo_inurba_marseille","lat":43.30324,"lon":5.40438,"is_reserved":false,"is_disabled":false,"rental_uris":{"android":"levelo://app?vid=9454602d-c1bb-4f64-880a-9a9c9c532eb8","ios":"levelo://app?vid=9454602d-c1bb-4f64-880a-9a9c9c532eb8"},"vehicle_type_id":"4","last_reported":1728490223,"current_range_meters":33200,"station_id":"ce4bh012rcd13ifvqd10","pricing_plan_id":"cebpf4jnsgd1na2vs0mg"},{"bike_id":"2b9de801-4944-4b89-ac1e-d0606188b06a","system_id":"levelo_inurba_marseille","lat":43.32197,"lon":5.39213,"is_reserved":false,"is_disabled":false,"rental_uris":{"android":"levelo://app?vid=2b9de801-4944-4b89-ac1e-d0606188b06a","ios":"levelo://app?vid=2b9de801-4944-4b89-ac1e-d0606188b06a"},"vehicle_type_id":"4","last_reported":1728490223,"current_range_meters":30400,"station_id":"","pricing_plan_id":"cebpf4jnsgd1na2vs0mg"},{"bike_id":"6b8918a4-396b-43e5-9a7f-f056357bf660","system_id":"levelo_inurba_marseille","lat":43.2307,"lon":5.35491,"is_reserved":false,"is_disabled":false,"rental_uris":{"android":"levelo://app?vid=6b8918a4-396b-43e5-9a7f-f056357bf660","ios":"levelo://app?vid=6b8918a4-396b-43e5-9a7f-f056357bf660"},"vehicle_type_id":"4","last_reported":1728490223,"current_range_meters":8000,"station_id":"cpo3342slgdg3j2ifvpg","pricing_plan_id":"cebpf4jnsgd1na2vs0mg"},{"bike_id":"93f8a3af-5e8e-4766-8779-367e5a28a1bb","system_id":"levelo_inurba_marseille","lat":43.32037,"lon":5.41572,"is_reserved":false,"is_disabled":false,"rental_uris":{"android":"levelo://app?vid=93f8a3af-5e8e-4766-8779-367e5a28a1bb","ios":"levelo://app?vid=93f8a3af-5e8e-4766-8779-367e5a28a1bb"},"vehicle_type_id":"4","last_reported":1728490223,"current_range_meters":8400,"station_id":"ce4bh012rcd13ifvqd00","pricing_plan_id":"cebpf4jnsgd1na2vs0mg"},{"bike_id":"44aea010-b352-4381-b04d-167dbafc6fcc","system_id":"levelo_inurba_marseille","lat":43.28104,"lon":5.37835,"is_reserved":false,"is_disabled":false,"rental_uris":{"android":"levelo://app?vid=44aea010-b352-4381-b04d-167dbafc6fcc","ios":"levelo://app?vid=44aea010-b352-4381-b04d-167dbafc6fcc"},"vehicle_type_id":"4","last_reported":1728490223,"current_range_meters":20800,"station_id":"ce4bha12rcd13ifvqee0","pricing_plan_id":"cebpf4jnsgd1na2vs0mg"},{"bike_id":"2cc417f4-12a4-4217-84cc-ba7ad6f1c9b8","system_id":"levelo_inurba_marseille","lat":43.28614,"lon":5.35102,"is_reserved":false,"is_disabled":false,"rental_uris":{"android":"levelo://app?vid=2cc417f4-12a4-4217-84cc-ba7ad6f1c9b8","ios":"levelo://app?vid=2cc417f4-12a4-4217-84cc-ba7ad6f1c9b8"},"vehicle_type_id":"4","last_reported":1728490223,"current_range_meters":24000,"station_id":"ce4bhch2rcd13ifvqeug","pricing_plan_id":"cebpf4jnsgd1na2vs0mg"},{"bike_id":"93b2d7f3-dbcd-4749-a361-8f5d6c6e2daf","system_id":"levelo_inurba_marseille","lat":43.28097,"lon":5.37837,"is_reserved":false,"is_disabled":false,"rental_uris":{"android":"levelo://app?vid=93b2d7f3-dbcd-4749-a361-8f5d6c6e2daf","ios":"levelo://app?vid=93b2d7f3-dbcd-4749-a361-8f5d6c6e2daf"},"vehicle_type_id":"4","last_reported":1728490223,"current_range_meters":6000,"station_id":"ce4bha12rcd13ifvqee0","pricing_plan_id":"cebpf4jnsgd1na2vs0mg"},{"bike_id":"cee7b4fc-b12b-412a-8546-e9c3c52fde0e","system_id":"levelo_inurba_marseille","lat":43.3303,"lon":5.39054,"is_reserved":false,"is_disabled":false,"rental_uris":{"android":"levelo://app?vid=cee7b4fc-b12b-412a-8546-e9c3c52fde0e","ios":"levelo://app?vid=cee7b4fc-b12b-412a-8546-e9c3c52fde0e"},"vehicle_type_id":"4","last_reported":1728490223,"current_range_meters":17200,"station_id":"ce4bhr92rcd13ifvqhrg","pricing_plan_id":"cebpf4jnsgd1na2vs0mg"},{"bike_id":"64c9abdc-a744-4b43-9856-a64e8ee5db15","system_id":"levelo_inurba_marseille","lat":43.23069,"lon":5.35487,"is_reserved":false,"is_disabled":false,"rental_uris":{"android":"levelo://app?vid=64c9abdc-a744-4b43-9856-a64e8ee5db15","ios":"levelo://app?vid=64c9abdc-a744-4b43-9856-a64e8ee5db15"},"vehicle_type_id":"4","last_reported":1728490223,"current_range_meters":37600,"station_id":"cpo3342slgdg3j2ifvpg","pricing_plan_id":"cebpf4jnsgd1na2vs0mg"},{"bike_id":"1124c1bc-62a5-431e-b005-d5df8195da07","system_id":"levelo_inurba_marseille","lat":43.26943,"lon":5.4026,"is_reserved":false,"is_disabled":false,"rental_uris":{"android":"levelo://app?vid=1124c1bc-62a5-431e-b005-d5df8195da07","ios":"levelo://app?vid=1124c1bc-62a5-431e-b005-d5df8195da07"},"vehicle_type_id":"4","last_reported":1728490223,"current_range_meters":36400,"station_id":"cjm6bp8fraef2m0cb0m0","pricing_plan_id":"cebpf4jnsgd1na2vs0mg"},{"bike_id":"39de4790-523e-41ec-bce4-13ef7563ae10","system_id":"levelo_inurba_marseille","lat":43.28102,"lon":5.37835,"is_reserved":false,"is_disabled":false,"rental_uris":{"android":"levelo://app?vid=39de4790-523e-41ec-bce4-13ef7563ae10","ios":"levelo://app?vid=39de4790-523e-41ec-bce4-13ef7563ae10"},"vehicle_type_id":"4","last_reported":1728490223,"current_range_meters":8400,"station_id":"ce4bha12rcd13ifvqee0","pricing_plan_id":"cebpf4jnsgd1na2vs0mg"},{"bike_id":"d5e5ad6e-6acd-44ba-a6e0-ef813ae79617","system_id":"levelo_inurba_marseille","lat":43.31121,"lon":5.37772,"is_reserved":false,"is_disabled":false,"rental_uris":{"android":"levelo://app?vid=d5e5ad6e-6acd-44ba-a6e0-ef813ae79617","ios":"levelo://app?vid=d5e5ad6e-6acd-44ba-a6e0-ef813ae79617"},"vehicle_type_id":"4","last_reported":1728490223,"current_range_meters":38800,"station_id":"ce4bgt92rcd13ifvqcg0","pricing_plan_id":"cebpf4jnsgd1na2vs0mg"},{"bike_id":"1dd91bb3-5a6b-4923-8d68-6dfc5ebaf25f","system_id":"levelo_inurba_marseille","lat":43.27947,"lon":5.41044,"is_reserved":false,"is_disabled":false,"rental_uris":{"android":"levelo://app?vid=1dd91bb3-5a6b-4923-8d68-6dfc5ebaf25f","ios":"levelo://app?vid=1dd91bb3-5a6b-4923-8d68-6dfc5ebaf25f"},"vehicle_type_id":"4","last_reported":1728490223,"current_range_meters":25200,"station_id":"ce4bhnp2rcd13ifvqh0g","pricing_plan_id":"cebpf4jnsgd1na2vs0mg"},{"bike_id":"56ce137e-37b8-4da0-8ddb-243cffb9239c","system_id":"levelo_inurba_marseille","lat":43.3172,"lon":5.42406,"is_reserved":false,"is_disabled":false,"rental_uris":{"android":"levelo://app?vid=56ce137e-37b8-4da0-8ddb-243cffb9239c","ios":"levelo://app?vid=56ce137e-37b8-4da0-8ddb-243cffb9239c"},"vehicle_type_id":"4","last_reported":1728490223,"current_range_meters":38800,"station_id":"ce4bhp92rcd13ifvqhbg","pricing_plan_id":"cebpf4jnsgd1na2vs0mg"},{"bike_id":"2dbcc839-ff5b-4052-940a-3ab70d96dbeb","system_id":"levelo_inurba_marseille","lat":43.28154,"lon":5.42645,"is_reserved":false,"is_disabled":false,"rental_uris":{"android":"levelo://app?vid=2dbcc839-ff5b-4052-940a-3ab70d96dbeb","ios":"levelo://app?vid=2dbcc839-ff5b-4052-940a-3ab70d96dbeb"},"vehicle_type_id":"4","last_reported":1728490223,"current_range_meters":2800,"station_id":"ce4bhnh2rcd13ifvqgug","pricing_plan_id":"cebpf4jnsgd1na2vs0mg"},{"bike_id":"9bf504c0-e1b8-45d9-9983-eba56328648a","system_id":"levelo_inurba_marseille","lat":43.28412,"lon":5.34983,"is_reserved":false,"is_disabled":false,"rental_uris":{"android":"levelo://app?vid=9bf504c0-e1b8-45d9-9983-eba56328648a","ios":"levelo://app?vid=9bf504c0-e1b8-45d9-9983-eba56328648a"},"vehicle_type_id":"4","last_reported":1728490223,"current_range_meters":19600,"station_id":"ce4bhbh2rcd13ifvqepg","pricing_plan_id":"cebpf4jnsgd1na2vs0mg"},{"bike_id":"d2db7c12-985f-4909-9e7d-dadc594a5dfd","system_id":"levelo_inurba_marseille","lat":43.29794,"lon":5.40409,"is_reserved":false,"is_disabled":false,"rental_uris":{"android":"levelo://app?vid=d2db7c12-985f-4909-9e7d-dadc594a5dfd","ios":"levelo://app?vid=d2db7c12-985f-4909-9e7d-dadc594a5dfd"},"vehicle_type_id":"4","last_reported":1728490223,"current_range_meters":23200,"station_id":"ce4bh112rcd13ifvqd90","pricing_plan_id":"cebpf4jnsgd1na2vs0mg"},{"bike_id":"a727e5bb-5b44-49c0-a318-60a4c93599f3","system_id":"levelo_inurba_marseille","lat":43.29526,"lon":5.39053,"is_reserved":false,"is_disabled":false,"rental_uris":{"android":"levelo://app?vid=a727e5bb-5b44-49c0-a318-60a4c93599f3","ios":"levelo://app?vid=a727e5bb-5b44-49c0-a318-60a4c93599f3"},"vehicle_type_id":"4","last_reported":1728490223,"current_range_meters":4000,"station_id":"ce4bh3p2rcd13ifvqdp0","pricing_plan_id":"cebpf4jnsgd1na2vs0mg"},{"bike_id":"59a20882-e884-470e-b111-32ed424e7cc3","system_id":"levelo_inurba_marseille","lat":43.33725,"lon":5.39191,"is_reserved":false,"is_disabled":false,"rental_uris":{"android":"levelo://app?vid=59a20882-e884-470e-b111-32ed424e7cc3","ios":"levelo://app?vid=59a20882-e884-470e-b111-32ed424e7cc3"},"vehicle_type_id":"4","last_reported":1728490223,"current_range_meters":30400,"station_id":"ce4bhr92rcd13ifvqhsg","pricing_plan_id":"cebpf4jnsgd1na2vs0mg"},{"bike_id":"ea000187-06f9-4fb2-b9a9-232e7056b110","system_id":"levelo_inurba_marseille","lat":43.29899,"lon":5.43669,"is_reserved":false,"is_disabled":false,"rental_uris":{"android":"levelo://app?vid=ea000187-06f9-4fb2-b9a9-232e7056b110","ios":"levelo://app?vid=ea000187-06f9-4fb2-b9a9-232e7056b110"},"vehicle_type_id":"4","last_reported":1728490223,"current_range_meters":17200,"station_id":"ce4bhpp2rcd13ifvqhfg","pricing_plan_id":"cebpf4jnsgd1na2vs0mg"},{"bike_id":"26782285-b50d-42d1-93b9-2455fec2664c","system_id":"levelo_inurba_marseille","lat":43.29302,"lon":5.3746,"is_reserved":false,"is_disabled":false,"rental_uris":{"android":"levelo://app?vid=26782285-b50d-42d1-93b9-2455fec2664c","ios":"levelo://app?vid=26782285-b50d-42d1-93b9-2455fec2664c"},"vehicle_type_id":"4","last_reported":1728490223,"current_range_meters":6800,"station_id":"ce4bgi12rcd13ifvqb70","pricing_plan_id":"cebpf4jnsgd1na2vs0mg"},{"bike_id":"72078f29-e154-4c5b-836a-c7e362ba1f09","system_id":"levelo_inurba_marseille","lat":43.33757,"lon":5.37469,"is_reserved":false,"is_disabled":false,"rental_uris":{"android":"levelo://app?vid=72078f29-e154-4c5b-836a-c7e362ba1f09","ios":"levelo://app?vid=72078f29-e154-4c5b-836a-c7e362ba1f09"},"vehicle_type_id":"4","last_reported":1728490223,"current_range_meters":10800,"station_id":"ce4rr2p2rcd13i802rgg","pricing_plan_id":"cebpf4jnsgd1na2vs0mg"},{"bike_id":"7d7ab187-9965-49a4-bf26-b6ade39671fc","system_id":"levelo_inurba_marseille","lat":43.23195,"lon":5.3555,"is_reserved":false,"is_disabled":false,"rental_uris":{"android":"levelo://app?vid=7d7ab187-9965-49a4-bf26-b6ade39671fc","ios":"levelo://app?vid=7d7ab187-9965-49a4-bf26-b6ade39671fc"},"vehicle_type_id":"4","last_reported":1728490223,"current_range_meters":24400,"station_id":"ce4bhu92rcd13ifvqi70","pricing_plan_id":"cebpf4jnsgd1na2vs0mg"},{"bike_id":"d51f0193-0dff-4957-8877-479daabe2300","system_id":"levelo_inurba_marseille","lat":43.337444,"lon":5.374475,"is_reserved":false,"is_disabled":false,"rental_uris":{"android":"levelo://app?vid=d51f0193-0dff-4957-8877-479daabe2300","ios":"levelo://app?vid=d51f0193-0dff-4957-8877-479daabe2300"},"vehicle_type_id":"4","last_reported":1728490223,"current_range_meters":37600,"station_id":"ce4rr2p2rcd13i802rgg","pricing_plan_id":"cebpf4jnsgd1na2vs0mg"},{"bike_id":"dc80b0e4-e686-4875-9991-4f06e3429d36","system_id":"levelo_inurba_marseille","lat":43.31762,"lon":5.39023,"is_reserved":false,"is_disabled":false,"rental_uris":{"android":"levelo://app?vid=dc80b0e4-e686-4875-9991-4f06e3429d36","ios":"levelo://app?vid=dc80b0e4-e686-4875-9991-4f06e3429d36"},"vehicle_type_id":"4","last_reported":1728490223,"current_range_meters":13600,"station_id":"ce4bhqp2rcd13ifvqhng","pricing_plan_id":"cebpf4jnsgd1na2vs0mg"},{"bike_id":"5c58501d-ea8b-49a7-8278-b491f1453d2b","system_id":"levelo_inurba_marseille","lat":43.299656,"lon":5.384947,"is_reserved":false,"is_disabled":false,"rental_uris":{"android":"levelo://app?vid=5c58501d-ea8b-49a7-8278-b491f1453d2b","ios":"levelo://app?vid=5c58501d-ea8b-49a7-8278-b491f1453d2b"},"vehicle_type_id":"4","last_reported":1728490223,"current_range_meters":28400,"station_id":"ce4bgj92rcd13ifvqbd0","pricing_plan_id":"cebpf4jnsgd1na2vs0mg"},{"bike_id":"1a9a3cc6-2502-4c80-8b31-7bb36d7cba31","system_id":"levelo_inurba_marseille","lat":43.22935,"lon":5.35376,"is_reserved":false,"is_disabled":false,"rental_uris":{"android":"levelo://app?vid=1a9a3cc6-2502-4c80-8b31-7bb36d7cba31","ios":"levelo://app?vid=1a9a3cc6-2502-4c80-8b31-7bb36d7cba31"},"vehicle_type_id":"4","last_reported":1728490223,"current_range_meters":38800,"station_id":"cpo3532slgdg3j2ikp40","pricing_plan_id":"cebpf4jnsgd1na2vs0mg"},{"bike_id":"74e9ce9d-9e9f-4c6b-92fb-2f9a88c1f0f4","system_id":"levelo_inurba_marseille","lat":43.24171,"lon":5.364,"is_reserved":false,"is_disabled":false,"rental_uris":{"android":"levelo://app?vid=74e9ce9d-9e9f-4c6b-92fb-2f9a88c1f0f4","ios":"levelo://app?vid=74e9ce9d-9e9f-4c6b-92fb-2f9a88c1f0f4"},"vehicle_type_id":"4","last_reported":1728490223,"current_range_meters":36800,"station_id":"cpo36qri1sfpv3e86is0","pricing_plan_id":"cebpf4jnsgd1na2vs0mg"},{"bike_id":"38feb1ca-dc80-43db-b9d2-897d66a1ecdd","system_id":"levelo_inurba_marseille","lat":43.29911,"lon":5.38143,"is_reserved":false,"is_disabled":false,"rental_uris":{"android":"levelo://app?vid=38feb1ca-dc80-43db-b9d2-897d66a1ecdd","ios":"levelo://app?vid=38feb1ca-dc80-43db-b9d2-897d66a1ecdd"},"vehicle_type_id":"4","last_reported":1728490223,"current_range_meters":21600,"station_id":"ce4bgj12rcd13ifvqbc0","pricing_plan_id":"cebpf4jnsgd1na2vs0mg"},{"bike_id":"79ce9783-7870-448e-9473-508acd5c62e3","system_id":"levelo_inurba_marseille","lat":43.27969,"lon":5.38745,"is_reserved":false,"is_disabled":false,"rental_uris":{"android":"levelo://app?vid=79ce9783-7870-448e-9473-508acd5c62e3","ios":"levelo://app?vid=79ce9783-7870-448e-9473-508acd5c62e3"},"vehicle_type_id":"4","last_reported":1728490223,"current_range_meters":4400,"station_id":"ce4bhg12rcd13ifvqf80","pricing_plan_id":"cebpf4jnsgd1na2vs0mg"},{"bike_id":"d95b3fff-9263-4171-b0ec-44c672fdc360","system_id":"levelo_inurba_marseille","lat":43.24391,"lon":5.37063,"is_reserved":false,"is_disabled":false,"rental_uris":{"android":"levelo://app?vid=d95b3fff-9263-4171-b0ec-44c672fdc360","ios":"levelo://app?vid=d95b3fff-9263-4171-b0ec-44c672fdc360"},"vehicle_type_id":"4","last_reported":1728490223,"current_range_meters":20800,"station_id":"ce4bhhh2rcd13ifvqfk0","pricing_plan_id":"cebpf4jnsgd1na2vs0mg"},{"bike_id":"5a122ae2-ec0a-494e-8a10-d927ab28aed4","system_id":"levelo_inurba_marseille","lat":43.27175,"lon":5.40999,"is_reserved":false,"is_disabled":false,"rental_uris":{"android":"levelo://app?vid=5a122ae2-ec0a-494e-8a10-d927ab28aed4","ios":"levelo://app?vid=5a122ae2-ec0a-494e-8a10-d927ab28aed4"},"vehicle_type_id":"4","last_reported":1728490223,"current_range_meters":4400,"station_id":"ce4bhl12rcd13ifvqgf0","pricing_plan_id":"cebpf4jnsgd1na2vs0mg"},{"bike_id":"8e801870-ae83-48fd-9cfb-5f562702ff3a","system_id":"levelo_inurba_marseille","lat":43.32542,"lon":5.41438,"is_reserved":false,"is_disabled":false,"rental_uris":{"android":"levelo://app?vid=8e801870-ae83-48fd-9cfb-5f562702ff3a","ios":"levelo://app?vid=8e801870-ae83-48fd-9cfb-5f562702ff3a"},"vehicle_type_id":"4","last_reported":1728490223,"current_range_meters":38800,"station_id":"ce4bhq12rcd13ifvqhhg","pricing_plan_id":"cebpf4jnsgd1na2vs0mg"},{"bike_id":"51d51618-ab05-4d9d-bb6f-aca322f37318","system_id":"levelo_inurba_marseille","lat":43.28971,"lon":5.37843,"is_reserved":false,"is_disabled":false,"rental_uris":{"android":"levelo://app?vid=51d51618-ab05-4d9d-bb6f-aca322f37318","ios":"levelo://app?vid=51d51618-ab05-4d9d-bb6f-aca322f37318"},"vehicle_type_id":"4","last_reported":1728490223,"current_range_meters":31200,"station_id":"ce4bh9p2rcd13ifvqed0","pricing_plan_id":"cebpf4jnsgd1na2vs0mg"},{"bike_id":"67f5c9ce-d342-43bc-a463-b94ab74a1fe0","system_id":"levelo_inurba_marseille","lat":43.33019,"lon":5.39039,"is_reserved":false,"is_disabled":false,"rental_uris":{"android":"levelo://app?vid=67f5c9ce-d342-43bc-a463-b94ab74a1fe0","ios":"levelo://app?vid=67f5c9ce-d342-43bc-a463-b94ab74a1fe0"},"vehicle_type_id":"4","last_reported":1728490223,"current_range_meters":16400,"station_id":"ce4bhr92rcd13ifvqhrg","pricing_plan_id":"cebpf4jnsgd1na2vs0mg"},{"bike_id":"8513be67-a978-4cfc-9563-19285ed6fe5a","system_id":"levelo_inurba_marseille","lat":43.23196,"lon":5.35544,"is_reserved":false,"is_disabled":false,"rental_uris":{"android":"levelo://app?vid=8513be67-a978-4cfc-9563-19285ed6fe5a","ios":"levelo://app?vid=8513be67-a978-4cfc-9563-19285ed6fe5a"},"vehicle_type_id":"4","last_reported":1728490223,"current_range_meters":11200,"station_id":"ce4bhu92rcd13ifvqi70","pricing_plan_id":"cebpf4jnsgd1na2vs0mg"},{"bike_id":"1197f692-639d-4fb0-ae7f-c285068db770","system_id":"levelo_inurba_marseille","lat":43.25094,"lon":5.395242,"is_reserved":false,"is_disabled":false,"rental_uris":{"android":"levelo://app?vid=1197f692-639d-4fb0-ae7f-c285068db770","ios":"levelo://app?vid=1197f692-639d-4fb0-ae7f-c285068db770"},"vehicle_type_id":"4","last_reported":1728490223,"current_range_meters":27600,"station_id":"ce4bhm12rcd13ifvqgkg","pricing_plan_id":"cebpf4jnsgd1na2vs0mg"},{"bike_id":"922252e8-02c2-4987-8eed-1d6d69073568","system_id":"levelo_inurba_marseille","lat":43.26689,"lon":5.38276,"is_reserved":false,"is_disabled":false,"rental_uris":{"android":"levelo://app?vid=922252e8-02c2-4987-8eed-1d6d69073568","ios":"levelo://app?vid=922252e8-02c2-4987-8eed-1d6d69073568"},"vehicle_type_id":"4","last_reported":1728490223,"current_range_meters":31200,"station_id":"ce4bhg92rcd13ifvqf90","pricing_plan_id":"cebpf4jnsgd1na2vs0mg"},{"bike_id":"c283bee0-b392-40e1-b183-58fab03c3b3d","system_id":"levelo_inurba_marseille","lat":43.28424,"lon":5.34995,"is_reserved":false,"is_disabled":false,"rental_uris":{"android":"levelo://app?vid=c283bee0-b392-40e1-b183-58fab03c3b3d","ios":"levelo://app?vid=c283bee0-b392-40e1-b183-58fab03c3b3d"},"vehicle_type_id":"4","last_reported":1728490223,"current_range_meters":19600,"station_id":"ce4bhbh2rcd13ifvqepg","pricing_plan_id":"cebpf4jnsgd1na2vs0mg"},{"bike_id":"1d22f46b-4a78-46a7-a76a-655fc5276f3d","system_id":"levelo_inurba_marseille","lat":43.304303,"lon":5.388957,"is_reserved":false,"is_disabled":false,"rental_uris":{"android":"levelo://app?vid=1d22f46b-4a78-46a7-a76a-655fc5276f3d","ios":"levelo://app?vid=1d22f46b-4a78-46a7-a76a-655fc5276f3d"},"vehicle_type_id":"4","last_reported":1728490223,"current_range_meters":20400,"station_id":"ce4bgk12rcd13ifvqbi0","pricing_plan_id":"cebpf4jnsgd1na2vs0mg"},{"bike_id":"321ff2c6-cc16-4857-84cd-6f10af9a2a6d","system_id":"levelo_inurba_marseille","lat":43.31759,"lon":5.39022,"is_reserved":false,"is_disabled":false,"rental_uris":{"android":"levelo://app?vid=321ff2c6-cc16-4857-84cd-6f10af9a2a6d","ios":"levelo://app?vid=321ff2c6-cc16-4857-84cd-6f10af9a2a6d"},"vehicle_type_id":"4","last_reported":1728490223,"current_range_meters":30800,"station_id":"ce4bhqp2rcd13ifvqhng","pricing_plan_id":"cebpf4jnsgd1na2vs0mg"},{"bike_id":"abdeb7b7-9443-4a2e-90f2-c4f781442d2e","system_id":"levelo_inurba_marseille","lat":43.29904,"lon":5.4367,"is_reserved":false,"is_disabled":false,"rental_uris":{"android":"levelo://app?vid=abdeb7b7-9443-4a2e-90f2-c4f781442d2e","ios":"levelo://app?vid=abdeb7b7-9443-4a2e-90f2-c4f781442d2e"},"vehicle_type_id":"4","last_reported":1728490223,"current_range_meters":14800,"station_id":"ce4bhpp2rcd13ifvqhfg","pricing_plan_id":"cebpf4jnsgd1na2vs0mg"},{"bike_id":"d38dd870-fb35-4ebe-8242-7b8d175eed8b","system_id":"levelo_inurba_marseille","lat":43.32266,"lon":5.40664,"is_reserved":false,"is_disabled":false,"rental_uris":{"android":"levelo://app?vid=d38dd870-fb35-4ebe-8242-7b8d175eed8b","ios":"levelo://app?vid=d38dd870-fb35-4ebe-8242-7b8d175eed8b"},"vehicle_type_id":"4","last_reported":1728490223,"current_range_meters":10800,"station_id":"","pricing_plan_id":"cebpf4jnsgd1na2vs0mg"},{"bike_id":"a9bf4170-e770-4566-9e2f-312be169973d","system_id":"levelo_inurba_marseille","lat":43.31073,"lon":5.38351,"is_reserved":false,"is_disabled":false,"rental_uris":{"android":"levelo://app?vid=a9bf4170-e770-4566-9e2f-312be169973d","ios":"levelo://app?vid=a9bf4170-e770-4566-9e2f-312be169973d"},"vehicle_type_id":"4","last_reported":1728490223,"current_range_meters":38800,"station_id":"ce4bgv92rcd13ifvqcr0","pricing_plan_id":"cebpf4jnsgd1na2vs0mg"},{"bike_id":"2dc0fa3b-dffe-4ce3-a944-566402279641","system_id":"levelo_inurba_marseille","lat":43.23963,"lon":5.36631,"is_reserved":false,"is_disabled":false,"rental_uris":{"android":"levelo://app?vid=2dc0fa3b-dffe-4ce3-a944-566402279641","ios":"levelo://app?vid=2dc0fa3b-dffe-4ce3-a944-566402279641"},"vehicle_type_id":"4","last_reported":1728490223,"current_range_meters":3200,"station_id":"ce4bhi12rcd13ifvqfp0","pricing_plan_id":"cebpf4jnsgd1na2vs0mg"},{"bike_id":"2df730a7-89e5-413d-9bed-72b64744a6f2","system_id":"levelo_inurba_marseille","lat":43.22931,"lon":5.35378,"is_reserved":false,"is_disabled":false,"rental_uris":{"android":"levelo://app?vid=2df730a7-89e5-413d-9bed-72b64744a6f2","ios":"levelo://app?vid=2df730a7-89e5-413d-9bed-72b64744a6f2"},"vehicle_type_id":"4","last_reported":1728490223,"current_range_meters":38800,"station_id":"cpo3532slgdg3j2ikp40","pricing_plan_id":"cebpf4jnsgd1na2vs0mg"},{"bike_id":"1fea755f-c6ef-4036-9bc9-ded684e24ac9","system_id":"levelo_inurba_marseille","lat":43.304303,"lon":5.388957,"is_reserved":false,"is_disabled":false,"rental_uris":{"android":"levelo://app?vid=1fea755f-c6ef-4036-9bc9-ded684e24ac9","ios":"levelo://app?vid=1fea755f-c6ef-4036-9bc9-ded684e24ac9"},"vehicle_type_id":"4","last_reported":1728490223,"current_range_meters":10000,"station_id":"ce4bgk12rcd13ifvqbi0","pricing_plan_id":"cebpf4jnsgd1na2vs0mg"},{"bike_id":"74dea6e5-f1b2-476b-95da-8353d0ac07f5","system_id":"levelo_inurba_marseille","lat":43.2293,"lon":5.35374,"is_reserved":false,"is_disabled":false,"rental_uris":{"android":"levelo://app?vid=74dea6e5-f1b2-476b-95da-8353d0ac07f5","ios":"levelo://app?vid=74dea6e5-f1b2-476b-95da-8353d0ac07f5"},"vehicle_type_id":"4","last_reported":1728490223,"current_range_meters":38800,"station_id":"cpo3532slgdg3j2ikp40","pricing_plan_id":"cebpf4jnsgd1na2vs0mg"},{"bike_id":"8a9cb167-110d-4188-836e-3425b1531892","system_id":"levelo_inurba_marseille","lat":43.29027,"lon":5.38645,"is_reserved":false,"is_disabled":false,"rental_uris":{"android":"levelo://app?vid=8a9cb167-110d-4188-836e-3425b1531892","ios":"levelo://app?vid=8a9cb167-110d-4188-836e-3425b1531892"},"vehicle_type_id":"4","last_reported":1728490223,"current_range_meters":9200,"station_id":"ce4bh4p2rcd13ifvqe0g","pricing_plan_id":"cebpf4jnsgd1na2vs0mg"},{"bike_id":"be2acaab-76c6-4c71-8dd3-3f0f00b78585","system_id":"levelo_inurba_marseille","lat":43.31535,"lon":5.38037,"is_reserved":false,"is_disabled":false,"rental_uris":{"android":"levelo://app?vid=be2acaab-76c6-4c71-8dd3-3f0f00b78585","ios":"levelo://app?vid=be2acaab-76c6-4c71-8dd3-3f0f00b78585"},"vehicle_type_id":"4","last_reported":1728490223,"current_range_meters":28000,"station_id":"ce4bhsp2rcd13ifvqi50","pricing_plan_id":"cebpf4jnsgd1na2vs0mg"},{"bike_id":"62930a7f-74ee-49d2-82a3-62a466b84fb0","system_id":"levelo_inurba_marseille","lat":43.32324,"lon":5.38164,"is_reserved":false,"is_disabled":false,"rental_uris":{"android":"levelo://app?vid=62930a7f-74ee-49d2-82a3-62a466b84fb0","ios":"levelo://app?vid=62930a7f-74ee-49d2-82a3-62a466b84fb0"},"vehicle_type_id":"4","last_reported":1728490223,"current_range_meters":8400,"station_id":"","pricing_plan_id":"cebpf4jnsgd1na2vs0mg"},{"bike_id":"ce791a5a-11cb-416a-919d-4fe6336a2b9e","system_id":"levelo_inurba_marseille","lat":43.31533,"lon":5.38023,"is_reserved":false,"is_disabled":false,"rental_uris":{"android":"levelo://app?vid=ce791a5a-11cb-416a-919d-4fe6336a2b9e","ios":"levelo://app?vid=ce791a5a-11cb-416a-919d-4fe6336a2b9e"},"vehicle_type_id":"4","last_reported":1728490223,"current_range_meters":19600,"station_id":"ce4bhsp2rcd13ifvqi50","pricing_plan_id":"cebpf4jnsgd1na2vs0mg"},{"bike_id":"8ca7d32d-f6bf-4e80-9dcb-54fbcbcf13c9","system_id":"levelo_inurba_marseille","lat":43.29436,"lon":5.39743,"is_reserved":false,"is_disabled":false,"rental_uris":{"android":"levelo://app?vid=8ca7d32d-f6bf-4e80-9dcb-54fbcbcf13c9","ios":"levelo://app?vid=8ca7d32d-f6bf-4e80-9dcb-54fbcbcf13c9"},"vehicle_type_id":"4","last_reported":1728490223,"current_range_meters":6800,"station_id":"ce4bh3h2rcd13ifvqdo0","pricing_plan_id":"cebpf4jnsgd1na2vs0mg"},{"bike_id":"844bf982-298f-4afe-9de0-e0fb6a8647d7","system_id":"levelo_inurba_marseille","lat":43.293078,"lon":5.371698,"is_reserved":false,"is_disabled":false,"rental_uris":{"android":"levelo://app?vid=844bf982-298f-4afe-9de0-e0fb6a8647d7","ios":"levelo://app?vid=844bf982-298f-4afe-9de0-e0fb6a8647d7"},"vehicle_type_id":"4","last_reported":1728490223,"current_range_meters":38800,"station_id":"ce4bgh92rcd13ifvqb40","pricing_plan_id":"cebpf4jnsgd1na2vs0mg"},{"bike_id":"92829d56-476d-497b-899c-e7707f91dfd1","system_id":"levelo_inurba_marseille","lat":43.26027,"lon":5.37572,"is_reserved":false,"is_disabled":false,"rental_uris":{"android":"levelo://app?vid=92829d56-476d-497b-899c-e7707f91dfd1","ios":"levelo://app?vid=92829d56-476d-497b-899c-e7707f91dfd1"},"vehicle_type_id":"4","last_reported":1728490223,"current_range_meters":9600,"station_id":"ce4bhgh2rcd13ifvqfa0","pricing_plan_id":"cebpf4jnsgd1na2vs0mg"},{"bike_id":"f75f3d2c-23ba-4649-8338-41e6b0cf1a3e","system_id":"levelo_inurba_marseille","lat":43.3025,"lon":5.40062,"is_reserved":false,"is_disabled":false,"rental_uris":{"android":"levelo://app?vid=f75f3d2c-23ba-4649-8338-41e6b0cf1a3e","ios":"levelo://app?vid=f75f3d2c-23ba-4649-8338-41e6b0cf1a3e"},"vehicle_type_id":"4","last_reported":1728490223,"current_range_meters":6400,"station_id":"ce4bgvh2rcd13ifvqcs0","pricing_plan_id":"cebpf4jnsgd1na2vs0mg"},{"bike_id":"f0e3fb5e-32fe-460b-a50c-b07e4eb83122","system_id":"levelo_inurba_marseille","lat":43.32365,"lon":5.38887,"is_reserved":false,"is_disabled":false,"rental_uris":{"android":"levelo://app?vid=f0e3fb5e-32fe-460b-a50c-b07e4eb83122","ios":"levelo://app?vid=f0e3fb5e-32fe-460b-a50c-b07e4eb83122"},"vehicle_type_id":"4","last_reported":1728490223,"current_range_meters":28000,"station_id":"ce4bhqp2rcd13ifvqhog","pricing_plan_id":"cebpf4jnsgd1na2vs0mg"},{"bike_id":"6217f0d4-29aa-4911-a3f9-c02e45328700","system_id":"levelo_inurba_marseille","lat":43.23193,"lon":5.35551,"is_reserved":false,"is_disabled":false,"rental_uris":{"android":"levelo://app?vid=6217f0d4-29aa-4911-a3f9-c02e45328700","ios":"levelo://app?vid=6217f0d4-29aa-4911-a3f9-c02e45328700"},"vehicle_type_id":"4","last_reported":1728490223,"current_range_meters":32000,"station_id":"ce4bhu92rcd13ifvqi70","pricing_plan_id":"cebpf4jnsgd1na2vs0mg"},{"bike_id":"42cc4c27-0b3d-47c8-85ff-25a846328717","system_id":"levelo_inurba_marseille","lat":43.27754,"lon":5.38365,"is_reserved":false,"is_disabled":false,"rental_uris":{"android":"levelo://app?vid=42cc4c27-0b3d-47c8-85ff-25a846328717","ios":"levelo://app?vid=42cc4c27-0b3d-47c8-85ff-25a846328717"},"vehicle_type_id":"4","last_reported":1728490223,"current_range_meters":3200,"station_id":"ce4bhh92rcd13ifvqfi0","pricing_plan_id":"cebpf4jnsgd1na2vs0mg"},{"bike_id":"bee145ee-fc59-4185-a037-bd0349d05714","system_id":"levelo_inurba_marseille","lat":43.31761,"lon":5.39024,"is_reserved":false,"is_disabled":false,"rental_uris":{"android":"levelo://app?vid=bee145ee-fc59-4185-a037-bd0349d05714","ios":"levelo://app?vid=bee145ee-fc59-4185-a037-bd0349d05714"},"vehicle_type_id":"4","last_reported":1728490223,"current_range_meters":16400,"station_id":"ce4bhqp2rcd13ifvqhng","pricing_plan_id":"cebpf4jnsgd1na2vs0mg"},{"bike_id":"1a4593ee-3c01-4b63-8dc9-fb38eed4f371","system_id":"levelo_inurba_marseille","lat":43.27197,"lon":5.39186,"is_reserved":false,"is_disabled":false,"rental_uris":{"android":"levelo://app?vid=1a4593ee-3c01-4b63-8dc9-fb38eed4f371","ios":"levelo://app?vid=1a4593ee-3c01-4b63-8dc9-fb38eed4f371"},"vehicle_type_id":"4","last_reported":1728490223,"current_range_meters":38400,"station_id":"ce4bhhp2rcd13ifvqfm0","pricing_plan_id":"cebpf4jnsgd1na2vs0mg"},{"bike_id":"d8d9e195-0b53-46b7-a4e3-f2b2c532f4ae","system_id":"levelo_inurba_marseille","lat":43.23197,"lon":5.35549,"is_reserved":false,"is_disabled":false,"rental_uris":{"android":"levelo://app?vid=d8d9e195-0b53-46b7-a4e3-f2b2c532f4ae","ios":"levelo://app?vid=d8d9e195-0b53-46b7-a4e3-f2b2c532f4ae"},"vehicle_type_id":"4","last_reported":1728490223,"current_range_meters":38800,"station_id":"ce4bhu92rcd13ifvqi70","pricing_plan_id":"cebpf4jnsgd1na2vs0mg"},{"bike_id":"a2fada74-849d-4d39-b42e-102888fe2e15","system_id":"levelo_inurba_marseille","lat":43.299262,"lon":5.374721,"is_reserved":false,"is_disabled":false,"rental_uris":{"android":"levelo://app?vid=a2fada74-849d-4d39-b42e-102888fe2e15","ios":"levelo://app?vid=a2fada74-849d-4d39-b42e-102888fe2e15"},"vehicle_type_id":"4","last_reported":1728490223,"current_range_meters":4000,"station_id":"ce4bgjh2rcd13ifvqbg0","pricing_plan_id":"cebpf4jnsgd1na2vs0mg"},{"bike_id":"2b6677d5-7b62-4a07-b6c3-7bf77f5bcd5c","system_id":"levelo_inurba_marseille","lat":43.28447,"lon":5.39186,"is_reserved":false,"is_disabled":false,"rental_uris":{"android":"levelo://app?vid=2b6677d5-7b62-4a07-b6c3-7bf77f5bcd5c","ios":"levelo://app?vid=2b6677d5-7b62-4a07-b6c3-7bf77f5bcd5c"},"vehicle_type_id":"4","last_reported":1728490223,"current_range_meters":36800,"station_id":"ce4bhoh2rcd13ifvqh5g","pricing_plan_id":"cebpf4jnsgd1na2vs0mg"},{"bike_id":"aa6725ad-efdf-4d91-aae7-0bb4b0f54056","system_id":"levelo_inurba_marseille","lat":43.30423,"lon":5.3975,"is_reserved":false,"is_disabled":false,"rental_uris":{"android":"levelo://app?vid=aa6725ad-efdf-4d91-aae7-0bb4b0f54056","ios":"levelo://app?vid=aa6725ad-efdf-4d91-aae7-0bb4b0f54056"},"vehicle_type_id":"4","last_reported":1728490223,"current_range_meters":1200,"station_id":"ce4bh092rcd13ifvqd20","pricing_plan_id":"cebpf4jnsgd1na2vs0mg"},{"bike_id":"60520452-0fad-4d30-80fa-87555028c9a7","system_id":"levelo_inurba_marseille","lat":43.30881,"lon":5.39638,"is_reserved":false,"is_disabled":false,"rental_uris":{"android":"levelo://app?vid=60520452-0fad-4d30-80fa-87555028c9a7","ios":"levelo://app?vid=60520452-0fad-4d30-80fa-87555028c9a7"},"vehicle_type_id":"4","last_reported":1728490223,"current_range_meters":37600,"station_id":"ce4bh012rcd13ifvqcv0","pricing_plan_id":"cebpf4jnsgd1na2vs0mg"},{"bike_id":"d80bfdf3-f9a5-4093-8b7b-d5ae47861bec","system_id":"levelo_inurba_marseille","lat":43.30798,"lon":5.43525,"is_reserved":false,"is_disabled":false,"rental_uris":{"android":"levelo://app?vid=d80bfdf3-f9a5-4093-8b7b-d5ae47861bec","ios":"levelo://app?vid=d80bfdf3-f9a5-4093-8b7b-d5ae47861bec"},"vehicle_type_id":"4","last_reported":1728490223,"current_range_meters":16400,"station_id":"ce4bhph2rcd13ifvqheg","pricing_plan_id":"cebpf4jnsgd1na2vs0mg"},{"bike_id":"ba9486a9-6cfc-4906-b17e-a1284a1ccb55","system_id":"levelo_inurba_marseille","lat":43.29222,"lon":5.36066,"is_reserved":false,"is_disabled":false,"rental_uris":{"android":"levelo://app?vid=ba9486a9-6cfc-4906-b17e-a1284a1ccb55","ios":"levelo://app?vid=ba9486a9-6cfc-4906-b17e-a1284a1ccb55"},"vehicle_type_id":"4","last_reported":1728490223,"current_range_meters":27600,"station_id":"ce4bhbh2rcd13ifvqeqg","pricing_plan_id":"cebpf4jnsgd1na2vs0mg"},{"bike_id":"4e44719a-e235-48b9-899f-4b90fdca8f6d","system_id":"levelo_inurba_marseille","lat":43.29518,"lon":5.39404,"is_reserved":false,"is_disabled":false,"rental_uris":{"android":"levelo://app?vid=4e44719a-e235-48b9-899f-4b90fdca8f6d","ios":"levelo://app?vid=4e44719a-e235-48b9-899f-4b90fdca8f6d"},"vehicle_type_id":"4","last_reported":1728490223,"current_range_meters":1600,"station_id":"ce4bh292rcd13ifvqdf0","pricing_plan_id":"cebpf4jnsgd1na2vs0mg"},{"bike_id":"b355795c-ee65-4dfa-a2d1-b9ece71290cc","system_id":"levelo_inurba_marseille","lat":43.29849,"lon":5.36287,"is_reserved":false,"is_disabled":false,"rental_uris":{"android":"levelo://app?vid=b355795c-ee65-4dfa-a2d1-b9ece71290cc","ios":"levelo://app?vid=b355795c-ee65-4dfa-a2d1-b9ece71290cc"},"vehicle_type_id":"4","last_reported":1728490223,"current_range_meters":38800,"station_id":"ce4bgpp2rcd13ifvqc3g","pricing_plan_id":"cebpf4jnsgd1na2vs0mg"},{"bike_id":"f5d71431-a991-4d7c-8da6-f7be557e429e","system_id":"levelo_inurba_marseille","lat":43.25818,"lon":5.39441,"is_reserved":false,"is_disabled":false,"rental_uris":{"android":"levelo://app?vid=f5d71431-a991-4d7c-8da6-f7be557e429e","ios":"levelo://app?vid=f5d71431-a991-4d7c-8da6-f7be557e429e"},"vehicle_type_id":"4","last_reported":1728490223,"current_range_meters":8800,"station_id":"ce4bhip2rcd13ifvqft0","pricing_plan_id":"cebpf4jnsgd1na2vs0mg"},{"bike_id":"3cfc4409-26a5-4448-b348-e816f2448f79","system_id":"levelo_inurba_marseille","lat":43.30787,"lon":5.37652,"is_reserved":false,"is_disabled":false,"rental_uris":{"android":"levelo://app?vid=3cfc4409-26a5-4448-b348-e816f2448f79","ios":"levelo://app?vid=3cfc4409-26a5-4448-b348-e816f2448f79"},"vehicle_type_id":"4","last_reported":1728490223,"current_range_meters":37600,"station_id":"ce4bgv92rcd13ifvqcq0","pricing_plan_id":"cebpf4jnsgd1na2vs0mg"},{"bike_id":"7d521be9-a8a8-4782-a3ab-0238dda491f2","system_id":"levelo_inurba_marseille","lat":43.29895,"lon":5.43669,"is_reserved":false,"is_disabled":false,"rental_uris":{"android":"levelo://app?vid=7d521be9-a8a8-4782-a3ab-0238dda491f2","ios":"levelo://app?vid=7d521be9-a8a8-4782-a3ab-0238dda491f2"},"vehicle_type_id":"4","last_reported":1728490223,"current_range_meters":10000,"station_id":"ce4bhpp2rcd13ifvqhfg","pricing_plan_id":"cebpf4jnsgd1na2vs0mg"},{"bike_id":"25afecff-8faf-4ca5-beb4-ce74280dcb13","system_id":"levelo_inurba_marseille","lat":43.23199,"lon":5.35542,"is_reserved":false,"is_disabled":false,"rental_uris":{"android":"levelo://app?vid=25afecff-8faf-4ca5-beb4-ce74280dcb13","ios":"levelo://app?vid=25afecff-8faf-4ca5-beb4-ce74280dcb13"},"vehicle_type_id":"4","last_reported":1728490223,"current_range_meters":2000,"station_id":"ce4bhu92rcd13ifvqi70","pricing_plan_id":"cebpf4jnsgd1na2vs0mg"},{"bike_id":"bc5da530-264e-4907-ad43-308cc5fa4656","system_id":"levelo_inurba_marseille","lat":43.33023,"lon":5.39036,"is_reserved":false,"is_disabled":false,"rental_uris":{"android":"levelo://app?vid=bc5da530-264e-4907-ad43-308cc5fa4656","ios":"levelo://app?vid=bc5da530-264e-4907-ad43-308cc5fa4656"},"vehicle_type_id":"4","last_reported":1728490223,"current_range_meters":27200,"station_id":"ce4bhr92rcd13ifvqhrg","pricing_plan_id":"cebpf4jnsgd1na2vs0mg"},{"bike_id":"636f24c2-f047-4c51-9a3f-08db5919056a","system_id":"levelo_inurba_marseille","lat":43.29529,"lon":5.38548,"is_reserved":false,"is_disabled":false,"rental_uris":{"android":"levelo://app?vid=636f24c2-f047-4c51-9a3f-08db5919056a","ios":"levelo://app?vid=636f24c2-f047-4c51-9a3f-08db5919056a"},"vehicle_type_id":"4","last_reported":1728490223,"current_range_meters":4400,"station_id":"ce4bgih2rcd13ifvqba0","pricing_plan_id":"cebpf4jnsgd1na2vs0mg"},{"bike_id":"7219fee0-219f-4cfa-8633-b620db7597ae","system_id":"levelo_inurba_marseille","lat":43.298387,"lon":5.370914,"is_reserved":false,"is_disabled":false,"rental_uris":{"android":"levelo://app?vid=7219fee0-219f-4cfa-8633-b620db7597ae","ios":"levelo://app?vid=7219fee0-219f-4cfa-8633-b620db7597ae"},"vehicle_type_id":"4","last_reported":1728490223,"current_range_meters":9600,"station_id":"ce4bgop2rcd13ifvqc1g","pricing_plan_id":"cebpf4jnsgd1na2vs0mg"},{"bike_id":"f91066a1-e8cb-48d4-8373-4e9e845c15f1","system_id":"levelo_inurba_marseille","lat":43.30802,"lon":5.4352,"is_reserved":false,"is_disabled":false,"rental_uris":{"android":"levelo://app?vid=f91066a1-e8cb-48d4-8373-4e9e845c15f1","ios":"levelo://app?vid=f91066a1-e8cb-48d4-8373-4e9e845c15f1"},"vehicle_type_id":"4","last_reported":1728490223,"current_range_meters":8800,"station_id":"ce4bhph2rcd13ifvqheg","pricing_plan_id":"cebpf4jnsgd1na2vs0mg"},{"bike_id":"537295f0-e34c-4ec3-a8ad-9b4d471be691","system_id":"levelo_inurba_marseille","lat":43.23193,"lon":5.35554,"is_reserved":false,"is_disabled":false,"rental_uris":{"android":"levelo://app?vid=537295f0-e34c-4ec3-a8ad-9b4d471be691","ios":"levelo://app?vid=537295f0-e34c-4ec3-a8ad-9b4d471be691"},"vehicle_type_id":"4","last_reported":1728490223,"current_range_meters":8800,"station_id":"ce4bhu92rcd13ifvqi70","pricing_plan_id":"cebpf4jnsgd1na2vs0mg"},{"bike_id":"a10bacc3-0fec-4463-b1fa-51cf4e5237ff","system_id":"levelo_inurba_marseille","lat":43.29041,"lon":5.35912,"is_reserved":false,"is_disabled":false,"rental_uris":{"android":"levelo://app?vid=a10bacc3-0fec-4463-b1fa-51cf4e5237ff","ios":"levelo://app?vid=a10bacc3-0fec-4463-b1fa-51cf4e5237ff"},"vehicle_type_id":"4","last_reported":1728490223,"current_range_meters":10000,"station_id":"ce4bha92rcd13ifvqeg0","pricing_plan_id":"cebpf4jnsgd1na2vs0mg"},{"bike_id":"94dc256a-a1a6-427b-97d9-c9c9b0d371c9","system_id":"levelo_inurba_marseille","lat":43.2846,"lon":5.35887,"is_reserved":false,"is_disabled":false,"rental_uris":{"android":"levelo://app?vid=94dc256a-a1a6-427b-97d9-c9c9b0d371c9","ios":"levelo://app?vid=94dc256a-a1a6-427b-97d9-c9c9b0d371c9"},"vehicle_type_id":"4","last_reported":1728490223,"current_range_meters":11600,"station_id":"ce4bhah2rcd13ifvqei0","pricing_plan_id":"cebpf4jnsgd1na2vs0mg"},{"bike_id":"6c796308-1514-4473-b05d-ecdabe0b4b1d","system_id":"levelo_inurba_marseille","lat":43.27946,"lon":5.41048,"is_reserved":false,"is_disabled":false,"rental_uris":{"android":"levelo://app?vid=6c796308-1514-4473-b05d-ecdabe0b4b1d","ios":"levelo://app?vid=6c796308-1514-4473-b05d-ecdabe0b4b1d"},"vehicle_type_id":"4","last_reported":1728490223,"current_range_meters":11200,"station_id":"ce4bhnp2rcd13ifvqh0g","pricing_plan_id":"cebpf4jnsgd1na2vs0mg"},{"bike_id":"003dfcd1-e77c-45f7-bd34-289604a833af","system_id":"levelo_inurba_marseille","lat":43.31713,"lon":5.43708,"is_reserved":false,"is_disabled":false,"rental_uris":{"android":"levelo://app?vid=003dfcd1-e77c-45f7-bd34-289604a833af","ios":"levelo://app?vid=003dfcd1-e77c-45f7-bd34-289604a833af"},"vehicle_type_id":"4","last_reported":1728490223,"current_range_meters":27200,"station_id":"ce4bhp92rcd13ifvqhcg","pricing_plan_id":"cebpf4jnsgd1na2vs0mg"},{"bike_id":"eb468979-0ce5-4497-b24a-a6cd5e0029e5","system_id":"levelo_inurba_marseille","lat":43.31165,"lon":5.38714,"is_reserved":false,"is_disabled":false,"rental_uris":{"android":"levelo://app?vid=eb468979-0ce5-4497-b24a-a6cd5e0029e5","ios":"levelo://app?vid=eb468979-0ce5-4497-b24a-a6cd5e0029e5"},"vehicle_type_id":"4","last_reported":1728490223,"current_range_meters":800,"station_id":"ce4bgv12rcd13ifvqcp0","pricing_plan_id":"cebpf4jnsgd1na2vs0mg"},{"bike_id":"dca7c60b-d25d-4583-83b1-af4390c055f4","system_id":"levelo_inurba_marseille","lat":43.23199,"lon":5.35553,"is_reserved":false,"is_disabled":false,"rental_uris":{"android":"levelo://app?vid=dca7c60b-d25d-4583-83b1-af4390c055f4","ios":"levelo://app?vid=dca7c60b-d25d-4583-83b1-af4390c055f4"},"vehicle_type_id":"4","last_reported":1728490223,"current_range_meters":7200,"station_id":"ce4bhu92rcd13ifvqi70","pricing_plan_id":"cebpf4jnsgd1na2vs0mg"},{"bike_id":"c46c24ad-b402-4f86-932a-523dbc149b90","system_id":"levelo_inurba_marseille","lat":43.23961,"lon":5.36628,"is_reserved":false,"is_disabled":false,"rental_uris":{"android":"levelo://app?vid=c46c24ad-b402-4f86-932a-523dbc149b90","ios":"levelo://app?vid=c46c24ad-b402-4f86-932a-523dbc149b90"},"vehicle_type_id":"4","last_reported":1728490223,"current_range_meters":3200,"station_id":"ce4bhi12rcd13ifvqfp0","pricing_plan_id":"cebpf4jnsgd1na2vs0mg"},{"bike_id":"4981810a-48a7-4ee2-8e98-55c89e63b8a5","system_id":"levelo_inurba_marseille","lat":43.29525,"lon":5.39401,"is_reserved":false,"is_disabled":false,"rental_uris":{"android":"levelo://app?vid=4981810a-48a7-4ee2-8e98-55c89e63b8a5","ios":"levelo://app?vid=4981810a-48a7-4ee2-8e98-55c89e63b8a5"},"vehicle_type_id":"4","last_reported":1728490223,"current_range_meters":7200,"station_id":"ce4bh292rcd13ifvqdf0","pricing_plan_id":"cebpf4jnsgd1na2vs0mg"},{"bike_id":"f1499b2e-032b-4fdf-ab02-30f4301b617c","system_id":"levelo_inurba_marseille","lat":43.278452,"lon":5.387961,"is_reserved":false,"is_disabled":false,"rental_uris":{"android":"levelo://app?vid=f1499b2e-032b-4fdf-ab02-30f4301b617c","ios":"levelo://app?vid=f1499b2e-032b-4fdf-ab02-30f4301b617c"},"vehicle_type_id":"4","last_reported":1728490223,"current_range_meters":14800,"station_id":"ce4bhg12rcd13ifvqf80","pricing_plan_id":"cebpf4jnsgd1na2vs0mg"},{"bike_id":"0782d9da-7bd5-451a-a10d-3d24eb94a607","system_id":"levelo_inurba_marseille","lat":43.30303,"lon":5.39214,"is_reserved":false,"is_disabled":false,"rental_uris":{"android":"levelo://app?vid=0782d9da-7bd5-451a-a10d-3d24eb94a607","ios":"levelo://app?vid=0782d9da-7bd5-451a-a10d-3d24eb94a607"},"vehicle_type_id":"4","last_reported":1728490223,"current_range_meters":14400,"station_id":"ce4bgkh2rcd13ifvqbk0","pricing_plan_id":"cebpf4jnsgd1na2vs0mg"},{"bike_id":"f5645a58-6ed6-43ba-9785-e0ce351fee69","system_id":"levelo_inurba_marseille","lat":43.32363,"lon":5.38882,"is_reserved":false,"is_disabled":false,"rental_uris":{"android":"levelo://app?vid=f5645a58-6ed6-43ba-9785-e0ce351fee69","ios":"levelo://app?vid=f5645a58-6ed6-43ba-9785-e0ce351fee69"},"vehicle_type_id":"4","last_reported":1728490223,"current_range_meters":22400,"station_id":"ce4bhqp2rcd13ifvqhog","pricing_plan_id":"cebpf4jnsgd1na2vs0mg"},{"bike_id":"d94ea41b-dd99-4d85-a2dd-68ff3e54dbed","system_id":"levelo_inurba_marseille","lat":43.26199,"lon":5.37932,"is_reserved":false,"is_disabled":false,"rental_uris":{"android":"levelo://app?vid=d94ea41b-dd99-4d85-a2dd-68ff3e54dbed","ios":"levelo://app?vid=d94ea41b-dd99-4d85-a2dd-68ff3e54dbed"},"vehicle_type_id":"4","last_reported":1728490223,"current_range_meters":12400,"station_id":"ce4bhjp2rcd13ifvqg90","pricing_plan_id":"cebpf4jnsgd1na2vs0mg"},{"bike_id":"2499ff39-67cd-4dd9-b3fb-d8ce6c66364d","system_id":"levelo_inurba_marseille","lat":43.25491,"lon":5.37655,"is_reserved":false,"is_disabled":false,"rental_uris":{"android":"levelo://app?vid=2499ff39-67cd-4dd9-b3fb-d8ce6c66364d","ios":"levelo://app?vid=2499ff39-67cd-4dd9-b3fb-d8ce6c66364d"},"vehicle_type_id":"4","last_reported":1728490223,"current_range_meters":38800,"station_id":"ce4bhh12rcd13ifvqff0","pricing_plan_id":"cebpf4jnsgd1na2vs0mg"},{"bike_id":"125c658c-0ed4-4fc1-afd8-46bc0bd41624","system_id":"levelo_inurba_marseille","lat":43.24389,"lon":5.37063,"is_reserved":false,"is_disabled":false,"rental_uris":{"android":"levelo://app?vid=125c658c-0ed4-4fc1-afd8-46bc0bd41624","ios":"levelo://app?vid=125c658c-0ed4-4fc1-afd8-46bc0bd41624"},"vehicle_type_id":"4","last_reported":1728490223,"current_range_meters":7200,"station_id":"ce4bhhh2rcd13ifvqfk0","pricing_plan_id":"cebpf4jnsgd1na2vs0mg"},{"bike_id":"6d46f6a7-7183-47b6-84f5-f0b9f96995b1","system_id":"levelo_inurba_marseille","lat":43.28154,"lon":5.42642,"is_reserved":false,"is_disabled":false,"rental_uris":{"android":"levelo://app?vid=6d46f6a7-7183-47b6-84f5-f0b9f96995b1","ios":"levelo://app?vid=6d46f6a7-7183-47b6-84f5-f0b9f96995b1"},"vehicle_type_id":"4","last_reported":1728490223,"current_range_meters":13600,"station_id":"ce4bhnh2rcd13ifvqgug","pricing_plan_id":"cebpf4jnsgd1na2vs0mg"},{"bike_id":"63d126d8-a613-4cec-ab67-a8edb9bdfb95","system_id":"levelo_inurba_marseille","lat":43.28104,"lon":5.37842,"is_reserved":false,"is_disabled":false,"rental_uris":{"android":"levelo://app?vid=63d126d8-a613-4cec-ab67-a8edb9bdfb95","ios":"levelo://app?vid=63d126d8-a613-4cec-ab67-a8edb9bdfb95"},"vehicle_type_id":"4","last_reported":1728490223,"current_range_meters":8400,"station_id":"ce4bha12rcd13ifvqee0","pricing_plan_id":"cebpf4jnsgd1na2vs0mg"},{"bike_id":"f63cf4a2-5fba-4c54-9baa-8b1b4a02004d","system_id":"levelo_inurba_marseille","lat":43.30802,"lon":5.4352,"is_reserved":false,"is_disabled":false,"rental_uris":{"android":"levelo://app?vid=f63cf4a2-5fba-4c54-9baa-8b1b4a02004d","ios":"levelo://app?vid=f63cf4a2-5fba-4c54-9baa-8b1b4a02004d"},"vehicle_type_id":"4","last_reported":1728490223,"current_range_meters":24400,"station_id":"ce4bhph2rcd13ifvqheg","pricing_plan_id":"cebpf4jnsgd1na2vs0mg"},{"bike_id":"6caf95ac-909f-41e1-8bc7-0f91444d16fb","system_id":"levelo_inurba_marseille","lat":43.23069,"lon":5.35494,"is_reserved":false,"is_disabled":false,"rental_uris":{"android":"levelo://app?vid=6caf95ac-909f-41e1-8bc7-0f91444d16fb","ios":"levelo://app?vid=6caf95ac-909f-41e1-8bc7-0f91444d16fb"},"vehicle_type_id":"4","last_reported":1728490223,"current_range_meters":17600,"station_id":"cpo3342slgdg3j2ifvpg","pricing_plan_id":"cebpf4jnsgd1na2vs0mg"},{"bike_id":"3fab305b-1728-4a45-9f4f-fb39052b80d2","system_id":"levelo_inurba_marseille","lat":43.25489,"lon":5.37651,"is_reserved":false,"is_disabled":false,"rental_uris":{"android":"levelo://app?vid=3fab305b-1728-4a45-9f4f-fb39052b80d2","ios":"levelo://app?vid=3fab305b-1728-4a45-9f4f-fb39052b80d2"},"vehicle_type_id":"4","last_reported":1728490223,"current_range_meters":36800,"station_id":"ce4bhh12rcd13ifvqff0","pricing_plan_id":"cebpf4jnsgd1na2vs0mg"},{"bike_id":"9f984fd1-2d00-4b18-86de-0be91061abb8","system_id":"levelo_inurba_marseille","lat":43.2985,"lon":5.3629,"is_reserved":false,"is_disabled":false,"rental_uris":{"android":"levelo://app?vid=9f984fd1-2d00-4b18-86de-0be91061abb8","ios":"levelo://app?vid=9f984fd1-2d00-4b18-86de-0be91061abb8"},"vehicle_type_id":"4","last_reported":1728490223,"current_range_meters":38800,"station_id":"ce4bgpp2rcd13ifvqc3g","pricing_plan_id":"cebpf4jnsgd1na2vs0mg"},{"bike_id":"cb439072-15f2-4299-919f-ba4b86460e53","system_id":"levelo_inurba_marseille","lat":43.28036,"lon":5.36946,"is_reserved":false,"is_disabled":false,"rental_uris":{"android":"levelo://app?vid=cb439072-15f2-4299-919f-ba4b86460e53","ios":"levelo://app?vid=cb439072-15f2-4299-919f-ba4b86460e53"},"vehicle_type_id":"4","last_reported":1728490223,"current_range_meters":20800,"station_id":"ce4bha12rcd13ifvqef0","pricing_plan_id":"cebpf4jnsgd1na2vs0mg"},{"bike_id":"ede68b2f-f53f-4ad5-a3f5-950bc936b5eb","system_id":"levelo_inurba_marseille","lat":43.33773,"lon":5.37398,"is_reserved":false,"is_disabled":false,"rental_uris":{"android":"levelo://app?vid=ede68b2f-f53f-4ad5-a3f5-950bc936b5eb","ios":"levelo://app?vid=ede68b2f-f53f-4ad5-a3f5-950bc936b5eb"},"vehicle_type_id":"4","last_reported":1728490223,"current_range_meters":33200,"station_id":"","pricing_plan_id":"cebpf4jnsgd1na2vs0mg"},{"bike_id":"6ccdf55f-f40a-4e65-b51a-bab955052d90","system_id":"levelo_inurba_marseille","lat":43.29539,"lon":5.38546,"is_reserved":false,"is_disabled":false,"rental_uris":{"android":"levelo://app?vid=6ccdf55f-f40a-4e65-b51a-bab955052d90","ios":"levelo://app?vid=6ccdf55f-f40a-4e65-b51a-bab955052d90"},"vehicle_type_id":"4","last_reported":1728490223,"current_range_meters":20400,"station_id":"ce4bgih2rcd13ifvqba0","pricing_plan_id":"cebpf4jnsgd1na2vs0mg"},{"bike_id":"b9f35de0-0bf3-4bea-bf68-d8893f94426e","system_id":"levelo_inurba_marseille","lat":43.31706,"lon":5.43728,"is_reserved":false,"is_disabled":false,"rental_uris":{"android":"levelo://app?vid=b9f35de0-0bf3-4bea-bf68-d8893f94426e","ios":"levelo://app?vid=b9f35de0-0bf3-4bea-bf68-d8893f94426e"},"vehicle_type_id":"4","last_reported":1728490223,"current_range_meters":36800,"station_id":"ce4bhp92rcd13ifvqhcg","pricing_plan_id":"cebpf4jnsgd1na2vs0mg"},{"bike_id":"4be5ce6d-3894-4f7b-9365-a5d99a98e13f","system_id":"levelo_inurba_marseille","lat":43.29868,"lon":5.3973,"is_reserved":false,"is_disabled":false,"rental_uris":{"android":"levelo://app?vid=4be5ce6d-3894-4f7b-9365-a5d99a98e13f","ios":"levelo://app?vid=4be5ce6d-3894-4f7b-9365-a5d99a98e13f"},"vehicle_type_id":"4","last_reported":1728490223,"current_range_meters":12400,"station_id":"ce4bh0h2rcd13ifvqd50","pricing_plan_id":"cebpf4jnsgd1na2vs0mg"},{"bike_id":"c834194a-39ba-4fa4-ba45-8836b8980bf9","system_id":"levelo_inurba_marseille","lat":43.27375,"lon":5.36255,"is_reserved":false,"is_disabled":false,"rental_uris":{"android":"levelo://app?vid=c834194a-39ba-4fa4-ba45-8836b8980bf9","ios":"levelo://app?vid=c834194a-39ba-4fa4-ba45-8836b8980bf9"},"vehicle_type_id":"4","last_reported":1728490223,"current_range_meters":16400,"station_id":"ce4bhbh2rcd13ifvqeo0","pricing_plan_id":"cebpf4jnsgd1na2vs0mg"},{"bike_id":"810b32d6-b30c-480b-a6ee-5bd54d112eb8","system_id":"levelo_inurba_marseille","lat":43.33749,"lon":5.37442,"is_reserved":false,"is_disabled":false,"rental_uris":{"android":"levelo://app?vid=810b32d6-b30c-480b-a6ee-5bd54d112eb8","ios":"levelo://app?vid=810b32d6-b30c-480b-a6ee-5bd54d112eb8"},"vehicle_type_id":"4","last_reported":1728490223,"current_range_meters":27600,"station_id":"ce4rr2p2rcd13i802rgg","pricing_plan_id":"cebpf4jnsgd1na2vs0mg"},{"bike_id":"f638ddfc-d620-4aee-9d89-ceb48ec4dd2d","system_id":"levelo_inurba_marseille","lat":43.29428,"lon":5.39749,"is_reserved":false,"is_disabled":false,"rental_uris":{"android":"levelo://app?vid=f638ddfc-d620-4aee-9d89-ceb48ec4dd2d","ios":"levelo://app?vid=f638ddfc-d620-4aee-9d89-ceb48ec4dd2d"},"vehicle_type_id":"4","last_reported":1728490223,"current_range_meters":32400,"station_id":"ce4bh3h2rcd13ifvqdo0","pricing_plan_id":"cebpf4jnsgd1na2vs0mg"},{"bike_id":"80d60e81-d605-4823-9c37-cf65469f5d74","system_id":"levelo_inurba_marseille","lat":43.294977,"lon":5.386921,"is_reserved":false,"is_disabled":false,"rental_uris":{"android":"levelo://app?vid=80d60e81-d605-4823-9c37-cf65469f5d74","ios":"levelo://app?vid=80d60e81-d605-4823-9c37-cf65469f5d74"},"vehicle_type_id":"4","last_reported":1728490223,"current_range_meters":2800,"station_id":"ce4bgih2rcd13ifvqba0","pricing_plan_id":"cebpf4jnsgd1na2vs0mg"},{"bike_id":"9c117103-d6f5-4f77-9aca-e74f526f327c","system_id":"levelo_inurba_marseille","lat":43.2844,"lon":5.39553,"is_reserved":false,"is_disabled":false,"rental_uris":{"android":"levelo://app?vid=9c117103-d6f5-4f77-9aca-e74f526f327c","ios":"levelo://app?vid=9c117103-d6f5-4f77-9aca-e74f526f327c"},"vehicle_type_id":"4","last_reported":1728490223,"current_range_meters":24000,"station_id":"ce4bho92rcd13ifvqh4g","pricing_plan_id":"cebpf4jnsgd1na2vs0mg"},{"bike_id":"5cf92c32-4154-4842-a533-83cdef647d8b","system_id":"levelo_inurba_marseille","lat":43.29873,"lon":5.39734,"is_reserved":false,"is_disabled":false,"rental_uris":{"android":"levelo://app?vid=5cf92c32-4154-4842-a533-83cdef647d8b","ios":"levelo://app?vid=5cf92c32-4154-4842-a533-83cdef647d8b"},"vehicle_type_id":"4","last_reported":1728490223,"current_range_meters":21600,"station_id":"ce4bh0h2rcd13ifvqd50","pricing_plan_id":"cebpf4jnsgd1na2vs0mg"},{"bike_id":"8adcfb80-2941-413f-a5c5-d8234359f320","system_id":"levelo_inurba_marseille","lat":43.322928,"lon":5.382662,"is_reserved":false,"is_disabled":false,"rental_uris":{"android":"levelo://app?vid=8adcfb80-2941-413f-a5c5-d8234359f320","ios":"levelo://app?vid=8adcfb80-2941-413f-a5c5-d8234359f320"},"vehicle_type_id":"4","last_reported":1728490223,"current_range_meters":18800,"station_id":"ce4bhr12rcd13ifvqhqg","pricing_plan_id":"cebpf4jnsgd1na2vs0mg"},{"bike_id":"555f831f-f040-497e-8c5c-70a6f6274a76","system_id":"levelo_inurba_marseille","lat":43.28704,"lon":5.39997,"is_reserved":false,"is_disabled":false,"rental_uris":{"android":"levelo://app?vid=555f831f-f040-497e-8c5c-70a6f6274a76","ios":"levelo://app?vid=555f831f-f040-497e-8c5c-70a6f6274a76"},"vehicle_type_id":"4","last_reported":1728490223,"current_range_meters":6800,"station_id":"ce4bho92rcd13ifvqh3g","pricing_plan_id":"cebpf4jnsgd1na2vs0mg"},{"bike_id":"c72b9af4-c35b-440a-9994-8303a74ec58e","system_id":"levelo_inurba_marseille","lat":43.23187,"lon":5.39988,"is_reserved":false,"is_disabled":false,"rental_uris":{"android":"levelo://app?vid=c72b9af4-c35b-440a-9994-8303a74ec58e","ios":"levelo://app?vid=c72b9af4-c35b-440a-9994-8303a74ec58e"},"vehicle_type_id":"4","last_reported":1728490223,"current_range_meters":6400,"station_id":"ce4bhn12rcd13ifvqgqg","pricing_plan_id":"cebpf4jnsgd1na2vs0mg"},{"bike_id":"e2c95318-b722-4bcf-a849-5ca8d545730e","system_id":"levelo_inurba_marseille","lat":43.29864,"lon":5.39745,"is_reserved":false,"is_disabled":false,"rental_uris":{"android":"levelo://app?vid=e2c95318-b722-4bcf-a849-5ca8d545730e","ios":"levelo://app?vid=e2c95318-b722-4bcf-a849-5ca8d545730e"},"vehicle_type_id":"4","last_reported":1728490223,"current_range_meters":32000,"station_id":"ce4bh0h2rcd13ifvqd50","pricing_plan_id":"cebpf4jnsgd1na2vs0mg"},{"bike_id":"d72100ed-aa92-4325-a5d9-a192d982eaf8","system_id":"levelo_inurba_marseille","lat":43.23187,"lon":5.35554,"is_reserved":false,"is_disabled":false,"rental_uris":{"android":"levelo://app?vid=d72100ed-aa92-4325-a5d9-a192d982eaf8","ios":"levelo://app?vid=d72100ed-aa92-4325-a5d9-a192d982eaf8"},"vehicle_type_id":"4","last_reported":1728490223,"current_range_meters":4800,"station_id":"ce4bhu92rcd13ifvqi70","pricing_plan_id":"cebpf4jnsgd1na2vs0mg"},{"bike_id":"92c0f153-a24c-43be-9b3a-53dc9be8dc29","system_id":"levelo_inurba_marseille","lat":43.30795,"lon":5.37652,"is_reserved":false,"is_disabled":false,"rental_uris":{"android":"levelo://app?vid=92c0f153-a24c-43be-9b3a-53dc9be8dc29","ios":"levelo://app?vid=92c0f153-a24c-43be-9b3a-53dc9be8dc29"},"vehicle_type_id":"4","last_reported":1728490223,"current_range_meters":32000,"station_id":"ce4bgv92rcd13ifvqcq0","pricing_plan_id":"cebpf4jnsgd1na2vs0mg"},{"bike_id":"97ede642-3e42-4a39-b00d-0e7e7d6a06ed","system_id":"levelo_inurba_marseille","lat":43.28616,"lon":5.35105,"is_reserved":false,"is_disabled":false,"rental_uris":{"android":"levelo://app?vid=97ede642-3e42-4a39-b00d-0e7e7d6a06ed","ios":"levelo://app?vid=97ede642-3e42-4a39-b00d-0e7e7d6a06ed"},"vehicle_type_id":"4","last_reported":1728490223,"current_range_meters":32000,"station_id":"ce4bhch2rcd13ifvqeug","pricing_plan_id":"cebpf4jnsgd1na2vs0mg"},{"bike_id":"cfff5cd8-5881-439d-a5ee-7db6d56119b3","system_id":"levelo_inurba_marseille","lat":43.29586,"lon":5.36742,"is_reserved":false,"is_disabled":false,"rental_uris":{"android":"levelo://app?vid=cfff5cd8-5881-439d-a5ee-7db6d56119b3","ios":"levelo://app?vid=cfff5cd8-5881-439d-a5ee-7db6d56119b3"},"vehicle_type_id":"4","last_reported":1728490223,"current_range_meters":38800,"station_id":"ce4bgph2rcd13ifvqc2g","pricing_plan_id":"cebpf4jnsgd1na2vs0mg"},{"bike_id":"5bf62857-6931-415c-9b0a-ffd4d5c06d81","system_id":"levelo_inurba_marseille","lat":43.29848,"lon":5.36269,"is_reserved":false,"is_disabled":false,"rental_uris":{"android":"levelo://app?vid=5bf62857-6931-415c-9b0a-ffd4d5c06d81","ios":"levelo://app?vid=5bf62857-6931-415c-9b0a-ffd4d5c06d81"},"vehicle_type_id":"4","last_reported":1728490223,"current_range_meters":38800,"station_id":"ce4bgpp2rcd13ifvqc3g","pricing_plan_id":"cebpf4jnsgd1na2vs0mg"},{"bike_id":"2f2b918f-ee90-4137-a172-29614af79746","system_id":"levelo_inurba_marseille","lat":43.27833,"lon":5.3921,"is_reserved":false,"is_disabled":false,"rental_uris":{"android":"levelo://app?vid=2f2b918f-ee90-4137-a172-29614af79746","ios":"levelo://app?vid=2f2b918f-ee90-4137-a172-29614af79746"},"vehicle_type_id":"4","last_reported":1728490223,"current_range_meters":16800,"station_id":"ce4bhjp2rcd13ifvqga0","pricing_plan_id":"cebpf4jnsgd1na2vs0mg"},{"bike_id":"097bd79b-d189-4982-ae7d-2dd1eb78a121","system_id":"levelo_inurba_marseille","lat":43.27564,"lon":5.38422,"is_reserved":false,"is_disabled":false,"rental_uris":{"android":"levelo://app?vid=097bd79b-d189-4982-ae7d-2dd1eb78a121","ios":"levelo://app?vid=097bd79b-d189-4982-ae7d-2dd1eb78a121"},"vehicle_type_id":"4","last_reported":1728490223,"current_range_meters":19200,"station_id":"ce4bhh92rcd13ifvqfi0","pricing_plan_id":"cebpf4jnsgd1na2vs0mg"},{"bike_id":"4be20481-0a41-4406-b5fc-88af19ed8d26","system_id":"levelo_inurba_marseille","lat":43.29078,"lon":5.37155,"is_reserved":false,"is_disabled":false,"rental_uris":{"android":"levelo://app?vid=4be20481-0a41-4406-b5fc-88af19ed8d26","ios":"levelo://app?vid=4be20481-0a41-4406-b5fc-88af19ed8d26"},"vehicle_type_id":"4","last_reported":1728490223,"current_range_meters":20800,"station_id":"ce4bh5p2rcd13ifvqe4g","pricing_plan_id":"cebpf4jnsgd1na2vs0mg"},{"bike_id":"dcbd1fbb-7615-41d7-84bc-a4b8aef1dc67","system_id":"levelo_inurba_marseille","lat":43.25487,"lon":5.37647,"is_reserved":false,"is_disabled":false,"rental_uris":{"android":"levelo://app?vid=dcbd1fbb-7615-41d7-84bc-a4b8aef1dc67","ios":"levelo://app?vid=dcbd1fbb-7615-41d7-84bc-a4b8aef1dc67"},"vehicle_type_id":"4","last_reported":1728490223,"current_range_meters":4000,"station_id":"ce4bhh12rcd13ifvqff0","pricing_plan_id":"cebpf4jnsgd1na2vs0mg"},{"bike_id":"115f99b9-4f17-436d-b64b-539a809a91f1","system_id":"levelo_inurba_marseille","lat":43.33024,"lon":5.39034,"is_reserved":false,"is_disabled":false,"rental_uris":{"android":"levelo://app?vid=115f99b9-4f17-436d-b64b-539a809a91f1","ios":"levelo://app?vid=115f99b9-4f17-436d-b64b-539a809a91f1"},"vehicle_type_id":"4","last_reported":1728490223,"current_range_meters":38000,"station_id":"ce4bhr92rcd13ifvqhrg","pricing_plan_id":"cebpf4jnsgd1na2vs0mg"},{"bike_id":"5c1a8458-a3a4-4acf-a609-5cf70095ff7a","system_id":"levelo_inurba_marseille","lat":43.25303,"lon":5.39297,"is_reserved":false,"is_disabled":false,"rental_uris":{"android":"levelo://app?vid=5c1a8458-a3a4-4acf-a609-5cf70095ff7a","ios":"levelo://app?vid=5c1a8458-a3a4-4acf-a609-5cf70095ff7a"},"vehicle_type_id":"4","last_reported":1728490223,"current_range_meters":37600,"station_id":"","pricing_plan_id":"cebpf4jnsgd1na2vs0mg"},{"bike_id":"7e58e11c-48ba-41a2-86b0-395bdd1d6afc","system_id":"levelo_inurba_marseille","lat":43.27379,"lon":5.36263,"is_reserved":false,"is_disabled":false,"rental_uris":{"android":"levelo://app?vid=7e58e11c-48ba-41a2-86b0-395bdd1d6afc","ios":"levelo://app?vid=7e58e11c-48ba-41a2-86b0-395bdd1d6afc"},"vehicle_type_id":"4","last_reported":1728490223,"current_range_meters":16400,"station_id":"ce4bhbh2rcd13ifvqeo0","pricing_plan_id":"cebpf4jnsgd1na2vs0mg"},{"bike_id":"b910b1da-c40b-4592-a564-83bb508595ff","system_id":"levelo_inurba_marseille","lat":43.28155,"lon":5.42641,"is_reserved":false,"is_disabled":false,"rental_uris":{"android":"levelo://app?vid=b910b1da-c40b-4592-a564-83bb508595ff","ios":"levelo://app?vid=b910b1da-c40b-4592-a564-83bb508595ff"},"vehicle_type_id":"4","last_reported":1728490223,"current_range_meters":12800,"station_id":"ce4bhnh2rcd13ifvqgug","pricing_plan_id":"cebpf4jnsgd1na2vs0mg"},{"bike_id":"a7d5943d-abc7-415e-80d3-500baa700614","system_id":"levelo_inurba_marseille","lat":43.29849,"lon":5.3629,"is_reserved":false,"is_disabled":false,"rental_uris":{"android":"levelo://app?vid=a7d5943d-abc7-415e-80d3-500baa700614","ios":"levelo://app?vid=a7d5943d-abc7-415e-80d3-500baa700614"},"vehicle_type_id":"4","last_reported":1728490223,"current_range_meters":38800,"station_id":"ce4bgpp2rcd13ifvqc3g","pricing_plan_id":"cebpf4jnsgd1na2vs0mg"},{"bike_id":"a47b2e3b-e6d9-4247-adb7-7d55253f0575","system_id":"levelo_inurba_marseille","lat":43.286621,"lon":5.363428,"is_reserved":false,"is_disabled":false,"rental_uris":{"android":"levelo://app?vid=a47b2e3b-e6d9-4247-adb7-7d55253f0575","ios":"levelo://app?vid=a47b2e3b-e6d9-4247-adb7-7d55253f0575"},"vehicle_type_id":"4","last_reported":1728490223,"current_range_meters":30800,"station_id":"ce4bh9p2rcd13ifvqed0","pricing_plan_id":"cebpf4jnsgd1na2vs0mg"},{"bike_id":"9a0f945c-a6a3-4f1c-9e40-7f0167c0c972","system_id":"levelo_inurba_marseille","lat":43.296082,"lon":5.369176,"is_reserved":false,"is_disabled":false,"rental_uris":{"android":"levelo://app?vid=9a0f945c-a6a3-4f1c-9e40-7f0167c0c972","ios":"levelo://app?vid=9a0f945c-a6a3-4f1c-9e40-7f0167c0c972"},"vehicle_type_id":"4","last_reported":1728490223,"current_range_meters":18000,"station_id":"ce4bgph2rcd13ifvqc2g","pricing_plan_id":"cebpf4jnsgd1na2vs0mg"},{"bike_id":"9a467e6e-69f0-4422-8371-14025ea4f1ad","system_id":"levelo_inurba_marseille","lat":43.30427,"lon":5.38891,"is_reserved":false,"is_disabled":false,"rental_uris":{"android":"levelo://app?vid=9a467e6e-69f0-4422-8371-14025ea4f1ad","ios":"levelo://app?vid=9a467e6e-69f0-4422-8371-14025ea4f1ad"},"vehicle_type_id":"4","last_reported":1728490223,"current_range_meters":38800,"station_id":"ce4bgk12rcd13ifvqbi0","pricing_plan_id":"cebpf4jnsgd1na2vs0mg"},{"bike_id":"376ca134-d3e4-4011-8942-c0dc5237b1c7","system_id":"levelo_inurba_marseille","lat":43.30434,"lon":5.39745,"is_reserved":false,"is_disabled":false,"rental_uris":{"android":"levelo://app?vid=376ca134-d3e4-4011-8942-c0dc5237b1c7","ios":"levelo://app?vid=376ca134-d3e4-4011-8942-c0dc5237b1c7"},"vehicle_type_id":"4","last_reported":1728490223,"current_range_meters":4400,"station_id":"ce4bh092rcd13ifvqd20","pricing_plan_id":"cebpf4jnsgd1na2vs0mg"},{"bike_id":"aedd8ec2-7540-46ca-a4a2-6f94cd458a98","system_id":"levelo_inurba_marseille","lat":43.30888,"lon":5.39658,"is_reserved":false,"is_disabled":false,"rental_uris":{"android":"levelo://app?vid=aedd8ec2-7540-46ca-a4a2-6f94cd458a98","ios":"levelo://app?vid=aedd8ec2-7540-46ca-a4a2-6f94cd458a98"},"vehicle_type_id":"4","last_reported":1728490223,"current_range_meters":27200,"station_id":"ce4bh012rcd13ifvqcv0","pricing_plan_id":"cebpf4jnsgd1na2vs0mg"},{"bike_id":"2dcce53e-eef6-4646-b78c-afbc82b32d41","system_id":"levelo_inurba_marseille","lat":43.32366,"lon":5.38883,"is_reserved":false,"is_disabled":false,"rental_uris":{"android":"levelo://app?vid=2dcce53e-eef6-4646-b78c-afbc82b32d41","ios":"levelo://app?vid=2dcce53e-eef6-4646-b78c-afbc82b32d41"},"vehicle_type_id":"4","last_reported":1728490223,"current_range_meters":18000,"station_id":"ce4bhqp2rcd13ifvqhog","pricing_plan_id":"cebpf4jnsgd1na2vs0mg"},{"bike_id":"6ef1f698-cbba-4733-831d-be293232fb1b","system_id":"levelo_inurba_marseille","lat":43.31332,"lon":5.39692,"is_reserved":false,"is_disabled":false,"rental_uris":{"android":"levelo://app?vid=6ef1f698-cbba-4733-831d-be293232fb1b","ios":"levelo://app?vid=6ef1f698-cbba-4733-831d-be293232fb1b"},"vehicle_type_id":"4","last_reported":1728490223,"current_range_meters":12800,"station_id":"ce4bgvp2rcd13ifvqcu0","pricing_plan_id":"cebpf4jnsgd1na2vs0mg"},{"bike_id":"81d49c0c-b020-45f2-8d81-6459353c9809","system_id":"levelo_inurba_marseille","lat":43.31757,"lon":5.39017,"is_reserved":false,"is_disabled":false,"rental_uris":{"android":"levelo://app?vid=81d49c0c-b020-45f2-8d81-6459353c9809","ios":"levelo://app?vid=81d49c0c-b020-45f2-8d81-6459353c9809"},"vehicle_type_id":"4","last_reported":1728490223,"current_range_meters":23200,"station_id":"ce4bhqp2rcd13ifvqhng","pricing_plan_id":"cebpf4jnsgd1na2vs0mg"},{"bike_id":"87adc8f8-1010-4c6b-91f3-54cb0d94b952","system_id":"levelo_inurba_marseille","lat":43.27812,"lon":5.40712,"is_reserved":false,"is_disabled":false,"rental_uris":{"android":"levelo://app?vid=87adc8f8-1010-4c6b-91f3-54cb0d94b952","ios":"levelo://app?vid=87adc8f8-1010-4c6b-91f3-54cb0d94b952"},"vehicle_type_id":"4","last_reported":1728490223,"current_range_meters":38800,"station_id":"ce4bhnh2rcd13ifvqgtg","pricing_plan_id":"cebpf4jnsgd1na2vs0mg"},{"bike_id":"8523fe4d-2d7b-4a96-a923-b96c618938bb","system_id":"levelo_inurba_marseille","lat":43.32337,"lon":5.40621,"is_reserved":false,"is_disabled":false,"rental_uris":{"android":"levelo://app?vid=8523fe4d-2d7b-4a96-a923-b96c618938bb","ios":"levelo://app?vid=8523fe4d-2d7b-4a96-a923-b96c618938bb"},"vehicle_type_id":"4","last_reported":1728490223,"current_range_meters":37600,"station_id":"ce4bhq92rcd13ifvqhjg","pricing_plan_id":"cebpf4jnsgd1na2vs0mg"},{"bike_id":"f8234966-33b4-4c29-b926-3739dc260e2e","system_id":"levelo_inurba_marseille","lat":43.28858,"lon":5.35868,"is_reserved":false,"is_disabled":false,"rental_uris":{"android":"levelo://app?vid=f8234966-33b4-4c29-b926-3739dc260e2e","ios":"levelo://app?vid=f8234966-33b4-4c29-b926-3739dc260e2e"},"vehicle_type_id":"4","last_reported":1728490223,"current_range_meters":7200,"station_id":"ce4bhb12rcd13ifvqem0","pricing_plan_id":"cebpf4jnsgd1na2vs0mg"},{"bike_id":"c35df238-bb98-4c35-bf16-cc0bf815e5f1","system_id":"levelo_inurba_marseille","lat":43.28617,"lon":5.351,"is_reserved":false,"is_disabled":false,"rental_uris":{"android":"levelo://app?vid=c35df238-bb98-4c35-bf16-cc0bf815e5f1","ios":"levelo://app?vid=c35df238-bb98-4c35-bf16-cc0bf815e5f1"},"vehicle_type_id":"4","last_reported":1728490223,"current_range_meters":22800,"station_id":"ce4bhch2rcd13ifvqeug","pricing_plan_id":"cebpf4jnsgd1na2vs0mg"},{"bike_id":"212766d7-96d2-45d8-b125-9c2d881ca918","system_id":"levelo_inurba_marseille","lat":43.298794,"lon":5.39739,"is_reserved":false,"is_disabled":false,"rental_uris":{"android":"levelo://app?vid=212766d7-96d2-45d8-b125-9c2d881ca918","ios":"levelo://app?vid=212766d7-96d2-45d8-b125-9c2d881ca918"},"vehicle_type_id":"4","last_reported":1728490223,"current_range_meters":10800,"station_id":"ce4bh0h2rcd13ifvqd50","pricing_plan_id":"cebpf4jnsgd1na2vs0mg"},{"bike_id":"491b22dd-d2f3-47b6-936b-d776f82b61a8","system_id":"levelo_inurba_marseille","lat":43.28863,"lon":5.35866,"is_reserved":false,"is_disabled":false,"rental_uris":{"android":"levelo://app?vid=491b22dd-d2f3-47b6-936b-d776f82b61a8","ios":"levelo://app?vid=491b22dd-d2f3-47b6-936b-d776f82b61a8"},"vehicle_type_id":"4","last_reported":1728490223,"current_range_meters":14000,"station_id":"ce4bhb12rcd13ifvqem0","pricing_plan_id":"cebpf4jnsgd1na2vs0mg"},{"bike_id":"b475dfe8-6c89-4597-9704-9f74d4d063ba","system_id":"levelo_inurba_marseille","lat":43.23198,"lon":5.35559,"is_reserved":false,"is_disabled":false,"rental_uris":{"android":"levelo://app?vid=b475dfe8-6c89-4597-9704-9f74d4d063ba","ios":"levelo://app?vid=b475dfe8-6c89-4597-9704-9f74d4d063ba"},"vehicle_type_id":"4","last_reported":1728490223,"current_range_meters":38400,"station_id":"ce4bhu92rcd13ifvqi70","pricing_plan_id":"cebpf4jnsgd1na2vs0mg"},{"bike_id":"77e2d85d-a0bb-4ca1-9858-8f41e1584409","system_id":"levelo_inurba_marseille","lat":43.30798,"lon":5.43522,"is_reserved":false,"is_disabled":false,"rental_uris":{"android":"levelo://app?vid=77e2d85d-a0bb-4ca1-9858-8f41e1584409","ios":"levelo://app?vid=77e2d85d-a0bb-4ca1-9858-8f41e1584409"},"vehicle_type_id":"4","last_reported":1728490223,"current_range_meters":22800,"station_id":"ce4bhph2rcd13ifvqheg","pricing_plan_id":"cebpf4jnsgd1na2vs0mg"},{"bike_id":"6a2958e6-b3b4-4b7a-9f25-a266a2524217","system_id":"levelo_inurba_marseille","lat":43.29071,"lon":5.375861,"is_reserved":false,"is_disabled":false,"rental_uris":{"android":"levelo://app?vid=6a2958e6-b3b4-4b7a-9f25-a266a2524217","ios":"levelo://app?vid=6a2958e6-b3b4-4b7a-9f25-a266a2524217"},"vehicle_type_id":"4","last_reported":1728490223,"current_range_meters":38000,"station_id":"ce4bh692rcd13ifvqe90","pricing_plan_id":"cebpf4jnsgd1na2vs0mg"},{"bike_id":"062381db-47f9-4cf5-81ab-e720c3ca0d02","system_id":"levelo_inurba_marseille","lat":43.28107,"lon":5.37862,"is_reserved":false,"is_disabled":false,"rental_uris":{"android":"levelo://app?vid=062381db-47f9-4cf5-81ab-e720c3ca0d02","ios":"levelo://app?vid=062381db-47f9-4cf5-81ab-e720c3ca0d02"},"vehicle_type_id":"4","last_reported":1728490223,"current_range_meters":12800,"station_id":"ce4bha12rcd13ifvqee0","pricing_plan_id":"cebpf4jnsgd1na2vs0mg"},{"bike_id":"70b2912f-3eaa-4535-b48b-2b124925c9b1","system_id":"levelo_inurba_marseille","lat":43.276154,"lon":5.361025,"is_reserved":false,"is_disabled":false,"rental_uris":{"android":"levelo://app?vid=70b2912f-3eaa-4535-b48b-2b124925c9b1","ios":"levelo://app?vid=70b2912f-3eaa-4535-b48b-2b124925c9b1"},"vehicle_type_id":"4","last_reported":1728490223,"current_range_meters":2800,"station_id":"ce4bgj92rcd13ifvqbe0","pricing_plan_id":"cebpf4jnsgd1na2vs0mg"},{"bike_id":"3771c0c7-65dc-473e-931c-d8b83e22b02c","system_id":"levelo_inurba_marseille","lat":43.30602,"lon":5.37232,"is_reserved":false,"is_disabled":false,"rental_uris":{"android":"levelo://app?vid=3771c0c7-65dc-473e-931c-d8b83e22b02c","ios":"levelo://app?vid=3771c0c7-65dc-473e-931c-d8b83e22b02c"},"vehicle_type_id":"4","last_reported":1728490223,"current_range_meters":29600,"station_id":"ce4bgqh2rcd13ifvqc4g","pricing_plan_id":"cebpf4jnsgd1na2vs0mg"},{"bike_id":"51440785-2105-4fe8-9ced-61f3b7fe58f6","system_id":"levelo_inurba_marseille","lat":43.33764,"lon":5.37448,"is_reserved":false,"is_disabled":false,"rental_uris":{"android":"levelo://app?vid=51440785-2105-4fe8-9ced-61f3b7fe58f6","ios":"levelo://app?vid=51440785-2105-4fe8-9ced-61f3b7fe58f6"},"vehicle_type_id":"4","last_reported":1728490223,"current_range_meters":36400,"station_id":"","pricing_plan_id":"cebpf4jnsgd1na2vs0mg"},{"bike_id":"a368d76e-e9c1-467f-82cb-b9fe018668fa","system_id":"levelo_inurba_marseille","lat":43.33759,"lon":5.37448,"is_reserved":false,"is_disabled":false,"rental_uris":{"android":"levelo://app?vid=a368d76e-e9c1-467f-82cb-b9fe018668fa","ios":"levelo://app?vid=a368d76e-e9c1-467f-82cb-b9fe018668fa"},"vehicle_type_id":"4","last_reported":1728490223,"current_range_meters":36800,"station_id":"ce4rr2p2rcd13i802rgg","pricing_plan_id":"cebpf4jnsgd1na2vs0mg"},{"bike_id":"72b6e33e-ca3d-4222-9ce0-e5ff63234242","system_id":"levelo_inurba_marseille","lat":43.28105,"lon":5.37834,"is_reserved":false,"is_disabled":false,"rental_uris":{"android":"levelo://app?vid=72b6e33e-ca3d-4222-9ce0-e5ff63234242","ios":"levelo://app?vid=72b6e33e-ca3d-4222-9ce0-e5ff63234242"},"vehicle_type_id":"4","last_reported":1728490223,"current_range_meters":24800,"station_id":"ce4bha12rcd13ifvqee0","pricing_plan_id":"cebpf4jnsgd1na2vs0mg"},{"bike_id":"1c034d1a-afec-4b9e-882c-ff4d7b8c8e9c","system_id":"levelo_inurba_marseille","lat":43.33746,"lon":5.37449,"is_reserved":false,"is_disabled":false,"rental_uris":{"android":"levelo://app?vid=1c034d1a-afec-4b9e-882c-ff4d7b8c8e9c","ios":"levelo://app?vid=1c034d1a-afec-4b9e-882c-ff4d7b8c8e9c"},"vehicle_type_id":"4","last_reported":1728490223,"current_range_meters":24000,"station_id":"ce4rr2p2rcd13i802rgg","pricing_plan_id":"cebpf4jnsgd1na2vs0mg"},{"bike_id":"3e3c199b-5889-41b5-8ef3-932feffcfbb0","system_id":"levelo_inurba_marseille","lat":43.23058,"lon":5.35489,"is_reserved":false,"is_disabled":false,"rental_uris":{"android":"levelo://app?vid=3e3c199b-5889-41b5-8ef3-932feffcfbb0","ios":"levelo://app?vid=3e3c199b-5889-41b5-8ef3-932feffcfbb0"},"vehicle_type_id":"4","last_reported":1728490223,"current_range_meters":25200,"station_id":"cpo3342slgdg3j2ifvpg","pricing_plan_id":"cebpf4jnsgd1na2vs0mg"},{"bike_id":"1818682c-acf3-4b59-a5f8-b4fe4cc1eacf","system_id":"levelo_inurba_marseille","lat":43.29543,"lon":5.38544,"is_reserved":false,"is_disabled":false,"rental_uris":{"android":"levelo://app?vid=1818682c-acf3-4b59-a5f8-b4fe4cc1eacf","ios":"levelo://app?vid=1818682c-acf3-4b59-a5f8-b4fe4cc1eacf"},"vehicle_type_id":"4","last_reported":1728490223,"current_range_meters":28000,"station_id":"ce4bgih2rcd13ifvqba0","pricing_plan_id":"cebpf4jnsgd1na2vs0mg"},{"bike_id":"7fcb7e36-0d26-41d0-ac04-a56646146102","system_id":"levelo_inurba_marseille","lat":43.22933,"lon":5.35379,"is_reserved":false,"is_disabled":false,"rental_uris":{"android":"levelo://app?vid=7fcb7e36-0d26-41d0-ac04-a56646146102","ios":"levelo://app?vid=7fcb7e36-0d26-41d0-ac04-a56646146102"},"vehicle_type_id":"4","last_reported":1728490223,"current_range_meters":16000,"station_id":"cpo3532slgdg3j2ikp40","pricing_plan_id":"cebpf4jnsgd1na2vs0mg"},{"bike_id":"28ec1133-47bf-44b0-aaec-00afc934f936","system_id":"levelo_inurba_marseille","lat":43.29541,"lon":5.38543,"is_reserved":false,"is_disabled":false,"rental_uris":{"android":"levelo://app?vid=28ec1133-47bf-44b0-aaec-00afc934f936","ios":"levelo://app?vid=28ec1133-47bf-44b0-aaec-00afc934f936"},"vehicle_type_id":"4","last_reported":1728490223,"current_range_meters":30400,"station_id":"ce4bgih2rcd13ifvqba0","pricing_plan_id":"cebpf4jnsgd1na2vs0mg"},{"bike_id":"c121f1bc-4e90-4968-bc70-b16b384e50c2","system_id":"levelo_inurba_marseille","lat":43.27185,"lon":5.40992,"is_reserved":false,"is_disabled":false,"rental_uris":{"android":"levelo://app?vid=c121f1bc-4e90-4968-bc70-b16b384e50c2","ios":"levelo://app?vid=c121f1bc-4e90-4968-bc70-b16b384e50c2"},"vehicle_type_id":"4","last_reported":1728490223,"current_range_meters":28800,"station_id":"ce4bhl12rcd13ifvqgf0","pricing_plan_id":"cebpf4jnsgd1na2vs0mg"},{"bike_id":"2e4e52ae-7a22-488f-b24f-6c734df05ab9","system_id":"levelo_inurba_marseille","lat":43.23191,"lon":5.3555,"is_reserved":false,"is_disabled":false,"rental_uris":{"android":"levelo://app?vid=2e4e52ae-7a22-488f-b24f-6c734df05ab9","ios":"levelo://app?vid=2e4e52ae-7a22-488f-b24f-6c734df05ab9"},"vehicle_type_id":"4","last_reported":1728490223,"current_range_meters":32800,"station_id":"ce4bhu92rcd13ifvqi70","pricing_plan_id":"cebpf4jnsgd1na2vs0mg"},{"bike_id":"7ae8331c-ff2e-402f-8b12-e9912d0758b5","system_id":"levelo_inurba_marseille","lat":43.3173,"lon":5.42396,"is_reserved":false,"is_disabled":false,"rental_uris":{"android":"levelo://app?vid=7ae8331c-ff2e-402f-8b12-e9912d0758b5","ios":"levelo://app?vid=7ae8331c-ff2e-402f-8b12-e9912d0758b5"},"vehicle_type_id":"4","last_reported":1728490223,"current_range_meters":34800,"station_id":"ce4bhp92rcd13ifvqhbg","pricing_plan_id":"cebpf4jnsgd1na2vs0mg"},{"bike_id":"59c893c5-1149-42f6-b12c-e879ba247010","system_id":"levelo_inurba_marseille","lat":43.337444,"lon":5.374475,"is_reserved":false,"is_disabled":false,"rental_uris":{"android":"levelo://app?vid=59c893c5-1149-42f6-b12c-e879ba247010","ios":"levelo://app?vid=59c893c5-1149-42f6-b12c-e879ba247010"},"vehicle_type_id":"4","last_reported":1728490223,"current_range_meters":36000,"station_id":"","pricing_plan_id":"cebpf4jnsgd1na2vs0mg"},{"bike_id":"b4cf25c5-f6d5-45e7-ad29-d11ecf0807b3","system_id":"levelo_inurba_marseille","lat":43.27591,"lon":5.3609,"is_reserved":false,"is_disabled":false,"rental_uris":{"android":"levelo://app?vid=b4cf25c5-f6d5-45e7-ad29-d11ecf0807b3","ios":"levelo://app?vid=b4cf25c5-f6d5-45e7-ad29-d11ecf0807b3"},"vehicle_type_id":"4","last_reported":1728490223,"current_range_meters":9600,"station_id":"ce4bgj92rcd13ifvqbe0","pricing_plan_id":"cebpf4jnsgd1na2vs0mg"},{"bike_id":"f12ac68d-1d58-4d95-84a5-28943168a2f8","system_id":"levelo_inurba_marseille","lat":43.314636,"lon":5.378515,"is_reserved":false,"is_disabled":false,"rental_uris":{"android":"levelo://app?vid=f12ac68d-1d58-4d95-84a5-28943168a2f8","ios":"levelo://app?vid=f12ac68d-1d58-4d95-84a5-28943168a2f8"},"vehicle_type_id":"4","last_reported":1728490223,"current_range_meters":29600,"station_id":"","pricing_plan_id":"cebpf4jnsgd1na2vs0mg"},{"bike_id":"f95a588b-6d9b-4055-aab7-d2226664b295","system_id":"levelo_inurba_marseille","lat":43.24944,"lon":5.38925,"is_reserved":false,"is_disabled":false,"rental_uris":{"android":"levelo://app?vid=f95a588b-6d9b-4055-aab7-d2226664b295","ios":"levelo://app?vid=f95a588b-6d9b-4055-aab7-d2226664b295"},"vehicle_type_id":"4","last_reported":1728490223,"current_range_meters":18800,"station_id":"","pricing_plan_id":"cebpf4jnsgd1na2vs0mg"},{"bike_id":"c9a542bd-e006-4018-9cb8-303dc149a039","system_id":"levelo_inurba_marseille","lat":43.258623,"lon":5.398973,"is_reserved":false,"is_disabled":false,"rental_uris":{"android":"levelo://app?vid=c9a542bd-e006-4018-9cb8-303dc149a039","ios":"levelo://app?vid=c9a542bd-e006-4018-9cb8-303dc149a039"},"vehicle_type_id":"4","last_reported":1728490223,"current_range_meters":36000,"station_id":"ce4bhh12rcd13ifvqfg0","pricing_plan_id":"cebpf4jnsgd1na2vs0mg"},{"bike_id":"2851bab0-dc61-4198-a528-f8b890e567d9","system_id":"levelo_inurba_marseille","lat":43.28844,"lon":5.35855,"is_reserved":false,"is_disabled":false,"rental_uris":{"android":"levelo://app?vid=2851bab0-dc61-4198-a528-f8b890e567d9","ios":"levelo://app?vid=2851bab0-dc61-4198-a528-f8b890e567d9"},"vehicle_type_id":"4","last_reported":1728490223,"current_range_meters":33600,"station_id":"ce4bhb12rcd13ifvqem0","pricing_plan_id":"cebpf4jnsgd1na2vs0mg"},{"bike_id":"8ce9b618-6ab8-4d0e-88c5-db1cd0bf04b8","system_id":"levelo_inurba_marseille","lat":43.31763,"lon":5.3902,"is_reserved":false,"is_disabled":false,"rental_uris":{"android":"levelo://app?vid=8ce9b618-6ab8-4d0e-88c5-db1cd0bf04b8","ios":"levelo://app?vid=8ce9b618-6ab8-4d0e-88c5-db1cd0bf04b8"},"vehicle_type_id":"4","last_reported":1728490223,"current_range_meters":20800,"station_id":"ce4bhqp2rcd13ifvqhng","pricing_plan_id":"cebpf4jnsgd1na2vs0mg"},{"bike_id":"dc495036-479f-4f0d-a031-62911c10a975","system_id":"levelo_inurba_marseille","lat":43.23198,"lon":5.35546,"is_reserved":false,"is_disabled":false,"rental_uris":{"android":"levelo://app?vid=dc495036-479f-4f0d-a031-62911c10a975","ios":"levelo://app?vid=dc495036-479f-4f0d-a031-62911c10a975"},"vehicle_type_id":"4","last_reported":1728490223,"current_range_meters":8000,"station_id":"ce4bhu92rcd13ifvqi70","pricing_plan_id":"cebpf4jnsgd1na2vs0mg"},{"bike_id":"469333ae-991d-4378-b670-ecb8a4559257","system_id":"levelo_inurba_marseille","lat":43.32003,"lon":5.41442,"is_reserved":false,"is_disabled":false,"rental_uris":{"android":"levelo://app?vid=469333ae-991d-4378-b670-ecb8a4559257","ios":"levelo://app?vid=469333ae-991d-4378-b670-ecb8a4559257"},"vehicle_type_id":"4","last_reported":1728490223,"current_range_meters":28000,"station_id":"ce4bhq92rcd13ifvqhkg","pricing_plan_id":"cebpf4jnsgd1na2vs0mg"},{"bike_id":"12029e0a-16b4-4bcc-9928-56408d148156","system_id":"levelo_inurba_marseille","lat":43.27174,"lon":5.40995,"is_reserved":false,"is_disabled":false,"rental_uris":{"android":"levelo://app?vid=12029e0a-16b4-4bcc-9928-56408d148156","ios":"levelo://app?vid=12029e0a-16b4-4bcc-9928-56408d148156"},"vehicle_type_id":"4","last_reported":1728490223,"current_range_meters":2800,"station_id":"ce4bhl12rcd13ifvqgf0","pricing_plan_id":"cebpf4jnsgd1na2vs0mg"},{"bike_id":"575e9efc-2e3e-41e0-82cd-69b3c2bee70e","system_id":"levelo_inurba_marseille","lat":43.29788,"lon":5.39354,"is_reserved":false,"is_disabled":false,"rental_uris":{"android":"levelo://app?vid=575e9efc-2e3e-41e0-82cd-69b3c2bee70e","ios":"levelo://app?vid=575e9efc-2e3e-41e0-82cd-69b3c2bee70e"},"vehicle_type_id":"4","last_reported":1728490223,"current_range_meters":27600,"station_id":"chh1huq6cuj3fo74tm60","pricing_plan_id":"cebpf4jnsgd1na2vs0mg"},{"bike_id":"50eb3747-2257-4292-8378-8225ae82bf3c","system_id":"levelo_inurba_marseille","lat":43.31536,"lon":5.38031,"is_reserved":false,"is_disabled":false,"rental_uris":{"android":"levelo://app?vid=50eb3747-2257-4292-8378-8225ae82bf3c","ios":"levelo://app?vid=50eb3747-2257-4292-8378-8225ae82bf3c"},"vehicle_type_id":"4","last_reported":1728490223,"current_range_meters":38800,"station_id":"ce4bhsp2rcd13ifvqi50","pricing_plan_id":"cebpf4jnsgd1na2vs0mg"},{"bike_id":"2c5f01a2-78d5-453f-8e21-329290c6856f","system_id":"levelo_inurba_marseille","lat":43.28629,"lon":5.35119,"is_reserved":false,"is_disabled":false,"rental_uris":{"android":"levelo://app?vid=2c5f01a2-78d5-453f-8e21-329290c6856f","ios":"levelo://app?vid=2c5f01a2-78d5-453f-8e21-329290c6856f"},"vehicle_type_id":"4","last_reported":1728490223,"current_range_meters":36400,"station_id":"ce4bhch2rcd13ifvqeug","pricing_plan_id":"cebpf4jnsgd1na2vs0mg"},{"bike_id":"c3c31d12-52b1-45c1-a79d-2b64b1656a37","system_id":"levelo_inurba_marseille","lat":43.308,"lon":5.43524,"is_reserved":false,"is_disabled":false,"rental_uris":{"android":"levelo://app?vid=c3c31d12-52b1-45c1-a79d-2b64b1656a37","ios":"levelo://app?vid=c3c31d12-52b1-45c1-a79d-2b64b1656a37"},"vehicle_type_id":"4","last_reported":1728490223,"current_range_meters":22000,"station_id":"ce4bhph2rcd13ifvqheg","pricing_plan_id":"cebpf4jnsgd1na2vs0mg"},{"bike_id":"1abedf1c-c274-4219-9a69-4f170de6e459","system_id":"levelo_inurba_marseille","lat":43.23191,"lon":5.35568,"is_reserved":false,"is_disabled":false,"rental_uris":{"android":"levelo://app?vid=1abedf1c-c274-4219-9a69-4f170de6e459","ios":"levelo://app?vid=1abedf1c-c274-4219-9a69-4f170de6e459"},"vehicle_type_id":"4","last_reported":1728490223,"current_range_meters":4400,"station_id":"ce4bhu92rcd13ifvqi70","pricing_plan_id":"cebpf4jnsgd1na2vs0mg"},{"bike_id":"11863676-ef88-444f-84ac-cab465bfca94","system_id":"levelo_inurba_marseille","lat":43.31762,"lon":5.39022,"is_reserved":false,"is_disabled":false,"rental_uris":{"android":"levelo://app?vid=11863676-ef88-444f-84ac-cab465bfca94","ios":"levelo://app?vid=11863676-ef88-444f-84ac-cab465bfca94"},"vehicle_type_id":"4","last_reported":1728490223,"current_range_meters":38800,"station_id":"ce4bhqp2rcd13ifvqhng","pricing_plan_id":"cebpf4jnsgd1na2vs0mg"},{"bike_id":"e151746d-2a92-4f62-b4cf-071e0bbfa2f0","system_id":"levelo_inurba_marseille","lat":43.29851,"lon":5.36291,"is_reserved":false,"is_disabled":false,"rental_uris":{"android":"levelo://app?vid=e151746d-2a92-4f62-b4cf-071e0bbfa2f0","ios":"levelo://app?vid=e151746d-2a92-4f62-b4cf-071e0bbfa2f0"},"vehicle_type_id":"4","last_reported":1728490223,"current_range_meters":38800,"station_id":"ce4bgpp2rcd13ifvqc3g","pricing_plan_id":"cebpf4jnsgd1na2vs0mg"},{"bike_id":"5c124aab-26d5-4188-b332-7f660b962a35","system_id":"levelo_inurba_marseille","lat":43.33025,"lon":5.39046,"is_reserved":false,"is_disabled":false,"rental_uris":{"android":"levelo://app?vid=5c124aab-26d5-4188-b332-7f660b962a35","ios":"levelo://app?vid=5c124aab-26d5-4188-b332-7f660b962a35"},"vehicle_type_id":"4","last_reported":1728490223,"current_range_meters":21600,"station_id":"ce4bhr92rcd13ifvqhrg","pricing_plan_id":"cebpf4jnsgd1na2vs0mg"},{"bike_id":"e8325acd-8ff4-470b-8e27-26045a2a6261","system_id":"levelo_inurba_marseille","lat":43.23061,"lon":5.35486,"is_reserved":false,"is_disabled":false,"rental_uris":{"android":"levelo://app?vid=e8325acd-8ff4-470b-8e27-26045a2a6261","ios":"levelo://app?vid=e8325acd-8ff4-470b-8e27-26045a2a6261"},"vehicle_type_id":"4","last_reported":1728490223,"current_range_meters":26000,"station_id":"cpo3342slgdg3j2ifvpg","pricing_plan_id":"cebpf4jnsgd1na2vs0mg"},{"bike_id":"74dda7af-a4ab-46fd-8c59-53010d3fec68","system_id":"levelo_inurba_marseille","lat":43.23193,"lon":5.35555,"is_reserved":false,"is_disabled":false,"rental_uris":{"android":"levelo://app?vid=74dda7af-a4ab-46fd-8c59-53010d3fec68","ios":"levelo://app?vid=74dda7af-a4ab-46fd-8c59-53010d3fec68"},"vehicle_type_id":"4","last_reported":1728490223,"current_range_meters":34800,"station_id":"ce4bhu92rcd13ifvqi70","pricing_plan_id":"cebpf4jnsgd1na2vs0mg"},{"bike_id":"7cbf4166-9365-441e-ad69-819b8b137b2f","system_id":"levelo_inurba_marseille","lat":43.32492,"lon":5.366923,"is_reserved":false,"is_disabled":false,"rental_uris":{"android":"levelo://app?vid=7cbf4166-9365-441e-ad69-819b8b137b2f","ios":"levelo://app?vid=7cbf4166-9365-441e-ad69-819b8b137b2f"},"vehicle_type_id":"4","last_reported":1728490223,"current_range_meters":4000,"station_id":"ce4bhs12rcd13ifvqhvg","pricing_plan_id":"cebpf4jnsgd1na2vs0mg"},{"bike_id":"21266072-0013-464b-af4b-9f8d043d5f8b","system_id":"levelo_inurba_marseille","lat":43.27372,"lon":5.36265,"is_reserved":false,"is_disabled":false,"rental_uris":{"android":"levelo://app?vid=21266072-0013-464b-af4b-9f8d043d5f8b","ios":"levelo://app?vid=21266072-0013-464b-af4b-9f8d043d5f8b"},"vehicle_type_id":"4","last_reported":1728490223,"current_range_meters":38800,"station_id":"ce4bhbh2rcd13ifvqeo0","pricing_plan_id":"cebpf4jnsgd1na2vs0mg"},{"bike_id":"e1978593-6520-4995-a5de-d0b6bc237ad6","system_id":"levelo_inurba_marseille","lat":43.295229,"lon":5.39032,"is_reserved":false,"is_disabled":false,"rental_uris":{"android":"levelo://app?vid=e1978593-6520-4995-a5de-d0b6bc237ad6","ios":"levelo://app?vid=e1978593-6520-4995-a5de-d0b6bc237ad6"},"vehicle_type_id":"4","last_reported":1728490223,"current_range_meters":5600,"station_id":"ce4bh3p2rcd13ifvqdp0","pricing_plan_id":"cebpf4jnsgd1na2vs0mg"},{"bike_id":"424bc671-a934-4a51-8189-e4614f33725f","system_id":"levelo_inurba_marseille","lat":43.28467,"lon":5.35887,"is_reserved":false,"is_disabled":false,"rental_uris":{"android":"levelo://app?vid=424bc671-a934-4a51-8189-e4614f33725f","ios":"levelo://app?vid=424bc671-a934-4a51-8189-e4614f33725f"},"vehicle_type_id":"4","last_reported":1728490223,"current_range_meters":20000,"station_id":"ce4bhah2rcd13ifvqei0","pricing_plan_id":"cebpf4jnsgd1na2vs0mg"},{"bike_id":"31e04b43-2cad-4d64-a9bb-822b428db524","system_id":"levelo_inurba_marseille","lat":43.262,"lon":5.37933,"is_reserved":false,"is_disabled":false,"rental_uris":{"android":"levelo://app?vid=31e04b43-2cad-4d64-a9bb-822b428db524","ios":"levelo://app?vid=31e04b43-2cad-4d64-a9bb-822b428db524"},"vehicle_type_id":"4","last_reported":1728490223,"current_range_meters":14000,"station_id":"ce4bhjp2rcd13ifvqg90","pricing_plan_id":"cebpf4jnsgd1na2vs0mg"},{"bike_id":"d20cdc04-cfe9-4c47-a63f-de9428fac62d","system_id":"levelo_inurba_marseille","lat":43.31716,"lon":5.37757,"is_reserved":false,"is_disabled":false,"rental_uris":{"android":"levelo://app?vid=d20cdc04-cfe9-4c47-a63f-de9428fac62d","ios":"levelo://app?vid=d20cdc04-cfe9-4c47-a63f-de9428fac62d"},"vehicle_type_id":"4","last_reported":1728490223,"current_range_meters":20800,"station_id":"ce4bgth2rcd13ifvqch0","pricing_plan_id":"cebpf4jnsgd1na2vs0mg"},{"bike_id":"afd65a1d-c3e9-4faf-b7af-2c3a555f7e3b","system_id":"levelo_inurba_marseille","lat":43.27993,"lon":5.41657,"is_reserved":false,"is_disabled":false,"rental_uris":{"android":"levelo://app?vid=afd65a1d-c3e9-4faf-b7af-2c3a555f7e3b","ios":"levelo://app?vid=afd65a1d-c3e9-4faf-b7af-2c3a555f7e3b"},"vehicle_type_id":"4","last_reported":1728490223,"current_range_meters":30000,"station_id":"ce4bho12rcd13ifvqh1g","pricing_plan_id":"cebpf4jnsgd1na2vs0mg"},{"bike_id":"637016b3-f1f6-43c5-bea9-915dc56a5c9b","system_id":"levelo_inurba_marseille","lat":43.29194,"lon":5.35809,"is_reserved":false,"is_disabled":false,"rental_uris":{"android":"levelo://app?vid=637016b3-f1f6-43c5-bea9-915dc56a5c9b","ios":"levelo://app?vid=637016b3-f1f6-43c5-bea9-915dc56a5c9b"},"vehicle_type_id":"4","last_reported":1728490223,"current_range_meters":2000,"station_id":"ce4bhb12rcd13ifvqel0","pricing_plan_id":"cebpf4jnsgd1na2vs0mg"},{"bike_id":"fbfecab9-671f-45b0-9194-a7b2a9c09610","system_id":"levelo_inurba_marseille","lat":43.33024,"lon":5.39042,"is_reserved":false,"is_disabled":false,"rental_uris":{"android":"levelo://app?vid=fbfecab9-671f-45b0-9194-a7b2a9c09610","ios":"levelo://app?vid=fbfecab9-671f-45b0-9194-a7b2a9c09610"},"vehicle_type_id":"4","last_reported":1728490223,"current_range_meters":25600,"station_id":"ce4bhr92rcd13ifvqhrg","pricing_plan_id":"cebpf4jnsgd1na2vs0mg"},{"bike_id":"c44a8777-4c5f-4c50-bbfa-6d4f6a1abc87","system_id":"levelo_inurba_marseille","lat":43.22928,"lon":5.35375,"is_reserved":false,"is_disabled":false,"rental_uris":{"android":"levelo://app?vid=c44a8777-4c5f-4c50-bbfa-6d4f6a1abc87","ios":"levelo://app?vid=c44a8777-4c5f-4c50-bbfa-6d4f6a1abc87"},"vehicle_type_id":"4","last_reported":1728490223,"current_range_meters":38800,"station_id":"cpo3532slgdg3j2ikp40","pricing_plan_id":"cebpf4jnsgd1na2vs0mg"},{"bike_id":"3ae51e81-852c-4d48-ac01-f559348a1676","system_id":"levelo_inurba_marseille","lat":43.30355,"lon":5.41885,"is_reserved":false,"is_disabled":false,"rental_uris":{"android":"levelo://app?vid=3ae51e81-852c-4d48-ac01-f559348a1676","ios":"levelo://app?vid=3ae51e81-852c-4d48-ac01-f559348a1676"},"vehicle_type_id":"4","last_reported":1728490223,"current_range_meters":17200,"station_id":"ce4bhop2rcd13ifvqh7g","pricing_plan_id":"cebpf4jnsgd1na2vs0mg"},{"bike_id":"a30984c5-5fc9-4729-a379-06bee78a48ef","system_id":"levelo_inurba_marseille","lat":43.297821,"lon":5.370904,"is_reserved":false,"is_disabled":false,"rental_uris":{"android":"levelo://app?vid=a30984c5-5fc9-4729-a379-06bee78a48ef","ios":"levelo://app?vid=a30984c5-5fc9-4729-a379-06bee78a48ef"},"vehicle_type_id":"4","last_reported":1728490223,"current_range_meters":31200,"station_id":"ce4bgop2rcd13ifvqc1g","pricing_plan_id":"cebpf4jnsgd1na2vs0mg"},{"bike_id":"880dd319-a320-4007-acfc-067012478cf6","system_id":"levelo_inurba_marseille","lat":43.28858,"lon":5.35858,"is_reserved":false,"is_disabled":false,"rental_uris":{"android":"levelo://app?vid=880dd319-a320-4007-acfc-067012478cf6","ios":"levelo://app?vid=880dd319-a320-4007-acfc-067012478cf6"},"vehicle_type_id":"4","last_reported":1728490223,"current_range_meters":8000,"station_id":"ce4bhb12rcd13ifvqem0","pricing_plan_id":"cebpf4jnsgd1na2vs0mg"},{"bike_id":"d4a6c4cf-bf9f-4efc-9e86-7a0188f7e690","system_id":"levelo_inurba_marseille","lat":43.28614,"lon":5.35106,"is_reserved":false,"is_disabled":false,"rental_uris":{"android":"levelo://app?vid=d4a6c4cf-bf9f-4efc-9e86-7a0188f7e690","ios":"levelo://app?vid=d4a6c4cf-bf9f-4efc-9e86-7a0188f7e690"},"vehicle_type_id":"4","last_reported":1728490223,"current_range_meters":10000,"station_id":"ce4bhch2rcd13ifvqeug","pricing_plan_id":"cebpf4jnsgd1na2vs0mg"},{"bike_id":"e5d5f82c-1284-436a-89bf-ff87b89cde18","system_id":"levelo_inurba_marseille","lat":43.297017,"lon":5.365792,"is_reserved":false,"is_disabled":false,"rental_uris":{"android":"levelo://app?vid=e5d5f82c-1284-436a-89bf-ff87b89cde18","ios":"levelo://app?vid=e5d5f82c-1284-436a-89bf-ff87b89cde18"},"vehicle_type_id":"4","last_reported":1728490223,"current_range_meters":4000,"station_id":"ce4bgn12rcd13ifvqbt0","pricing_plan_id":"cebpf4jnsgd1na2vs0mg"},{"bike_id":"f4eb78c4-2b53-4113-a95c-8edad396204e","system_id":"levelo_inurba_marseille","lat":43.33727,"lon":5.39181,"is_reserved":false,"is_disabled":false,"rental_uris":{"android":"levelo://app?vid=f4eb78c4-2b53-4113-a95c-8edad396204e","ios":"levelo://app?vid=f4eb78c4-2b53-4113-a95c-8edad396204e"},"vehicle_type_id":"4","last_reported":1728490223,"current_range_meters":38800,"station_id":"ce4bhr92rcd13ifvqhsg","pricing_plan_id":"cebpf4jnsgd1na2vs0mg"},{"bike_id":"a53b9ae4-6567-42d7-bfbc-4ce278876d0f","system_id":"levelo_inurba_marseille","lat":43.23058,"lon":5.35504,"is_reserved":false,"is_disabled":false,"rental_uris":{"android":"levelo://app?vid=a53b9ae4-6567-42d7-bfbc-4ce278876d0f","ios":"levelo://app?vid=a53b9ae4-6567-42d7-bfbc-4ce278876d0f"},"vehicle_type_id":"4","last_reported":1728490223,"current_range_meters":38800,"station_id":"cpo3342slgdg3j2ifvpg","pricing_plan_id":"cebpf4jnsgd1na2vs0mg"},{"bike_id":"24a46724-eff5-41eb-af8a-ff1d04c42764","system_id":"levelo_inurba_marseille","lat":43.29569,"lon":5.39991,"is_reserved":false,"is_disabled":false,"rental_uris":{"android":"levelo://app?vid=24a46724-eff5-41eb-af8a-ff1d04c42764","ios":"levelo://app?vid=24a46724-eff5-41eb-af8a-ff1d04c42764"},"vehicle_type_id":"4","last_reported":1728490223,"current_range_meters":28800,"station_id":"ce4bh312rcd13ifvqdj0","pricing_plan_id":"cebpf4jnsgd1na2vs0mg"},{"bike_id":"ff8ddd26-15ef-4ac7-afab-1d91a89d3446","system_id":"levelo_inurba_marseille","lat":43.24665,"lon":5.38166,"is_reserved":false,"is_disabled":false,"rental_uris":{"android":"levelo://app?vid=ff8ddd26-15ef-4ac7-afab-1d91a89d3446","ios":"levelo://app?vid=ff8ddd26-15ef-4ac7-afab-1d91a89d3446"},"vehicle_type_id":"4","last_reported":1728490223,"current_range_meters":8000,"station_id":"ce4bhih2rcd13ifvqfr0","pricing_plan_id":"cebpf4jnsgd1na2vs0mg"},{"bike_id":"2edbf6a5-8067-41ec-a2f1-591614215f01","system_id":"levelo_inurba_marseille","lat":43.284149,"lon":5.34969,"is_reserved":false,"is_disabled":false,"rental_uris":{"android":"levelo://app?vid=2edbf6a5-8067-41ec-a2f1-591614215f01","ios":"levelo://app?vid=2edbf6a5-8067-41ec-a2f1-591614215f01"},"vehicle_type_id":"4","last_reported":1728490223,"current_range_meters":35200,"station_id":"ce4bhbh2rcd13ifvqepg","pricing_plan_id":"cebpf4jnsgd1na2vs0mg"},{"bike_id":"c31bf2a3-d0fb-47d1-9664-4e3b6382e15c","system_id":"levelo_inurba_marseille","lat":43.3376,"lon":5.37444,"is_reserved":false,"is_disabled":false,"rental_uris":{"android":"levelo://app?vid=c31bf2a3-d0fb-47d1-9664-4e3b6382e15c","ios":"levelo://app?vid=c31bf2a3-d0fb-47d1-9664-4e3b6382e15c"},"vehicle_type_id":"4","last_reported":1728490223,"current_range_meters":27200,"station_id":"ce4rr2p2rcd13i802rgg","pricing_plan_id":"cebpf4jnsgd1na2vs0mg"},{"bike_id":"c2b18262-adce-4301-9291-8f7c96cf9e8f","system_id":"levelo_inurba_marseille","lat":43.23054,"lon":5.3549,"is_reserved":false,"is_disabled":false,"rental_uris":{"android":"levelo://app?vid=c2b18262-adce-4301-9291-8f7c96cf9e8f","ios":"levelo://app?vid=c2b18262-adce-4301-9291-8f7c96cf9e8f"},"vehicle_type_id":"4","last_reported":1728490223,"current_range_meters":27600,"station_id":"cpo3342slgdg3j2ifvpg","pricing_plan_id":"cebpf4jnsgd1na2vs0mg"},{"bike_id":"08463dbb-26e4-467f-a9b8-9cc4ed8e3154","system_id":"levelo_inurba_marseille","lat":43.27182,"lon":5.40986,"is_reserved":false,"is_disabled":false,"rental_uris":{"android":"levelo://app?vid=08463dbb-26e4-467f-a9b8-9cc4ed8e3154","ios":"levelo://app?vid=08463dbb-26e4-467f-a9b8-9cc4ed8e3154"},"vehicle_type_id":"4","last_reported":1728490223,"current_range_meters":9200,"station_id":"ce4bhl12rcd13ifvqgf0","pricing_plan_id":"cebpf4jnsgd1na2vs0mg"},{"bike_id":"bd2150cb-8489-40c9-8cec-552c44b2acd4","system_id":"levelo_inurba_marseille","lat":43.311087,"lon":5.377217,"is_reserved":false,"is_disabled":false,"rental_uris":{"android":"levelo://app?vid=bd2150cb-8489-40c9-8cec-552c44b2acd4","ios":"levelo://app?vid=bd2150cb-8489-40c9-8cec-552c44b2acd4"},"vehicle_type_id":"4","last_reported":1728490223,"current_range_meters":31200,"station_id":"ce4bgt92rcd13ifvqcg0","pricing_plan_id":"cebpf4jnsgd1na2vs0mg"},{"bike_id":"e00bc798-024e-4c5d-9035-c6985564c500","system_id":"levelo_inurba_marseille","lat":43.305359,"lon":5.365615,"is_reserved":false,"is_disabled":false,"rental_uris":{"android":"levelo://app?vid=e00bc798-024e-4c5d-9035-c6985564c500","ios":"levelo://app?vid=e00bc798-024e-4c5d-9035-c6985564c500"},"vehicle_type_id":"4","last_reported":1728490223,"current_range_meters":23200,"station_id":"ce4bgs12rcd13ifvqcag","pricing_plan_id":"cebpf4jnsgd1na2vs0mg"},{"bike_id":"af0f3e95-8120-4194-a4ac-fe74fec4f680","system_id":"levelo_inurba_marseille","lat":43.29038,"lon":5.38653,"is_reserved":false,"is_disabled":false,"rental_uris":{"android":"levelo://app?vid=af0f3e95-8120-4194-a4ac-fe74fec4f680","ios":"levelo://app?vid=af0f3e95-8120-4194-a4ac-fe74fec4f680"},"vehicle_type_id":"4","last_reported":1728490223,"current_range_meters":7200,"station_id":"ce4bh4p2rcd13ifvqe0g","pricing_plan_id":"cebpf4jnsgd1na2vs0mg"},{"bike_id":"20520d24-66dd-4437-9976-6b63892a310b","system_id":"levelo_inurba_marseille","lat":43.23192,"lon":5.35545,"is_reserved":false,"is_disabled":false,"rental_uris":{"android":"levelo://app?vid=20520d24-66dd-4437-9976-6b63892a310b","ios":"levelo://app?vid=20520d24-66dd-4437-9976-6b63892a310b"},"vehicle_type_id":"4","last_reported":1728490223,"current_range_meters":36400,"station_id":"ce4bhu92rcd13ifvqi70","pricing_plan_id":"cebpf4jnsgd1na2vs0mg"},{"bike_id":"8f2867db-06b5-4c90-a2e3-a73ccc73e6d4","system_id":"levelo_inurba_marseille","lat":43.302842,"lon":5.368567,"is_reserved":false,"is_disabled":false,"rental_uris":{"android":"levelo://app?vid=8f2867db-06b5-4c90-a2e3-a73ccc73e6d4","ios":"levelo://app?vid=8f2867db-06b5-4c90-a2e3-a73ccc73e6d4"},"vehicle_type_id":"4","last_reported":1728490223,"current_range_meters":22400,"station_id":"ce4bgqh2rcd13ifvqc5g","pricing_plan_id":"cebpf4jnsgd1na2vs0mg"},{"bike_id":"8a38bafc-95c5-4b36-ad00-6eb97925dbd9","system_id":"levelo_inurba_marseille","lat":43.23186,"lon":5.39985,"is_reserved":false,"is_disabled":false,"rental_uris":{"android":"levelo://app?vid=8a38bafc-95c5-4b36-ad00-6eb97925dbd9","ios":"levelo://app?vid=8a38bafc-95c5-4b36-ad00-6eb97925dbd9"},"vehicle_type_id":"4","last_reported":1728490223,"current_range_meters":4800,"station_id":"ce4bhn12rcd13ifvqgqg","pricing_plan_id":"cebpf4jnsgd1na2vs0mg"},{"bike_id":"ade5f3a2-8caa-47ca-9109-04b9b2afde25","system_id":"levelo_inurba_marseille","lat":43.33022,"lon":5.39052,"is_reserved":false,"is_disabled":false,"rental_uris":{"android":"levelo://app?vid=ade5f3a2-8caa-47ca-9109-04b9b2afde25","ios":"levelo://app?vid=ade5f3a2-8caa-47ca-9109-04b9b2afde25"},"vehicle_type_id":"4","last_reported":1728490223,"current_range_meters":39200,"station_id":"ce4bhr92rcd13ifvqhrg","pricing_plan_id":"cebpf4jnsgd1na2vs0mg"},{"bike_id":"96a6ce99-6395-4b0d-8d90-f00be2724c14","system_id":"levelo_inurba_marseille","lat":43.23059,"lon":5.35489,"is_reserved":false,"is_disabled":false,"rental_uris":{"android":"levelo://app?vid=96a6ce99-6395-4b0d-8d90-f00be2724c14","ios":"levelo://app?vid=96a6ce99-6395-4b0d-8d90-f00be2724c14"},"vehicle_type_id":"4","last_reported":1728490223,"current_range_meters":8800,"station_id":"cpo3342slgdg3j2ifvpg","pricing_plan_id":"cebpf4jnsgd1na2vs0mg"},{"bike_id":"930806b7-7dfb-4cea-9081-837684b6a200","system_id":"levelo_inurba_marseille","lat":43.31533,"lon":5.38024,"is_reserved":false,"is_disabled":false,"rental_uris":{"android":"levelo://app?vid=930806b7-7dfb-4cea-9081-837684b6a200","ios":"levelo://app?vid=930806b7-7dfb-4cea-9081-837684b6a200"},"vehicle_type_id":"4","last_reported":1728490223,"current_range_meters":25200,"station_id":"ce4bhsp2rcd13ifvqi50","pricing_plan_id":"cebpf4jnsgd1na2vs0mg"},{"bike_id":"54b1471f-e47b-45ef-a827-2bf9e3a0ab1a","system_id":"levelo_inurba_marseille","lat":43.23055,"lon":5.35492,"is_reserved":false,"is_disabled":false,"rental_uris":{"android":"levelo://app?vid=54b1471f-e47b-45ef-a827-2bf9e3a0ab1a","ios":"levelo://app?vid=54b1471f-e47b-45ef-a827-2bf9e3a0ab1a"},"vehicle_type_id":"4","last_reported":1728490223,"current_range_meters":20800,"station_id":"cpo3342slgdg3j2ifvpg","pricing_plan_id":"cebpf4jnsgd1na2vs0mg"},{"bike_id":"65bc0918-6c20-4e78-a211-f6daddd963ed","system_id":"levelo_inurba_marseille","lat":43.23965,"lon":5.36632,"is_reserved":false,"is_disabled":false,"rental_uris":{"android":"levelo://app?vid=65bc0918-6c20-4e78-a211-f6daddd963ed","ios":"levelo://app?vid=65bc0918-6c20-4e78-a211-f6daddd963ed"},"vehicle_type_id":"4","last_reported":1728490223,"current_range_meters":34800,"station_id":"ce4bhi12rcd13ifvqfp0","pricing_plan_id":"cebpf4jnsgd1na2vs0mg"},{"bike_id":"b49455e1-e929-4ff4-9c80-7488ecae6d8d","system_id":"levelo_inurba_marseille","lat":43.25106,"lon":5.40323,"is_reserved":false,"is_disabled":false,"rental_uris":{"android":"levelo://app?vid=b49455e1-e929-4ff4-9c80-7488ecae6d8d","ios":"levelo://app?vid=b49455e1-e929-4ff4-9c80-7488ecae6d8d"},"vehicle_type_id":"4","last_reported":1728490223,"current_range_meters":11200,"station_id":"ce4bhlh2rcd13ifvqgig","pricing_plan_id":"cebpf4jnsgd1na2vs0mg"},{"bike_id":"291e434b-539b-4494-9f4b-7b79f5e14c9d","system_id":"levelo_inurba_marseille","lat":43.312202,"lon":5.368534,"is_reserved":false,"is_disabled":false,"rental_uris":{"android":"levelo://app?vid=291e434b-539b-4494-9f4b-7b79f5e14c9d","ios":"levelo://app?vid=291e434b-539b-4494-9f4b-7b79f5e14c9d"},"vehicle_type_id":"4","last_reported":1728490223,"current_range_meters":25600,"station_id":"ce4bgl92rcd13ifvqbq0","pricing_plan_id":"cebpf4jnsgd1na2vs0mg"},{"bike_id":"4ff5f79b-4737-4b9a-9520-b16d331d08e2","system_id":"levelo_inurba_marseille","lat":43.2925,"lon":5.40913,"is_reserved":false,"is_disabled":false,"rental_uris":{"android":"levelo://app?vid=4ff5f79b-4737-4b9a-9520-b16d331d08e2","ios":"levelo://app?vid=4ff5f79b-4737-4b9a-9520-b16d331d08e2"},"vehicle_type_id":"4","last_reported":1728490223,"current_range_meters":6800,"station_id":"ce4bh192rcd13ifvqdc0","pricing_plan_id":"cebpf4jnsgd1na2vs0mg"},{"bike_id":"6face807-fc5d-44e1-9573-8d7cb686435d","system_id":"levelo_inurba_marseille","lat":43.29046,"lon":5.3592,"is_reserved":false,"is_disabled":false,"rental_uris":{"android":"levelo://app?vid=6face807-fc5d-44e1-9573-8d7cb686435d","ios":"levelo://app?vid=6face807-fc5d-44e1-9573-8d7cb686435d"},"vehicle_type_id":"4","last_reported":1728490223,"current_range_meters":18000,"station_id":"ce4bh112rcd13ifvqd90","pricing_plan_id":"cebpf4jnsgd1na2vs0mg"},{"bike_id":"a0991b90-5dbc-44d2-b5bb-d5f425dc81c6","system_id":"levelo_inurba_marseille","lat":43.23196,"lon":5.35542,"is_reserved":false,"is_disabled":false,"rental_uris":{"android":"levelo://app?vid=a0991b90-5dbc-44d2-b5bb-d5f425dc81c6","ios":"levelo://app?vid=a0991b90-5dbc-44d2-b5bb-d5f425dc81c6"},"vehicle_type_id":"4","last_reported":1728490223,"current_range_meters":35200,"station_id":"ce4bhu92rcd13ifvqi70","pricing_plan_id":"cebpf4jnsgd1na2vs0mg"},