{"last_updated":1770021001,"ttl":60,"version":"2.2","data":{"bikes":[{"bike_id":"47ae05ef-903a-4f11-982f-63890f823fc1","system_id":"levelo_inurba_marseille","lat":43.28265,"lon":5.35068,"is_reserved":false,"is_disabled":false,"rental_uris":{"android":"levelo://app?vid=47ae05ef-903a-4f11-982f-63890f823fc1","ios":"levelo://app?vid=47ae05ef-903a-4f11-982f-63890f823fc1"},"vehicle_type_id":"4","last_reported":1770021001,"current_range_meters":2800,"station_id":"ce4bhbp2rcd13ifvqerg","pricing_plan_id":"cebpf4jnsgd1na2vs0mg"},{"bike_id":"a1c0b158-7176-4b74-9135-f79617900116","system_id":"levelo_inurba_marseille","lat":43.284798,"lon":5.384136,"is_reserved":false,"is_disabled":false,"rental_uris":{"android":"levelo://app?vid=a1c0b158-7176-4b74-9135-f79617900116","ios":"levelo://app?vid=a1c0b158-7176-4b74-9135-f79617900116"},"vehicle_type_id":"4","last_reported":1770021001,"current_range_meters":2800,"station_id":"ce4bh512rcd13ifvqe3g","pricing_plan_id":"cebpf4jnsgd1na2vs0mg"},{"bike_id":"3ba7ff2b-aa75-4edd-a097-2a01468d04db","system_id":"levelo_inurba_marseille","lat":43.24072,"lon":5.3778,"is_reserved":false,"is_disabled":false,"rental_uris":{"android":"levelo://app?vid=3ba7ff2b-aa75-4edd-a097-2a01468d04db","ios":"levelo://app?vid=3ba7ff2b-aa75-4edd-a097-2a01468d04db"},"vehicle_type_id":"4","last_reported":1770021001,"current_range_meters":2800,"station_id":"ce4bhnp2rcd13ifvqgvg","pricing_plan_id":"cebpf4jnsgd1na2vs0mg"},{"bike_id":"e2d33516-1e2d-4b38-8b76-3c54bee02e10","system_id":"levelo_inurba_marseille","lat":43.30133,"lon":5.3808,"is_reserved":false,"is_disabled":false,"rental_uris":{"android":"levelo://app?vid=e2d33516-1e2d-4b38-8b76-3c54bee02e10","ios":"levelo://app?vid=e2d33516-1e2d-4b38-8b76-3c54bee02e10"},"vehicle_type_id":"4","last_reported":1770021001,"current_range_meters":2800,"station_id":"ce4bgjp2rcd13ifvqbh0","pricing_plan_id":"cebpf4jnsgd1na2vs0mg"},{"bike_id":"2618561d-cd06-4493-b916-9511a3eac222","system_id":"levelo_inurba_marseille","lat":43.27368,"lon":5.36252,"is_reserved":false,"is_disabled":false,"rental_uris":{"android":"levelo://app?vid=2618561d-cd06-4493-b916-9511a3eac222","ios":"levelo://app?vid=2618561d-cd06-4493-b916-9511a3eac222"},"vehicle_type_id":"4","last_reported":1770021001,"current_range_meters":2800,"station_id":"ce4bhbh2rcd13ifvqeo0","pricing_plan_id":"cebpf4jnsgd1na2vs0mg"},{"bike_id":"11dd8a11-c8bc-42b0-b90f-0f9ed1cd3060","system_id":"levelo_inurba_marseille","lat":43.29574,"lon":5.37534,"is_reserved":false,"is_disabled":false,"rental_uris":{"android":"levelo://app?vid=11dd8a11-c8bc-42b0-b90f-0f9ed1cd3060","ios":"levelo://app?vid=11dd8a11-c8bc-42b0-b90f-0f9ed1cd3060"},"vehicle_type_id":"4","last_reported":1770021001,"current_range_meters":2800,"station_id":"ce4bgh92rcd13ifvqb50","pricing_plan_id":"cebpf4jnsgd1na2vs0mg"},{"bike_id":"c8ff2f07-ecbf-494b-9bb5-d55830c1e30a","system_id":"levelo_inurba_marseille","lat":43.254853,"lon":5.376833,"is_reserved":false,"is_disabled":false,"rental_uris":{"android":"levelo://app?vid=c8ff2f07-ecbf-494b-9bb5-d55830c1e30a","ios":"levelo://app?vid=c8ff2f07-ecbf-494b-9bb5-d55830c1e30a"},"vehicle_type_id":"4","last_reported":1770021001,"current_range_meters":2800,"station_id":"ce4bhh12rcd13ifvqff0","pricing_plan_id":"cebpf4jnsgd1na2vs0mg"},{"bike_id":"ecdd52fd-98df-4ed8-9b9f-16db4fdb1985","system_id":"levelo_inurba_marseille","lat":43.24048,"lon":5.37733,"is_reserved":false,"is_disabled":false,"rental_uris":{"android":"levelo://app?vid=ecdd52fd-98df-4ed8-9b9f-16db4fdb1985","ios":"levelo://app?vid=ecdd52fd-98df-4ed8-9b9f-16db4fdb1985"},"vehicle_type_id":"4","last_reported":1770021001,"current_range_meters":3200,"station_id":"ce4bhnp2rcd13ifvqgvg","pricing_plan_id":"cebpf4jnsgd1na2vs0mg"},{"bike_id":"4b538e95-d67b-4c55-8519-1ec597c2ad3f","system_id":"levelo_inurba_marseille","lat":43.240683,"lon":5.377525,"is_reserved":false,"is_disabled":false,"rental_uris":{"android":"levelo://app?vid=4b538e95-d67b-4c55-8519-1ec597c2ad3f","ios":"levelo://app?vid=4b538e95-d67b-4c55-8519-1ec597c2ad3f"},"vehicle_type_id":"4","last_reported":1770021001,"current_range_meters":3200,"station_id":"ce4bhnp2rcd13ifvqgvg","pricing_plan_id":"cebpf4jnsgd1na2vs0mg"},{"bike_id":"93e60425-8aae-4f4b-b447-57ef8147db67","system_id":"levelo_inurba_marseille","lat":43.28479,"lon":5.48411,"is_reserved":false,"is_disabled":false,"rental_uris":{"android":"levelo://app?vid=93e60425-8aae-4f4b-b447-57ef8147db67","ios":"levelo://app?vid=93e60425-8aae-4f4b-b447-57ef8147db67"},"vehicle_type_id":"4","last_reported":1770021001,"current_range_meters":3200,"station_id":"","pricing_plan_id":"cebpf4jnsgd1na2vs0mg"},{"bike_id":"78b75e05-fcfc-4a07-a7e5-50badb16d1a7","system_id":"levelo_inurba_marseille","lat":43.30156,"lon":5.3871,"is_reserved":false,"is_disabled":false,"rental_uris":{"android":"levelo://app?vid=78b75e05-fcfc-4a07-a7e5-50badb16d1a7","ios":"levelo://app?vid=78b75e05-fcfc-4a07-a7e5-50badb16d1a7"},"vehicle_type_id":"4","last_reported":1770021001,"current_range_meters":3200,"station_id":"","pricing_plan_id":"cebpf4jnsgd1na2vs0mg"},{"bike_id":"7974b1b2-000f-4cf2-b1f2-c280cc324e92","system_id":"levelo_inurba_marseille","lat":43.26482,"lon":5.39563,"is_reserved":false,"is_disabled":false,"rental_uris":{"android":"levelo://app?vid=7974b1b2-000f-4cf2-b1f2-c280cc324e92","ios":"levelo://app?vid=7974b1b2-000f-4cf2-b1f2-c280cc324e92"},"vehicle_type_id":"4","last_reported":1770021001,"current_range_meters":3200,"station_id":"ce4bhi12rcd13ifvqfq0","pricing_plan_id":"cebpf4jnsgd1na2vs0mg"},{"bike_id":"cc77c648-e7f6-4fa3-b64a-d86471237118","system_id":"levelo_inurba_marseille","lat":43.27811,"lon":5.40705,"is_reserved":false,"is_disabled":false,"rental_uris":{"android":"levelo://app?vid=cc77c648-e7f6-4fa3-b64a-d86471237118","ios":"levelo://app?vid=cc77c648-e7f6-4fa3-b64a-d86471237118"},"vehicle_type_id":"4","last_reported":1770021001,"current_range_meters":3200,"station_id":"ce4bhnh2rcd13ifvqgtg","pricing_plan_id":"cebpf4jnsgd1na2vs0mg"},{"bike_id":"673768a3-0b9e-41d7-8aa1-3bcb752fd6e6","system_id":"levelo_inurba_marseille","lat":43.30472,"lon":5.37797,"is_reserved":false,"is_disabled":false,"rental_uris":{"android":"levelo://app?vid=673768a3-0b9e-41d7-8aa1-3bcb752fd6e6","ios":"levelo://app?vid=673768a3-0b9e-41d7-8aa1-3bcb752fd6e6"},"vehicle_type_id":"4","last_reported":1770021001,"current_range_meters":3200,"station_id":"","pricing_plan_id":"cebpf4jnsgd1na2vs0mg"},{"bike_id":"35e94623-6487-4043-aec6-ee449fcb47c5","system_id":"levelo_inurba_marseille","lat":43.25936,"lon":5.40902,"is_reserved":false,"is_disabled":false,"rental_uris":{"android":"levelo://app?vid=35e94623-6487-4043-aec6-ee449fcb47c5","ios":"levelo://app?vid=35e94623-6487-4043-aec6-ee449fcb47c5"},"vehicle_type_id":"4","last_reported":1770021001,"current_range_meters":3200,"station_id":"ce4bhm92rcd13ifvqglg","pricing_plan_id":"cebpf4jnsgd1na2vs0mg"},{"bike_id":"b4c9c317-a5cc-4287-a392-c39d2293636d","system_id":"levelo_inurba_marseille","lat":43.30129,"lon":5.3743,"is_reserved":false,"is_disabled":false,"rental_uris":{"android":"levelo://app?vid=b4c9c317-a5cc-4287-a392-c39d2293636d","ios":"levelo://app?vid=b4c9c317-a5cc-4287-a392-c39d2293636d"},"vehicle_type_id":"4","last_reported":1770021001,"current_range_meters":3200,"station_id":"ce4bgs92rcd13ifvqcc0","pricing_plan_id":"cebpf4jnsgd1na2vs0mg"},{"bike_id":"26bd2557-3046-4212-82fc-da1fdbd42b2c","system_id":"levelo_inurba_marseille","lat":43.2854,"lon":5.44121,"is_reserved":false,"is_disabled":false,"rental_uris":{"android":"levelo://app?vid=26bd2557-3046-4212-82fc-da1fdbd42b2c","ios":"levelo://app?vid=26bd2557-3046-4212-82fc-da1fdbd42b2c"},"vehicle_type_id":"4","last_reported":1770021001,"current_range_meters":3200,"station_id":"st_d3j3df2ikq2c7380ej80","pricing_plan_id":"cebpf4jnsgd1na2vs0mg"},{"bike_id":"847173ba-8a70-446b-a882-864c1eea0020","system_id":"levelo_inurba_marseille","lat":43.24074,"lon":5.37744,"is_reserved":false,"is_disabled":false,"rental_uris":{"android":"levelo://app?vid=847173ba-8a70-446b-a882-864c1eea0020","ios":"levelo://app?vid=847173ba-8a70-446b-a882-864c1eea0020"},"vehicle_type_id":"4","last_reported":1770021001,"current_range_meters":3200,"station_id":"ce4bhnp2rcd13ifvqgvg","pricing_plan_id":"cebpf4jnsgd1na2vs0mg"},{"bike_id":"e19dcbee-55f5-4a14-8d7c-7f5193d4d389","system_id":"levelo_inurba_marseille","lat":43.27997,"lon":5.40922,"is_reserved":false,"is_disabled":false,"rental_uris":{"android":"levelo://app?vid=e19dcbee-55f5-4a14-8d7c-7f5193d4d389","ios":"levelo://app?vid=e19dcbee-55f5-4a14-8d7c-7f5193d4d389"},"vehicle_type_id":"4","last_reported":1770021001,"current_range_meters":3200,"station_id":"","pricing_plan_id":"cebpf4jnsgd1na2vs0mg"},{"bike_id":"f8a0ae1c-a37d-4006-8541-a752d1a3cea9","system_id":"levelo_inurba_marseille","lat":43.29653,"lon":5.40126,"is_reserved":false,"is_disabled":false,"rental_uris":{"android":"levelo://app?vid=f8a0ae1c-a37d-4006-8541-a752d1a3cea9","ios":"levelo://app?vid=f8a0ae1c-a37d-4006-8541-a752d1a3cea9"},"vehicle_type_id":"4","last_reported":1770021001,"current_range_meters":3200,"station_id":"","pricing_plan_id":"cebpf4jnsgd1na2vs0mg"},{"bike_id":"0b331fa1-be61-4ee4-8f48-817f3b90db42","system_id":"levelo_inurba_marseille","lat":43.28693,"lon":5.35577,"is_reserved":false,"is_disabled":false,"rental_uris":{"android":"levelo://app?vid=0b331fa1-be61-4ee4-8f48-817f3b90db42","ios":"levelo://app?vid=0b331fa1-be61-4ee4-8f48-817f3b90db42"},"vehicle_type_id":"4","last_reported":1770021001,"current_range_meters":3200,"station_id":"","pricing_plan_id":"cebpf4jnsgd1na2vs0mg"},{"bike_id":"d662b595-dd41-41dc-9b26-69350593db92","system_id":"levelo_inurba_marseille","lat":43.29757,"lon":5.42782,"is_reserved":false,"is_disabled":false,"rental_uris":{"android":"levelo://app?vid=d662b595-dd41-41dc-9b26-69350593db92","ios":"levelo://app?vid=d662b595-dd41-41dc-9b26-69350593db92"},"vehicle_type_id":"4","last_reported":1770021001,"current_range_meters":3200,"station_id":"st_d3md5207bmas73dh9klg","pricing_plan_id":"cebpf4jnsgd1na2vs0mg"},{"bike_id":"c16bbffc-3f7b-4299-aa6c-4c3611fa54d9","system_id":"levelo_inurba_marseille","lat":43.28439,"lon":5.39041,"is_reserved":false,"is_disabled":true,"rental_uris":{"android":"levelo://app?vid=c16bbffc-3f7b-4299-aa6c-4c3611fa54d9","ios":"levelo://app?vid=c16bbffc-3f7b-4299-aa6c-4c3611fa54d9"},"vehicle_type_id":"4","last_reported":1770021001,"current_range_meters":3600,"station_id":"","pricing_plan_id":"cebpf4jnsgd1na2vs0mg"},{"bike_id":"3f016251-f617-46a2-8e71-d5c73095e4c4","system_id":"levelo_inurba_marseille","lat":43.28981,"lon":5.35606,"is_reserved":false,"is_disabled":true,"rental_uris":{"android":"levelo://app?vid=3f016251-f617-46a2-8e71-d5c73095e4c4","ios":"levelo://app?vid=3f016251-f617-46a2-8e71-d5c73095e4c4"},"vehicle_type_id":"4","last_reported":1770021001,"current_range_meters":3600,"station_id":"ce4bhb92rcd13ifvqen0","pricing_plan_id":"cebpf4jnsgd1na2vs0mg"},{"bike_id":"5e1c4385-fefc-40d8-9043-9539df7efdd8","system_id":"levelo_inurba_marseille","lat":43.337444,"lon":5.374475,"is_reserved":false,"is_disabled":false,"rental_uris":{"android":"levelo://app?vid=5e1c4385-fefc-40d8-9043-9539df7efdd8","ios":"levelo://app?vid=5e1c4385-fefc-40d8-9043-9539df7efdd8"},"vehicle_type_id":"4","last_reported":1770021001,"current_range_meters":3600,"station_id":"ce4bhbp2rcd13ifvqesg","pricing_plan_id":"cebpf4jnsgd1na2vs0mg"},{"bike_id":"61166373-4c87-410b-a1bc-53b5fece152b","system_id":"levelo_inurba_marseille","lat":43.32484,"lon":5.36549,"is_reserved":false,"is_disabled":false,"rental_uris":{"android":"levelo://app?vid=61166373-4c87-410b-a1bc-53b5fece152b","ios":"levelo://app?vid=61166373-4c87-410b-a1bc-53b5fece152b"},"vehicle_type_id":"4","last_reported":1770021001,"current_range_meters":3600,"station_id":"ce4bhs12rcd13ifvqhvg","pricing_plan_id":"cebpf4jnsgd1na2vs0mg"},{"bike_id":"767dc731-f365-45e9-b7a0-0144ed9ff9a5","system_id":"levelo_inurba_marseille","lat":43.31225,"lon":5.36904,"is_reserved":false,"is_disabled":false,"rental_uris":{"android":"levelo://app?vid=767dc731-f365-45e9-b7a0-0144ed9ff9a5","ios":"levelo://app?vid=767dc731-f365-45e9-b7a0-0144ed9ff9a5"},"vehicle_type_id":"4","last_reported":1770021001,"current_range_meters":3600,"station_id":"ce4bgl92rcd13ifvqbq0","pricing_plan_id":"cebpf4jnsgd1na2vs0mg"},{"bike_id":"74ac2feb-a7ae-41ed-97e6-16a7d353da55","system_id":"levelo_inurba_marseille","lat":43.24811,"lon":5.3746,"is_reserved":false,"is_disabled":true,"rental_uris":{"android":"levelo://app?vid=74ac2feb-a7ae-41ed-97e6-16a7d353da55","ios":"levelo://app?vid=74ac2feb-a7ae-41ed-97e6-16a7d353da55"},"vehicle_type_id":"4","last_reported":1770021001,"current_range_meters":3600,"station_id":"ce4bhgh2rcd13ifvqfb0","pricing_plan_id":"cebpf4jnsgd1na2vs0mg"},{"bike_id":"42e23a25-3f3b-41a6-affc-754a84a75d61","system_id":"levelo_inurba_marseille","lat":43.26684,"lon":5.38274,"is_reserved":false,"is_disabled":false,"rental_uris":{"android":"levelo://app?vid=42e23a25-3f3b-41a6-affc-754a84a75d61","ios":"levelo://app?vid=42e23a25-3f3b-41a6-affc-754a84a75d61"},"vehicle_type_id":"4","last_reported":1770021001,"current_range_meters":3600,"station_id":"ce4bhg92rcd13ifvqf90","pricing_plan_id":"cebpf4jnsgd1na2vs0mg"},{"bike_id":"f2d74811-1503-4a4b-b3d2-6b14165485c5","system_id":"levelo_inurba_marseille","lat":43.30891,"lon":5.36859,"is_reserved":false,"is_disabled":false,"rental_uris":{"android":"levelo://app?vid=f2d74811-1503-4a4b-b3d2-6b14165485c5","ios":"levelo://app?vid=f2d74811-1503-4a4b-b3d2-6b14165485c5"},"vehicle_type_id":"4","last_reported":1770021001,"current_range_meters":3600,"station_id":"ce4bgn92rcd13ifvqbvg","pricing_plan_id":"cebpf4jnsgd1na2vs0mg"},{"bike_id":"ace0dc22-412f-44b8-a9b2-41f4864ac30b","system_id":"levelo_inurba_marseille","lat":43.26951,"lon":5.38635,"is_reserved":false,"is_disabled":false,"rental_uris":{"android":"levelo://app?vid=ace0dc22-412f-44b8-a9b2-41f4864ac30b","ios":"levelo://app?vid=ace0dc22-412f-44b8-a9b2-41f4864ac30b"},"vehicle_type_id":"4","last_reported":1770021001,"current_range_meters":3600,"station_id":"ce4bhh92rcd13ifvqfh0","pricing_plan_id":"cebpf4jnsgd1na2vs0mg"},{"bike_id":"e8fa66cc-805c-4ac6-8036-6b85aaeb4d1e","system_id":"levelo_inurba_marseille","lat":43.29844,"lon":5.37569,"is_reserved":false,"is_disabled":false,"rental_uris":{"android":"levelo://app?vid=e8fa66cc-805c-4ac6-8036-6b85aaeb4d1e","ios":"levelo://app?vid=e8fa66cc-805c-4ac6-8036-6b85aaeb4d1e"},"vehicle_type_id":"4","last_reported":1770021001,"current_range_meters":3600,"station_id":"","pricing_plan_id":"cebpf4jnsgd1na2vs0mg"},{"bike_id":"e3e986c3-0db0-40fd-a1a5-f07ce5425792","system_id":"levelo_inurba_marseille","lat":43.27289,"lon":5.3914,"is_reserved":false,"is_disabled":true,"rental_uris":{"android":"levelo://app?vid=e3e986c3-0db0-40fd-a1a5-f07ce5425792","ios":"levelo://app?vid=e3e986c3-0db0-40fd-a1a5-f07ce5425792"},"vehicle_type_id":"4","last_reported":1770021001,"current_range_meters":3600,"station_id":"","pricing_plan_id":"cebpf4jnsgd1na2vs0mg"},{"bike_id":"419e6abb-0874-44e4-9204-0dace6715096","system_id":"levelo_inurba_marseille","lat":43.33613,"lon":5.41015,"is_reserved":false,"is_disabled":false,"rental_uris":{"android":"levelo://app?vid=419e6abb-0874-44e4-9204-0dace6715096","ios":"levelo://app?vid=419e6abb-0874-44e4-9204-0dace6715096"},"vehicle_type_id":"4","last_reported":1770021001,"current_range_meters":4000,"station_id":"ce4bhqh2rcd13ifvqhmg","pricing_plan_id":"cebpf4jnsgd1na2vs0mg"},{"bike_id":"6f8455de-cdcb-4115-8f9f-1a1c57d7cc8a","system_id":"levelo_inurba_marseille","lat":43.25,"lon":5.38957,"is_reserved":false,"is_disabled":false,"rental_uris":{"android":"levelo://app?vid=6f8455de-cdcb-4115-8f9f-1a1c57d7cc8a","ios":"levelo://app?vid=6f8455de-cdcb-4115-8f9f-1a1c57d7cc8a"},"vehicle_type_id":"4","last_reported":1770021001,"current_range_meters":4000,"station_id":"ce4bhgp2rcd13ifvqfd0","pricing_plan_id":"cebpf4jnsgd1na2vs0mg"},{"bike_id":"dc68db14-c906-4c81-af24-38ade0c0fe18","system_id":"levelo_inurba_marseille","lat":43.22563,"lon":5.41635,"is_reserved":false,"is_disabled":false,"rental_uris":{"android":"levelo://app?vid=dc68db14-c906-4c81-af24-38ade0c0fe18","ios":"levelo://app?vid=dc68db14-c906-4c81-af24-38ade0c0fe18"},"vehicle_type_id":"4","last_reported":1770021001,"current_range_meters":4000,"station_id":"st_d2o4gvlbi1j2169b742g","pricing_plan_id":"cebpf4jnsgd1na2vs0mg"},{"bike_id":"55821144-4cea-4c88-a4ef-ac2c18f1fa0e","system_id":"levelo_inurba_marseille","lat":43.24061,"lon":5.37752,"is_reserved":false,"is_disabled":false,"rental_uris":{"android":"levelo://app?vid=55821144-4cea-4c88-a4ef-ac2c18f1fa0e","ios":"levelo://app?vid=55821144-4cea-4c88-a4ef-ac2c18f1fa0e"},"vehicle_type_id":"4","last_reported":1770021001,"current_range_meters":4000,"station_id":"ce4bhnp2rcd13ifvqgvg","pricing_plan_id":"cebpf4jnsgd1na2vs0mg"},{"bike_id":"b00753f6-9e43-40ef-9959-628446071746","system_id":"levelo_inurba_marseille","lat":43.27826,"lon":5.40721,"is_reserved":false,"is_disabled":true,"rental_uris":{"android":"levelo://app?vid=b00753f6-9e43-40ef-9959-628446071746","ios":"levelo://app?vid=b00753f6-9e43-40ef-9959-628446071746"},"vehicle_type_id":"4","last_reported":1770021001,"current_range_meters":4000,"station_id":"ce4bhnh2rcd13ifvqgtg","pricing_plan_id":"cebpf4jnsgd1na2vs0mg"},{"bike_id":"1a60da73-6d1e-462b-ba57-6d88145eee7a","system_id":"levelo_inurba_marseille","lat":43.30464,"lon":5.37917,"is_reserved":false,"is_disabled":false,"rental_uris":{"android":"levelo://app?vid=1a60da73-6d1e-462b-ba57-6d88145eee7a","ios":"levelo://app?vid=1a60da73-6d1e-462b-ba57-6d88145eee7a"},"vehicle_type_id":"4","last_reported":1770021001,"current_range_meters":4000,"station_id":"ce4bgup2rcd13ifvqcn0","pricing_plan_id":"cebpf4jnsgd1na2vs0mg"},{"bike_id":"5029c69a-7152-4fbd-b9c1-e270f50cbfa2","system_id":"levelo_inurba_marseille","lat":43.29265,"lon":5.36874,"is_reserved":false,"is_disabled":false,"rental_uris":{"android":"levelo://app?vid=5029c69a-7152-4fbd-b9c1-e270f50cbfa2","ios":"levelo://app?vid=5029c69a-7152-4fbd-b9c1-e270f50cbfa2"},"vehicle_type_id":"4","last_reported":1770021001,"current_range_meters":4000,"station_id":"ce4bhbp2rcd13ifvqesg","pricing_plan_id":"cebpf4jnsgd1na2vs0mg"},{"bike_id":"1b30bfe9-20ea-4eef-baed-4f0a967547e2","system_id":"levelo_inurba_marseille","lat":43.30905,"lon":5.36849,"is_reserved":false,"is_disabled":false,"rental_uris":{"android":"levelo://app?vid=1b30bfe9-20ea-4eef-baed-4f0a967547e2","ios":"levelo://app?vid=1b30bfe9-20ea-4eef-baed-4f0a967547e2"},"vehicle_type_id":"4","last_reported":1770021001,"current_range_meters":4000,"station_id":"ce4bgn92rcd13ifvqbvg","pricing_plan_id":"cebpf4jnsgd1na2vs0mg"},{"bike_id":"a0909842-1eb8-402b-bddb-5c78710312e3","system_id":"levelo_inurba_marseille","lat":43.28362,"lon":5.38629,"is_reserved":false,"is_disabled":false,"rental_uris":{"android":"levelo://app?vid=a0909842-1eb8-402b-bddb-5c78710312e3","ios":"levelo://app?vid=a0909842-1eb8-402b-bddb-5c78710312e3"},"vehicle_type_id":"4","last_reported":1770021001,"current_range_meters":4000,"station_id":"ce4bh492rcd13ifvqdvg","pricing_plan_id":"cebpf4jnsgd1na2vs0mg"},{"bike_id":"e5b9c854-52bd-4571-9d09-3836aec2957e","system_id":"levelo_inurba_marseille","lat":43.24167,"lon":5.36448,"is_reserved":false,"is_disabled":false,"rental_uris":{"android":"levelo://app?vid=e5b9c854-52bd-4571-9d09-3836aec2957e","ios":"levelo://app?vid=e5b9c854-52bd-4571-9d09-3836aec2957e"},"vehicle_type_id":"4","last_reported":1770021001,"current_range_meters":4000,"station_id":"cpo36qri1sfpv3e86is0","pricing_plan_id":"cebpf4jnsgd1na2vs0mg"},{"bike_id":"9cb2d68b-d789-43ee-80a9-e5cec42e0b8e","system_id":"levelo_inurba_marseille","lat":43.308791,"lon":5.396301,"is_reserved":false,"is_disabled":false,"rental_uris":{"android":"levelo://app?vid=9cb2d68b-d789-43ee-80a9-e5cec42e0b8e","ios":"levelo://app?vid=9cb2d68b-d789-43ee-80a9-e5cec42e0b8e"},"vehicle_type_id":"4","last_reported":1770021001,"current_range_meters":4000,"station_id":"ce4bh012rcd13ifvqcv0","pricing_plan_id":"cebpf4jnsgd1na2vs0mg"},{"bike_id":"5b4c0c7a-c0c9-4273-96c2-faded5f9cc26","system_id":"levelo_inurba_marseille","lat":43.27939,"lon":5.41045,"is_reserved":false,"is_disabled":false,"rental_uris":{"android":"levelo://app?vid=5b4c0c7a-c0c9-4273-96c2-faded5f9cc26","ios":"levelo://app?vid=5b4c0c7a-c0c9-4273-96c2-faded5f9cc26"},"vehicle_type_id":"4","last_reported":1770021001,"current_range_meters":4400,"station_id":"ce4bhnp2rcd13ifvqh0g","pricing_plan_id":"cebpf4jnsgd1na2vs0mg"},{"bike_id":"1c1f8539-b1ae-43f7-94e2-f9ba91100b64","system_id":"levelo_inurba_marseille","lat":43.31745,"lon":5.37714,"is_reserved":false,"is_disabled":false,"rental_uris":{"android":"levelo://app?vid=1c1f8539-b1ae-43f7-94e2-f9ba91100b64","ios":"levelo://app?vid=1c1f8539-b1ae-43f7-94e2-f9ba91100b64"},"vehicle_type_id":"4","last_reported":1770021001,"current_range_meters":4400,"station_id":"ce4bgth2rcd13ifvqch0","pricing_plan_id":"cebpf4jnsgd1na2vs0mg"},{"bike_id":"de80b79a-cef0-4e30-9ffa-41f22a773c78","system_id":"levelo_inurba_marseille","lat":43.29036,"lon":5.37563,"is_reserved":false,"is_disabled":false,"rental_uris":{"android":"levelo://app?vid=de80b79a-cef0-4e30-9ffa-41f22a773c78","ios":"levelo://app?vid=de80b79a-cef0-4e30-9ffa-41f22a773c78"},"vehicle_type_id":"4","last_reported":1770021001,"current_range_meters":4400,"station_id":"ce4bh692rcd13ifvqe90","pricing_plan_id":"cebpf4jnsgd1na2vs0mg"},{"bike_id":"d0ee8c38-72c8-4a11-9f6a-de79eceead1a","system_id":"levelo_inurba_marseille","lat":43.23142,"lon":5.43743,"is_reserved":false,"is_disabled":false,"rental_uris":{"android":"levelo://app?vid=d0ee8c38-72c8-4a11-9f6a-de79eceead1a","ios":"levelo://app?vid=d0ee8c38-72c8-4a11-9f6a-de79eceead1a"},"vehicle_type_id":"4","last_reported":1770021001,"current_range_meters":4400,"station_id":"ce4bhmp2rcd13ifvqgog","pricing_plan_id":"cebpf4jnsgd1na2vs0mg"},{"bike_id":"09e8f712-2d3f-42c3-8273-19bbaf32447d","system_id":"levelo_inurba_marseille","lat":43.26564,"lon":5.40324,"is_reserved":false,"is_disabled":true,"rental_uris":{"android":"levelo://app?vid=09e8f712-2d3f-42c3-8273-19bbaf32447d","ios":"levelo://app?vid=09e8f712-2d3f-42c3-8273-19bbaf32447d"},"vehicle_type_id":"4","last_reported":1770021001,"current_range_meters":4400,"station_id":"ce4bhmp2rcd13ifvqgng","pricing_plan_id":"cebpf4jnsgd1na2vs0mg"},{"bike_id":"d02a39b5-b9e6-42c0-89cf-ec41b03ef41c","system_id":"levelo_inurba_marseille","lat":43.27368,"lon":5.36263,"is_reserved":false,"is_disabled":false,"rental_uris":{"android":"levelo://app?vid=d02a39b5-b9e6-42c0-89cf-ec41b03ef41c","ios":"levelo://app?vid=d02a39b5-b9e6-42c0-89cf-ec41b03ef41c"},"vehicle_type_id":"4","last_reported":1770021001,"current_range_meters":4400,"station_id":"ce4bhbh2rcd13ifvqeo0","pricing_plan_id":"cebpf4jnsgd1na2vs0mg"},{"bike_id":"ae41425b-da34-4009-9433-dcdf7092a3d7","system_id":"levelo_inurba_marseille","lat":43.3026,"lon":5.377177,"is_reserved":false,"is_disabled":false,"rental_uris":{"android":"levelo://app?vid=ae41425b-da34-4009-9433-dcdf7092a3d7","ios":"levelo://app?vid=ae41425b-da34-4009-9433-dcdf7092a3d7"},"vehicle_type_id":"4","last_reported":1770021001,"current_range_meters":4400,"station_id":"ce4bguh2rcd13ifvqcj0","pricing_plan_id":"cebpf4jnsgd1na2vs0mg"},{"bike_id":"15441752-de89-46d3-a5a4-a1bc8c6e7535","system_id":"levelo_inurba_marseille","lat":43.26936,"lon":5.38645,"is_reserved":false,"is_disabled":false,"rental_uris":{"android":"levelo://app?vid=15441752-de89-46d3-a5a4-a1bc8c6e7535","ios":"levelo://app?vid=15441752-de89-46d3-a5a4-a1bc8c6e7535"},"vehicle_type_id":"4","last_reported":1770021001,"current_range_meters":4400,"station_id":"ce4bhh92rcd13ifvqfh0","pricing_plan_id":"cebpf4jnsgd1na2vs0mg"},{"bike_id":"54e0ff64-435b-46c4-97df-663dd90037bc","system_id":"levelo_inurba_marseille","lat":43.24058,"lon":5.37763,"is_reserved":false,"is_disabled":false,"rental_uris":{"android":"levelo://app?vid=54e0ff64-435b-46c4-97df-663dd90037bc","ios":"levelo://app?vid=54e0ff64-435b-46c4-97df-663dd90037bc"},"vehicle_type_id":"4","last_reported":1770021001,"current_range_meters":4400,"station_id":"ce4bhnp2rcd13ifvqgvg","pricing_plan_id":"cebpf4jnsgd1na2vs0mg"},{"bike_id":"aaffa469-fd48-47e0-b981-120c9f2df22c","system_id":"levelo_inurba_marseille","lat":43.27304,"lon":5.391193,"is_reserved":false,"is_disabled":false,"rental_uris":{"android":"levelo://app?vid=aaffa469-fd48-47e0-b981-120c9f2df22c","ios":"levelo://app?vid=aaffa469-fd48-47e0-b981-120c9f2df22c"},"vehicle_type_id":"4","last_reported":1770021001,"current_range_meters":4400,"station_id":"ce4bhgp2rcd13ifvqfe0","pricing_plan_id":"cebpf4jnsgd1na2vs0mg"},{"bike_id":"1d75284f-9695-4ced-95fe-0b77fda9b6fc","system_id":"levelo_inurba_marseille","lat":43.33603,"lon":5.41034,"is_reserved":false,"is_disabled":false,"rental_uris":{"android":"levelo://app?vid=1d75284f-9695-4ced-95fe-0b77fda9b6fc","ios":"levelo://app?vid=1d75284f-9695-4ced-95fe-0b77fda9b6fc"},"vehicle_type_id":"4","last_reported":1770021001,"current_range_meters":4400,"station_id":"ce4bhqh2rcd13ifvqhmg","pricing_plan_id":"cebpf4jnsgd1na2vs0mg"},{"bike_id":"c9f48c9b-8a34-442c-b519-55185a953e4a","system_id":"levelo_inurba_marseille","lat":43.29031,"lon":5.3756,"is_reserved":false,"is_disabled":false,"rental_uris":{"android":"levelo://app?vid=c9f48c9b-8a34-442c-b519-55185a953e4a","ios":"levelo://app?vid=c9f48c9b-8a34-442c-b519-55185a953e4a"},"vehicle_type_id":"4","last_reported":1770021001,"current_range_meters":4800,"station_id":"ce4bh692rcd13ifvqe90","pricing_plan_id":"cebpf4jnsgd1na2vs0mg"},{"bike_id":"e1d85e8f-816e-43e5-832f-fa3bb6c7d9fd","system_id":"levelo_inurba_marseille","lat":43.29793,"lon":5.44034,"is_reserved":false,"is_disabled":false,"rental_uris":{"android":"levelo://app?vid=e1d85e8f-816e-43e5-832f-fa3bb6c7d9fd","ios":"levelo://app?vid=e1d85e8f-816e-43e5-832f-fa3bb6c7d9fd"},"vehicle_type_id":"4","last_reported":1770021001,"current_range_meters":4800,"station_id":"st_d3jp68qikq2c7381ktn0","pricing_plan_id":"cebpf4jnsgd1na2vs0mg"},{"bike_id":"bafe06f4-691a-42ad-b544-2647048d76df","system_id":"levelo_inurba_marseille","lat":43.23029,"lon":5.35501,"is_reserved":false,"is_disabled":false,"rental_uris":{"android":"levelo://app?vid=bafe06f4-691a-42ad-b544-2647048d76df","ios":"levelo://app?vid=bafe06f4-691a-42ad-b544-2647048d76df"},"vehicle_type_id":"4","last_reported":1770021001,"current_range_meters":4800,"station_id":"cpo3342slgdg3j2ifvpg","pricing_plan_id":"cebpf4jnsgd1na2vs0mg"},{"bike_id":"8791bebb-8e0b-4ff1-9213-d620c7784012","system_id":"levelo_inurba_marseille","lat":43.293119,"lon":5.371707,"is_reserved":false,"is_disabled":false,"rental_uris":{"android":"levelo://app?vid=8791bebb-8e0b-4ff1-9213-d620c7784012","ios":"levelo://app?vid=8791bebb-8e0b-4ff1-9213-d620c7784012"},"vehicle_type_id":"4","last_reported":1770021001,"current_range_meters":4800,"station_id":"ce4bgh92rcd13ifvqb40","pricing_plan_id":"cebpf4jnsgd1na2vs0mg"},{"bike_id":"669cbfea-a557-4cea-af48-034865d30cc0","system_id":"levelo_inurba_marseille","lat":43.25326,"lon":5.42168,"is_reserved":false,"is_disabled":true,"rental_uris":{"android":"levelo://app?vid=669cbfea-a557-4cea-af48-034865d30cc0","ios":"levelo://app?vid=669cbfea-a557-4cea-af48-034865d30cc0"},"vehicle_type_id":"4","last_reported":1770021001,"current_range_meters":4800,"station_id":"st_d2m65c5bi1j21697t3ng","pricing_plan_id":"cebpf4jnsgd1na2vs0mg"},{"bike_id":"e1b9d24f-2421-486f-a00c-01e9adfdba49","system_id":"levelo_inurba_marseille","lat":43.23181,"lon":5.39984,"is_reserved":false,"is_disabled":false,"rental_uris":{"android":"levelo://app?vid=e1b9d24f-2421-486f-a00c-01e9adfdba49","ios":"levelo://app?vid=e1b9d24f-2421-486f-a00c-01e9adfdba49"},"vehicle_type_id":"4","last_reported":1770021001,"current_range_meters":4800,"station_id":"ce4bhn12rcd13ifvqgqg","pricing_plan_id":"cebpf4jnsgd1na2vs0mg"},{"bike_id":"53336c15-c4a9-4afd-ad5c-4a4cebf6f0c1","system_id":"levelo_inurba_marseille","lat":43.24189,"lon":5.36473,"is_reserved":false,"is_disabled":false,"rental_uris":{"android":"levelo://app?vid=53336c15-c4a9-4afd-ad5c-4a4cebf6f0c1","ios":"levelo://app?vid=53336c15-c4a9-4afd-ad5c-4a4cebf6f0c1"},"vehicle_type_id":"4","last_reported":1770021001,"current_range_meters":4800,"station_id":"","pricing_plan_id":"cebpf4jnsgd1na2vs0mg"},{"bike_id":"0a1300ad-2f14-46b7-8956-d36a4a430b42","system_id":"levelo_inurba_marseille","lat":43.24799,"lon":5.37454,"is_reserved":false,"is_disabled":false,"rental_uris":{"android":"levelo://app?vid=0a1300ad-2f14-46b7-8956-d36a4a430b42","ios":"levelo://app?vid=0a1300ad-2f14-46b7-8956-d36a4a430b42"},"vehicle_type_id":"4","last_reported":1770021001,"current_range_meters":5600,"station_id":"ce4bhgh2rcd13ifvqfb0","pricing_plan_id":"cebpf4jnsgd1na2vs0mg"},{"bike_id":"76f131b9-2576-46ba-8298-c814a5a348ab","system_id":"levelo_inurba_marseille","lat":43.27933,"lon":5.42333,"is_reserved":false,"is_disabled":false,"rental_uris":{"android":"levelo://app?vid=76f131b9-2576-46ba-8298-c814a5a348ab","ios":"levelo://app?vid=76f131b9-2576-46ba-8298-c814a5a348ab"},"vehicle_type_id":"4","last_reported":1770021001,"current_range_meters":5600,"station_id":"","pricing_plan_id":"cebpf4jnsgd1na2vs0mg"},{"bike_id":"76d75860-135e-4342-8d60-d738c4449126","system_id":"levelo_inurba_marseille","lat":43.25935,"lon":5.40908,"is_reserved":false,"is_disabled":false,"rental_uris":{"android":"levelo://app?vid=76d75860-135e-4342-8d60-d738c4449126","ios":"levelo://app?vid=76d75860-135e-4342-8d60-d738c4449126"},"vehicle_type_id":"4","last_reported":1770021001,"current_range_meters":5600,"station_id":"ce4bhm92rcd13ifvqglg","pricing_plan_id":"cebpf4jnsgd1na2vs0mg"},{"bike_id":"73d3043d-1347-40e9-ae92-d252d39efff6","system_id":"levelo_inurba_marseille","lat":43.30376,"lon":5.42488,"is_reserved":false,"is_disabled":false,"rental_uris":{"android":"levelo://app?vid=73d3043d-1347-40e9-ae92-d252d39efff6","ios":"levelo://app?vid=73d3043d-1347-40e9-ae92-d252d39efff6"},"vehicle_type_id":"4","last_reported":1770021001,"current_range_meters":5600,"station_id":"","pricing_plan_id":"cebpf4jnsgd1na2vs0mg"},{"bike_id":"d1da5c85-5393-4ca7-9880-c49b370fa393","system_id":"levelo_inurba_marseille","lat":43.24383,"lon":5.37074,"is_reserved":false,"is_disabled":false,"rental_uris":{"android":"levelo://app?vid=d1da5c85-5393-4ca7-9880-c49b370fa393","ios":"levelo://app?vid=d1da5c85-5393-4ca7-9880-c49b370fa393"},"vehicle_type_id":"4","last_reported":1770021001,"current_range_meters":5600,"station_id":"ce4bhhh2rcd13ifvqfk0","pricing_plan_id":"cebpf4jnsgd1na2vs0mg"},{"bike_id":"cec514c3-7ecb-423b-80b5-18639cf7781d","system_id":"levelo_inurba_marseille","lat":43.25619,"lon":5.37665,"is_reserved":false,"is_disabled":false,"rental_uris":{"android":"levelo://app?vid=cec514c3-7ecb-423b-80b5-18639cf7781d","ios":"levelo://app?vid=cec514c3-7ecb-423b-80b5-18639cf7781d"},"vehicle_type_id":"4","last_reported":1770021001,"current_range_meters":5600,"station_id":"","pricing_plan_id":"cebpf4jnsgd1na2vs0mg"},{"bike_id":"282b4c58-6430-4481-adf2-6fc926d2a7c4","system_id":"levelo_inurba_marseille","lat":43.23199,"lon":5.35568,"is_reserved":false,"is_disabled":false,"rental_uris":{"android":"levelo://app?vid=282b4c58-6430-4481-adf2-6fc926d2a7c4","ios":"levelo://app?vid=282b4c58-6430-4481-adf2-6fc926d2a7c4"},"vehicle_type_id":"4","last_reported":1770021001,"current_range_meters":5600,"station_id":"ce4bhu92rcd13ifvqi70","pricing_plan_id":"cebpf4jnsgd1na2vs0mg"},{"bike_id":"ca9911e6-1c0d-49cd-b6c7-ddacf6004cbb","system_id":"levelo_inurba_marseille","lat":43.29508,"lon":5.394,"is_reserved":false,"is_disabled":false,"rental_uris":{"android":"levelo://app?vid=ca9911e6-1c0d-49cd-b6c7-ddacf6004cbb","ios":"levelo://app?vid=ca9911e6-1c0d-49cd-b6c7-ddacf6004cbb"},"vehicle_type_id":"4","last_reported":1770021001,"current_range_meters":5600,"station_id":"ce4bh292rcd13ifvqdf0","pricing_plan_id":"cebpf4jnsgd1na2vs0mg"},{"bike_id":"0de0a9c6-8323-42c8-980b-f49235ca4c0b","system_id":"levelo_inurba_marseille","lat":43.2964,"lon":5.37715,"is_reserved":false,"is_disabled":false,"rental_uris":{"android":"levelo://app?vid=0de0a9c6-8323-42c8-980b-f49235ca4c0b","ios":"levelo://app?vid=0de0a9c6-8323-42c8-980b-f49235ca4c0b"},"vehicle_type_id":"4","last_reported":1770021001,"current_range_meters":5600,"station_id":"ce4bgi92rcd13ifvqb90","pricing_plan_id":"cebpf4jnsgd1na2vs0mg"},{"bike_id":"b9a9097f-13d0-49a9-bb46-6f5237ccc9ec","system_id":"levelo_inurba_marseille","lat":43.27379,"lon":5.36267,"is_reserved":false,"is_disabled":false,"rental_uris":{"android":"levelo://app?vid=b9a9097f-13d0-49a9-bb46-6f5237ccc9ec","ios":"levelo://app?vid=b9a9097f-13d0-49a9-bb46-6f5237ccc9ec"},"vehicle_type_id":"4","last_reported":1770021001,"current_range_meters":5600,"station_id":"ce4bhbh2rcd13ifvqeo0","pricing_plan_id":"cebpf4jnsgd1na2vs0mg"},{"bike_id":"064b8bc8-52f1-41a1-98a8-692ee47c9995","system_id":"levelo_inurba_marseille","lat":43.21742,"lon":5.34608,"is_reserved":false,"is_disabled":true,"rental_uris":{"android":"levelo://app?vid=064b8bc8-52f1-41a1-98a8-692ee47c9995","ios":"levelo://app?vid=064b8bc8-52f1-41a1-98a8-692ee47c9995"},"vehicle_type_id":"4","last_reported":1770021001,"current_range_meters":5600,"station_id":"","pricing_plan_id":"cebpf4jnsgd1na2vs0mg"},{"bike_id":"fa4ea017-ea23-470f-be8c-32bba86b3d1b","system_id":"levelo_inurba_marseille","lat":43.24395,"lon":5.37069,"is_reserved":false,"is_disabled":false,"rental_uris":{"android":"levelo://app?vid=fa4ea017-ea23-470f-be8c-32bba86b3d1b","ios":"levelo://app?vid=fa4ea017-ea23-470f-be8c-32bba86b3d1b"},"vehicle_type_id":"4","last_reported":1770021001,"current_range_meters":5600,"station_id":"ce4bhhh2rcd13ifvqfk0","pricing_plan_id":"cebpf4jnsgd1na2vs0mg"},{"bike_id":"6cf92889-1051-428f-baf5-963164fae10e","system_id":"levelo_inurba_marseille","lat":43.30291,"lon":5.36857,"is_reserved":false,"is_disabled":false,"rental_uris":{"android":"levelo://app?vid=6cf92889-1051-428f-baf5-963164fae10e","ios":"levelo://app?vid=6cf92889-1051-428f-baf5-963164fae10e"},"vehicle_type_id":"4","last_reported":1770021001,"current_range_meters":6000,"station_id":"ce4bgqh2rcd13ifvqc5g","pricing_plan_id":"cebpf4jnsgd1na2vs0mg"},{"bike_id":"eae001be-3b34-469f-b5f5-7615da95a4ed","system_id":"levelo_inurba_marseille","lat":43.27803,"lon":5.40736,"is_reserved":false,"is_disabled":false,"rental_uris":{"android":"levelo://app?vid=eae001be-3b34-469f-b5f5-7615da95a4ed","ios":"levelo://app?vid=eae001be-3b34-469f-b5f5-7615da95a4ed"},"vehicle_type_id":"4","last_reported":1770021001,"current_range_meters":6000,"station_id":"ce4bhnh2rcd13ifvqgtg","pricing_plan_id":"cebpf4jnsgd1na2vs0mg"},{"bike_id":"55392003-6bce-4df2-a517-2db7a8819d4b","system_id":"levelo_inurba_marseille","lat":43.28343,"lon":5.38111,"is_reserved":false,"is_disabled":false,"rental_uris":{"android":"levelo://app?vid=55392003-6bce-4df2-a517-2db7a8819d4b","ios":"levelo://app?vid=55392003-6bce-4df2-a517-2db7a8819d4b"},"vehicle_type_id":"4","last_reported":1770021001,"current_range_meters":6000,"station_id":"ce4bh412rcd13ifvqdr0","pricing_plan_id":"cebpf4jnsgd1na2vs0mg"},{"bike_id":"188f3c5b-0077-4d31-90df-948f790b8810","system_id":"levelo_inurba_marseille","lat":43.32365,"lon":5.38886,"is_reserved":false,"is_disabled":false,"rental_uris":{"android":"levelo://app?vid=188f3c5b-0077-4d31-90df-948f790b8810","ios":"levelo://app?vid=188f3c5b-0077-4d31-90df-948f790b8810"},"vehicle_type_id":"4","last_reported":1770021001,"current_range_meters":6000,"station_id":"ce4bhqp2rcd13ifvqhog","pricing_plan_id":"cebpf4jnsgd1na2vs0mg"},{"bike_id":"d431d2dc-fe64-4d55-be3e-18b6291747e9","system_id":"levelo_inurba_marseille","lat":43.2306,"lon":5.35519,"is_reserved":false,"is_disabled":false,"rental_uris":{"android":"levelo://app?vid=d431d2dc-fe64-4d55-be3e-18b6291747e9","ios":"levelo://app?vid=d431d2dc-fe64-4d55-be3e-18b6291747e9"},"vehicle_type_id":"4","last_reported":1770021001,"current_range_meters":6000,"station_id":"cpo3342slgdg3j2ifvpg","pricing_plan_id":"cebpf4jnsgd1na2vs0mg"},{"bike_id":"b333c4d1-2c2f-40b2-85d0-1bc2646e9979","system_id":"levelo_inurba_marseille","lat":43.31217,"lon":5.36858,"is_reserved":false,"is_disabled":false,"rental_uris":{"android":"levelo://app?vid=b333c4d1-2c2f-40b2-85d0-1bc2646e9979","ios":"levelo://app?vid=b333c4d1-2c2f-40b2-85d0-1bc2646e9979"},"vehicle_type_id":"4","last_reported":1770021001,"current_range_meters":6000,"station_id":"ce4bgl92rcd13ifvqbq0","pricing_plan_id":"cebpf4jnsgd1na2vs0mg"},{"bike_id":"b6312071-7764-4894-a911-dea7dace47bd","system_id":"levelo_inurba_marseille","lat":43.29532,"lon":5.375,"is_reserved":false,"is_disabled":false,"rental_uris":{"android":"levelo://app?vid=b6312071-7764-4894-a911-dea7dace47bd","ios":"levelo://app?vid=b6312071-7764-4894-a911-dea7dace47bd"},"vehicle_type_id":"4","last_reported":1770021001,"current_range_meters":6000,"station_id":"ce4bgkp2rcd13ifvqbmg","pricing_plan_id":"cebpf4jnsgd1na2vs0mg"},{"bike_id":"d2ee53f1-49b6-44a6-a171-d364ff8162cf","system_id":"levelo_inurba_marseille","lat":43.33357,"lon":5.43138,"is_reserved":false,"is_disabled":false,"rental_uris":{"android":"levelo://app?vid=d2ee53f1-49b6-44a6-a171-d364ff8162cf","ios":"levelo://app?vid=d2ee53f1-49b6-44a6-a171-d364ff8162cf"},"vehicle_type_id":"4","last_reported":1770021001,"current_range_meters":6000,"station_id":"","pricing_plan_id":"cebpf4jnsgd1na2vs0mg"},{"bike_id":"461a2893-efc2-4e09-ab9d-8da8c86d5332","system_id":"levelo_inurba_marseille","lat":43.24986,"lon":5.38961,"is_reserved":false,"is_disabled":false,"rental_uris":{"android":"levelo://app?vid=461a2893-efc2-4e09-ab9d-8da8c86d5332","ios":"levelo://app?vid=461a2893-efc2-4e09-ab9d-8da8c86d5332"},"vehicle_type_id":"4","last_reported":1770021001,"current_range_meters":6000,"station_id":"ce4bhgp2rcd13ifvqfd0","pricing_plan_id":"cebpf4jnsgd1na2vs0mg"},{"bike_id":"fff7e7d9-a5a2-4648-8c64-acd8db891467","system_id":"levelo_inurba_marseille","lat":43.26226,"lon":5.40452,"is_reserved":false,"is_disabled":false,"rental_uris":{"android":"levelo://app?vid=fff7e7d9-a5a2-4648-8c64-acd8db891467","ios":"levelo://app?vid=fff7e7d9-a5a2-4648-8c64-acd8db891467"},"vehicle_type_id":"4","last_reported":1770021001,"current_range_meters":6000,"station_id":"ce4bhmh2rcd13ifvqgmg","pricing_plan_id":"cebpf4jnsgd1na2vs0mg"},{"bike_id":"308896f1-498a-478e-8d36-f11a38b6b352","system_id":"levelo_inurba_marseille","lat":43.28941,"lon":5.39647,"is_reserved":false,"is_disabled":false,"rental_uris":{"android":"levelo://app?vid=308896f1-498a-478e-8d36-f11a38b6b352","ios":"levelo://app?vid=308896f1-498a-478e-8d36-f11a38b6b352"},"vehicle_type_id":"4","last_reported":1770021001,"current_range_meters":6000,"station_id":"ce4bh3h2rcd13ifvqdn0","pricing_plan_id":"cebpf4jnsgd1na2vs0mg"},{"bike_id":"53061a28-e296-46d5-9753-c79bfeeeba60","system_id":"levelo_inurba_marseille","lat":43.27193,"lon":5.3918,"is_reserved":false,"is_disabled":false,"rental_uris":{"android":"levelo://app?vid=53061a28-e296-46d5-9753-c79bfeeeba60","ios":"levelo://app?vid=53061a28-e296-46d5-9753-c79bfeeeba60"},"vehicle_type_id":"4","last_reported":1770021001,"current_range_meters":6000,"station_id":"ce4bhhp2rcd13ifvqfm0","pricing_plan_id":"cebpf4jnsgd1na2vs0mg"},{"bike_id":"52601930-0fee-43f8-b0ba-1785be6d7c5c","system_id":"levelo_inurba_marseille","lat":43.30904,"lon":5.36862,"is_reserved":false,"is_disabled":false,"rental_uris":{"android":"levelo://app?vid=52601930-0fee-43f8-b0ba-1785be6d7c5c","ios":"levelo://app?vid=52601930-0fee-43f8-b0ba-1785be6d7c5c"},"vehicle_type_id":"4","last_reported":1770021001,"current_range_meters":6000,"station_id":"ce4bgn92rcd13ifvqbvg","pricing_plan_id":"cebpf4jnsgd1na2vs0mg"},{"bike_id":"5a46f343-f8c0-4bd7-9859-14e3ca910ba6","system_id":"levelo_inurba_marseille","lat":43.29496,"lon":5.43318,"is_reserved":false,"is_disabled":false,"rental_uris":{"android":"levelo://app?vid=5a46f343-f8c0-4bd7-9859-14e3ca910ba6","ios":"levelo://app?vid=5a46f343-f8c0-4bd7-9859-14e3ca910ba6"},"vehicle_type_id":"4","last_reported":1770021001,"current_range_meters":6000,"station_id":"st_d3j5ugp08ojc73fj9d10","pricing_plan_id":"cebpf4jnsgd1na2vs0mg"},{"bike_id":"2f272f9d-bafe-4a44-a2e3-105574c73c4b","system_id":"levelo_inurba_marseille","lat":43.24176,"lon":5.3973,"is_reserved":false,"is_disabled":false,"rental_uris":{"android":"levelo://app?vid=2f272f9d-bafe-4a44-a2e3-105574c73c4b","ios":"levelo://app?vid=2f272f9d-bafe-4a44-a2e3-105574c73c4b"},"vehicle_type_id":"4","last_reported":1770021001,"current_range_meters":6400,"station_id":"ce4bhn12rcd13ifvqgpg","pricing_plan_id":"cebpf4jnsgd1na2vs0mg"},{"bike_id":"8d19955e-e09c-4b47-a6e3-ae607dbe5088","system_id":"levelo_inurba_marseille","lat":43.26208,"lon":5.37465,"is_reserved":false,"is_disabled":true,"rental_uris":{"android":"levelo://app?vid=8d19955e-e09c-4b47-a6e3-ae607dbe5088","ios":"levelo://app?vid=8d19955e-e09c-4b47-a6e3-ae607dbe5088"},"vehicle_type_id":"4","last_reported":1770021001,"current_range_meters":6400,"station_id":"ce4bhgp2rcd13ifvqfc0","pricing_plan_id":"cebpf4jnsgd1na2vs0mg"},{"bike_id":"4d614b31-2487-459c-80b4-20568895cab0","system_id":"levelo_inurba_marseille","lat":43.24003,"lon":5.37865,"is_reserved":false,"is_disabled":true,"rental_uris":{"android":"levelo://app?vid=4d614b31-2487-459c-80b4-20568895cab0","ios":"levelo://app?vid=4d614b31-2487-459c-80b4-20568895cab0"},"vehicle_type_id":"4","last_reported":1770021001,"current_range_meters":6400,"station_id":"ce4bhnp2rcd13ifvqgvg","pricing_plan_id":"cebpf4jnsgd1na2vs0mg"},{"bike_id":"46a20b62-64ae-4717-b610-6e8bb569cadb","system_id":"levelo_inurba_marseille","lat":43.25866,"lon":5.39953,"is_reserved":false,"is_disabled":false,"rental_uris":{"android":"levelo://app?vid=46a20b62-64ae-4717-b610-6e8bb569cadb","ios":"levelo://app?vid=46a20b62-64ae-4717-b610-6e8bb569cadb"},"vehicle_type_id":"4","last_reported":1770021001,"current_range_meters":6400,"station_id":"ce4bhl92rcd13ifvqghg","pricing_plan_id":"cebpf4jnsgd1na2vs0mg"},{"bike_id":"4c50b102-00aa-40e2-83bd-5e90d2e54b17","system_id":"levelo_inurba_marseille","lat":43.27978,"lon":5.40024,"is_reserved":false,"is_disabled":false,"rental_uris":{"android":"levelo://app?vid=4c50b102-00aa-40e2-83bd-5e90d2e54b17","ios":"levelo://app?vid=4c50b102-00aa-40e2-83bd-5e90d2e54b17"},"vehicle_type_id":"4","last_reported":1770021001,"current_range_meters":6400,"station_id":"ce4bho92rcd13ifvqh4g","pricing_plan_id":"cebpf4jnsgd1na2vs0mg"},{"bike_id":"2b052603-1775-4258-80ad-ae63b6286ef5","system_id":"levelo_inurba_marseille","lat":43.297566,"lon":5.359227,"is_reserved":false,"is_disabled":true,"rental_uris":{"android":"levelo://app?vid=2b052603-1775-4258-80ad-ae63b6286ef5","ios":"levelo://app?vid=2b052603-1775-4258-80ad-ae63b6286ef5"},"vehicle_type_id":"4","last_reported":1770021001,"current_range_meters":6400,"station_id":"","pricing_plan_id":"cebpf4jnsgd1na2vs0mg"},{"bike_id":"b76887e2-5bd2-4c7f-b8a5-1ec753d148b3","system_id":"levelo_inurba_marseille","lat":43.250013,"lon":5.389277,"is_reserved":false,"is_disabled":false,"rental_uris":{"android":"levelo://app?vid=b76887e2-5bd2-4c7f-b8a5-1ec753d148b3","ios":"levelo://app?vid=b76887e2-5bd2-4c7f-b8a5-1ec753d148b3"},"vehicle_type_id":"4","last_reported":1770021001,"current_range_meters":6400,"station_id":"ce4bhgp2rcd13ifvqfd0","pricing_plan_id":"cebpf4jnsgd1na2vs0mg"},{"bike_id":"53a012bd-16c2-4c35-9868-c74d5c6bc555","system_id":"levelo_inurba_marseille","lat":43.31273,"lon":5.36733,"is_reserved":false,"is_disabled":false,"rental_uris":{"android":"levelo://app?vid=53a012bd-16c2-4c35-9868-c74d5c6bc555","ios":"levelo://app?vid=53a012bd-16c2-4c35-9868-c74d5c6bc555"},"vehicle_type_id":"4","last_reported":1770021001,"current_range_meters":6400,"station_id":"","pricing_plan_id":"cebpf4jnsgd1na2vs0mg"},{"bike_id":"fb4a42e6-4b95-4d29-93ec-2fbab2cfeec3","system_id":"levelo_inurba_marseille","lat":43.30147,"lon":5.38095,"is_reserved":false,"is_disabled":false,"rental_uris":{"android":"levelo://app?vid=fb4a42e6-4b95-4d29-93ec-2fbab2cfeec3","ios":"levelo://app?vid=fb4a42e6-4b95-4d29-93ec-2fbab2cfeec3"},"vehicle_type_id":"4","last_reported":1770021001,"current_range_meters":6400,"station_id":"ce4bgjp2rcd13ifvqbh0","pricing_plan_id":"cebpf4jnsgd1na2vs0mg"},{"bike_id":"48defe86-fd01-4bdf-bb58-0b96240d5da2","system_id":"levelo_inurba_marseille","lat":43.28487,"lon":5.48396,"is_reserved":false,"is_disabled":false,"rental_uris":{"android":"levelo://app?vid=48defe86-fd01-4bdf-bb58-0b96240d5da2","ios":"levelo://app?vid=48defe86-fd01-4bdf-bb58-0b96240d5da2"},"vehicle_type_id":"4","last_reported":1770021001,"current_range_meters":6400,"station_id":"st_d3svhcjqgbts73a3dn0g","pricing_plan_id":"cebpf4jnsgd1na2vs0mg"},{"bike_id":"76695816-489b-4401-ac2a-0147df0088c5","system_id":"levelo_inurba_marseille","lat":43.30547,"lon":5.37857,"is_reserved":false,"is_disabled":true,"rental_uris":{"android":"levelo://app?vid=76695816-489b-4401-ac2a-0147df0088c5","ios":"levelo://app?vid=76695816-489b-4401-ac2a-0147df0088c5"},"vehicle_type_id":"4","last_reported":1770021001,"current_range_meters":6800,"station_id":"ce4bgup2rcd13ifvqcn0","pricing_plan_id":"cebpf4jnsgd1na2vs0mg"},{"bike_id":"e09e2717-153b-489f-b446-f480f14d97b2","system_id":"levelo_inurba_marseille","lat":43.27938,"lon":5.41038,"is_reserved":false,"is_disabled":false,"rental_uris":{"android":"levelo://app?vid=e09e2717-153b-489f-b446-f480f14d97b2","ios":"levelo://app?vid=e09e2717-153b-489f-b446-f480f14d97b2"},"vehicle_type_id":"4","last_reported":1770021001,"current_range_meters":6800,"station_id":"ce4bhnp2rcd13ifvqh0g","pricing_plan_id":"cebpf4jnsgd1na2vs0mg"},{"bike_id":"b38789cc-18dd-40d1-ae76-cc4e95e9c6fd","system_id":"levelo_inurba_marseille","lat":43.31329,"lon":5.36714,"is_reserved":false,"is_disabled":false,"rental_uris":{"android":"levelo://app?vid=b38789cc-18dd-40d1-ae76-cc4e95e9c6fd","ios":"levelo://app?vid=b38789cc-18dd-40d1-ae76-cc4e95e9c6fd"},"vehicle_type_id":"4","last_reported":1770021001,"current_range_meters":6800,"station_id":"ce4bgr92rcd13ifvqc6g","pricing_plan_id":"cebpf4jnsgd1na2vs0mg"},{"bike_id":"4b39f1cc-8d5c-4330-8483-0300616cf7c0","system_id":"levelo_inurba_marseille","lat":43.2405,"lon":5.36391,"is_reserved":false,"is_disabled":false,"rental_uris":{"android":"levelo://app?vid=4b39f1cc-8d5c-4330-8483-0300616cf7c0","ios":"levelo://app?vid=4b39f1cc-8d5c-4330-8483-0300616cf7c0"},"vehicle_type_id":"4","last_reported":1770021001,"current_range_meters":6800,"station_id":"","pricing_plan_id":"cebpf4jnsgd1na2vs0mg"},{"bike_id":"541ab7b8-2379-478a-b67f-f1833387d742","system_id":"levelo_inurba_marseille","lat":43.290404,"lon":5.399684,"is_reserved":false,"is_disabled":false,"rental_uris":{"android":"levelo://app?vid=541ab7b8-2379-478a-b67f-f1833387d742","ios":"levelo://app?vid=541ab7b8-2379-478a-b67f-f1833387d742"},"vehicle_type_id":"4","last_reported":1770021001,"current_range_meters":6800,"station_id":"ce4bh392rcd13ifvqdm0","pricing_plan_id":"cebpf4jnsgd1na2vs0mg"},{"bike_id":"2e89fdd1-7445-4232-b055-a170710a3c69","system_id":"levelo_inurba_marseille","lat":43.30137,"lon":5.37423,"is_reserved":false,"is_disabled":false,"rental_uris":{"android":"levelo://app?vid=2e89fdd1-7445-4232-b055-a170710a3c69","ios":"levelo://app?vid=2e89fdd1-7445-4232-b055-a170710a3c69"},"vehicle_type_id":"4","last_reported":1770021001,"current_range_meters":6800,"station_id":"ce4bgs92rcd13ifvqcc0","pricing_plan_id":"cebpf4jnsgd1na2vs0mg"},{"bike_id":"d64baf67-1a62-4b86-9aae-88e7781f3b30","system_id":"levelo_inurba_marseille","lat":43.231876,"lon":5.399904,"is_reserved":false,"is_disabled":false,"rental_uris":{"android":"levelo://app?vid=d64baf67-1a62-4b86-9aae-88e7781f3b30","ios":"levelo://app?vid=d64baf67-1a62-4b86-9aae-88e7781f3b30"},"vehicle_type_id":"4","last_reported":1770021001,"current_range_meters":6800,"station_id":"ce4bhn12rcd13ifvqgqg","pricing_plan_id":"cebpf4jnsgd1na2vs0mg"},{"bike_id":"07fda48b-2492-4b11-8d19-816f965551d4","system_id":"levelo_inurba_marseille","lat":43.30532,"lon":5.36725,"is_reserved":false,"is_disabled":false,"rental_uris":{"android":"levelo://app?vid=07fda48b-2492-4b11-8d19-816f965551d4","ios":"levelo://app?vid=07fda48b-2492-4b11-8d19-816f965551d4"},"vehicle_type_id":"4","last_reported":1770021001,"current_range_meters":6800,"station_id":"ce4bgrp2rcd13ifvqc9g","pricing_plan_id":"cebpf4jnsgd1na2vs0mg"},{"bike_id":"7523e256-4e46-43cf-82b2-85ca9d087a1c","system_id":"levelo_inurba_marseille","lat":43.297147,"lon":5.369667,"is_reserved":false,"is_disabled":false,"rental_uris":{"android":"levelo://app?vid=7523e256-4e46-43cf-82b2-85ca9d087a1c","ios":"levelo://app?vid=7523e256-4e46-43cf-82b2-85ca9d087a1c"},"vehicle_type_id":"4","last_reported":1770021001,"current_range_meters":6800,"station_id":"ce4bgnh2rcd13ifvqc0g","pricing_plan_id":"cebpf4jnsgd1na2vs0mg"},{"bike_id":"ead9d525-178d-43f7-b202-498aac541976","system_id":"levelo_inurba_marseille","lat":43.22596,"lon":5.41578,"is_reserved":false,"is_disabled":false,"rental_uris":{"android":"levelo://app?vid=ead9d525-178d-43f7-b202-498aac541976","ios":"levelo://app?vid=ead9d525-178d-43f7-b202-498aac541976"},"vehicle_type_id":"4","last_reported":1770021001,"current_range_meters":6800,"station_id":"st_d2o4gvlbi1j2169b742g","pricing_plan_id":"cebpf4jnsgd1na2vs0mg"},{"bike_id":"926a8edb-6c8d-4b2e-993e-6675e7b51abd","system_id":"levelo_inurba_marseille","lat":43.23802,"lon":5.36607,"is_reserved":false,"is_disabled":false,"rental_uris":{"android":"levelo://app?vid=926a8edb-6c8d-4b2e-993e-6675e7b51abd","ios":"levelo://app?vid=926a8edb-6c8d-4b2e-993e-6675e7b51abd"},"vehicle_type_id":"4","last_reported":1770021001,"current_range_meters":6800,"station_id":"st_d3nk18o9ro0c73en2l3g","pricing_plan_id":"cebpf4jnsgd1na2vs0mg"},{"bike_id":"6e2e9e6b-9180-4489-adb4-62a40596f5aa","system_id":"levelo_inurba_marseille","lat":43.29278,"lon":5.40912,"is_reserved":false,"is_disabled":false,"rental_uris":{"android":"levelo://app?vid=6e2e9e6b-9180-4489-adb4-62a40596f5aa","ios":"levelo://app?vid=6e2e9e6b-9180-4489-adb4-62a40596f5aa"},"vehicle_type_id":"4","last_reported":1770021001,"current_range_meters":6800,"station_id":"ce4bh192rcd13ifvqdc0","pricing_plan_id":"cebpf4jnsgd1na2vs0mg"},{"bike_id":"6632b7eb-39fd-4ac6-ab18-a3a8fd79732f","system_id":"levelo_inurba_marseille","lat":43.30878,"lon":5.37121,"is_reserved":false,"is_disabled":false,"rental_uris":{"android":"levelo://app?vid=6632b7eb-39fd-4ac6-ab18-a3a8fd79732f","ios":"levelo://app?vid=6632b7eb-39fd-4ac6-ab18-a3a8fd79732f"},"vehicle_type_id":"4","last_reported":1770021001,"current_range_meters":6800,"station_id":"","pricing_plan_id":"cebpf4jnsgd1na2vs0mg"},{"bike_id":"fb770f52-ce98-4cd4-aae7-0a310d77081f","system_id":"levelo_inurba_marseille","lat":43.28927,"lon":5.42524,"is_reserved":false,"is_disabled":true,"rental_uris":{"android":"levelo://app?vid=fb770f52-ce98-4cd4-aae7-0a310d77081f","ios":"levelo://app?vid=fb770f52-ce98-4cd4-aae7-0a310d77081f"},"vehicle_type_id":"4","last_reported":1770021001,"current_range_meters":6800,"station_id":"st_d3b462108ojc7389ooeg","pricing_plan_id":"cebpf4jnsgd1na2vs0mg"},{"bike_id":"a35d1ffc-4772-4b43-81d7-120f92a89b28","system_id":"levelo_inurba_marseille","lat":43.28141,"lon":5.42647,"is_reserved":false,"is_disabled":false,"rental_uris":{"android":"levelo://app?vid=a35d1ffc-4772-4b43-81d7-120f92a89b28","ios":"levelo://app?vid=a35d1ffc-4772-4b43-81d7-120f92a89b28"},"vehicle_type_id":"4","last_reported":1770021001,"current_range_meters":6800,"station_id":"ce4bhnh2rcd13ifvqgug","pricing_plan_id":"cebpf4jnsgd1na2vs0mg"},{"bike_id":"4a4bc2bb-3123-4f54-88d8-9bdb25dd5c45","system_id":"levelo_inurba_marseille","lat":43.28965,"lon":5.37842,"is_reserved":false,"is_disabled":false,"rental_uris":{"android":"levelo://app?vid=4a4bc2bb-3123-4f54-88d8-9bdb25dd5c45","ios":"levelo://app?vid=4a4bc2bb-3123-4f54-88d8-9bdb25dd5c45"},"vehicle_type_id":"4","last_reported":1770021001,"current_range_meters":7200,"station_id":"ce4bh9p2rcd13ifvqed0","pricing_plan_id":"cebpf4jnsgd1na2vs0mg"},{"bike_id":"94cbe5a1-172e-4cc9-bb27-f3369919b100","system_id":"levelo_inurba_marseille","lat":43.24084,"lon":5.3774,"is_reserved":false,"is_disabled":false,"rental_uris":{"android":"levelo://app?vid=94cbe5a1-172e-4cc9-bb27-f3369919b100","ios":"levelo://app?vid=94cbe5a1-172e-4cc9-bb27-f3369919b100"},"vehicle_type_id":"4","last_reported":1770021001,"current_range_meters":7200,"station_id":"ce4bhnp2rcd13ifvqgvg","pricing_plan_id":"cebpf4jnsgd1na2vs0mg"},{"bike_id":"c908c76d-5841-48a6-bd50-48ef6a9cf886","system_id":"levelo_inurba_marseille","lat":43.32492,"lon":5.38314,"is_reserved":false,"is_disabled":false,"rental_uris":{"android":"levelo://app?vid=c908c76d-5841-48a6-bd50-48ef6a9cf886","ios":"levelo://app?vid=c908c76d-5841-48a6-bd50-48ef6a9cf886"},"vehicle_type_id":"4","last_reported":1770021001,"current_range_meters":7200,"station_id":"st_d4asgbiv49dc73anf9m0","pricing_plan_id":"cebpf4jnsgd1na2vs0mg"},{"bike_id":"81381593-29ab-4b95-894b-98d451086551","system_id":"levelo_inurba_marseille","lat":43.27372,"lon":5.3626,"is_reserved":false,"is_disabled":false,"rental_uris":{"android":"levelo://app?vid=81381593-29ab-4b95-894b-98d451086551","ios":"levelo://app?vid=81381593-29ab-4b95-894b-98d451086551"},"vehicle_type_id":"4","last_reported":1770021001,"current_range_meters":7200,"station_id":"ce4bhbh2rcd13ifvqeo0","pricing_plan_id":"cebpf4jnsgd1na2vs0mg"},{"bike_id":"3475ef01-6815-478c-8253-72b3293c048d","system_id":"levelo_inurba_marseille","lat":43.31255,"lon":5.36866,"is_reserved":false,"is_disabled":false,"rental_uris":{"android":"levelo://app?vid=3475ef01-6815-478c-8253-72b3293c048d","ios":"levelo://app?vid=3475ef01-6815-478c-8253-72b3293c048d"},"vehicle_type_id":"4","last_reported":1770021001,"current_range_meters":7200,"station_id":"ce4bgl92rcd13ifvqbq0","pricing_plan_id":"cebpf4jnsgd1na2vs0mg"},{"bike_id":"83087f4e-0d78-41d4-8b16-ef75c68aab04","system_id":"levelo_inurba_marseille","lat":43.3053,"lon":5.3655,"is_reserved":false,"is_disabled":false,"rental_uris":{"android":"levelo://app?vid=83087f4e-0d78-41d4-8b16-ef75c68aab04","ios":"levelo://app?vid=83087f4e-0d78-41d4-8b16-ef75c68aab04"},"vehicle_type_id":"4","last_reported":1770021001,"current_range_meters":7200,"station_id":"ce4bgs12rcd13ifvqcag","pricing_plan_id":"cebpf4jnsgd1na2vs0mg"},{"bike_id":"c727b0e5-6d02-4d30-8ab7-176d38c9e150","system_id":"levelo_inurba_marseille","lat":43.317193,"lon":5.423934,"is_reserved":false,"is_disabled":false,"rental_uris":{"android":"levelo://app?vid=c727b0e5-6d02-4d30-8ab7-176d38c9e150","ios":"levelo://app?vid=c727b0e5-6d02-4d30-8ab7-176d38c9e150"},"vehicle_type_id":"4","last_reported":1770021001,"current_range_meters":7200,"station_id":"ce4bhp92rcd13ifvqhbg","pricing_plan_id":"cebpf4jnsgd1na2vs0mg"},{"bike_id":"f34b59e1-4e39-4af3-a25b-ab4cbda4d328","system_id":"levelo_inurba_marseille","lat":43.24763,"lon":5.37454,"is_reserved":false,"is_disabled":false,"rental_uris":{"android":"levelo://app?vid=f34b59e1-4e39-4af3-a25b-ab4cbda4d328","ios":"levelo://app?vid=f34b59e1-4e39-4af3-a25b-ab4cbda4d328"},"vehicle_type_id":"4","last_reported":1770021001,"current_range_meters":7200,"station_id":"ce4bhgh2rcd13ifvqfb0","pricing_plan_id":"cebpf4jnsgd1na2vs0mg"},{"bike_id":"7339baea-42a7-44c8-866b-b3318d7a94e4","system_id":"levelo_inurba_marseille","lat":43.31059,"lon":5.37184,"is_reserved":false,"is_disabled":false,"rental_uris":{"android":"levelo://app?vid=7339baea-42a7-44c8-866b-b3318d7a94e4","ios":"levelo://app?vid=7339baea-42a7-44c8-866b-b3318d7a94e4"},"vehicle_type_id":"4","last_reported":1770021001,"current_range_meters":7200,"station_id":"st_d4kl2rp97mjs73e7tdfg","pricing_plan_id":"cebpf4jnsgd1na2vs0mg"},{"bike_id":"3a58788c-4a23-4531-9872-db4b04a34512","system_id":"levelo_inurba_marseille","lat":43.24926,"lon":5.38905,"is_reserved":false,"is_disabled":false,"rental_uris":{"android":"levelo://app?vid=3a58788c-4a23-4531-9872-db4b04a34512","ios":"levelo://app?vid=3a58788c-4a23-4531-9872-db4b04a34512"},"vehicle_type_id":"4","last_reported":1770021001,"current_range_meters":7200,"station_id":"","pricing_plan_id":"cebpf4jnsgd1na2vs0mg"},{"bike_id":"647e8c67-198d-4317-8b12-fb4881b15010","system_id":"levelo_inurba_marseille","lat":43.29732,"lon":5.36455,"is_reserved":false,"is_disabled":false,"rental_uris":{"android":"levelo://app?vid=647e8c67-198d-4317-8b12-fb4881b15010","ios":"levelo://app?vid=647e8c67-198d-4317-8b12-fb4881b15010"},"vehicle_type_id":"4","last_reported":1770021001,"current_range_meters":7200,"station_id":"","pricing_plan_id":"cebpf4jnsgd1na2vs0mg"},{"bike_id":"103d9878-2da6-4373-a147-e7fd1a4a7487","system_id":"levelo_inurba_marseille","lat":43.31047,"lon":5.37183,"is_reserved":false,"is_disabled":false,"rental_uris":{"android":"levelo://app?vid=103d9878-2da6-4373-a147-e7fd1a4a7487","ios":"levelo://app?vid=103d9878-2da6-4373-a147-e7fd1a4a7487"},"vehicle_type_id":"4","last_reported":1770021001,"current_range_meters":7200,"station_id":"st_d4kl2rp97mjs73e7tdfg","pricing_plan_id":"cebpf4jnsgd1na2vs0mg"},{"bike_id":"598c3be9-e516-4a68-8ee3-e84cf24002f9","system_id":"levelo_inurba_marseille","lat":43.24996,"lon":5.38932,"is_reserved":false,"is_disabled":false,"rental_uris":{"android":"levelo://app?vid=598c3be9-e516-4a68-8ee3-e84cf24002f9","ios":"levelo://app?vid=598c3be9-e516-4a68-8ee3-e84cf24002f9"},"vehicle_type_id":"4","last_reported":1770021001,"current_range_meters":7200,"station_id":"ce4bhgp2rcd13ifvqfd0","pricing_plan_id":"cebpf4jnsgd1na2vs0mg"},{"bike_id":"297d13dc-a8fe-4c7e-ab4e-c67c01d72bc9","system_id":"levelo_inurba_marseille","lat":43.26677,"lon":5.38278,"is_reserved":false,"is_disabled":false,"rental_uris":{"android":"levelo://app?vid=297d13dc-a8fe-4c7e-ab4e-c67c01d72bc9","ios":"levelo://app?vid=297d13dc-a8fe-4c7e-ab4e-c67c01d72bc9"},"vehicle_type_id":"4","last_reported":1770021001,"current_range_meters":8000,"station_id":"ce4bhg92rcd13ifvqf90","pricing_plan_id":"cebpf4jnsgd1na2vs0mg"},{"bike_id":"83954c91-b1be-419e-85e2-be05d774291d","system_id":"levelo_inurba_marseille","lat":43.24049,"lon":5.37789,"is_reserved":false,"is_disabled":false,"rental_uris":{"android":"levelo://app?vid=83954c91-b1be-419e-85e2-be05d774291d","ios":"levelo://app?vid=83954c91-b1be-419e-85e2-be05d774291d"},"vehicle_type_id":"4","last_reported":1770021001,"current_range_meters":8000,"station_id":"ce4bhnp2rcd13ifvqgvg","pricing_plan_id":"cebpf4jnsgd1na2vs0mg"},{"bike_id":"78f87509-7a97-4d09-86ee-cdbe34d59bc6","system_id":"levelo_inurba_marseille","lat":43.24815,"lon":5.3847,"is_reserved":false,"is_disabled":false,"rental_uris":{"android":"levelo://app?vid=78f87509-7a97-4d09-86ee-cdbe34d59bc6","ios":"levelo://app?vid=78f87509-7a97-4d09-86ee-cdbe34d59bc6"},"vehicle_type_id":"4","last_reported":1770021001,"current_range_meters":8000,"station_id":"","pricing_plan_id":"cebpf4jnsgd1na2vs0mg"},{"bike_id":"0f8ab205-b08e-4dd8-9e0a-11809d5e78f9","system_id":"levelo_inurba_marseille","lat":43.30535,"lon":5.36542,"is_reserved":false,"is_disabled":false,"rental_uris":{"android":"levelo://app?vid=0f8ab205-b08e-4dd8-9e0a-11809d5e78f9","ios":"levelo://app?vid=0f8ab205-b08e-4dd8-9e0a-11809d5e78f9"},"vehicle_type_id":"4","last_reported":1770021001,"current_range_meters":8000,"station_id":"ce4bgs12rcd13ifvqcag","pricing_plan_id":"cebpf4jnsgd1na2vs0mg"},{"bike_id":"2d538e38-1b37-4b8e-bd2e-7d47bdc6040e","system_id":"levelo_inurba_marseille","lat":43.29021,"lon":5.37551,"is_reserved":false,"is_disabled":true,"rental_uris":{"android":"levelo://app?vid=2d538e38-1b37-4b8e-bd2e-7d47bdc6040e","ios":"levelo://app?vid=2d538e38-1b37-4b8e-bd2e-7d47bdc6040e"},"vehicle_type_id":"4","last_reported":1770021001,"current_range_meters":8000,"station_id":"ce4bh692rcd13ifvqe90","pricing_plan_id":"cebpf4jnsgd1na2vs0mg"},{"bike_id":"3732f1eb-e4a8-4e19-ac1d-f42f35b721e7","system_id":"levelo_inurba_marseille","lat":43.30045,"lon":5.39142,"is_reserved":false,"is_disabled":false,"rental_uris":{"android":"levelo://app?vid=3732f1eb-e4a8-4e19-ac1d-f42f35b721e7","ios":"levelo://app?vid=3732f1eb-e4a8-4e19-ac1d-f42f35b721e7"},"vehicle_type_id":"4","last_reported":1770021001,"current_range_meters":8000,"station_id":"","pricing_plan_id":"cebpf4jnsgd1na2vs0mg"},{"bike_id":"afd4599a-bce3-4586-87e8-b420b6da49a7","system_id":"levelo_inurba_marseille","lat":43.2591,"lon":5.40916,"is_reserved":false,"is_disabled":false,"rental_uris":{"android":"levelo://app?vid=afd4599a-bce3-4586-87e8-b420b6da49a7","ios":"levelo://app?vid=afd4599a-bce3-4586-87e8-b420b6da49a7"},"vehicle_type_id":"4","last_reported":1770021001,"current_range_meters":8000,"station_id":"ce4bhm92rcd13ifvqglg","pricing_plan_id":"cebpf4jnsgd1na2vs0mg"},{"bike_id":"adddaa60-d055-4421-b10f-573a435d7714","system_id":"levelo_inurba_marseille","lat":43.25494,"lon":5.37666,"is_reserved":false,"is_disabled":false,"rental_uris":{"android":"levelo://app?vid=adddaa60-d055-4421-b10f-573a435d7714","ios":"levelo://app?vid=adddaa60-d055-4421-b10f-573a435d7714"},"vehicle_type_id":"4","last_reported":1770021001,"current_range_meters":8000,"station_id":"ce4bhh12rcd13ifvqff0","pricing_plan_id":"cebpf4jnsgd1na2vs0mg"},{"bike_id":"27dcb8fb-bc37-437e-8d8b-62fa0efb4197","system_id":"levelo_inurba_marseille","lat":43.28401,"lon":5.34998,"is_reserved":false,"is_disabled":false,"rental_uris":{"android":"levelo://app?vid=27dcb8fb-bc37-437e-8d8b-62fa0efb4197","ios":"levelo://app?vid=27dcb8fb-bc37-437e-8d8b-62fa0efb4197"},"vehicle_type_id":"4","last_reported":1770021001,"current_range_meters":8000,"station_id":"ce4bhbh2rcd13ifvqepg","pricing_plan_id":"cebpf4jnsgd1na2vs0mg"},{"bike_id":"1948f599-abbd-4a5c-8323-e45a670a006c","system_id":"levelo_inurba_marseille","lat":43.29524,"lon":5.37514,"is_reserved":false,"is_disabled":false,"rental_uris":{"android":"levelo://app?vid=1948f599-abbd-4a5c-8323-e45a670a006c","ios":"levelo://app?vid=1948f599-abbd-4a5c-8323-e45a670a006c"},"vehicle_type_id":"4","last_reported":1770021001,"current_range_meters":8000,"station_id":"ce4bgkp2rcd13ifvqbmg","pricing_plan_id":"cebpf4jnsgd1na2vs0mg"},{"bike_id":"df56c3cd-b8f3-4331-9204-6cdae907a930","system_id":"levelo_inurba_marseille","lat":43.29988,"lon":5.37173,"is_reserved":false,"is_disabled":true,"rental_uris":{"android":"levelo://app?vid=df56c3cd-b8f3-4331-9204-6cdae907a930","ios":"levelo://app?vid=df56c3cd-b8f3-4331-9204-6cdae907a930"},"vehicle_type_id":"4","last_reported":1770021001,"current_range_meters":8000,"station_id":"ce4bgr92rcd13ifvqc7g","pricing_plan_id":"cebpf4jnsgd1na2vs0mg"},{"bike_id":"7cb4d92c-ddfd-4673-939d-de19e5a92bf3","system_id":"levelo_inurba_marseille","lat":43.30136,"lon":5.38128,"is_reserved":false,"is_disabled":true,"rental_uris":{"android":"levelo://app?vid=7cb4d92c-ddfd-4673-939d-de19e5a92bf3","ios":"levelo://app?vid=7cb4d92c-ddfd-4673-939d-de19e5a92bf3"},"vehicle_type_id":"4","last_reported":1770021001,"current_range_meters":8000,"station_id":"ce4bgjp2rcd13ifvqbh0","pricing_plan_id":"cebpf4jnsgd1na2vs0mg"},{"bike_id":"383629b2-73f2-4b1e-9cf1-7119fdaec39e","system_id":"levelo_inurba_marseille","lat":43.27375,"lon":5.36257,"is_reserved":false,"is_disabled":false,"rental_uris":{"android":"levelo://app?vid=383629b2-73f2-4b1e-9cf1-7119fdaec39e","ios":"levelo://app?vid=383629b2-73f2-4b1e-9cf1-7119fdaec39e"},"vehicle_type_id":"4","last_reported":1770021001,"current_range_meters":8400,"station_id":"ce4bhbh2rcd13ifvqeo0","pricing_plan_id":"cebpf4jnsgd1na2vs0mg"},{"bike_id":"42f3911a-939e-4889-9561-3c06517c8f7e","system_id":"levelo_inurba_marseille","lat":43.26767,"lon":5.39449,"is_reserved":false,"is_disabled":true,"rental_uris":{"android":"levelo://app?vid=42f3911a-939e-4889-9561-3c06517c8f7e","ios":"levelo://app?vid=42f3911a-939e-4889-9561-3c06517c8f7e"},"vehicle_type_id":"4","last_reported":1770021001,"current_range_meters":8400,"station_id":"","pricing_plan_id":"cebpf4jnsgd1na2vs0mg"},{"bike_id":"62af0ab7-05b6-4f47-9cdb-5da8f9fcdec4","system_id":"levelo_inurba_marseille","lat":43.225634,"lon":5.416193,"is_reserved":false,"is_disabled":false,"rental_uris":{"android":"levelo://app?vid=62af0ab7-05b6-4f47-9cdb-5da8f9fcdec4","ios":"levelo://app?vid=62af0ab7-05b6-4f47-9cdb-5da8f9fcdec4"},"vehicle_type_id":"4","last_reported":1770021001,"current_range_meters":8400,"station_id":"st_d2o4gvlbi1j2169b742g","pricing_plan_id":"cebpf4jnsgd1na2vs0mg"},{"bike_id":"61c60e02-8ed5-49e9-90c2-04146b3fff6a","system_id":"levelo_inurba_marseille","lat":43.3316,"lon":5.37685,"is_reserved":false,"is_disabled":false,"rental_uris":{"android":"levelo://app?vid=61c60e02-8ed5-49e9-90c2-04146b3fff6a","ios":"levelo://app?vid=61c60e02-8ed5-49e9-90c2-04146b3fff6a"},"vehicle_type_id":"4","last_reported":1770021001,"current_range_meters":8400,"station_id":"st_d46cu089ee8s73dldbu0","pricing_plan_id":"cebpf4jnsgd1na2vs0mg"},{"bike_id":"11669f92-a768-40e3-968e-23d92654a864","system_id":"levelo_inurba_marseille","lat":43.2795,"lon":5.41054,"is_reserved":false,"is_disabled":false,"rental_uris":{"android":"levelo://app?vid=11669f92-a768-40e3-968e-23d92654a864","ios":"levelo://app?vid=11669f92-a768-40e3-968e-23d92654a864"},"vehicle_type_id":"4","last_reported":1770021001,"current_range_meters":8400,"station_id":"ce4bhnp2rcd13ifvqh0g","pricing_plan_id":"cebpf4jnsgd1na2vs0mg"},{"bike_id":"8774adf0-091c-4acb-a18a-0b7f970d22ca","system_id":"levelo_inurba_marseille","lat":43.29866,"lon":5.38448,"is_reserved":false,"is_disabled":false,"rental_uris":{"android":"levelo://app?vid=8774adf0-091c-4acb-a18a-0b7f970d22ca","ios":"levelo://app?vid=8774adf0-091c-4acb-a18a-0b7f970d22ca"},"vehicle_type_id":"4","last_reported":1770021001,"current_range_meters":8400,"station_id":"","pricing_plan_id":"cebpf4jnsgd1na2vs0mg"},{"bike_id":"7ac53e7b-4a27-4aab-9631-08495b8cb3e9","system_id":"levelo_inurba_marseille","lat":43.29524,"lon":5.37504,"is_reserved":false,"is_disabled":false,"rental_uris":{"android":"levelo://app?vid=7ac53e7b-4a27-4aab-9631-08495b8cb3e9","ios":"levelo://app?vid=7ac53e7b-4a27-4aab-9631-08495b8cb3e9"},"vehicle_type_id":"4","last_reported":1770021001,"current_range_meters":8400,"station_id":"ce4bgkp2rcd13ifvqbmg","pricing_plan_id":"cebpf4jnsgd1na2vs0mg"},{"bike_id":"c0aefe3c-480c-475c-8458-7f167f7fca54","system_id":"levelo_inurba_marseille","lat":43.27488,"lon":5.42466,"is_reserved":false,"is_disabled":false,"rental_uris":{"android":"levelo://app?vid=c0aefe3c-480c-475c-8458-7f167f7fca54","ios":"levelo://app?vid=c0aefe3c-480c-475c-8458-7f167f7fca54"},"vehicle_type_id":"4","last_reported":1770021001,"current_range_meters":8400,"station_id":"ce4bhn92rcd13ifvqgrg","pricing_plan_id":"cebpf4jnsgd1na2vs0mg"},{"bike_id":"3b9c8f3e-f433-4f76-92cb-a9ab1b517dc0","system_id":"levelo_inurba_marseille","lat":43.29443,"lon":5.37575,"is_reserved":false,"is_disabled":false,"rental_uris":{"android":"levelo://app?vid=3b9c8f3e-f433-4f76-92cb-a9ab1b517dc0","ios":"levelo://app?vid=3b9c8f3e-f433-4f76-92cb-a9ab1b517dc0"},"vehicle_type_id":"4","last_reported":1770021001,"current_range_meters":8400,"station_id":"","pricing_plan_id":"cebpf4jnsgd1na2vs0mg"},{"bike_id":"2e2ca89f-1c71-488e-b391-1741ea544ff6","system_id":"levelo_inurba_marseille","lat":43.308993,"lon":5.372333,"is_reserved":false,"is_disabled":false,"rental_uris":{"android":"levelo://app?vid=2e2ca89f-1c71-488e-b391-1741ea544ff6","ios":"levelo://app?vid=2e2ca89f-1c71-488e-b391-1741ea544ff6"},"vehicle_type_id":"4","last_reported":1770021001,"current_range_meters":8400,"station_id":"ce4bguh2rcd13ifvqckg","pricing_plan_id":"cebpf4jnsgd1na2vs0mg"},{"bike_id":"83e69128-718d-4874-b6d5-45981017f22e","system_id":"levelo_inurba_marseille","lat":43.30172,"lon":5.38061,"is_reserved":false,"is_disabled":false,"rental_uris":{"android":"levelo://app?vid=83e69128-718d-4874-b6d5-45981017f22e","ios":"levelo://app?vid=83e69128-718d-4874-b6d5-45981017f22e"},"vehicle_type_id":"4","last_reported":1770021001,"current_range_meters":8400,"station_id":"ce4bgjp2rcd13ifvqbh0","pricing_plan_id":"cebpf4jnsgd1na2vs0mg"},{"bike_id":"e73a6b18-e6bd-4af3-92ae-5f38381bf229","system_id":"levelo_inurba_marseille","lat":43.3013,"lon":5.37417,"is_reserved":false,"is_disabled":false,"rental_uris":{"android":"levelo://app?vid=e73a6b18-e6bd-4af3-92ae-5f38381bf229","ios":"levelo://app?vid=e73a6b18-e6bd-4af3-92ae-5f38381bf229"},"vehicle_type_id":"4","last_reported":1770021001,"current_range_meters":8400,"station_id":"ce4bgs92rcd13ifvqcc0","pricing_plan_id":"cebpf4jnsgd1na2vs0mg"},{"bike_id":"180da0d1-bd60-4b3f-a4d6-ad95d36df675","system_id":"levelo_inurba_marseille","lat":43.231938,"lon":5.355395,"is_reserved":false,"is_disabled":false,"rental_uris":{"android":"levelo://app?vid=180da0d1-bd60-4b3f-a4d6-ad95d36df675","ios":"levelo://app?vid=180da0d1-bd60-4b3f-a4d6-ad95d36df675"},"vehicle_type_id":"4","last_reported":1770021001,"current_range_meters":8400,"station_id":"ce4bhu92rcd13ifvqi70","pricing_plan_id":"cebpf4jnsgd1na2vs0mg"},{"bike_id":"a06d1820-eddd-4a49-9c6c-2e4c10ff35be","system_id":"levelo_inurba_marseille","lat":43.262006,"lon":5.379143,"is_reserved":false,"is_disabled":false,"rental_uris":{"android":"levelo://app?vid=a06d1820-eddd-4a49-9c6c-2e4c10ff35be","ios":"levelo://app?vid=a06d1820-eddd-4a49-9c6c-2e4c10ff35be"},"vehicle_type_id":"4","last_reported":1770021001,"current_range_meters":8400,"station_id":"","pricing_plan_id":"cebpf4jnsgd1na2vs0mg"},{"bike_id":"20e5a6ab-b7c2-47d7-a8a2-b30b7e3c699b","system_id":"levelo_inurba_marseille","lat":43.2847,"lon":5.48405,"is_reserved":false,"is_disabled":false,"rental_uris":{"android":"levelo://app?vid=20e5a6ab-b7c2-47d7-a8a2-b30b7e3c699b","ios":"levelo://app?vid=20e5a6ab-b7c2-47d7-a8a2-b30b7e3c699b"},"vehicle_type_id":"4","last_reported":1770021001,"current_range_meters":8400,"station_id":"st_d3svhcjqgbts73a3dn0g","pricing_plan_id":"cebpf4jnsgd1na2vs0mg"},{"bike_id":"952045d2-3431-4cee-8ea5-02331c0b9d56","system_id":"levelo_inurba_marseille","lat":43.25935,"lon":5.40905,"is_reserved":false,"is_disabled":false,"rental_uris":{"android":"levelo://app?vid=952045d2-3431-4cee-8ea5-02331c0b9d56","ios":"levelo://app?vid=952045d2-3431-4cee-8ea5-02331c0b9d56"},"vehicle_type_id":"4","last_reported":1770021001,"current_range_meters":8400,"station_id":"ce4bhm92rcd13ifvqglg","pricing_plan_id":"cebpf4jnsgd1na2vs0mg"},{"bike_id":"cd51f784-a77c-4831-b04b-afe6fd280c95","system_id":"levelo_inurba_marseille","lat":43.23197,"lon":5.35561,"is_reserved":false,"is_disabled":false,"rental_uris":{"android":"levelo://app?vid=cd51f784-a77c-4831-b04b-afe6fd280c95","ios":"levelo://app?vid=cd51f784-a77c-4831-b04b-afe6fd280c95"},"vehicle_type_id":"4","last_reported":1770021001,"current_range_meters":8400,"station_id":"ce4bhu92rcd13ifvqi70","pricing_plan_id":"cebpf4jnsgd1na2vs0mg"},{"bike_id":"9113ed34-4eae-4a17-a7d2-71a7b76f8d6a","system_id":"levelo_inurba_marseille","lat":43.25928,"lon":5.40927,"is_reserved":false,"is_disabled":false,"rental_uris":{"android":"levelo://app?vid=9113ed34-4eae-4a17-a7d2-71a7b76f8d6a","ios":"levelo://app?vid=9113ed34-4eae-4a17-a7d2-71a7b76f8d6a"},"vehicle_type_id":"4","last_reported":1770021001,"current_range_meters":8400,"station_id":"ce4bhm92rcd13ifvqglg","pricing_plan_id":"cebpf4jnsgd1na2vs0mg"},{"bike_id":"a7a08982-a4b3-4165-befb-342335e20b0b","system_id":"levelo_inurba_marseille","lat":43.23784,"lon":5.36632,"is_reserved":false,"is_disabled":false,"rental_uris":{"android":"levelo://app?vid=a7a08982-a4b3-4165-befb-342335e20b0b","ios":"levelo://app?vid=a7a08982-a4b3-4165-befb-342335e20b0b"},"vehicle_type_id":"4","last_reported":1770021001,"current_range_meters":8800,"station_id":"st_d3nk18o9ro0c73en2l3g","pricing_plan_id":"cebpf4jnsgd1na2vs0mg"},{"bike_id":"a4a78e26-f7cc-42fe-a5d9-4836263a9354","system_id":"levelo_inurba_marseille","lat":43.33142,"lon":5.3772,"is_reserved":false,"is_disabled":false,"rental_uris":{"android":"levelo://app?vid=a4a78e26-f7cc-42fe-a5d9-4836263a9354","ios":"levelo://app?vid=a4a78e26-f7cc-42fe-a5d9-4836263a9354"},"vehicle_type_id":"4","last_reported":1770021001,"current_range_meters":8800,"station_id":"st_d46cu089ee8s73dldbu0","pricing_plan_id":"cebpf4jnsgd1na2vs0mg"},{"bike_id":"3875a361-561e-4abc-bef7-7b178c7c9d2b","system_id":"levelo_inurba_marseille","lat":43.30133,"lon":5.38754,"is_reserved":false,"is_disabled":false,"rental_uris":{"android":"levelo://app?vid=3875a361-561e-4abc-bef7-7b178c7c9d2b","ios":"levelo://app?vid=3875a361-561e-4abc-bef7-7b178c7c9d2b"},"vehicle_type_id":"4","last_reported":1770021001,"current_range_meters":8800,"station_id":"ce4bghh2rcd13ifvqb60","pricing_plan_id":"cebpf4jnsgd1na2vs0mg"},{"bike_id":"450d125b-db69-4dd8-9efc-f1b0ec2c3479","system_id":"levelo_inurba_marseille","lat":43.23117,"lon":5.43818,"is_reserved":false,"is_disabled":false,"rental_uris":{"android":"levelo://app?vid=450d125b-db69-4dd8-9efc-f1b0ec2c3479","ios":"levelo://app?vid=450d125b-db69-4dd8-9efc-f1b0ec2c3479"},"vehicle_type_id":"4","last_reported":1770021001,"current_range_meters":8800,"station_id":"ce4bhmp2rcd13ifvqgog","pricing_plan_id":"cebpf4jnsgd1na2vs0mg"},{"bike_id":"d03e9b46-7272-4618-b39d-129810a200cf","system_id":"levelo_inurba_marseille","lat":43.24079,"lon":5.37758,"is_reserved":false,"is_disabled":false,"rental_uris":{"android":"levelo://app?vid=d03e9b46-7272-4618-b39d-129810a200cf","ios":"levelo://app?vid=d03e9b46-7272-4618-b39d-129810a200cf"},"vehicle_type_id":"4","last_reported":1770021001,"current_range_meters":8800,"station_id":"ce4bhnp2rcd13ifvqgvg","pricing_plan_id":"cebpf4jnsgd1na2vs0mg"},{"bike_id":"1a8a6686-5e0a-481c-b2a8-1ac4c1dba7c4","system_id":"levelo_inurba_marseille","lat":43.30459,"lon":5.37909,"is_reserved":false,"is_disabled":false,"rental_uris":{"android":"levelo://app?vid=1a8a6686-5e0a-481c-b2a8-1ac4c1dba7c4","ios":"levelo://app?vid=1a8a6686-5e0a-481c-b2a8-1ac4c1dba7c4"},"vehicle_type_id":"4","last_reported":1770021001,"current_range_meters":8800,"station_id":"ce4bgup2rcd13ifvqcn0","pricing_plan_id":"cebpf4jnsgd1na2vs0mg"},{"bike_id":"c6616287-0d62-45f8-812c-6d9f28b9aeba","system_id":"levelo_inurba_marseille","lat":43.31753,"lon":5.39019,"is_reserved":false,"is_disabled":false,"rental_uris":{"android":"levelo://app?vid=c6616287-0d62-45f8-812c-6d9f28b9aeba","ios":"levelo://app?vid=c6616287-0d62-45f8-812c-6d9f28b9aeba"},"vehicle_type_id":"4","last_reported":1770021001,"current_range_meters":8800,"station_id":"ce4bhqp2rcd13ifvqhng","pricing_plan_id":"cebpf4jnsgd1na2vs0mg"},{"bike_id":"2681ad9d-1b4e-4271-a4f3-4ffa9105c9d1","system_id":"levelo_inurba_marseille","lat":43.267915,"lon":5.394153,"is_reserved":false,"is_disabled":false,"rental_uris":{"android":"levelo://app?vid=2681ad9d-1b4e-4271-a4f3-4ffa9105c9d1","ios":"levelo://app?vid=2681ad9d-1b4e-4271-a4f3-4ffa9105c9d1"},"vehicle_type_id":"4","last_reported":1770021001,"current_range_meters":8800,"station_id":"ce4bhh12rcd13ifvqfg0","pricing_plan_id":"cebpf4jnsgd1na2vs0mg"},{"bike_id":"58977562-1567-4d50-83f8-5538e0cea511","system_id":"levelo_inurba_marseille","lat":43.24175,"lon":5.39704,"is_reserved":false,"is_disabled":false,"rental_uris":{"android":"levelo://app?vid=58977562-1567-4d50-83f8-5538e0cea511","ios":"levelo://app?vid=58977562-1567-4d50-83f8-5538e0cea511"},"vehicle_type_id":"4","last_reported":1770021001,"current_range_meters":8800,"station_id":"ce4bhn12rcd13ifvqgpg","pricing_plan_id":"cebpf4jnsgd1na2vs0mg"},{"bike_id":"ea6aae0b-bc6c-4394-ad65-ecc3ba5e86b3","system_id":"levelo_inurba_marseille","lat":43.3248,"lon":5.36552,"is_reserved":false,"is_disabled":false,"rental_uris":{"android":"levelo://app?vid=ea6aae0b-bc6c-4394-ad65-ecc3ba5e86b3","ios":"levelo://app?vid=ea6aae0b-bc6c-4394-ad65-ecc3ba5e86b3"},"vehicle_type_id":"4","last_reported":1770021001,"current_range_meters":8800,"station_id":"ce4bhs12rcd13ifvqhvg","pricing_plan_id":"cebpf4jnsgd1na2vs0mg"},{"bike_id":"551b7a29-d776-4906-b0b3-5e3381c6f5a6","system_id":"levelo_inurba_marseille","lat":43.29104,"lon":5.37753,"is_reserved":false,"is_disabled":false,"rental_uris":{"android":"levelo://app?vid=551b7a29-d776-4906-b0b3-5e3381c6f5a6","ios":"levelo://app?vid=551b7a29-d776-4906-b0b3-5e3381c6f5a6"},"vehicle_type_id":"4","last_reported":1770021001,"current_range_meters":8800,"station_id":"","pricing_plan_id":"cebpf4jnsgd1na2vs0mg"},{"bike_id":"b5c62864-5148-4dd9-a847-9851d19d88a7","system_id":"levelo_inurba_marseille","lat":43.24077,"lon":5.3776,"is_reserved":false,"is_disabled":false,"rental_uris":{"android":"levelo://app?vid=b5c62864-5148-4dd9-a847-9851d19d88a7","ios":"levelo://app?vid=b5c62864-5148-4dd9-a847-9851d19d88a7"},"vehicle_type_id":"4","last_reported":1770021001,"current_range_meters":8800,"station_id":"ce4bhnp2rcd13ifvqgvg","pricing_plan_id":"cebpf4jnsgd1na2vs0mg"},{"bike_id":"cbe51cc2-f5b2-491e-b8a9-ef7b66f59aad","system_id":"levelo_inurba_marseille","lat":43.23782,"lon":5.36635,"is_reserved":false,"is_disabled":false,"rental_uris":{"android":"levelo://app?vid=cbe51cc2-f5b2-491e-b8a9-ef7b66f59aad","ios":"levelo://app?vid=cbe51cc2-f5b2-491e-b8a9-ef7b66f59aad"},"vehicle_type_id":"4","last_reported":1770021001,"current_range_meters":8800,"station_id":"st_d3nk18o9ro0c73en2l3g","pricing_plan_id":"cebpf4jnsgd1na2vs0mg"},{"bike_id":"eaecb828-b76d-4182-97d7-3d3819619546","system_id":"levelo_inurba_marseille","lat":43.27325,"lon":5.39084,"is_reserved":false,"is_disabled":false,"rental_uris":{"android":"levelo://app?vid=eaecb828-b76d-4182-97d7-3d3819619546","ios":"levelo://app?vid=eaecb828-b76d-4182-97d7-3d3819619546"},"vehicle_type_id":"4","last_reported":1770021001,"current_range_meters":8800,"station_id":"ce4bhgp2rcd13ifvqfe0","pricing_plan_id":"cebpf4jnsgd1na2vs0mg"},{"bike_id":"ac5c9602-e433-4a2b-8091-d027da8b9fa6","system_id":"levelo_inurba_marseille","lat":43.23202,"lon":5.39975,"is_reserved":false,"is_disabled":false,"rental_uris":{"android":"levelo://app?vid=ac5c9602-e433-4a2b-8091-d027da8b9fa6","ios":"levelo://app?vid=ac5c9602-e433-4a2b-8091-d027da8b9fa6"},"vehicle_type_id":"4","last_reported":1770021001,"current_range_meters":8800,"station_id":"ce4bhn12rcd13ifvqgqg","pricing_plan_id":"cebpf4jnsgd1na2vs0mg"},{"bike_id":"2d60ab74-e596-4c7f-a0fb-86b7ca4a7bcd","system_id":"levelo_inurba_marseille","lat":43.31539,"lon":5.38811,"is_reserved":false,"is_disabled":false,"rental_uris":{"android":"levelo://app?vid=2d60ab74-e596-4c7f-a0fb-86b7ca4a7bcd","ios":"levelo://app?vid=2d60ab74-e596-4c7f-a0fb-86b7ca4a7bcd"},"vehicle_type_id":"4","last_reported":1770021001,"current_range_meters":8800,"station_id":"","pricing_plan_id":"cebpf4jnsgd1na2vs0mg"},{"bike_id":"9fff0643-071c-436a-8cfd-837b6e92089a","system_id":"levelo_inurba_marseille","lat":43.25919,"lon":5.40895,"is_reserved":false,"is_disabled":false,"rental_uris":{"android":"levelo://app?vid=9fff0643-071c-436a-8cfd-837b6e92089a","ios":"levelo://app?vid=9fff0643-071c-436a-8cfd-837b6e92089a"},"vehicle_type_id":"4","last_reported":1770021001,"current_range_meters":8800,"station_id":"ce4bhm92rcd13ifvqglg","pricing_plan_id":"cebpf4jnsgd1na2vs0mg"},{"bike_id":"b8b6864a-85f7-44e6-91e2-41a6398f9833","system_id":"levelo_inurba_marseille","lat":43.29192,"lon":5.39331,"is_reserved":false,"is_disabled":false,"rental_uris":{"android":"levelo://app?vid=b8b6864a-85f7-44e6-91e2-41a6398f9833","ios":"levelo://app?vid=b8b6864a-85f7-44e6-91e2-41a6398f9833"},"vehicle_type_id":"4","last_reported":1770021001,"current_range_meters":9200,"station_id":"ce4bh192rcd13ifvqdd0","pricing_plan_id":"cebpf4jnsgd1na2vs0mg"},{"bike_id":"3ef65dfb-54d4-469d-946a-35ac1380b0ff","system_id":"levelo_inurba_marseille","lat":43.27369,"lon":5.36254,"is_reserved":false,"is_disabled":false,"rental_uris":{"android":"levelo://app?vid=3ef65dfb-54d4-469d-946a-35ac1380b0ff","ios":"levelo://app?vid=3ef65dfb-54d4-469d-946a-35ac1380b0ff"},"vehicle_type_id":"4","last_reported":1770021001,"current_range_meters":9200,"station_id":"ce4bhbh2rcd13ifvqeo0","pricing_plan_id":"cebpf4jnsgd1na2vs0mg"},{"bike_id":"2ebe3d1a-eb9d-4119-9eb6-9d700362d893","system_id":"levelo_inurba_marseille","lat":43.24174,"lon":5.3973,"is_reserved":false,"is_disabled":false,"rental_uris":{"android":"levelo://app?vid=2ebe3d1a-eb9d-4119-9eb6-9d700362d893","ios":"levelo://app?vid=2ebe3d1a-eb9d-4119-9eb6-9d700362d893"},"vehicle_type_id":"4","last_reported":1770021001,"current_range_meters":9200,"station_id":"ce4bhn12rcd13ifvqgpg","pricing_plan_id":"cebpf4jnsgd1na2vs0mg"},{"bike_id":"771ea2bc-bf93-42aa-8bb5-10cd9d180578","system_id":"levelo_inurba_marseille","lat":43.33535,"lon":5.37469,"is_reserved":false,"is_disabled":false,"rental_uris":{"android":"levelo://app?vid=771ea2bc-bf93-42aa-8bb5-10cd9d180578","ios":"levelo://app?vid=771ea2bc-bf93-42aa-8bb5-10cd9d180578"},"vehicle_type_id":"4","last_reported":1770021001,"current_range_meters":9200,"station_id":"st_d46tts09ee8s73dlu43g","pricing_plan_id":"cebpf4jnsgd1na2vs0mg"},{"bike_id":"5fd56762-7b7c-4271-9de2-7b895b74202c","system_id":"levelo_inurba_marseille","lat":43.28416,"lon":5.34968,"is_reserved":false,"is_disabled":false,"rental_uris":{"android":"levelo://app?vid=5fd56762-7b7c-4271-9de2-7b895b74202c","ios":"levelo://app?vid=5fd56762-7b7c-4271-9de2-7b895b74202c"},"vehicle_type_id":"4","last_reported":1770021001,"current_range_meters":9200,"station_id":"ce4bhbh2rcd13ifvqepg","pricing_plan_id":"cebpf4jnsgd1na2vs0mg"},{"bike_id":"90ba5afa-5575-45ce-af95-476a5d039955","system_id":"levelo_inurba_marseille","lat":43.25725,"lon":5.41125,"is_reserved":false,"is_disabled":false,"rental_uris":{"android":"levelo://app?vid=90ba5afa-5575-45ce-af95-476a5d039955","ios":"levelo://app?vid=90ba5afa-5575-45ce-af95-476a5d039955"},"vehicle_type_id":"4","last_reported":1770021001,"current_range_meters":9200,"station_id":"ce4bhkp2rcd13ifvqgd0","pricing_plan_id":"cebpf4jnsgd1na2vs0mg"},{"bike_id":"c062aa34-fffd-40cf-8dc3-ef00546731c9","system_id":"levelo_inurba_marseille","lat":43.31265,"lon":5.37733,"is_reserved":false,"is_disabled":false,"rental_uris":{"android":"levelo://app?vid=c062aa34-fffd-40cf-8dc3-ef00546731c9","ios":"levelo://app?vid=c062aa34-fffd-40cf-8dc3-ef00546731c9"},"vehicle_type_id":"4","last_reported":1770021001,"current_range_meters":9200,"station_id":"","pricing_plan_id":"cebpf4jnsgd1na2vs0mg"},{"bike_id":"0161be71-5acc-4bef-a661-add8f18169dc","system_id":"levelo_inurba_marseille","lat":43.2988,"lon":5.43673,"is_reserved":false,"is_disabled":false,"rental_uris":{"android":"levelo://app?vid=0161be71-5acc-4bef-a661-add8f18169dc","ios":"levelo://app?vid=0161be71-5acc-4bef-a661-add8f18169dc"},"vehicle_type_id":"4","last_reported":1770021001,"current_range_meters":9200,"station_id":"ce4bhpp2rcd13ifvqhfg","pricing_plan_id":"cebpf4jnsgd1na2vs0mg"},{"bike_id":"2fa2c29c-1079-447f-9840-16848f1eaa54","system_id":"levelo_inurba_marseille","lat":43.29739,"lon":5.37858,"is_reserved":false,"is_disabled":false,"rental_uris":{"android":"levelo://app?vid=2fa2c29c-1079-447f-9840-16848f1eaa54","ios":"levelo://app?vid=2fa2c29c-1079-447f-9840-16848f1eaa54"},"vehicle_type_id":"4","last_reported":1770021001,"current_range_meters":9600,"station_id":"","pricing_plan_id":"cebpf4jnsgd1na2vs0mg"},{"bike_id":"1ffbf4c6-ed2a-4597-a740-6d4a84e10707","system_id":"levelo_inurba_marseille","lat":43.278282,"lon":5.407151,"is_reserved":false,"is_disabled":false,"rental_uris":{"android":"levelo://app?vid=1ffbf4c6-ed2a-4597-a740-6d4a84e10707","ios":"levelo://app?vid=1ffbf4c6-ed2a-4597-a740-6d4a84e10707"},"vehicle_type_id":"4","last_reported":1770021001,"current_range_meters":9600,"station_id":"ce4bhnh2rcd13ifvqgtg","pricing_plan_id":"cebpf4jnsgd1na2vs0mg"},{"bike_id":"f2b46649-f2d2-4dab-a524-4025b198537f","system_id":"levelo_inurba_marseille","lat":43.29747,"lon":5.42783,"is_reserved":false,"is_disabled":false,"rental_uris":{"android":"levelo://app?vid=f2b46649-f2d2-4dab-a524-4025b198537f","ios":"levelo://app?vid=f2b46649-f2d2-4dab-a524-4025b198537f"},"vehicle_type_id":"4","last_reported":1770021001,"current_range_meters":9600,"station_id":"st_d3md5207bmas73dh9klg","pricing_plan_id":"cebpf4jnsgd1na2vs0mg"},{"bike_id":"08649d84-e1d6-4e07-9829-b3006714256b","system_id":"levelo_inurba_marseille","lat":43.241716,"lon":5.397477,"is_reserved":false,"is_disabled":false,"rental_uris":{"android":"levelo://app?vid=08649d84-e1d6-4e07-9829-b3006714256b","ios":"levelo://app?vid=08649d84-e1d6-4e07-9829-b3006714256b"},"vehicle_type_id":"4","last_reported":1770021001,"current_range_meters":9600,"station_id":"ce4bhn12rcd13ifvqgpg","pricing_plan_id":"cebpf4jnsgd1na2vs0mg"},{"bike_id":"7bfa4b57-17f3-4ffb-906e-4ac6f600d95b","system_id":"levelo_inurba_marseille","lat":43.299,"lon":5.43662,"is_reserved":false,"is_disabled":false,"rental_uris":{"android":"levelo://app?vid=7bfa4b57-17f3-4ffb-906e-4ac6f600d95b","ios":"levelo://app?vid=7bfa4b57-17f3-4ffb-906e-4ac6f600d95b"},"vehicle_type_id":"4","last_reported":1770021001,"current_range_meters":9600,"station_id":"ce4bhpp2rcd13ifvqhfg","pricing_plan_id":"cebpf4jnsgd1na2vs0mg"},{"bike_id":"f4bef384-efce-4dfc-97cd-21cc8e160d07","system_id":"levelo_inurba_marseille","lat":43.31729,"lon":5.424,"is_reserved":false,"is_disabled":false,"rental_uris":{"android":"levelo://app?vid=f4bef384-efce-4dfc-97cd-21cc8e160d07","ios":"levelo://app?vid=f4bef384-efce-4dfc-97cd-21cc8e160d07"},"vehicle_type_id":"4","last_reported":1770021001,"current_range_meters":9600,"station_id":"ce4bhp92rcd13ifvqhbg","pricing_plan_id":"cebpf4jnsgd1na2vs0mg"},{"bike_id":"69bce1d6-d9af-4ff0-8b44-12769911a4a1","system_id":"levelo_inurba_marseille","lat":43.28965,"lon":5.37853,"is_reserved":false,"is_disabled":false,"rental_uris":{"android":"levelo://app?vid=69bce1d6-d9af-4ff0-8b44-12769911a4a1","ios":"levelo://app?vid=69bce1d6-d9af-4ff0-8b44-12769911a4a1"},"vehicle_type_id":"4","last_reported":1770021001,"current_range_meters":9600,"station_id":"ce4bh9p2rcd13ifvqed0","pricing_plan_id":"cebpf4jnsgd1na2vs0mg"},{"bike_id":"7e56f932-026d-49fe-bed4-dda636cd9cb8","system_id":"levelo_inurba_marseille","lat":43.248,"lon":5.37449,"is_reserved":false,"is_disabled":false,"rental_uris":{"android":"levelo://app?vid=7e56f932-026d-49fe-bed4-dda636cd9cb8","ios":"levelo://app?vid=7e56f932-026d-49fe-bed4-dda636cd9cb8"},"vehicle_type_id":"4","last_reported":1770021001,"current_range_meters":9600,"station_id":"ce4bhgh2rcd13ifvqfb0","pricing_plan_id":"cebpf4jnsgd1na2vs0mg"},{"bike_id":"08b20334-3e9e-45da-98e2-403d0460dda8","system_id":"levelo_inurba_marseille","lat":43.23191,"lon":5.35558,"is_reserved":false,"is_disabled":false,"rental_uris":{"android":"levelo://app?vid=08b20334-3e9e-45da-98e2-403d0460dda8","ios":"levelo://app?vid=08b20334-3e9e-45da-98e2-403d0460dda8"},"vehicle_type_id":"4","last_reported":1770021001,"current_range_meters":9600,"station_id":"ce4bhu92rcd13ifvqi70","pricing_plan_id":"cebpf4jnsgd1na2vs0mg"},{"bike_id":"f4dde5d0-dd73-4196-bfcd-e68e1ae2c8a6","system_id":"levelo_inurba_marseille","lat":43.30916,"lon":5.36853,"is_reserved":false,"is_disabled":false,"rental_uris":{"android":"levelo://app?vid=f4dde5d0-dd73-4196-bfcd-e68e1ae2c8a6","ios":"levelo://app?vid=f4dde5d0-dd73-4196-bfcd-e68e1ae2c8a6"},"vehicle_type_id":"4","last_reported":1770021001,"current_range_meters":9600,"station_id":"ce4bgn92rcd13ifvqbvg","pricing_plan_id":"cebpf4jnsgd1na2vs0mg"},{"bike_id":"6aa7757c-0cdb-4859-803b-ab932dc20b74","system_id":"levelo_inurba_marseille","lat":43.28721,"lon":5.3999,"is_reserved":false,"is_disabled":false,"rental_uris":{"android":"levelo://app?vid=6aa7757c-0cdb-4859-803b-ab932dc20b74","ios":"levelo://app?vid=6aa7757c-0cdb-4859-803b-ab932dc20b74"},"vehicle_type_id":"4","last_reported":1770021001,"current_range_meters":9600,"station_id":"ce4bho92rcd13ifvqh3g","pricing_plan_id":"cebpf4jnsgd1na2vs0mg"},{"bike_id":"b4da3c95-9f92-4d98-9243-d1a099fbcabf","system_id":"levelo_inurba_marseille","lat":43.25031,"lon":5.38925,"is_reserved":false,"is_disabled":false,"rental_uris":{"android":"levelo://app?vid=b4da3c95-9f92-4d98-9243-d1a099fbcabf","ios":"levelo://app?vid=b4da3c95-9f92-4d98-9243-d1a099fbcabf"},"vehicle_type_id":"4","last_reported":1770021001,"current_range_meters":10000,"station_id":"ce4bhgp2rcd13ifvqfd0","pricing_plan_id":"cebpf4jnsgd1na2vs0mg"},{"bike_id":"7ea469f1-f16e-4924-a213-85ca76ef9bcc","system_id":"levelo_inurba_marseille","lat":43.29804,"lon":5.38123,"is_reserved":false,"is_disabled":false,"rental_uris":{"android":"levelo://app?vid=7ea469f1-f16e-4924-a213-85ca76ef9bcc","ios":"levelo://app?vid=7ea469f1-f16e-4924-a213-85ca76ef9bcc"},"vehicle_type_id":"4","last_reported":1770021001,"current_range_meters":10000,"station_id":"ce4bgip2rcd13ifvqbb0","pricing_plan_id":"cebpf4jnsgd1na2vs0mg"},{"bike_id":"81ae8bd1-f2ab-4703-acf8-57dfe12da164","system_id":"levelo_inurba_marseille","lat":43.28121,"lon":5.35203,"is_reserved":false,"is_disabled":false,"rental_uris":{"android":"levelo://app?vid=81ae8bd1-f2ab-4703-acf8-57dfe12da164","ios":"levelo://app?vid=81ae8bd1-f2ab-4703-acf8-57dfe12da164"},"vehicle_type_id":"4","last_reported":1770021001,"current_range_meters":10000,"station_id":"","pricing_plan_id":"cebpf4jnsgd1na2vs0mg"},{"bike_id":"e7dcc4b0-8a3f-49a7-9e7e-a0d6247bcf9d","system_id":"levelo_inurba_marseille","lat":43.28673,"lon":5.38666,"is_reserved":false,"is_disabled":true,"rental_uris":{"android":"levelo://app?vid=e7dcc4b0-8a3f-49a7-9e7e-a0d6247bcf9d","ios":"levelo://app?vid=e7dcc4b0-8a3f-49a7-9e7e-a0d6247bcf9d"},"vehicle_type_id":"4","last_reported":1770021001,"current_range_meters":10000,"station_id":"","pricing_plan_id":"cebpf4jnsgd1na2vs0mg"},{"bike_id":"bdc8f3f1-7191-4554-b1d6-3542e00caa57","system_id":"levelo_inurba_marseille","lat":43.284185,"lon":5.349784,"is_reserved":false,"is_disabled":false,"rental_uris":{"android":"levelo://app?vid=bdc8f3f1-7191-4554-b1d6-3542e00caa57","ios":"levelo://app?vid=bdc8f3f1-7191-4554-b1d6-3542e00caa57"},"vehicle_type_id":"4","last_reported":1770021001,"current_range_meters":10000,"station_id":"ce4bhbh2rcd13ifvqepg","pricing_plan_id":"cebpf4jnsgd1na2vs0mg"},{"bike_id":"e125effe-867f-4979-a6cf-c39437316782","system_id":"levelo_inurba_marseille","lat":43.240768,"lon":5.377608,"is_reserved":false,"is_disabled":false,"rental_uris":{"android":"levelo://app?vid=e125effe-867f-4979-a6cf-c39437316782","ios":"levelo://app?vid=e125effe-867f-4979-a6cf-c39437316782"},"vehicle_type_id":"4","last_reported":1770021001,"current_range_meters":10000,"station_id":"ce4bhnp2rcd13ifvqgvg","pricing_plan_id":"cebpf4jnsgd1na2vs0mg"},{"bike_id":"5049f44b-a994-41e4-85c4-2776528ca057","system_id":"levelo_inurba_marseille","lat":43.26547,"lon":5.37307,"is_reserved":false,"is_disabled":true,"rental_uris":{"android":"levelo://app?vid=5049f44b-a994-41e4-85c4-2776528ca057","ios":"levelo://app?vid=5049f44b-a994-41e4-85c4-2776528ca057"},"vehicle_type_id":"4","last_reported":1770021001,"current_range_meters":10000,"station_id":"ce4bhg12rcd13ifvqf70","pricing_plan_id":"cebpf4jnsgd1na2vs0mg"},{"bike_id":"34563dd1-22ef-47ee-b5f6-1a548e8b6096","system_id":"levelo_inurba_marseille","lat":43.2979,"lon":5.3809,"is_reserved":false,"is_disabled":false,"rental_uris":{"android":"levelo://app?vid=34563dd1-22ef-47ee-b5f6-1a548e8b6096","ios":"levelo://app?vid=34563dd1-22ef-47ee-b5f6-1a548e8b6096"},"vehicle_type_id":"4","last_reported":1770021001,"current_range_meters":10000,"station_id":"ce4bgip2rcd13ifvqbb0","pricing_plan_id":"cebpf4jnsgd1na2vs0mg"},{"bike_id":"d65e7611-55ca-42ca-909a-fde8278b5659","system_id":"levelo_inurba_marseille","lat":43.2119,"lon":5.35077,"is_reserved":false,"is_disabled":true,"rental_uris":{"android":"levelo://app?vid=d65e7611-55ca-42ca-909a-fde8278b5659","ios":"levelo://app?vid=d65e7611-55ca-42ca-909a-fde8278b5659"},"vehicle_type_id":"4","last_reported":1770021001,"current_range_meters":10000,"station_id":"st_cvj6sg6p6f1abm77japg","pricing_plan_id":"cebpf4jnsgd1na2vs0mg"},{"bike_id":"bff22768-2cde-4a3f-98d2-4af19e4efeec","system_id":"levelo_inurba_marseille","lat":43.31044,"lon":5.37181,"is_reserved":false,"is_disabled":false,"rental_uris":{"android":"levelo://app?vid=bff22768-2cde-4a3f-98d2-4af19e4efeec","ios":"levelo://app?vid=bff22768-2cde-4a3f-98d2-4af19e4efeec"},"vehicle_type_id":"4","last_reported":1770021001,"current_range_meters":10000,"station_id":"st_d4kl2rp97mjs73e7tdfg","pricing_plan_id":"cebpf4jnsgd1na2vs0mg"},{"bike_id":"00aa65f2-b269-417d-9516-05011b7ebc65","system_id":"levelo_inurba_marseille","lat":43.28479,"lon":5.38444,"is_reserved":false,"is_disabled":false,"rental_uris":{"android":"levelo://app?vid=00aa65f2-b269-417d-9516-05011b7ebc65","ios":"levelo://app?vid=00aa65f2-b269-417d-9516-05011b7ebc65"},"vehicle_type_id":"4","last_reported":1770021001,"current_range_meters":10000,"station_id":"ce4bh512rcd13ifvqe3g","pricing_plan_id":"cebpf4jnsgd1na2vs0mg"},{"bike_id":"e5950b33-9dda-4fac-bd6b-30e993428adf","system_id":"levelo_inurba_marseille","lat":43.2721,"lon":5.39189,"is_reserved":false,"is_disabled":false,"rental_uris":{"android":"levelo://app?vid=e5950b33-9dda-4fac-bd6b-30e993428adf","ios":"levelo://app?vid=e5950b33-9dda-4fac-bd6b-30e993428adf"},"vehicle_type_id":"4","last_reported":1770021001,"current_range_meters":10000,"station_id":"ce4bhhp2rcd13ifvqfm0","pricing_plan_id":"cebpf4jnsgd1na2vs0mg"},{"bike_id":"dd41267e-6370-4639-8c88-d923873bb35c","system_id":"levelo_inurba_marseille","lat":43.27506,"lon":5.42459,"is_reserved":false,"is_disabled":false,"rental_uris":{"android":"levelo://app?vid=dd41267e-6370-4639-8c88-d923873bb35c","ios":"levelo://app?vid=dd41267e-6370-4639-8c88-d923873bb35c"},"vehicle_type_id":"4","last_reported":1770021001,"current_range_meters":10000,"station_id":"ce4bhn92rcd13ifvqgrg","pricing_plan_id":"cebpf4jnsgd1na2vs0mg"},{"bike_id":"5704d325-44da-4640-841e-d73cfa2e6959","system_id":"levelo_inurba_marseille","lat":43.311706,"lon":5.38032,"is_reserved":false,"is_disabled":false,"rental_uris":{"android":"levelo://app?vid=5704d325-44da-4640-841e-d73cfa2e6959","ios":"levelo://app?vid=5704d325-44da-4640-841e-d73cfa2e6959"},"vehicle_type_id":"4","last_reported":1770021001,"current_range_meters":10000,"station_id":"","pricing_plan_id":"cebpf4jnsgd1na2vs0mg"},{"bike_id":"2383bbf2-bc5f-4e9b-9a97-0d2ff1645e97","system_id":"levelo_inurba_marseille","lat":43.30945,"lon":5.39061,"is_reserved":false,"is_disabled":false,"rental_uris":{"android":"levelo://app?vid=2383bbf2-bc5f-4e9b-9a97-0d2ff1645e97","ios":"levelo://app?vid=2383bbf2-bc5f-4e9b-9a97-0d2ff1645e97"},"vehicle_type_id":"4","last_reported":1770021001,"current_range_meters":10000,"station_id":"ce4bgup2rcd13ifvqco0","pricing_plan_id":"cebpf4jnsgd1na2vs0mg"},{"bike_id":"6ca9ea11-e24b-44dd-9591-e8e049789ac0","system_id":"levelo_inurba_marseille","lat":43.3105,"lon":5.37166,"is_reserved":false,"is_disabled":false,"rental_uris":{"android":"levelo://app?vid=6ca9ea11-e24b-44dd-9591-e8e049789ac0","ios":"levelo://app?vid=6ca9ea11-e24b-44dd-9591-e8e049789ac0"},"vehicle_type_id":"4","last_reported":1770021001,"current_range_meters":10800,"station_id":"st_d4kl2rp97mjs73e7tdfg","pricing_plan_id":"cebpf4jnsgd1na2vs0mg"},{"bike_id":"d5446311-edb8-4954-91d0-44ba0a6bcbe3","system_id":"levelo_inurba_marseille","lat":43.26681,"lon":5.38273,"is_reserved":false,"is_disabled":false,"rental_uris":{"android":"levelo://app?vid=d5446311-edb8-4954-91d0-44ba0a6bcbe3","ios":"levelo://app?vid=d5446311-edb8-4954-91d0-44ba0a6bcbe3"},"vehicle_type_id":"4","last_reported":1770021001,"current_range_meters":10800,"station_id":"ce4bhg92rcd13ifvqf90","pricing_plan_id":"cebpf4jnsgd1na2vs0mg"},{"bike_id":"d72b8f61-4fd4-4866-9411-b2ee01711121","system_id":"levelo_inurba_marseille","lat":43.27962,"lon":5.38719,"is_reserved":false,"is_disabled":false,"rental_uris":{"android":"levelo://app?vid=d72b8f61-4fd4-4866-9411-b2ee01711121","ios":"levelo://app?vid=d72b8f61-4fd4-4866-9411-b2ee01711121"},"vehicle_type_id":"4","last_reported":1770021001,"current_range_meters":10800,"station_id":"ce4bhg12rcd13ifvqf80","pricing_plan_id":"cebpf4jnsgd1na2vs0mg"},{"bike_id":"36ad0275-6717-4877-ae27-b60689eaf6b2","system_id":"levelo_inurba_marseille","lat":43.24815,"lon":5.37458,"is_reserved":false,"is_disabled":false,"rental_uris":{"android":"levelo://app?vid=36ad0275-6717-4877-ae27-b60689eaf6b2","ios":"levelo://app?vid=36ad0275-6717-4877-ae27-b60689eaf6b2"},"vehicle_type_id":"4","last_reported":1770021001,"current_range_meters":10800,"station_id":"ce4bhgh2rcd13ifvqfb0","pricing_plan_id":"cebpf4jnsgd1na2vs0mg"},{"bike_id":"412907c3-8bfc-4c15-a093-75d4a9dcbda6","system_id":"levelo_inurba_marseille","lat":43.30485,"lon":5.37904,"is_reserved":false,"is_disabled":false,"rental_uris":{"android":"levelo://app?vid=412907c3-8bfc-4c15-a093-75d4a9dcbda6","ios":"levelo://app?vid=412907c3-8bfc-4c15-a093-75d4a9dcbda6"},"vehicle_type_id":"4","last_reported":1770021001,"current_range_meters":10800,"station_id":"ce4bgup2rcd13ifvqcn0","pricing_plan_id":"cebpf4jnsgd1na2vs0mg"},{"bike_id":"f21d0910-7c55-4369-bab4-302fa22f5621","system_id":"levelo_inurba_marseille","lat":43.29028,"lon":5.40009,"is_reserved":false,"is_disabled":false,"rental_uris":{"android":"levelo://app?vid=f21d0910-7c55-4369-bab4-302fa22f5621","ios":"levelo://app?vid=f21d0910-7c55-4369-bab4-302fa22f5621"},"vehicle_type_id":"4","last_reported":1770021001,"current_range_meters":10800,"station_id":"ce4bh392rcd13ifvqdm0","pricing_plan_id":"cebpf4jnsgd1na2vs0mg"},{"bike_id":"ed417e17-4af4-455e-9ddf-06f819fa0e01","system_id":"levelo_inurba_marseille","lat":43.283906,"lon":5.34999,"is_reserved":false,"is_disabled":false,"rental_uris":{"android":"levelo://app?vid=ed417e17-4af4-455e-9ddf-06f819fa0e01","ios":"levelo://app?vid=ed417e17-4af4-455e-9ddf-06f819fa0e01"},"vehicle_type_id":"4","last_reported":1770021001,"current_range_meters":10800,"station_id":"ce4bhbp2rcd13ifvqerg","pricing_plan_id":"cebpf4jnsgd1na2vs0mg"},{"bike_id":"1c862d84-25b5-4bcd-a442-030289de526e","system_id":"levelo_inurba_marseille","lat":43.28612,"lon":5.35105,"is_reserved":false,"is_disabled":false,"rental_uris":{"android":"levelo://app?vid=1c862d84-25b5-4bcd-a442-030289de526e","ios":"levelo://app?vid=1c862d84-25b5-4bcd-a442-030289de526e"},"vehicle_type_id":"4","last_reported":1770021001,"current_range_meters":10800,"station_id":"ce4bhch2rcd13ifvqeug","pricing_plan_id":"cebpf4jnsgd1na2vs0mg"},{"bike_id":"8b2d75cc-48d9-48ca-9550-52bf96b395ac","system_id":"levelo_inurba_marseille","lat":43.31324,"lon":5.40218,"is_reserved":false,"is_disabled":false,"rental_uris":{"android":"levelo://app?vid=8b2d75cc-48d9-48ca-9550-52bf96b395ac","ios":"levelo://app?vid=8b2d75cc-48d9-48ca-9550-52bf96b395ac"},"vehicle_type_id":"4","last_reported":1770021001,"current_range_meters":10800,"station_id":"","pricing_plan_id":"cebpf4jnsgd1na2vs0mg"},{"bike_id":"182249cb-1b65-4cda-be85-10d084311aa6","system_id":"levelo_inurba_marseille","lat":43.30913,"lon":5.36859,"is_reserved":false,"is_disabled":false,"rental_uris":{"android":"levelo://app?vid=182249cb-1b65-4cda-be85-10d084311aa6","ios":"levelo://app?vid=182249cb-1b65-4cda-be85-10d084311aa6"},"vehicle_type_id":"4","last_reported":1770021001,"current_range_meters":10800,"station_id":"ce4bgn92rcd13ifvqbvg","pricing_plan_id":"cebpf4jnsgd1na2vs0mg"},{"bike_id":"f0653f9d-58c6-4236-ad69-87e4f2d312de","system_id":"levelo_inurba_marseille","lat":43.28609,"lon":5.35104,"is_reserved":false,"is_disabled":true,"rental_uris":{"android":"levelo://app?vid=f0653f9d-58c6-4236-ad69-87e4f2d312de","ios":"levelo://app?vid=f0653f9d-58c6-4236-ad69-87e4f2d312de"},"vehicle_type_id":"4","last_reported":1770021001,"current_range_meters":10800,"station_id":"ce4bhch2rcd13ifvqeug","pricing_plan_id":"cebpf4jnsgd1na2vs0mg"},{"bike_id":"170f20d4-e2ac-46b3-aa9c-78ca729c5f6a","system_id":"levelo_inurba_marseille","lat":43.24194,"lon":5.39708,"is_reserved":false,"is_disabled":false,"rental_uris":{"android":"levelo://app?vid=170f20d4-e2ac-46b3-aa9c-78ca729c5f6a","ios":"levelo://app?vid=170f20d4-e2ac-46b3-aa9c-78ca729c5f6a"},"vehicle_type_id":"4","last_reported":1770021001,"current_range_meters":10800,"station_id":"ce4bhn12rcd13ifvqgpg","pricing_plan_id":"cebpf4jnsgd1na2vs0mg"},{"bike_id":"71a07312-ff45-45c1-87c7-b2e91c5b4e37","system_id":"levelo_inurba_marseille","lat":43.28468,"lon":5.51512,"is_reserved":false,"is_disabled":false,"rental_uris":{"android":"levelo://app?vid=71a07312-ff45-45c1-87c7-b2e91c5b4e37","ios":"levelo://app?vid=71a07312-ff45-45c1-87c7-b2e91c5b4e37"},"vehicle_type_id":"4","last_reported":1770021001,"current_range_meters":10800,"station_id":"","pricing_plan_id":"cebpf4jnsgd1na2vs0mg"},