{"last_updated":1725214220,"ttl":30,"version":"2.2","data":{"bikes":[{"bike_id":"6578d92b-814a-4d69-88f0-61ce988f138b","system_id":"levelo_inurba_marseille","lat":43.31341,"lon":5.367098,"is_reserved":false,"is_disabled":false,"rental_uris":{"android":"levelo://app?vid=6578d92b-814a-4d69-88f0-61ce988f138b","ios":"levelo://app?vid=6578d92b-814a-4d69-88f0-61ce988f138b"},"vehicle_type_id":"4","last_reported":1725214220,"current_range_meters":2800,"station_id":"ce4bgr92rcd13ifvqc6g","pricing_plan_id":"cebpf4jnsgd1na2vs0mg"},{"bike_id":"afc774c3-2ce6-4c98-ad82-ea3caf27e2d3","system_id":"levelo_inurba_marseille","lat":43.3123,"lon":5.36875,"is_reserved":false,"is_disabled":false,"rental_uris":{"android":"levelo://app?vid=afc774c3-2ce6-4c98-ad82-ea3caf27e2d3","ios":"levelo://app?vid=afc774c3-2ce6-4c98-ad82-ea3caf27e2d3"},"vehicle_type_id":"4","last_reported":1725214220,"current_range_meters":0,"station_id":"ce4bgl92rcd13ifvqbq0","pricing_plan_id":"cebpf4jnsgd1na2vs0mg"},{"bike_id":"d9e8c81c-78b4-4d43-8ace-6afaaba2a8d9","system_id":"levelo_inurba_marseille","lat":43.309076,"lon":5.368465,"is_reserved":false,"is_disabled":false,"rental_uris":{"android":"levelo://app?vid=d9e8c81c-78b4-4d43-8ace-6afaaba2a8d9","ios":"levelo://app?vid=d9e8c81c-78b4-4d43-8ace-6afaaba2a8d9"},"vehicle_type_id":"4","last_reported":1725214220,"current_range_meters":19600,"station_id":"ce4bgn92rcd13ifvqbvg","pricing_plan_id":"cebpf4jnsgd1na2vs0mg"},{"bike_id":"009d0329-46ec-4e45-8abf-cf04aa74c28e","system_id":"levelo_inurba_marseille","lat":43.309076,"lon":5.368465,"is_reserved":false,"is_disabled":false,"rental_uris":{"android":"levelo://app?vid=009d0329-46ec-4e45-8abf-cf04aa74c28e","ios":"levelo://app?vid=009d0329-46ec-4e45-8abf-cf04aa74c28e"},"vehicle_type_id":"4","last_reported":1725214220,"current_range_meters":5600,"station_id":"ce4bgn92rcd13ifvqbvg","pricing_plan_id":"cebpf4jnsgd1na2vs0mg"},{"bike_id":"9aaab02c-88bb-4275-a750-c7db5ddd638c","system_id":"levelo_inurba_marseille","lat":43.31486,"lon":5.3731,"is_reserved":false,"is_disabled":false,"rental_uris":{"android":"levelo://app?vid=9aaab02c-88bb-4275-a750-c7db5ddd638c","ios":"levelo://app?vid=9aaab02c-88bb-4275-a750-c7db5ddd638c"},"vehicle_type_id":"4","last_reported":1725214220,"current_range_meters":0,"station_id":"ce4bgt12rcd13ifvqcd0","pricing_plan_id":"cebpf4jnsgd1na2vs0mg"},{"bike_id":"63273232-ec8e-4e23-bf0c-09a59f0a9482","system_id":"levelo_inurba_marseille","lat":43.31486,"lon":5.37314,"is_reserved":false,"is_disabled":false,"rental_uris":{"android":"levelo://app?vid=63273232-ec8e-4e23-bf0c-09a59f0a9482","ios":"levelo://app?vid=63273232-ec8e-4e23-bf0c-09a59f0a9482"},"vehicle_type_id":"4","last_reported":1725214220,"current_range_meters":0,"station_id":"ce4bgt12rcd13ifvqcd0","pricing_plan_id":"cebpf4jnsgd1na2vs0mg"},{"bike_id":"40cdf31d-d601-42a0-8439-e2c9131b7eaf","system_id":"levelo_inurba_marseille","lat":43.309034,"lon":5.371783,"is_reserved":false,"is_disabled":false,"rental_uris":{"android":"levelo://app?vid=40cdf31d-d601-42a0-8439-e2c9131b7eaf","ios":"levelo://app?vid=40cdf31d-d601-42a0-8439-e2c9131b7eaf"},"vehicle_type_id":"4","last_reported":1725214220,"current_range_meters":23200,"station_id":"ce4bguh2rcd13ifvqckg","pricing_plan_id":"cebpf4jnsgd1na2vs0mg"},{"bike_id":"d9050b05-c852-4191-b626-fd3ea1a7c028","system_id":"levelo_inurba_marseille","lat":43.30818,"lon":5.373387,"is_reserved":false,"is_disabled":false,"rental_uris":{"android":"levelo://app?vid=d9050b05-c852-4191-b626-fd3ea1a7c028","ios":"levelo://app?vid=d9050b05-c852-4191-b626-fd3ea1a7c028"},"vehicle_type_id":"4","last_reported":1725214220,"current_range_meters":0,"station_id":"","pricing_plan_id":"cebpf4jnsgd1na2vs0mg"},{"bike_id":"b5429110-f7f1-41e8-8bfc-5009d44028c5","system_id":"levelo_inurba_marseille","lat":43.30537,"lon":5.367345,"is_reserved":false,"is_disabled":false,"rental_uris":{"android":"levelo://app?vid=b5429110-f7f1-41e8-8bfc-5009d44028c5","ios":"levelo://app?vid=b5429110-f7f1-41e8-8bfc-5009d44028c5"},"vehicle_type_id":"4","last_reported":1725214220,"current_range_meters":29200,"station_id":"ce4bgrp2rcd13ifvqc9g","pricing_plan_id":"cebpf4jnsgd1na2vs0mg"},{"bike_id":"37063aa0-a025-4793-9ee0-578c2f2790b2","system_id":"levelo_inurba_marseille","lat":43.305368,"lon":5.367343,"is_reserved":false,"is_disabled":false,"rental_uris":{"android":"levelo://app?vid=37063aa0-a025-4793-9ee0-578c2f2790b2","ios":"levelo://app?vid=37063aa0-a025-4793-9ee0-578c2f2790b2"},"vehicle_type_id":"4","last_reported":1725214220,"current_range_meters":0,"station_id":"ce4bgrp2rcd13ifvqc9g","pricing_plan_id":"cebpf4jnsgd1na2vs0mg"},{"bike_id":"1b641bff-ffff-45ca-aa8a-d6b7a80f9283","system_id":"levelo_inurba_marseille","lat":43.30537,"lon":5.367345,"is_reserved":false,"is_disabled":false,"rental_uris":{"android":"levelo://app?vid=1b641bff-ffff-45ca-aa8a-d6b7a80f9283","ios":"levelo://app?vid=1b641bff-ffff-45ca-aa8a-d6b7a80f9283"},"vehicle_type_id":"4","last_reported":1725214220,"current_range_meters":9600,"station_id":"ce4bgrp2rcd13ifvqc9g","pricing_plan_id":"cebpf4jnsgd1na2vs0mg"},{"bike_id":"aa038c47-f36e-4e1c-9dcb-cd3e2085bfe1","system_id":"levelo_inurba_marseille","lat":43.311848,"lon":5.377163,"is_reserved":false,"is_disabled":false,"rental_uris":{"android":"levelo://app?vid=aa038c47-f36e-4e1c-9dcb-cd3e2085bfe1","ios":"levelo://app?vid=aa038c47-f36e-4e1c-9dcb-cd3e2085bfe1"},"vehicle_type_id":"4","last_reported":1725214220,"current_range_meters":26400,"station_id":"","pricing_plan_id":"cebpf4jnsgd1na2vs0mg"},{"bike_id":"4292a25f-cbbb-4b7d-a22c-a5369fe3592d","system_id":"levelo_inurba_marseille","lat":43.30531,"lon":5.3655,"is_reserved":false,"is_disabled":false,"rental_uris":{"android":"levelo://app?vid=4292a25f-cbbb-4b7d-a22c-a5369fe3592d","ios":"levelo://app?vid=4292a25f-cbbb-4b7d-a22c-a5369fe3592d"},"vehicle_type_id":"4","last_reported":1725214220,"current_range_meters":30000,"station_id":"ce4bgs12rcd13ifvqcag","pricing_plan_id":"cebpf4jnsgd1na2vs0mg"},{"bike_id":"7edb4971-14f5-422f-887d-72890fe5d251","system_id":"levelo_inurba_marseille","lat":43.30604,"lon":5.37217,"is_reserved":false,"is_disabled":false,"rental_uris":{"android":"levelo://app?vid=7edb4971-14f5-422f-887d-72890fe5d251","ios":"levelo://app?vid=7edb4971-14f5-422f-887d-72890fe5d251"},"vehicle_type_id":"4","last_reported":1725214220,"current_range_meters":2400,"station_id":"ce4bgqh2rcd13ifvqc4g","pricing_plan_id":"cebpf4jnsgd1na2vs0mg"},{"bike_id":"76233af6-e182-44b3-b92a-2919a0d517da","system_id":"levelo_inurba_marseille","lat":43.31923,"lon":5.37308,"is_reserved":false,"is_disabled":false,"rental_uris":{"android":"levelo://app?vid=76233af6-e182-44b3-b92a-2919a0d517da","ios":"levelo://app?vid=76233af6-e182-44b3-b92a-2919a0d517da"},"vehicle_type_id":"4","last_reported":1725214220,"current_range_meters":6800,"station_id":"","pricing_plan_id":"cebpf4jnsgd1na2vs0mg"},{"bike_id":"01bf56d4-4ea6-4972-b490-06c9f71ce8ed","system_id":"levelo_inurba_marseille","lat":43.311125,"lon":5.377624,"is_reserved":false,"is_disabled":false,"rental_uris":{"android":"levelo://app?vid=01bf56d4-4ea6-4972-b490-06c9f71ce8ed","ios":"levelo://app?vid=01bf56d4-4ea6-4972-b490-06c9f71ce8ed"},"vehicle_type_id":"4","last_reported":1725214220,"current_range_meters":20400,"station_id":"ce4bgt92rcd13ifvqcg0","pricing_plan_id":"cebpf4jnsgd1na2vs0mg"},{"bike_id":"67ee4420-8a92-4932-a4d2-73c1ad1d9e86","system_id":"levelo_inurba_marseille","lat":43.311131,"lon":5.377651,"is_reserved":false,"is_disabled":false,"rental_uris":{"android":"levelo://app?vid=67ee4420-8a92-4932-a4d2-73c1ad1d9e86","ios":"levelo://app?vid=67ee4420-8a92-4932-a4d2-73c1ad1d9e86"},"vehicle_type_id":"4","last_reported":1725214220,"current_range_meters":31600,"station_id":"ce4bgt92rcd13ifvqcg0","pricing_plan_id":"cebpf4jnsgd1na2vs0mg"},{"bike_id":"746b7d51-2491-4a2c-bd07-950d31f92f26","system_id":"levelo_inurba_marseille","lat":43.311131,"lon":5.377651,"is_reserved":false,"is_disabled":false,"rental_uris":{"android":"levelo://app?vid=746b7d51-2491-4a2c-bd07-950d31f92f26","ios":"levelo://app?vid=746b7d51-2491-4a2c-bd07-950d31f92f26"},"vehicle_type_id":"4","last_reported":1725214220,"current_range_meters":21600,"station_id":"ce4bgt92rcd13ifvqcg0","pricing_plan_id":"cebpf4jnsgd1na2vs0mg"},{"bike_id":"33b11c2b-a9cb-406a-9399-9649c3adf759","system_id":"levelo_inurba_marseille","lat":43.312988,"lon":5.379671,"is_reserved":false,"is_disabled":false,"rental_uris":{"android":"levelo://app?vid=33b11c2b-a9cb-406a-9399-9649c3adf759","ios":"levelo://app?vid=33b11c2b-a9cb-406a-9399-9649c3adf759"},"vehicle_type_id":"4","last_reported":1725214220,"current_range_meters":400,"station_id":"","pricing_plan_id":"cebpf4jnsgd1na2vs0mg"},{"bike_id":"775deb2f-1f9b-41b5-a9ba-0fe1a838d488","system_id":"levelo_inurba_marseille","lat":43.30304,"lon":5.368987,"is_reserved":false,"is_disabled":false,"rental_uris":{"android":"levelo://app?vid=775deb2f-1f9b-41b5-a9ba-0fe1a838d488","ios":"levelo://app?vid=775deb2f-1f9b-41b5-a9ba-0fe1a838d488"},"vehicle_type_id":"4","last_reported":1725214220,"current_range_meters":24400,"station_id":"ce4bgqh2rcd13ifvqc5g","pricing_plan_id":"cebpf4jnsgd1na2vs0mg"},{"bike_id":"fb21a3e6-85f2-4711-9a63-04dd95ee9c0b","system_id":"levelo_inurba_marseille","lat":43.30286,"lon":5.36655,"is_reserved":false,"is_disabled":false,"rental_uris":{"android":"levelo://app?vid=fb21a3e6-85f2-4711-9a63-04dd95ee9c0b","ios":"levelo://app?vid=fb21a3e6-85f2-4711-9a63-04dd95ee9c0b"},"vehicle_type_id":"4","last_reported":1725214220,"current_range_meters":0,"station_id":"","pricing_plan_id":"cebpf4jnsgd1na2vs0mg"},{"bike_id":"501036e6-e6e0-4415-a4f6-a661c9dac8fe","system_id":"levelo_inurba_marseille","lat":43.3153,"lon":5.38028,"is_reserved":false,"is_disabled":false,"rental_uris":{"android":"levelo://app?vid=501036e6-e6e0-4415-a4f6-a661c9dac8fe","ios":"levelo://app?vid=501036e6-e6e0-4415-a4f6-a661c9dac8fe"},"vehicle_type_id":"4","last_reported":1725214220,"current_range_meters":0,"station_id":"ce4bhsp2rcd13ifvqi50","pricing_plan_id":"cebpf4jnsgd1na2vs0mg"},{"bike_id":"13ce8ccc-94ad-4cfe-8220-0fe35a3983a8","system_id":"levelo_inurba_marseille","lat":43.32282,"lon":5.36766,"is_reserved":false,"is_disabled":false,"rental_uris":{"android":"levelo://app?vid=13ce8ccc-94ad-4cfe-8220-0fe35a3983a8","ios":"levelo://app?vid=13ce8ccc-94ad-4cfe-8220-0fe35a3983a8"},"vehicle_type_id":"4","last_reported":1725214220,"current_range_meters":31200,"station_id":"","pricing_plan_id":"cebpf4jnsgd1na2vs0mg"},{"bike_id":"d7067e4c-db75-43a5-a823-b22ae18f0ea8","system_id":"levelo_inurba_marseille","lat":43.31402,"lon":5.38069,"is_reserved":false,"is_disabled":false,"rental_uris":{"android":"levelo://app?vid=d7067e4c-db75-43a5-a823-b22ae18f0ea8","ios":"levelo://app?vid=d7067e4c-db75-43a5-a823-b22ae18f0ea8"},"vehicle_type_id":"4","last_reported":1725214220,"current_range_meters":1600,"station_id":"","pricing_plan_id":"cebpf4jnsgd1na2vs0mg"},{"bike_id":"aaa4d625-1bbf-4b3c-9e16-f9b9d23dc7ad","system_id":"levelo_inurba_marseille","lat":43.310098,"lon":5.380776,"is_reserved":false,"is_disabled":false,"rental_uris":{"android":"levelo://app?vid=aaa4d625-1bbf-4b3c-9e16-f9b9d23dc7ad","ios":"levelo://app?vid=aaa4d625-1bbf-4b3c-9e16-f9b9d23dc7ad"},"vehicle_type_id":"4","last_reported":1725214220,"current_range_meters":5200,"station_id":"","pricing_plan_id":"cebpf4jnsgd1na2vs0mg"},{"bike_id":"4fda89a6-a1c9-4a2d-a78b-2332a7c2b880","system_id":"levelo_inurba_marseille","lat":43.308012,"lon":5.381511,"is_reserved":false,"is_disabled":false,"rental_uris":{"android":"levelo://app?vid=4fda89a6-a1c9-4a2d-a78b-2332a7c2b880","ios":"levelo://app?vid=4fda89a6-a1c9-4a2d-a78b-2332a7c2b880"},"vehicle_type_id":"4","last_reported":1725214220,"current_range_meters":9600,"station_id":"ce4bgt12rcd13ifvqce0","pricing_plan_id":"cebpf4jnsgd1na2vs0mg"},{"bike_id":"5a01535a-1bc4-4999-9f02-039f2a57da7f","system_id":"levelo_inurba_marseille","lat":43.308012,"lon":5.381511,"is_reserved":false,"is_disabled":false,"rental_uris":{"android":"levelo://app?vid=5a01535a-1bc4-4999-9f02-039f2a57da7f","ios":"levelo://app?vid=5a01535a-1bc4-4999-9f02-039f2a57da7f"},"vehicle_type_id":"4","last_reported":1725214220,"current_range_meters":20000,"station_id":"ce4bgt12rcd13ifvqce0","pricing_plan_id":"cebpf4jnsgd1na2vs0mg"},{"bike_id":"2263e70a-985f-436b-a41f-be8b1dbccae5","system_id":"levelo_inurba_marseille","lat":43.324771,"lon":5.36557,"is_reserved":false,"is_disabled":false,"rental_uris":{"android":"levelo://app?vid=2263e70a-985f-436b-a41f-be8b1dbccae5","ios":"levelo://app?vid=2263e70a-985f-436b-a41f-be8b1dbccae5"},"vehicle_type_id":"4","last_reported":1725214220,"current_range_meters":28800,"station_id":"ce4bhs12rcd13ifvqhvg","pricing_plan_id":"cebpf4jnsgd1na2vs0mg"},{"bike_id":"837183b2-d135-4895-af34-a99cbb49f419","system_id":"levelo_inurba_marseille","lat":43.324771,"lon":5.36557,"is_reserved":false,"is_disabled":false,"rental_uris":{"android":"levelo://app?vid=837183b2-d135-4895-af34-a99cbb49f419","ios":"levelo://app?vid=837183b2-d135-4895-af34-a99cbb49f419"},"vehicle_type_id":"4","last_reported":1725214220,"current_range_meters":0,"station_id":"ce4bhs12rcd13ifvqhvg","pricing_plan_id":"cebpf4jnsgd1na2vs0mg"},{"bike_id":"f710f2b9-c143-4f93-b928-a2143c98c7ba","system_id":"levelo_inurba_marseille","lat":43.324771,"lon":5.36557,"is_reserved":false,"is_disabled":false,"rental_uris":{"android":"levelo://app?vid=f710f2b9-c143-4f93-b928-a2143c98c7ba","ios":"levelo://app?vid=f710f2b9-c143-4f93-b928-a2143c98c7ba"},"vehicle_type_id":"4","last_reported":1725214220,"current_range_meters":22400,"station_id":"ce4bhs12rcd13ifvqhvg","pricing_plan_id":"cebpf4jnsgd1na2vs0mg"},{"bike_id":"6af7f3ef-8723-4ee2-84e1-3701cb7da3d6","system_id":"levelo_inurba_marseille","lat":43.324771,"lon":5.36557,"is_reserved":false,"is_disabled":false,"rental_uris":{"android":"levelo://app?vid=6af7f3ef-8723-4ee2-84e1-3701cb7da3d6","ios":"levelo://app?vid=6af7f3ef-8723-4ee2-84e1-3701cb7da3d6"},"vehicle_type_id":"4","last_reported":1725214220,"current_range_meters":4800,"station_id":"ce4bhs12rcd13ifvqhvg","pricing_plan_id":"cebpf4jnsgd1na2vs0mg"},{"bike_id":"2b673554-7a0b-4079-a76f-341b000cbbf7","system_id":"levelo_inurba_marseille","lat":43.324771,"lon":5.36557,"is_reserved":false,"is_disabled":false,"rental_uris":{"android":"levelo://app?vid=2b673554-7a0b-4079-a76f-341b000cbbf7","ios":"levelo://app?vid=2b673554-7a0b-4079-a76f-341b000cbbf7"},"vehicle_type_id":"4","last_reported":1725214220,"current_range_meters":11200,"station_id":"ce4bhs12rcd13ifvqhvg","pricing_plan_id":"cebpf4jnsgd1na2vs0mg"},{"bike_id":"ef16df85-db64-4676-9e98-bd047fd7279b","system_id":"levelo_inurba_marseille","lat":43.324771,"lon":5.36557,"is_reserved":false,"is_disabled":false,"rental_uris":{"android":"levelo://app?vid=ef16df85-db64-4676-9e98-bd047fd7279b","ios":"levelo://app?vid=ef16df85-db64-4676-9e98-bd047fd7279b"},"vehicle_type_id":"4","last_reported":1725214220,"current_range_meters":28400,"station_id":"ce4bhs12rcd13ifvqhvg","pricing_plan_id":"cebpf4jnsgd1na2vs0mg"},{"bike_id":"f475aa61-8110-4c1d-b6a7-55b758572a78","system_id":"levelo_inurba_marseille","lat":43.324771,"lon":5.36557,"is_reserved":false,"is_disabled":false,"rental_uris":{"android":"levelo://app?vid=f475aa61-8110-4c1d-b6a7-55b758572a78","ios":"levelo://app?vid=f475aa61-8110-4c1d-b6a7-55b758572a78"},"vehicle_type_id":"4","last_reported":1725214220,"current_range_meters":30400,"station_id":"ce4bhs12rcd13ifvqhvg","pricing_plan_id":"cebpf4jnsgd1na2vs0mg"},{"bike_id":"6143079b-afea-4d43-aafe-e1ab1f1f90b6","system_id":"levelo_inurba_marseille","lat":43.324771,"lon":5.36557,"is_reserved":false,"is_disabled":false,"rental_uris":{"android":"levelo://app?vid=6143079b-afea-4d43-aafe-e1ab1f1f90b6","ios":"levelo://app?vid=6143079b-afea-4d43-aafe-e1ab1f1f90b6"},"vehicle_type_id":"4","last_reported":1725214220,"current_range_meters":31200,"station_id":"ce4bhs12rcd13ifvqhvg","pricing_plan_id":"cebpf4jnsgd1na2vs0mg"},{"bike_id":"8cea9de4-bb78-4538-aa86-d4b05c33d747","system_id":"levelo_inurba_marseille","lat":43.324771,"lon":5.36557,"is_reserved":false,"is_disabled":false,"rental_uris":{"android":"levelo://app?vid=8cea9de4-bb78-4538-aa86-d4b05c33d747","ios":"levelo://app?vid=8cea9de4-bb78-4538-aa86-d4b05c33d747"},"vehicle_type_id":"4","last_reported":1725214220,"current_range_meters":31200,"station_id":"ce4bhs12rcd13ifvqhvg","pricing_plan_id":"cebpf4jnsgd1na2vs0mg"},{"bike_id":"7bb02620-5395-440c-af97-d9baf4eaaed5","system_id":"levelo_inurba_marseille","lat":43.310804,"lon":5.38359,"is_reserved":false,"is_disabled":false,"rental_uris":{"android":"levelo://app?vid=7bb02620-5395-440c-af97-d9baf4eaaed5","ios":"levelo://app?vid=7bb02620-5395-440c-af97-d9baf4eaaed5"},"vehicle_type_id":"4","last_reported":1725214220,"current_range_meters":30400,"station_id":"ce4bgv92rcd13ifvqcr0","pricing_plan_id":"cebpf4jnsgd1na2vs0mg"},{"bike_id":"dd8e3bb6-1cde-47fd-873a-cd2c6f39c80a","system_id":"levelo_inurba_marseille","lat":43.31078,"lon":5.38358,"is_reserved":false,"is_disabled":false,"rental_uris":{"android":"levelo://app?vid=dd8e3bb6-1cde-47fd-873a-cd2c6f39c80a","ios":"levelo://app?vid=dd8e3bb6-1cde-47fd-873a-cd2c6f39c80a"},"vehicle_type_id":"4","last_reported":1725214220,"current_range_meters":4400,"station_id":"ce4bgv92rcd13ifvqcr0","pricing_plan_id":"cebpf4jnsgd1na2vs0mg"},{"bike_id":"02fbfd6f-04a4-42a4-b8ab-47e5a56c3f71","system_id":"levelo_inurba_marseille","lat":43.310803,"lon":5.383603,"is_reserved":false,"is_disabled":false,"rental_uris":{"android":"levelo://app?vid=02fbfd6f-04a4-42a4-b8ab-47e5a56c3f71","ios":"levelo://app?vid=02fbfd6f-04a4-42a4-b8ab-47e5a56c3f71"},"vehicle_type_id":"4","last_reported":1725214220,"current_range_meters":13600,"station_id":"ce4bgv92rcd13ifvqcr0","pricing_plan_id":"cebpf4jnsgd1na2vs0mg"},{"bike_id":"95b55862-5b8f-46f7-9046-79e2ece640e3","system_id":"levelo_inurba_marseille","lat":43.302784,"lon":5.377158,"is_reserved":false,"is_disabled":false,"rental_uris":{"android":"levelo://app?vid=95b55862-5b8f-46f7-9046-79e2ece640e3","ios":"levelo://app?vid=95b55862-5b8f-46f7-9046-79e2ece640e3"},"vehicle_type_id":"4","last_reported":1725214220,"current_range_meters":27600,"station_id":"ce4bguh2rcd13ifvqcj0","pricing_plan_id":"cebpf4jnsgd1na2vs0mg"},{"bike_id":"20b032ae-cf37-43e3-b688-94567c942c84","system_id":"levelo_inurba_marseille","lat":43.302784,"lon":5.377158,"is_reserved":false,"is_disabled":false,"rental_uris":{"android":"levelo://app?vid=20b032ae-cf37-43e3-b688-94567c942c84","ios":"levelo://app?vid=20b032ae-cf37-43e3-b688-94567c942c84"},"vehicle_type_id":"4","last_reported":1725214220,"current_range_meters":31200,"station_id":"ce4bguh2rcd13ifvqcj0","pricing_plan_id":"cebpf4jnsgd1na2vs0mg"},{"bike_id":"3e3f75a3-5779-4204-bd54-fa69dde3b070","system_id":"levelo_inurba_marseille","lat":43.302784,"lon":5.377158,"is_reserved":false,"is_disabled":false,"rental_uris":{"android":"levelo://app?vid=3e3f75a3-5779-4204-bd54-fa69dde3b070","ios":"levelo://app?vid=3e3f75a3-5779-4204-bd54-fa69dde3b070"},"vehicle_type_id":"4","last_reported":1725214220,"current_range_meters":11200,"station_id":"ce4bguh2rcd13ifvqcj0","pricing_plan_id":"cebpf4jnsgd1na2vs0mg"},{"bike_id":"b1215516-0de0-47bc-bda3-e7bacbff6736","system_id":"levelo_inurba_marseille","lat":43.32043,"lon":5.38054,"is_reserved":false,"is_disabled":false,"rental_uris":{"android":"levelo://app?vid=b1215516-0de0-47bc-bda3-e7bacbff6736","ios":"levelo://app?vid=b1215516-0de0-47bc-bda3-e7bacbff6736"},"vehicle_type_id":"4","last_reported":1725214220,"current_range_meters":6800,"station_id":"","pricing_plan_id":"cebpf4jnsgd1na2vs0mg"},{"bike_id":"4258d75b-f7e4-4456-acc4-541316166037","system_id":"levelo_inurba_marseille","lat":43.31981,"lon":5.38147,"is_reserved":false,"is_disabled":false,"rental_uris":{"android":"levelo://app?vid=4258d75b-f7e4-4456-acc4-541316166037","ios":"levelo://app?vid=4258d75b-f7e4-4456-acc4-541316166037"},"vehicle_type_id":"4","last_reported":1725214220,"current_range_meters":29600,"station_id":"ce4bhr12rcd13ifvqhpg","pricing_plan_id":"cebpf4jnsgd1na2vs0mg"},{"bike_id":"6aab184f-46eb-486f-9c58-65373e7311db","system_id":"levelo_inurba_marseille","lat":43.31991,"lon":5.38154,"is_reserved":false,"is_disabled":false,"rental_uris":{"android":"levelo://app?vid=6aab184f-46eb-486f-9c58-65373e7311db","ios":"levelo://app?vid=6aab184f-46eb-486f-9c58-65373e7311db"},"vehicle_type_id":"4","last_reported":1725214220,"current_range_meters":8000,"station_id":"ce4bhr12rcd13ifvqhpg","pricing_plan_id":"cebpf4jnsgd1na2vs0mg"},{"bike_id":"5d9a8953-42c6-487c-8310-a7cfa868c193","system_id":"levelo_inurba_marseille","lat":43.31991,"lon":5.38162,"is_reserved":false,"is_disabled":false,"rental_uris":{"android":"levelo://app?vid=5d9a8953-42c6-487c-8310-a7cfa868c193","ios":"levelo://app?vid=5d9a8953-42c6-487c-8310-a7cfa868c193"},"vehicle_type_id":"4","last_reported":1725214220,"current_range_meters":18000,"station_id":"ce4bhr12rcd13ifvqhpg","pricing_plan_id":"cebpf4jnsgd1na2vs0mg"},{"bike_id":"db6ac357-9b77-4c13-a867-aa100b90e290","system_id":"levelo_inurba_marseille","lat":43.313593,"lon":5.384773,"is_reserved":false,"is_disabled":false,"rental_uris":{"android":"levelo://app?vid=db6ac357-9b77-4c13-a867-aa100b90e290","ios":"levelo://app?vid=db6ac357-9b77-4c13-a867-aa100b90e290"},"vehicle_type_id":"4","last_reported":1725214220,"current_range_meters":31200,"station_id":"ce4bgt92rcd13ifvqcf0","pricing_plan_id":"cebpf4jnsgd1na2vs0mg"},{"bike_id":"85da177a-413b-4c77-b473-d2af42902560","system_id":"levelo_inurba_marseille","lat":43.313571,"lon":5.384829,"is_reserved":false,"is_disabled":false,"rental_uris":{"android":"levelo://app?vid=85da177a-413b-4c77-b473-d2af42902560","ios":"levelo://app?vid=85da177a-413b-4c77-b473-d2af42902560"},"vehicle_type_id":"4","last_reported":1725214220,"current_range_meters":16400,"station_id":"ce4bgt92rcd13ifvqcf0","pricing_plan_id":"cebpf4jnsgd1na2vs0mg"},{"bike_id":"8bcefbf2-f7d4-40cf-b8ba-c665459d329f","system_id":"levelo_inurba_marseille","lat":43.313571,"lon":5.384829,"is_reserved":false,"is_disabled":false,"rental_uris":{"android":"levelo://app?vid=8bcefbf2-f7d4-40cf-b8ba-c665459d329f","ios":"levelo://app?vid=8bcefbf2-f7d4-40cf-b8ba-c665459d329f"},"vehicle_type_id":"4","last_reported":1725214220,"current_range_meters":31200,"station_id":"ce4bgt92rcd13ifvqcf0","pricing_plan_id":"cebpf4jnsgd1na2vs0mg"},{"bike_id":"79829445-fe90-41d6-b70c-f4c503b418d7","system_id":"levelo_inurba_marseille","lat":43.313571,"lon":5.384829,"is_reserved":false,"is_disabled":false,"rental_uris":{"android":"levelo://app?vid=79829445-fe90-41d6-b70c-f4c503b418d7","ios":"levelo://app?vid=79829445-fe90-41d6-b70c-f4c503b418d7"},"vehicle_type_id":"4","last_reported":1725214220,"current_range_meters":6400,"station_id":"ce4bgt92rcd13ifvqcf0","pricing_plan_id":"cebpf4jnsgd1na2vs0mg"},{"bike_id":"ab6624e6-928c-48d8-afa2-6c71046760d9","system_id":"levelo_inurba_marseille","lat":43.313571,"lon":5.384829,"is_reserved":false,"is_disabled":false,"rental_uris":{"android":"levelo://app?vid=ab6624e6-928c-48d8-afa2-6c71046760d9","ios":"levelo://app?vid=ab6624e6-928c-48d8-afa2-6c71046760d9"},"vehicle_type_id":"4","last_reported":1725214220,"current_range_meters":14000,"station_id":"ce4bgt92rcd13ifvqcf0","pricing_plan_id":"cebpf4jnsgd1na2vs0mg"},{"bike_id":"0e98ca21-f52f-435a-a9b2-832070024305","system_id":"levelo_inurba_marseille","lat":43.313571,"lon":5.384829,"is_reserved":false,"is_disabled":false,"rental_uris":{"android":"levelo://app?vid=0e98ca21-f52f-435a-a9b2-832070024305","ios":"levelo://app?vid=0e98ca21-f52f-435a-a9b2-832070024305"},"vehicle_type_id":"4","last_reported":1725214220,"current_range_meters":31200,"station_id":"ce4bgt92rcd13ifvqcf0","pricing_plan_id":"cebpf4jnsgd1na2vs0mg"},{"bike_id":"d31bca58-c5d4-430e-a273-752686376dc7","system_id":"levelo_inurba_marseille","lat":43.29977,"lon":5.3718,"is_reserved":false,"is_disabled":false,"rental_uris":{"android":"levelo://app?vid=d31bca58-c5d4-430e-a273-752686376dc7","ios":"levelo://app?vid=d31bca58-c5d4-430e-a273-752686376dc7"},"vehicle_type_id":"4","last_reported":1725214220,"current_range_meters":0,"station_id":"ce4bgr92rcd13ifvqc7g","pricing_plan_id":"cebpf4jnsgd1na2vs0mg"},{"bike_id":"0a086204-c0da-41fa-8fcc-8f06df186bc5","system_id":"levelo_inurba_marseille","lat":43.29976,"lon":5.37175,"is_reserved":false,"is_disabled":false,"rental_uris":{"android":"levelo://app?vid=0a086204-c0da-41fa-8fcc-8f06df186bc5","ios":"levelo://app?vid=0a086204-c0da-41fa-8fcc-8f06df186bc5"},"vehicle_type_id":"4","last_reported":1725214220,"current_range_meters":27600,"station_id":"ce4bgr92rcd13ifvqc7g","pricing_plan_id":"cebpf4jnsgd1na2vs0mg"},{"bike_id":"e22e6098-49f8-4fb7-957e-ef97392778db","system_id":"levelo_inurba_marseille","lat":43.298433,"lon":5.362774,"is_reserved":false,"is_disabled":false,"rental_uris":{"android":"levelo://app?vid=e22e6098-49f8-4fb7-957e-ef97392778db","ios":"levelo://app?vid=e22e6098-49f8-4fb7-957e-ef97392778db"},"vehicle_type_id":"4","last_reported":1725214220,"current_range_meters":6400,"station_id":"ce4bgpp2rcd13ifvqc3g","pricing_plan_id":"cebpf4jnsgd1na2vs0mg"},{"bike_id":"7227de42-f794-4f68-a81f-d5629dfc5839","system_id":"levelo_inurba_marseille","lat":43.305364,"lon":5.384119,"is_reserved":false,"is_disabled":false,"rental_uris":{"android":"levelo://app?vid=7227de42-f794-4f68-a81f-d5629dfc5839","ios":"levelo://app?vid=7227de42-f794-4f68-a81f-d5629dfc5839"},"vehicle_type_id":"4","last_reported":1725214220,"current_range_meters":31200,"station_id":"ce4bgg92rcd13ifvqb30","pricing_plan_id":"cebpf4jnsgd1na2vs0mg"},{"bike_id":"1dbb9897-4ec7-4dad-b115-aecaa26277eb","system_id":"levelo_inurba_marseille","lat":43.31179,"lon":5.38712,"is_reserved":false,"is_disabled":false,"rental_uris":{"android":"levelo://app?vid=1dbb9897-4ec7-4dad-b115-aecaa26277eb","ios":"levelo://app?vid=1dbb9897-4ec7-4dad-b115-aecaa26277eb"},"vehicle_type_id":"4","last_reported":1725214220,"current_range_meters":17200,"station_id":"ce4bgv12rcd13ifvqcp0","pricing_plan_id":"cebpf4jnsgd1na2vs0mg"},{"bike_id":"b4895040-f37e-420d-926e-6d1b4f354659","system_id":"levelo_inurba_marseille","lat":43.311722,"lon":5.387247,"is_reserved":false,"is_disabled":false,"rental_uris":{"android":"levelo://app?vid=b4895040-f37e-420d-926e-6d1b4f354659","ios":"levelo://app?vid=b4895040-f37e-420d-926e-6d1b4f354659"},"vehicle_type_id":"4","last_reported":1725214220,"current_range_meters":12800,"station_id":"ce4bgv12rcd13ifvqcp0","pricing_plan_id":"cebpf4jnsgd1na2vs0mg"},{"bike_id":"74f19782-b309-4e76-b73c-ebb11b4e7946","system_id":"levelo_inurba_marseille","lat":43.311722,"lon":5.387247,"is_reserved":false,"is_disabled":false,"rental_uris":{"android":"levelo://app?vid=74f19782-b309-4e76-b73c-ebb11b4e7946","ios":"levelo://app?vid=74f19782-b309-4e76-b73c-ebb11b4e7946"},"vehicle_type_id":"4","last_reported":1725214220,"current_range_meters":4800,"station_id":"ce4bgv12rcd13ifvqcp0","pricing_plan_id":"cebpf4jnsgd1na2vs0mg"},{"bike_id":"66e4e746-87cb-4b1d-ab96-7aa09b74cd26","system_id":"levelo_inurba_marseille","lat":43.30148,"lon":5.38085,"is_reserved":false,"is_disabled":false,"rental_uris":{"android":"levelo://app?vid=66e4e746-87cb-4b1d-ab96-7aa09b74cd26","ios":"levelo://app?vid=66e4e746-87cb-4b1d-ab96-7aa09b74cd26"},"vehicle_type_id":"4","last_reported":1725214220,"current_range_meters":0,"station_id":"ce4bgjp2rcd13ifvqbh0","pricing_plan_id":"cebpf4jnsgd1na2vs0mg"},{"bike_id":"3e1e776e-5442-4272-9a11-d47472b221eb","system_id":"levelo_inurba_marseille","lat":43.297774,"lon":5.370875,"is_reserved":false,"is_disabled":false,"rental_uris":{"android":"levelo://app?vid=3e1e776e-5442-4272-9a11-d47472b221eb","ios":"levelo://app?vid=3e1e776e-5442-4272-9a11-d47472b221eb"},"vehicle_type_id":"4","last_reported":1725214220,"current_range_meters":11600,"station_id":"ce4bgop2rcd13ifvqc1g","pricing_plan_id":"cebpf4jnsgd1na2vs0mg"},{"bike_id":"2166ecbc-7e7d-4633-a48e-475d0f65d6e1","system_id":"levelo_inurba_marseille","lat":43.29783,"lon":5.37116,"is_reserved":false,"is_disabled":false,"rental_uris":{"android":"levelo://app?vid=2166ecbc-7e7d-4633-a48e-475d0f65d6e1","ios":"levelo://app?vid=2166ecbc-7e7d-4633-a48e-475d0f65d6e1"},"vehicle_type_id":"4","last_reported":1725214220,"current_range_meters":0,"station_id":"ce4bgop2rcd13ifvqc1g","pricing_plan_id":"cebpf4jnsgd1na2vs0mg"},{"bike_id":"fca3378d-552b-4059-8154-d03b143e1b44","system_id":"levelo_inurba_marseille","lat":43.29778,"lon":5.37116,"is_reserved":false,"is_disabled":false,"rental_uris":{"android":"levelo://app?vid=fca3378d-552b-4059-8154-d03b143e1b44","ios":"levelo://app?vid=fca3378d-552b-4059-8154-d03b143e1b44"},"vehicle_type_id":"4","last_reported":1725214220,"current_range_meters":14800,"station_id":"ce4bgop2rcd13ifvqc1g","pricing_plan_id":"cebpf4jnsgd1na2vs0mg"},{"bike_id":"2463e7d4-72d6-4761-b747-38cd10164e72","system_id":"levelo_inurba_marseille","lat":43.322872,"lon":5.382756,"is_reserved":false,"is_disabled":false,"rental_uris":{"android":"levelo://app?vid=2463e7d4-72d6-4761-b747-38cd10164e72","ios":"levelo://app?vid=2463e7d4-72d6-4761-b747-38cd10164e72"},"vehicle_type_id":"4","last_reported":1725214220,"current_range_meters":30800,"station_id":"ce4bhr12rcd13ifvqhqg","pricing_plan_id":"cebpf4jnsgd1na2vs0mg"},{"bike_id":"60ff3900-1cd1-4527-ae10-64555afa6b11","system_id":"levelo_inurba_marseille","lat":43.32289,"lon":5.38265,"is_reserved":false,"is_disabled":false,"rental_uris":{"android":"levelo://app?vid=60ff3900-1cd1-4527-ae10-64555afa6b11","ios":"levelo://app?vid=60ff3900-1cd1-4527-ae10-64555afa6b11"},"vehicle_type_id":"4","last_reported":1725214220,"current_range_meters":14800,"station_id":"ce4bhr12rcd13ifvqhqg","pricing_plan_id":"cebpf4jnsgd1na2vs0mg"},{"bike_id":"82c01b15-b0a3-4c63-83ef-145aed4020a3","system_id":"levelo_inurba_marseille","lat":43.322872,"lon":5.382756,"is_reserved":false,"is_disabled":false,"rental_uris":{"android":"levelo://app?vid=82c01b15-b0a3-4c63-83ef-145aed4020a3","ios":"levelo://app?vid=82c01b15-b0a3-4c63-83ef-145aed4020a3"},"vehicle_type_id":"4","last_reported":1725214220,"current_range_meters":31200,"station_id":"ce4bhr12rcd13ifvqhqg","pricing_plan_id":"cebpf4jnsgd1na2vs0mg"},{"bike_id":"792c177a-3b1d-44ab-ac67-21c25cf61192","system_id":"levelo_inurba_marseille","lat":43.32289,"lon":5.38266,"is_reserved":false,"is_disabled":false,"rental_uris":{"android":"levelo://app?vid=792c177a-3b1d-44ab-ac67-21c25cf61192","ios":"levelo://app?vid=792c177a-3b1d-44ab-ac67-21c25cf61192"},"vehicle_type_id":"4","last_reported":1725214220,"current_range_meters":16800,"station_id":"ce4bhr12rcd13ifvqhqg","pricing_plan_id":"cebpf4jnsgd1na2vs0mg"},{"bike_id":"c312ddc4-0cfd-47fa-8460-8260a3ea856a","system_id":"levelo_inurba_marseille","lat":43.32287,"lon":5.38269,"is_reserved":false,"is_disabled":false,"rental_uris":{"android":"levelo://app?vid=c312ddc4-0cfd-47fa-8460-8260a3ea856a","ios":"levelo://app?vid=c312ddc4-0cfd-47fa-8460-8260a3ea856a"},"vehicle_type_id":"4","last_reported":1725214220,"current_range_meters":27200,"station_id":"ce4bhr12rcd13ifvqhqg","pricing_plan_id":"cebpf4jnsgd1na2vs0mg"},{"bike_id":"32190657-d0f7-49e5-8191-b2db080b7008","system_id":"levelo_inurba_marseille","lat":43.322872,"lon":5.382756,"is_reserved":false,"is_disabled":false,"rental_uris":{"android":"levelo://app?vid=32190657-d0f7-49e5-8191-b2db080b7008","ios":"levelo://app?vid=32190657-d0f7-49e5-8191-b2db080b7008"},"vehicle_type_id":"4","last_reported":1725214220,"current_range_meters":31200,"station_id":"ce4bhr12rcd13ifvqhqg","pricing_plan_id":"cebpf4jnsgd1na2vs0mg"},{"bike_id":"3ff9b6aa-fbc6-41af-a736-fc98973eb296","system_id":"levelo_inurba_marseille","lat":43.322872,"lon":5.382756,"is_reserved":false,"is_disabled":false,"rental_uris":{"android":"levelo://app?vid=3ff9b6aa-fbc6-41af-a736-fc98973eb296","ios":"levelo://app?vid=3ff9b6aa-fbc6-41af-a736-fc98973eb296"},"vehicle_type_id":"4","last_reported":1725214220,"current_range_meters":31200,"station_id":"ce4bhr12rcd13ifvqhqg","pricing_plan_id":"cebpf4jnsgd1na2vs0mg"},{"bike_id":"b9203e51-bd4b-4a7e-81d6-1bf4921a4206","system_id":"levelo_inurba_marseille","lat":43.297774,"lon":5.370875,"is_reserved":false,"is_disabled":false,"rental_uris":{"android":"levelo://app?vid=b9203e51-bd4b-4a7e-81d6-1bf4921a4206","ios":"levelo://app?vid=b9203e51-bd4b-4a7e-81d6-1bf4921a4206"},"vehicle_type_id":"4","last_reported":1725214220,"current_range_meters":30400,"station_id":"ce4bgop2rcd13ifvqc1g","pricing_plan_id":"cebpf4jnsgd1na2vs0mg"},{"bike_id":"664309b0-836b-4925-9065-d678dac11778","system_id":"levelo_inurba_marseille","lat":43.29846,"lon":5.37664,"is_reserved":false,"is_disabled":false,"rental_uris":{"android":"levelo://app?vid=664309b0-836b-4925-9065-d678dac11778","ios":"levelo://app?vid=664309b0-836b-4925-9065-d678dac11778"},"vehicle_type_id":"4","last_reported":1725214220,"current_range_meters":19200,"station_id":"","pricing_plan_id":"cebpf4jnsgd1na2vs0mg"},{"bike_id":"db36947a-9763-45da-85fc-b93aba81274e","system_id":"levelo_inurba_marseille","lat":43.2968,"lon":5.37291,"is_reserved":false,"is_disabled":false,"rental_uris":{"android":"levelo://app?vid=db36947a-9763-45da-85fc-b93aba81274e","ios":"levelo://app?vid=db36947a-9763-45da-85fc-b93aba81274e"},"vehicle_type_id":"4","last_reported":1725214220,"current_range_meters":0,"station_id":"ce4bgk12rcd13ifvqbj0","pricing_plan_id":"cebpf4jnsgd1na2vs0mg"},{"bike_id":"8a8887de-5c7d-4b1c-91b2-78e9c920b48d","system_id":"levelo_inurba_marseille","lat":43.2968,"lon":5.37291,"is_reserved":false,"is_disabled":false,"rental_uris":{"android":"levelo://app?vid=8a8887de-5c7d-4b1c-91b2-78e9c920b48d","ios":"levelo://app?vid=8a8887de-5c7d-4b1c-91b2-78e9c920b48d"},"vehicle_type_id":"4","last_reported":1725214220,"current_range_meters":31200,"station_id":"ce4bgk12rcd13ifvqbj0","pricing_plan_id":"cebpf4jnsgd1na2vs0mg"},{"bike_id":"c4502d1c-cc68-4f65-8d43-9703264b883c","system_id":"levelo_inurba_marseille","lat":43.30942,"lon":5.39016,"is_reserved":false,"is_disabled":false,"rental_uris":{"android":"levelo://app?vid=c4502d1c-cc68-4f65-8d43-9703264b883c","ios":"levelo://app?vid=c4502d1c-cc68-4f65-8d43-9703264b883c"},"vehicle_type_id":"4","last_reported":1725214220,"current_range_meters":31200,"station_id":"ce4bgup2rcd13ifvqco0","pricing_plan_id":"cebpf4jnsgd1na2vs0mg"},{"bike_id":"6127aaa4-2fc4-4407-94d6-fdf52b21b126","system_id":"levelo_inurba_marseille","lat":43.30954,"lon":5.3903,"is_reserved":false,"is_disabled":false,"rental_uris":{"android":"levelo://app?vid=6127aaa4-2fc4-4407-94d6-fdf52b21b126","ios":"levelo://app?vid=6127aaa4-2fc4-4407-94d6-fdf52b21b126"},"vehicle_type_id":"4","last_reported":1725214220,"current_range_meters":30400,"station_id":"ce4bgup2rcd13ifvqco0","pricing_plan_id":"cebpf4jnsgd1na2vs0mg"},{"bike_id":"57bf5d06-3b27-4b0a-8cc5-04ee81cb8fe2","system_id":"levelo_inurba_marseille","lat":43.31757,"lon":5.39012,"is_reserved":false,"is_disabled":false,"rental_uris":{"android":"levelo://app?vid=57bf5d06-3b27-4b0a-8cc5-04ee81cb8fe2","ios":"levelo://app?vid=57bf5d06-3b27-4b0a-8cc5-04ee81cb8fe2"},"vehicle_type_id":"4","last_reported":1725214220,"current_range_meters":31200,"station_id":"ce4bhqp2rcd13ifvqhng","pricing_plan_id":"cebpf4jnsgd1na2vs0mg"},{"bike_id":"d7843060-ca50-4cb7-a535-6df096abb62c","system_id":"levelo_inurba_marseille","lat":43.317557,"lon":5.390173,"is_reserved":false,"is_disabled":false,"rental_uris":{"android":"levelo://app?vid=d7843060-ca50-4cb7-a535-6df096abb62c","ios":"levelo://app?vid=d7843060-ca50-4cb7-a535-6df096abb62c"},"vehicle_type_id":"4","last_reported":1725214220,"current_range_meters":29200,"station_id":"ce4bhqp2rcd13ifvqhng","pricing_plan_id":"cebpf4jnsgd1na2vs0mg"},{"bike_id":"25f0ee65-19ec-4660-acc8-9f68fde422f5","system_id":"levelo_inurba_marseille","lat":43.317557,"lon":5.390173,"is_reserved":false,"is_disabled":false,"rental_uris":{"android":"levelo://app?vid=25f0ee65-19ec-4660-acc8-9f68fde422f5","ios":"levelo://app?vid=25f0ee65-19ec-4660-acc8-9f68fde422f5"},"vehicle_type_id":"4","last_reported":1725214220,"current_range_meters":4400,"station_id":"ce4bhqp2rcd13ifvqhng","pricing_plan_id":"cebpf4jnsgd1na2vs0mg"},{"bike_id":"d6c682e2-ca8a-4034-86fc-474ce232c18a","system_id":"levelo_inurba_marseille","lat":43.31756,"lon":5.39022,"is_reserved":false,"is_disabled":false,"rental_uris":{"android":"levelo://app?vid=d6c682e2-ca8a-4034-86fc-474ce232c18a","ios":"levelo://app?vid=d6c682e2-ca8a-4034-86fc-474ce232c18a"},"vehicle_type_id":"4","last_reported":1725214220,"current_range_meters":0,"station_id":"ce4bhqp2rcd13ifvqhng","pricing_plan_id":"cebpf4jnsgd1na2vs0mg"},{"bike_id":"b198443f-9b33-4f87-86da-136a8f639bec","system_id":"levelo_inurba_marseille","lat":43.298037,"lon":5.381066,"is_reserved":false,"is_disabled":false,"rental_uris":{"android":"levelo://app?vid=b198443f-9b33-4f87-86da-136a8f639bec","ios":"levelo://app?vid=b198443f-9b33-4f87-86da-136a8f639bec"},"vehicle_type_id":"4","last_reported":1725214220,"current_range_meters":9600,"station_id":"ce4bgip2rcd13ifvqbb0","pricing_plan_id":"cebpf4jnsgd1na2vs0mg"},{"bike_id":"3d7f31a0-4216-4a26-a558-7ffb0ee0b87c","system_id":"levelo_inurba_marseille","lat":43.295748,"lon":5.37522,"is_reserved":false,"is_disabled":false,"rental_uris":{"android":"levelo://app?vid=3d7f31a0-4216-4a26-a558-7ffb0ee0b87c","ios":"levelo://app?vid=3d7f31a0-4216-4a26-a558-7ffb0ee0b87c"},"vehicle_type_id":"4","last_reported":1725214220,"current_range_meters":7600,"station_id":"ce4bgh92rcd13ifvqb50","pricing_plan_id":"cebpf4jnsgd1na2vs0mg"},{"bike_id":"3fc5f210-bb9e-4b34-8f19-4966eaed21c2","system_id":"levelo_inurba_marseille","lat":43.29576,"lon":5.37509,"is_reserved":false,"is_disabled":false,"rental_uris":{"android":"levelo://app?vid=3fc5f210-bb9e-4b34-8f19-4966eaed21c2","ios":"levelo://app?vid=3fc5f210-bb9e-4b34-8f19-4966eaed21c2"},"vehicle_type_id":"4","last_reported":1725214220,"current_range_meters":0,"station_id":"ce4bgh92rcd13ifvqb50","pricing_plan_id":"cebpf4jnsgd1na2vs0mg"},{"bike_id":"ceab52ca-2fa1-4281-96a4-d869e57a0060","system_id":"levelo_inurba_marseille","lat":43.296263,"lon":5.377094,"is_reserved":false,"is_disabled":false,"rental_uris":{"android":"levelo://app?vid=ceab52ca-2fa1-4281-96a4-d869e57a0060","ios":"levelo://app?vid=ceab52ca-2fa1-4281-96a4-d869e57a0060"},"vehicle_type_id":"4","last_reported":1725214220,"current_range_meters":17600,"station_id":"ce4bgi92rcd13ifvqb90","pricing_plan_id":"cebpf4jnsgd1na2vs0mg"},{"bike_id":"fedc029d-bf2a-4913-971a-9efaa5d499fa","system_id":"levelo_inurba_marseille","lat":43.2954,"lon":5.37506,"is_reserved":false,"is_disabled":false,"rental_uris":{"android":"levelo://app?vid=fedc029d-bf2a-4913-971a-9efaa5d499fa","ios":"levelo://app?vid=fedc029d-bf2a-4913-971a-9efaa5d499fa"},"vehicle_type_id":"4","last_reported":1725214220,"current_range_meters":0,"station_id":"ce4bgkp2rcd13ifvqbmg","pricing_plan_id":"cebpf4jnsgd1na2vs0mg"},{"bike_id":"4e8f06e4-98a9-466c-a407-83d6543867e5","system_id":"levelo_inurba_marseille","lat":43.299707,"lon":5.384859,"is_reserved":false,"is_disabled":false,"rental_uris":{"android":"levelo://app?vid=4e8f06e4-98a9-466c-a407-83d6543867e5","ios":"levelo://app?vid=4e8f06e4-98a9-466c-a407-83d6543867e5"},"vehicle_type_id":"4","last_reported":1725214220,"current_range_meters":31200,"station_id":"ce4bgj92rcd13ifvqbd0","pricing_plan_id":"cebpf4jnsgd1na2vs0mg"},{"bike_id":"0ead3610-f188-4291-b6ad-0d0b0ccf214d","system_id":"levelo_inurba_marseille","lat":43.29973,"lon":5.385,"is_reserved":false,"is_disabled":false,"rental_uris":{"android":"levelo://app?vid=0ead3610-f188-4291-b6ad-0d0b0ccf214d","ios":"levelo://app?vid=0ead3610-f188-4291-b6ad-0d0b0ccf214d"},"vehicle_type_id":"4","last_reported":1725214220,"current_range_meters":27600,"station_id":"ce4bgj92rcd13ifvqbd0","pricing_plan_id":"cebpf4jnsgd1na2vs0mg"},{"bike_id":"bfecef8d-33f2-4b4c-92b9-b3b2484abc58","system_id":"levelo_inurba_marseille","lat":43.299724,"lon":5.384848,"is_reserved":false,"is_disabled":false,"rental_uris":{"android":"levelo://app?vid=bfecef8d-33f2-4b4c-92b9-b3b2484abc58","ios":"levelo://app?vid=bfecef8d-33f2-4b4c-92b9-b3b2484abc58"},"vehicle_type_id":"4","last_reported":1725214220,"current_range_meters":31200,"station_id":"ce4bgj92rcd13ifvqbd0","pricing_plan_id":"cebpf4jnsgd1na2vs0mg"},{"bike_id":"bfbd52ef-34a5-4a78-913c-bbca30259256","system_id":"levelo_inurba_marseille","lat":43.299724,"lon":5.384848,"is_reserved":false,"is_disabled":false,"rental_uris":{"android":"levelo://app?vid=bfbd52ef-34a5-4a78-913c-bbca30259256","ios":"levelo://app?vid=bfbd52ef-34a5-4a78-913c-bbca30259256"},"vehicle_type_id":"4","last_reported":1725214220,"current_range_meters":31200,"station_id":"ce4bgj92rcd13ifvqbd0","pricing_plan_id":"cebpf4jnsgd1na2vs0mg"},{"bike_id":"1ee09afb-d8eb-4dea-9081-fa0c7425a3d0","system_id":"levelo_inurba_marseille","lat":43.32367,"lon":5.388836,"is_reserved":false,"is_disabled":false,"rental_uris":{"android":"levelo://app?vid=1ee09afb-d8eb-4dea-9081-fa0c7425a3d0","ios":"levelo://app?vid=1ee09afb-d8eb-4dea-9081-fa0c7425a3d0"},"vehicle_type_id":"4","last_reported":1725214220,"current_range_meters":23600,"station_id":"ce4bhqp2rcd13ifvqhog","pricing_plan_id":"cebpf4jnsgd1na2vs0mg"},{"bike_id":"67316e3f-38b9-4d8f-abec-b5225428fcea","system_id":"levelo_inurba_marseille","lat":43.32367,"lon":5.388836,"is_reserved":false,"is_disabled":false,"rental_uris":{"android":"levelo://app?vid=67316e3f-38b9-4d8f-abec-b5225428fcea","ios":"levelo://app?vid=67316e3f-38b9-4d8f-abec-b5225428fcea"},"vehicle_type_id":"4","last_reported":1725214220,"current_range_meters":6000,"station_id":"ce4bhqp2rcd13ifvqhog","pricing_plan_id":"cebpf4jnsgd1na2vs0mg"},{"bike_id":"91eaefb9-2db4-45e6-9c67-a6e478a75587","system_id":"levelo_inurba_marseille","lat":43.32367,"lon":5.388836,"is_reserved":false,"is_disabled":false,"rental_uris":{"android":"levelo://app?vid=91eaefb9-2db4-45e6-9c67-a6e478a75587","ios":"levelo://app?vid=91eaefb9-2db4-45e6-9c67-a6e478a75587"},"vehicle_type_id":"4","last_reported":1725214220,"current_range_meters":6000,"station_id":"ce4bhqp2rcd13ifvqhog","pricing_plan_id":"cebpf4jnsgd1na2vs0mg"},{"bike_id":"f84c5c5c-29c2-45e6-a674-24cdcd003577","system_id":"levelo_inurba_marseille","lat":43.29434,"lon":5.37537,"is_reserved":false,"is_disabled":false,"rental_uris":{"android":"levelo://app?vid=f84c5c5c-29c2-45e6-a674-24cdcd003577","ios":"levelo://app?vid=f84c5c5c-29c2-45e6-a674-24cdcd003577"},"vehicle_type_id":"4","last_reported":1725214220,"current_range_meters":0,"station_id":"","pricing_plan_id":"cebpf4jnsgd1na2vs0mg"},{"bike_id":"e47b77d0-d2dd-4036-a7bf-210e40df4a4d","system_id":"levelo_inurba_marseille","lat":43.295997,"lon":5.380922,"is_reserved":false,"is_disabled":false,"rental_uris":{"android":"levelo://app?vid=e47b77d0-d2dd-4036-a7bf-210e40df4a4d","ios":"levelo://app?vid=e47b77d0-d2dd-4036-a7bf-210e40df4a4d"},"vehicle_type_id":"4","last_reported":1725214220,"current_range_meters":0,"station_id":"ce4bh2h2rcd13ifvqdh0","pricing_plan_id":"cebpf4jnsgd1na2vs0mg"},{"bike_id":"c6f0935b-430d-49df-92ca-d242d8ca5ba0","system_id":"levelo_inurba_marseille","lat":43.32365,"lon":5.38935,"is_reserved":false,"is_disabled":false,"rental_uris":{"android":"levelo://app?vid=c6f0935b-430d-49df-92ca-d242d8ca5ba0","ios":"levelo://app?vid=c6f0935b-430d-49df-92ca-d242d8ca5ba0"},"vehicle_type_id":"4","last_reported":1725214220,"current_range_meters":19200,"station_id":"ce4bhqp2rcd13ifvqhog","pricing_plan_id":"cebpf4jnsgd1na2vs0mg"},{"bike_id":"b9d51355-e515-483a-a60b-c8a5e8c28078","system_id":"levelo_inurba_marseille","lat":43.301954,"lon":5.389582,"is_reserved":false,"is_disabled":false,"rental_uris":{"android":"levelo://app?vid=b9d51355-e515-483a-a60b-c8a5e8c28078","ios":"levelo://app?vid=b9d51355-e515-483a-a60b-c8a5e8c28078"},"vehicle_type_id":"4","last_reported":1725214220,"current_range_meters":0,"station_id":"","pricing_plan_id":"cebpf4jnsgd1na2vs0mg"},{"bike_id":"99d5a7dc-21ae-4e6c-918b-aa65eef8d064","system_id":"levelo_inurba_marseille","lat":43.29277,"lon":5.3684,"is_reserved":false,"is_disabled":false,"rental_uris":{"android":"levelo://app?vid=99d5a7dc-21ae-4e6c-918b-aa65eef8d064","ios":"levelo://app?vid=99d5a7dc-21ae-4e6c-918b-aa65eef8d064"},"vehicle_type_id":"4","last_reported":1725214220,"current_range_meters":31200,"station_id":"ce4bhbp2rcd13ifvqesg","pricing_plan_id":"cebpf4jnsgd1na2vs0mg"},{"bike_id":"3dc0d751-4ab2-4a1d-a99c-8855599c051a","system_id":"levelo_inurba_marseille","lat":43.29273,"lon":5.36839,"is_reserved":false,"is_disabled":false,"rental_uris":{"android":"levelo://app?vid=3dc0d751-4ab2-4a1d-a99c-8855599c051a","ios":"levelo://app?vid=3dc0d751-4ab2-4a1d-a99c-8855599c051a"},"vehicle_type_id":"4","last_reported":1725214220,"current_range_meters":0,"station_id":"ce4bhbp2rcd13ifvqesg","pricing_plan_id":"cebpf4jnsgd1na2vs0mg"},{"bike_id":"21aed5ea-db70-4767-945d-23fd77d18b26","system_id":"levelo_inurba_marseille","lat":43.292749,"lon":5.368398,"is_reserved":false,"is_disabled":false,"rental_uris":{"android":"levelo://app?vid=21aed5ea-db70-4767-945d-23fd77d18b26","ios":"levelo://app?vid=21aed5ea-db70-4767-945d-23fd77d18b26"},"vehicle_type_id":"4","last_reported":1725214220,"current_range_meters":0,"station_id":"ce4bhbp2rcd13ifvqesg","pricing_plan_id":"cebpf4jnsgd1na2vs0mg"},{"bike_id":"d9e27ec2-743b-4e87-a450-9d4163430b49","system_id":"levelo_inurba_marseille","lat":43.292702,"lon":5.368384,"is_reserved":false,"is_disabled":false,"rental_uris":{"android":"levelo://app?vid=d9e27ec2-743b-4e87-a450-9d4163430b49","ios":"levelo://app?vid=d9e27ec2-743b-4e87-a450-9d4163430b49"},"vehicle_type_id":"4","last_reported":1725214220,"current_range_meters":31200,"station_id":"ce4bhbp2rcd13ifvqesg","pricing_plan_id":"cebpf4jnsgd1na2vs0mg"},{"bike_id":"0aed5675-3436-4210-b33e-6949380b89bf","system_id":"levelo_inurba_marseille","lat":43.29244,"lon":5.36493,"is_reserved":false,"is_disabled":false,"rental_uris":{"android":"levelo://app?vid=0aed5675-3436-4210-b33e-6949380b89bf","ios":"levelo://app?vid=0aed5675-3436-4210-b33e-6949380b89bf"},"vehicle_type_id":"4","last_reported":1725214220,"current_range_meters":15600,"station_id":"","pricing_plan_id":"cebpf4jnsgd1na2vs0mg"},{"bike_id":"baf1fcf1-e691-4ff8-bcc5-3bf444dc1765","system_id":"levelo_inurba_marseille","lat":43.29241,"lon":5.36491,"is_reserved":false,"is_disabled":false,"rental_uris":{"android":"levelo://app?vid=baf1fcf1-e691-4ff8-bcc5-3bf444dc1765","ios":"levelo://app?vid=baf1fcf1-e691-4ff8-bcc5-3bf444dc1765"},"vehicle_type_id":"4","last_reported":1725214220,"current_range_meters":9200,"station_id":"","pricing_plan_id":"cebpf4jnsgd1na2vs0mg"},{"bike_id":"aad1473c-7e70-4863-82c7-0eeefbe1ff94","system_id":"levelo_inurba_marseille","lat":43.29231,"lon":5.36436,"is_reserved":false,"is_disabled":false,"rental_uris":{"android":"levelo://app?vid=aad1473c-7e70-4863-82c7-0eeefbe1ff94","ios":"levelo://app?vid=aad1473c-7e70-4863-82c7-0eeefbe1ff94"},"vehicle_type_id":"4","last_reported":1725214220,"current_range_meters":0,"station_id":"","pricing_plan_id":"cebpf4jnsgd1na2vs0mg"},{"bike_id":"b336b61a-b64c-43e4-9107-2e61af93a579","system_id":"levelo_inurba_marseille","lat":43.305994,"lon":5.393687,"is_reserved":false,"is_disabled":false,"rental_uris":{"android":"levelo://app?vid=b336b61a-b64c-43e4-9107-2e61af93a579","ios":"levelo://app?vid=b336b61a-b64c-43e4-9107-2e61af93a579"},"vehicle_type_id":"4","last_reported":1725214220,"current_range_meters":14000,"station_id":"ce4bh0p2rcd13ifvqd80","pricing_plan_id":"cebpf4jnsgd1na2vs0mg"},{"bike_id":"be3f5165-9200-44a7-8a21-b40c3039e776","system_id":"levelo_inurba_marseille","lat":43.305994,"lon":5.393687,"is_reserved":false,"is_disabled":false,"rental_uris":{"android":"levelo://app?vid=be3f5165-9200-44a7-8a21-b40c3039e776","ios":"levelo://app?vid=be3f5165-9200-44a7-8a21-b40c3039e776"},"vehicle_type_id":"4","last_reported":1725214220,"current_range_meters":14400,"station_id":"ce4bh0p2rcd13ifvqd80","pricing_plan_id":"cebpf4jnsgd1na2vs0mg"},{"bike_id":"7dcc6c0d-6860-403e-a7e3-510cd92b5843","system_id":"levelo_inurba_marseille","lat":43.305994,"lon":5.393687,"is_reserved":false,"is_disabled":false,"rental_uris":{"android":"levelo://app?vid=7dcc6c0d-6860-403e-a7e3-510cd92b5843","ios":"levelo://app?vid=7dcc6c0d-6860-403e-a7e3-510cd92b5843"},"vehicle_type_id":"4","last_reported":1725214220,"current_range_meters":30800,"station_id":"ce4bh0p2rcd13ifvqd80","pricing_plan_id":"cebpf4jnsgd1na2vs0mg"},{"bike_id":"46dc1d2f-c836-4533-8403-f035f0b6c0fa","system_id":"levelo_inurba_marseille","lat":43.292325,"lon":5.361566,"is_reserved":false,"is_disabled":false,"rental_uris":{"android":"levelo://app?vid=46dc1d2f-c836-4533-8403-f035f0b6c0fa","ios":"levelo://app?vid=46dc1d2f-c836-4533-8403-f035f0b6c0fa"},"vehicle_type_id":"4","last_reported":1725214220,"current_range_meters":2800,"station_id":"ce4bhbh2rcd13ifvqeqg","pricing_plan_id":"cebpf4jnsgd1na2vs0mg"},{"bike_id":"6d3975d7-8c65-49f4-a459-910a92204fdf","system_id":"levelo_inurba_marseille","lat":43.2936,"lon":5.37835,"is_reserved":false,"is_disabled":false,"rental_uris":{"android":"levelo://app?vid=6d3975d7-8c65-49f4-a459-910a92204fdf","ios":"levelo://app?vid=6d3975d7-8c65-49f4-a459-910a92204fdf"},"vehicle_type_id":"4","last_reported":1725214220,"current_range_meters":4800,"station_id":"ce4bgjh2rcd13ifvqbf0","pricing_plan_id":"cebpf4jnsgd1na2vs0mg"},{"bike_id":"ba7a31e0-43f0-486a-8ed5-daacd01a7ba3","system_id":"levelo_inurba_marseille","lat":43.303002,"lon":5.392142,"is_reserved":false,"is_disabled":false,"rental_uris":{"android":"levelo://app?vid=ba7a31e0-43f0-486a-8ed5-daacd01a7ba3","ios":"levelo://app?vid=ba7a31e0-43f0-486a-8ed5-daacd01a7ba3"},"vehicle_type_id":"4","last_reported":1725214220,"current_range_meters":0,"station_id":"ce4bgkh2rcd13ifvqbk0","pricing_plan_id":"cebpf4jnsgd1na2vs0mg"},{"bike_id":"b624e40d-a79c-49c0-99ac-e3bdbc78c936","system_id":"levelo_inurba_marseille","lat":43.2936,"lon":5.37835,"is_reserved":false,"is_disabled":false,"rental_uris":{"android":"levelo://app?vid=b624e40d-a79c-49c0-99ac-e3bdbc78c936","ios":"levelo://app?vid=b624e40d-a79c-49c0-99ac-e3bdbc78c936"},"vehicle_type_id":"4","last_reported":1725214220,"current_range_meters":16000,"station_id":"ce4bgjh2rcd13ifvqbf0","pricing_plan_id":"cebpf4jnsgd1na2vs0mg"},{"bike_id":"485d78bb-535b-4d80-bfc9-8039c95162c5","system_id":"levelo_inurba_marseille","lat":43.292291,"lon":5.360959,"is_reserved":false,"is_disabled":false,"rental_uris":{"android":"levelo://app?vid=485d78bb-535b-4d80-bfc9-8039c95162c5","ios":"levelo://app?vid=485d78bb-535b-4d80-bfc9-8039c95162c5"},"vehicle_type_id":"4","last_reported":1725214220,"current_range_meters":31200,"station_id":"","pricing_plan_id":"cebpf4jnsgd1na2vs0mg"},{"bike_id":"f5b3667b-ef34-43c1-9127-3748cdc7b01c","system_id":"levelo_inurba_marseille","lat":43.292311,"lon":5.360731,"is_reserved":false,"is_disabled":false,"rental_uris":{"android":"levelo://app?vid=f5b3667b-ef34-43c1-9127-3748cdc7b01c","ios":"levelo://app?vid=f5b3667b-ef34-43c1-9127-3748cdc7b01c"},"vehicle_type_id":"4","last_reported":1725214220,"current_range_meters":29200,"station_id":"ce4bhbh2rcd13ifvqeqg","pricing_plan_id":"cebpf4jnsgd1na2vs0mg"},{"bike_id":"08139e17-6dbc-46bc-a271-dcd0a410736d","system_id":"levelo_inurba_marseille","lat":43.292311,"lon":5.360731,"is_reserved":false,"is_disabled":false,"rental_uris":{"android":"levelo://app?vid=08139e17-6dbc-46bc-a271-dcd0a410736d","ios":"levelo://app?vid=08139e17-6dbc-46bc-a271-dcd0a410736d"},"vehicle_type_id":"4","last_reported":1725214220,"current_range_meters":28800,"station_id":"ce4bhbh2rcd13ifvqeqg","pricing_plan_id":"cebpf4jnsgd1na2vs0mg"},{"bike_id":"2547c004-b552-4898-899f-430ae08109cf","system_id":"levelo_inurba_marseille","lat":43.292311,"lon":5.360731,"is_reserved":false,"is_disabled":false,"rental_uris":{"android":"levelo://app?vid=2547c004-b552-4898-899f-430ae08109cf","ios":"levelo://app?vid=2547c004-b552-4898-899f-430ae08109cf"},"vehicle_type_id":"4","last_reported":1725214220,"current_range_meters":2400,"station_id":"ce4bhbh2rcd13ifvqeqg","pricing_plan_id":"cebpf4jnsgd1na2vs0mg"},{"bike_id":"bb64901f-8197-49c5-bf05-2885d8dbf40d","system_id":"levelo_inurba_marseille","lat":43.292311,"lon":5.360731,"is_reserved":false,"is_disabled":false,"rental_uris":{"android":"levelo://app?vid=bb64901f-8197-49c5-bf05-2885d8dbf40d","ios":"levelo://app?vid=bb64901f-8197-49c5-bf05-2885d8dbf40d"},"vehicle_type_id":"4","last_reported":1725214220,"current_range_meters":7200,"station_id":"ce4bhbh2rcd13ifvqeqg","pricing_plan_id":"cebpf4jnsgd1na2vs0mg"},{"bike_id":"8257ed66-377a-436d-bf3a-ed3a60fa88ee","system_id":"levelo_inurba_marseille","lat":43.292311,"lon":5.360731,"is_reserved":false,"is_disabled":false,"rental_uris":{"android":"levelo://app?vid=8257ed66-377a-436d-bf3a-ed3a60fa88ee","ios":"levelo://app?vid=8257ed66-377a-436d-bf3a-ed3a60fa88ee"},"vehicle_type_id":"4","last_reported":1725214220,"current_range_meters":800,"station_id":"ce4bhbh2rcd13ifvqeqg","pricing_plan_id":"cebpf4jnsgd1na2vs0mg"},{"bike_id":"2bb1d8ad-1859-4a2b-8a92-6ffa26599dcf","system_id":"levelo_inurba_marseille","lat":43.292311,"lon":5.360731,"is_reserved":false,"is_disabled":false,"rental_uris":{"android":"levelo://app?vid=2bb1d8ad-1859-4a2b-8a92-6ffa26599dcf","ios":"levelo://app?vid=2bb1d8ad-1859-4a2b-8a92-6ffa26599dcf"},"vehicle_type_id":"4","last_reported":1725214220,"current_range_meters":2000,"station_id":"ce4bhbh2rcd13ifvqeqg","pricing_plan_id":"cebpf4jnsgd1na2vs0mg"},{"bike_id":"bc55e2f8-4654-4749-bd67-81326a61bc94","system_id":"levelo_inurba_marseille","lat":43.292311,"lon":5.360731,"is_reserved":false,"is_disabled":false,"rental_uris":{"android":"levelo://app?vid=bc55e2f8-4654-4749-bd67-81326a61bc94","ios":"levelo://app?vid=bc55e2f8-4654-4749-bd67-81326a61bc94"},"vehicle_type_id":"4","last_reported":1725214220,"current_range_meters":10400,"station_id":"ce4bhbh2rcd13ifvqeqg","pricing_plan_id":"cebpf4jnsgd1na2vs0mg"},{"bike_id":"a52100f1-e923-43ca-8b4d-e6d224519fa8","system_id":"levelo_inurba_marseille","lat":43.292311,"lon":5.360731,"is_reserved":false,"is_disabled":false,"rental_uris":{"android":"levelo://app?vid=a52100f1-e923-43ca-8b4d-e6d224519fa8","ios":"levelo://app?vid=a52100f1-e923-43ca-8b4d-e6d224519fa8"},"vehicle_type_id":"4","last_reported":1725214220,"current_range_meters":31200,"station_id":"ce4bhbh2rcd13ifvqeqg","pricing_plan_id":"cebpf4jnsgd1na2vs0mg"},{"bike_id":"05e36890-c216-4f9a-80bd-fea7069125eb","system_id":"levelo_inurba_marseille","lat":43.292311,"lon":5.360731,"is_reserved":false,"is_disabled":false,"rental_uris":{"android":"levelo://app?vid=05e36890-c216-4f9a-80bd-fea7069125eb","ios":"levelo://app?vid=05e36890-c216-4f9a-80bd-fea7069125eb"},"vehicle_type_id":"4","last_reported":1725214220,"current_range_meters":31200,"station_id":"ce4bhbh2rcd13ifvqeqg","pricing_plan_id":"cebpf4jnsgd1na2vs0mg"},{"bike_id":"839e3f54-b763-475a-8551-3cc0c5e70ed0","system_id":"levelo_inurba_marseille","lat":43.292311,"lon":5.360731,"is_reserved":false,"is_disabled":false,"rental_uris":{"android":"levelo://app?vid=839e3f54-b763-475a-8551-3cc0c5e70ed0","ios":"levelo://app?vid=839e3f54-b763-475a-8551-3cc0c5e70ed0"},"vehicle_type_id":"4","last_reported":1725214220,"current_range_meters":3600,"station_id":"ce4bhbh2rcd13ifvqeqg","pricing_plan_id":"cebpf4jnsgd1na2vs0mg"},{"bike_id":"4cf78989-6a9c-4bc6-9e76-2a14e4e66f10","system_id":"levelo_inurba_marseille","lat":43.29226,"lon":5.36059,"is_reserved":false,"is_disabled":false,"rental_uris":{"android":"levelo://app?vid=4cf78989-6a9c-4bc6-9e76-2a14e4e66f10","ios":"levelo://app?vid=4cf78989-6a9c-4bc6-9e76-2a14e4e66f10"},"vehicle_type_id":"4","last_reported":1725214220,"current_range_meters":18000,"station_id":"ce4bhbh2rcd13ifvqeqg","pricing_plan_id":"cebpf4jnsgd1na2vs0mg"},{"bike_id":"4428de20-5ca3-420d-b8bd-41eae9931ddf","system_id":"levelo_inurba_marseille","lat":43.292311,"lon":5.360731,"is_reserved":false,"is_disabled":false,"rental_uris":{"android":"levelo://app?vid=4428de20-5ca3-420d-b8bd-41eae9931ddf","ios":"levelo://app?vid=4428de20-5ca3-420d-b8bd-41eae9931ddf"},"vehicle_type_id":"4","last_reported":1725214220,"current_range_meters":1200,"station_id":"ce4bhbh2rcd13ifvqeqg","pricing_plan_id":"cebpf4jnsgd1na2vs0mg"},{"bike_id":"90a9e3d9-b8da-4efd-bacb-38f1462d2071","system_id":"levelo_inurba_marseille","lat":43.292311,"lon":5.360731,"is_reserved":false,"is_disabled":false,"rental_uris":{"android":"levelo://app?vid=90a9e3d9-b8da-4efd-bacb-38f1462d2071","ios":"levelo://app?vid=90a9e3d9-b8da-4efd-bacb-38f1462d2071"},"vehicle_type_id":"4","last_reported":1725214220,"current_range_meters":9600,"station_id":"ce4bhbh2rcd13ifvqeqg","pricing_plan_id":"cebpf4jnsgd1na2vs0mg"},{"bike_id":"6b9cf8ff-4f4d-463e-a59f-45526a173f86","system_id":"levelo_inurba_marseille","lat":43.292311,"lon":5.360731,"is_reserved":false,"is_disabled":false,"rental_uris":{"android":"levelo://app?vid=6b9cf8ff-4f4d-463e-a59f-45526a173f86","ios":"levelo://app?vid=6b9cf8ff-4f4d-463e-a59f-45526a173f86"},"vehicle_type_id":"4","last_reported":1725214220,"current_range_meters":17600,"station_id":"ce4bhbh2rcd13ifvqeqg","pricing_plan_id":"cebpf4jnsgd1na2vs0mg"},{"bike_id":"85cf3f85-0081-41cd-a190-639244123f19","system_id":"levelo_inurba_marseille","lat":43.29222,"lon":5.36073,"is_reserved":false,"is_disabled":false,"rental_uris":{"android":"levelo://app?vid=85cf3f85-0081-41cd-a190-639244123f19","ios":"levelo://app?vid=85cf3f85-0081-41cd-a190-639244123f19"},"vehicle_type_id":"4","last_reported":1725214220,"current_range_meters":31200,"station_id":"ce4bhbh2rcd13ifvqeqg","pricing_plan_id":"cebpf4jnsgd1na2vs0mg"},{"bike_id":"e9d032b8-802f-4177-b77e-428fe671fe07","system_id":"levelo_inurba_marseille","lat":43.30085,"lon":5.390856,"is_reserved":false,"is_disabled":false,"rental_uris":{"android":"levelo://app?vid=e9d032b8-802f-4177-b77e-428fe671fe07","ios":"levelo://app?vid=e9d032b8-802f-4177-b77e-428fe671fe07"},"vehicle_type_id":"4","last_reported":1725214220,"current_range_meters":0,"station_id":"ce4bh192rcd13ifvqdb0","pricing_plan_id":"cebpf4jnsgd1na2vs0mg"},{"bike_id":"da09a41e-3f07-422a-98b1-3a406eac8953","system_id":"levelo_inurba_marseille","lat":43.29223,"lon":5.36049,"is_reserved":false,"is_disabled":false,"rental_uris":{"android":"levelo://app?vid=da09a41e-3f07-422a-98b1-3a406eac8953","ios":"levelo://app?vid=da09a41e-3f07-422a-98b1-3a406eac8953"},"vehicle_type_id":"4","last_reported":1725214220,"current_range_meters":23600,"station_id":"ce4bhbh2rcd13ifvqeqg","pricing_plan_id":"cebpf4jnsgd1na2vs0mg"},{"bike_id":"37640e45-69b7-4c14-8ec0-a3e217ecb381","system_id":"levelo_inurba_marseille","lat":43.29222,"lon":5.36051,"is_reserved":false,"is_disabled":false,"rental_uris":{"android":"levelo://app?vid=37640e45-69b7-4c14-8ec0-a3e217ecb381","ios":"levelo://app?vid=37640e45-69b7-4c14-8ec0-a3e217ecb381"},"vehicle_type_id":"4","last_reported":1725214220,"current_range_meters":12000,"station_id":"ce4bhbh2rcd13ifvqeqg","pricing_plan_id":"cebpf4jnsgd1na2vs0mg"},{"bike_id":"2fcb8bea-80e7-4b84-9246-c1b9533e7b55","system_id":"levelo_inurba_marseille","lat":43.300897,"lon":5.39085,"is_reserved":false,"is_disabled":false,"rental_uris":{"android":"levelo://app?vid=2fcb8bea-80e7-4b84-9246-c1b9533e7b55","ios":"levelo://app?vid=2fcb8bea-80e7-4b84-9246-c1b9533e7b55"},"vehicle_type_id":"4","last_reported":1725214220,"current_range_meters":27200,"station_id":"ce4bh192rcd13ifvqdb0","pricing_plan_id":"cebpf4jnsgd1na2vs0mg"},{"bike_id":"7170647f-5efa-4646-b7de-1a16f925390c","system_id":"levelo_inurba_marseille","lat":43.292186,"lon":5.36064,"is_reserved":false,"is_disabled":false,"rental_uris":{"android":"levelo://app?vid=7170647f-5efa-4646-b7de-1a16f925390c","ios":"levelo://app?vid=7170647f-5efa-4646-b7de-1a16f925390c"},"vehicle_type_id":"4","last_reported":1725214220,"current_range_meters":31200,"station_id":"ce4bhbh2rcd13ifvqeqg","pricing_plan_id":"cebpf4jnsgd1na2vs0mg"},{"bike_id":"1a89d62a-fc12-422a-8211-97e4f0ecbe5c","system_id":"levelo_inurba_marseille","lat":43.292167,"lon":5.360556,"is_reserved":false,"is_disabled":false,"rental_uris":{"android":"levelo://app?vid=1a89d62a-fc12-422a-8211-97e4f0ecbe5c","ios":"levelo://app?vid=1a89d62a-fc12-422a-8211-97e4f0ecbe5c"},"vehicle_type_id":"4","last_reported":1725214220,"current_range_meters":31200,"station_id":"ce4bhbh2rcd13ifvqeqg","pricing_plan_id":"cebpf4jnsgd1na2vs0mg"},{"bike_id":"6ce2eb3e-cad2-4738-bee4-d55e0904571f","system_id":"levelo_inurba_marseille","lat":43.291671,"lon":5.371575,"is_reserved":false,"is_disabled":false,"rental_uris":{"android":"levelo://app?vid=6ce2eb3e-cad2-4738-bee4-d55e0904571f","ios":"levelo://app?vid=6ce2eb3e-cad2-4738-bee4-d55e0904571f"},"vehicle_type_id":"4","last_reported":1725214220,"current_range_meters":15200,"station_id":"ce4bha92rcd13ifvqeh0","pricing_plan_id":"cebpf4jnsgd1na2vs0mg"},{"bike_id":"5f75979a-4ade-45d0-96b3-c0faf3f843ba","system_id":"levelo_inurba_marseille","lat":43.298764,"lon":5.388973,"is_reserved":false,"is_disabled":false,"rental_uris":{"android":"levelo://app?vid=5f75979a-4ade-45d0-96b3-c0faf3f843ba","ios":"levelo://app?vid=5f75979a-4ade-45d0-96b3-c0faf3f843ba"},"vehicle_type_id":"4","last_reported":1725214220,"current_range_meters":26400,"station_id":"ce4bh392rcd13ifvqdl0","pricing_plan_id":"cebpf4jnsgd1na2vs0mg"},{"bike_id":"86aba626-001b-48be-a978-b8bc27630153","system_id":"levelo_inurba_marseille","lat":43.298764,"lon":5.388973,"is_reserved":false,"is_disabled":false,"rental_uris":{"android":"levelo://app?vid=86aba626-001b-48be-a978-b8bc27630153","ios":"levelo://app?vid=86aba626-001b-48be-a978-b8bc27630153"},"vehicle_type_id":"4","last_reported":1725214220,"current_range_meters":400,"station_id":"ce4bh392rcd13ifvqdl0","pricing_plan_id":"cebpf4jnsgd1na2vs0mg"},{"bike_id":"57b55ad5-5ef0-49be-9a05-bee0094cc757","system_id":"levelo_inurba_marseille","lat":43.29874,"lon":5.38903,"is_reserved":false,"is_disabled":false,"rental_uris":{"android":"levelo://app?vid=57b55ad5-5ef0-49be-9a05-bee0094cc757","ios":"levelo://app?vid=57b55ad5-5ef0-49be-9a05-bee0094cc757"},"vehicle_type_id":"4","last_reported":1725214220,"current_range_meters":0,"station_id":"ce4bh392rcd13ifvqdl0","pricing_plan_id":"cebpf4jnsgd1na2vs0mg"},{"bike_id":"2b5148a1-cbe9-451e-bc0d-13afade8c46b","system_id":"levelo_inurba_marseille","lat":43.2988,"lon":5.38915,"is_reserved":false,"is_disabled":false,"rental_uris":{"android":"levelo://app?vid=2b5148a1-cbe9-451e-bc0d-13afade8c46b","ios":"levelo://app?vid=2b5148a1-cbe9-451e-bc0d-13afade8c46b"},"vehicle_type_id":"4","last_reported":1725214220,"current_range_meters":23200,"station_id":"ce4bh392rcd13ifvqdl0","pricing_plan_id":"cebpf4jnsgd1na2vs0mg"},{"bike_id":"b7c3f20a-b956-40d7-99fc-e1c87c0ffa90","system_id":"levelo_inurba_marseille","lat":43.29872,"lon":5.38906,"is_reserved":false,"is_disabled":false,"rental_uris":{"android":"levelo://app?vid=b7c3f20a-b956-40d7-99fc-e1c87c0ffa90","ios":"levelo://app?vid=b7c3f20a-b956-40d7-99fc-e1c87c0ffa90"},"vehicle_type_id":"4","last_reported":1725214220,"current_range_meters":22400,"station_id":"ce4bh392rcd13ifvqdl0","pricing_plan_id":"cebpf4jnsgd1na2vs0mg"},{"bike_id":"7d323efd-65e6-4723-95f2-3c6e6908846e","system_id":"levelo_inurba_marseille","lat":43.292,"lon":5.35854,"is_reserved":false,"is_disabled":false,"rental_uris":{"android":"levelo://app?vid=7d323efd-65e6-4723-95f2-3c6e6908846e","ios":"levelo://app?vid=7d323efd-65e6-4723-95f2-3c6e6908846e"},"vehicle_type_id":"4","last_reported":1725214220,"current_range_meters":28000,"station_id":"","pricing_plan_id":"cebpf4jnsgd1na2vs0mg"},{"bike_id":"06619302-1a67-410e-b20d-ba6a487df747","system_id":"levelo_inurba_marseille","lat":43.291995,"lon":5.358485,"is_reserved":false,"is_disabled":false,"rental_uris":{"android":"levelo://app?vid=06619302-1a67-410e-b20d-ba6a487df747","ios":"levelo://app?vid=06619302-1a67-410e-b20d-ba6a487df747"},"vehicle_type_id":"4","last_reported":1725214220,"current_range_meters":28000,"station_id":"ce4bhb12rcd13ifvqel0","pricing_plan_id":"cebpf4jnsgd1na2vs0mg"},{"bike_id":"065a2b72-e939-491f-b1df-259fe008b2c3","system_id":"levelo_inurba_marseille","lat":43.309038,"lon":5.396546,"is_reserved":false,"is_disabled":false,"rental_uris":{"android":"levelo://app?vid=065a2b72-e939-491f-b1df-259fe008b2c3","ios":"levelo://app?vid=065a2b72-e939-491f-b1df-259fe008b2c3"},"vehicle_type_id":"4","last_reported":1725214220,"current_range_meters":9200,"station_id":"ce4bh012rcd13ifvqcv0","pricing_plan_id":"cebpf4jnsgd1na2vs0mg"},{"bike_id":"b7c035c5-730b-40b5-a494-f3eb703730bd","system_id":"levelo_inurba_marseille","lat":43.292005,"lon":5.357875,"is_reserved":false,"is_disabled":false,"rental_uris":{"android":"levelo://app?vid=b7c035c5-730b-40b5-a494-f3eb703730bd","ios":"levelo://app?vid=b7c035c5-730b-40b5-a494-f3eb703730bd"},"vehicle_type_id":"4","last_reported":1725214220,"current_range_meters":26800,"station_id":"ce4bhb12rcd13ifvqel0","pricing_plan_id":"cebpf4jnsgd1na2vs0mg"},{"bike_id":"4c5ac3ad-7667-44a2-8a5f-baa75077f54d","system_id":"levelo_inurba_marseille","lat":43.29298,"lon":5.37954,"is_reserved":false,"is_disabled":false,"rental_uris":{"android":"levelo://app?vid=4c5ac3ad-7667-44a2-8a5f-baa75077f54d","ios":"levelo://app?vid=4c5ac3ad-7667-44a2-8a5f-baa75077f54d"},"vehicle_type_id":"4","last_reported":1725214220,"current_range_meters":0,"station_id":"","pricing_plan_id":"cebpf4jnsgd1na2vs0mg"},{"bike_id":"b66c22e9-e6be-45d3-8847-bb95c8327e6f","system_id":"levelo_inurba_marseille","lat":43.313291,"lon":5.396838,"is_reserved":false,"is_disabled":false,"rental_uris":{"android":"levelo://app?vid=b66c22e9-e6be-45d3-8847-bb95c8327e6f","ios":"levelo://app?vid=b66c22e9-e6be-45d3-8847-bb95c8327e6f"},"vehicle_type_id":"4","last_reported":1725214220,"current_range_meters":8400,"station_id":"ce4bgvp2rcd13ifvqcu0","pricing_plan_id":"cebpf4jnsgd1na2vs0mg"},{"bike_id":"eea21cdc-5660-4920-9bb1-5983e64d497a","system_id":"levelo_inurba_marseille","lat":43.313291,"lon":5.396838,"is_reserved":false,"is_disabled":false,"rental_uris":{"android":"levelo://app?vid=eea21cdc-5660-4920-9bb1-5983e64d497a","ios":"levelo://app?vid=eea21cdc-5660-4920-9bb1-5983e64d497a"},"vehicle_type_id":"4","last_reported":1725214220,"current_range_meters":20000,"station_id":"ce4bgvp2rcd13ifvqcu0","pricing_plan_id":"cebpf4jnsgd1na2vs0mg"},{"bike_id":"65ade3e9-112e-406e-8340-7c7ed80a76d5","system_id":"levelo_inurba_marseille","lat":43.292005,"lon":5.357875,"is_reserved":false,"is_disabled":false,"rental_uris":{"android":"levelo://app?vid=65ade3e9-112e-406e-8340-7c7ed80a76d5","ios":"levelo://app?vid=65ade3e9-112e-406e-8340-7c7ed80a76d5"},"vehicle_type_id":"4","last_reported":1725214220,"current_range_meters":0,"station_id":"ce4bhb12rcd13ifvqel0","pricing_plan_id":"cebpf4jnsgd1na2vs0mg"},{"bike_id":"2aef62fd-a7fc-41ac-8507-c4dfd00368dd","system_id":"levelo_inurba_marseille","lat":43.313291,"lon":5.396838,"is_reserved":false,"is_disabled":false,"rental_uris":{"android":"levelo://app?vid=2aef62fd-a7fc-41ac-8507-c4dfd00368dd","ios":"levelo://app?vid=2aef62fd-a7fc-41ac-8507-c4dfd00368dd"},"vehicle_type_id":"4","last_reported":1725214220,"current_range_meters":5200,"station_id":"ce4bgvp2rcd13ifvqcu0","pricing_plan_id":"cebpf4jnsgd1na2vs0mg"},{"bike_id":"eba12056-2b05-46ae-8529-fe81ee0da77f","system_id":"levelo_inurba_marseille","lat":43.29188,"lon":5.35802,"is_reserved":false,"is_disabled":false,"rental_uris":{"android":"levelo://app?vid=eba12056-2b05-46ae-8529-fe81ee0da77f","ios":"levelo://app?vid=eba12056-2b05-46ae-8529-fe81ee0da77f"},"vehicle_type_id":"4","last_reported":1725214220,"current_range_meters":27600,"station_id":"ce4bhb12rcd13ifvqel0","pricing_plan_id":"cebpf4jnsgd1na2vs0mg"},{"bike_id":"b6526665-543d-4c7f-a849-6c678ece708a","system_id":"levelo_inurba_marseille","lat":43.31314,"lon":5.39695,"is_reserved":false,"is_disabled":false,"rental_uris":{"android":"levelo://app?vid=b6526665-543d-4c7f-a849-6c678ece708a","ios":"levelo://app?vid=b6526665-543d-4c7f-a849-6c678ece708a"},"vehicle_type_id":"4","last_reported":1725214220,"current_range_meters":6400,"station_id":"ce4bgvp2rcd13ifvqcu0","pricing_plan_id":"cebpf4jnsgd1na2vs0mg"},{"bike_id":"bf39c66f-2c01-4865-8d82-ef131222fc50","system_id":"levelo_inurba_marseille","lat":43.309038,"lon":5.396546,"is_reserved":false,"is_disabled":false,"rental_uris":{"android":"levelo://app?vid=bf39c66f-2c01-4865-8d82-ef131222fc50","ios":"levelo://app?vid=bf39c66f-2c01-4865-8d82-ef131222fc50"},"vehicle_type_id":"4","last_reported":1725214220,"current_range_meters":31200,"station_id":"ce4bh012rcd13ifvqcv0","pricing_plan_id":"cebpf4jnsgd1na2vs0mg"},{"bike_id":"f5bb875c-ce79-44b7-97b4-4e0c37f54206","system_id":"levelo_inurba_marseille","lat":43.309038,"lon":5.396546,"is_reserved":false,"is_disabled":false,"rental_uris":{"android":"levelo://app?vid=f5bb875c-ce79-44b7-97b4-4e0c37f54206","ios":"levelo://app?vid=f5bb875c-ce79-44b7-97b4-4e0c37f54206"},"vehicle_type_id":"4","last_reported":1725214220,"current_range_meters":25200,"station_id":"ce4bh012rcd13ifvqcv0","pricing_plan_id":"cebpf4jnsgd1na2vs0mg"},{"bike_id":"d81bbfd8-efc6-4b25-aa58-e63b62417cbf","system_id":"levelo_inurba_marseille","lat":43.3088,"lon":5.3966,"is_reserved":false,"is_disabled":false,"rental_uris":{"android":"levelo://app?vid=d81bbfd8-efc6-4b25-aa58-e63b62417cbf","ios":"levelo://app?vid=d81bbfd8-efc6-4b25-aa58-e63b62417cbf"},"vehicle_type_id":"4","last_reported":1725214220,"current_range_meters":29200,"station_id":"ce4bh012rcd13ifvqcv0","pricing_plan_id":"cebpf4jnsgd1na2vs0mg"},{"bike_id":"df43f2c1-20ae-4cb5-841b-1437188dff0d","system_id":"levelo_inurba_marseille","lat":43.29529,"lon":5.385581,"is_reserved":false,"is_disabled":false,"rental_uris":{"android":"levelo://app?vid=df43f2c1-20ae-4cb5-841b-1437188dff0d","ios":"levelo://app?vid=df43f2c1-20ae-4cb5-841b-1437188dff0d"},"vehicle_type_id":"4","last_reported":1725214220,"current_range_meters":0,"station_id":"ce4bgih2rcd13ifvqba0","pricing_plan_id":"cebpf4jnsgd1na2vs0mg"},{"bike_id":"8341ce20-aabc-429a-9301-abd93da81f65","system_id":"levelo_inurba_marseille","lat":43.29532,"lon":5.38545,"is_reserved":false,"is_disabled":false,"rental_uris":{"android":"levelo://app?vid=8341ce20-aabc-429a-9301-abd93da81f65","ios":"levelo://app?vid=8341ce20-aabc-429a-9301-abd93da81f65"},"vehicle_type_id":"4","last_reported":1725214220,"current_range_meters":0,"station_id":"ce4bgih2rcd13ifvqba0","pricing_plan_id":"cebpf4jnsgd1na2vs0mg"},{"bike_id":"a2095d54-980c-49fe-9604-19df70806147","system_id":"levelo_inurba_marseille","lat":43.29529,"lon":5.385581,"is_reserved":false,"is_disabled":false,"rental_uris":{"android":"levelo://app?vid=a2095d54-980c-49fe-9604-19df70806147","ios":"levelo://app?vid=a2095d54-980c-49fe-9604-19df70806147"},"vehicle_type_id":"4","last_reported":1725214220,"current_range_meters":8400,"station_id":"ce4bgih2rcd13ifvqba0","pricing_plan_id":"cebpf4jnsgd1na2vs0mg"},{"bike_id":"a77ae301-f12d-4d9d-8ecf-c682991cc3c8","system_id":"levelo_inurba_marseille","lat":43.29421,"lon":5.386215,"is_reserved":false,"is_disabled":false,"rental_uris":{"android":"levelo://app?vid=a77ae301-f12d-4d9d-8ecf-c682991cc3c8","ios":"levelo://app?vid=a77ae301-f12d-4d9d-8ecf-c682991cc3c8"},"vehicle_type_id":"4","last_reported":1725214220,"current_range_meters":31200,"station_id":"ce4bh2h2rcd13ifvqdh0","pricing_plan_id":"cebpf4jnsgd1na2vs0mg"},{"bike_id":"84a7cef8-5b02-4944-b749-510b8201420a","system_id":"levelo_inurba_marseille","lat":43.294153,"lon":5.386305,"is_reserved":false,"is_disabled":false,"rental_uris":{"android":"levelo://app?vid=84a7cef8-5b02-4944-b749-510b8201420a","ios":"levelo://app?vid=84a7cef8-5b02-4944-b749-510b8201420a"},"vehicle_type_id":"4","last_reported":1725214220,"current_range_meters":31200,"station_id":"ce4bh2h2rcd13ifvqdh0","pricing_plan_id":"cebpf4jnsgd1na2vs0mg"},{"bike_id":"98ca7ad6-377a-4538-a76c-b6222335b5dc","system_id":"levelo_inurba_marseille","lat":43.294153,"lon":5.386305,"is_reserved":false,"is_disabled":false,"rental_uris":{"android":"levelo://app?vid=98ca7ad6-377a-4538-a76c-b6222335b5dc","ios":"levelo://app?vid=98ca7ad6-377a-4538-a76c-b6222335b5dc"},"vehicle_type_id":"4","last_reported":1725214220,"current_range_meters":21600,"station_id":"ce4bh2h2rcd13ifvqdh0","pricing_plan_id":"cebpf4jnsgd1na2vs0mg"},{"bike_id":"2ecfd165-10d3-47c6-b509-db7898af32d6","system_id":"levelo_inurba_marseille","lat":43.29412,"lon":5.38617,"is_reserved":false,"is_disabled":false,"rental_uris":{"android":"levelo://app?vid=2ecfd165-10d3-47c6-b509-db7898af32d6","ios":"levelo://app?vid=2ecfd165-10d3-47c6-b509-db7898af32d6"},"vehicle_type_id":"4","last_reported":1725214220,"current_range_meters":28400,"station_id":"ce4bh2h2rcd13ifvqdh0","pricing_plan_id":"cebpf4jnsgd1na2vs0mg"},{"bike_id":"b8ec1517-c809-4df7-9eab-c57b67fe28a1","system_id":"levelo_inurba_marseille","lat":43.29419,"lon":5.3863,"is_reserved":false,"is_disabled":false,"rental_uris":{"android":"levelo://app?vid=b8ec1517-c809-4df7-9eab-c57b67fe28a1","ios":"levelo://app?vid=b8ec1517-c809-4df7-9eab-c57b67fe28a1"},"vehicle_type_id":"4","last_reported":1725214220,"current_range_meters":18800,"station_id":"ce4bh2h2rcd13ifvqdh0","pricing_plan_id":"cebpf4jnsgd1na2vs0mg"},{"bike_id":"b0185148-71e0-41bc-ab2a-8e1fb28716e3","system_id":"levelo_inurba_marseille","lat":43.29416,"lon":5.38627,"is_reserved":false,"is_disabled":false,"rental_uris":{"android":"levelo://app?vid=b0185148-71e0-41bc-ab2a-8e1fb28716e3","ios":"levelo://app?vid=b0185148-71e0-41bc-ab2a-8e1fb28716e3"},"vehicle_type_id":"4","last_reported":1725214220,"current_range_meters":0,"station_id":"ce4bh2h2rcd13ifvqdh0","pricing_plan_id":"cebpf4jnsgd1na2vs0mg"},{"bike_id":"062fcf15-e905-4153-9dd5-997ff9bd85a5","system_id":"levelo_inurba_marseille","lat":43.29413,"lon":5.38633,"is_reserved":false,"is_disabled":false,"rental_uris":{"android":"levelo://app?vid=062fcf15-e905-4153-9dd5-997ff9bd85a5","ios":"levelo://app?vid=062fcf15-e905-4153-9dd5-997ff9bd85a5"},"vehicle_type_id":"4","last_reported":1725214220,"current_range_meters":0,"station_id":"ce4bh2h2rcd13ifvqdh0","pricing_plan_id":"cebpf4jnsgd1na2vs0mg"},{"bike_id":"f0749835-6135-4b7d-a7ba-79b4718998b3","system_id":"levelo_inurba_marseille","lat":43.29409,"lon":5.38628,"is_reserved":false,"is_disabled":false,"rental_uris":{"android":"levelo://app?vid=f0749835-6135-4b7d-a7ba-79b4718998b3","ios":"levelo://app?vid=f0749835-6135-4b7d-a7ba-79b4718998b3"},"vehicle_type_id":"4","last_reported":1725214220,"current_range_meters":31200,"station_id":"ce4bh2h2rcd13ifvqdh0","pricing_plan_id":"cebpf4jnsgd1na2vs0mg"},{"bike_id":"39bbe487-38a3-454d-bdf1-d5ae55d99506","system_id":"levelo_inurba_marseille","lat":43.28935,"lon":5.36636,"is_reserved":false,"is_disabled":false,"rental_uris":{"android":"levelo://app?vid=39bbe487-38a3-454d-bdf1-d5ae55d99506","ios":"levelo://app?vid=39bbe487-38a3-454d-bdf1-d5ae55d99506"},"vehicle_type_id":"4","last_reported":1725214220,"current_range_meters":31200,"station_id":"ce4bhap2rcd13ifvqek0","pricing_plan_id":"cebpf4jnsgd1na2vs0mg"},{"bike_id":"d87e3bf7-ef7c-4c79-ad97-e589928ff74d","system_id":"levelo_inurba_marseille","lat":43.289468,"lon":5.363719,"is_reserved":false,"is_disabled":false,"rental_uris":{"android":"levelo://app?vid=d87e3bf7-ef7c-4c79-ad97-e589928ff74d","ios":"levelo://app?vid=d87e3bf7-ef7c-4c79-ad97-e589928ff74d"},"vehicle_type_id":"4","last_reported":1725214220,"current_range_meters":0,"station_id":"ce4bhc92rcd13ifvqetg","pricing_plan_id":"cebpf4jnsgd1na2vs0mg"},{"bike_id":"b05a3fe5-1524-4c3a-bb09-142a84e2ca56","system_id":"levelo_inurba_marseille","lat":43.330442,"lon":5.389148,"is_reserved":false,"is_disabled":false,"rental_uris":{"android":"levelo://app?vid=b05a3fe5-1524-4c3a-bb09-142a84e2ca56","ios":"levelo://app?vid=b05a3fe5-1524-4c3a-bb09-142a84e2ca56"},"vehicle_type_id":"4","last_reported":1725214220,"current_range_meters":13200,"station_id":"ce4bhr92rcd13ifvqhrg","pricing_plan_id":"cebpf4jnsgd1na2vs0mg"},{"bike_id":"33352525-ca61-4477-85bd-62097c404007","system_id":"levelo_inurba_marseille","lat":43.290103,"lon":5.356114,"is_reserved":false,"is_disabled":false,"rental_uris":{"android":"levelo://app?vid=33352525-ca61-4477-85bd-62097c404007","ios":"levelo://app?vid=33352525-ca61-4477-85bd-62097c404007"},"vehicle_type_id":"4","last_reported":1725214220,"current_range_meters":0,"station_id":"ce4bhb92rcd13ifvqen0","pricing_plan_id":"cebpf4jnsgd1na2vs0mg"},{"bike_id":"6c9f334a-d72e-4c65-9819-f3677bc38e70","system_id":"levelo_inurba_marseille","lat":43.290094,"lon":5.381264,"is_reserved":false,"is_disabled":false,"rental_uris":{"android":"levelo://app?vid=6c9f334a-d72e-4c65-9819-f3677bc38e70","ios":"levelo://app?vid=6c9f334a-d72e-4c65-9819-f3677bc38e70"},"vehicle_type_id":"4","last_reported":1725214220,"current_range_meters":0,"station_id":"ce4bh4p2rcd13ifvqe1g","pricing_plan_id":"cebpf4jnsgd1na2vs0mg"},{"bike_id":"205cbb94-aaaa-4f5d-b7ba-887bf2949737","system_id":"levelo_inurba_marseille","lat":43.292642,"lon":5.384254,"is_reserved":false,"is_disabled":false,"rental_uris":{"android":"levelo://app?vid=205cbb94-aaaa-4f5d-b7ba-887bf2949737","ios":"levelo://app?vid=205cbb94-aaaa-4f5d-b7ba-887bf2949737"},"vehicle_type_id":"4","last_reported":1725214220,"current_range_meters":800,"station_id":"ce4bh692rcd13ifvqea0","pricing_plan_id":"cebpf4jnsgd1na2vs0mg"},{"bike_id":"c6411a64-56ac-4fdf-b217-43c5cc46c9fc","system_id":"levelo_inurba_marseille","lat":43.32577,"lon":5.39424,"is_reserved":false,"is_disabled":false,"rental_uris":{"android":"levelo://app?vid=c6411a64-56ac-4fdf-b217-43c5cc46c9fc","ios":"levelo://app?vid=c6411a64-56ac-4fdf-b217-43c5cc46c9fc"},"vehicle_type_id":"4","last_reported":1725214220,"current_range_meters":5600,"station_id":"","pricing_plan_id":"cebpf4jnsgd1na2vs0mg"},{"bike_id":"95f4d37a-8076-4b27-a749-a02c7d051f93","system_id":"levelo_inurba_marseille","lat":43.309038,"lon":5.396546,"is_reserved":false,"is_disabled":false,"rental_uris":{"android":"levelo://app?vid=95f4d37a-8076-4b27-a749-a02c7d051f93","ios":"levelo://app?vid=95f4d37a-8076-4b27-a749-a02c7d051f93"},"vehicle_type_id":"4","last_reported":1725214220,"current_range_meters":20400,"station_id":"ce4bh012rcd13ifvqcv0","pricing_plan_id":"cebpf4jnsgd1na2vs0mg"},{"bike_id":"13272a38-d6df-40a9-a712-a528eab0d3a5","system_id":"levelo_inurba_marseille","lat":43.330043,"lon":5.389455,"is_reserved":false,"is_disabled":false,"rental_uris":{"android":"levelo://app?vid=13272a38-d6df-40a9-a712-a528eab0d3a5","ios":"levelo://app?vid=13272a38-d6df-40a9-a712-a528eab0d3a5"},"vehicle_type_id":"4","last_reported":1725214220,"current_range_meters":11600,"station_id":"","pricing_plan_id":"cebpf4jnsgd1na2vs0mg"},{"bike_id":"567bfbe8-4b9b-477a-baf6-385bf9dad91d","system_id":"levelo_inurba_marseille","lat":43.290104,"lon":5.356111,"is_reserved":false,"is_disabled":false,"rental_uris":{"android":"levelo://app?vid=567bfbe8-4b9b-477a-baf6-385bf9dad91d","ios":"levelo://app?vid=567bfbe8-4b9b-477a-baf6-385bf9dad91d"},"vehicle_type_id":"4","last_reported":1725214220,"current_range_meters":4400,"station_id":"ce4bhb92rcd13ifvqen0","pricing_plan_id":"cebpf4jnsgd1na2vs0mg"},{"bike_id":"6781c82b-8318-4b05-bf41-250ce3fd9bad","system_id":"levelo_inurba_marseille","lat":43.21409,"lon":5.34078,"is_reserved":false,"is_disabled":false,"rental_uris":{"android":"levelo://app?vid=6781c82b-8318-4b05-bf41-250ce3fd9bad","ios":"levelo://app?vid=6781c82b-8318-4b05-bf41-250ce3fd9bad"},"vehicle_type_id":"4","last_reported":1725214220,"current_range_meters":0,"station_id":"","pricing_plan_id":"cebpf4jnsgd1na2vs0mg"},{"bike_id":"006a9280-877c-466c-a476-533f9a04e80c","system_id":"levelo_inurba_marseille","lat":43.290995,"lon":5.381361,"is_reserved":false,"is_disabled":false,"rental_uris":{"android":"levelo://app?vid=006a9280-877c-466c-a476-533f9a04e80c","ios":"levelo://app?vid=006a9280-877c-466c-a476-533f9a04e80c"},"vehicle_type_id":"4","last_reported":1725214220,"current_range_meters":24400,"station_id":"ce4bh512rcd13ifvqe2g","pricing_plan_id":"cebpf4jnsgd1na2vs0mg"},{"bike_id":"5ab8b62c-16d1-4cfb-aed5-ebf1f7f3444a","system_id":"levelo_inurba_marseille","lat":43.290995,"lon":5.381361,"is_reserved":false,"is_disabled":false,"rental_uris":{"android":"levelo://app?vid=5ab8b62c-16d1-4cfb-aed5-ebf1f7f3444a","ios":"levelo://app?vid=5ab8b62c-16d1-4cfb-aed5-ebf1f7f3444a"},"vehicle_type_id":"4","last_reported":1725214220,"current_range_meters":25200,"station_id":"ce4bh512rcd13ifvqe2g","pricing_plan_id":"cebpf4jnsgd1na2vs0mg"},{"bike_id":"e49103e4-59b8-4cf4-ad72-232f18d9292a","system_id":"levelo_inurba_marseille","lat":43.290995,"lon":5.381361,"is_reserved":false,"is_disabled":false,"rental_uris":{"android":"levelo://app?vid=e49103e4-59b8-4cf4-ad72-232f18d9292a","ios":"levelo://app?vid=e49103e4-59b8-4cf4-ad72-232f18d9292a"},"vehicle_type_id":"4","last_reported":1725214220,"current_range_meters":0,"station_id":"ce4bh512rcd13ifvqe2g","pricing_plan_id":"cebpf4jnsgd1na2vs0mg"},{"bike_id":"cccd5021-61da-476f-9288-6120fcc0085e","system_id":"levelo_inurba_marseille","lat":43.2909,"lon":5.38146,"is_reserved":false,"is_disabled":false,"rental_uris":{"android":"levelo://app?vid=cccd5021-61da-476f-9288-6120fcc0085e","ios":"levelo://app?vid=cccd5021-61da-476f-9288-6120fcc0085e"},"vehicle_type_id":"4","last_reported":1725214220,"current_range_meters":0,"station_id":"ce4bh512rcd13ifvqe2g","pricing_plan_id":"cebpf4jnsgd1na2vs0mg"},{"bike_id":"14098585-2a44-48d3-a9ea-962cf97ab872","system_id":"levelo_inurba_marseille","lat":43.297807,"lon":5.393533,"is_reserved":false,"is_disabled":false,"rental_uris":{"android":"levelo://app?vid=14098585-2a44-48d3-a9ea-962cf97ab872","ios":"levelo://app?vid=14098585-2a44-48d3-a9ea-962cf97ab872"},"vehicle_type_id":"4","last_reported":1725214220,"current_range_meters":28400,"station_id":"chh1huq6cuj3fo74tm60","pricing_plan_id":"cebpf4jnsgd1na2vs0mg"},{"bike_id":"aad2b804-fe49-4975-9bbc-2e84c7cb0a21","system_id":"levelo_inurba_marseille","lat":43.297815,"lon":5.393548,"is_reserved":false,"is_disabled":false,"rental_uris":{"android":"levelo://app?vid=aad2b804-fe49-4975-9bbc-2e84c7cb0a21","ios":"levelo://app?vid=aad2b804-fe49-4975-9bbc-2e84c7cb0a21"},"vehicle_type_id":"4","last_reported":1725214220,"current_range_meters":1600,"station_id":"chh1huq6cuj3fo74tm60","pricing_plan_id":"cebpf4jnsgd1na2vs0mg"},{"bike_id":"50ed91fa-42ec-4075-9d3c-ab94fd18b1a7","system_id":"levelo_inurba_marseille","lat":43.297815,"lon":5.393548,"is_reserved":false,"is_disabled":false,"rental_uris":{"android":"levelo://app?vid=50ed91fa-42ec-4075-9d3c-ab94fd18b1a7","ios":"levelo://app?vid=50ed91fa-42ec-4075-9d3c-ab94fd18b1a7"},"vehicle_type_id":"4","last_reported":1725214220,"current_range_meters":29200,"station_id":"chh1huq6cuj3fo74tm60","pricing_plan_id":"cebpf4jnsgd1na2vs0mg"},{"bike_id":"38b1b945-b6f9-431d-9abc-83b2a87a2220","system_id":"levelo_inurba_marseille","lat":43.330442,"lon":5.389148,"is_reserved":false,"is_disabled":false,"rental_uris":{"android":"levelo://app?vid=38b1b945-b6f9-431d-9abc-83b2a87a2220","ios":"levelo://app?vid=38b1b945-b6f9-431d-9abc-83b2a87a2220"},"vehicle_type_id":"4","last_reported":1725214220,"current_range_meters":7600,"station_id":"ce4bhr92rcd13ifvqhrg","pricing_plan_id":"cebpf4jnsgd1na2vs0mg"},{"bike_id":"e74ecfe6-eb2e-4c31-b8da-544da791e5bd","system_id":"levelo_inurba_marseille","lat":43.33024,"lon":5.39034,"is_reserved":false,"is_disabled":false,"rental_uris":{"android":"levelo://app?vid=e74ecfe6-eb2e-4c31-b8da-544da791e5bd","ios":"levelo://app?vid=e74ecfe6-eb2e-4c31-b8da-544da791e5bd"},"vehicle_type_id":"4","last_reported":1725214220,"current_range_meters":28000,"station_id":"ce4bhr92rcd13ifvqhrg","pricing_plan_id":"cebpf4jnsgd1na2vs0mg"},{"bike_id":"5df796a7-002c-4142-8a85-14e157010bd9","system_id":"levelo_inurba_marseille","lat":43.330442,"lon":5.389148,"is_reserved":false,"is_disabled":false,"rental_uris":{"android":"levelo://app?vid=5df796a7-002c-4142-8a85-14e157010bd9","ios":"levelo://app?vid=5df796a7-002c-4142-8a85-14e157010bd9"},"vehicle_type_id":"4","last_reported":1725214220,"current_range_meters":2000,"station_id":"ce4bhr92rcd13ifvqhrg","pricing_plan_id":"cebpf4jnsgd1na2vs0mg"},{"bike_id":"f1541081-dcfa-45c5-bc7e-5ad387cd7960","system_id":"levelo_inurba_marseille","lat":43.330442,"lon":5.389148,"is_reserved":false,"is_disabled":false,"rental_uris":{"android":"levelo://app?vid=f1541081-dcfa-45c5-bc7e-5ad387cd7960","ios":"levelo://app?vid=f1541081-dcfa-45c5-bc7e-5ad387cd7960"},"vehicle_type_id":"4","last_reported":1725214220,"current_range_meters":27600,"station_id":"ce4bhr92rcd13ifvqhrg","pricing_plan_id":"cebpf4jnsgd1na2vs0mg"},{"bike_id":"860f2f85-6e7c-4bb8-9960-82b58fd0cde1","system_id":"levelo_inurba_marseille","lat":43.330442,"lon":5.389148,"is_reserved":false,"is_disabled":false,"rental_uris":{"android":"levelo://app?vid=860f2f85-6e7c-4bb8-9960-82b58fd0cde1","ios":"levelo://app?vid=860f2f85-6e7c-4bb8-9960-82b58fd0cde1"},"vehicle_type_id":"4","last_reported":1725214220,"current_range_meters":24800,"station_id":"ce4bhr92rcd13ifvqhrg","pricing_plan_id":"cebpf4jnsgd1na2vs0mg"},{"bike_id":"4a9a1e51-7219-4a31-a70b-e012f561a7f8","system_id":"levelo_inurba_marseille","lat":43.33022,"lon":5.39042,"is_reserved":false,"is_disabled":false,"rental_uris":{"android":"levelo://app?vid=4a9a1e51-7219-4a31-a70b-e012f561a7f8","ios":"levelo://app?vid=4a9a1e51-7219-4a31-a70b-e012f561a7f8"},"vehicle_type_id":"4","last_reported":1725214220,"current_range_meters":31200,"station_id":"ce4bhr92rcd13ifvqhrg","pricing_plan_id":"cebpf4jnsgd1na2vs0mg"},{"bike_id":"ed7798f9-2a61-42c9-b25b-2c0722cab15f","system_id":"levelo_inurba_marseille","lat":43.33025,"lon":5.39039,"is_reserved":false,"is_disabled":false,"rental_uris":{"android":"levelo://app?vid=ed7798f9-2a61-42c9-b25b-2c0722cab15f","ios":"levelo://app?vid=ed7798f9-2a61-42c9-b25b-2c0722cab15f"},"vehicle_type_id":"4","last_reported":1725214220,"current_range_meters":31200,"station_id":"ce4bhr92rcd13ifvqhrg","pricing_plan_id":"cebpf4jnsgd1na2vs0mg"},{"bike_id":"6e51196e-d8f4-4102-9034-57e435fc78b1","system_id":"levelo_inurba_marseille","lat":43.33021,"lon":5.39045,"is_reserved":false,"is_disabled":false,"rental_uris":{"android":"levelo://app?vid=6e51196e-d8f4-4102-9034-57e435fc78b1","ios":"levelo://app?vid=6e51196e-d8f4-4102-9034-57e435fc78b1"},"vehicle_type_id":"4","last_reported":1725214220,"current_range_meters":5200,"station_id":"ce4bhr92rcd13ifvqhrg","pricing_plan_id":"cebpf4jnsgd1na2vs0mg"},{"bike_id":"8309b535-efc8-47f5-8520-c061544de8a1","system_id":"levelo_inurba_marseille","lat":43.33023,"lon":5.39043,"is_reserved":false,"is_disabled":false,"rental_uris":{"android":"levelo://app?vid=8309b535-efc8-47f5-8520-c061544de8a1","ios":"levelo://app?vid=8309b535-efc8-47f5-8520-c061544de8a1"},"vehicle_type_id":"4","last_reported":1725214220,"current_range_meters":23600,"station_id":"ce4bhr92rcd13ifvqhrg","pricing_plan_id":"cebpf4jnsgd1na2vs0mg"},{"bike_id":"fa92da54-bf4a-481a-810f-76807fe7ccf5","system_id":"levelo_inurba_marseille","lat":43.289741,"lon":5.378306,"is_reserved":false,"is_disabled":false,"rental_uris":{"android":"levelo://app?vid=fa92da54-bf4a-481a-810f-76807fe7ccf5","ios":"levelo://app?vid=fa92da54-bf4a-481a-810f-76807fe7ccf5"},"vehicle_type_id":"4","last_reported":1725214220,"current_range_meters":19200,"station_id":"ce4bh9p2rcd13ifvqed0","pricing_plan_id":"cebpf4jnsgd1na2vs0mg"},{"bike_id":"589453fd-025c-4398-a195-f24bcecb3f1c","system_id":"levelo_inurba_marseille","lat":43.330217,"lon":5.39046,"is_reserved":false,"is_disabled":false,"rental_uris":{"android":"levelo://app?vid=589453fd-025c-4398-a195-f24bcecb3f1c","ios":"levelo://app?vid=589453fd-025c-4398-a195-f24bcecb3f1c"},"vehicle_type_id":"4","last_reported":1725214220,"current_range_meters":20800,"station_id":"ce4bhr92rcd13ifvqhrg","pricing_plan_id":"cebpf4jnsgd1na2vs0mg"},{"bike_id":"412f6830-ef0d-4421-a421-c52edee2f9ff","system_id":"levelo_inurba_marseille","lat":43.33024,"lon":5.39043,"is_reserved":false,"is_disabled":false,"rental_uris":{"android":"levelo://app?vid=412f6830-ef0d-4421-a421-c52edee2f9ff","ios":"levelo://app?vid=412f6830-ef0d-4421-a421-c52edee2f9ff"},"vehicle_type_id":"4","last_reported":1725214220,"current_range_meters":14400,"station_id":"ce4bhr92rcd13ifvqhrg","pricing_plan_id":"cebpf4jnsgd1na2vs0mg"},{"bike_id":"df877fdf-5044-4794-a2dd-18df99a61e3c","system_id":"levelo_inurba_marseille","lat":43.295238,"lon":5.390433,"is_reserved":false,"is_disabled":false,"rental_uris":{"android":"levelo://app?vid=df877fdf-5044-4794-a2dd-18df99a61e3c","ios":"levelo://app?vid=df877fdf-5044-4794-a2dd-18df99a61e3c"},"vehicle_type_id":"4","last_reported":1725214220,"current_range_meters":0,"station_id":"ce4bh3p2rcd13ifvqdp0","pricing_plan_id":"cebpf4jnsgd1na2vs0mg"},{"bike_id":"b4d72dfb-44d6-481e-b962-e97da5810506","system_id":"levelo_inurba_marseille","lat":43.29523,"lon":5.39046,"is_reserved":false,"is_disabled":false,"rental_uris":{"android":"levelo://app?vid=b4d72dfb-44d6-481e-b962-e97da5810506","ios":"levelo://app?vid=b4d72dfb-44d6-481e-b962-e97da5810506"},"vehicle_type_id":"4","last_reported":1725214220,"current_range_meters":0,"station_id":"ce4bh3p2rcd13ifvqdp0","pricing_plan_id":"cebpf4jnsgd1na2vs0mg"},{"bike_id":"232f132c-f3ca-4733-a656-d92f871cace1","system_id":"levelo_inurba_marseille","lat":43.29514,"lon":5.39048,"is_reserved":false,"is_disabled":false,"rental_uris":{"android":"levelo://app?vid=232f132c-f3ca-4733-a656-d92f871cace1","ios":"levelo://app?vid=232f132c-f3ca-4733-a656-d92f871cace1"},"vehicle_type_id":"4","last_reported":1725214220,"current_range_meters":19200,"station_id":"ce4bh3p2rcd13ifvqdp0","pricing_plan_id":"cebpf4jnsgd1na2vs0mg"},{"bike_id":"49827744-339c-46d7-a9df-b12ca11e560d","system_id":"levelo_inurba_marseille","lat":43.312609,"lon":5.401662,"is_reserved":false,"is_disabled":false,"rental_uris":{"android":"levelo://app?vid=49827744-339c-46d7-a9df-b12ca11e560d","ios":"levelo://app?vid=49827744-339c-46d7-a9df-b12ca11e560d"},"vehicle_type_id":"4","last_reported":1725214220,"current_range_meters":7200,"station_id":"ce4bh092rcd13ifvqd30","pricing_plan_id":"cebpf4jnsgd1na2vs0mg"},{"bike_id":"1dc7384d-20bf-49d6-9f0b-203592b00455","system_id":"levelo_inurba_marseille","lat":43.28856,"lon":5.358371,"is_reserved":false,"is_disabled":false,"rental_uris":{"android":"levelo://app?vid=1dc7384d-20bf-49d6-9f0b-203592b00455","ios":"levelo://app?vid=1dc7384d-20bf-49d6-9f0b-203592b00455"},"vehicle_type_id":"4","last_reported":1725214220,"current_range_meters":0,"station_id":"ce4bhb12rcd13ifvqem0","pricing_plan_id":"cebpf4jnsgd1na2vs0mg"},{"bike_id":"97ba6f22-6dc0-4fb2-ba1d-b07626640fdd","system_id":"levelo_inurba_marseille","lat":43.287928,"lon":5.372657,"is_reserved":false,"is_disabled":false,"rental_uris":{"android":"levelo://app?vid=97ba6f22-6dc0-4fb2-ba1d-b07626640fdd","ios":"levelo://app?vid=97ba6f22-6dc0-4fb2-ba1d-b07626640fdd"},"vehicle_type_id":"4","last_reported":1725214220,"current_range_meters":15200,"station_id":"","pricing_plan_id":"cebpf4jnsgd1na2vs0mg"},{"bike_id":"ddc0aa2a-d6f1-482d-9ee3-69305ef1f4d9","system_id":"levelo_inurba_marseille","lat":43.312609,"lon":5.401662,"is_reserved":false,"is_disabled":false,"rental_uris":{"android":"levelo://app?vid=ddc0aa2a-d6f1-482d-9ee3-69305ef1f4d9","ios":"levelo://app?vid=ddc0aa2a-d6f1-482d-9ee3-69305ef1f4d9"},"vehicle_type_id":"4","last_reported":1725214220,"current_range_meters":19200,"station_id":"ce4bh092rcd13ifvqd30","pricing_plan_id":"cebpf4jnsgd1na2vs0mg"},{"bike_id":"73ab8aa5-1eb3-4fd0-b94f-dfea1dc2f509","system_id":"levelo_inurba_marseille","lat":43.30165,"lon":5.39818,"is_reserved":false,"is_disabled":false,"rental_uris":{"android":"levelo://app?vid=73ab8aa5-1eb3-4fd0-b94f-dfea1dc2f509","ios":"levelo://app?vid=73ab8aa5-1eb3-4fd0-b94f-dfea1dc2f509"},"vehicle_type_id":"4","last_reported":1725214220,"current_range_meters":10400,"station_id":"","pricing_plan_id":"cebpf4jnsgd1na2vs0mg"},{"bike_id":"2cf757ba-6687-4498-9085-10d09452f568","system_id":"levelo_inurba_marseille","lat":43.33745,"lon":5.37453,"is_reserved":false,"is_disabled":false,"rental_uris":{"android":"levelo://app?vid=2cf757ba-6687-4498-9085-10d09452f568","ios":"levelo://app?vid=2cf757ba-6687-4498-9085-10d09452f568"},"vehicle_type_id":"4","last_reported":1725214220,"current_range_meters":26000,"station_id":"","pricing_plan_id":"cebpf4jnsgd1na2vs0mg"},{"bike_id":"8cac9b46-db8b-4978-9ee4-b0375bb93662","system_id":"levelo_inurba_marseille","lat":43.33749,"lon":5.37468,"is_reserved":false,"is_disabled":false,"rental_uris":{"android":"levelo://app?vid=8cac9b46-db8b-4978-9ee4-b0375bb93662","ios":"levelo://app?vid=8cac9b46-db8b-4978-9ee4-b0375bb93662"},"vehicle_type_id":"4","last_reported":1725214220,"current_range_meters":22400,"station_id":"","pricing_plan_id":"cebpf4jnsgd1na2vs0mg"},{"bike_id":"a8227e9b-bd18-4fc0-b815-b7e484f2391f","system_id":"levelo_inurba_marseille","lat":43.33756,"lon":5.37449,"is_reserved":false,"is_disabled":false,"rental_uris":{"android":"levelo://app?vid=a8227e9b-bd18-4fc0-b815-b7e484f2391f","ios":"levelo://app?vid=a8227e9b-bd18-4fc0-b815-b7e484f2391f"},"vehicle_type_id":"4","last_reported":1725214220,"current_range_meters":25200,"station_id":"","pricing_plan_id":"cebpf4jnsgd1na2vs0mg"},{"bike_id":"642680c5-427c-4760-9625-5cb2713e3b18","system_id":"levelo_inurba_marseille","lat":43.301117,"lon":5.398795,"is_reserved":false,"is_disabled":false,"rental_uris":{"android":"levelo://app?vid=642680c5-427c-4760-9625-5cb2713e3b18","ios":"levelo://app?vid=642680c5-427c-4760-9625-5cb2713e3b18"},"vehicle_type_id":"4","last_reported":1725214220,"current_range_meters":0,"station_id":"ce4bh0h2rcd13ifvqd40","pricing_plan_id":"cebpf4jnsgd1na2vs0mg"},{"bike_id":"5ba55aa4-5553-4c8e-bde1-c17c91a1c080","system_id":"levelo_inurba_marseille","lat":43.316821,"lon":5.404737,"is_reserved":false,"is_disabled":false,"rental_uris":{"android":"levelo://app?vid=5ba55aa4-5553-4c8e-bde1-c17c91a1c080","ios":"levelo://app?vid=5ba55aa4-5553-4c8e-bde1-c17c91a1c080"},"vehicle_type_id":"4","last_reported":1725214220,"current_range_meters":0,"station_id":"ce4bh012rcd13ifvqd00","pricing_plan_id":"cebpf4jnsgd1na2vs0mg"},{"bike_id":"b4ba3595-9109-4bd9-9408-7f4b3ce0e74d","system_id":"levelo_inurba_marseille","lat":43.28727,"lon":5.36078,"is_reserved":false,"is_disabled":false,"rental_uris":{"android":"levelo://app?vid=b4ba3595-9109-4bd9-9408-7f4b3ce0e74d","ios":"levelo://app?vid=b4ba3595-9109-4bd9-9408-7f4b3ce0e74d"},"vehicle_type_id":"4","last_reported":1725214220,"current_range_meters":5200,"station_id":"cki0cbj6b192h4jlfktg","pricing_plan_id":"cebpf4jnsgd1na2vs0mg"},{"bike_id":"4eba809b-9f85-4f7a-bb69-8df6502c2e1e","system_id":"levelo_inurba_marseille","lat":43.28727,"lon":5.36078,"is_reserved":false,"is_disabled":false,"rental_uris":{"android":"levelo://app?vid=4eba809b-9f85-4f7a-bb69-8df6502c2e1e","ios":"levelo://app?vid=4eba809b-9f85-4f7a-bb69-8df6502c2e1e"},"vehicle_type_id":"4","last_reported":1725214220,"current_range_meters":4400,"station_id":"cki0cbj6b192h4jlfktg","pricing_plan_id":"cebpf4jnsgd1na2vs0mg"},{"bike_id":"a3be2705-eddd-495c-9829-b1fdd15c716d","system_id":"levelo_inurba_marseille","lat":43.286591,"lon":5.363346,"is_reserved":false,"is_disabled":false,"rental_uris":{"android":"levelo://app?vid=a3be2705-eddd-495c-9829-b1fdd15c716d","ios":"levelo://app?vid=a3be2705-eddd-495c-9829-b1fdd15c716d"},"vehicle_type_id":"4","last_reported":1725214220,"current_range_meters":25600,"station_id":"ce4bhah2rcd13ifvqej0","pricing_plan_id":"cebpf4jnsgd1na2vs0mg"},{"bike_id":"c54aaf92-d4f1-4bb7-8ae2-7e42ffea5593","system_id":"levelo_inurba_marseille","lat":43.286961,"lon":5.373785,"is_reserved":false,"is_disabled":false,"rental_uris":{"android":"levelo://app?vid=c54aaf92-d4f1-4bb7-8ae2-7e42ffea5593","ios":"levelo://app?vid=c54aaf92-d4f1-4bb7-8ae2-7e42ffea5593"},"vehicle_type_id":"4","last_reported":1725214220,"current_range_meters":25200,"station_id":"ce4bh3p2rcd13ifvqdq0","pricing_plan_id":"cebpf4jnsgd1na2vs0mg"},{"bike_id":"7a770351-46c0-4824-b2d8-6387e6fb398f","system_id":"levelo_inurba_marseille","lat":43.286591,"lon":5.363346,"is_reserved":false,"is_disabled":false,"rental_uris":{"android":"levelo://app?vid=7a770351-46c0-4824-b2d8-6387e6fb398f","ios":"levelo://app?vid=7a770351-46c0-4824-b2d8-6387e6fb398f"},"vehicle_type_id":"4","last_reported":1725214220,"current_range_meters":23200,"station_id":"ce4bhah2rcd13ifvqej0","pricing_plan_id":"cebpf4jnsgd1na2vs0mg"},{"bike_id":"47218edf-108f-44bf-82be-05df8b9458e7","system_id":"levelo_inurba_marseille","lat":43.286593,"lon":5.363346,"is_reserved":false,"is_disabled":false,"rental_uris":{"android":"levelo://app?vid=47218edf-108f-44bf-82be-05df8b9458e7","ios":"levelo://app?vid=47218edf-108f-44bf-82be-05df8b9458e7"},"vehicle_type_id":"4","last_reported":1725214220,"current_range_meters":22000,"station_id":"ce4bhah2rcd13ifvqej0","pricing_plan_id":"cebpf4jnsgd1na2vs0mg"},{"bike_id":"7a843588-1cbf-440a-a2c3-50ffa792c88f","system_id":"levelo_inurba_marseille","lat":43.286591,"lon":5.363346,"is_reserved":false,"is_disabled":false,"rental_uris":{"android":"levelo://app?vid=7a843588-1cbf-440a-a2c3-50ffa792c88f","ios":"levelo://app?vid=7a843588-1cbf-440a-a2c3-50ffa792c88f"},"vehicle_type_id":"4","last_reported":1725214220,"current_range_meters":18000,"station_id":"ce4bhah2rcd13ifvqej0","pricing_plan_id":"cebpf4jnsgd1na2vs0mg"},{"bike_id":"3651fadb-0c8b-40be-9653-a4287446ef8e","system_id":"levelo_inurba_marseille","lat":43.286961,"lon":5.373785,"is_reserved":false,"is_disabled":false,"rental_uris":{"android":"levelo://app?vid=3651fadb-0c8b-40be-9653-a4287446ef8e","ios":"levelo://app?vid=3651fadb-0c8b-40be-9653-a4287446ef8e"},"vehicle_type_id":"4","last_reported":1725214220,"current_range_meters":11200,"station_id":"ce4bh3p2rcd13ifvqdq0","pricing_plan_id":"cebpf4jnsgd1na2vs0mg"},{"bike_id":"2d34b88b-f4f5-4417-9d4e-a59de5395525","system_id":"levelo_inurba_marseille","lat":43.286593,"lon":5.363346,"is_reserved":false,"is_disabled":false,"rental_uris":{"android":"levelo://app?vid=2d34b88b-f4f5-4417-9d4e-a59de5395525","ios":"levelo://app?vid=2d34b88b-f4f5-4417-9d4e-a59de5395525"},"vehicle_type_id":"4","last_reported":1725214220,"current_range_meters":14800,"station_id":"ce4bhah2rcd13ifvqej0","pricing_plan_id":"cebpf4jnsgd1na2vs0mg"},{"bike_id":"c64288af-1c89-4b66-b10b-eb82c38e740d","system_id":"levelo_inurba_marseille","lat":43.289307,"lon":5.38406,"is_reserved":false,"is_disabled":false,"rental_uris":{"android":"levelo://app?vid=c64288af-1c89-4b66-b10b-eb82c38e740d","ios":"levelo://app?vid=c64288af-1c89-4b66-b10b-eb82c38e740d"},"vehicle_type_id":"4","last_reported":1725214220,"current_range_meters":24800,"station_id":"ce4bh612rcd13ifvqe6g","pricing_plan_id":"cebpf4jnsgd1na2vs0mg"},{"bike_id":"9a96e86b-cd58-4e6b-8d13-3aad86a9053c","system_id":"levelo_inurba_marseille","lat":43.29032,"lon":5.38641,"is_reserved":false,"is_disabled":false,"rental_uris":{"android":"levelo://app?vid=9a96e86b-cd58-4e6b-8d13-3aad86a9053c","ios":"levelo://app?vid=9a96e86b-cd58-4e6b-8d13-3aad86a9053c"},"vehicle_type_id":"4","last_reported":1725214220,"current_range_meters":6000,"station_id":"ce4bh4p2rcd13ifvqe0g","pricing_plan_id":"cebpf4jnsgd1na2vs0mg"},{"bike_id":"b7dbd99b-8e16-4406-a605-5903955d37a7","system_id":"levelo_inurba_marseille","lat":43.29032,"lon":5.38648,"is_reserved":false,"is_disabled":false,"rental_uris":{"android":"levelo://app?vid=b7dbd99b-8e16-4406-a605-5903955d37a7","ios":"levelo://app?vid=b7dbd99b-8e16-4406-a605-5903955d37a7"},"vehicle_type_id":"4","last_reported":1725214220,"current_range_meters":0,"station_id":"ce4bh4p2rcd13ifvqe0g","pricing_plan_id":"cebpf4jnsgd1na2vs0mg"},{"bike_id":"bdc702e9-4674-49b9-a4b5-6673f0de2285","system_id":"levelo_inurba_marseille","lat":43.29031,"lon":5.38646,"is_reserved":false,"is_disabled":false,"rental_uris":{"android":"levelo://app?vid=bdc702e9-4674-49b9-a4b5-6673f0de2285","ios":"levelo://app?vid=bdc702e9-4674-49b9-a4b5-6673f0de2285"},"vehicle_type_id":"4","last_reported":1725214220,"current_range_meters":8400,"station_id":"ce4bh4p2rcd13ifvqe0g","pricing_plan_id":"cebpf4jnsgd1na2vs0mg"},{"bike_id":"abbb49c7-ac30-4992-b29b-4870cb3b1d19","system_id":"levelo_inurba_marseille","lat":43.290336,"lon":5.386425,"is_reserved":false,"is_disabled":false,"rental_uris":{"android":"levelo://app?vid=abbb49c7-ac30-4992-b29b-4870cb3b1d19","ios":"levelo://app?vid=abbb49c7-ac30-4992-b29b-4870cb3b1d19"},