{"last_updated":1699812472,"ttl":30,"version":"2.2","data":{"bikes":[{"bike_id":"bbdf0053-0668-42fa-a13e-ed71011133b0","system_id":"levelo_inurba_marseille","lat":43.313391,"lon":5.36706,"is_reserved":false,"is_disabled":false,"rental_uris":{"android":"levelo://app?vid=bbdf0053-0668-42fa-a13e-ed71011133b0","ios":"levelo://app?vid=bbdf0053-0668-42fa-a13e-ed71011133b0"},"vehicle_type_id":"4","last_reported":1699812472,"current_range_meters":15600,"station_id":"ce4bgr92rcd13ifvqc6g","pricing_plan_id":"free"},{"bike_id":"f6f0da80-ee59-4d58-a339-8610d91107cd","system_id":"levelo_inurba_marseille","lat":43.314811,"lon":5.373103,"is_reserved":false,"is_disabled":false,"rental_uris":{"android":"levelo://app?vid=f6f0da80-ee59-4d58-a339-8610d91107cd","ios":"levelo://app?vid=f6f0da80-ee59-4d58-a339-8610d91107cd"},"vehicle_type_id":"4","last_reported":1699812472,"current_range_meters":800,"station_id":"ce4bgt12rcd13ifvqcd0","pricing_plan_id":"free"},{"bike_id":"99e86685-13e6-4242-abb5-481ed0c1aed5","system_id":"levelo_inurba_marseille","lat":43.30894,"lon":5.37193,"is_reserved":false,"is_disabled":false,"rental_uris":{"android":"levelo://app?vid=99e86685-13e6-4242-abb5-481ed0c1aed5","ios":"levelo://app?vid=99e86685-13e6-4242-abb5-481ed0c1aed5"},"vehicle_type_id":"4","last_reported":1699812472,"current_range_meters":26000,"station_id":"ce4bguh2rcd13ifvqckg","pricing_plan_id":"free"},{"bike_id":"4352a434-b1ab-453b-8e9a-fe5d760bc9fc","system_id":"levelo_inurba_marseille","lat":43.30902,"lon":5.37206,"is_reserved":false,"is_disabled":false,"rental_uris":{"android":"levelo://app?vid=4352a434-b1ab-453b-8e9a-fe5d760bc9fc","ios":"levelo://app?vid=4352a434-b1ab-453b-8e9a-fe5d760bc9fc"},"vehicle_type_id":"4","last_reported":1699812472,"current_range_meters":800,"station_id":"ce4bguh2rcd13ifvqckg","pricing_plan_id":"free"},{"bike_id":"76b359af-c20b-45d0-a1df-78f4c9a6553a","system_id":"levelo_inurba_marseille","lat":43.30537,"lon":5.36537,"is_reserved":false,"is_disabled":false,"rental_uris":{"android":"levelo://app?vid=76b359af-c20b-45d0-a1df-78f4c9a6553a","ios":"levelo://app?vid=76b359af-c20b-45d0-a1df-78f4c9a6553a"},"vehicle_type_id":"4","last_reported":1699812472,"current_range_meters":13600,"station_id":"ce4bgs12rcd13ifvqcag","pricing_plan_id":"free"},{"bike_id":"d6dc309d-8a82-456d-a803-bd3ffa3acb89","system_id":"levelo_inurba_marseille","lat":43.305368,"lon":5.367343,"is_reserved":false,"is_disabled":false,"rental_uris":{"android":"levelo://app?vid=d6dc309d-8a82-456d-a803-bd3ffa3acb89","ios":"levelo://app?vid=d6dc309d-8a82-456d-a803-bd3ffa3acb89"},"vehicle_type_id":"4","last_reported":1699812472,"current_range_meters":26800,"station_id":"ce4bgrp2rcd13ifvqc9g","pricing_plan_id":"free"},{"bike_id":"33aa7a2c-c83b-46bc-ad3b-c42ffcbd9fcd","system_id":"levelo_inurba_marseille","lat":43.30604,"lon":5.37222,"is_reserved":false,"is_disabled":false,"rental_uris":{"android":"levelo://app?vid=33aa7a2c-c83b-46bc-ad3b-c42ffcbd9fcd","ios":"levelo://app?vid=33aa7a2c-c83b-46bc-ad3b-c42ffcbd9fcd"},"vehicle_type_id":"4","last_reported":1699812472,"current_range_meters":5600,"station_id":"ce4bgqh2rcd13ifvqc4g","pricing_plan_id":"free"},{"bike_id":"963c28fd-db73-41aa-bfb1-a987143cb500","system_id":"levelo_inurba_marseille","lat":43.307945,"lon":5.376487,"is_reserved":false,"is_disabled":false,"rental_uris":{"android":"levelo://app?vid=963c28fd-db73-41aa-bfb1-a987143cb500","ios":"levelo://app?vid=963c28fd-db73-41aa-bfb1-a987143cb500"},"vehicle_type_id":"4","last_reported":1699812472,"current_range_meters":14800,"station_id":"ce4bgv92rcd13ifvqcq0","pricing_plan_id":"free"},{"bike_id":"57053367-5328-4d78-8951-737f56b37ed9","system_id":"levelo_inurba_marseille","lat":43.319924,"lon":5.373389,"is_reserved":false,"is_disabled":false,"rental_uris":{"android":"levelo://app?vid=57053367-5328-4d78-8951-737f56b37ed9","ios":"levelo://app?vid=57053367-5328-4d78-8951-737f56b37ed9"},"vehicle_type_id":"4","last_reported":1699812472,"current_range_meters":14000,"station_id":"","pricing_plan_id":"free"},{"bike_id":"3569e4a6-5bd1-4542-9936-6599a38ea729","system_id":"levelo_inurba_marseille","lat":43.317075,"lon":5.377367,"is_reserved":false,"is_disabled":false,"rental_uris":{"android":"levelo://app?vid=3569e4a6-5bd1-4542-9936-6599a38ea729","ios":"levelo://app?vid=3569e4a6-5bd1-4542-9936-6599a38ea729"},"vehicle_type_id":"4","last_reported":1699812472,"current_range_meters":24400,"station_id":"ce4bgth2rcd13ifvqch0","pricing_plan_id":"free"},{"bike_id":"a26a672c-8f86-40f5-9e8e-9856cf399a24","system_id":"levelo_inurba_marseille","lat":43.308012,"lon":5.381511,"is_reserved":false,"is_disabled":false,"rental_uris":{"android":"levelo://app?vid=a26a672c-8f86-40f5-9e8e-9856cf399a24","ios":"levelo://app?vid=a26a672c-8f86-40f5-9e8e-9856cf399a24"},"vehicle_type_id":"4","last_reported":1699812472,"current_range_meters":22000,"station_id":"ce4bgt12rcd13ifvqce0","pricing_plan_id":"free"},{"bike_id":"47ac3be5-6afe-493d-b9e6-f30665400dc8","system_id":"levelo_inurba_marseille","lat":43.304606,"lon":5.379026,"is_reserved":false,"is_disabled":false,"rental_uris":{"android":"levelo://app?vid=47ac3be5-6afe-493d-b9e6-f30665400dc8","ios":"levelo://app?vid=47ac3be5-6afe-493d-b9e6-f30665400dc8"},"vehicle_type_id":"4","last_reported":1699812472,"current_range_meters":10400,"station_id":"ce4bgup2rcd13ifvqcn0","pricing_plan_id":"free"},{"bike_id":"3fb4984a-6013-4ebb-8773-c308071699ec","system_id":"levelo_inurba_marseille","lat":43.32474,"lon":5.36559,"is_reserved":false,"is_disabled":false,"rental_uris":{"android":"levelo://app?vid=3fb4984a-6013-4ebb-8773-c308071699ec","ios":"levelo://app?vid=3fb4984a-6013-4ebb-8773-c308071699ec"},"vehicle_type_id":"4","last_reported":1699812472,"current_range_meters":20400,"station_id":"ce4bhs12rcd13ifvqhvg","pricing_plan_id":"free"},{"bike_id":"9caec048-a3aa-428b-9d1e-66ad6c2d8e58","system_id":"levelo_inurba_marseille","lat":43.32368,"lon":5.37446,"is_reserved":false,"is_disabled":false,"rental_uris":{"android":"levelo://app?vid=9caec048-a3aa-428b-9d1e-66ad6c2d8e58","ios":"levelo://app?vid=9caec048-a3aa-428b-9d1e-66ad6c2d8e58"},"vehicle_type_id":"4","last_reported":1699812472,"current_range_meters":20400,"station_id":"","pricing_plan_id":"free"},{"bike_id":"3819deec-fe3d-41c7-8346-2b107cb07054","system_id":"levelo_inurba_marseille","lat":43.315237,"lon":5.383797,"is_reserved":false,"is_disabled":false,"rental_uris":{"android":"levelo://app?vid=3819deec-fe3d-41c7-8346-2b107cb07054","ios":"levelo://app?vid=3819deec-fe3d-41c7-8346-2b107cb07054"},"vehicle_type_id":"4","last_reported":1699812472,"current_range_meters":0,"station_id":"","pricing_plan_id":"free"},{"bike_id":"69166d53-ec8e-4a0a-864c-7a29f7650dd8","system_id":"levelo_inurba_marseille","lat":43.321092,"lon":5.380114,"is_reserved":false,"is_disabled":false,"rental_uris":{"android":"levelo://app?vid=69166d53-ec8e-4a0a-864c-7a29f7650dd8","ios":"levelo://app?vid=69166d53-ec8e-4a0a-864c-7a29f7650dd8"},"vehicle_type_id":"4","last_reported":1699812472,"current_range_meters":13600,"station_id":"","pricing_plan_id":"free"},{"bike_id":"13d78257-2559-4a10-97b8-aaa7032179bc","system_id":"levelo_inurba_marseille","lat":43.319975,"lon":5.381519,"is_reserved":false,"is_disabled":false,"rental_uris":{"android":"levelo://app?vid=13d78257-2559-4a10-97b8-aaa7032179bc","ios":"levelo://app?vid=13d78257-2559-4a10-97b8-aaa7032179bc"},"vehicle_type_id":"4","last_reported":1699812472,"current_range_meters":0,"station_id":"","pricing_plan_id":"free"},{"bike_id":"cbc1afb7-f33e-480e-bd23-3a85578bc30d","system_id":"levelo_inurba_marseille","lat":43.31995,"lon":5.38168,"is_reserved":false,"is_disabled":false,"rental_uris":{"android":"levelo://app?vid=cbc1afb7-f33e-480e-bd23-3a85578bc30d","ios":"levelo://app?vid=cbc1afb7-f33e-480e-bd23-3a85578bc30d"},"vehicle_type_id":"4","last_reported":1699812472,"current_range_meters":17200,"station_id":"ce4bhr12rcd13ifvqhpg","pricing_plan_id":"free"},{"bike_id":"f1c6eeed-d546-48c3-a8ef-c4453a2b978c","system_id":"levelo_inurba_marseille","lat":43.299724,"lon":5.371829,"is_reserved":false,"is_disabled":false,"rental_uris":{"android":"levelo://app?vid=f1c6eeed-d546-48c3-a8ef-c4453a2b978c","ios":"levelo://app?vid=f1c6eeed-d546-48c3-a8ef-c4453a2b978c"},"vehicle_type_id":"4","last_reported":1699812472,"current_range_meters":11600,"station_id":"ce4bgr92rcd13ifvqc7g","pricing_plan_id":"free"},{"bike_id":"a8a2331f-d132-4d0f-9aa8-fcaa93029c79","system_id":"levelo_inurba_marseille","lat":43.299724,"lon":5.371829,"is_reserved":false,"is_disabled":false,"rental_uris":{"android":"levelo://app?vid=a8a2331f-d132-4d0f-9aa8-fcaa93029c79","ios":"levelo://app?vid=a8a2331f-d132-4d0f-9aa8-fcaa93029c79"},"vehicle_type_id":"4","last_reported":1699812472,"current_range_meters":7600,"station_id":"ce4bgr92rcd13ifvqc7g","pricing_plan_id":"free"},{"bike_id":"e75d8d0f-1305-4636-912c-5a5dfa5b54dc","system_id":"levelo_inurba_marseille","lat":43.299724,"lon":5.371829,"is_reserved":false,"is_disabled":false,"rental_uris":{"android":"levelo://app?vid=e75d8d0f-1305-4636-912c-5a5dfa5b54dc","ios":"levelo://app?vid=e75d8d0f-1305-4636-912c-5a5dfa5b54dc"},"vehicle_type_id":"4","last_reported":1699812472,"current_range_meters":800,"station_id":"ce4bgr92rcd13ifvqc7g","pricing_plan_id":"free"},{"bike_id":"ebea7c7c-34a3-42cf-b95a-39c9d6ee79ad","system_id":"levelo_inurba_marseille","lat":43.299724,"lon":5.371829,"is_reserved":false,"is_disabled":false,"rental_uris":{"android":"levelo://app?vid=ebea7c7c-34a3-42cf-b95a-39c9d6ee79ad","ios":"levelo://app?vid=ebea7c7c-34a3-42cf-b95a-39c9d6ee79ad"},"vehicle_type_id":"4","last_reported":1699812472,"current_range_meters":30800,"station_id":"ce4bgr92rcd13ifvqc7g","pricing_plan_id":"free"},{"bike_id":"53d3f7c6-61b5-4687-b899-0009dde1d985","system_id":"levelo_inurba_marseille","lat":43.325416,"lon":5.374736,"is_reserved":false,"is_disabled":false,"rental_uris":{"android":"levelo://app?vid=53d3f7c6-61b5-4687-b899-0009dde1d985","ios":"levelo://app?vid=53d3f7c6-61b5-4687-b899-0009dde1d985"},"vehicle_type_id":"4","last_reported":1699812472,"current_range_meters":5600,"station_id":"","pricing_plan_id":"free"},{"bike_id":"8950f55a-e75d-4fac-9a7c-f529bc0580a5","system_id":"levelo_inurba_marseille","lat":43.320464,"lon":5.384144,"is_reserved":false,"is_disabled":false,"rental_uris":{"android":"levelo://app?vid=8950f55a-e75d-4fac-9a7c-f529bc0580a5","ios":"levelo://app?vid=8950f55a-e75d-4fac-9a7c-f529bc0580a5"},"vehicle_type_id":"4","last_reported":1699812472,"current_range_meters":8400,"station_id":"","pricing_plan_id":"free"},{"bike_id":"90a6cda6-ce5c-4e65-bd16-d0f2f495fa60","system_id":"levelo_inurba_marseille","lat":43.32748,"lon":5.36706,"is_reserved":false,"is_disabled":false,"rental_uris":{"android":"levelo://app?vid=90a6cda6-ce5c-4e65-bd16-d0f2f495fa60","ios":"levelo://app?vid=90a6cda6-ce5c-4e65-bd16-d0f2f495fa60"},"vehicle_type_id":"4","last_reported":1699812472,"current_range_meters":18000,"station_id":"","pricing_plan_id":"free"},{"bike_id":"05330715-8683-4a39-9a1a-c612dd3a11f6","system_id":"levelo_inurba_marseille","lat":43.311722,"lon":5.387247,"is_reserved":false,"is_disabled":false,"rental_uris":{"android":"levelo://app?vid=05330715-8683-4a39-9a1a-c612dd3a11f6","ios":"levelo://app?vid=05330715-8683-4a39-9a1a-c612dd3a11f6"},"vehicle_type_id":"4","last_reported":1699812472,"current_range_meters":24000,"station_id":"ce4bgv12rcd13ifvqcp0","pricing_plan_id":"free"},{"bike_id":"20893d12-13d7-4591-8f45-4e0312a96a46","system_id":"levelo_inurba_marseille","lat":43.297774,"lon":5.370875,"is_reserved":false,"is_disabled":false,"rental_uris":{"android":"levelo://app?vid=20893d12-13d7-4591-8f45-4e0312a96a46","ios":"levelo://app?vid=20893d12-13d7-4591-8f45-4e0312a96a46"},"vehicle_type_id":"4","last_reported":1699812472,"current_range_meters":1600,"station_id":"ce4bgop2rcd13ifvqc1g","pricing_plan_id":"free"},{"bike_id":"5cfecf85-b051-48fc-8193-6aa8002faa77","system_id":"levelo_inurba_marseille","lat":43.297794,"lon":5.370888,"is_reserved":false,"is_disabled":false,"rental_uris":{"android":"levelo://app?vid=5cfecf85-b051-48fc-8193-6aa8002faa77","ios":"levelo://app?vid=5cfecf85-b051-48fc-8193-6aa8002faa77"},"vehicle_type_id":"4","last_reported":1699812472,"current_range_meters":27600,"station_id":"ce4bgop2rcd13ifvqc1g","pricing_plan_id":"free"},{"bike_id":"29bee61f-c6ec-4eaa-b60b-1c4aa95301c2","system_id":"levelo_inurba_marseille","lat":43.297794,"lon":5.370888,"is_reserved":false,"is_disabled":false,"rental_uris":{"android":"levelo://app?vid=29bee61f-c6ec-4eaa-b60b-1c4aa95301c2","ios":"levelo://app?vid=29bee61f-c6ec-4eaa-b60b-1c4aa95301c2"},"vehicle_type_id":"4","last_reported":1699812472,"current_range_meters":17600,"station_id":"ce4bgop2rcd13ifvqc1g","pricing_plan_id":"free"},{"bike_id":"ae335c2e-bf77-4e54-90f9-eb8725aa58bf","system_id":"levelo_inurba_marseille","lat":43.328371,"lon":5.366909,"is_reserved":false,"is_disabled":false,"rental_uris":{"android":"levelo://app?vid=ae335c2e-bf77-4e54-90f9-eb8725aa58bf","ios":"levelo://app?vid=ae335c2e-bf77-4e54-90f9-eb8725aa58bf"},"vehicle_type_id":"4","last_reported":1699812472,"current_range_meters":18400,"station_id":"ce4bhs92rcd13ifvqi0g","pricing_plan_id":"free"},{"bike_id":"8ea3526a-c988-40ce-bc15-be0b171d079a","system_id":"levelo_inurba_marseille","lat":43.328371,"lon":5.366909,"is_reserved":false,"is_disabled":false,"rental_uris":{"android":"levelo://app?vid=8ea3526a-c988-40ce-bc15-be0b171d079a","ios":"levelo://app?vid=8ea3526a-c988-40ce-bc15-be0b171d079a"},"vehicle_type_id":"4","last_reported":1699812472,"current_range_meters":1600,"station_id":"ce4bhs92rcd13ifvqi0g","pricing_plan_id":"free"},{"bike_id":"20b6911c-343c-41ff-8b72-01eb12914810","system_id":"levelo_inurba_marseille","lat":43.29715,"lon":5.36617,"is_reserved":false,"is_disabled":false,"rental_uris":{"android":"levelo://app?vid=20b6911c-343c-41ff-8b72-01eb12914810","ios":"levelo://app?vid=20b6911c-343c-41ff-8b72-01eb12914810"},"vehicle_type_id":"4","last_reported":1699812472,"current_range_meters":4000,"station_id":"ce4bgn12rcd13ifvqbt0","pricing_plan_id":"free"},{"bike_id":"f0812d0f-256a-478f-9681-2e0e9d074993","system_id":"levelo_inurba_marseille","lat":43.29601,"lon":5.36819,"is_reserved":false,"is_disabled":false,"rental_uris":{"android":"levelo://app?vid=f0812d0f-256a-478f-9681-2e0e9d074993","ios":"levelo://app?vid=f0812d0f-256a-478f-9681-2e0e9d074993"},"vehicle_type_id":"4","last_reported":1699812472,"current_range_meters":26800,"station_id":"","pricing_plan_id":"free"},{"bike_id":"d447991a-59b4-4778-a190-7d2b0920a414","system_id":"levelo_inurba_marseille","lat":43.32215,"lon":5.38613,"is_reserved":false,"is_disabled":false,"rental_uris":{"android":"levelo://app?vid=d447991a-59b4-4778-a190-7d2b0920a414","ios":"levelo://app?vid=d447991a-59b4-4778-a190-7d2b0920a414"},"vehicle_type_id":"4","last_reported":1699812472,"current_range_meters":16000,"station_id":"","pricing_plan_id":"free"},{"bike_id":"408e1bba-ac1b-479c-ad30-32026784c873","system_id":"levelo_inurba_marseille","lat":43.2966,"lon":5.37463,"is_reserved":false,"is_disabled":false,"rental_uris":{"android":"levelo://app?vid=408e1bba-ac1b-479c-ad30-32026784c873","ios":"levelo://app?vid=408e1bba-ac1b-479c-ad30-32026784c873"},"vehicle_type_id":"4","last_reported":1699812472,"current_range_meters":10800,"station_id":"","pricing_plan_id":"free"},{"bike_id":"feff7d8e-9456-4b4b-b917-4f91bb23e023","system_id":"levelo_inurba_marseille","lat":43.3175,"lon":5.39022,"is_reserved":false,"is_disabled":false,"rental_uris":{"android":"levelo://app?vid=feff7d8e-9456-4b4b-b917-4f91bb23e023","ios":"levelo://app?vid=feff7d8e-9456-4b4b-b917-4f91bb23e023"},"vehicle_type_id":"4","last_reported":1699812472,"current_range_meters":14000,"station_id":"","pricing_plan_id":"free"},{"bike_id":"d410aab9-8909-473c-b142-17d89cc62ba0","system_id":"levelo_inurba_marseille","lat":43.317557,"lon":5.390173,"is_reserved":false,"is_disabled":false,"rental_uris":{"android":"levelo://app?vid=d410aab9-8909-473c-b142-17d89cc62ba0","ios":"levelo://app?vid=d410aab9-8909-473c-b142-17d89cc62ba0"},"vehicle_type_id":"4","last_reported":1699812472,"current_range_meters":0,"station_id":"ce4bhqp2rcd13ifvqhng","pricing_plan_id":"free"},{"bike_id":"726d3ec8-4788-4b34-882c-6557e7066dea","system_id":"levelo_inurba_marseille","lat":43.298037,"lon":5.381066,"is_reserved":false,"is_disabled":false,"rental_uris":{"android":"levelo://app?vid=726d3ec8-4788-4b34-882c-6557e7066dea","ios":"levelo://app?vid=726d3ec8-4788-4b34-882c-6557e7066dea"},"vehicle_type_id":"4","last_reported":1699812472,"current_range_meters":19200,"station_id":"ce4bgip2rcd13ifvqbb0","pricing_plan_id":"free"},{"bike_id":"5691b5b7-067a-4422-9f0c-a6907daf74a4","system_id":"levelo_inurba_marseille","lat":43.32931,"lon":5.35636,"is_reserved":false,"is_disabled":false,"rental_uris":{"android":"levelo://app?vid=5691b5b7-067a-4422-9f0c-a6907daf74a4","ios":"levelo://app?vid=5691b5b7-067a-4422-9f0c-a6907daf74a4"},"vehicle_type_id":"4","last_reported":1699812472,"current_range_meters":4400,"station_id":"","pricing_plan_id":"free"},{"bike_id":"b5225f0a-2540-4436-92ea-162fd3785530","system_id":"levelo_inurba_marseille","lat":43.299707,"lon":5.384859,"is_reserved":false,"is_disabled":false,"rental_uris":{"android":"levelo://app?vid=b5225f0a-2540-4436-92ea-162fd3785530","ios":"levelo://app?vid=b5225f0a-2540-4436-92ea-162fd3785530"},"vehicle_type_id":"4","last_reported":1699812472,"current_range_meters":19200,"station_id":"ce4bgj92rcd13ifvqbd0","pricing_plan_id":"free"},{"bike_id":"dd3cf0f7-9324-4b9f-b13e-7a94087dc9ea","system_id":"levelo_inurba_marseille","lat":43.29972,"lon":5.3849,"is_reserved":false,"is_disabled":false,"rental_uris":{"android":"levelo://app?vid=dd3cf0f7-9324-4b9f-b13e-7a94087dc9ea","ios":"levelo://app?vid=dd3cf0f7-9324-4b9f-b13e-7a94087dc9ea"},"vehicle_type_id":"4","last_reported":1699812472,"current_range_meters":0,"station_id":"ce4bgj92rcd13ifvqbd0","pricing_plan_id":"free"},{"bike_id":"9cd4a9d6-0dbb-49af-b248-499a79d5014e","system_id":"levelo_inurba_marseille","lat":43.2997,"lon":5.38491,"is_reserved":false,"is_disabled":false,"rental_uris":{"android":"levelo://app?vid=9cd4a9d6-0dbb-49af-b248-499a79d5014e","ios":"levelo://app?vid=9cd4a9d6-0dbb-49af-b248-499a79d5014e"},"vehicle_type_id":"4","last_reported":1699812472,"current_range_meters":0,"station_id":"ce4bgj92rcd13ifvqbd0","pricing_plan_id":"free"},{"bike_id":"e10ea71e-4165-49b4-ab5c-cbe363687869","system_id":"levelo_inurba_marseille","lat":43.299724,"lon":5.384848,"is_reserved":false,"is_disabled":false,"rental_uris":{"android":"levelo://app?vid=e10ea71e-4165-49b4-ab5c-cbe363687869","ios":"levelo://app?vid=e10ea71e-4165-49b4-ab5c-cbe363687869"},"vehicle_type_id":"4","last_reported":1699812472,"current_range_meters":14400,"station_id":"ce4bgj92rcd13ifvqbd0","pricing_plan_id":"free"},{"bike_id":"5cf0d673-4b06-421d-bdbb-0bb8c1f6f611","system_id":"levelo_inurba_marseille","lat":43.32366,"lon":5.38887,"is_reserved":false,"is_disabled":false,"rental_uris":{"android":"levelo://app?vid=5cf0d673-4b06-421d-bdbb-0bb8c1f6f611","ios":"levelo://app?vid=5cf0d673-4b06-421d-bdbb-0bb8c1f6f611"},"vehicle_type_id":"4","last_reported":1699812472,"current_range_meters":22400,"station_id":"ce4bhqp2rcd13ifvqhog","pricing_plan_id":"free"},{"bike_id":"5802cf19-04cd-401f-8c1d-c6f6e8c4a339","system_id":"levelo_inurba_marseille","lat":43.29601,"lon":5.381084,"is_reserved":false,"is_disabled":false,"rental_uris":{"android":"levelo://app?vid=5802cf19-04cd-401f-8c1d-c6f6e8c4a339","ios":"levelo://app?vid=5802cf19-04cd-401f-8c1d-c6f6e8c4a339"},"vehicle_type_id":"4","last_reported":1699812472,"current_range_meters":15600,"station_id":"ce4bgl12rcd13ifvqbo0","pricing_plan_id":"free"},{"bike_id":"af634158-0218-4778-b98e-33b23832c116","system_id":"levelo_inurba_marseille","lat":43.29602,"lon":5.381084,"is_reserved":false,"is_disabled":false,"rental_uris":{"android":"levelo://app?vid=af634158-0218-4778-b98e-33b23832c116","ios":"levelo://app?vid=af634158-0218-4778-b98e-33b23832c116"},"vehicle_type_id":"4","last_reported":1699812472,"current_range_meters":27200,"station_id":"ce4bgl12rcd13ifvqbo0","pricing_plan_id":"free"},{"bike_id":"c489b560-e3d2-427a-8258-efc8f356820b","system_id":"levelo_inurba_marseille","lat":43.29601,"lon":5.381084,"is_reserved":false,"is_disabled":false,"rental_uris":{"android":"levelo://app?vid=c489b560-e3d2-427a-8258-efc8f356820b","ios":"levelo://app?vid=c489b560-e3d2-427a-8258-efc8f356820b"},"vehicle_type_id":"4","last_reported":1699812472,"current_range_meters":9600,"station_id":"ce4bgl12rcd13ifvqbo0","pricing_plan_id":"free"},{"bike_id":"bf023614-6302-4430-ba6a-d2e99fe27430","system_id":"levelo_inurba_marseille","lat":43.29287,"lon":5.3687,"is_reserved":false,"is_disabled":false,"rental_uris":{"android":"levelo://app?vid=bf023614-6302-4430-ba6a-d2e99fe27430","ios":"levelo://app?vid=bf023614-6302-4430-ba6a-d2e99fe27430"},"vehicle_type_id":"4","last_reported":1699812472,"current_range_meters":0,"station_id":"ce4bgrp2rcd13ifvqc9g","pricing_plan_id":"free"},{"bike_id":"1f2edeec-835f-4188-b75a-b19c37bb1dac","system_id":"levelo_inurba_marseille","lat":43.30109,"lon":5.3894,"is_reserved":false,"is_disabled":false,"rental_uris":{"android":"levelo://app?vid=1f2edeec-835f-4188-b75a-b19c37bb1dac","ios":"levelo://app?vid=1f2edeec-835f-4188-b75a-b19c37bb1dac"},"vehicle_type_id":"4","last_reported":1699812472,"current_range_meters":400,"station_id":"","pricing_plan_id":"free"},{"bike_id":"72fafa24-0cf8-435a-a6c5-a9c4f0ab32f4","system_id":"levelo_inurba_marseille","lat":43.2936,"lon":5.37835,"is_reserved":false,"is_disabled":false,"rental_uris":{"android":"levelo://app?vid=72fafa24-0cf8-435a-a6c5-a9c4f0ab32f4","ios":"levelo://app?vid=72fafa24-0cf8-435a-a6c5-a9c4f0ab32f4"},"vehicle_type_id":"4","last_reported":1699812472,"current_range_meters":0,"station_id":"ce4bgjh2rcd13ifvqbf0","pricing_plan_id":"free"},{"bike_id":"b6bdf97e-81d8-458c-9191-a6f295b5ecca","system_id":"levelo_inurba_marseille","lat":43.303002,"lon":5.392142,"is_reserved":false,"is_disabled":false,"rental_uris":{"android":"levelo://app?vid=b6bdf97e-81d8-458c-9191-a6f295b5ecca","ios":"levelo://app?vid=b6bdf97e-81d8-458c-9191-a6f295b5ecca"},"vehicle_type_id":"4","last_reported":1699812472,"current_range_meters":24400,"station_id":"ce4bgkh2rcd13ifvqbk0","pricing_plan_id":"free"},{"bike_id":"69c2ad7d-ed1e-485d-978d-57c8246c786d","system_id":"levelo_inurba_marseille","lat":43.291675,"lon":5.371583,"is_reserved":false,"is_disabled":false,"rental_uris":{"android":"levelo://app?vid=69c2ad7d-ed1e-485d-978d-57c8246c786d","ios":"levelo://app?vid=69c2ad7d-ed1e-485d-978d-57c8246c786d"},"vehicle_type_id":"4","last_reported":1699812472,"current_range_meters":25600,"station_id":"ce4bha92rcd13ifvqeh0","pricing_plan_id":"free"},{"bike_id":"1e8d923e-c127-4893-b02f-22936d8bc0e8","system_id":"levelo_inurba_marseille","lat":43.298764,"lon":5.388973,"is_reserved":false,"is_disabled":false,"rental_uris":{"android":"levelo://app?vid=1e8d923e-c127-4893-b02f-22936d8bc0e8","ios":"levelo://app?vid=1e8d923e-c127-4893-b02f-22936d8bc0e8"},"vehicle_type_id":"4","last_reported":1699812472,"current_range_meters":21200,"station_id":"ce4bh392rcd13ifvqdl0","pricing_plan_id":"free"},{"bike_id":"74234097-675e-4f0f-9b50-8b8b4b88f743","system_id":"levelo_inurba_marseille","lat":43.291567,"lon":5.37152,"is_reserved":false,"is_disabled":false,"rental_uris":{"android":"levelo://app?vid=74234097-675e-4f0f-9b50-8b8b4b88f743","ios":"levelo://app?vid=74234097-675e-4f0f-9b50-8b8b4b88f743"},"vehicle_type_id":"4","last_reported":1699812472,"current_range_meters":0,"station_id":"ce4bha92rcd13ifvqeh0","pricing_plan_id":"free"},{"bike_id":"ae3c7050-10e8-4269-aefc-94fe3e8b6924","system_id":"levelo_inurba_marseille","lat":43.291994,"lon":5.357886,"is_reserved":false,"is_disabled":false,"rental_uris":{"android":"levelo://app?vid=ae3c7050-10e8-4269-aefc-94fe3e8b6924","ios":"levelo://app?vid=ae3c7050-10e8-4269-aefc-94fe3e8b6924"},"vehicle_type_id":"4","last_reported":1699812472,"current_range_meters":0,"station_id":"ce4bhb12rcd13ifvqel0","pricing_plan_id":"free"},{"bike_id":"c961464a-f7b1-4b66-b99c-2834fb8aaf4e","system_id":"levelo_inurba_marseille","lat":43.313302,"lon":5.396918,"is_reserved":false,"is_disabled":false,"rental_uris":{"android":"levelo://app?vid=c961464a-f7b1-4b66-b99c-2834fb8aaf4e","ios":"levelo://app?vid=c961464a-f7b1-4b66-b99c-2834fb8aaf4e"},"vehicle_type_id":"4","last_reported":1699812472,"current_range_meters":0,"station_id":"ce4bgvp2rcd13ifvqcu0","pricing_plan_id":"free"},{"bike_id":"f2c2fdba-e0d5-4d4d-84b9-094eb56765b1","system_id":"levelo_inurba_marseille","lat":43.309047,"lon":5.396551,"is_reserved":false,"is_disabled":false,"rental_uris":{"android":"levelo://app?vid=f2c2fdba-e0d5-4d4d-84b9-094eb56765b1","ios":"levelo://app?vid=f2c2fdba-e0d5-4d4d-84b9-094eb56765b1"},"vehicle_type_id":"4","last_reported":1699812472,"current_range_meters":20800,"station_id":"ce4bh012rcd13ifvqcv0","pricing_plan_id":"free"},{"bike_id":"6e2d17b6-fc54-4585-985f-8c52808cffcd","system_id":"levelo_inurba_marseille","lat":43.31332,"lon":5.39696,"is_reserved":false,"is_disabled":false,"rental_uris":{"android":"levelo://app?vid=6e2d17b6-fc54-4585-985f-8c52808cffcd","ios":"levelo://app?vid=6e2d17b6-fc54-4585-985f-8c52808cffcd"},"vehicle_type_id":"4","last_reported":1699812472,"current_range_meters":2800,"station_id":"ce4bgvp2rcd13ifvqcu0","pricing_plan_id":"free"},{"bike_id":"35a468d8-0277-4e02-82b1-76d56b639683","system_id":"levelo_inurba_marseille","lat":43.291994,"lon":5.357886,"is_reserved":false,"is_disabled":false,"rental_uris":{"android":"levelo://app?vid=35a468d8-0277-4e02-82b1-76d56b639683","ios":"levelo://app?vid=35a468d8-0277-4e02-82b1-76d56b639683"},"vehicle_type_id":"4","last_reported":1699812472,"current_range_meters":0,"station_id":"ce4bhb12rcd13ifvqel0","pricing_plan_id":"free"},{"bike_id":"6119537c-7ed5-4afe-a587-edac36af6bf3","system_id":"levelo_inurba_marseille","lat":43.31324,"lon":5.39697,"is_reserved":false,"is_disabled":false,"rental_uris":{"android":"levelo://app?vid=6119537c-7ed5-4afe-a587-edac36af6bf3","ios":"levelo://app?vid=6119537c-7ed5-4afe-a587-edac36af6bf3"},"vehicle_type_id":"4","last_reported":1699812472,"current_range_meters":16400,"station_id":"ce4bgvp2rcd13ifvqcu0","pricing_plan_id":"free"},{"bike_id":"d2ea4bab-071c-4d94-ac32-204fb8c4bf71","system_id":"levelo_inurba_marseille","lat":43.309047,"lon":5.396551,"is_reserved":false,"is_disabled":false,"rental_uris":{"android":"levelo://app?vid=d2ea4bab-071c-4d94-ac32-204fb8c4bf71","ios":"levelo://app?vid=d2ea4bab-071c-4d94-ac32-204fb8c4bf71"},"vehicle_type_id":"4","last_reported":1699812472,"current_range_meters":3200,"station_id":"ce4bh012rcd13ifvqcv0","pricing_plan_id":"free"},{"bike_id":"f500a78d-2abf-41f4-8756-7b61eb6362ab","system_id":"levelo_inurba_marseille","lat":43.309038,"lon":5.396546,"is_reserved":false,"is_disabled":false,"rental_uris":{"android":"levelo://app?vid=f500a78d-2abf-41f4-8756-7b61eb6362ab","ios":"levelo://app?vid=f500a78d-2abf-41f4-8756-7b61eb6362ab"},"vehicle_type_id":"4","last_reported":1699812472,"current_range_meters":12400,"station_id":"ce4bh012rcd13ifvqcv0","pricing_plan_id":"free"},{"bike_id":"8742e32a-fd5c-465f-ae32-ce31158b0818","system_id":"levelo_inurba_marseille","lat":43.29539,"lon":5.38548,"is_reserved":false,"is_disabled":false,"rental_uris":{"android":"levelo://app?vid=8742e32a-fd5c-465f-ae32-ce31158b0818","ios":"levelo://app?vid=8742e32a-fd5c-465f-ae32-ce31158b0818"},"vehicle_type_id":"4","last_reported":1699812472,"current_range_meters":0,"station_id":"ce4bgih2rcd13ifvqba0","pricing_plan_id":"free"},{"bike_id":"60f4a98e-e0c1-4d6f-9e02-58ea86728e55","system_id":"levelo_inurba_marseille","lat":43.302008,"lon":5.394694,"is_reserved":false,"is_disabled":false,"rental_uris":{"android":"levelo://app?vid=60f4a98e-e0c1-4d6f-9e02-58ea86728e55","ios":"levelo://app?vid=60f4a98e-e0c1-4d6f-9e02-58ea86728e55"},"vehicle_type_id":"4","last_reported":1699812472,"current_range_meters":22400,"station_id":"ce4bh0p2rcd13ifvqd70","pricing_plan_id":"free"},{"bike_id":"11489e55-2cfe-4776-a5c8-288b6318b0af","system_id":"levelo_inurba_marseille","lat":43.294153,"lon":5.386305,"is_reserved":false,"is_disabled":false,"rental_uris":{"android":"levelo://app?vid=11489e55-2cfe-4776-a5c8-288b6318b0af","ios":"levelo://app?vid=11489e55-2cfe-4776-a5c8-288b6318b0af"},"vehicle_type_id":"4","last_reported":1699812472,"current_range_meters":4800,"station_id":"ce4bh2h2rcd13ifvqdh0","pricing_plan_id":"free"},{"bike_id":"a3ba828a-f59a-4dd0-8c01-38c79368312c","system_id":"levelo_inurba_marseille","lat":43.29418,"lon":5.38623,"is_reserved":false,"is_disabled":false,"rental_uris":{"android":"levelo://app?vid=a3ba828a-f59a-4dd0-8c01-38c79368312c","ios":"levelo://app?vid=a3ba828a-f59a-4dd0-8c01-38c79368312c"},"vehicle_type_id":"4","last_reported":1699812472,"current_range_meters":30000,"station_id":"ce4bh2h2rcd13ifvqdh0","pricing_plan_id":"free"},{"bike_id":"a3bda608-c8f5-4224-928a-acf50829a629","system_id":"levelo_inurba_marseille","lat":43.29419,"lon":5.38632,"is_reserved":false,"is_disabled":false,"rental_uris":{"android":"levelo://app?vid=a3bda608-c8f5-4224-928a-acf50829a629","ios":"levelo://app?vid=a3bda608-c8f5-4224-928a-acf50829a629"},"vehicle_type_id":"4","last_reported":1699812472,"current_range_meters":12400,"station_id":"ce4bh2h2rcd13ifvqdh0","pricing_plan_id":"free"},{"bike_id":"2d0c1cec-3eba-43d5-aa81-301c176ab6d1","system_id":"levelo_inurba_marseille","lat":43.29418,"lon":5.38632,"is_reserved":false,"is_disabled":false,"rental_uris":{"android":"levelo://app?vid=2d0c1cec-3eba-43d5-aa81-301c176ab6d1","ios":"levelo://app?vid=2d0c1cec-3eba-43d5-aa81-301c176ab6d1"},"vehicle_type_id":"4","last_reported":1699812472,"current_range_meters":400,"station_id":"ce4bh2h2rcd13ifvqdh0","pricing_plan_id":"free"},{"bike_id":"5551b079-3b54-41e5-9771-7e7abc176e58","system_id":"levelo_inurba_marseille","lat":43.292642,"lon":5.384254,"is_reserved":false,"is_disabled":false,"rental_uris":{"android":"levelo://app?vid=5551b079-3b54-41e5-9771-7e7abc176e58","ios":"levelo://app?vid=5551b079-3b54-41e5-9771-7e7abc176e58"},"vehicle_type_id":"4","last_reported":1699812472,"current_range_meters":17600,"station_id":"ce4bh692rcd13ifvqea0","pricing_plan_id":"free"},{"bike_id":"63ef5b64-3751-4d89-8ac9-b07ba9e312a9","system_id":"levelo_inurba_marseille","lat":43.29288,"lon":5.38474,"is_reserved":false,"is_disabled":false,"rental_uris":{"android":"levelo://app?vid=63ef5b64-3751-4d89-8ac9-b07ba9e312a9","ios":"levelo://app?vid=63ef5b64-3751-4d89-8ac9-b07ba9e312a9"},"vehicle_type_id":"4","last_reported":1699812472,"current_range_meters":3200,"station_id":"","pricing_plan_id":"free"},{"bike_id":"db75065d-7417-4a21-b2ff-b1e87bfa3463","system_id":"levelo_inurba_marseille","lat":43.292642,"lon":5.384254,"is_reserved":false,"is_disabled":false,"rental_uris":{"android":"levelo://app?vid=db75065d-7417-4a21-b2ff-b1e87bfa3463","ios":"levelo://app?vid=db75065d-7417-4a21-b2ff-b1e87bfa3463"},"vehicle_type_id":"4","last_reported":1699812472,"current_range_meters":24000,"station_id":"ce4bh692rcd13ifvqea0","pricing_plan_id":"free"},{"bike_id":"10029093-242b-4aaf-a96b-871953b58f8c","system_id":"levelo_inurba_marseille","lat":43.29269,"lon":5.3845,"is_reserved":false,"is_disabled":false,"rental_uris":{"android":"levelo://app?vid=10029093-242b-4aaf-a96b-871953b58f8c","ios":"levelo://app?vid=10029093-242b-4aaf-a96b-871953b58f8c"},"vehicle_type_id":"4","last_reported":1699812472,"current_range_meters":0,"station_id":"ce4bh692rcd13ifvqea0","pricing_plan_id":"free"},{"bike_id":"92fbaedb-8f42-484d-804e-b69a3a21903c","system_id":"levelo_inurba_marseille","lat":43.289048,"lon":5.373034,"is_reserved":false,"is_disabled":false,"rental_uris":{"android":"levelo://app?vid=92fbaedb-8f42-484d-804e-b69a3a21903c","ios":"levelo://app?vid=92fbaedb-8f42-484d-804e-b69a3a21903c"},"vehicle_type_id":"4","last_reported":1699812472,"current_range_meters":0,"station_id":"","pricing_plan_id":"free"},{"bike_id":"875c9b3f-3d80-42ba-8c60-f226d3a63376","system_id":"levelo_inurba_marseille","lat":43.29788,"lon":5.39339,"is_reserved":false,"is_disabled":false,"rental_uris":{"android":"levelo://app?vid=875c9b3f-3d80-42ba-8c60-f226d3a63376","ios":"levelo://app?vid=875c9b3f-3d80-42ba-8c60-f226d3a63376"},"vehicle_type_id":"4","last_reported":1699812472,"current_range_meters":20800,"station_id":"chh1huq6cuj3fo74tm60","pricing_plan_id":"free"},{"bike_id":"3b387f6c-c64f-469d-b58b-27dceef0774b","system_id":"levelo_inurba_marseille","lat":43.29777,"lon":5.393437,"is_reserved":false,"is_disabled":false,"rental_uris":{"android":"levelo://app?vid=3b387f6c-c64f-469d-b58b-27dceef0774b","ios":"levelo://app?vid=3b387f6c-c64f-469d-b58b-27dceef0774b"},"vehicle_type_id":"4","last_reported":1699812472,"current_range_meters":14000,"station_id":"chh1huq6cuj3fo74tm60","pricing_plan_id":"free"},{"bike_id":"087289b7-f0c7-42e5-8c6c-75e508ee93b4","system_id":"levelo_inurba_marseille","lat":43.295169,"lon":5.390426,"is_reserved":false,"is_disabled":false,"rental_uris":{"android":"levelo://app?vid=087289b7-f0c7-42e5-8c6c-75e508ee93b4","ios":"levelo://app?vid=087289b7-f0c7-42e5-8c6c-75e508ee93b4"},"vehicle_type_id":"4","last_reported":1699812472,"current_range_meters":14000,"station_id":"ce4bh3p2rcd13ifvqdp0","pricing_plan_id":"free"},{"bike_id":"b90799c1-a359-441e-84bb-2b07ca968d67","system_id":"levelo_inurba_marseille","lat":43.29773,"lon":5.39343,"is_reserved":false,"is_disabled":false,"rental_uris":{"android":"levelo://app?vid=b90799c1-a359-441e-84bb-2b07ca968d67","ios":"levelo://app?vid=b90799c1-a359-441e-84bb-2b07ca968d67"},"vehicle_type_id":"4","last_reported":1699812472,"current_range_meters":2800,"station_id":"chh1huq6cuj3fo74tm60","pricing_plan_id":"free"},{"bike_id":"5bee7262-6d01-4896-9ae2-05d3410ba866","system_id":"levelo_inurba_marseille","lat":43.295169,"lon":5.390426,"is_reserved":false,"is_disabled":false,"rental_uris":{"android":"levelo://app?vid=5bee7262-6d01-4896-9ae2-05d3410ba866","ios":"levelo://app?vid=5bee7262-6d01-4896-9ae2-05d3410ba866"},"vehicle_type_id":"4","last_reported":1699812472,"current_range_meters":21200,"station_id":"ce4bh3p2rcd13ifvqdp0","pricing_plan_id":"free"},{"bike_id":"7a1356b5-2437-4bfa-bb34-cf55b7f00bb1","system_id":"levelo_inurba_marseille","lat":43.33063,"lon":5.39051,"is_reserved":false,"is_disabled":false,"rental_uris":{"android":"levelo://app?vid=7a1356b5-2437-4bfa-bb34-cf55b7f00bb1","ios":"levelo://app?vid=7a1356b5-2437-4bfa-bb34-cf55b7f00bb1"},"vehicle_type_id":"4","last_reported":1699812472,"current_range_meters":10000,"station_id":"","pricing_plan_id":"free"},{"bike_id":"587e0bb6-dc5f-485a-a79b-b33f3304f55f","system_id":"levelo_inurba_marseille","lat":43.30937,"lon":5.401463,"is_reserved":false,"is_disabled":false,"rental_uris":{"android":"levelo://app?vid=587e0bb6-dc5f-485a-a79b-b33f3304f55f","ios":"levelo://app?vid=587e0bb6-dc5f-485a-a79b-b33f3304f55f"},"vehicle_type_id":"4","last_reported":1699812472,"current_range_meters":7200,"station_id":"ce4bgvp2rcd13ifvqct0","pricing_plan_id":"free"},{"bike_id":"8d13623c-ee6a-453d-952b-3254e6c69762","system_id":"levelo_inurba_marseille","lat":43.30634,"lon":5.4007,"is_reserved":false,"is_disabled":false,"rental_uris":{"android":"levelo://app?vid=8d13623c-ee6a-453d-952b-3254e6c69762","ios":"levelo://app?vid=8d13623c-ee6a-453d-952b-3254e6c69762"},"vehicle_type_id":"4","last_reported":1699812472,"current_range_meters":22800,"station_id":"ce4bh112rcd13ifvqda0","pricing_plan_id":"free"},{"bike_id":"de86e3d1-a596-40c7-ba28-8077c5a08266","system_id":"levelo_inurba_marseille","lat":43.33763,"lon":5.37491,"is_reserved":false,"is_disabled":false,"rental_uris":{"android":"levelo://app?vid=de86e3d1-a596-40c7-ba28-8077c5a08266","ios":"levelo://app?vid=de86e3d1-a596-40c7-ba28-8077c5a08266"},"vehicle_type_id":"4","last_reported":1699812472,"current_range_meters":28000,"station_id":"","pricing_plan_id":"free"},{"bike_id":"49348f7d-e816-4aa7-b2a4-db487b99990d","system_id":"levelo_inurba_marseille","lat":43.30642,"lon":5.401031,"is_reserved":false,"is_disabled":false,"rental_uris":{"android":"levelo://app?vid=49348f7d-e816-4aa7-b2a4-db487b99990d","ios":"levelo://app?vid=49348f7d-e816-4aa7-b2a4-db487b99990d"},"vehicle_type_id":"4","last_reported":1699812472,"current_range_meters":10000,"station_id":"ce4bh112rcd13ifvqda0","pricing_plan_id":"free"},{"bike_id":"97300791-bff7-47de-b884-227008335f65","system_id":"levelo_inurba_marseille","lat":43.28748,"lon":5.37295,"is_reserved":false,"is_disabled":false,"rental_uris":{"android":"levelo://app?vid=97300791-bff7-47de-b884-227008335f65","ios":"levelo://app?vid=97300791-bff7-47de-b884-227008335f65"},"vehicle_type_id":"4","last_reported":1699812472,"current_range_meters":22400,"station_id":"ce4bh412rcd13ifvqds0","pricing_plan_id":"free"},{"bike_id":"743f3bc5-43c9-45a3-8965-b67b169c6c30","system_id":"levelo_inurba_marseille","lat":43.30513,"lon":5.40077,"is_reserved":false,"is_disabled":false,"rental_uris":{"android":"levelo://app?vid=743f3bc5-43c9-45a3-8965-b67b169c6c30","ios":"levelo://app?vid=743f3bc5-43c9-45a3-8965-b67b169c6c30"},"vehicle_type_id":"4","last_reported":1699812472,"current_range_meters":6400,"station_id":"","pricing_plan_id":"free"},{"bike_id":"a8a9a978-d64a-40a7-9cc4-aacd004ff9da","system_id":"levelo_inurba_marseille","lat":43.298681,"lon":5.397225,"is_reserved":false,"is_disabled":false,"rental_uris":{"android":"levelo://app?vid=a8a9a978-d64a-40a7-9cc4-aacd004ff9da","ios":"levelo://app?vid=a8a9a978-d64a-40a7-9cc4-aacd004ff9da"},"vehicle_type_id":"4","last_reported":1699812472,"current_range_meters":6400,"station_id":"ce4bh0h2rcd13ifvqd50","pricing_plan_id":"free"},{"bike_id":"b4ddb847-f98a-45b1-b16d-b68779bb87bd","system_id":"levelo_inurba_marseille","lat":43.302759,"lon":5.400793,"is_reserved":false,"is_disabled":false,"rental_uris":{"android":"levelo://app?vid=b4ddb847-f98a-45b1-b16d-b68779bb87bd","ios":"levelo://app?vid=b4ddb847-f98a-45b1-b16d-b68779bb87bd"},"vehicle_type_id":"4","last_reported":1699812472,"current_range_meters":3600,"station_id":"ce4bgvh2rcd13ifvqcs0","pricing_plan_id":"free"},{"bike_id":"71d4e9c2-b4e1-4bd0-a72d-92e18a0fa9e1","system_id":"levelo_inurba_marseille","lat":43.286961,"lon":5.373785,"is_reserved":false,"is_disabled":false,"rental_uris":{"android":"levelo://app?vid=71d4e9c2-b4e1-4bd0-a72d-92e18a0fa9e1","ios":"levelo://app?vid=71d4e9c2-b4e1-4bd0-a72d-92e18a0fa9e1"},"vehicle_type_id":"4","last_reported":1699812472,"current_range_meters":6000,"station_id":"ce4bh3p2rcd13ifvqdq0","pricing_plan_id":"free"},{"bike_id":"936fe6cf-de8a-4ee0-8cbc-cd3a62f674e1","system_id":"levelo_inurba_marseille","lat":43.2954,"lon":5.39404,"is_reserved":false,"is_disabled":false,"rental_uris":{"android":"levelo://app?vid=936fe6cf-de8a-4ee0-8cbc-cd3a62f674e1","ios":"levelo://app?vid=936fe6cf-de8a-4ee0-8cbc-cd3a62f674e1"},"vehicle_type_id":"4","last_reported":1699812472,"current_range_meters":20800,"station_id":"ce4bh292rcd13ifvqdf0","pricing_plan_id":"free"},{"bike_id":"2d04f7c9-7a7c-440b-8375-b6eeaa38f934","system_id":"levelo_inurba_marseille","lat":43.298681,"lon":5.397225,"is_reserved":false,"is_disabled":false,"rental_uris":{"android":"levelo://app?vid=2d04f7c9-7a7c-440b-8375-b6eeaa38f934","ios":"levelo://app?vid=2d04f7c9-7a7c-440b-8375-b6eeaa38f934"},"vehicle_type_id":"4","last_reported":1699812472,"current_range_meters":6000,"station_id":"ce4bh0h2rcd13ifvqd50","pricing_plan_id":"free"},{"bike_id":"be8334cf-bb02-4f58-b3c3-30b111166daf","system_id":"levelo_inurba_marseille","lat":43.295194,"lon":5.39397,"is_reserved":false,"is_disabled":false,"rental_uris":{"android":"levelo://app?vid=be8334cf-bb02-4f58-b3c3-30b111166daf","ios":"levelo://app?vid=be8334cf-bb02-4f58-b3c3-30b111166daf"},"vehicle_type_id":"4","last_reported":1699812472,"current_range_meters":22400,"station_id":"ce4bh292rcd13ifvqdf0","pricing_plan_id":"free"},{"bike_id":"93d3f195-7f39-41dd-8d19-ef89b7eb61e2","system_id":"levelo_inurba_marseille","lat":43.295196,"lon":5.39397,"is_reserved":false,"is_disabled":false,"rental_uris":{"android":"levelo://app?vid=93d3f195-7f39-41dd-8d19-ef89b7eb61e2","ios":"levelo://app?vid=93d3f195-7f39-41dd-8d19-ef89b7eb61e2"},"vehicle_type_id":"4","last_reported":1699812472,"current_range_meters":19600,"station_id":"ce4bh292rcd13ifvqdf0","pricing_plan_id":"free"},{"bike_id":"ede50cd7-ef63-4386-a175-4dcd7a63b104","system_id":"levelo_inurba_marseille","lat":43.29524,"lon":5.39408,"is_reserved":false,"is_disabled":false,"rental_uris":{"android":"levelo://app?vid=ede50cd7-ef63-4386-a175-4dcd7a63b104","ios":"levelo://app?vid=ede50cd7-ef63-4386-a175-4dcd7a63b104"},"vehicle_type_id":"4","last_reported":1699812472,"current_range_meters":12800,"station_id":"ce4bh292rcd13ifvqdf0","pricing_plan_id":"free"},{"bike_id":"721856e8-4ce0-4ba4-b6b3-d1505310bd9e","system_id":"levelo_inurba_marseille","lat":43.295169,"lon":5.39408,"is_reserved":false,"is_disabled":false,"rental_uris":{"android":"levelo://app?vid=721856e8-4ce0-4ba4-b6b3-d1505310bd9e","ios":"levelo://app?vid=721856e8-4ce0-4ba4-b6b3-d1505310bd9e"},"vehicle_type_id":"4","last_reported":1699812472,"current_range_meters":3600,"station_id":"ce4bh292rcd13ifvqdf0","pricing_plan_id":"free"},{"bike_id":"361c41d0-b6bb-4a15-801f-c203b1ebb618","system_id":"levelo_inurba_marseille","lat":43.29033,"lon":5.38648,"is_reserved":false,"is_disabled":false,"rental_uris":{"android":"levelo://app?vid=361c41d0-b6bb-4a15-801f-c203b1ebb618","ios":"levelo://app?vid=361c41d0-b6bb-4a15-801f-c203b1ebb618"},"vehicle_type_id":"4","last_reported":1699812472,"current_range_meters":27600,"station_id":"ce4bh4p2rcd13ifvqe0g","pricing_plan_id":"free"},{"bike_id":"168c9d55-9315-40eb-9880-5557ab692c5e","system_id":"levelo_inurba_marseille","lat":43.2903,"lon":5.386433,"is_reserved":false,"is_disabled":false,"rental_uris":{"android":"levelo://app?vid=168c9d55-9315-40eb-9880-5557ab692c5e","ios":"levelo://app?vid=168c9d55-9315-40eb-9880-5557ab692c5e"},"vehicle_type_id":"4","last_reported":1699812472,"current_range_meters":26800,"station_id":"","pricing_plan_id":"free"},{"bike_id":"0815ad30-f8f1-4dca-a3d3-95e79c76e60b","system_id":"levelo_inurba_marseille","lat":43.29031,"lon":5.38652,"is_reserved":false,"is_disabled":false,"rental_uris":{"android":"levelo://app?vid=0815ad30-f8f1-4dca-a3d3-95e79c76e60b","ios":"levelo://app?vid=0815ad30-f8f1-4dca-a3d3-95e79c76e60b"},"vehicle_type_id":"4","last_reported":1699812472,"current_range_meters":3200,"station_id":"ce4bh4p2rcd13ifvqe0g","pricing_plan_id":"free"},{"bike_id":"35227aa4-e441-4c4b-8dfb-a38a0e1180e2","system_id":"levelo_inurba_marseille","lat":43.302463,"lon":5.40082,"is_reserved":false,"is_disabled":false,"rental_uris":{"android":"levelo://app?vid=35227aa4-e441-4c4b-8dfb-a38a0e1180e2","ios":"levelo://app?vid=35227aa4-e441-4c4b-8dfb-a38a0e1180e2"},"vehicle_type_id":"4","last_reported":1699812472,"current_range_meters":20400,"station_id":"ce4bgvh2rcd13ifvqcs0","pricing_plan_id":"free"},{"bike_id":"e659cab2-2f55-4a7b-98c3-2c2bc90ca900","system_id":"levelo_inurba_marseille","lat":43.316517,"lon":5.404375,"is_reserved":false,"is_disabled":false,"rental_uris":{"android":"levelo://app?vid=e659cab2-2f55-4a7b-98c3-2c2bc90ca900","ios":"levelo://app?vid=e659cab2-2f55-4a7b-98c3-2c2bc90ca900"},"vehicle_type_id":"4","last_reported":1699812472,"current_range_meters":0,"station_id":"ce4bh012rcd13ifvqd00","pricing_plan_id":"free"},{"bike_id":"b631772a-6856-4dcd-80e8-7fc650467073","system_id":"levelo_inurba_marseille","lat":43.29469,"lon":5.39578,"is_reserved":false,"is_disabled":false,"rental_uris":{"android":"levelo://app?vid=b631772a-6856-4dcd-80e8-7fc650467073","ios":"levelo://app?vid=b631772a-6856-4dcd-80e8-7fc650467073"},"vehicle_type_id":"4","last_reported":1699812472,"current_range_meters":24000,"station_id":"","pricing_plan_id":"free"},{"bike_id":"e57449c2-d088-47cf-8bf2-271593713c89","system_id":"levelo_inurba_marseille","lat":43.328576,"lon":5.398841,"is_reserved":false,"is_disabled":false,"rental_uris":{"android":"levelo://app?vid=e57449c2-d088-47cf-8bf2-271593713c89","ios":"levelo://app?vid=e57449c2-d088-47cf-8bf2-271593713c89"},"vehicle_type_id":"4","last_reported":1699812472,"current_range_meters":3600,"station_id":"","pricing_plan_id":"free"},{"bike_id":"83560df4-75f7-418f-b206-e0d14a668e28","system_id":"levelo_inurba_marseille","lat":43.291994,"lon":5.392907,"is_reserved":false,"is_disabled":false,"rental_uris":{"android":"levelo://app?vid=83560df4-75f7-418f-b206-e0d14a668e28","ios":"levelo://app?vid=83560df4-75f7-418f-b206-e0d14a668e28"},"vehicle_type_id":"4","last_reported":1699812472,"current_range_meters":23200,"station_id":"ce4bh192rcd13ifvqdd0","pricing_plan_id":"free"},{"bike_id":"8b602db7-3933-4e4f-af07-3532eae594f1","system_id":"levelo_inurba_marseille","lat":43.291994,"lon":5.392907,"is_reserved":false,"is_disabled":false,"rental_uris":{"android":"levelo://app?vid=8b602db7-3933-4e4f-af07-3532eae594f1","ios":"levelo://app?vid=8b602db7-3933-4e4f-af07-3532eae594f1"},"vehicle_type_id":"4","last_reported":1699812472,"current_range_meters":15200,"station_id":"ce4bh192rcd13ifvqdd0","pricing_plan_id":"free"},{"bike_id":"6ae3fbea-bb25-44ba-8565-7485fa98bcb5","system_id":"levelo_inurba_marseille","lat":43.291994,"lon":5.392907,"is_reserved":false,"is_disabled":false,"rental_uris":{"android":"levelo://app?vid=6ae3fbea-bb25-44ba-8565-7485fa98bcb5","ios":"levelo://app?vid=6ae3fbea-bb25-44ba-8565-7485fa98bcb5"},"vehicle_type_id":"4","last_reported":1699812472,"current_range_meters":31200,"station_id":"ce4bh192rcd13ifvqdd0","pricing_plan_id":"free"},{"bike_id":"8877a0e5-7744-4cbc-b06d-7058ad273f7b","system_id":"levelo_inurba_marseille","lat":43.291994,"lon":5.392907,"is_reserved":false,"is_disabled":false,"rental_uris":{"android":"levelo://app?vid=8877a0e5-7744-4cbc-b06d-7058ad273f7b","ios":"levelo://app?vid=8877a0e5-7744-4cbc-b06d-7058ad273f7b"},"vehicle_type_id":"4","last_reported":1699812472,"current_range_meters":13200,"station_id":"ce4bh192rcd13ifvqdd0","pricing_plan_id":"free"},{"bike_id":"b682f943-acd3-4dfb-8bc9-a74afa713320","system_id":"levelo_inurba_marseille","lat":43.291994,"lon":5.392907,"is_reserved":false,"is_disabled":false,"rental_uris":{"android":"levelo://app?vid=b682f943-acd3-4dfb-8bc9-a74afa713320","ios":"levelo://app?vid=b682f943-acd3-4dfb-8bc9-a74afa713320"},"vehicle_type_id":"4","last_reported":1699812472,"current_range_meters":26800,"station_id":"ce4bh192rcd13ifvqdd0","pricing_plan_id":"free"},{"bike_id":"f5b63e54-9f9a-4b40-91cd-975b43cbd44f","system_id":"levelo_inurba_marseille","lat":43.284534,"lon":5.358662,"is_reserved":false,"is_disabled":false,"rental_uris":{"android":"levelo://app?vid=f5b63e54-9f9a-4b40-91cd-975b43cbd44f","ios":"levelo://app?vid=f5b63e54-9f9a-4b40-91cd-975b43cbd44f"},"vehicle_type_id":"4","last_reported":1699812472,"current_range_meters":22400,"station_id":"ce4bhah2rcd13ifvqei0","pricing_plan_id":"free"},{"bike_id":"b860e289-9987-494c-ae7c-05309f444201","system_id":"levelo_inurba_marseille","lat":43.28457,"lon":5.35895,"is_reserved":false,"is_disabled":false,"rental_uris":{"android":"levelo://app?vid=b860e289-9987-494c-ae7c-05309f444201","ios":"levelo://app?vid=b860e289-9987-494c-ae7c-05309f444201"},"vehicle_type_id":"4","last_reported":1699812472,"current_range_meters":0,"station_id":"ce4bhah2rcd13ifvqei0","pricing_plan_id":"free"},{"bike_id":"12324aa6-b04a-4963-9dbc-c674d7ae9540","system_id":"levelo_inurba_marseille","lat":43.284534,"lon":5.358662,"is_reserved":false,"is_disabled":false,"rental_uris":{"android":"levelo://app?vid=12324aa6-b04a-4963-9dbc-c674d7ae9540","ios":"levelo://app?vid=12324aa6-b04a-4963-9dbc-c674d7ae9540"},"vehicle_type_id":"4","last_reported":1699812472,"current_range_meters":14800,"station_id":"ce4bhah2rcd13ifvqei0","pricing_plan_id":"free"},{"bike_id":"80ca3cd1-fef5-43fc-a51b-b5adabfaf49b","system_id":"levelo_inurba_marseille","lat":43.284099,"lon":5.37518,"is_reserved":false,"is_disabled":false,"rental_uris":{"android":"levelo://app?vid=80ca3cd1-fef5-43fc-a51b-b5adabfaf49b","ios":"levelo://app?vid=80ca3cd1-fef5-43fc-a51b-b5adabfaf49b"},"vehicle_type_id":"4","last_reported":1699812472,"current_range_meters":19600,"station_id":"ce4bh412rcd13ifvqds0","pricing_plan_id":"free"},{"bike_id":"a201f6ea-f7c3-418f-8f6e-023141d291ff","system_id":"levelo_inurba_marseille","lat":43.295713,"lon":5.399639,"is_reserved":false,"is_disabled":false,"rental_uris":{"android":"levelo://app?vid=a201f6ea-f7c3-418f-8f6e-023141d291ff","ios":"levelo://app?vid=a201f6ea-f7c3-418f-8f6e-023141d291ff"},"vehicle_type_id":"4","last_reported":1699812472,"current_range_meters":0,"station_id":"ce4bh312rcd13ifvqdj0","pricing_plan_id":"free"},{"bike_id":"9cda51ca-4271-4838-afd4-5eba6976ea8f","system_id":"levelo_inurba_marseille","lat":43.295713,"lon":5.399639,"is_reserved":false,"is_disabled":false,"rental_uris":{"android":"levelo://app?vid=9cda51ca-4271-4838-afd4-5eba6976ea8f","ios":"levelo://app?vid=9cda51ca-4271-4838-afd4-5eba6976ea8f"},"vehicle_type_id":"4","last_reported":1699812472,"current_range_meters":19200,"station_id":"ce4bh312rcd13ifvqdj0","pricing_plan_id":"free"},{"bike_id":"30fd16a0-b389-4e56-9f91-5e55299e9b42","system_id":"levelo_inurba_marseille","lat":43.295713,"lon":5.399639,"is_reserved":false,"is_disabled":false,"rental_uris":{"android":"levelo://app?vid=30fd16a0-b389-4e56-9f91-5e55299e9b42","ios":"levelo://app?vid=30fd16a0-b389-4e56-9f91-5e55299e9b42"},"vehicle_type_id":"4","last_reported":1699812472,"current_range_meters":8800,"station_id":"ce4bh312rcd13ifvqdj0","pricing_plan_id":"free"},{"bike_id":"ecb95946-319b-4153-a15f-13ed42b5719c","system_id":"levelo_inurba_marseille","lat":43.286595,"lon":5.386795,"is_reserved":false,"is_disabled":false,"rental_uris":{"android":"levelo://app?vid=ecb95946-319b-4153-a15f-13ed42b5719c","ios":"levelo://app?vid=ecb95946-319b-4153-a15f-13ed42b5719c"},"vehicle_type_id":"4","last_reported":1699812472,"current_range_meters":7200,"station_id":"ce4bh492rcd13ifvqdug","pricing_plan_id":"free"},{"bike_id":"030625bd-f8ba-4389-9944-df2973894a22","system_id":"levelo_inurba_marseille","lat":43.325731,"lon":5.404186,"is_reserved":false,"is_disabled":false,"rental_uris":{"android":"levelo://app?vid=030625bd-f8ba-4389-9944-df2973894a22","ios":"levelo://app?vid=030625bd-f8ba-4389-9944-df2973894a22"},"vehicle_type_id":"4","last_reported":1699812472,"current_range_meters":0,"station_id":"","pricing_plan_id":"free"},{"bike_id":"fd4453ca-443e-40fb-8cb1-027f379fdf21","system_id":"levelo_inurba_marseille","lat":43.33717,"lon":5.391857,"is_reserved":false,"is_disabled":false,"rental_uris":{"android":"levelo://app?vid=fd4453ca-443e-40fb-8cb1-027f379fdf21","ios":"levelo://app?vid=fd4453ca-443e-40fb-8cb1-027f379fdf21"},"vehicle_type_id":"4","last_reported":1699812472,"current_range_meters":29600,"station_id":"ce4bhr92rcd13ifvqhsg","pricing_plan_id":"free"},{"bike_id":"dcdaa1e1-4909-46b4-8da4-f2b0beba29ce","system_id":"levelo_inurba_marseille","lat":43.32342,"lon":5.40617,"is_reserved":false,"is_disabled":false,"rental_uris":{"android":"levelo://app?vid=dcdaa1e1-4909-46b4-8da4-f2b0beba29ce","ios":"levelo://app?vid=dcdaa1e1-4909-46b4-8da4-f2b0beba29ce"},"vehicle_type_id":"4","last_reported":1699812472,"current_range_meters":0,"station_id":"ce4bhq92rcd13ifvqhjg","pricing_plan_id":"free"},{"bike_id":"177dc2c9-5e80-48c3-ad77-6366ff2e10bb","system_id":"levelo_inurba_marseille","lat":43.284793,"lon":5.384119,"is_reserved":false,"is_disabled":false,"rental_uris":{"android":"levelo://app?vid=177dc2c9-5e80-48c3-ad77-6366ff2e10bb","ios":"levelo://app?vid=177dc2c9-5e80-48c3-ad77-6366ff2e10bb"},"vehicle_type_id":"4","last_reported":1699812472,"current_range_meters":2800,"station_id":"ce4bh512rcd13ifvqe3g","pricing_plan_id":"free"},{"bike_id":"a18ff10d-80b5-4527-9c0f-149663d36b04","system_id":"levelo_inurba_marseille","lat":43.28863,"lon":5.39318,"is_reserved":false,"is_disabled":false,"rental_uris":{"android":"levelo://app?vid=a18ff10d-80b5-4527-9c0f-149663d36b04","ios":"levelo://app?vid=a18ff10d-80b5-4527-9c0f-149663d36b04"},"vehicle_type_id":"4","last_reported":1699812472,"current_range_meters":0,"station_id":"ce4bh2p2rcd13ifvqdi0","pricing_plan_id":"free"},{"bike_id":"37d6c588-58e0-410d-86c2-654b9f29e009","system_id":"levelo_inurba_marseille","lat":43.283494,"lon":5.380945,"is_reserved":false,"is_disabled":false,"rental_uris":{"android":"levelo://app?vid=37d6c588-58e0-410d-86c2-654b9f29e009","ios":"levelo://app?vid=37d6c588-58e0-410d-86c2-654b9f29e009"},"vehicle_type_id":"4","last_reported":1699812472,"current_range_meters":0,"station_id":"ce4bh412rcd13ifvqdr0","pricing_plan_id":"free"},{"bike_id":"963d29c7-852f-4749-a1b2-7a155f48c32f","system_id":"levelo_inurba_marseille","lat":43.283494,"lon":5.380945,"is_reserved":false,"is_disabled":false,"rental_uris":{"android":"levelo://app?vid=963d29c7-852f-4749-a1b2-7a155f48c32f","ios":"levelo://app?vid=963d29c7-852f-4749-a1b2-7a155f48c32f"},"vehicle_type_id":"4","last_reported":1699812472,"current_range_meters":18800,"station_id":"ce4bh412rcd13ifvqdr0","pricing_plan_id":"free"},{"bike_id":"694cc18d-6823-481a-9d09-67d990c2d197","system_id":"levelo_inurba_marseille","lat":43.324289,"lon":5.407562,"is_reserved":false,"is_disabled":false,"rental_uris":{"android":"levelo://app?vid=694cc18d-6823-481a-9d09-67d990c2d197","ios":"levelo://app?vid=694cc18d-6823-481a-9d09-67d990c2d197"},"vehicle_type_id":"4","last_reported":1699812472,"current_range_meters":0,"station_id":"","pricing_plan_id":"free"},{"bike_id":"acc773b2-7934-474b-9479-9483cccb7540","system_id":"levelo_inurba_marseille","lat":43.29271,"lon":5.401167,"is_reserved":false,"is_disabled":false,"rental_uris":{"android":"levelo://app?vid=acc773b2-7934-474b-9479-9483cccb7540","ios":"levelo://app?vid=acc773b2-7934-474b-9479-9483cccb7540"},"vehicle_type_id":"4","last_reported":1699812472,"current_range_meters":0,"station_id":"ce4bh312rcd13ifvqdk0","pricing_plan_id":"free"},{"bike_id":"80338fbd-6c9a-4474-801e-76432aa81b56","system_id":"levelo_inurba_marseille","lat":43.29269,"lon":5.40119,"is_reserved":false,"is_disabled":false,"rental_uris":{"android":"levelo://app?vid=80338fbd-6c9a-4474-801e-76432aa81b56","ios":"levelo://app?vid=80338fbd-6c9a-4474-801e-76432aa81b56"},"vehicle_type_id":"4","last_reported":1699812472,"current_range_meters":0,"station_id":"ce4bh312rcd13ifvqdk0","pricing_plan_id":"free"},{"bike_id":"3c1d2216-dc25-4ca9-9467-a8aa53c1dc34","system_id":"levelo_inurba_marseille","lat":43.33807,"lon":5.39385,"is_reserved":false,"is_disabled":false,"rental_uris":{"android":"levelo://app?vid=3c1d2216-dc25-4ca9-9467-a8aa53c1dc34","ios":"levelo://app?vid=3c1d2216-dc25-4ca9-9467-a8aa53c1dc34"},"vehicle_type_id":"4","last_reported":1699812472,"current_range_meters":29600,"station_id":"","pricing_plan_id":"free"},{"bike_id":"5a53e800-c91c-4883-8d5a-0b6d2df23bd7","system_id":"levelo_inurba_marseille","lat":43.282754,"lon":5.350519,"is_reserved":false,"is_disabled":false,"rental_uris":{"android":"levelo://app?vid=5a53e800-c91c-4883-8d5a-0b6d2df23bd7","ios":"levelo://app?vid=5a53e800-c91c-4883-8d5a-0b6d2df23bd7"},"vehicle_type_id":"4","last_reported":1699812472,"current_range_meters":19600,"station_id":"ce4bhbp2rcd13ifvqerg","pricing_plan_id":"free"},{"bike_id":"d0b19145-fdda-4a29-964b-5dd2eed6d719","system_id":"levelo_inurba_marseille","lat":43.283502,"lon":5.386471,"is_reserved":false,"is_disabled":false,"rental_uris":{"android":"levelo://app?vid=d0b19145-fdda-4a29-964b-5dd2eed6d719","ios":"levelo://app?vid=d0b19145-fdda-4a29-964b-5dd2eed6d719"},"vehicle_type_id":"4","last_reported":1699812472,"current_range_meters":6400,"station_id":"ce4bh492rcd13ifvqdvg","pricing_plan_id":"free"},{"bike_id":"3e7a424f-7a9c-4abb-9809-b22b7112b800","system_id":"levelo_inurba_marseille","lat":43.28039,"lon":5.369297,"is_reserved":false,"is_disabled":false,"rental_uris":{"android":"levelo://app?vid=3e7a424f-7a9c-4abb-9809-b22b7112b800","ios":"levelo://app?vid=3e7a424f-7a9c-4abb-9809-b22b7112b800"},"vehicle_type_id":"4","last_reported":1699812472,"current_range_meters":25600,"station_id":"ce4bha12rcd13ifvqef0","pricing_plan_id":"free"},{"bike_id":"22d4eca9-d1d4-4f41-a0d3-bf612cb95de0","system_id":"levelo_inurba_marseille","lat":43.29041,"lon":5.399634,"is_reserved":false,"is_disabled":false,"rental_uris":{"android":"levelo://app?vid=22d4eca9-d1d4-4f41-a0d3-bf612cb95de0","ios":"levelo://app?vid=22d4eca9-d1d4-4f41-a0d3-bf612cb95de0"},"vehicle_type_id":"4","last_reported":1699812472,"current_range_meters":15200,"station_id":"ce4bh392rcd13ifvqdm0","pricing_plan_id":"free"},{"bike_id":"2d93e3ad-4f91-4709-9f87-d447ebb78ec3","system_id":"levelo_inurba_marseille","lat":43.28102,"lon":5.37844,"is_reserved":false,"is_disabled":false,"rental_uris":{"android":"levelo://app?vid=2d93e3ad-4f91-4709-9f87-d447ebb78ec3","ios":"levelo://app?vid=2d93e3ad-4f91-4709-9f87-d447ebb78ec3"},"vehicle_type_id":"4","last_reported":1699812472,"current_range_meters":3600,"station_id":"ce4bha12rcd13ifvqee0","pricing_plan_id":"free"},{"bike_id":"08f305bb-911a-4128-a119-f1e480018921","system_id":"levelo_inurba_marseille","lat":43.281,"lon":5.37842,"is_reserved":false,"is_disabled":false,"rental_uris":{"android":"levelo://app?vid=08f305bb-911a-4128-a119-f1e480018921","ios":"levelo://app?vid=08f305bb-911a-4128-a119-f1e480018921"},"vehicle_type_id":"4","last_reported":1699812472,"current_range_meters":22800,"station_id":"ce4bha12rcd13ifvqee0","pricing_plan_id":"free"},{"bike_id":"e6664548-e185-4196-809d-3ed2028134c2","system_id":"levelo_inurba_marseille","lat":43.296263,"lon":5.40601,"is_reserved":false,"is_disabled":false,"rental_uris":{"android":"levelo://app?vid=e6664548-e185-4196-809d-3ed2028134c2","ios":"levelo://app?vid=e6664548-e185-4196-809d-3ed2028134c2"},"vehicle_type_id":"4","last_reported":1699812472,"current_range_meters":31200,"station_id":"ce4bh0h2rcd13ifvqd60","pricing_plan_id":"free"},{"bike_id":"c5269fde-c094-4163-a2ac-a6350e774e3c","system_id":"levelo_inurba_marseille","lat":43.323447,"lon":5.41003,"is_reserved":false,"is_disabled":false,"rental_uris":{"android":"levelo://app?vid=c5269fde-c094-4163-a2ac-a6350e774e3c","ios":"levelo://app?vid=c5269fde-c094-4163-a2ac-a6350e774e3c"},"vehicle_type_id":"4","last_reported":1699812472,"current_range_meters":800,"station_id":"","pricing_plan_id":"free"},{"bike_id":"5f800b2e-4fa7-442b-a1af-385e3d6c3002","system_id":"levelo_inurba_marseille","lat":43.284462,"lon":5.392121,"is_reserved":false,"is_disabled":false,"rental_uris":{"android":"levelo://app?vid=5f800b2e-4fa7-442b-a1af-385e3d6c3002","ios":"levelo://app?vid=5f800b2e-4fa7-442b-a1af-385e3d6c3002"},"vehicle_type_id":"4","last_reported":1699812472,"current_range_meters":12000,"station_id":"ce4bhoh2rcd13ifvqh5g","pricing_plan_id":"free"},{"bike_id":"9042e460-8045-4344-8c31-d52e7d1bafd7","system_id":"levelo_inurba_marseille","lat":43.284382,"lon":5.391954,"is_reserved":false,"is_disabled":false,"rental_uris":{"android":"levelo://app?vid=9042e460-8045-4344-8c31-d52e7d1bafd7","ios":"levelo://app?vid=9042e460-8045-4344-8c31-d52e7d1bafd7"},"vehicle_type_id":"4","last_reported":1699812472,"current_range_meters":18800,"station_id":"ce4bhoh2rcd13ifvqh5g","pricing_plan_id":"free"},{"bike_id":"f73768ae-26e7-4a93-b440-a40ef6fba1d0","system_id":"levelo_inurba_marseille","lat":43.28429,"lon":5.3918,"is_reserved":false,"is_disabled":false,"rental_uris":{"android":"levelo://app?vid=f73768ae-26e7-4a93-b440-a40ef6fba1d0","ios":"levelo://app?vid=f73768ae-26e7-4a93-b440-a40ef6fba1d0"},"vehicle_type_id":"4","last_reported":1699812472,"current_range_meters":21200,"station_id":"ce4bhoh2rcd13ifvqh5g","pricing_plan_id":"free"},{"bike_id":"f3d4c74b-24d0-4762-b960-0523d7a45fd5","system_id":"levelo_inurba_marseille","lat":43.284462,"lon":5.392121,"is_reserved":false,"is_disabled":false,"rental_uris":{"android":"levelo://app?vid=f3d4c74b-24d0-4762-b960-0523d7a45fd5","ios":"levelo://app?vid=f3d4c74b-24d0-4762-b960-0523d7a45fd5"},"vehicle_type_id":"4","last_reported":1699812472,"current_range_meters":14000,"station_id":"ce4bhoh2rcd13ifvqh5g","pricing_plan_id":"free"},{"bike_id":"8614978e-3800-411b-94e5-70c161d3a90f","system_id":"levelo_inurba_marseille","lat":43.2844,"lon":5.39206,"is_reserved":false,"is_disabled":false,"rental_uris":{"android":"levelo://app?vid=8614978e-3800-411b-94e5-70c161d3a90f","ios":"levelo://app?vid=8614978e-3800-411b-94e5-70c161d3a90f"},"vehicle_type_id":"4","last_reported":1699812472,"current_range_meters":26800,"station_id":"ce4bhoh2rcd13ifvqh5g","pricing_plan_id":"free"},{"bike_id":"2b2d2ba9-21a8-4b2b-b7fa-0f1c682b82b6","system_id":"levelo_inurba_marseille","lat":43.28434,"lon":5.39212,"is_reserved":false,"is_disabled":false,"rental_uris":{"android":"levelo://app?vid=2b2d2ba9-21a8-4b2b-b7fa-0f1c682b82b6","ios":"levelo://app?vid=2b2d2ba9-21a8-4b2b-b7fa-0f1c682b82b6"},"vehicle_type_id":"4","last_reported":1699812472,"current_range_meters":18000,"station_id":"ce4bhoh2rcd13ifvqh5g","pricing_plan_id":"free"},{"bike_id":"ccf9b17e-2fb6-47d5-b5cb-73ea08fcb6e5","system_id":"levelo_inurba_marseille","lat":43.28575,"lon":5.39498,"is_reserved":false,"is_disabled":false,"rental_uris":{"android":"levelo://app?vid=ccf9b17e-2fb6-47d5-b5cb-73ea08fcb6e5","ios":"levelo://app?vid=ccf9b17e-2fb6-47d5-b5cb-73ea08fcb6e5"},"vehicle_type_id":"4","last_reported":1699812472,"current_range_meters":23200,"station_id":"ce4bh292rcd13ifvqdg0","pricing_plan_id":"free"},{"bike_id":"feca28d2-7019-4e39-96be-d7938cc29597","system_id":"levelo_inurba_marseille","lat":43.32435,"lon":5.4137,"is_reserved":false,"is_disabled":false,"rental_uris":{"android":"levelo://app?vid=feca28d2-7019-4e39-96be-d7938cc29597","ios":"levelo://app?vid=feca28d2-7019-4e39-96be-d7938cc29597"},"vehicle_type_id":"4","last_reported":1699812472,"current_range_meters":16800,"station_id":"","pricing_plan_id":"free"},{"bike_id":"53059404-70ba-4fa4-8212-a7639c29202a","system_id":"levelo_inurba_marseille","lat":43.299577,"lon":5.413277,"is_reserved":false,"is_disabled":false,"rental_uris":{"android":"levelo://app?vid=53059404-70ba-4fa4-8212-a7639c29202a","ios":"levelo://app?vid=53059404-70ba-4fa4-8212-a7639c29202a"},"vehicle_type_id":"4","last_reported":1699812472,"current_range_meters":30000,"station_id":"ce4bhp12rcd13ifvqh9g","pricing_plan_id":"free"},{"bike_id":"fed9c799-7f53-43fb-947e-d7b392ceca56","system_id":"levelo_inurba_marseille","lat":43.320279,"lon":5.415754,"is_reserved":false,"is_disabled":false,"rental_uris":{"android":"levelo://app?vid=fed9c799-7f53-43fb-947e-d7b392ceca56","ios":"levelo://app?vid=fed9c799-7f53-43fb-947e-d7b392ceca56"},"vehicle_type_id":"4","last_reported":1699812472,"current_range_meters":0,"station_id":"ce4bhq92rcd13ifvqhkg","pricing_plan_id":"free"},{"bike_id":"f34bd1ec-ce9a-4eea-982f-5161533f5882","system_id":"levelo_inurba_marseille","lat":43.292569,"lon":5.409107,"is_reserved":false,"is_disabled":false,"rental_uris":{"android":"levelo://app?vid=f34bd1ec-ce9a-4eea-982f-5161533f5882","ios":"levelo://app?vid=f34bd1ec-ce9a-4eea-982f-5161533f5882"},"vehicle_type_id":"4","last_reported":1699812472,"current_range_meters":22000,"station_id":"ce4bh192rcd13ifvqdc0","pricing_plan_id":"free"},{"bike_id":"0ff41da9-75cd-4993-a8c3-ca5ec8279bb7","system_id":"levelo_inurba_marseille","lat":43.27618,"lon":5.361009,"is_reserved":false,"is_disabled":false,"rental_uris":{"android":"levelo://app?vid=0ff41da9-75cd-4993-a8c3-ca5ec8279bb7","ios":"levelo://app?vid=0ff41da9-75cd-4993-a8c3-ca5ec8279bb7"},"vehicle_type_id":"4","last_reported":1699812472,"current_range_meters":27200,"station_id":"ce4bgj92rcd13ifvqbe0","pricing_plan_id":"free"},{"bike_id":"8bf44287-f740-4867-baf0-0d1779045192","system_id":"levelo_inurba_marseille","lat":43.27619,"lon":5.3611,"is_reserved":false,"is_disabled":false,"rental_uris":{"android":"levelo://app?vid=8bf44287-f740-4867-baf0-0d1779045192","ios":"levelo://app?vid=8bf44287-f740-4867-baf0-0d1779045192"},"vehicle_type_id":"4","last_reported":1699812472,"current_range_meters":20000,"station_id":"ce4bgj92rcd13ifvqbe0","pricing_plan_id":"free"},{"bike_id":"2eeb5ff6-9ee3-45b6-addc-e317622e470b","system_id":"levelo_inurba_marseille","lat":43.27618,"lon":5.361117,"is_reserved":false,"is_disabled":false,"rental_uris":{"android":"levelo://app?vid=2eeb5ff6-9ee3-45b6-addc-e317622e470b","ios":"levelo://app?vid=2eeb5ff6-9ee3-45b6-addc-e317622e470b"},"vehicle_type_id":"4","last_reported":1699812472,"current_range_meters":31200,"station_id":"ce4bgj92rcd13ifvqbe0","pricing_plan_id":"free"},{"bike_id":"62c8561f-51a1-4e89-bae4-305d37ecb820","system_id":"levelo_inurba_marseille","lat":43.280784,"lon":5.396622,"is_reserved":false,"is_disabled":false,"rental_uris":{"android":"levelo://app?vid=62c8561f-51a1-4e89-bae4-305d37ecb820","ios":"levelo://app?vid=62c8561f-51a1-4e89-bae4-305d37ecb820"},"vehicle_type_id":"4","last_reported":1699812472,"current_range_meters":0,"station_id":"ce4bho12rcd13ifvqh2g","pricing_plan_id":"free"},{"bike_id":"081d787f-3338-48bd-9bde-f7a1dc01b560","system_id":"levelo_inurba_marseille","lat":43.273613,"lon":5.362705,"is_reserved":false,"is_disabled":false,"rental_uris":{"android":"levelo://app?vid=081d787f-3338-48bd-9bde-f7a1dc01b560","ios":"levelo://app?vid=081d787f-3338-48bd-9bde-f7a1dc01b560"},"vehicle_type_id":"4","last_reported":1699812472,"current_range_meters":30000,"station_id":"ce4bhbh2rcd13ifvqeo0","pricing_plan_id":"free"},{"bike_id":"69714719-1e81-4e41-994d-07f19a36e39a","system_id":"levelo_inurba_marseille","lat":43.275625,"lon":5.384392,"is_reserved":false,"is_disabled":false,"rental_uris":{"android":"levelo://app?vid=69714719-1e81-4e41-994d-07f19a36e39a","ios":"levelo://app?vid=69714719-1e81-4e41-994d-07f19a36e39a"},"vehicle_type_id":"4","last_reported":1699812472,"current_range_meters":19600,"station_id":"ce4bhh92rcd13ifvqfi0","pricing_plan_id":"free"},{"bike_id":"e78b81e4-e8f0-4703-aae8-a19f040f74c2","system_id":"levelo_inurba_marseille","lat":43.273609,"lon":5.362708,"is_reserved":false,"is_disabled":false,"rental_uris":{"android":"levelo://app?vid=e78b81e4-e8f0-4703-aae8-a19f040f74c2","ios":"levelo://app?vid=e78b81e4-e8f0-4703-aae8-a19f040f74c2"},"vehicle_type_id":"4","last_reported":1699812472,"current_range_meters":6000,"station_id":"ce4bhbh2rcd13ifvqeo0","pricing_plan_id":"free"},{"bike_id":"ef5bd805-97c1-45be-bf3e-3571522a861a","system_id":"levelo_inurba_marseille","lat":43.33598,"lon":5.41034,"is_reserved":false,"is_disabled":false,"rental_uris":{"android":"levelo://app?vid=ef5bd805-97c1-45be-bf3e-3571522a861a","ios":"levelo://app?vid=ef5bd805-97c1-45be-bf3e-3571522a861a"},"vehicle_type_id":"4","last_reported":1699812472,"current_range_meters":5200,"station_id":"ce4bhqh2rcd13ifvqhmg","pricing_plan_id":"free"},{"bike_id":"3d8b9ede-66ff-4b04-a045-adf7b444a5bc","system_id":"levelo_inurba_marseille","lat":43.273129,"lon":5.390725,"is_reserved":false,"is_disabled":false,"rental_uris":{"android":"levelo://app?vid=3d8b9ede-66ff-4b04-a045-adf7b444a5bc","ios":"levelo://app?vid=3d8b9ede-66ff-4b04-a045-adf7b444a5bc"},"vehicle_type_id":"4","last_reported":1699812472,"current_range_meters":0,"station_id":"ce4bhgp2rcd13ifvqfe0","pricing_plan_id":"free"},{"bike_id":"a5f97c79-5f7d-401b-b9aa-59a0d17cd4f6","system_id":"levelo_inurba_marseille","lat":43.274103,"lon":5.394016,"is_reserved":false,"is_disabled":false,"rental_uris":{"android":"levelo://app?vid=a5f97c79-5f7d-401b-b9aa-59a0d17cd4f6","ios":"levelo://app?vid=a5f97c79-5f7d-401b-b9aa-59a0d17cd4f6"},"vehicle_type_id":"4","last_reported":1699812472,"current_range_meters":12800,"station_id":"ce4bhdp2rcd13ifvqf20","pricing_plan_id":"free"},{"bike_id":"56fc6c2c-64c4-4cbc-b368-c965f0c371ee","system_id":"levelo_inurba_marseille","lat":43.295523,"lon":5.422926,"is_reserved":false,"is_disabled":false,"rental_uris":{"android":"levelo://app?vid=56fc6c2c-64c4-4cbc-b368-c965f0c371ee","ios":"levelo://app?vid=56fc6c2c-64c4-4cbc-b368-c965f0c371ee"},"vehicle_type_id":"4","last_reported":1699812472,"current_range_meters":30800,"station_id":"ce4bhph2rcd13ifvqhdg","pricing_plan_id":"free"},{"bike_id":"fc23ceec-b45a-4766-9c80-384d82439159","system_id":"levelo_inurba_marseille","lat":43.295511,"lon":5.422926,"is_reserved":false,"is_disabled":false,"rental_uris":{"android":"levelo://app?vid=fc23ceec-b45a-4766-9c80-384d82439159","ios":"levelo://app?vid=fc23ceec-b45a-4766-9c80-384d82439159"},"vehicle_type_id":"4","last_reported":1699812472,"current_range_meters":24000,"station_id":"ce4bhph2rcd13ifvqhdg","pricing_plan_id":"free"},{"bike_id":"4aa2e5ec-9993-463f-9603-2c9f0a0bea8a","system_id":"levelo_inurba_marseille","lat":43.295511,"lon":5.422926,"is_reserved":false,"is_disabled":false,"rental_uris":{"android":"levelo://app?vid=4aa2e5ec-9993-463f-9603-2c9f0a0bea8a","ios":"levelo://app?vid=4aa2e5ec-9993-463f-9603-2c9f0a0bea8a"},"vehicle_type_id":"4","last_reported":1699812472,"current_range_meters":14000,"station_id":"ce4bhph2rcd13ifvqhdg","pricing_plan_id":"free"},{"bike_id":"6d9289d7-7903-4242-90a4-d291f4ed4153","system_id":"levelo_inurba_marseille","lat":43.27216,"lon":5.39256,"is_reserved":false,"is_disabled":false,"rental_uris":{"android":"levelo://app?vid=6d9289d7-7903-4242-90a4-d291f4ed4153","ios":"levelo://app?vid=6d9289d7-7903-4242-90a4-d291f4ed4153"},"vehicle_type_id":"4","last_reported":1699812472,"current_range_meters":11200,"station_id":"","pricing_plan_id":"free"},{"bike_id":"9c86b824-2168-4f46-b290-9c226cef33eb","system_id":"levelo_inurba_marseille","lat":43.27192,"lon":5.39228,"is_reserved":false,"is_disabled":false,"rental_uris":{"android":"levelo://app?vid=9c86b824-2168-4f46-b290-9c226cef33eb","ios":"levelo://app?vid=9c86b824-2168-4f46-b290-9c226cef33eb"},"vehicle_type_id":"4","last_reported":1699812472,"current_range_meters":28000,"station_id":"ce4bhhp2rcd13ifvqfm0","pricing_plan_id":"free"},{"bike_id":"fe75077d-42bf-43ae-8fa2-44109df3d40a","system_id":"levelo_inurba_marseille","lat":43.27203,"lon":5.39295,"is_reserved":false,"is_disabled":false,"rental_uris":{"android":"levelo://app?vid=fe75077d-42bf-43ae-8fa2-44109df3d40a","ios":"levelo://app?vid=fe75077d-42bf-43ae-8fa2-44109df3d40a"},"vehicle_type_id":"4","last_reported":1699812472,"current_range_meters":14400,"station_id":"","pricing_plan_id":"free"},{"bike_id":"32a7b145-757b-4a2a-a617-85b663792bfd","system_id":"levelo_inurba_marseille","lat":43.278128,"lon":5.407195,"is_reserved":false,"is_disabled":false,"rental_uris":{"android":"levelo://app?vid=32a7b145-757b-4a2a-a617-85b663792bfd","ios":"levelo://app?vid=32a7b145-757b-4a2a-a617-85b663792bfd"},"vehicle_type_id":"4","last_reported":1699812472,"current_range_meters":13200,"station_id":"ce4bhnh2rcd13ifvqgtg","pricing_plan_id":"free"},{"bike_id":"6d33365e-54fb-4277-b0ab-52cc40433c36","system_id":"levelo_inurba_marseille","lat":43.278128,"lon":5.407195,"is_reserved":false,"is_disabled":false,"rental_uris":{"android":"levelo://app?vid=6d33365e-54fb-4277-b0ab-52cc40433c36","ios":"levelo://app?vid=6d33365e-54fb-4277-b0ab-52cc40433c36"},"vehicle_type_id":"4","last_reported":1699812472,"current_range_meters":14800,"station_id":"ce4bhnh2rcd13ifvqgtg","pricing_plan_id":"free"},{"bike_id":"9c14c1f3-5a54-4b04-a3a2-07b6790f2267","system_id":"levelo_inurba_marseille","lat":43.269319,"lon":5.389397,"is_reserved":false,"is_disabled":false,"rental_uris":{"android":"levelo://app?vid=9c14c1f3-5a54-4b04-a3a2-07b6790f2267","ios":"levelo://app?vid=9c14c1f3-5a54-4b04-a3a2-07b6790f2267"},"vehicle_type_id":"4","last_reported":1699812472,"current_range_meters":13600,"station_id":"ce4bhhh2rcd13ifvqfl0","pricing_plan_id":"free"},{"bike_id":"d61a56cc-75f3-4b9c-8e9f-0357391399ba","system_id":"levelo_inurba_marseille","lat":43.265714,"lon":5.372891,"is_reserved":false,"is_disabled":false,"rental_uris":{"android":"levelo://app?vid=d61a56cc-75f3-4b9c-8e9f-0357391399ba","ios":"levelo://app?vid=d61a56cc-75f3-4b9c-8e9f-0357391399ba"},"vehicle_type_id":"4","last_reported":1699812472,"current_range_meters":6800,"station_id":"ce4bhg12rcd13ifvqf70","pricing_plan_id":"free"},{"bike_id":"315a8683-88b2-4067-8388-e2c875a93b19","system_id":"levelo_inurba_marseille","lat":43.265714,"lon":5.372891,"is_reserved":false,"is_disabled":false,"rental_uris":{"android":"levelo://app?vid=315a8683-88b2-4067-8388-e2c875a93b19","ios":"levelo://app?vid=315a8683-88b2-4067-8388-e2c875a93b19"},"vehicle_type_id":"4","last_reported":1699812472,"current_range_meters":24800,"station_id":"ce4bhg12rcd13ifvqf70","pricing_plan_id":"free"},{"bike_id":"b6d15c8d-d500-4d81-877d-760d3aa65726","system_id":"levelo_inurba_marseille","lat":43.267966,"lon":5.393976,"is_reserved":false,"is_disabled":false,"rental_uris":{"android":"levelo://app?vid=b6d15c8d-d500-4d81-877d-760d3aa65726","ios":"levelo://app?vid=b6d15c8d-d500-4d81-877d-760d3aa65726"},"vehicle_type_id":"4","last_reported":1699812472,"current_range_meters":3200,"station_id":"ce4bhh12rcd13ifvqfg0","pricing_plan_id":"free"},{"bike_id":"f35f5328-cd45-478c-b273-996a2eb02984","system_id":"levelo_inurba_marseille","lat":43.267966,"lon":5.393976,"is_reserved":false,"is_disabled":false,"rental_uris":{"android":"levelo://app?vid=f35f5328-cd45-478c-b273-996a2eb02984","ios":"levelo://app?vid=f35f5328-cd45-478c-b273-996a2eb02984"},"vehicle_type_id":"4","last_reported":1699812472,"current_range_meters":800,"station_id":"ce4bhh12rcd13ifvqfg0","pricing_plan_id":"free"},{"bike_id":"78d3ea5d-a503-45ca-be54-8d2d40615158","system_id":"levelo_inurba_marseille","lat":43.267966,"lon":5.393976,"is_reserved":false,"is_disabled":false,"rental_uris":{"android":"levelo://app?vid=78d3ea5d-a503-45ca-be54-8d2d40615158","ios":"levelo://app?vid=78d3ea5d-a503-45ca-be54-8d2d40615158"},"vehicle_type_id":"4","last_reported":1699812472,"current_range_meters":31600,"station_id":"ce4bhh12rcd13ifvqfg0","pricing_plan_id":"free"},{"bike_id":"e4a2ea1e-0cba-46fc-8713-2d85f148df36","system_id":"levelo_inurba_marseille","lat":43.271127,"lon":5.40374,"is_reserved":false,"is_disabled":false,"rental_uris":{"android":"levelo://app?vid=e4a2ea1e-0cba-46fc-8713-2d85f148df36","ios":"levelo://app?vid=e4a2ea1e-0cba-46fc-8713-2d85f148df36"},"vehicle_type_id":"4","last_reported":1699812472,"current_range_meters":2400,"station_id":"","pricing_plan_id":"free"},{"bike_id":"575ca992-e936-4074-b7c6-852b3c666dc2","system_id":"levelo_inurba_marseille","lat":43.308051,"lon":5.43527,"is_reserved":false,"is_disabled":false,"rental_uris":{"android":"levelo://app?vid=575ca992-e936-4074-b7c6-852b3c666dc2","ios":"levelo://app?vid=575ca992-e936-4074-b7c6-852b3c666dc2"},"vehicle_type_id":"4","last_reported":1699812472,"current_range_meters":30400,"station_id":"ce4bhph2rcd13ifvqheg","pricing_plan_id":"free"},{"bike_id":"f63a0104-ed18-44bf-8104-1f0ae0c359b9","system_id":"levelo_inurba_marseille","lat":43.30803,"lon":5.43526,"is_reserved":false,"is_disabled":false,"rental_uris":{"android":"levelo://app?vid=f63a0104-ed18-44bf-8104-1f0ae0c359b9","ios":"levelo://app?vid=f63a0104-ed18-44bf-8104-1f0ae0c359b9"},"vehicle_type_id":"4","last_reported":1699812472,"current_range_meters":20400,"station_id":"ce4bhph2rcd13ifvqheg","pricing_plan_id":"free"},{"bike_id":"f39776f8-e338-4e5d-8296-2a44b065e822","system_id":"levelo_inurba_marseille","lat":43.30799,"lon":5.43527,"is_reserved":false,"is_disabled":false,"rental_uris":{"android":"levelo://app?vid=f39776f8-e338-4e5d-8296-2a44b065e822","ios":"levelo://app?vid=f39776f8-e338-4e5d-8296-2a44b065e822"},"vehicle_type_id":"4","last_reported":1699812472,"current_range_meters":30400,"station_id":"ce4bhph2rcd13ifvqheg","pricing_plan_id":"free"},{"bike_id":"033771a6-1055-48d2-9826-6454c9f5b3f7","system_id":"levelo_inurba_marseille","lat":43.307952,"lon":5.435284,"is_reserved":false,"is_disabled":false,"rental_uris":{"android":"levelo://app?vid=033771a6-1055-48d2-9826-6454c9f5b3f7","ios":"levelo://app?vid=033771a6-1055-48d2-9826-6454c9f5b3f7"},"vehicle_type_id":"4","last_reported":1699812472,"current_range_meters":400,"station_id":"ce4bhph2rcd13ifvqheg","pricing_plan_id":"free"},{"bike_id":"88d7cfee-8f42-438f-8aa4-5b18bb643b78","system_id":"levelo_inurba_marseille","lat":43.269422,"lon":5.402425,"is_reserved":false,"is_disabled":false,"rental_uris":{"android":"levelo://app?vid=88d7cfee-8f42-438f-8aa4-5b18bb643b78","ios":"levelo://app?vid=88d7cfee-8f42-438f-8aa4-5b18bb643b78"},"vehicle_type_id":"4","last_reported":1699812472,"current_range_meters":21200,"station_id":"ce4bh692rcd13ifvqea0","pricing_plan_id":"free"},{"bike_id":"2aa6c4b1-a67d-43b7-9eb1-fe5b5bec91bf","system_id":"levelo_inurba_marseille","lat":43.32903,"lon":5.43282,"is_reserved":false,"is_disabled":false,"rental_uris":{"android":"levelo://app?vid=2aa6c4b1-a67d-43b7-9eb1-fe5b5bec91bf","ios":"levelo://app?vid=2aa6c4b1-a67d-43b7-9eb1-fe5b5bec91bf"},"vehicle_type_id":"4","last_reported":1699812472,"current_range_meters":8800,"station_id":"","pricing_plan_id":"free"},{"bike_id":"cfbf6d8d-381c-43fe-9ed8-d6c956f5fbdb","system_id":"levelo_inurba_marseille","lat":43.317104,"lon":5.436818,"is_reserved":false,"is_disabled":false,"rental_uris":{"android":"levelo://app?vid=cfbf6d8d-381c-43fe-9ed8-d6c956f5fbdb","ios":"levelo://app?vid=cfbf6d8d-381c-43fe-9ed8-d6c956f5fbdb"},"vehicle_type_id":"4","last_reported":1699812472,"current_range_meters":10400,"station_id":"ce4bhp92rcd13ifvqhcg","pricing_plan_id":"free"},{"bike_id":"982f2640-dc83-4b0c-ac35-458c9efcd9e1","system_id":"levelo_inurba_marseille","lat":43.271368,"lon":5.40928,"is_reserved":false,"is_disabled":false,"rental_uris":{"android":"levelo://app?vid=982f2640-dc83-4b0c-ac35-458c9efcd9e1","ios":"levelo://app?vid=982f2640-dc83-4b0c-ac35-458c9efcd9e1"},"vehicle_type_id":"4","last_reported":1699812472,"current_range_meters":17200,"station_id":"ce4bhl12rcd13ifvqgf0","pricing_plan_id":"free"},{"bike_id":"b2d49cda-f49e-4bbf-bbac-372e27fe7e4f","system_id":"levelo_inurba_marseille","lat":43.271368,"lon":5.40928,"is_reserved":false,"is_disabled":false,"rental_uris":{"android":"levelo://app?vid=b2d49cda-f49e-4bbf-bbac-372e27fe7e4f","ios":"levelo://app?vid=b2d49cda-f49e-4bbf-bbac-372e27fe7e4f"},"vehicle_type_id":"4","last_reported":1699812472,"current_range_meters":22400,"station_id":"ce4bhl12rcd13ifvqgf0","pricing_plan_id":"free"},{"bike_id":"37f830c7-7ef2-48bf-a546-636135f99c0d","system_id":"levelo_inurba_marseille","lat":43.271388,"lon":5.409269,"is_reserved":false,"is_disabled":false,"rental_uris":{"android":"levelo://app?vid=37f830c7-7ef2-48bf-a546-636135f99c0d","ios":"levelo://app?vid=37f830c7-7ef2-48bf-a546-636135f99c0d"},"vehicle_type_id":"4","last_reported":1699812472,"current_range_meters":28400,"station_id":"ce4bhl12rcd13ifvqgf0","pricing_plan_id":"free"},{"bike_id":"16d50137-9550-4d1e-8092-2c71cc40e76c","system_id":"levelo_inurba_marseille","lat":43.267959,"lon":5.402687,"is_reserved":false,"is_disabled":false,"rental_uris":{"android":"levelo://app?vid=16d50137-9550-4d1e-8092-2c71cc40e76c","ios":"levelo://app?vid=16d50137-9550-4d1e-8092-2c71cc40e76c"},"vehicle_type_id":"4","last_reported":1699812472,"current_range_meters":30000,"station_id":"ce501612rcd8frsf0b60","pricing_plan_id":"free"},{"bike_id":"a13c7f78-1111-4a67-b445-29e3bdbafa23","system_id":"levelo_inurba_marseille","lat":43.298768,"lon":5.43643,"is_reserved":false,"is_disabled":false,"rental_uris":{"android":"levelo://app?vid=a13c7f78-1111-4a67-b445-29e3bdbafa23","ios":"levelo://app?vid=a13c7f78-1111-4a67-b445-29e3bdbafa23"},"vehicle_type_id":"4","last_reported":1699812472,"current_range_meters":29200,"station_id":"ce4bhpp2rcd13ifvqhfg","pricing_plan_id":"free"},{"bike_id":"2847235e-c215-4ad4-80cd-76a518af6a09","system_id":"levelo_inurba_marseille","lat":43.298768,"lon":5.43643,"is_reserved":false,"is_disabled":false,"rental_uris":{"android":"levelo://app?vid=2847235e-c215-4ad4-80cd-76a518af6a09","ios":"levelo://app?vid=2847235e-c215-4ad4-80cd-76a518af6a09"},"vehicle_type_id":"4","last_reported":1699812472,"current_range_meters":25200,"station_id":"ce4bhpp2rcd13ifvqhfg","pricing_plan_id":"free"},{"bike_id":"39b50ce2-616e-4d24-9a66-7f25ce523b5d","system_id":"levelo_inurba_marseille","lat":43.28172,"lon":5.42547,"is_reserved":false,"is_disabled":false,"rental_uris":{"android":"levelo://app?vid=39b50ce2-616e-4d24-9a66-7f25ce523b5d","ios":"levelo://app?vid=39b50ce2-616e-4d24-9a66-7f25ce523b5d"},"vehicle_type_id":"4","last_reported":1699812472,"current_range_meters":0,"station_id":"ce4bhn92rcd13ifvqgrg","pricing_plan_id":"free"},{"bike_id":"4f6880f4-3164-4fc2-9cf7-3c1358040f10","system_id":"levelo_inurba_marseille","lat":43.290501,"lon":5.433305,"is_reserved":false,"is_disabled":false,"rental_uris":{"android":"levelo://app?vid=4f6880f4-3164-4fc2-9cf7-3c1358040f10","ios":"levelo://app?vid=4f6880f4-3164-4fc2-9cf7-3c1358040f10"},"vehicle_type_id":"4","last_reported":1699812472,"current_range_meters":14800,"station_id":"","pricing_plan_id":"free"},{"bike_id":"8fd908a2-d6b6-47a6-897f-412f4d7d4659","system_id":"levelo_inurba_marseille","lat":43.2607,"lon":5.393983,"is_reserved":false,"is_disabled":false,"rental_uris":{"android":"levelo://app?vid=8fd908a2-d6b6-47a6-897f-412f4d7d4659","ios":"levelo://app?vid=8fd908a2-d6b6-47a6-897f-412f4d7d4659"},"vehicle_type_id":"4","last_reported":1699812472,"current_range_meters":22800,"station_id":"ce4bhh92rcd13ifvqfj0","pricing_plan_id":"free"},{"bike_id":"27c3c771-dafc-43d8-9891-7ab3bc40cf3a","system_id":"levelo_inurba_marseille","lat":43.294162,"lon":5.386292,"is_reserved":false,"is_disabled":false,"rental_uris":{"android":"levelo://app?vid=27c3c771-dafc-43d8-9891-7ab3bc40cf3a","ios":"levelo://app?vid=27c3c771-dafc-43d8-9891-7ab3bc40cf3a"},"vehicle_type_id":"4","last_reported":1699812472,"current_range_meters":7200,"station_id":"ce4bh2h2rcd13ifvqdh0","pricing_plan_id":"free"},{"bike_id":"f2307a4c-7611-4db6-b58a-5736d1e13606","system_id":"levelo_inurba_marseille","lat":43.2583,"lon":5.39434,"is_reserved":false,"is_disabled":false,"rental_uris":{"android":"levelo://app?vid=f2307a4c-7611-4db6-b58a-5736d1e13606","ios":"levelo://app?vid=f2307a4c-7611-4db6-b58a-5736d1e13606"},"vehicle_type_id":"4","last_reported":1699812472,"current_range_meters":20800,"station_id":"ce4bhip2rcd13ifvqft0","pricing_plan_id":"free"},{"bike_id":"0ef89d28-6bc9-40b6-b755-acac6af3da2e","system_id":"levelo_inurba_marseille","lat":43.267966,"lon":5.393976,"is_reserved":false,"is_disabled":false,"rental_uris":{"android":"levelo://app?vid=0ef89d28-6bc9-40b6-b755-acac6af3da2e","ios":"levelo://app?vid=0ef89d28-6bc9-40b6-b755-acac6af3da2e"},"vehicle_type_id":"4","last_reported":1699812472,"current_range_meters":30800,"station_id":"ce4bhh12rcd13ifvqfg0","pricing_plan_id":"free"},{"bike_id":"7a132734-a5d7-4095-9180-58bb099db9a2","system_id":"levelo_inurba_marseille","lat":43.25581,"lon":5.38227,"is_reserved":false,"is_disabled":false,"rental_uris":{"android":"levelo://app?vid=7a132734-a5d7-4095-9180-58bb099db9a2","ios":"levelo://app?vid=7a132734-a5d7-4095-9180-58bb099db9a2"},"vehicle_type_id":"4","last_reported":1699812472,"current_range_meters":18800,"station_id":"ce4bhih2rcd13ifvqfs0","pricing_plan_id":"free"},{"bike_id":"13fbd380-6469-42b1-b1e5-7b829086d279","system_id":"levelo_inurba_marseille","lat":43.258224,"lon":5.394369,"is_reserved":false,"is_disabled":false,"rental_uris":{"android":"levelo://app?vid=13fbd380-6469-42b1-b1e5-7b829086d279","ios":"levelo://app?vid=13fbd380-6469-42b1-b1e5-7b829086d279"},"vehicle_type_id":"4","last_reported":1699812472,"current_range_meters":800,"station_id":"ce4bhip2rcd13ifvqft0","pricing_plan_id":"free"},{"bike_id":"d1be4948-3db8-46c6-a0e9-4eb9877553a6","system_id":"levelo_inurba_marseille","lat":43.25498,"lon":5.37655,"is_reserved":false,"is_disabled":false,"rental_uris":{"android":"levelo://app?vid=d1be4948-3db8-46c6-a0e9-4eb9877553a6","ios":"levelo://app?vid=d1be4948-3db8-46c6-a0e9-4eb9877553a6"},"vehicle_type_id":"4","last_reported":1699812472,"current_range_meters":18800,"station_id":"ce4bhh12rcd13ifvqff0","pricing_plan_id":"free"},{"bike_id":"10b76d9f-9a56-4d4a-9914-775d3f83d3aa","system_id":"levelo_inurba_marseille","lat":43.254947,"lon":5.376454,"is_reserved":false,"is_disabled":false,"rental_uris":{"android":"levelo://app?vid=10b76d9f-9a56-4d4a-9914-775d3f83d3aa","ios":"levelo://app?vid=10b76d9f-9a56-4d4a-9914-775d3f83d3aa"},"vehicle_type_id":"4","last_reported":1699812472,"current_range_meters":21600,"station_id":"ce4bhh12rcd13ifvqff0","pricing_plan_id":"free"},{"bike_id":"e2168e0f-e560-4623-b3d1-1d6833ae1357","system_id":"levelo_inurba_marseille","lat":43.254947,"lon":5.376454,"is_reserved":false,"is_disabled":false,"rental_uris":{"android":"levelo://app?vid=e2168e0f-e560-4623-b3d1-1d6833ae1357","ios":"levelo://app?vid=e2168e0f-e560-4623-b3d1-1d6833ae1357"},"vehicle_type_id":"4","last_reported":1699812472,"current_range_meters":12800,"station_id":"ce4bhh12rcd13ifvqff0","pricing_plan_id":"free"},{"bike_id":"c21c735f-dc06-4a6d-96ad-7819966d42eb","system_id":"levelo_inurba_marseille","lat":43.2607,"lon":5.393983,"is_reserved":false,"is_disabled":false,"rental_uris":{"android":"levelo://app?vid=c21c735f-dc06-4a6d-96ad-7819966d42eb","ios":"levelo://app?vid=c21c735f-dc06-4a6d-96ad-7819966d42eb"},"vehicle_type_id":"4","last_reported":1699812472,"current_range_meters":8400,"station_id":"ce4bhh92rcd13ifvqfj0","pricing_plan_id":"free"},{"bike_id":"cce421c9-cbad-426a-b834-a86a3411f32e","system_id":"levelo_inurba_marseille","lat":43.259013,"lon":5.409301,"is_reserved":false,"is_disabled":false,"rental_uris":{"android":"levelo://app?vid=cce421c9-cbad-426a-b834-a86a3411f32e","ios":"levelo://app?vid=cce421c9-cbad-426a-b834-a86a3411f32e"},"vehicle_type_id":"4","last_reported":1699812472,"current_range_meters":7600,"station_id":"ce4bhm92rcd13ifvqglg","pricing_plan_id":"free"},{"bike_id":"7db02a47-f10e-4ef9-b04e-f8faa3c33cca","system_id":"levelo_inurba_marseille","lat":43.25937,"lon":5.4091,"is_reserved":false,"is_disabled":false,"rental_uris":{"android":"levelo://app?vid=7db02a47-f10e-4ef9-b04e-f8faa3c33cca","ios":"levelo://app?vid=7db02a47-f10e-4ef9-b04e-f8faa3c33cca"},"vehicle_type_id":"4","last_reported":1699812472,"current_range_meters":22400,"station_id":"ce4bhm92rcd13ifvqglg","pricing_plan_id":"free"},{"bike_id":"78ae59a3-2b4c-4e3d-8c5c-d320d66437b9","system_id":"levelo_inurba_marseille","lat":43.25932,"lon":5.40912,"is_reserved":false,"is_disabled":false,"rental_uris":{"android":"levelo://app?vid=78ae59a3-2b4c-4e3d-8c5c-d320d66437b9","ios":"levelo://app?vid=78ae59a3-2b4c-4e3d-8c5c-d320d66437b9"},"vehicle_type_id":"4","last_reported":1699812472,"current_range_meters":14000,"station_id":"ce4bhm92rcd13ifvqglg","pricing_plan_id":"free"},{"bike_id":"61eb8050-b458-46cd-83ba-67a164399a1d","system_id":"levelo_inurba_marseille","lat":43.257079,"lon":5.411051,"is_reserved":false,"is_disabled":false,"rental_uris":{"android":"levelo://app?vid=61eb8050-b458-46cd-83ba-67a164399a1d","ios":"levelo://app?vid=61eb8050-b458-46cd-83ba-67a164399a1d"},"vehicle_type_id":"4","last_reported":1699812472,"current_range_meters":10800,"station_id":"ce4bhkp2rcd13ifvqgd0","pricing_plan_id":"free"},{"bike_id":"dae8844e-8f77-4bfc-be48-aa5e7466caae","system_id":"levelo_inurba_marseille","lat":43.24994,"lon":5.38933,"is_reserved":false,"is_disabled":false,"rental_uris":{"android":"levelo://app?vid=dae8844e-8f77-4bfc-be48-aa5e7466caae","ios":"levelo://app?vid=dae8844e-8f77-4bfc-be48-aa5e7466caae"},"vehicle_type_id":"4","last_reported":1699812472,"current_range_meters":0,"station_id":"ce4bhgp2rcd13ifvqfd0","pricing_plan_id":"free"},{"bike_id":"62fa1369-a457-41b6-8335-4717139987b4","system_id":"levelo_inurba_marseille","lat":43.250966,"lon":5.395186,"is_reserved":false,"is_disabled":false,"rental_uris":{"android":"levelo://app?vid=62fa1369-a457-41b6-8335-4717139987b4","ios":"levelo://app?vid=62fa1369-a457-41b6-8335-4717139987b4"},"vehicle_type_id":"4","last_reported":1699812472,"current_range_meters":20400,"station_id":"ce4bhm12rcd13ifvqgkg","pricing_plan_id":"free"},{"bike_id":"8dd5a5dd-7bdc-4fa9-b4b6-d3ca8f639788","system_id":"levelo_inurba_marseille","lat":43.250966,"lon":5.395186,"is_reserved":false,"is_disabled":false,"rental_uris":{"android":"levelo://app?vid=8dd5a5dd-7bdc-4fa9-b4b6-d3ca8f639788","ios":"levelo://app?vid=8dd5a5dd-7bdc-4fa9-b4b6-d3ca8f639788"},"vehicle_type_id":"4","last_reported":1699812472,"current_range_meters":0,"station_id":"ce4bhm12rcd13ifvqgkg","pricing_plan_id":"free"},{"bike_id":"c39b645d-7be1-40e4-9f3c-e991d81ec4d6","system_id":"levelo_inurba_marseille","lat":43.250966,"lon":5.395186,"is_reserved":false,"is_disabled":false,"rental_uris":{"android":"levelo://app?vid=c39b645d-7be1-40e4-9f3c-e991d81ec4d6","ios":"levelo://app?vid=c39b645d-7be1-40e4-9f3c-e991d81ec4d6"},"vehicle_type_id":"4","last_reported":1699812472,"current_range_meters":6800,"station_id":"ce4bhm12rcd13ifvqgkg","pricing_plan_id":"free"},{"bike_id":"dc120590-97c0-4a50-8c0e-c320d9e42db3","system_id":"levelo_inurba_marseille","lat":43.250966,"lon":5.395186,"is_reserved":false,"is_disabled":false,"rental_uris":{"android":"levelo://app?vid=dc120590-97c0-4a50-8c0e-c320d9e42db3","ios":"levelo://app?vid=dc120590-97c0-4a50-8c0e-c320d9e42db3"},"vehicle_type_id":"4","last_reported":1699812472,"current_range_meters":20400,"station_id":"ce4bhm12rcd13ifvqgkg","pricing_plan_id":"free"},{"bike_id":"a2cd2a7d-694c-4b32-8716-0bcea4c423be","system_id":"levelo_inurba_marseille","lat":43.250966,"lon":5.395186,"is_reserved":false,"is_disabled":false,"rental_uris":{"android":"levelo://app?vid=a2cd2a7d-694c-4b32-8716-0bcea4c423be","ios":"levelo://app?vid=a2cd2a7d-694c-4b32-8716-0bcea4c423be"},"vehicle_type_id":"4","last_reported":1699812472,"current_range_meters":0,"station_id":"ce4bhm12rcd13ifvqgkg","pricing_plan_id":"free"},{"bike_id":"70e7b146-b543-45b0-b7d1-09c9ccb26bcb","system_id":"levelo_inurba_marseille","lat":43.250966,"lon":5.395186,"is_reserved":false,"is_disabled":false,"rental_uris":{"android":"levelo://app?vid=70e7b146-b543-45b0-b7d1-09c9ccb26bcb","ios":"levelo://app?vid=70e7b146-b543-45b0-b7d1-09c9ccb26bcb"},"vehicle_type_id":"4","last_reported":1699812472,"current_range_meters":30400,"station_id":"ce4bhm12rcd13ifvqgkg","pricing_plan_id":"free"},{"bike_id":"684b13d1-fe6f-4f2d-b1c8-13bd8d03bc75","system_id":"levelo_inurba_marseille","lat":43.246764,"lon":5.381648,"is_reserved":false,"is_disabled":false,"rental_uris":{"android":"levelo://app?vid=684b13d1-fe6f-4f2d-b1c8-13bd8d03bc75","ios":"levelo://app?vid=684b13d1-fe6f-4f2d-b1c8-13bd8d03bc75"},"vehicle_type_id":"4","last_reported":1699812472,"current_range_meters":30800,"station_id":"ce4bhih2rcd13ifvqfr0","pricing_plan_id":"free"},{"bike_id":"106917c9-569a-4d44-bdd8-9f0ff8949230","system_id":"levelo_inurba_marseille","lat":43.2467,"lon":5.38157,"is_reserved":false,"is_disabled":false,"rental_uris":{"android":"levelo://app?vid=106917c9-569a-4d44-bdd8-9f0ff8949230","ios":"levelo://app?vid=106917c9-569a-4d44-bdd8-9f0ff8949230"},"vehicle_type_id":"4","last_reported":1699812472,"current_range_meters":31200,"station_id":"ce4bhih2rcd13ifvqfr0","pricing_plan_id":"free"},{"bike_id":"4801aee2-a782-439e-be8f-92a35daccb24","system_id":"levelo_inurba_marseille","lat":43.24661,"lon":5.3816,"is_reserved":false,"is_disabled":false,"rental_uris":{"android":"levelo://app?vid=4801aee2-a782-439e-be8f-92a35daccb24","ios":"levelo://app?vid=4801aee2-a782-439e-be8f-92a35daccb24"},"vehicle_type_id":"4","last_reported":1699812472,"current_range_meters":30000,"station_id":"ce4bhih2rcd13ifvqfr0","pricing_plan_id":"free"},{"bike_id":"dfb98506-f267-4b2b-997c-a6a7e03e86de","system_id":"levelo_inurba_marseille","lat":43.25102,"lon":5.403214,"is_reserved":false,"is_disabled":false,"rental_uris":{"android":"levelo://app?vid=dfb98506-f267-4b2b-997c-a6a7e03e86de","ios":"levelo://app?vid=dfb98506-f267-4b2b-997c-a6a7e03e86de"},"vehicle_type_id":"4","last_reported":1699812472,"current_range_meters":18400,"station_id":"ce4bhlh2rcd13ifvqgig","pricing_plan_id":"free"},{"bike_id":"86270756-7f27-449d-a206-89de41d75666","system_id":"levelo_inurba_marseille","lat":43.25102,"lon":5.403214,"is_reserved":false,"is_disabled":false,"rental_uris":{"android":"levelo://app?vid=86270756-7f27-449d-a206-89de41d75666","ios":"levelo://app?vid=86270756-7f27-449d-a206-89de41d75666"},"vehicle_type_id":"4","last_reported":1699812472,"current_range_meters":4000,"station_id":"ce4bhlh2rcd13ifvqgig","pricing_plan_id":"free"},{"bike_id":"95fb2891-9335-4cd4-86b1-aa83f9e676f8","system_id":"levelo_inurba_marseille","lat":43.25102,"lon":5.403214,"is_reserved":false,"is_disabled":false,"rental_uris":{"android":"levelo://app?vid=95fb2891-9335-4cd4-86b1-aa83f9e676f8","ios":"levelo://app?vid=95fb2891-9335-4cd4-86b1-aa83f9e676f8"},"vehicle_type_id":"4","last_reported":1699812472,"current_range_meters":7600,"station_id":"ce4bhlh2rcd13ifvqgig","pricing_plan_id":"free"},{"bike_id":"0adef68c-f09f-4e0c-ae96-55897cb46be5","system_id":"levelo_inurba_marseille","lat":43.25102,"lon":5.403214,"is_reserved":false,"is_disabled":false,"rental_uris":{"android":"levelo://app?vid=0adef68c-f09f-4e0c-ae96-55897cb46be5","ios":"levelo://app?vid=0adef68c-f09f-4e0c-ae96-55897cb46be5"},"vehicle_type_id":"4","last_reported":1699812472,"current_range_meters":4000,"station_id":"ce4bhlh2rcd13ifvqgig","pricing_plan_id":"free"},{"bike_id":"0a4107cc-7ae8-4016-967f-071365196ca8","system_id":"levelo_inurba_marseille","lat":43.246461,"lon":5.389014,"is_reserved":false,"is_disabled":false,"rental_uris":{"android":"levelo://app?vid=0a4107cc-7ae8-4016-967f-071365196ca8","ios":"levelo://app?vid=0a4107cc-7ae8-4016-967f-071365196ca8"},"vehicle_type_id":"4","last_reported":1699812472,"current_range_meters":29200,"station_id":"ce4bhg12rcd13ifvqf60","pricing_plan_id":"free"},{"bike_id":"b7b6b381-6082-46aa-96aa-a286b9c5305e","system_id":"levelo_inurba_marseille","lat":43.24645,"lon":5.38892,"is_reserved":false,"is_disabled":false,"rental_uris":{"android":"levelo://app?vid=b7b6b381-6082-46aa-96aa-a286b9c5305e","ios":"levelo://app?vid=b7b6b381-6082-46aa-96aa-a286b9c5305e"},"vehicle_type_id":"4","last_reported":1699812472,"current_range_meters":30800,"station_id":"ce4bhg12rcd13ifvqf60","pricing_plan_id":"free"},{"bike_id":"341ac67e-e9f2-4b47-8d03-1de6a755798d","system_id":"levelo_inurba_marseille","lat":43.2439,"lon":5.37064,"is_reserved":false,"is_disabled":false,"rental_uris":{"android":"levelo://app?vid=341ac67e-e9f2-4b47-8d03-1de6a755798d","ios":"levelo://app?vid=341ac67e-e9f2-4b47-8d03-1de6a755798d"},"vehicle_type_id":"4","last_reported":1699812472,"current_range_meters":0,"station_id":"ce4bhhh2rcd13ifvqfk0","pricing_plan_id":"free"},{"bike_id":"179d288e-a4b8-4599-a24b-dbe03ab108f6","system_id":"levelo_inurba_marseille","lat":43.24572,"lon":5.39446,"is_reserved":false,"is_disabled":false,"rental_uris":{"android":"levelo://app?vid=179d288e-a4b8-4599-a24b-dbe03ab108f6","ios":"levelo://app?vid=179d288e-a4b8-4599-a24b-dbe03ab108f6"},"vehicle_type_id":"4","last_reported":1699812472,"current_range_meters":26400,"station_id":"","pricing_plan_id":"free"},{"bike_id":"6a267fa0-21b3-4f51-a76a-791b082cf14f","system_id":"levelo_inurba_marseille","lat":43.245581,"lon":5.395069,"is_reserved":false,"is_disabled":false,"rental_uris":{"android":"levelo://app?vid=6a267fa0-21b3-4f51-a76a-791b082cf14f","ios":"levelo://app?vid=6a267fa0-21b3-4f51-a76a-791b082cf14f"},"vehicle_type_id":"4","last_reported":1699812472,"current_range_meters":0,"station_id":"ce4bhlp2rcd13ifvqgjg","pricing_plan_id":"free"},{"bike_id":"30a03967-ce18-4680-b05d-4f0aa57ce7c5","system_id":"levelo_inurba_marseille","lat":43.245581,"lon":5.395069,"is_reserved":false,"is_disabled":false,"rental_uris":{"android":"levelo://app?vid=30a03967-ce18-4680-b05d-4f0aa57ce7c5","ios":"levelo://app?vid=30a03967-ce18-4680-b05d-4f0aa57ce7c5"},"vehicle_type_id":"4","last_reported":1699812472,"current_range_meters":20800,"station_id":"ce4bhlp2rcd13ifvqgjg","pricing_plan_id":"free"},{"bike_id":"2b8890d0-b9d9-4672-b2fe-76ed5f333cd4","system_id":"levelo_inurba_marseille","lat":43.245581,"lon":5.395069,"is_reserved":false,"is_disabled":false,"rental_uris":{"android":"levelo://app?vid=2b8890d0-b9d9-4672-b2fe-76ed5f333cd4","ios":"levelo://app?vid=2b8890d0-b9d9-4672-b2fe-76ed5f333cd4"},"vehicle_type_id":"4","last_reported":1699812472,"current_range_meters":1200,"station_id":"ce4bhlp2rcd13ifvqgjg","pricing_plan_id":"free"},{"bike_id":"7bccf469-0820-4bbc-92e5-09b6a761423e","system_id":"levelo_inurba_marseille","lat":43.24071,"lon":5.37764,"is_reserved":false,"is_disabled":false,"rental_uris":{"android":"levelo://app?vid=7bccf469-0820-4bbc-92e5-09b6a761423e","ios":"levelo://app?vid=7bccf469-0820-4bbc-92e5-09b6a761423e"},"vehicle_type_id":"4","last_reported":1699812472,"current_range_meters":1600,"station_id":"ce4bhnp2rcd13ifvqgvg","pricing_plan_id":"free"},{"bike_id":"6fe18150-30a5-4b27-a91a-eacccbfccf16","system_id":"levelo_inurba_marseille","lat":43.240623,"lon":5.377642,"is_reserved":false,"is_disabled":false,"rental_uris":{"android":"levelo://app?vid=6fe18150-30a5-4b27-a91a-eacccbfccf16","ios":"levelo://app?vid=6fe18150-30a5-4b27-a91a-eacccbfccf16"},"vehicle_type_id":"4","last_reported":1699812472,"current_range_meters":1200,"station_id":"ce4bhnp2rcd13ifvqgvg","pricing_plan_id":"free"},{"bike_id":"c6c98a00-2fd2-46ba-90d3-827c4b15be9b","system_id":"levelo_inurba_marseille","lat":43.240623,"lon":5.377642,"is_reserved":false,"is_disabled":false,"rental_uris":{"android":"levelo://app?vid=c6c98a00-2fd2-46ba-90d3-827c4b15be9b","ios":"levelo://app?vid=c6c98a00-2fd2-46ba-90d3-827c4b15be9b"},"vehicle_type_id":"4","last_reported":1699812472,"current_range_meters":0,"station_id":"ce4bhnp2rcd13ifvqgvg","pricing_plan_id":"free"},{"bike_id":"cdd53555-26ba-49a9-a117-ea91989f8906","system_id":"levelo_inurba_marseille","lat":43.240623,"lon":5.377642,"is_reserved":false,"is_disabled":false,"rental_uris":{"android":"levelo://app?vid=cdd53555-26ba-49a9-a117-ea91989f8906","ios":"levelo://app?vid=cdd53555-26ba-49a9-a117-ea91989f8906"},"vehicle_type_id":"4","last_reported":1699812472,"current_range_meters":28800,"station_id":"ce4bhnp2rcd13ifvqgvg","pricing_plan_id":"free"},{"bike_id":"7929fe62-478b-45ed-a32f-4cee63794674","system_id":"levelo_inurba_marseille","lat":43.239713,"lon":5.366193,"is_reserved":false,"is_disabled":false,"rental_uris":{"android":"levelo://app?vid=7929fe62-478b-45ed-a32f-4cee63794674","ios":"levelo://app?vid=7929fe62-478b-45ed-a32f-4cee63794674"},"vehicle_type_id":"4","last_reported":1699812472,"current_range_meters":12800,"station_id":"","pricing_plan_id":"free"},{"bike_id":"d990827b-b01c-4f22-8468-cc3f1ac5bda6","system_id":"levelo_inurba_marseille","lat":43.23965,"lon":5.366269,"is_reserved":false,"is_disabled":false,"rental_uris":{"android":"levelo://app?vid=d990827b-b01c-4f22-8468-cc3f1ac5bda6","ios":"levelo://app?vid=d990827b-b01c-4f22-8468-cc3f1ac5bda6"},"vehicle_type_id":"4","last_reported":1699812472,"current_range_meters":30400,"station_id":"ce4bhi12rcd13ifvqfp0","pricing_plan_id":"free"},{"bike_id":"ace916c1-94cc-4c90-8f5a-fe80ea0d92c0","system_id":"levelo_inurba_marseille","lat":43.239627,"lon":5.366297,"is_reserved":false,"is_disabled":false,"rental_uris":{"android":"levelo://app?vid=ace916c1-94cc-4c90-8f5a-fe80ea0d92c0","ios":"levelo://app?vid=ace916c1-94cc-4c90-8f5a-fe80ea0d92c0"},"vehicle_type_id":"4","last_reported":1699812472,"current_range_meters":18400,"station_id":"ce4bhi12rcd13ifvqfp0","pricing_plan_id":"free"},{"bike_id":"73fefa4f-83f1-4cad-9fd5-1cfa441ebbf3","system_id":"levelo_inurba_marseille","lat":43.239588,"lon":5.366238,"is_reserved":false,"is_disabled":false,"rental_uris":{"android":"levelo://app?vid=73fefa4f-83f1-4cad-9fd5-1cfa441ebbf3","ios":"levelo://app?vid=73fefa4f-83f1-4cad-9fd5-1cfa441ebbf3"},"vehicle_type_id":"4","last_reported":1699812472,"current_range_meters":16000,"station_id":"ce4bhi12rcd13ifvqfp0","pricing_plan_id":"free"},{"bike_id":"ebdff912-aa81-48d2-b92e-8efd1da7d36b","system_id":"levelo_inurba_marseille","lat":43.23959,"lon":5.36638,"is_reserved":false,"is_disabled":false,"rental_uris":{"android":"levelo://app?vid=ebdff912-aa81-48d2-b92e-8efd1da7d36b","ios":"levelo://app?vid=ebdff912-aa81-48d2-b92e-8efd1da7d36b"},"vehicle_type_id":"4","last_reported":1699812472,"current_range_meters":30000,"station_id":"ce4bhi12rcd13ifvqfp0","pricing_plan_id":"free"},