{"last_updated":1730650219,"ttl":60,"version":"2.2","data":{"bikes":[{"bike_id":"daa5500f-6039-4d77-bf02-00710b3acec6","system_id":"levelo_inurba_marseille","lat":43.25931,"lon":5.40907,"is_reserved":false,"is_disabled":false,"rental_uris":{"android":"levelo://app?vid=daa5500f-6039-4d77-bf02-00710b3acec6","ios":"levelo://app?vid=daa5500f-6039-4d77-bf02-00710b3acec6"},"vehicle_type_id":"4","last_reported":1730650220,"current_range_meters":4000,"station_id":"ce4bhm92rcd13ifvqglg","pricing_plan_id":"cebpf4jnsgd1na2vs0mg"},{"bike_id":"0946d2bc-8f67-472d-8ae9-5c978812db9d","system_id":"levelo_inurba_marseille","lat":43.27815,"lon":5.40713,"is_reserved":false,"is_disabled":false,"rental_uris":{"android":"levelo://app?vid=0946d2bc-8f67-472d-8ae9-5c978812db9d","ios":"levelo://app?vid=0946d2bc-8f67-472d-8ae9-5c978812db9d"},"vehicle_type_id":"4","last_reported":1730650220,"current_range_meters":800,"station_id":"ce4bhnh2rcd13ifvqgtg","pricing_plan_id":"cebpf4jnsgd1na2vs0mg"},{"bike_id":"98f8b488-93b4-4e2f-aae4-aab26d739559","system_id":"levelo_inurba_marseille","lat":43.30136,"lon":5.39863,"is_reserved":false,"is_disabled":false,"rental_uris":{"android":"levelo://app?vid=98f8b488-93b4-4e2f-aae4-aab26d739559","ios":"levelo://app?vid=98f8b488-93b4-4e2f-aae4-aab26d739559"},"vehicle_type_id":"4","last_reported":1730650220,"current_range_meters":7200,"station_id":"ce4bh0h2rcd13ifvqd40","pricing_plan_id":"cebpf4jnsgd1na2vs0mg"},{"bike_id":"8c2cc48d-9ab8-4fc0-82ef-7cafd31d7aa7","system_id":"levelo_inurba_marseille","lat":43.32473,"lon":5.36563,"is_reserved":false,"is_disabled":false,"rental_uris":{"android":"levelo://app?vid=8c2cc48d-9ab8-4fc0-82ef-7cafd31d7aa7","ios":"levelo://app?vid=8c2cc48d-9ab8-4fc0-82ef-7cafd31d7aa7"},"vehicle_type_id":"4","last_reported":1730650220,"current_range_meters":17600,"station_id":"ce4bhs12rcd13ifvqhvg","pricing_plan_id":"cebpf4jnsgd1na2vs0mg"},{"bike_id":"84254659-2dee-4aa5-8185-6dbc5d2f0da7","system_id":"levelo_inurba_marseille","lat":43.2396,"lon":5.36625,"is_reserved":false,"is_disabled":false,"rental_uris":{"android":"levelo://app?vid=84254659-2dee-4aa5-8185-6dbc5d2f0da7","ios":"levelo://app?vid=84254659-2dee-4aa5-8185-6dbc5d2f0da7"},"vehicle_type_id":"4","last_reported":1730650220,"current_range_meters":12400,"station_id":"ce4bhi12rcd13ifvqfp0","pricing_plan_id":"cebpf4jnsgd1na2vs0mg"},{"bike_id":"2a5506df-0b1d-4a46-a751-dfe7bd8853d5","system_id":"levelo_inurba_marseille","lat":43.29526,"lon":5.3941,"is_reserved":false,"is_disabled":false,"rental_uris":{"android":"levelo://app?vid=2a5506df-0b1d-4a46-a751-dfe7bd8853d5","ios":"levelo://app?vid=2a5506df-0b1d-4a46-a751-dfe7bd8853d5"},"vehicle_type_id":"4","last_reported":1730650220,"current_range_meters":38000,"station_id":"ce4bh292rcd13ifvqdf0","pricing_plan_id":"cebpf4jnsgd1na2vs0mg"},{"bike_id":"dfd04893-c19d-4269-8f34-f940c35d4af7","system_id":"levelo_inurba_marseille","lat":43.28675,"lon":5.38666,"is_reserved":false,"is_disabled":false,"rental_uris":{"android":"levelo://app?vid=dfd04893-c19d-4269-8f34-f940c35d4af7","ios":"levelo://app?vid=dfd04893-c19d-4269-8f34-f940c35d4af7"},"vehicle_type_id":"4","last_reported":1730650220,"current_range_meters":12000,"station_id":"ce4bh492rcd13ifvqdug","pricing_plan_id":"cebpf4jnsgd1na2vs0mg"},{"bike_id":"92a0073c-20f6-4c2f-a53a-1975e2f6500a","system_id":"levelo_inurba_marseille","lat":43.23064,"lon":5.35497,"is_reserved":false,"is_disabled":false,"rental_uris":{"android":"levelo://app?vid=92a0073c-20f6-4c2f-a53a-1975e2f6500a","ios":"levelo://app?vid=92a0073c-20f6-4c2f-a53a-1975e2f6500a"},"vehicle_type_id":"4","last_reported":1730650220,"current_range_meters":14000,"station_id":"cpo3342slgdg3j2ifvpg","pricing_plan_id":"cebpf4jnsgd1na2vs0mg"},{"bike_id":"fcd81767-2dc7-4408-b5a4-0eadcf4a175a","system_id":"levelo_inurba_marseille","lat":43.31752,"lon":5.39019,"is_reserved":false,"is_disabled":false,"rental_uris":{"android":"levelo://app?vid=fcd81767-2dc7-4408-b5a4-0eadcf4a175a","ios":"levelo://app?vid=fcd81767-2dc7-4408-b5a4-0eadcf4a175a"},"vehicle_type_id":"4","last_reported":1730650220,"current_range_meters":10000,"station_id":"ce4bhqp2rcd13ifvqhng","pricing_plan_id":"cebpf4jnsgd1na2vs0mg"},{"bike_id":"2a7b6b40-de4b-4014-80a8-311724cb4c19","system_id":"levelo_inurba_marseille","lat":43.29279,"lon":5.40118,"is_reserved":false,"is_disabled":false,"rental_uris":{"android":"levelo://app?vid=2a7b6b40-de4b-4014-80a8-311724cb4c19","ios":"levelo://app?vid=2a7b6b40-de4b-4014-80a8-311724cb4c19"},"vehicle_type_id":"4","last_reported":1730650220,"current_range_meters":30000,"station_id":"ce4bh312rcd13ifvqdk0","pricing_plan_id":"cebpf4jnsgd1na2vs0mg"},{"bike_id":"588bad1c-e374-4b0d-8fd9-10fde0b54a6c","system_id":"levelo_inurba_marseille","lat":43.23958,"lon":5.36636,"is_reserved":false,"is_disabled":false,"rental_uris":{"android":"levelo://app?vid=588bad1c-e374-4b0d-8fd9-10fde0b54a6c","ios":"levelo://app?vid=588bad1c-e374-4b0d-8fd9-10fde0b54a6c"},"vehicle_type_id":"4","last_reported":1730650220,"current_range_meters":36400,"station_id":"ce4bhi12rcd13ifvqfp0","pricing_plan_id":"cebpf4jnsgd1na2vs0mg"},{"bike_id":"9a6520b3-8de4-4ce3-b47e-5a1d227cc151","system_id":"levelo_inurba_marseille","lat":43.26483,"lon":5.39561,"is_reserved":false,"is_disabled":false,"rental_uris":{"android":"levelo://app?vid=9a6520b3-8de4-4ce3-b47e-5a1d227cc151","ios":"levelo://app?vid=9a6520b3-8de4-4ce3-b47e-5a1d227cc151"},"vehicle_type_id":"4","last_reported":1730650220,"current_range_meters":23200,"station_id":"ce4bhi12rcd13ifvqfq0","pricing_plan_id":"cebpf4jnsgd1na2vs0mg"},{"bike_id":"00b64285-48ad-40f3-9d9a-e4f51d1f341c","system_id":"levelo_inurba_marseille","lat":43.24389,"lon":5.37062,"is_reserved":false,"is_disabled":false,"rental_uris":{"android":"levelo://app?vid=00b64285-48ad-40f3-9d9a-e4f51d1f341c","ios":"levelo://app?vid=00b64285-48ad-40f3-9d9a-e4f51d1f341c"},"vehicle_type_id":"4","last_reported":1730650220,"current_range_meters":5600,"station_id":"ce4bhhh2rcd13ifvqfk0","pricing_plan_id":"cebpf4jnsgd1na2vs0mg"},{"bike_id":"4147bbfb-4b14-4aca-b782-8ec6c0473609","system_id":"levelo_inurba_marseille","lat":43.23593,"lon":5.40354,"is_reserved":false,"is_disabled":false,"rental_uris":{"android":"levelo://app?vid=4147bbfb-4b14-4aca-b782-8ec6c0473609","ios":"levelo://app?vid=4147bbfb-4b14-4aca-b782-8ec6c0473609"},"vehicle_type_id":"4","last_reported":1730650220,"current_range_meters":20400,"station_id":"","pricing_plan_id":"cebpf4jnsgd1na2vs0mg"},{"bike_id":"7ee64e2c-406f-4f6a-83b8-a818b7c16596","system_id":"levelo_inurba_marseille","lat":43.281,"lon":5.3784,"is_reserved":false,"is_disabled":false,"rental_uris":{"android":"levelo://app?vid=7ee64e2c-406f-4f6a-83b8-a818b7c16596","ios":"levelo://app?vid=7ee64e2c-406f-4f6a-83b8-a818b7c16596"},"vehicle_type_id":"4","last_reported":1730650220,"current_range_meters":22800,"station_id":"ce4bha12rcd13ifvqee0","pricing_plan_id":"cebpf4jnsgd1na2vs0mg"},{"bike_id":"eeda0a49-c95e-447a-b118-263faeb6a58f","system_id":"levelo_inurba_marseille","lat":43.31444,"lon":5.37372,"is_reserved":false,"is_disabled":false,"rental_uris":{"android":"levelo://app?vid=eeda0a49-c95e-447a-b118-263faeb6a58f","ios":"levelo://app?vid=eeda0a49-c95e-447a-b118-263faeb6a58f"},"vehicle_type_id":"4","last_reported":1730650220,"current_range_meters":14800,"station_id":"","pricing_plan_id":"cebpf4jnsgd1na2vs0mg"},{"bike_id":"99929054-e2f9-4451-aa6b-3a3c9ff0baa9","system_id":"levelo_inurba_marseille","lat":43.30274,"lon":5.37718,"is_reserved":false,"is_disabled":false,"rental_uris":{"android":"levelo://app?vid=99929054-e2f9-4451-aa6b-3a3c9ff0baa9","ios":"levelo://app?vid=99929054-e2f9-4451-aa6b-3a3c9ff0baa9"},"vehicle_type_id":"4","last_reported":1730650220,"current_range_meters":28000,"station_id":"ce4bguh2rcd13ifvqcj0","pricing_plan_id":"cebpf4jnsgd1na2vs0mg"},{"bike_id":"105bc729-f865-44b5-96ce-8f60ebbb7541","system_id":"levelo_inurba_marseille","lat":43.27201,"lon":5.3919,"is_reserved":false,"is_disabled":false,"rental_uris":{"android":"levelo://app?vid=105bc729-f865-44b5-96ce-8f60ebbb7541","ios":"levelo://app?vid=105bc729-f865-44b5-96ce-8f60ebbb7541"},"vehicle_type_id":"4","last_reported":1730650220,"current_range_meters":19600,"station_id":"ce4bhhp2rcd13ifvqfm0","pricing_plan_id":"cebpf4jnsgd1na2vs0mg"},{"bike_id":"d6b6dad7-6af2-49af-bbb6-ae36a57ed8e7","system_id":"levelo_inurba_marseille","lat":43.28613,"lon":5.37053,"is_reserved":false,"is_disabled":false,"rental_uris":{"android":"levelo://app?vid=d6b6dad7-6af2-49af-bbb6-ae36a57ed8e7","ios":"levelo://app?vid=d6b6dad7-6af2-49af-bbb6-ae36a57ed8e7"},"vehicle_type_id":"4","last_reported":1730650220,"current_range_meters":21600,"station_id":"ce4bht12rcd13ifvqi60","pricing_plan_id":"cebpf4jnsgd1na2vs0mg"},{"bike_id":"19a6d47e-53d7-42cf-9934-34fc3fd9053c","system_id":"levelo_inurba_marseille","lat":43.32287,"lon":5.38269,"is_reserved":false,"is_disabled":false,"rental_uris":{"android":"levelo://app?vid=19a6d47e-53d7-42cf-9934-34fc3fd9053c","ios":"levelo://app?vid=19a6d47e-53d7-42cf-9934-34fc3fd9053c"},"vehicle_type_id":"4","last_reported":1730650220,"current_range_meters":33200,"station_id":"ce4bhr12rcd13ifvqhqg","pricing_plan_id":"cebpf4jnsgd1na2vs0mg"},{"bike_id":"a432e48e-0e8d-4ac4-9317-a8b17c71032b","system_id":"levelo_inurba_marseille","lat":43.283661,"lon":5.386346,"is_reserved":false,"is_disabled":false,"rental_uris":{"android":"levelo://app?vid=a432e48e-0e8d-4ac4-9317-a8b17c71032b","ios":"levelo://app?vid=a432e48e-0e8d-4ac4-9317-a8b17c71032b"},"vehicle_type_id":"4","last_reported":1730650220,"current_range_meters":35200,"station_id":"ce4bh492rcd13ifvqdvg","pricing_plan_id":"cebpf4jnsgd1na2vs0mg"},{"bike_id":"03626d68-29d4-42ed-aab6-c9aeea97b430","system_id":"levelo_inurba_marseille","lat":43.32036,"lon":5.41567,"is_reserved":false,"is_disabled":false,"rental_uris":{"android":"levelo://app?vid=03626d68-29d4-42ed-aab6-c9aeea97b430","ios":"levelo://app?vid=03626d68-29d4-42ed-aab6-c9aeea97b430"},"vehicle_type_id":"4","last_reported":1730650220,"current_range_meters":38800,"station_id":"ce4bhq92rcd13ifvqhkg","pricing_plan_id":"cebpf4jnsgd1na2vs0mg"},{"bike_id":"fbb69f4b-3dc6-4e69-8496-70ed995da3c8","system_id":"levelo_inurba_marseille","lat":43.28408,"lon":5.35002,"is_reserved":false,"is_disabled":false,"rental_uris":{"android":"levelo://app?vid=fbb69f4b-3dc6-4e69-8496-70ed995da3c8","ios":"levelo://app?vid=fbb69f4b-3dc6-4e69-8496-70ed995da3c8"},"vehicle_type_id":"4","last_reported":1730650220,"current_range_meters":39200,"station_id":"ce4bhbh2rcd13ifvqepg","pricing_plan_id":"cebpf4jnsgd1na2vs0mg"},{"bike_id":"598535da-1e32-42e0-bd65-4ba25549dd70","system_id":"levelo_inurba_marseille","lat":43.31456,"lon":5.37373,"is_reserved":false,"is_disabled":false,"rental_uris":{"android":"levelo://app?vid=598535da-1e32-42e0-bd65-4ba25549dd70","ios":"levelo://app?vid=598535da-1e32-42e0-bd65-4ba25549dd70"},"vehicle_type_id":"4","last_reported":1730650220,"current_range_meters":30000,"station_id":"","pricing_plan_id":"cebpf4jnsgd1na2vs0mg"},{"bike_id":"2378f453-72a7-4eb2-ab3b-946285d406fd","system_id":"levelo_inurba_marseille","lat":43.29221,"lon":5.37724,"is_reserved":false,"is_disabled":false,"rental_uris":{"android":"levelo://app?vid=2378f453-72a7-4eb2-ab3b-946285d406fd","ios":"levelo://app?vid=2378f453-72a7-4eb2-ab3b-946285d406fd"},"vehicle_type_id":"4","last_reported":1730650220,"current_range_meters":12400,"station_id":"ce4bgi12rcd13ifvqb70","pricing_plan_id":"cebpf4jnsgd1na2vs0mg"},{"bike_id":"2fd7996a-a856-43b8-9100-f65959ddb1b9","system_id":"levelo_inurba_marseille","lat":43.28458,"lon":5.35895,"is_reserved":false,"is_disabled":false,"rental_uris":{"android":"levelo://app?vid=2fd7996a-a856-43b8-9100-f65959ddb1b9","ios":"levelo://app?vid=2fd7996a-a856-43b8-9100-f65959ddb1b9"},"vehicle_type_id":"4","last_reported":1730650220,"current_range_meters":10800,"station_id":"ce4bhah2rcd13ifvqei0","pricing_plan_id":"cebpf4jnsgd1na2vs0mg"},{"bike_id":"45e37847-060c-4fbe-958a-f63e7f57fa30","system_id":"levelo_inurba_marseille","lat":43.27073,"lon":5.42278,"is_reserved":false,"is_disabled":false,"rental_uris":{"android":"levelo://app?vid=45e37847-060c-4fbe-958a-f63e7f57fa30","ios":"levelo://app?vid=45e37847-060c-4fbe-958a-f63e7f57fa30"},"vehicle_type_id":"4","last_reported":1730650220,"current_range_meters":24000,"station_id":"ce4bhk92rcd13ifvqgb0","pricing_plan_id":"cebpf4jnsgd1na2vs0mg"},{"bike_id":"84a2d603-8bac-4bcd-a544-ba89aafdb2bd","system_id":"levelo_inurba_marseille","lat":43.28399,"lon":5.3501,"is_reserved":false,"is_disabled":false,"rental_uris":{"android":"levelo://app?vid=84a2d603-8bac-4bcd-a544-ba89aafdb2bd","ios":"levelo://app?vid=84a2d603-8bac-4bcd-a544-ba89aafdb2bd"},"vehicle_type_id":"4","last_reported":1730650220,"current_range_meters":28000,"station_id":"ce4bhbh2rcd13ifvqepg","pricing_plan_id":"cebpf4jnsgd1na2vs0mg"},{"bike_id":"e958da77-6353-4bbf-85f1-91261f204f16","system_id":"levelo_inurba_marseille","lat":43.281211,"lon":5.378292,"is_reserved":false,"is_disabled":false,"rental_uris":{"android":"levelo://app?vid=e958da77-6353-4bbf-85f1-91261f204f16","ios":"levelo://app?vid=e958da77-6353-4bbf-85f1-91261f204f16"},"vehicle_type_id":"4","last_reported":1730650220,"current_range_meters":25200,"station_id":"ce4bha12rcd13ifvqee0","pricing_plan_id":"cebpf4jnsgd1na2vs0mg"},{"bike_id":"dcda6d62-942d-4cfc-b0c3-e7315a082712","system_id":"levelo_inurba_marseille","lat":43.27802,"lon":5.40733,"is_reserved":false,"is_disabled":false,"rental_uris":{"android":"levelo://app?vid=dcda6d62-942d-4cfc-b0c3-e7315a082712","ios":"levelo://app?vid=dcda6d62-942d-4cfc-b0c3-e7315a082712"},"vehicle_type_id":"4","last_reported":1730650220,"current_range_meters":36400,"station_id":"ce4bhnh2rcd13ifvqgtg","pricing_plan_id":"cebpf4jnsgd1na2vs0mg"},{"bike_id":"75576e24-6890-4288-9aa5-db2804891d6f","system_id":"levelo_inurba_marseille","lat":43.26946,"lon":5.40252,"is_reserved":false,"is_disabled":false,"rental_uris":{"android":"levelo://app?vid=75576e24-6890-4288-9aa5-db2804891d6f","ios":"levelo://app?vid=75576e24-6890-4288-9aa5-db2804891d6f"},"vehicle_type_id":"4","last_reported":1730650220,"current_range_meters":37600,"station_id":"cjm6bp8fraef2m0cb0m0","pricing_plan_id":"cebpf4jnsgd1na2vs0mg"},{"bike_id":"54337fac-085e-4782-bad6-db9a84abd2e2","system_id":"levelo_inurba_marseille","lat":43.317,"lon":5.37742,"is_reserved":false,"is_disabled":false,"rental_uris":{"android":"levelo://app?vid=54337fac-085e-4782-bad6-db9a84abd2e2","ios":"levelo://app?vid=54337fac-085e-4782-bad6-db9a84abd2e2"},"vehicle_type_id":"4","last_reported":1730650220,"current_range_meters":38800,"station_id":"ce4bgth2rcd13ifvqch0","pricing_plan_id":"cebpf4jnsgd1na2vs0mg"},{"bike_id":"a9e32352-0ca8-4535-87fc-d3cfff86084b","system_id":"levelo_inurba_marseille","lat":43.32477,"lon":5.36562,"is_reserved":false,"is_disabled":false,"rental_uris":{"android":"levelo://app?vid=a9e32352-0ca8-4535-87fc-d3cfff86084b","ios":"levelo://app?vid=a9e32352-0ca8-4535-87fc-d3cfff86084b"},"vehicle_type_id":"4","last_reported":1730650220,"current_range_meters":32400,"station_id":"ce4bhs12rcd13ifvqhvg","pricing_plan_id":"cebpf4jnsgd1na2vs0mg"},{"bike_id":"933e88ac-d979-43a7-a64b-221565f81a6f","system_id":"levelo_inurba_marseille","lat":43.23955,"lon":5.3663,"is_reserved":false,"is_disabled":false,"rental_uris":{"android":"levelo://app?vid=933e88ac-d979-43a7-a64b-221565f81a6f","ios":"levelo://app?vid=933e88ac-d979-43a7-a64b-221565f81a6f"},"vehicle_type_id":"4","last_reported":1730650220,"current_range_meters":37600,"station_id":"ce4bhi12rcd13ifvqfp0","pricing_plan_id":"cebpf4jnsgd1na2vs0mg"},{"bike_id":"05ce730c-be4d-41f9-bdc3-24a9557532bc","system_id":"levelo_inurba_marseille","lat":43.28421,"lon":5.35003,"is_reserved":false,"is_disabled":false,"rental_uris":{"android":"levelo://app?vid=05ce730c-be4d-41f9-bdc3-24a9557532bc","ios":"levelo://app?vid=05ce730c-be4d-41f9-bdc3-24a9557532bc"},"vehicle_type_id":"4","last_reported":1730650220,"current_range_meters":38400,"station_id":"ce4bhbh2rcd13ifvqepg","pricing_plan_id":"cebpf4jnsgd1na2vs0mg"},{"bike_id":"0c38d805-f565-4bec-a6be-96b69df5a3ad","system_id":"levelo_inurba_marseille","lat":43.2894,"lon":5.36636,"is_reserved":false,"is_disabled":false,"rental_uris":{"android":"levelo://app?vid=0c38d805-f565-4bec-a6be-96b69df5a3ad","ios":"levelo://app?vid=0c38d805-f565-4bec-a6be-96b69df5a3ad"},"vehicle_type_id":"4","last_reported":1730650220,"current_range_meters":38800,"station_id":"ce4bhap2rcd13ifvqek0","pricing_plan_id":"cebpf4jnsgd1na2vs0mg"},{"bike_id":"9871620c-a3ac-4995-b682-c70b76b9c645","system_id":"levelo_inurba_marseille","lat":43.23063,"lon":5.3549,"is_reserved":false,"is_disabled":false,"rental_uris":{"android":"levelo://app?vid=9871620c-a3ac-4995-b682-c70b76b9c645","ios":"levelo://app?vid=9871620c-a3ac-4995-b682-c70b76b9c645"},"vehicle_type_id":"4","last_reported":1730650220,"current_range_meters":8000,"station_id":"cpo3342slgdg3j2ifvpg","pricing_plan_id":"cebpf4jnsgd1na2vs0mg"},{"bike_id":"dc8726f3-d735-4639-ab63-e27a358f515b","system_id":"levelo_inurba_marseille","lat":43.23155,"lon":5.43706,"is_reserved":false,"is_disabled":false,"rental_uris":{"android":"levelo://app?vid=dc8726f3-d735-4639-ab63-e27a358f515b","ios":"levelo://app?vid=dc8726f3-d735-4639-ab63-e27a358f515b"},"vehicle_type_id":"4","last_reported":1730650220,"current_range_meters":13600,"station_id":"ce4bhmp2rcd13ifvqgog","pricing_plan_id":"cebpf4jnsgd1na2vs0mg"},{"bike_id":"3a8588e8-96cd-4fd3-b9f0-13856a7f77b8","system_id":"levelo_inurba_marseille","lat":43.25122,"lon":5.40319,"is_reserved":false,"is_disabled":false,"rental_uris":{"android":"levelo://app?vid=3a8588e8-96cd-4fd3-b9f0-13856a7f77b8","ios":"levelo://app?vid=3a8588e8-96cd-4fd3-b9f0-13856a7f77b8"},"vehicle_type_id":"4","last_reported":1730650220,"current_range_meters":6000,"station_id":"ce4bhlh2rcd13ifvqgig","pricing_plan_id":"cebpf4jnsgd1na2vs0mg"},{"bike_id":"1eeb5c5c-a3a6-4ef6-a852-f083a9363eab","system_id":"levelo_inurba_marseille","lat":43.27067,"lon":5.42295,"is_reserved":false,"is_disabled":false,"rental_uris":{"android":"levelo://app?vid=1eeb5c5c-a3a6-4ef6-a852-f083a9363eab","ios":"levelo://app?vid=1eeb5c5c-a3a6-4ef6-a852-f083a9363eab"},"vehicle_type_id":"4","last_reported":1730650220,"current_range_meters":9600,"station_id":"ce4bhk92rcd13ifvqgb0","pricing_plan_id":"cebpf4jnsgd1na2vs0mg"},{"bike_id":"f8f39fc6-0857-4ef9-a982-c3b312d61632","system_id":"levelo_inurba_marseille","lat":43.29801,"lon":5.37073,"is_reserved":false,"is_disabled":false,"rental_uris":{"android":"levelo://app?vid=f8f39fc6-0857-4ef9-a982-c3b312d61632","ios":"levelo://app?vid=f8f39fc6-0857-4ef9-a982-c3b312d61632"},"vehicle_type_id":"4","last_reported":1730650220,"current_range_meters":38800,"station_id":"ce4bgop2rcd13ifvqc1g","pricing_plan_id":"cebpf4jnsgd1na2vs0mg"},{"bike_id":"1e86610f-421e-4bcb-8e1b-7520bf2cf2c6","system_id":"levelo_inurba_marseille","lat":43.28153,"lon":5.42637,"is_reserved":false,"is_disabled":false,"rental_uris":{"android":"levelo://app?vid=1e86610f-421e-4bcb-8e1b-7520bf2cf2c6","ios":"levelo://app?vid=1e86610f-421e-4bcb-8e1b-7520bf2cf2c6"},"vehicle_type_id":"4","last_reported":1730650220,"current_range_meters":4400,"station_id":"ce4bhnh2rcd13ifvqgug","pricing_plan_id":"cebpf4jnsgd1na2vs0mg"},{"bike_id":"bd823d02-3fe6-4a7d-8fbd-7652f62524a0","system_id":"levelo_inurba_marseille","lat":43.25581,"lon":5.38231,"is_reserved":false,"is_disabled":false,"rental_uris":{"android":"levelo://app?vid=bd823d02-3fe6-4a7d-8fbd-7652f62524a0","ios":"levelo://app?vid=bd823d02-3fe6-4a7d-8fbd-7652f62524a0"},"vehicle_type_id":"4","last_reported":1730650220,"current_range_meters":16400,"station_id":"ce4bhih2rcd13ifvqfs0","pricing_plan_id":"cebpf4jnsgd1na2vs0mg"},{"bike_id":"d3dd8180-6f4b-483d-9adb-e3911f2a491e","system_id":"levelo_inurba_marseille","lat":43.30533,"lon":5.36553,"is_reserved":false,"is_disabled":false,"rental_uris":{"android":"levelo://app?vid=d3dd8180-6f4b-483d-9adb-e3911f2a491e","ios":"levelo://app?vid=d3dd8180-6f4b-483d-9adb-e3911f2a491e"},"vehicle_type_id":"4","last_reported":1730650220,"current_range_meters":16400,"station_id":"ce4bgs12rcd13ifvqcag","pricing_plan_id":"cebpf4jnsgd1na2vs0mg"},{"bike_id":"c91d8c06-c02f-4920-a43d-9b39c1810e40","system_id":"levelo_inurba_marseille","lat":43.2706,"lon":5.40262,"is_reserved":false,"is_disabled":false,"rental_uris":{"android":"levelo://app?vid=c91d8c06-c02f-4920-a43d-9b39c1810e40","ios":"levelo://app?vid=c91d8c06-c02f-4920-a43d-9b39c1810e40"},"vehicle_type_id":"4","last_reported":1730650220,"current_range_meters":17200,"station_id":"ce4bhk92rcd13ifvqgc0","pricing_plan_id":"cebpf4jnsgd1na2vs0mg"},{"bike_id":"fcd10467-dc3d-478f-a472-d264849323da","system_id":"levelo_inurba_marseille","lat":43.31495,"lon":5.37313,"is_reserved":false,"is_disabled":false,"rental_uris":{"android":"levelo://app?vid=fcd10467-dc3d-478f-a472-d264849323da","ios":"levelo://app?vid=fcd10467-dc3d-478f-a472-d264849323da"},"vehicle_type_id":"4","last_reported":1730650220,"current_range_meters":38800,"station_id":"ce4bgt12rcd13ifvqcd0","pricing_plan_id":"cebpf4jnsgd1na2vs0mg"},{"bike_id":"12e2a17d-b267-46ea-b046-7d399d7c3544","system_id":"levelo_inurba_marseille","lat":43.33724,"lon":5.39195,"is_reserved":false,"is_disabled":false,"rental_uris":{"android":"levelo://app?vid=12e2a17d-b267-46ea-b046-7d399d7c3544","ios":"levelo://app?vid=12e2a17d-b267-46ea-b046-7d399d7c3544"},"vehicle_type_id":"4","last_reported":1730650220,"current_range_meters":22000,"station_id":"ce4bhr92rcd13ifvqhsg","pricing_plan_id":"cebpf4jnsgd1na2vs0mg"},{"bike_id":"8c7ad5cc-5ff9-4c37-818d-c3f5da68c27c","system_id":"levelo_inurba_marseille","lat":43.28414,"lon":5.37523,"is_reserved":false,"is_disabled":false,"rental_uris":{"android":"levelo://app?vid=8c7ad5cc-5ff9-4c37-818d-c3f5da68c27c","ios":"levelo://app?vid=8c7ad5cc-5ff9-4c37-818d-c3f5da68c27c"},"vehicle_type_id":"4","last_reported":1730650220,"current_range_meters":37600,"station_id":"ce4bh412rcd13ifvqds0","pricing_plan_id":"cebpf4jnsgd1na2vs0mg"},{"bike_id":"ff942ae2-855b-4046-a5a8-9896c717bb82","system_id":"levelo_inurba_marseille","lat":43.23183,"lon":5.3999,"is_reserved":false,"is_disabled":false,"rental_uris":{"android":"levelo://app?vid=ff942ae2-855b-4046-a5a8-9896c717bb82","ios":"levelo://app?vid=ff942ae2-855b-4046-a5a8-9896c717bb82"},"vehicle_type_id":"4","last_reported":1730650220,"current_range_meters":7200,"station_id":"ce4bhn12rcd13ifvqgqg","pricing_plan_id":"cebpf4jnsgd1na2vs0mg"},{"bike_id":"50c61d10-796e-41ff-8615-d9fb252ecb98","system_id":"levelo_inurba_marseille","lat":43.23955,"lon":5.36633,"is_reserved":false,"is_disabled":false,"rental_uris":{"android":"levelo://app?vid=50c61d10-796e-41ff-8615-d9fb252ecb98","ios":"levelo://app?vid=50c61d10-796e-41ff-8615-d9fb252ecb98"},"vehicle_type_id":"4","last_reported":1730650220,"current_range_meters":33200,"station_id":"ce4bhi12rcd13ifvqfp0","pricing_plan_id":"cebpf4jnsgd1na2vs0mg"},{"bike_id":"700e9793-5533-4ed5-9ba6-8427ac14cd62","system_id":"levelo_inurba_marseille","lat":43.29527,"lon":5.38546,"is_reserved":false,"is_disabled":false,"rental_uris":{"android":"levelo://app?vid=700e9793-5533-4ed5-9ba6-8427ac14cd62","ios":"levelo://app?vid=700e9793-5533-4ed5-9ba6-8427ac14cd62"},"vehicle_type_id":"4","last_reported":1730650220,"current_range_meters":12800,"station_id":"ce4bgih2rcd13ifvqba0","pricing_plan_id":"cebpf4jnsgd1na2vs0mg"},{"bike_id":"ad8a018d-d842-49c6-9589-1799b6d23939","system_id":"levelo_inurba_marseille","lat":43.27379,"lon":5.3626,"is_reserved":false,"is_disabled":false,"rental_uris":{"android":"levelo://app?vid=ad8a018d-d842-49c6-9589-1799b6d23939","ios":"levelo://app?vid=ad8a018d-d842-49c6-9589-1799b6d23939"},"vehicle_type_id":"4","last_reported":1730650220,"current_range_meters":25200,"station_id":"ce4bhbh2rcd13ifvqeo0","pricing_plan_id":"cebpf4jnsgd1na2vs0mg"},{"bike_id":"d4472d20-9c4b-4c70-ad00-3a005519a429","system_id":"levelo_inurba_marseille","lat":43.35418,"lon":5.35715,"is_reserved":false,"is_disabled":false,"rental_uris":{"android":"levelo://app?vid=d4472d20-9c4b-4c70-ad00-3a005519a429","ios":"levelo://app?vid=d4472d20-9c4b-4c70-ad00-3a005519a429"},"vehicle_type_id":"4","last_reported":1730650220,"current_range_meters":14400,"station_id":"","pricing_plan_id":"cebpf4jnsgd1na2vs0mg"},{"bike_id":"6338020e-474a-4c99-b365-eea26fe54739","system_id":"levelo_inurba_marseille","lat":43.32286,"lon":5.38281,"is_reserved":false,"is_disabled":false,"rental_uris":{"android":"levelo://app?vid=6338020e-474a-4c99-b365-eea26fe54739","ios":"levelo://app?vid=6338020e-474a-4c99-b365-eea26fe54739"},"vehicle_type_id":"4","last_reported":1730650220,"current_range_meters":38800,"station_id":"ce4bhr12rcd13ifvqhqg","pricing_plan_id":"cebpf4jnsgd1na2vs0mg"},{"bike_id":"d67165ea-aa49-4e4a-9b98-045360840c75","system_id":"levelo_inurba_marseille","lat":43.30536,"lon":5.36524,"is_reserved":false,"is_disabled":false,"rental_uris":{"android":"levelo://app?vid=d67165ea-aa49-4e4a-9b98-045360840c75","ios":"levelo://app?vid=d67165ea-aa49-4e4a-9b98-045360840c75"},"vehicle_type_id":"4","last_reported":1730650220,"current_range_meters":8000,"station_id":"ce4bgs12rcd13ifvqcag","pricing_plan_id":"cebpf4jnsgd1na2vs0mg"},{"bike_id":"262b75cb-4cc5-4ff2-869a-f6570dba6a1f","system_id":"levelo_inurba_marseille","lat":43.30892,"lon":5.37192,"is_reserved":false,"is_disabled":false,"rental_uris":{"android":"levelo://app?vid=262b75cb-4cc5-4ff2-869a-f6570dba6a1f","ios":"levelo://app?vid=262b75cb-4cc5-4ff2-869a-f6570dba6a1f"},"vehicle_type_id":"4","last_reported":1730650220,"current_range_meters":16400,"station_id":"ce4bguh2rcd13ifvqckg","pricing_plan_id":"cebpf4jnsgd1na2vs0mg"},{"bike_id":"4d838921-ecf0-47e9-891e-f3ee5c37121f","system_id":"levelo_inurba_marseille","lat":43.28271,"lon":5.35077,"is_reserved":false,"is_disabled":false,"rental_uris":{"android":"levelo://app?vid=4d838921-ecf0-47e9-891e-f3ee5c37121f","ios":"levelo://app?vid=4d838921-ecf0-47e9-891e-f3ee5c37121f"},"vehicle_type_id":"4","last_reported":1730650220,"current_range_meters":34000,"station_id":"ce4bhbp2rcd13ifvqerg","pricing_plan_id":"cebpf4jnsgd1na2vs0mg"},{"bike_id":"3db05c07-593a-4e10-b16a-896825de2269","system_id":"levelo_inurba_marseille","lat":43.298542,"lon":5.362849,"is_reserved":false,"is_disabled":false,"rental_uris":{"android":"levelo://app?vid=3db05c07-593a-4e10-b16a-896825de2269","ios":"levelo://app?vid=3db05c07-593a-4e10-b16a-896825de2269"},"vehicle_type_id":"4","last_reported":1730650220,"current_range_meters":0,"station_id":"ce4bgpp2rcd13ifvqc3g","pricing_plan_id":"cebpf4jnsgd1na2vs0mg"},{"bike_id":"f8833f7b-49c8-440c-b671-beb72799bdec","system_id":"levelo_inurba_marseille","lat":43.24979,"lon":5.37513,"is_reserved":false,"is_disabled":false,"rental_uris":{"android":"levelo://app?vid=f8833f7b-49c8-440c-b671-beb72799bdec","ios":"levelo://app?vid=f8833f7b-49c8-440c-b671-beb72799bdec"},"vehicle_type_id":"4","last_reported":1730650220,"current_range_meters":30400,"station_id":"","pricing_plan_id":"cebpf4jnsgd1na2vs0mg"},{"bike_id":"8e2c05be-bb63-4667-bbf2-08bd24c66ea1","system_id":"levelo_inurba_marseille","lat":43.24173,"lon":5.36409,"is_reserved":false,"is_disabled":false,"rental_uris":{"android":"levelo://app?vid=8e2c05be-bb63-4667-bbf2-08bd24c66ea1","ios":"levelo://app?vid=8e2c05be-bb63-4667-bbf2-08bd24c66ea1"},"vehicle_type_id":"4","last_reported":1730650220,"current_range_meters":16400,"station_id":"cpo36qri1sfpv3e86is0","pricing_plan_id":"cebpf4jnsgd1na2vs0mg"},{"bike_id":"ae8d22e1-1fd6-494f-8f55-901a06b1bc58","system_id":"levelo_inurba_marseille","lat":43.26567,"lon":5.39014,"is_reserved":false,"is_disabled":false,"rental_uris":{"android":"levelo://app?vid=ae8d22e1-1fd6-494f-8f55-901a06b1bc58","ios":"levelo://app?vid=ae8d22e1-1fd6-494f-8f55-901a06b1bc58"},"vehicle_type_id":"4","last_reported":1730650220,"current_range_meters":18800,"station_id":"ce4bhe12rcd13ifvqf30","pricing_plan_id":"cebpf4jnsgd1na2vs0mg"},{"bike_id":"5bdeb517-1a4b-4c75-910b-1f223b816670","system_id":"levelo_inurba_marseille","lat":43.324778,"lon":5.365608,"is_reserved":false,"is_disabled":false,"rental_uris":{"android":"levelo://app?vid=5bdeb517-1a4b-4c75-910b-1f223b816670","ios":"levelo://app?vid=5bdeb517-1a4b-4c75-910b-1f223b816670"},"vehicle_type_id":"4","last_reported":1730650220,"current_range_meters":36800,"station_id":"ce4bhs12rcd13ifvqhvg","pricing_plan_id":"cebpf4jnsgd1na2vs0mg"},{"bike_id":"2b4bbfed-255f-4cd0-bf8b-80e072c9cbe9","system_id":"levelo_inurba_marseille","lat":43.32105,"lon":5.3678,"is_reserved":false,"is_disabled":false,"rental_uris":{"android":"levelo://app?vid=2b4bbfed-255f-4cd0-bf8b-80e072c9cbe9","ios":"levelo://app?vid=2b4bbfed-255f-4cd0-bf8b-80e072c9cbe9"},"vehicle_type_id":"4","last_reported":1730650220,"current_range_meters":9200,"station_id":"ce4bhrh2rcd13ifvqhug","pricing_plan_id":"cebpf4jnsgd1na2vs0mg"},{"bike_id":"18402065-9e87-476b-95ad-30853de181a0","system_id":"levelo_inurba_marseille","lat":43.32455,"lon":5.45543,"is_reserved":false,"is_disabled":false,"rental_uris":{"android":"levelo://app?vid=18402065-9e87-476b-95ad-30853de181a0","ios":"levelo://app?vid=18402065-9e87-476b-95ad-30853de181a0"},"vehicle_type_id":"4","last_reported":1730650220,"current_range_meters":2800,"station_id":"","pricing_plan_id":"cebpf4jnsgd1na2vs0mg"},{"bike_id":"0795f4cf-259d-417a-8820-3a6b012ae7cb","system_id":"levelo_inurba_marseille","lat":43.23197,"lon":5.35551,"is_reserved":false,"is_disabled":false,"rental_uris":{"android":"levelo://app?vid=0795f4cf-259d-417a-8820-3a6b012ae7cb","ios":"levelo://app?vid=0795f4cf-259d-417a-8820-3a6b012ae7cb"},"vehicle_type_id":"4","last_reported":1730650220,"current_range_meters":28400,"station_id":"ce4bhu92rcd13ifvqi70","pricing_plan_id":"cebpf4jnsgd1na2vs0mg"},{"bike_id":"8220704b-d08f-4db9-95de-59a38ba4c86b","system_id":"levelo_inurba_marseille","lat":43.2718,"lon":5.40989,"is_reserved":false,"is_disabled":false,"rental_uris":{"android":"levelo://app?vid=8220704b-d08f-4db9-95de-59a38ba4c86b","ios":"levelo://app?vid=8220704b-d08f-4db9-95de-59a38ba4c86b"},"vehicle_type_id":"4","last_reported":1730650220,"current_range_meters":38800,"station_id":"ce4bhl12rcd13ifvqgf0","pricing_plan_id":"cebpf4jnsgd1na2vs0mg"},{"bike_id":"2f86bedd-5674-41fc-a0bb-a88686f75bd4","system_id":"levelo_inurba_marseille","lat":43.2572,"lon":5.41118,"is_reserved":false,"is_disabled":false,"rental_uris":{"android":"levelo://app?vid=2f86bedd-5674-41fc-a0bb-a88686f75bd4","ios":"levelo://app?vid=2f86bedd-5674-41fc-a0bb-a88686f75bd4"},"vehicle_type_id":"4","last_reported":1730650220,"current_range_meters":3600,"station_id":"ce4bhkp2rcd13ifvqgd0","pricing_plan_id":"cebpf4jnsgd1na2vs0mg"},{"bike_id":"d5541a12-439a-4845-841b-6ce96c9850ba","system_id":"levelo_inurba_marseille","lat":43.24805,"lon":5.37452,"is_reserved":false,"is_disabled":false,"rental_uris":{"android":"levelo://app?vid=d5541a12-439a-4845-841b-6ce96c9850ba","ios":"levelo://app?vid=d5541a12-439a-4845-841b-6ce96c9850ba"},"vehicle_type_id":"4","last_reported":1730650220,"current_range_meters":16000,"station_id":"ce4bhgh2rcd13ifvqfb0","pricing_plan_id":"cebpf4jnsgd1na2vs0mg"},{"bike_id":"447ba1a0-36db-4fd1-bfdc-2efe1729cb2e","system_id":"levelo_inurba_marseille","lat":43.24808,"lon":5.3746,"is_reserved":false,"is_disabled":false,"rental_uris":{"android":"levelo://app?vid=447ba1a0-36db-4fd1-bfdc-2efe1729cb2e","ios":"levelo://app?vid=447ba1a0-36db-4fd1-bfdc-2efe1729cb2e"},"vehicle_type_id":"4","last_reported":1730650220,"current_range_meters":38800,"station_id":"ce4bhgh2rcd13ifvqfb0","pricing_plan_id":"cebpf4jnsgd1na2vs0mg"},{"bike_id":"4717299b-c12a-4e66-8886-603dc0cf3ee2","system_id":"levelo_inurba_marseille","lat":43.30924,"lon":5.40142,"is_reserved":false,"is_disabled":false,"rental_uris":{"android":"levelo://app?vid=4717299b-c12a-4e66-8886-603dc0cf3ee2","ios":"levelo://app?vid=4717299b-c12a-4e66-8886-603dc0cf3ee2"},"vehicle_type_id":"4","last_reported":1730650220,"current_range_meters":34800,"station_id":"ce4bgvp2rcd13ifvqct0","pricing_plan_id":"cebpf4jnsgd1na2vs0mg"},{"bike_id":"13b722c5-a092-4f9c-999a-0e0145c6548b","system_id":"levelo_inurba_marseille","lat":43.31225,"lon":5.36846,"is_reserved":false,"is_disabled":false,"rental_uris":{"android":"levelo://app?vid=13b722c5-a092-4f9c-999a-0e0145c6548b","ios":"levelo://app?vid=13b722c5-a092-4f9c-999a-0e0145c6548b"},"vehicle_type_id":"4","last_reported":1730650220,"current_range_meters":24000,"station_id":"ce4bgl92rcd13ifvqbq0","pricing_plan_id":"cebpf4jnsgd1na2vs0mg"},{"bike_id":"8395e5a1-6f1c-4888-976f-18d1cb6b7bc3","system_id":"levelo_inurba_marseille","lat":43.29786,"lon":5.38106,"is_reserved":false,"is_disabled":false,"rental_uris":{"android":"levelo://app?vid=8395e5a1-6f1c-4888-976f-18d1cb6b7bc3","ios":"levelo://app?vid=8395e5a1-6f1c-4888-976f-18d1cb6b7bc3"},"vehicle_type_id":"4","last_reported":1730650220,"current_range_meters":33600,"station_id":"ce4bgip2rcd13ifvqbb0","pricing_plan_id":"cebpf4jnsgd1na2vs0mg"},{"bike_id":"96841145-a99c-4589-96b8-beaaab134d22","system_id":"levelo_inurba_marseille","lat":43.27994,"lon":5.4002,"is_reserved":false,"is_disabled":false,"rental_uris":{"android":"levelo://app?vid=96841145-a99c-4589-96b8-beaaab134d22","ios":"levelo://app?vid=96841145-a99c-4589-96b8-beaaab134d22"},"vehicle_type_id":"4","last_reported":1730650220,"current_range_meters":38800,"station_id":"ce4bho92rcd13ifvqh4g","pricing_plan_id":"cebpf4jnsgd1na2vs0mg"},{"bike_id":"66af1383-325e-45ce-98a5-e5d990004f0f","system_id":"levelo_inurba_marseille","lat":43.27055,"lon":5.40265,"is_reserved":false,"is_disabled":false,"rental_uris":{"android":"levelo://app?vid=66af1383-325e-45ce-98a5-e5d990004f0f","ios":"levelo://app?vid=66af1383-325e-45ce-98a5-e5d990004f0f"},"vehicle_type_id":"4","last_reported":1730650220,"current_range_meters":16400,"station_id":"ce4bhk92rcd13ifvqgc0","pricing_plan_id":"cebpf4jnsgd1na2vs0mg"},{"bike_id":"e4aa7f36-b0fe-47e3-9ec1-0dd54baac1d5","system_id":"levelo_inurba_marseille","lat":43.23189,"lon":5.3556,"is_reserved":false,"is_disabled":false,"rental_uris":{"android":"levelo://app?vid=e4aa7f36-b0fe-47e3-9ec1-0dd54baac1d5","ios":"levelo://app?vid=e4aa7f36-b0fe-47e3-9ec1-0dd54baac1d5"},"vehicle_type_id":"4","last_reported":1730650220,"current_range_meters":35200,"station_id":"ce4bhu92rcd13ifvqi70","pricing_plan_id":"cebpf4jnsgd1na2vs0mg"},{"bike_id":"cfb692ee-75a4-498d-b9d5-44453c13487e","system_id":"levelo_inurba_marseille","lat":43.31073,"lon":5.38348,"is_reserved":false,"is_disabled":false,"rental_uris":{"android":"levelo://app?vid=cfb692ee-75a4-498d-b9d5-44453c13487e","ios":"levelo://app?vid=cfb692ee-75a4-498d-b9d5-44453c13487e"},"vehicle_type_id":"4","last_reported":1730650220,"current_range_meters":28400,"station_id":"ce4bgv92rcd13ifvqcr0","pricing_plan_id":"cebpf4jnsgd1na2vs0mg"},{"bike_id":"f2d73ede-4643-40fc-9fa5-b48868fcc664","system_id":"levelo_inurba_marseille","lat":43.2321,"lon":5.35554,"is_reserved":false,"is_disabled":false,"rental_uris":{"android":"levelo://app?vid=f2d73ede-4643-40fc-9fa5-b48868fcc664","ios":"levelo://app?vid=f2d73ede-4643-40fc-9fa5-b48868fcc664"},"vehicle_type_id":"4","last_reported":1730650220,"current_range_meters":30800,"station_id":"ce4bhu92rcd13ifvqi70","pricing_plan_id":"cebpf4jnsgd1na2vs0mg"},{"bike_id":"739c9dca-9415-4b03-859b-1606e5caa095","system_id":"levelo_inurba_marseille","lat":43.34142,"lon":5.40909,"is_reserved":false,"is_disabled":false,"rental_uris":{"android":"levelo://app?vid=739c9dca-9415-4b03-859b-1606e5caa095","ios":"levelo://app?vid=739c9dca-9415-4b03-859b-1606e5caa095"},"vehicle_type_id":"4","last_reported":1730650220,"current_range_meters":25600,"station_id":"ce4bhqh2rcd13ifvqhlg","pricing_plan_id":"cebpf4jnsgd1na2vs0mg"},{"bike_id":"1b80601b-8be3-4b0b-bcc4-eebb89de1629","system_id":"levelo_inurba_marseille","lat":43.25824,"lon":5.39431,"is_reserved":false,"is_disabled":false,"rental_uris":{"android":"levelo://app?vid=1b80601b-8be3-4b0b-bcc4-eebb89de1629","ios":"levelo://app?vid=1b80601b-8be3-4b0b-bcc4-eebb89de1629"},"vehicle_type_id":"4","last_reported":1730650220,"current_range_meters":34800,"station_id":"ce4bhip2rcd13ifvqft0","pricing_plan_id":"cebpf4jnsgd1na2vs0mg"},{"bike_id":"cb260b96-8c2f-480d-ae38-1fe9d868e6c9","system_id":"levelo_inurba_marseille","lat":43.24169,"lon":5.36402,"is_reserved":false,"is_disabled":false,"rental_uris":{"android":"levelo://app?vid=cb260b96-8c2f-480d-ae38-1fe9d868e6c9","ios":"levelo://app?vid=cb260b96-8c2f-480d-ae38-1fe9d868e6c9"},"vehicle_type_id":"4","last_reported":1730650220,"current_range_meters":11600,"station_id":"cpo36qri1sfpv3e86is0","pricing_plan_id":"cebpf4jnsgd1na2vs0mg"},{"bike_id":"76bbb358-ce07-45ef-bb42-123c6aa2c4f1","system_id":"levelo_inurba_marseille","lat":43.28418,"lon":5.35003,"is_reserved":false,"is_disabled":false,"rental_uris":{"android":"levelo://app?vid=76bbb358-ce07-45ef-bb42-123c6aa2c4f1","ios":"levelo://app?vid=76bbb358-ce07-45ef-bb42-123c6aa2c4f1"},"vehicle_type_id":"4","last_reported":1730650220,"current_range_meters":35200,"station_id":"ce4bhbh2rcd13ifvqepg","pricing_plan_id":"cebpf4jnsgd1na2vs0mg"},{"bike_id":"9a2226c3-aea4-4ab9-80bd-376dbe89bea8","system_id":"levelo_inurba_marseille","lat":43.29192,"lon":5.3581,"is_reserved":false,"is_disabled":false,"rental_uris":{"android":"levelo://app?vid=9a2226c3-aea4-4ab9-80bd-376dbe89bea8","ios":"levelo://app?vid=9a2226c3-aea4-4ab9-80bd-376dbe89bea8"},"vehicle_type_id":"4","last_reported":1730650220,"current_range_meters":23200,"station_id":"ce4bhb12rcd13ifvqel0","pricing_plan_id":"cebpf4jnsgd1na2vs0mg"},{"bike_id":"e4f393fb-bd2d-45fb-8003-4de8afe872d1","system_id":"levelo_inurba_marseille","lat":43.28446,"lon":5.39204,"is_reserved":false,"is_disabled":false,"rental_uris":{"android":"levelo://app?vid=e4f393fb-bd2d-45fb-8003-4de8afe872d1","ios":"levelo://app?vid=e4f393fb-bd2d-45fb-8003-4de8afe872d1"},"vehicle_type_id":"4","last_reported":1730650220,"current_range_meters":14000,"station_id":"ce4bhoh2rcd13ifvqh5g","pricing_plan_id":"cebpf4jnsgd1na2vs0mg"},{"bike_id":"581392ef-bf00-4538-9de0-6e66c216240f","system_id":"levelo_inurba_marseille","lat":43.2464,"lon":5.38897,"is_reserved":false,"is_disabled":false,"rental_uris":{"android":"levelo://app?vid=581392ef-bf00-4538-9de0-6e66c216240f","ios":"levelo://app?vid=581392ef-bf00-4538-9de0-6e66c216240f"},"vehicle_type_id":"4","last_reported":1730650220,"current_range_meters":35200,"station_id":"ce4bhg12rcd13ifvqf60","pricing_plan_id":"cebpf4jnsgd1na2vs0mg"},{"bike_id":"8c67d340-801d-46e5-b910-2f8aff3ff078","system_id":"levelo_inurba_marseille","lat":43.33318,"lon":5.37073,"is_reserved":false,"is_disabled":false,"rental_uris":{"android":"levelo://app?vid=8c67d340-801d-46e5-b910-2f8aff3ff078","ios":"levelo://app?vid=8c67d340-801d-46e5-b910-2f8aff3ff078"},"vehicle_type_id":"4","last_reported":1730650220,"current_range_meters":5600,"station_id":"","pricing_plan_id":"cebpf4jnsgd1na2vs0mg"},{"bike_id":"ff196df9-cd0b-49da-bbc5-2fe89245a9e6","system_id":"levelo_inurba_marseille","lat":43.306,"lon":5.37224,"is_reserved":false,"is_disabled":false,"rental_uris":{"android":"levelo://app?vid=ff196df9-cd0b-49da-bbc5-2fe89245a9e6","ios":"levelo://app?vid=ff196df9-cd0b-49da-bbc5-2fe89245a9e6"},"vehicle_type_id":"4","last_reported":1730650220,"current_range_meters":2800,"station_id":"ce4bgqh2rcd13ifvqc4g","pricing_plan_id":"cebpf4jnsgd1na2vs0mg"},{"bike_id":"79f5032c-4427-40bb-bbad-7f35acb21ebc","system_id":"levelo_inurba_marseille","lat":43.32283,"lon":5.38291,"is_reserved":false,"is_disabled":false,"rental_uris":{"android":"levelo://app?vid=79f5032c-4427-40bb-bbad-7f35acb21ebc","ios":"levelo://app?vid=79f5032c-4427-40bb-bbad-7f35acb21ebc"},"vehicle_type_id":"4","last_reported":1730650220,"current_range_meters":16800,"station_id":"ce4bhr12rcd13ifvqhqg","pricing_plan_id":"cebpf4jnsgd1na2vs0mg"},{"bike_id":"010941e6-0273-4239-95dd-9c4b6bcd2ed1","system_id":"levelo_inurba_marseille","lat":43.26201,"lon":5.37931,"is_reserved":false,"is_disabled":false,"rental_uris":{"android":"levelo://app?vid=010941e6-0273-4239-95dd-9c4b6bcd2ed1","ios":"levelo://app?vid=010941e6-0273-4239-95dd-9c4b6bcd2ed1"},"vehicle_type_id":"4","last_reported":1730650220,"current_range_meters":28800,"station_id":"ce4bhjp2rcd13ifvqg90","pricing_plan_id":"cebpf4jnsgd1na2vs0mg"},{"bike_id":"62a29f41-f43a-474f-9b01-2f444ac4c61f","system_id":"levelo_inurba_marseille","lat":43.27378,"lon":5.36265,"is_reserved":false,"is_disabled":false,"rental_uris":{"android":"levelo://app?vid=62a29f41-f43a-474f-9b01-2f444ac4c61f","ios":"levelo://app?vid=62a29f41-f43a-474f-9b01-2f444ac4c61f"},"vehicle_type_id":"4","last_reported":1730650220,"current_range_meters":2800,"station_id":"ce4bhbh2rcd13ifvqeo0","pricing_plan_id":"cebpf4jnsgd1na2vs0mg"},{"bike_id":"60aae3a5-a57b-4783-94a7-408e09ef4fc3","system_id":"levelo_inurba_marseille","lat":43.28942,"lon":5.36647,"is_reserved":false,"is_disabled":false,"rental_uris":{"android":"levelo://app?vid=60aae3a5-a57b-4783-94a7-408e09ef4fc3","ios":"levelo://app?vid=60aae3a5-a57b-4783-94a7-408e09ef4fc3"},"vehicle_type_id":"4","last_reported":1730650220,"current_range_meters":32400,"station_id":"ce4bhap2rcd13ifvqek0","pricing_plan_id":"cebpf4jnsgd1na2vs0mg"},{"bike_id":"edd401b0-0c05-4acf-9402-bda938795dd3","system_id":"levelo_inurba_marseille","lat":43.2696,"lon":5.38633,"is_reserved":false,"is_disabled":false,"rental_uris":{"android":"levelo://app?vid=edd401b0-0c05-4acf-9402-bda938795dd3","ios":"levelo://app?vid=edd401b0-0c05-4acf-9402-bda938795dd3"},"vehicle_type_id":"4","last_reported":1730650220,"current_range_meters":25600,"station_id":"ce4bhh92rcd13ifvqfh0","pricing_plan_id":"cebpf4jnsgd1na2vs0mg"},{"bike_id":"4a1d8439-1214-4202-be9f-3596b2b443f5","system_id":"levelo_inurba_marseille","lat":43.2656,"lon":5.37285,"is_reserved":false,"is_disabled":false,"rental_uris":{"android":"levelo://app?vid=4a1d8439-1214-4202-be9f-3596b2b443f5","ios":"levelo://app?vid=4a1d8439-1214-4202-be9f-3596b2b443f5"},"vehicle_type_id":"4","last_reported":1730650220,"current_range_meters":3200,"station_id":"ce4bhg12rcd13ifvqf70","pricing_plan_id":"cebpf4jnsgd1na2vs0mg"},{"bike_id":"f138e776-1ec3-4faf-bdec-6cd18a511ee8","system_id":"levelo_inurba_marseille","lat":43.28425,"lon":5.34991,"is_reserved":false,"is_disabled":false,"rental_uris":{"android":"levelo://app?vid=f138e776-1ec3-4faf-bdec-6cd18a511ee8","ios":"levelo://app?vid=f138e776-1ec3-4faf-bdec-6cd18a511ee8"},"vehicle_type_id":"4","last_reported":1730650220,"current_range_meters":12400,"station_id":"ce4bhbh2rcd13ifvqepg","pricing_plan_id":"cebpf4jnsgd1na2vs0mg"},{"bike_id":"fa9e6bfe-937a-4cbb-883b-0de597b7ca1c","system_id":"levelo_inurba_marseille","lat":43.27375,"lon":5.36263,"is_reserved":false,"is_disabled":false,"rental_uris":{"android":"levelo://app?vid=fa9e6bfe-937a-4cbb-883b-0de597b7ca1c","ios":"levelo://app?vid=fa9e6bfe-937a-4cbb-883b-0de597b7ca1c"},"vehicle_type_id":"4","last_reported":1730650220,"current_range_meters":6800,"station_id":"ce4bhbh2rcd13ifvqeo0","pricing_plan_id":"cebpf4jnsgd1na2vs0mg"},{"bike_id":"d5324ca5-5a3a-4892-bb8c-7dbf331e6ea6","system_id":"levelo_inurba_marseille","lat":43.3248,"lon":5.36573,"is_reserved":false,"is_disabled":false,"rental_uris":{"android":"levelo://app?vid=d5324ca5-5a3a-4892-bb8c-7dbf331e6ea6","ios":"levelo://app?vid=d5324ca5-5a3a-4892-bb8c-7dbf331e6ea6"},"vehicle_type_id":"4","last_reported":1730650220,"current_range_meters":38800,"station_id":"ce4bhs12rcd13ifvqhvg","pricing_plan_id":"cebpf4jnsgd1na2vs0mg"},{"bike_id":"09902777-6c2c-4750-8077-84104899eb05","system_id":"levelo_inurba_marseille","lat":43.30555,"lon":5.38416,"is_reserved":false,"is_disabled":false,"rental_uris":{"android":"levelo://app?vid=09902777-6c2c-4750-8077-84104899eb05","ios":"levelo://app?vid=09902777-6c2c-4750-8077-84104899eb05"},"vehicle_type_id":"4","last_reported":1730650220,"current_range_meters":12400,"station_id":"ce4bgg92rcd13ifvqb30","pricing_plan_id":"cebpf4jnsgd1na2vs0mg"},{"bike_id":"b0460e6d-3aeb-4b4b-acd1-e2dea6be02ea","system_id":"levelo_inurba_marseille","lat":43.28615,"lon":5.35114,"is_reserved":false,"is_disabled":false,"rental_uris":{"android":"levelo://app?vid=b0460e6d-3aeb-4b4b-acd1-e2dea6be02ea","ios":"levelo://app?vid=b0460e6d-3aeb-4b4b-acd1-e2dea6be02ea"},"vehicle_type_id":"4","last_reported":1730650220,"current_range_meters":38800,"station_id":"ce4bhch2rcd13ifvqeug","pricing_plan_id":"cebpf4jnsgd1na2vs0mg"},{"bike_id":"7b8934ab-1a6b-4c2d-b5fa-40771c000556","system_id":"levelo_inurba_marseille","lat":43.27071,"lon":5.42273,"is_reserved":false,"is_disabled":false,"rental_uris":{"android":"levelo://app?vid=7b8934ab-1a6b-4c2d-b5fa-40771c000556","ios":"levelo://app?vid=7b8934ab-1a6b-4c2d-b5fa-40771c000556"},"vehicle_type_id":"4","last_reported":1730650220,"current_range_meters":22800,"station_id":"ce4bhk92rcd13ifvqgb0","pricing_plan_id":"cebpf4jnsgd1na2vs0mg"},{"bike_id":"832b60bc-0d06-41a3-b29c-3ff7d0f476e1","system_id":"levelo_inurba_marseille","lat":43.23188,"lon":5.35562,"is_reserved":false,"is_disabled":false,"rental_uris":{"android":"levelo://app?vid=832b60bc-0d06-41a3-b29c-3ff7d0f476e1","ios":"levelo://app?vid=832b60bc-0d06-41a3-b29c-3ff7d0f476e1"},"vehicle_type_id":"4","last_reported":1730650220,"current_range_meters":38800,"station_id":"ce4bhu92rcd13ifvqi70","pricing_plan_id":"cebpf4jnsgd1na2vs0mg"},{"bike_id":"7580d83e-3d7c-46be-82b1-25f013a114af","system_id":"levelo_inurba_marseille","lat":43.32294,"lon":5.38274,"is_reserved":false,"is_disabled":false,"rental_uris":{"android":"levelo://app?vid=7580d83e-3d7c-46be-82b1-25f013a114af","ios":"levelo://app?vid=7580d83e-3d7c-46be-82b1-25f013a114af"},"vehicle_type_id":"4","last_reported":1730650220,"current_range_meters":24000,"station_id":"ce4bhr12rcd13ifvqhqg","pricing_plan_id":"cebpf4jnsgd1na2vs0mg"},{"bike_id":"04b55f9a-b28b-4505-a7ac-dbe57ec6aab8","system_id":"levelo_inurba_marseille","lat":43.2306,"lon":5.35499,"is_reserved":false,"is_disabled":false,"rental_uris":{"android":"levelo://app?vid=04b55f9a-b28b-4505-a7ac-dbe57ec6aab8","ios":"levelo://app?vid=04b55f9a-b28b-4505-a7ac-dbe57ec6aab8"},"vehicle_type_id":"4","last_reported":1730650220,"current_range_meters":24800,"station_id":"cpo3342slgdg3j2ifvpg","pricing_plan_id":"cebpf4jnsgd1na2vs0mg"},{"bike_id":"c36500d8-3c1b-40b4-b412-de69c457b9cb","system_id":"levelo_inurba_marseille","lat":43.27399,"lon":5.42054,"is_reserved":false,"is_disabled":false,"rental_uris":{"android":"levelo://app?vid=c36500d8-3c1b-40b4-b412-de69c457b9cb","ios":"levelo://app?vid=c36500d8-3c1b-40b4-b412-de69c457b9cb"},"vehicle_type_id":"4","last_reported":1730650220,"current_range_meters":6800,"station_id":"","pricing_plan_id":"cebpf4jnsgd1na2vs0mg"},{"bike_id":"61b5c281-8ce6-4a4d-9201-7286f862d85c","system_id":"levelo_inurba_marseille","lat":43.28424,"lon":5.34989,"is_reserved":false,"is_disabled":false,"rental_uris":{"android":"levelo://app?vid=61b5c281-8ce6-4a4d-9201-7286f862d85c","ios":"levelo://app?vid=61b5c281-8ce6-4a4d-9201-7286f862d85c"},"vehicle_type_id":"4","last_reported":1730650220,"current_range_meters":22400,"station_id":"ce4bhbh2rcd13ifvqepg","pricing_plan_id":"cebpf4jnsgd1na2vs0mg"},{"bike_id":"7fe063a0-3ba2-4692-8175-0e7ef1c21909","system_id":"levelo_inurba_marseille","lat":43.30144,"lon":5.37415,"is_reserved":false,"is_disabled":false,"rental_uris":{"android":"levelo://app?vid=7fe063a0-3ba2-4692-8175-0e7ef1c21909","ios":"levelo://app?vid=7fe063a0-3ba2-4692-8175-0e7ef1c21909"},"vehicle_type_id":"4","last_reported":1730650220,"current_range_meters":1600,"station_id":"ce4bgs92rcd13ifvqcc0","pricing_plan_id":"cebpf4jnsgd1na2vs0mg"},{"bike_id":"1e185788-9907-4bdb-b6af-00236c99911a","system_id":"levelo_inurba_marseille","lat":43.27067,"lon":5.42278,"is_reserved":false,"is_disabled":false,"rental_uris":{"android":"levelo://app?vid=1e185788-9907-4bdb-b6af-00236c99911a","ios":"levelo://app?vid=1e185788-9907-4bdb-b6af-00236c99911a"},"vehicle_type_id":"4","last_reported":1730650220,"current_range_meters":20000,"station_id":"ce4bhk92rcd13ifvqgb0","pricing_plan_id":"cebpf4jnsgd1na2vs0mg"},{"bike_id":"ccb56e58-0143-4968-bdba-c41bfab26b44","system_id":"levelo_inurba_marseille","lat":43.28415,"lon":5.34997,"is_reserved":false,"is_disabled":false,"rental_uris":{"android":"levelo://app?vid=ccb56e58-0143-4968-bdba-c41bfab26b44","ios":"levelo://app?vid=ccb56e58-0143-4968-bdba-c41bfab26b44"},"vehicle_type_id":"4","last_reported":1730650220,"current_range_meters":25200,"station_id":"ce4bhbh2rcd13ifvqepg","pricing_plan_id":"cebpf4jnsgd1na2vs0mg"},{"bike_id":"1785ce09-8fc7-43c2-b44a-32364932e3f8","system_id":"levelo_inurba_marseille","lat":43.29001,"lon":5.35619,"is_reserved":false,"is_disabled":false,"rental_uris":{"android":"levelo://app?vid=1785ce09-8fc7-43c2-b44a-32364932e3f8","ios":"levelo://app?vid=1785ce09-8fc7-43c2-b44a-32364932e3f8"},"vehicle_type_id":"4","last_reported":1730650220,"current_range_meters":9200,"station_id":"ce4bhb92rcd13ifvqen0","pricing_plan_id":"cebpf4jnsgd1na2vs0mg"},{"bike_id":"6d448a69-31eb-4201-ae64-e9a45d2d7f04","system_id":"levelo_inurba_marseille","lat":43.28608,"lon":5.3708,"is_reserved":false,"is_disabled":false,"rental_uris":{"android":"levelo://app?vid=6d448a69-31eb-4201-ae64-e9a45d2d7f04","ios":"levelo://app?vid=6d448a69-31eb-4201-ae64-e9a45d2d7f04"},"vehicle_type_id":"4","last_reported":1730650220,"current_range_meters":6400,"station_id":"ce4bht12rcd13ifvqi60","pricing_plan_id":"cebpf4jnsgd1na2vs0mg"},{"bike_id":"f847b07f-cadb-4299-bb84-4f9727330bb7","system_id":"levelo_inurba_marseille","lat":43.28608,"lon":5.35111,"is_reserved":false,"is_disabled":false,"rental_uris":{"android":"levelo://app?vid=f847b07f-cadb-4299-bb84-4f9727330bb7","ios":"levelo://app?vid=f847b07f-cadb-4299-bb84-4f9727330bb7"},"vehicle_type_id":"4","last_reported":1730650220,"current_range_meters":17200,"station_id":"ce4bhch2rcd13ifvqeug","pricing_plan_id":"cebpf4jnsgd1na2vs0mg"},{"bike_id":"5e7aef04-5f8f-4931-b686-969187b73c69","system_id":"levelo_inurba_marseille","lat":43.27371,"lon":5.36259,"is_reserved":false,"is_disabled":false,"rental_uris":{"android":"levelo://app?vid=5e7aef04-5f8f-4931-b686-969187b73c69","ios":"levelo://app?vid=5e7aef04-5f8f-4931-b686-969187b73c69"},"vehicle_type_id":"4","last_reported":1730650220,"current_range_meters":38800,"station_id":"ce4bhbh2rcd13ifvqeo0","pricing_plan_id":"cebpf4jnsgd1na2vs0mg"},{"bike_id":"522d2a91-6e19-43c6-a462-89586443bd15","system_id":"levelo_inurba_marseille","lat":43.29684,"lon":5.3729,"is_reserved":false,"is_disabled":false,"rental_uris":{"android":"levelo://app?vid=522d2a91-6e19-43c6-a462-89586443bd15","ios":"levelo://app?vid=522d2a91-6e19-43c6-a462-89586443bd15"},"vehicle_type_id":"4","last_reported":1730650220,"current_range_meters":16400,"station_id":"ce4bgk12rcd13ifvqbj0","pricing_plan_id":"cebpf4jnsgd1na2vs0mg"},{"bike_id":"1c95f745-5f81-4a0c-b09c-a7070626774c","system_id":"levelo_inurba_marseille","lat":43.30427,"lon":5.38886,"is_reserved":false,"is_disabled":false,"rental_uris":{"android":"levelo://app?vid=1c95f745-5f81-4a0c-b09c-a7070626774c","ios":"levelo://app?vid=1c95f745-5f81-4a0c-b09c-a7070626774c"},"vehicle_type_id":"4","last_reported":1730650220,"current_range_meters":39200,"station_id":"ce4bgk12rcd13ifvqbi0","pricing_plan_id":"cebpf4jnsgd1na2vs0mg"},{"bike_id":"4449b2c6-03ed-48f4-9cf4-29ca39720d40","system_id":"levelo_inurba_marseille","lat":43.29789,"lon":5.3711,"is_reserved":false,"is_disabled":false,"rental_uris":{"android":"levelo://app?vid=4449b2c6-03ed-48f4-9cf4-29ca39720d40","ios":"levelo://app?vid=4449b2c6-03ed-48f4-9cf4-29ca39720d40"},"vehicle_type_id":"4","last_reported":1730650220,"current_range_meters":39200,"station_id":"ce4bgop2rcd13ifvqc1g","pricing_plan_id":"cebpf4jnsgd1na2vs0mg"},{"bike_id":"703d7dd8-0365-47a0-a481-77de45e1abb9","system_id":"levelo_inurba_marseille","lat":43.24167,"lon":5.36398,"is_reserved":false,"is_disabled":false,"rental_uris":{"android":"levelo://app?vid=703d7dd8-0365-47a0-a481-77de45e1abb9","ios":"levelo://app?vid=703d7dd8-0365-47a0-a481-77de45e1abb9"},"vehicle_type_id":"4","last_reported":1730650220,"current_range_meters":38400,"station_id":"cpo36qri1sfpv3e86is0","pricing_plan_id":"cebpf4jnsgd1na2vs0mg"},{"bike_id":"d4501869-ea3e-4900-90fb-64180be91a0b","system_id":"levelo_inurba_marseille","lat":43.25576,"lon":5.38238,"is_reserved":false,"is_disabled":false,"rental_uris":{"android":"levelo://app?vid=d4501869-ea3e-4900-90fb-64180be91a0b","ios":"levelo://app?vid=d4501869-ea3e-4900-90fb-64180be91a0b"},"vehicle_type_id":"4","last_reported":1730650220,"current_range_meters":19600,"station_id":"ce4bhih2rcd13ifvqfs0","pricing_plan_id":"cebpf4jnsgd1na2vs0mg"},{"bike_id":"c737b99b-02e2-40a7-87c9-efedc70869d4","system_id":"levelo_inurba_marseille","lat":43.28394,"lon":5.3752,"is_reserved":false,"is_disabled":false,"rental_uris":{"android":"levelo://app?vid=c737b99b-02e2-40a7-87c9-efedc70869d4","ios":"levelo://app?vid=c737b99b-02e2-40a7-87c9-efedc70869d4"},"vehicle_type_id":"4","last_reported":1730650220,"current_range_meters":36400,"station_id":"","pricing_plan_id":"cebpf4jnsgd1na2vs0mg"},{"bike_id":"80df493c-642f-4cea-b395-d39f8bdd9950","system_id":"levelo_inurba_marseille","lat":43.243866,"lon":5.370677,"is_reserved":false,"is_disabled":false,"rental_uris":{"android":"levelo://app?vid=80df493c-642f-4cea-b395-d39f8bdd9950","ios":"levelo://app?vid=80df493c-642f-4cea-b395-d39f8bdd9950"},"vehicle_type_id":"4","last_reported":1730650220,"current_range_meters":1200,"station_id":"ce4bhb12rcd13ifvqel0","pricing_plan_id":"cebpf4jnsgd1na2vs0mg"},{"bike_id":"4a956f0c-3665-471b-ab66-f31f5cac3b19","system_id":"levelo_inurba_marseille","lat":43.25103,"lon":5.40326,"is_reserved":false,"is_disabled":false,"rental_uris":{"android":"levelo://app?vid=4a956f0c-3665-471b-ab66-f31f5cac3b19","ios":"levelo://app?vid=4a956f0c-3665-471b-ab66-f31f5cac3b19"},"vehicle_type_id":"4","last_reported":1730650220,"current_range_meters":25200,"station_id":"ce4bhlh2rcd13ifvqgig","pricing_plan_id":"cebpf4jnsgd1na2vs0mg"},{"bike_id":"20ed1e39-51de-4df4-a597-091aecac9ddd","system_id":"levelo_inurba_marseille","lat":43.28463,"lon":5.35893,"is_reserved":false,"is_disabled":false,"rental_uris":{"android":"levelo://app?vid=20ed1e39-51de-4df4-a597-091aecac9ddd","ios":"levelo://app?vid=20ed1e39-51de-4df4-a597-091aecac9ddd"},"vehicle_type_id":"4","last_reported":1730650220,"current_range_meters":12000,"station_id":"ce4bhah2rcd13ifvqei0","pricing_plan_id":"cebpf4jnsgd1na2vs0mg"},{"bike_id":"23ca31f6-54a4-4a2e-aeda-dadbe26497ae","system_id":"levelo_inurba_marseille","lat":43.29931,"lon":5.37461,"is_reserved":false,"is_disabled":false,"rental_uris":{"android":"levelo://app?vid=23ca31f6-54a4-4a2e-aeda-dadbe26497ae","ios":"levelo://app?vid=23ca31f6-54a4-4a2e-aeda-dadbe26497ae"},"vehicle_type_id":"4","last_reported":1730650220,"current_range_meters":8800,"station_id":"ce4bgjh2rcd13ifvqbg0","pricing_plan_id":"cebpf4jnsgd1na2vs0mg"},{"bike_id":"d623d16f-b9c3-4cf9-9d1e-bacff3cc4008","system_id":"levelo_inurba_marseille","lat":43.23193,"lon":5.35564,"is_reserved":false,"is_disabled":false,"rental_uris":{"android":"levelo://app?vid=d623d16f-b9c3-4cf9-9d1e-bacff3cc4008","ios":"levelo://app?vid=d623d16f-b9c3-4cf9-9d1e-bacff3cc4008"},"vehicle_type_id":"4","last_reported":1730650220,"current_range_meters":38800,"station_id":"ce4bhu92rcd13ifvqi70","pricing_plan_id":"cebpf4jnsgd1na2vs0mg"},{"bike_id":"4549687f-f986-4750-85fb-e6b533b2c4a8","system_id":"levelo_inurba_marseille","lat":43.23057,"lon":5.35495,"is_reserved":false,"is_disabled":false,"rental_uris":{"android":"levelo://app?vid=4549687f-f986-4750-85fb-e6b533b2c4a8","ios":"levelo://app?vid=4549687f-f986-4750-85fb-e6b533b2c4a8"},"vehicle_type_id":"4","last_reported":1730650220,"current_range_meters":6400,"station_id":"cpo3342slgdg3j2ifvpg","pricing_plan_id":"cebpf4jnsgd1na2vs0mg"},{"bike_id":"30abb20a-9184-4181-81b9-3804e22e158c","system_id":"levelo_inurba_marseille","lat":43.26036,"lon":5.37549,"is_reserved":false,"is_disabled":false,"rental_uris":{"android":"levelo://app?vid=30abb20a-9184-4181-81b9-3804e22e158c","ios":"levelo://app?vid=30abb20a-9184-4181-81b9-3804e22e158c"},"vehicle_type_id":"4","last_reported":1730650220,"current_range_meters":32400,"station_id":"ce4bhgh2rcd13ifvqfa0","pricing_plan_id":"cebpf4jnsgd1na2vs0mg"},{"bike_id":"0f249b6a-28c2-4038-8046-1c1af5f07cf1","system_id":"levelo_inurba_marseille","lat":43.28944,"lon":5.36405,"is_reserved":false,"is_disabled":false,"rental_uris":{"android":"levelo://app?vid=0f249b6a-28c2-4038-8046-1c1af5f07cf1","ios":"levelo://app?vid=0f249b6a-28c2-4038-8046-1c1af5f07cf1"},"vehicle_type_id":"4","last_reported":1730650220,"current_range_meters":15200,"station_id":"ce4bhc92rcd13ifvqetg","pricing_plan_id":"cebpf4jnsgd1na2vs0mg"},{"bike_id":"7e898d29-d5ce-4162-8eaa-f8991d29af9c","system_id":"levelo_inurba_marseille","lat":43.2731,"lon":5.39095,"is_reserved":false,"is_disabled":false,"rental_uris":{"android":"levelo://app?vid=7e898d29-d5ce-4162-8eaa-f8991d29af9c","ios":"levelo://app?vid=7e898d29-d5ce-4162-8eaa-f8991d29af9c"},"vehicle_type_id":"4","last_reported":1730650220,"current_range_meters":33200,"station_id":"ce4bhgp2rcd13ifvqfe0","pricing_plan_id":"cebpf4jnsgd1na2vs0mg"},{"bike_id":"8fbfafdb-3032-4703-995a-fed2f5a54449","system_id":"levelo_inurba_marseille","lat":43.26555,"lon":5.37284,"is_reserved":false,"is_disabled":false,"rental_uris":{"android":"levelo://app?vid=8fbfafdb-3032-4703-995a-fed2f5a54449","ios":"levelo://app?vid=8fbfafdb-3032-4703-995a-fed2f5a54449"},"vehicle_type_id":"4","last_reported":1730650220,"current_range_meters":37600,"station_id":"ce4bhg12rcd13ifvqf70","pricing_plan_id":"cebpf4jnsgd1na2vs0mg"},{"bike_id":"718db149-961e-425a-a5f7-42c6ad9d8f80","system_id":"levelo_inurba_marseille","lat":43.32842,"lon":5.41007,"is_reserved":false,"is_disabled":false,"rental_uris":{"android":"levelo://app?vid=718db149-961e-425a-a5f7-42c6ad9d8f80","ios":"levelo://app?vid=718db149-961e-425a-a5f7-42c6ad9d8f80"},"vehicle_type_id":"4","last_reported":1730650220,"current_range_meters":38800,"station_id":"ce4bhpp2rcd13ifvqhgg","pricing_plan_id":"cebpf4jnsgd1na2vs0mg"},{"bike_id":"9023e80b-ac4f-4e12-b4db-5ce82d8a74ea","system_id":"levelo_inurba_marseille","lat":43.29275,"lon":5.40127,"is_reserved":false,"is_disabled":false,"rental_uris":{"android":"levelo://app?vid=9023e80b-ac4f-4e12-b4db-5ce82d8a74ea","ios":"levelo://app?vid=9023e80b-ac4f-4e12-b4db-5ce82d8a74ea"},"vehicle_type_id":"4","last_reported":1730650220,"current_range_meters":27600,"station_id":"ce4bh312rcd13ifvqdk0","pricing_plan_id":"cebpf4jnsgd1na2vs0mg"},{"bike_id":"1da82fcb-e72e-432b-af43-e24f18fe2d0a","system_id":"levelo_inurba_marseille","lat":43.27057,"lon":5.40257,"is_reserved":false,"is_disabled":false,"rental_uris":{"android":"levelo://app?vid=1da82fcb-e72e-432b-af43-e24f18fe2d0a","ios":"levelo://app?vid=1da82fcb-e72e-432b-af43-e24f18fe2d0a"},"vehicle_type_id":"4","last_reported":1730650220,"current_range_meters":6800,"station_id":"ce4bhk92rcd13ifvqgc0","pricing_plan_id":"cebpf4jnsgd1na2vs0mg"},{"bike_id":"3e9b85d7-96fb-4b65-9acd-5723483a3709","system_id":"levelo_inurba_marseille","lat":43.3171,"lon":5.3775,"is_reserved":false,"is_disabled":false,"rental_uris":{"android":"levelo://app?vid=3e9b85d7-96fb-4b65-9acd-5723483a3709","ios":"levelo://app?vid=3e9b85d7-96fb-4b65-9acd-5723483a3709"},"vehicle_type_id":"4","last_reported":1730650220,"current_range_meters":38800,"station_id":"ce4bgth2rcd13ifvqch0","pricing_plan_id":"cebpf4jnsgd1na2vs0mg"},{"bike_id":"ad6b9979-2833-497c-ae59-5afeb88a87ce","system_id":"levelo_inurba_marseille","lat":43.32362,"lon":5.36768,"is_reserved":false,"is_disabled":false,"rental_uris":{"android":"levelo://app?vid=ad6b9979-2833-497c-ae59-5afeb88a87ce","ios":"levelo://app?vid=ad6b9979-2833-497c-ae59-5afeb88a87ce"},"vehicle_type_id":"4","last_reported":1730650220,"current_range_meters":5600,"station_id":"ce4bhsh2rcd13ifvqi2g","pricing_plan_id":"cebpf4jnsgd1na2vs0mg"},{"bike_id":"4e7d97d2-bd0a-4ed3-b101-d41475f14b34","system_id":"levelo_inurba_marseille","lat":43.290267,"lon":5.357122,"is_reserved":false,"is_disabled":false,"rental_uris":{"android":"levelo://app?vid=4e7d97d2-bd0a-4ed3-b101-d41475f14b34","ios":"levelo://app?vid=4e7d97d2-bd0a-4ed3-b101-d41475f14b34"},"vehicle_type_id":"4","last_reported":1730650220,"current_range_meters":34000,"station_id":"ce4bha92rcd13ifvqeg0","pricing_plan_id":"cebpf4jnsgd1na2vs0mg"},{"bike_id":"50a8762f-baca-475d-a9af-141b5dab1e47","system_id":"levelo_inurba_marseille","lat":43.27205,"lon":5.39178,"is_reserved":false,"is_disabled":false,"rental_uris":{"android":"levelo://app?vid=50a8762f-baca-475d-a9af-141b5dab1e47","ios":"levelo://app?vid=50a8762f-baca-475d-a9af-141b5dab1e47"},"vehicle_type_id":"4","last_reported":1730650220,"current_range_meters":15200,"station_id":"ce4bhhp2rcd13ifvqfm0","pricing_plan_id":"cebpf4jnsgd1na2vs0mg"},{"bike_id":"73b8545d-4982-4838-bf7d-3271b8d0a217","system_id":"levelo_inurba_marseille","lat":43.24165,"lon":5.36395,"is_reserved":false,"is_disabled":false,"rental_uris":{"android":"levelo://app?vid=73b8545d-4982-4838-bf7d-3271b8d0a217","ios":"levelo://app?vid=73b8545d-4982-4838-bf7d-3271b8d0a217"},"vehicle_type_id":"4","last_reported":1730650220,"current_range_meters":30000,"station_id":"cpo36qri1sfpv3e86is0","pricing_plan_id":"cebpf4jnsgd1na2vs0mg"},{"bike_id":"22277462-ea58-4946-ba2c-ef08f6cd7659","system_id":"levelo_inurba_marseille","lat":43.2797,"lon":5.4105,"is_reserved":false,"is_disabled":false,"rental_uris":{"android":"levelo://app?vid=22277462-ea58-4946-ba2c-ef08f6cd7659","ios":"levelo://app?vid=22277462-ea58-4946-ba2c-ef08f6cd7659"},"vehicle_type_id":"4","last_reported":1730650220,"current_range_meters":16400,"station_id":"","pricing_plan_id":"cebpf4jnsgd1na2vs0mg"},{"bike_id":"ca499504-5f36-4d6d-91d4-5d3f15ff4830","system_id":"levelo_inurba_marseille","lat":43.28413,"lon":5.34989,"is_reserved":false,"is_disabled":false,"rental_uris":{"android":"levelo://app?vid=ca499504-5f36-4d6d-91d4-5d3f15ff4830","ios":"levelo://app?vid=ca499504-5f36-4d6d-91d4-5d3f15ff4830"},"vehicle_type_id":"4","last_reported":1730650220,"current_range_meters":12400,"station_id":"ce4bhbh2rcd13ifvqepg","pricing_plan_id":"cebpf4jnsgd1na2vs0mg"},{"bike_id":"c07332d5-f871-4d7c-9894-5a99fdbe9ec1","system_id":"levelo_inurba_marseille","lat":43.25091,"lon":5.39534,"is_reserved":false,"is_disabled":false,"rental_uris":{"android":"levelo://app?vid=c07332d5-f871-4d7c-9894-5a99fdbe9ec1","ios":"levelo://app?vid=c07332d5-f871-4d7c-9894-5a99fdbe9ec1"},"vehicle_type_id":"4","last_reported":1730650220,"current_range_meters":28400,"station_id":"ce4bhm12rcd13ifvqgkg","pricing_plan_id":"cebpf4jnsgd1na2vs0mg"},{"bike_id":"6ba30633-1031-402b-8a44-d8c9f6a7b840","system_id":"levelo_inurba_marseille","lat":43.29094,"lon":5.3814,"is_reserved":false,"is_disabled":false,"rental_uris":{"android":"levelo://app?vid=6ba30633-1031-402b-8a44-d8c9f6a7b840","ios":"levelo://app?vid=6ba30633-1031-402b-8a44-d8c9f6a7b840"},"vehicle_type_id":"4","last_reported":1730650220,"current_range_meters":2000,"station_id":"ce4bh512rcd13ifvqe2g","pricing_plan_id":"cebpf4jnsgd1na2vs0mg"},{"bike_id":"2b39563d-97ee-437f-a221-2cc6ead664c1","system_id":"levelo_inurba_marseille","lat":43.27316,"lon":5.39077,"is_reserved":false,"is_disabled":false,"rental_uris":{"android":"levelo://app?vid=2b39563d-97ee-437f-a221-2cc6ead664c1","ios":"levelo://app?vid=2b39563d-97ee-437f-a221-2cc6ead664c1"},"vehicle_type_id":"4","last_reported":1730650220,"current_range_meters":32800,"station_id":"ce4bhgp2rcd13ifvqfe0","pricing_plan_id":"cebpf4jnsgd1na2vs0mg"},{"bike_id":"fc3dc3bd-2ba1-457d-9f7c-ebf7503818df","system_id":"levelo_inurba_marseille","lat":43.28535,"lon":5.35041,"is_reserved":false,"is_disabled":false,"rental_uris":{"android":"levelo://app?vid=fc3dc3bd-2ba1-457d-9f7c-ebf7503818df","ios":"levelo://app?vid=fc3dc3bd-2ba1-457d-9f7c-ebf7503818df"},"vehicle_type_id":"4","last_reported":1730650220,"current_range_meters":26800,"station_id":"ce4bgk12rcd13ifvqbj0","pricing_plan_id":"cebpf4jnsgd1na2vs0mg"},{"bike_id":"f9409789-d8b9-45a1-8b54-ee5c8f75b119","system_id":"levelo_inurba_marseille","lat":43.26499,"lon":5.39546,"is_reserved":false,"is_disabled":false,"rental_uris":{"android":"levelo://app?vid=f9409789-d8b9-45a1-8b54-ee5c8f75b119","ios":"levelo://app?vid=f9409789-d8b9-45a1-8b54-ee5c8f75b119"},"vehicle_type_id":"4","last_reported":1730650220,"current_range_meters":12400,"station_id":"ce4bhi12rcd13ifvqfq0","pricing_plan_id":"cebpf4jnsgd1na2vs0mg"},{"bike_id":"807469a2-81d0-40a4-bf41-581af620ef86","system_id":"levelo_inurba_marseille","lat":43.27381,"lon":5.36262,"is_reserved":false,"is_disabled":false,"rental_uris":{"android":"levelo://app?vid=807469a2-81d0-40a4-bf41-581af620ef86","ios":"levelo://app?vid=807469a2-81d0-40a4-bf41-581af620ef86"},"vehicle_type_id":"4","last_reported":1730650220,"current_range_meters":20000,"station_id":"ce4bhbh2rcd13ifvqeo0","pricing_plan_id":"cebpf4jnsgd1na2vs0mg"},{"bike_id":"9ae5611f-b235-427b-a3ef-70794a5f464b","system_id":"levelo_inurba_marseille","lat":43.28402,"lon":5.35,"is_reserved":false,"is_disabled":false,"rental_uris":{"android":"levelo://app?vid=9ae5611f-b235-427b-a3ef-70794a5f464b","ios":"levelo://app?vid=9ae5611f-b235-427b-a3ef-70794a5f464b"},"vehicle_type_id":"4","last_reported":1730650220,"current_range_meters":38800,"station_id":"ce4bhbh2rcd13ifvqepg","pricing_plan_id":"cebpf4jnsgd1na2vs0mg"},{"bike_id":"58e7b314-77c5-4411-b74c-8276142971a5","system_id":"levelo_inurba_marseille","lat":43.31993,"lon":5.3815,"is_reserved":false,"is_disabled":false,"rental_uris":{"android":"levelo://app?vid=58e7b314-77c5-4411-b74c-8276142971a5","ios":"levelo://app?vid=58e7b314-77c5-4411-b74c-8276142971a5"},"vehicle_type_id":"4","last_reported":1730650220,"current_range_meters":32400,"station_id":"ce4bhr12rcd13ifvqhpg","pricing_plan_id":"cebpf4jnsgd1na2vs0mg"},{"bike_id":"055f84f1-afc3-430e-b598-6b33c46f82ff","system_id":"levelo_inurba_marseille","lat":43.29033,"lon":5.38642,"is_reserved":false,"is_disabled":false,"rental_uris":{"android":"levelo://app?vid=055f84f1-afc3-430e-b598-6b33c46f82ff","ios":"levelo://app?vid=055f84f1-afc3-430e-b598-6b33c46f82ff"},"vehicle_type_id":"4","last_reported":1730650220,"current_range_meters":2000,"station_id":"ce4bh4p2rcd13ifvqe0g","pricing_plan_id":"cebpf4jnsgd1na2vs0mg"},{"bike_id":"aa91093b-1e37-440e-b73b-65c3e206b2eb","system_id":"levelo_inurba_marseille","lat":43.32288,"lon":5.38283,"is_reserved":false,"is_disabled":false,"rental_uris":{"android":"levelo://app?vid=aa91093b-1e37-440e-b73b-65c3e206b2eb","ios":"levelo://app?vid=aa91093b-1e37-440e-b73b-65c3e206b2eb"},"vehicle_type_id":"4","last_reported":1730650220,"current_range_meters":8400,"station_id":"ce4bhr12rcd13ifvqhqg","pricing_plan_id":"cebpf4jnsgd1na2vs0mg"},{"bike_id":"aa71cd7d-5c8f-45b0-bfad-65c2a2038acf","system_id":"levelo_inurba_marseille","lat":43.31998,"lon":5.38163,"is_reserved":false,"is_disabled":false,"rental_uris":{"android":"levelo://app?vid=aa71cd7d-5c8f-45b0-bfad-65c2a2038acf","ios":"levelo://app?vid=aa71cd7d-5c8f-45b0-bfad-65c2a2038acf"},"vehicle_type_id":"4","last_reported":1730650220,"current_range_meters":36800,"station_id":"ce4bhr12rcd13ifvqhpg","pricing_plan_id":"cebpf4jnsgd1na2vs0mg"},{"bike_id":"e0445245-658f-403c-8a41-40ed8eb72f8d","system_id":"levelo_inurba_marseille","lat":43.27839,"lon":5.39212,"is_reserved":false,"is_disabled":false,"rental_uris":{"android":"levelo://app?vid=e0445245-658f-403c-8a41-40ed8eb72f8d","ios":"levelo://app?vid=e0445245-658f-403c-8a41-40ed8eb72f8d"},"vehicle_type_id":"4","last_reported":1730650220,"current_range_meters":11600,"station_id":"ce4bhjp2rcd13ifvqga0","pricing_plan_id":"cebpf4jnsgd1na2vs0mg"},{"bike_id":"0c523561-c190-44ae-a283-124c72729911","system_id":"levelo_inurba_marseille","lat":43.27825,"lon":5.40723,"is_reserved":false,"is_disabled":false,"rental_uris":{"android":"levelo://app?vid=0c523561-c190-44ae-a283-124c72729911","ios":"levelo://app?vid=0c523561-c190-44ae-a283-124c72729911"},"vehicle_type_id":"4","last_reported":1730650220,"current_range_meters":32400,"station_id":"ce4bhnh2rcd13ifvqgtg","pricing_plan_id":"cebpf4jnsgd1na2vs0mg"},{"bike_id":"7d7b08a0-f1cc-463b-9701-2d5f73eaa3e1","system_id":"levelo_inurba_marseille","lat":43.23194,"lon":5.35551,"is_reserved":false,"is_disabled":false,"rental_uris":{"android":"levelo://app?vid=7d7b08a0-f1cc-463b-9701-2d5f73eaa3e1","ios":"levelo://app?vid=7d7b08a0-f1cc-463b-9701-2d5f73eaa3e1"},"vehicle_type_id":"4","last_reported":1730650220,"current_range_meters":18800,"station_id":"ce4bhu92rcd13ifvqi70","pricing_plan_id":"cebpf4jnsgd1na2vs0mg"},{"bike_id":"40d61218-8df8-4d6d-a72c-4065383a5c4a","system_id":"levelo_inurba_marseille","lat":43.29221,"lon":5.36076,"is_reserved":false,"is_disabled":false,"rental_uris":{"android":"levelo://app?vid=40d61218-8df8-4d6d-a72c-4065383a5c4a","ios":"levelo://app?vid=40d61218-8df8-4d6d-a72c-4065383a5c4a"},"vehicle_type_id":"4","last_reported":1730650220,"current_range_meters":0,"station_id":"ce4bhbh2rcd13ifvqeqg","pricing_plan_id":"cebpf4jnsgd1na2vs0mg"},{"bike_id":"24a24910-6987-4ad8-ae1f-25f5202c9fd5","system_id":"levelo_inurba_marseille","lat":43.27557,"lon":5.38422,"is_reserved":false,"is_disabled":false,"rental_uris":{"android":"levelo://app?vid=24a24910-6987-4ad8-ae1f-25f5202c9fd5","ios":"levelo://app?vid=24a24910-6987-4ad8-ae1f-25f5202c9fd5"},"vehicle_type_id":"4","last_reported":1730650220,"current_range_meters":38800,"station_id":"ce4bhh92rcd13ifvqfi0","pricing_plan_id":"cebpf4jnsgd1na2vs0mg"},{"bike_id":"bd799327-1808-45ef-960b-d4bc67cebc5e","system_id":"levelo_inurba_marseille","lat":43.33731,"lon":5.39197,"is_reserved":false,"is_disabled":false,"rental_uris":{"android":"levelo://app?vid=bd799327-1808-45ef-960b-d4bc67cebc5e","ios":"levelo://app?vid=bd799327-1808-45ef-960b-d4bc67cebc5e"},"vehicle_type_id":"4","last_reported":1730650220,"current_range_meters":17600,"station_id":"ce4bhr92rcd13ifvqhsg","pricing_plan_id":"cebpf4jnsgd1na2vs0mg"},{"bike_id":"5b43f93f-19c8-464b-93f8-8a4bd3b1c50e","system_id":"levelo_inurba_marseille","lat":43.30427,"lon":5.38882,"is_reserved":false,"is_disabled":false,"rental_uris":{"android":"levelo://app?vid=5b43f93f-19c8-464b-93f8-8a4bd3b1c50e","ios":"levelo://app?vid=5b43f93f-19c8-464b-93f8-8a4bd3b1c50e"},"vehicle_type_id":"4","last_reported":1730650220,"current_range_meters":14400,"station_id":"ce4bgk12rcd13ifvqbi0","pricing_plan_id":"cebpf4jnsgd1na2vs0mg"},{"bike_id":"4f88fb5c-28f3-4308-8e71-f628e27a2858","system_id":"levelo_inurba_marseille","lat":43.28412,"lon":5.35001,"is_reserved":false,"is_disabled":false,"rental_uris":{"android":"levelo://app?vid=4f88fb5c-28f3-4308-8e71-f628e27a2858","ios":"levelo://app?vid=4f88fb5c-28f3-4308-8e71-f628e27a2858"},"vehicle_type_id":"4","last_reported":1730650220,"current_range_meters":23200,"station_id":"ce4bhbh2rcd13ifvqepg","pricing_plan_id":"cebpf4jnsgd1na2vs0mg"},{"bike_id":"7cb5a604-1497-44ab-a12a-ab89f67086fb","system_id":"levelo_inurba_marseille","lat":43.27058,"lon":5.40253,"is_reserved":false,"is_disabled":false,"rental_uris":{"android":"levelo://app?vid=7cb5a604-1497-44ab-a12a-ab89f67086fb","ios":"levelo://app?vid=7cb5a604-1497-44ab-a12a-ab89f67086fb"},"vehicle_type_id":"4","last_reported":1730650220,"current_range_meters":6000,"station_id":"ce4bhk92rcd13ifvqgc0","pricing_plan_id":"cebpf4jnsgd1na2vs0mg"},{"bike_id":"e48ecbd0-47f1-4d8e-86c5-c647a9ec1b6b","system_id":"levelo_inurba_marseille","lat":43.31761,"lon":5.39011,"is_reserved":false,"is_disabled":false,"rental_uris":{"android":"levelo://app?vid=e48ecbd0-47f1-4d8e-86c5-c647a9ec1b6b","ios":"levelo://app?vid=e48ecbd0-47f1-4d8e-86c5-c647a9ec1b6b"},"vehicle_type_id":"4","last_reported":1730650220,"current_range_meters":12000,"station_id":"ce4bhqp2rcd13ifvqhng","pricing_plan_id":"cebpf4jnsgd1na2vs0mg"},{"bike_id":"be12279a-4168-46f8-8210-ce8ddc0ec5b9","system_id":"levelo_inurba_marseille","lat":43.28104,"lon":5.37841,"is_reserved":false,"is_disabled":false,"rental_uris":{"android":"levelo://app?vid=be12279a-4168-46f8-8210-ce8ddc0ec5b9","ios":"levelo://app?vid=be12279a-4168-46f8-8210-ce8ddc0ec5b9"},"vehicle_type_id":"4","last_reported":1730650220,"current_range_meters":8000,"station_id":"ce4bha12rcd13ifvqee0","pricing_plan_id":"cebpf4jnsgd1na2vs0mg"},{"bike_id":"cfa5fa1b-b403-4534-9d38-b5bbd3ae03d9","system_id":"levelo_inurba_marseille","lat":43.35564,"lon":5.35813,"is_reserved":false,"is_disabled":false,"rental_uris":{"android":"levelo://app?vid=cfa5fa1b-b403-4534-9d38-b5bbd3ae03d9","ios":"levelo://app?vid=cfa5fa1b-b403-4534-9d38-b5bbd3ae03d9"},"vehicle_type_id":"4","last_reported":1730650220,"current_range_meters":6800,"station_id":"","pricing_plan_id":"cebpf4jnsgd1na2vs0mg"},{"bike_id":"1a82bbfc-8137-4317-9424-2dc118fa54dd","system_id":"levelo_inurba_marseille","lat":43.28853,"lon":5.39315,"is_reserved":false,"is_disabled":false,"rental_uris":{"android":"levelo://app?vid=1a82bbfc-8137-4317-9424-2dc118fa54dd","ios":"levelo://app?vid=1a82bbfc-8137-4317-9424-2dc118fa54dd"},"vehicle_type_id":"4","last_reported":1730650220,"current_range_meters":20000,"station_id":"ce4bh2p2rcd13ifvqdi0","pricing_plan_id":"cebpf4jnsgd1na2vs0mg"},{"bike_id":"5490b3f0-0bf9-4319-a7cd-28c15aa74331","system_id":"levelo_inurba_marseille","lat":43.26029,"lon":5.37551,"is_reserved":false,"is_disabled":false,"rental_uris":{"android":"levelo://app?vid=5490b3f0-0bf9-4319-a7cd-28c15aa74331","ios":"levelo://app?vid=5490b3f0-0bf9-4319-a7cd-28c15aa74331"},"vehicle_type_id":"4","last_reported":1730650220,"current_range_meters":35600,"station_id":"ce4bhgh2rcd13ifvqfa0","pricing_plan_id":"cebpf4jnsgd1na2vs0mg"},{"bike_id":"fa1e2bec-6efa-49ea-bf5f-071006091d83","system_id":"levelo_inurba_marseille","lat":43.29561,"lon":5.42296,"is_reserved":false,"is_disabled":false,"rental_uris":{"android":"levelo://app?vid=fa1e2bec-6efa-49ea-bf5f-071006091d83","ios":"levelo://app?vid=fa1e2bec-6efa-49ea-bf5f-071006091d83"},"vehicle_type_id":"4","last_reported":1730650220,"current_range_meters":37600,"station_id":"ce4bhph2rcd13ifvqhdg","pricing_plan_id":"cebpf4jnsgd1na2vs0mg"},{"bike_id":"b9a33553-3f6c-4201-9239-8e5cd9472697","system_id":"levelo_inurba_marseille","lat":43.32477,"lon":5.3656,"is_reserved":false,"is_disabled":false,"rental_uris":{"android":"levelo://app?vid=b9a33553-3f6c-4201-9239-8e5cd9472697","ios":"levelo://app?vid=b9a33553-3f6c-4201-9239-8e5cd9472697"},"vehicle_type_id":"4","last_reported":1730650220,"current_range_meters":38400,"station_id":"ce4bhs12rcd13ifvqhvg","pricing_plan_id":"cebpf4jnsgd1na2vs0mg"},{"bike_id":"94195f36-ecdf-409d-9721-b72695ee1a81","system_id":"levelo_inurba_marseille","lat":43.27677,"lon":5.38893,"is_reserved":false,"is_disabled":false,"rental_uris":{"android":"levelo://app?vid=94195f36-ecdf-409d-9721-b72695ee1a81","ios":"levelo://app?vid=94195f36-ecdf-409d-9721-b72695ee1a81"},"vehicle_type_id":"4","last_reported":1730650220,"current_range_meters":19200,"station_id":"ce4bhi12rcd13ifvqfo0","pricing_plan_id":"cebpf4jnsgd1na2vs0mg"},{"bike_id":"cb02d2aa-7a5a-461c-a11e-a4986ea7a3e9","system_id":"levelo_inurba_marseille","lat":43.28046,"lon":5.36942,"is_reserved":false,"is_disabled":false,"rental_uris":{"android":"levelo://app?vid=cb02d2aa-7a5a-461c-a11e-a4986ea7a3e9","ios":"levelo://app?vid=cb02d2aa-7a5a-461c-a11e-a4986ea7a3e9"},"vehicle_type_id":"4","last_reported":1730650220,"current_range_meters":37600,"station_id":"ce4bha12rcd13ifvqef0","pricing_plan_id":"cebpf4jnsgd1na2vs0mg"},{"bike_id":"bf6551f7-83dd-4860-8d22-b7fbca6de128","system_id":"levelo_inurba_marseille","lat":43.239633,"lon":5.366261,"is_reserved":false,"is_disabled":false,"rental_uris":{"android":"levelo://app?vid=bf6551f7-83dd-4860-8d22-b7fbca6de128","ios":"levelo://app?vid=bf6551f7-83dd-4860-8d22-b7fbca6de128"},"vehicle_type_id":"4","last_reported":1730650220,"current_range_meters":4000,"station_id":"ce4bhi12rcd13ifvqfp0","pricing_plan_id":"cebpf4jnsgd1na2vs0mg"},{"bike_id":"26b66a75-a751-46b0-9960-8039c7f95482","system_id":"levelo_inurba_marseille","lat":43.23153,"lon":5.43725,"is_reserved":false,"is_disabled":false,"rental_uris":{"android":"levelo://app?vid=26b66a75-a751-46b0-9960-8039c7f95482","ios":"levelo://app?vid=26b66a75-a751-46b0-9960-8039c7f95482"},"vehicle_type_id":"4","last_reported":1730650220,"current_range_meters":10000,"station_id":"ce4bhmp2rcd13ifvqgog","pricing_plan_id":"cebpf4jnsgd1na2vs0mg"},{"bike_id":"16bf58ef-c6b4-42d8-b563-07b504ea9514","system_id":"levelo_inurba_marseille","lat":43.25721,"lon":5.41115,"is_reserved":false,"is_disabled":false,"rental_uris":{"android":"levelo://app?vid=16bf58ef-c6b4-42d8-b563-07b504ea9514","ios":"levelo://app?vid=16bf58ef-c6b4-42d8-b563-07b504ea9514"},"vehicle_type_id":"4","last_reported":1730650220,"current_range_meters":27600,"station_id":"ce4bhkp2rcd13ifvqgd0","pricing_plan_id":"cebpf4jnsgd1na2vs0mg"},{"bike_id":"829eb535-300e-48f7-adf4-b502d13ca525","system_id":"levelo_inurba_marseille","lat":43.27071,"lon":5.42278,"is_reserved":false,"is_disabled":false,"rental_uris":{"android":"levelo://app?vid=829eb535-300e-48f7-adf4-b502d13ca525","ios":"levelo://app?vid=829eb535-300e-48f7-adf4-b502d13ca525"},"vehicle_type_id":"4","last_reported":1730650220,"current_range_meters":20800,"station_id":"ce4bhk92rcd13ifvqgb0","pricing_plan_id":"cebpf4jnsgd1na2vs0mg"},{"bike_id":"a0db2717-63b7-49d6-9478-14a77a61e509","system_id":"levelo_inurba_marseille","lat":43.31277,"lon":5.40168,"is_reserved":false,"is_disabled":false,"rental_uris":{"android":"levelo://app?vid=a0db2717-63b7-49d6-9478-14a77a61e509","ios":"levelo://app?vid=a0db2717-63b7-49d6-9478-14a77a61e509"},"vehicle_type_id":"4","last_reported":1730650220,"current_range_meters":29600,"station_id":"ce4bh092rcd13ifvqd30","pricing_plan_id":"cebpf4jnsgd1na2vs0mg"},{"bike_id":"e0c7f542-dc76-463c-8d0e-ea098ec1a67e","system_id":"levelo_inurba_marseille","lat":43.26757,"lon":5.40754,"is_reserved":false,"is_disabled":false,"rental_uris":{"android":"levelo://app?vid=e0c7f542-dc76-463c-8d0e-ea098ec1a67e","ios":"levelo://app?vid=e0c7f542-dc76-463c-8d0e-ea098ec1a67e"},"vehicle_type_id":"4","last_reported":1730650220,"current_range_meters":5600,"station_id":"","pricing_plan_id":"cebpf4jnsgd1na2vs0mg"},{"bike_id":"978e43ce-e8d8-46c4-a013-c6639a47a539","system_id":"levelo_inurba_marseille","lat":43.33023,"lon":5.39038,"is_reserved":false,"is_disabled":false,"rental_uris":{"android":"levelo://app?vid=978e43ce-e8d8-46c4-a013-c6639a47a539","ios":"levelo://app?vid=978e43ce-e8d8-46c4-a013-c6639a47a539"},"vehicle_type_id":"4","last_reported":1730650220,"current_range_meters":38800,"station_id":"ce4bhr92rcd13ifvqhrg","pricing_plan_id":"cebpf4jnsgd1na2vs0mg"},{"bike_id":"befdd913-b7bc-4977-aa51-c7a679db6a72","system_id":"levelo_inurba_marseille","lat":43.32006,"lon":5.38167,"is_reserved":false,"is_disabled":false,"rental_uris":{"android":"levelo://app?vid=befdd913-b7bc-4977-aa51-c7a679db6a72","ios":"levelo://app?vid=befdd913-b7bc-4977-aa51-c7a679db6a72"},"vehicle_type_id":"4","last_reported":1730650220,"current_range_meters":26800,"station_id":"ce4bhr12rcd13ifvqhpg","pricing_plan_id":"cebpf4jnsgd1na2vs0mg"},{"bike_id":"d8c98e7b-0e69-43b1-99a6-c92b94fc6963","system_id":"levelo_inurba_marseille","lat":43.29193,"lon":5.39309,"is_reserved":false,"is_disabled":false,"rental_uris":{"android":"levelo://app?vid=d8c98e7b-0e69-43b1-99a6-c92b94fc6963","ios":"levelo://app?vid=d8c98e7b-0e69-43b1-99a6-c92b94fc6963"},"vehicle_type_id":"4","last_reported":1730650220,"current_range_meters":5600,"station_id":"ce4bh192rcd13ifvqdd0","pricing_plan_id":"cebpf4jnsgd1na2vs0mg"},{"bike_id":"ab0dd909-ef89-4cef-a687-7b0126ac4036","system_id":"levelo_inurba_marseille","lat":43.29034,"lon":5.39978,"is_reserved":false,"is_disabled":false,"rental_uris":{"android":"levelo://app?vid=ab0dd909-ef89-4cef-a687-7b0126ac4036","ios":"levelo://app?vid=ab0dd909-ef89-4cef-a687-7b0126ac4036"},"vehicle_type_id":"4","last_reported":1730650220,"current_range_meters":4400,"station_id":"ce4bh392rcd13ifvqdm0","pricing_plan_id":"cebpf4jnsgd1na2vs0mg"},{"bike_id":"34c1ae72-341d-41a2-a272-1b93ae141a70","system_id":"levelo_inurba_marseille","lat":43.32367,"lon":5.38881,"is_reserved":false,"is_disabled":false,"rental_uris":{"android":"levelo://app?vid=34c1ae72-341d-41a2-a272-1b93ae141a70","ios":"levelo://app?vid=34c1ae72-341d-41a2-a272-1b93ae141a70"},"vehicle_type_id":"4","last_reported":1730650220,"current_range_meters":38800,"station_id":"ce4bhqp2rcd13ifvqhog","pricing_plan_id":"cebpf4jnsgd1na2vs0mg"},{"bike_id":"10b841c5-60e9-4a48-a01f-9360d20fb933","system_id":"levelo_inurba_marseille","lat":43.2842,"lon":5.34996,"is_reserved":false,"is_disabled":false,"rental_uris":{"android":"levelo://app?vid=10b841c5-60e9-4a48-a01f-9360d20fb933","ios":"levelo://app?vid=10b841c5-60e9-4a48-a01f-9360d20fb933"},"vehicle_type_id":"4","last_reported":1730650220,"current_range_meters":38800,"station_id":"ce4bhbh2rcd13ifvqepg","pricing_plan_id":"cebpf4jnsgd1na2vs0mg"},{"bike_id":"8016eb79-99b4-44bd-ac05-7846f44e83e0","system_id":"levelo_inurba_marseille","lat":43.33722,"lon":5.39191,"is_reserved":false,"is_disabled":false,"rental_uris":{"android":"levelo://app?vid=8016eb79-99b4-44bd-ac05-7846f44e83e0","ios":"levelo://app?vid=8016eb79-99b4-44bd-ac05-7846f44e83e0"},"vehicle_type_id":"4","last_reported":1730650220,"current_range_meters":18000,"station_id":"ce4bhr92rcd13ifvqhsg","pricing_plan_id":"cebpf4jnsgd1na2vs0mg"},{"bike_id":"86097ede-dfba-454d-b522-69092b039a90","system_id":"levelo_inurba_marseille","lat":43.28925,"lon":5.38405,"is_reserved":false,"is_disabled":false,"rental_uris":{"android":"levelo://app?vid=86097ede-dfba-454d-b522-69092b039a90","ios":"levelo://app?vid=86097ede-dfba-454d-b522-69092b039a90"},"vehicle_type_id":"4","last_reported":1730650220,"current_range_meters":18800,"station_id":"ce4bh612rcd13ifvqe6g","pricing_plan_id":"cebpf4jnsgd1na2vs0mg"},{"bike_id":"0ed3edd9-c5cd-4a8b-9d97-e59222601059","system_id":"levelo_inurba_marseille","lat":43.2962,"lon":5.41912,"is_reserved":false,"is_disabled":false,"rental_uris":{"android":"levelo://app?vid=0ed3edd9-c5cd-4a8b-9d97-e59222601059","ios":"levelo://app?vid=0ed3edd9-c5cd-4a8b-9d97-e59222601059"},"vehicle_type_id":"4","last_reported":1730650220,"current_range_meters":24800,"station_id":"","pricing_plan_id":"cebpf4jnsgd1na2vs0mg"},{"bike_id":"09c4e025-0035-4b02-9331-e4c6e4b55438","system_id":"levelo_inurba_marseille","lat":43.30361,"lon":5.39151,"is_reserved":false,"is_disabled":false,"rental_uris":{"android":"levelo://app?vid=09c4e025-0035-4b02-9331-e4c6e4b55438","ios":"levelo://app?vid=09c4e025-0035-4b02-9331-e4c6e4b55438"},"vehicle_type_id":"4","last_reported":1730650220,"current_range_meters":32800,"station_id":"","pricing_plan_id":"cebpf4jnsgd1na2vs0mg"},{"bike_id":"6edae061-481c-4d96-b92f-35023c8ba9b6","system_id":"levelo_inurba_marseille","lat":43.25488,"lon":5.37645,"is_reserved":false,"is_disabled":false,"rental_uris":{"android":"levelo://app?vid=6edae061-481c-4d96-b92f-35023c8ba9b6","ios":"levelo://app?vid=6edae061-481c-4d96-b92f-35023c8ba9b6"},"vehicle_type_id":"4","last_reported":1730650220,"current_range_meters":30800,"station_id":"ce4bhh12rcd13ifvqff0","pricing_plan_id":"cebpf4jnsgd1na2vs0mg"},{"bike_id":"cfc69328-5842-4aa9-aa6e-edacbbb0dc14","system_id":"levelo_inurba_marseille","lat":43.31709,"lon":5.37753,"is_reserved":false,"is_disabled":false,"rental_uris":{"android":"levelo://app?vid=cfc69328-5842-4aa9-aa6e-edacbbb0dc14","ios":"levelo://app?vid=cfc69328-5842-4aa9-aa6e-edacbbb0dc14"},"vehicle_type_id":"4","last_reported":1730650220,"current_range_meters":38400,"station_id":"ce4bgth2rcd13ifvqch0","pricing_plan_id":"cebpf4jnsgd1na2vs0mg"},{"bike_id":"4ef003ad-aa41-4b9d-9653-6f5519f4df5c","system_id":"levelo_inurba_marseille","lat":43.28405,"lon":5.34985,"is_reserved":false,"is_disabled":false,"rental_uris":{"android":"levelo://app?vid=4ef003ad-aa41-4b9d-9653-6f5519f4df5c","ios":"levelo://app?vid=4ef003ad-aa41-4b9d-9653-6f5519f4df5c"},"vehicle_type_id":"4","last_reported":1730650220,"current_range_meters":31200,"station_id":"ce4bhbh2rcd13ifvqepg","pricing_plan_id":"cebpf4jnsgd1na2vs0mg"},{"bike_id":"5da2750c-6d0b-437b-ba34-223462c78446","system_id":"levelo_inurba_marseille","lat":43.284546,"lon":5.386539,"is_reserved":false,"is_disabled":false,"rental_uris":{"android":"levelo://app?vid=5da2750c-6d0b-437b-ba34-223462c78446","ios":"levelo://app?vid=5da2750c-6d0b-437b-ba34-223462c78446"},"vehicle_type_id":"4","last_reported":1730650220,"current_range_meters":38800,"station_id":"ce4bh8p2rcd13ifvqeb0","pricing_plan_id":"cebpf4jnsgd1na2vs0mg"},{"bike_id":"5a04cb76-3627-4f04-96bf-07a05c3bcc7e","system_id":"levelo_inurba_marseille","lat":43.26936,"lon":5.40268,"is_reserved":false,"is_disabled":false,"rental_uris":{"android":"levelo://app?vid=5a04cb76-3627-4f04-96bf-07a05c3bcc7e","ios":"levelo://app?vid=5a04cb76-3627-4f04-96bf-07a05c3bcc7e"},"vehicle_type_id":"4","last_reported":1730650220,"current_range_meters":38000,"station_id":"cjm6bp8fraef2m0cb0m0","pricing_plan_id":"cebpf4jnsgd1na2vs0mg"},{"bike_id":"45bdb8a8-d496-4ce9-835f-784af1aecfaa","system_id":"levelo_inurba_marseille","lat":43.31538,"lon":5.38043,"is_reserved":false,"is_disabled":false,"rental_uris":{"android":"levelo://app?vid=45bdb8a8-d496-4ce9-835f-784af1aecfaa","ios":"levelo://app?vid=45bdb8a8-d496-4ce9-835f-784af1aecfaa"},"vehicle_type_id":"4","last_reported":1730650220,"current_range_meters":23200,"station_id":"ce4bhsp2rcd13ifvqi50","pricing_plan_id":"cebpf4jnsgd1na2vs0mg"},{"bike_id":"6116a0c7-7ece-4306-b687-f7a9e0320fc0","system_id":"levelo_inurba_marseille","lat":43.29571,"lon":5.375222,"is_reserved":false,"is_disabled":false,"rental_uris":{"android":"levelo://app?vid=6116a0c7-7ece-4306-b687-f7a9e0320fc0","ios":"levelo://app?vid=6116a0c7-7ece-4306-b687-f7a9e0320fc0"},"vehicle_type_id":"4","last_reported":1730650220,"current_range_meters":38800,"station_id":"ce4bgh92rcd13ifvqb50","pricing_plan_id":"cebpf4jnsgd1na2vs0mg"},{"bike_id":"11c0a122-75ed-4c23-a26f-6d2b4d97c473","system_id":"levelo_inurba_marseille","lat":43.25117,"lon":5.40321,"is_reserved":false,"is_disabled":false,"rental_uris":{"android":"levelo://app?vid=11c0a122-75ed-4c23-a26f-6d2b4d97c473","ios":"levelo://app?vid=11c0a122-75ed-4c23-a26f-6d2b4d97c473"},"vehicle_type_id":"4","last_reported":1730650220,"current_range_meters":12000,"station_id":"ce4bhlh2rcd13ifvqgig","pricing_plan_id":"cebpf4jnsgd1na2vs0mg"},{"bike_id":"f6246492-cf78-4161-9cc1-96b491c72279","system_id":"levelo_inurba_marseille","lat":43.2804,"lon":5.36945,"is_reserved":false,"is_disabled":false,"rental_uris":{"android":"levelo://app?vid=f6246492-cf78-4161-9cc1-96b491c72279","ios":"levelo://app?vid=f6246492-cf78-4161-9cc1-96b491c72279"},"vehicle_type_id":"4","last_reported":1730650220,"current_range_meters":4800,"station_id":"ce4bha12rcd13ifvqef0","pricing_plan_id":"cebpf4jnsgd1na2vs0mg"},{"bike_id":"cbc65a11-a270-44bc-a04b-61e094512a5f","system_id":"levelo_inurba_marseille","lat":43.289398,"lon":5.365021,"is_reserved":false,"is_disabled":false,"rental_uris":{"android":"levelo://app?vid=cbc65a11-a270-44bc-a04b-61e094512a5f","ios":"levelo://app?vid=cbc65a11-a270-44bc-a04b-61e094512a5f"},"vehicle_type_id":"4","last_reported":1730650220,"current_range_meters":12400,"station_id":"ce4bhc92rcd13ifvqetg","pricing_plan_id":"cebpf4jnsgd1na2vs0mg"},{"bike_id":"16f2c868-9e92-479c-834c-98db58dad80a","system_id":"levelo_inurba_marseille","lat":43.2989,"lon":5.36834,"is_reserved":false,"is_disabled":false,"rental_uris":{"android":"levelo://app?vid=16f2c868-9e92-479c-834c-98db58dad80a","ios":"levelo://app?vid=16f2c868-9e92-479c-834c-98db58dad80a"},"vehicle_type_id":"4","last_reported":1730650220,"current_range_meters":8000,"station_id":"","pricing_plan_id":"cebpf4jnsgd1na2vs0mg"},{"bike_id":"fa787824-0c22-4ede-83c0-7f03e6dd0ead","system_id":"levelo_inurba_marseille","lat":43.30149,"lon":5.3877,"is_reserved":false,"is_disabled":false,"rental_uris":{"android":"levelo://app?vid=fa787824-0c22-4ede-83c0-7f03e6dd0ead","ios":"levelo://app?vid=fa787824-0c22-4ede-83c0-7f03e6dd0ead"},"vehicle_type_id":"4","last_reported":1730650220,"current_range_meters":10800,"station_id":"ce4bghh2rcd13ifvqb60","pricing_plan_id":"cebpf4jnsgd1na2vs0mg"},{"bike_id":"7b59c08c-e1e4-406f-9f36-b2cd3b823e58","system_id":"levelo_inurba_marseille","lat":43.33024,"lon":5.39049,"is_reserved":false,"is_disabled":false,"rental_uris":{"android":"levelo://app?vid=7b59c08c-e1e4-406f-9f36-b2cd3b823e58","ios":"levelo://app?vid=7b59c08c-e1e4-406f-9f36-b2cd3b823e58"},"vehicle_type_id":"4","last_reported":1730650220,"current_range_meters":30000,"station_id":"ce4bhr92rcd13ifvqhrg","pricing_plan_id":"cebpf4jnsgd1na2vs0mg"},{"bike_id":"db21e849-8d13-48e1-821a-115902ca9b3c","system_id":"levelo_inurba_marseille","lat":43.30875,"lon":5.36846,"is_reserved":false,"is_disabled":false,"rental_uris":{"android":"levelo://app?vid=db21e849-8d13-48e1-821a-115902ca9b3c","ios":"levelo://app?vid=db21e849-8d13-48e1-821a-115902ca9b3c"},"vehicle_type_id":"4","last_reported":1730650220,"current_range_meters":17200,"station_id":"ce4bgn92rcd13ifvqbvg","pricing_plan_id":"cebpf4jnsgd1na2vs0mg"},{"bike_id":"3b3bb288-c2a8-4522-8f61-ab020df87b55","system_id":"levelo_inurba_marseille","lat":43.306213,"lon":5.374235,"is_reserved":false,"is_disabled":false,"rental_uris":{"android":"levelo://app?vid=3b3bb288-c2a8-4522-8f61-ab020df87b55","ios":"levelo://app?vid=3b3bb288-c2a8-4522-8f61-ab020df87b55"},"vehicle_type_id":"4","last_reported":1730650220,"current_range_meters":8400,"station_id":"ce4bgkh2rcd13ifvqbl0","pricing_plan_id":"cebpf4jnsgd1na2vs0mg"},{"bike_id":"629c22d0-7298-41c9-8f68-9f9f20f1b826","system_id":"levelo_inurba_marseille","lat":43.23958,"lon":5.36634,"is_reserved":false,"is_disabled":false,"rental_uris":{"android":"levelo://app?vid=629c22d0-7298-41c9-8f68-9f9f20f1b826","ios":"levelo://app?vid=629c22d0-7298-41c9-8f68-9f9f20f1b826"},"vehicle_type_id":"4","last_reported":1730650220,"current_range_meters":38800,"station_id":"ce4bhi12rcd13ifvqfp0","pricing_plan_id":"cebpf4jnsgd1na2vs0mg"},{"bike_id":"ed5b9c3b-1edf-4a89-b8f7-aa43470cb649","system_id":"levelo_inurba_marseille","lat":43.30142,"lon":5.38089,"is_reserved":false,"is_disabled":false,"rental_uris":{"android":"levelo://app?vid=ed5b9c3b-1edf-4a89-b8f7-aa43470cb649","ios":"levelo://app?vid=ed5b9c3b-1edf-4a89-b8f7-aa43470cb649"},"vehicle_type_id":"4","last_reported":1730650220,"current_range_meters":34800,"station_id":"ce4bgvp2rcd13ifvqct0","pricing_plan_id":"cebpf4jnsgd1na2vs0mg"},{"bike_id":"3a801cbb-1e2e-46c3-bc85-0c5198b9902c","system_id":"levelo_inurba_marseille","lat":43.26535,"lon":5.38835,"is_reserved":false,"is_disabled":false,"rental_uris":{"android":"levelo://app?vid=3a801cbb-1e2e-46c3-bc85-0c5198b9902c","ios":"levelo://app?vid=3a801cbb-1e2e-46c3-bc85-0c5198b9902c"},"vehicle_type_id":"4","last_reported":1730650220,"current_range_meters":31200,"station_id":"","pricing_plan_id":"cebpf4jnsgd1na2vs0mg"},{"bike_id":"e8f13a8a-288e-499a-8398-ead5011fe98e","system_id":"levelo_inurba_marseille","lat":43.23181,"lon":5.39993,"is_reserved":false,"is_disabled":false,"rental_uris":{"android":"levelo://app?vid=e8f13a8a-288e-499a-8398-ead5011fe98e","ios":"levelo://app?vid=e8f13a8a-288e-499a-8398-ead5011fe98e"},"vehicle_type_id":"4","last_reported":1730650220,"current_range_meters":18800,"station_id":"ce4bhn12rcd13ifvqgqg","pricing_plan_id":"cebpf4jnsgd1na2vs0mg"},{"bike_id":"364d1f37-99e0-42fa-99c9-317ac534eb05","system_id":"levelo_inurba_marseille","lat":43.26927,"lon":5.38918,"is_reserved":false,"is_disabled":false,"rental_uris":{"android":"levelo://app?vid=364d1f37-99e0-42fa-99c9-317ac534eb05","ios":"levelo://app?vid=364d1f37-99e0-42fa-99c9-317ac534eb05"},"vehicle_type_id":"4","last_reported":1730650220,"current_range_meters":25200,"station_id":"ce4bhhh2rcd13ifvqfl0","pricing_plan_id":"cebpf4jnsgd1na2vs0mg"},{"bike_id":"9e9d541a-35d6-45e6-bbb8-2f3ea5848c66","system_id":"levelo_inurba_marseille","lat":43.28412,"lon":5.35003,"is_reserved":false,"is_disabled":false,"rental_uris":{"android":"levelo://app?vid=9e9d541a-35d6-45e6-bbb8-2f3ea5848c66","ios":"levelo://app?vid=9e9d541a-35d6-45e6-bbb8-2f3ea5848c66"},"vehicle_type_id":"4","last_reported":1730650220,"current_range_meters":38400,"station_id":"ce4bhbh2rcd13ifvqepg","pricing_plan_id":"cebpf4jnsgd1na2vs0mg"},{"bike_id":"a05f1c0a-226b-4dfb-ac41-2790bac6a4bc","system_id":"levelo_inurba_marseille","lat":43.23197,"lon":5.35557,"is_reserved":false,"is_disabled":false,"rental_uris":{"android":"levelo://app?vid=a05f1c0a-226b-4dfb-ac41-2790bac6a4bc","ios":"levelo://app?vid=a05f1c0a-226b-4dfb-ac41-2790bac6a4bc"},"vehicle_type_id":"4","last_reported":1730650220,"current_range_meters":22800,"station_id":"ce4bhu92rcd13ifvqi70","pricing_plan_id":"cebpf4jnsgd1na2vs0mg"},{"bike_id":"9688eaf1-d40e-4981-bcfe-b9bfa201c5c8","system_id":"levelo_inurba_marseille","lat":43.29229,"lon":5.42677,"is_reserved":false,"is_disabled":false,"rental_uris":{"android":"levelo://app?vid=9688eaf1-d40e-4981-bcfe-b9bfa201c5c8","ios":"levelo://app?vid=9688eaf1-d40e-4981-bcfe-b9bfa201c5c8"},"vehicle_type_id":"4","last_reported":1730650220,"current_range_meters":7200,"station_id":"","pricing_plan_id":"cebpf4jnsgd1na2vs0mg"},{"bike_id":"0ad4d9f0-5cfb-456e-98d1-4eb95ab7d61c","system_id":"levelo_inurba_marseille","lat":43.31726,"lon":5.37718,"is_reserved":false,"is_disabled":false,"rental_uris":{"android":"levelo://app?vid=0ad4d9f0-5cfb-456e-98d1-4eb95ab7d61c","ios":"levelo://app?vid=0ad4d9f0-5cfb-456e-98d1-4eb95ab7d61c"},"vehicle_type_id":"4","last_reported":1730650220,"current_range_meters":26800,"station_id":"ce4bgth2rcd13ifvqch0","pricing_plan_id":"cebpf4jnsgd1na2vs0mg"},{"bike_id":"50701784-9f42-43ad-a3d3-ff550ca5681c","system_id":"levelo_inurba_marseille","lat":43.304657,"lon":5.379077,"is_reserved":false,"is_disabled":false,"rental_uris":{"android":"levelo://app?vid=50701784-9f42-43ad-a3d3-ff550ca5681c","ios":"levelo://app?vid=50701784-9f42-43ad-a3d3-ff550ca5681c"},"vehicle_type_id":"4","last_reported":1730650220,"current_range_meters":8400,"station_id":"ce4bgup2rcd13ifvqcn0","pricing_plan_id":"cebpf4jnsgd1na2vs0mg"},{"bike_id":"0a2771a5-aee3-4f1d-9728-37649ea9b870","system_id":"levelo_inurba_marseille","lat":43.275899,"lon":5.384171,"is_reserved":false,"is_disabled":false,"rental_uris":{"android":"levelo://app?vid=0a2771a5-aee3-4f1d-9728-37649ea9b870","ios":"levelo://app?vid=0a2771a5-aee3-4f1d-9728-37649ea9b870"},"vehicle_type_id":"4","last_reported":1730650220,"current_range_meters":9200,"station_id":"ce4bhh92rcd13ifvqfi0","pricing_plan_id":"cebpf4jnsgd1na2vs0mg"},{"bike_id":"dd01c01a-7ede-4e37-ae3f-9907d8834d55","system_id":"levelo_inurba_marseille","lat":43.31229,"lon":5.36868,"is_reserved":false,"is_disabled":false,"rental_uris":{"android":"levelo://app?vid=dd01c01a-7ede-4e37-ae3f-9907d8834d55","ios":"levelo://app?vid=dd01c01a-7ede-4e37-ae3f-9907d8834d55"},"vehicle_type_id":"4","last_reported":1730650220,"current_range_meters":22800,"station_id":"ce4bgl92rcd13ifvqbq0","pricing_plan_id":"cebpf4jnsgd1na2vs0mg"},{"bike_id":"ae19416e-efc3-4e26-a353-387816d8cf05","system_id":"levelo_inurba_marseille","lat":43.29594,"lon":5.42568,"is_reserved":false,"is_disabled":false,"rental_uris":{"android":"levelo://app?vid=ae19416e-efc3-4e26-a353-387816d8cf05","ios":"levelo://app?vid=ae19416e-efc3-4e26-a353-387816d8cf05"},"vehicle_type_id":"4","last_reported":1730650220,"current_range_meters":29600,"station_id":"ce4bhph2rcd13ifvqhdg","pricing_plan_id":"cebpf4jnsgd1na2vs0mg"},{"bike_id":"cc684d86-0304-4a14-ab03-52f783e739f0","system_id":"levelo_inurba_marseille","lat":43.29795,"lon":5.39336,"is_reserved":false,"is_disabled":false,"rental_uris":{"android":"levelo://app?vid=cc684d86-0304-4a14-ab03-52f783e739f0","ios":"levelo://app?vid=cc684d86-0304-4a14-ab03-52f783e739f0"},"vehicle_type_id":"4","last_reported":1730650220,"current_range_meters":14400,"station_id":"chh1huq6cuj3fo74tm60","pricing_plan_id":"cebpf4jnsgd1na2vs0mg"},{"bike_id":"d4024648-8ce6-4aa4-b0da-f333c371bfc1","system_id":"levelo_inurba_marseille","lat":43.27067,"lon":5.4228,"is_reserved":false,"is_disabled":false,"rental_uris":{"android":"levelo://app?vid=d4024648-8ce6-4aa4-b0da-f333c371bfc1","ios":"levelo://app?vid=d4024648-8ce6-4aa4-b0da-f333c371bfc1"},"vehicle_type_id":"4","last_reported":1730650220,"current_range_meters":7200,"station_id":"ce4bhk92rcd13ifvqgb0","pricing_plan_id":"cebpf4jnsgd1na2vs0mg"},{"bike_id":"d441eb22-5150-4f4d-a615-2407f3efe7ab","system_id":"levelo_inurba_marseille","lat":43.27067,"lon":5.42274,"is_reserved":false,"is_disabled":false,"rental_uris":{"android":"levelo://app?vid=d441eb22-5150-4f4d-a615-2407f3efe7ab","ios":"levelo://app?vid=d441eb22-5150-4f4d-a615-2407f3efe7ab"},"vehicle_type_id":"4","last_reported":1730650220,"current_range_meters":3600,"station_id":"ce4bhk92rcd13ifvqgb0","pricing_plan_id":"cebpf4jnsgd1na2vs0mg"},{"bike_id":"0a3ac837-eee0-4ef5-adb8-aebb3683cbf7","system_id":"levelo_inurba_marseille","lat":43.28393,"lon":5.35006,"is_reserved":false,"is_disabled":false,"rental_uris":{"android":"levelo://app?vid=0a3ac837-eee0-4ef5-adb8-aebb3683cbf7","ios":"levelo://app?vid=0a3ac837-eee0-4ef5-adb8-aebb3683cbf7"},"vehicle_type_id":"4","last_reported":1730650220,"current_range_meters":8400,"station_id":"ce4bhbh2rcd13ifvqepg","pricing_plan_id":"cebpf4jnsgd1na2vs0mg"},{"bike_id":"f67020de-8784-4013-9ffa-14545e0f9f3d","system_id":"levelo_inurba_marseille","lat":43.32657,"lon":5.40998,"is_reserved":false,"is_disabled":false,"rental_uris":{"android":"levelo://app?vid=f67020de-8784-4013-9ffa-14545e0f9f3d","ios":"levelo://app?vid=f67020de-8784-4013-9ffa-14545e0f9f3d"},"vehicle_type_id":"4","last_reported":1730650220,"current_range_meters":24000,"station_id":"ce4bhpp2rcd13ifvqhgg","pricing_plan_id":"cebpf4jnsgd1na2vs0mg"},{"bike_id":"92c8f569-09a9-499f-a4ba-dfe7f596ee6c","system_id":"levelo_inurba_marseille","lat":43.297699,"lon":5.360903,"is_reserved":false,"is_disabled":false,"rental_uris":{"android":"levelo://app?vid=92c8f569-09a9-499f-a4ba-dfe7f596ee6c","ios":"levelo://app?vid=92c8f569-09a9-499f-a4ba-dfe7f596ee6c"},"vehicle_type_id":"4","last_reported":1730650220,"current_range_meters":19200,"station_id":"ce4bgpp2rcd13ifvqc3g","pricing_plan_id":"cebpf4jnsgd1na2vs0mg"},{"bike_id":"841cce8c-7951-48b2-a6da-caef103f1650","system_id":"levelo_inurba_marseille","lat":43.3374,"lon":5.37469,"is_reserved":false,"is_disabled":false,"rental_uris":{"android":"levelo://app?vid=841cce8c-7951-48b2-a6da-caef103f1650","ios":"levelo://app?vid=841cce8c-7951-48b2-a6da-caef103f1650"},"vehicle_type_id":"4","last_reported":1730650220,"current_range_meters":22000,"station_id":"","pricing_plan_id":"cebpf4jnsgd1na2vs0mg"},{"bike_id":"7e3524d1-7e47-4b30-a281-d3999e9feef7","system_id":"levelo_inurba_marseille","lat":43.2439,"lon":5.37059,"is_reserved":false,"is_disabled":false,"rental_uris":{"android":"levelo://app?vid=7e3524d1-7e47-4b30-a281-d3999e9feef7","ios":"levelo://app?vid=7e3524d1-7e47-4b30-a281-d3999e9feef7"},"vehicle_type_id":"4","last_reported":1730650220,"current_range_meters":8400,"station_id":"ce4bhhh2rcd13ifvqfk0","pricing_plan_id":"cebpf4jnsgd1na2vs0mg"},{"bike_id":"6a3d29fb-4528-4bbf-b5d6-0a9151dbf8a6","system_id":"levelo_inurba_marseille","lat":43.24819,"lon":5.37451,"is_reserved":false,"is_disabled":false,"rental_uris":{"android":"levelo://app?vid=6a3d29fb-4528-4bbf-b5d6-0a9151dbf8a6","ios":"levelo://app?vid=6a3d29fb-4528-4bbf-b5d6-0a9151dbf8a6"},"vehicle_type_id":"4","last_reported":1730650220,"current_range_meters":38800,"station_id":"ce4bhgh2rcd13ifvqfb0","pricing_plan_id":"cebpf4jnsgd1na2vs0mg"},{"bike_id":"151baabd-4030-4c91-8778-3cc64297b1a6","system_id":"levelo_inurba_marseille","lat":43.301453,"lon":5.380848,"is_reserved":false,"is_disabled":false,"rental_uris":{"android":"levelo://app?vid=151baabd-4030-4c91-8778-3cc64297b1a6","ios":"levelo://app?vid=151baabd-4030-4c91-8778-3cc64297b1a6"},"vehicle_type_id":"4","last_reported":1730650220,"current_range_meters":38800,"station_id":"ce4bgjp2rcd13ifvqbh0","pricing_plan_id":"cebpf4jnsgd1na2vs0mg"},