{"last_updated":1746119335,"ttl":60,"version":"2.2","data":{"bikes":[{"bike_id":"bf86503e-9aa6-4b54-9347-c170d50cb143","system_id":"levelo_inurba_marseille","lat":43.29624,"lon":5.37172,"is_reserved":false,"is_disabled":false,"rental_uris":{"android":"levelo://app?vid=bf86503e-9aa6-4b54-9347-c170d50cb143","ios":"levelo://app?vid=bf86503e-9aa6-4b54-9347-c170d50cb143"},"vehicle_type_id":"4","last_reported":1746119335,"current_range_meters":2800,"station_id":"ce4bgnh2rcd13ifvqc0g","pricing_plan_id":"cebpf4jnsgd1na2vs0mg"},{"bike_id":"1ebccff5-9a34-45dc-a137-70513aabbd5d","system_id":"levelo_inurba_marseille","lat":43.28482,"lon":5.38425,"is_reserved":false,"is_disabled":false,"rental_uris":{"android":"levelo://app?vid=1ebccff5-9a34-45dc-a137-70513aabbd5d","ios":"levelo://app?vid=1ebccff5-9a34-45dc-a137-70513aabbd5d"},"vehicle_type_id":"4","last_reported":1746119335,"current_range_meters":2800,"station_id":"ce4bh512rcd13ifvqe3g","pricing_plan_id":"cebpf4jnsgd1na2vs0mg"},{"bike_id":"efe01fef-b15c-4f7c-94e0-be483ce481f0","system_id":"levelo_inurba_marseille","lat":43.29682,"lon":5.37286,"is_reserved":false,"is_disabled":false,"rental_uris":{"android":"levelo://app?vid=efe01fef-b15c-4f7c-94e0-be483ce481f0","ios":"levelo://app?vid=efe01fef-b15c-4f7c-94e0-be483ce481f0"},"vehicle_type_id":"4","last_reported":1746119335,"current_range_meters":2000,"station_id":"ce4bgk12rcd13ifvqbj0","pricing_plan_id":"cebpf4jnsgd1na2vs0mg"},{"bike_id":"8b5e945d-3fbd-4976-8993-fec35e4e6963","system_id":"levelo_inurba_marseille","lat":43.29605,"lon":5.38113,"is_reserved":false,"is_disabled":false,"rental_uris":{"android":"levelo://app?vid=8b5e945d-3fbd-4976-8993-fec35e4e6963","ios":"levelo://app?vid=8b5e945d-3fbd-4976-8993-fec35e4e6963"},"vehicle_type_id":"4","last_reported":1746119335,"current_range_meters":2800,"station_id":"ce4bgl12rcd13ifvqbo0","pricing_plan_id":"cebpf4jnsgd1na2vs0mg"},{"bike_id":"7c9666cc-5746-41e6-a949-f2f5ff15ed4f","system_id":"levelo_inurba_marseille","lat":43.30934,"lon":5.40142,"is_reserved":false,"is_disabled":false,"rental_uris":{"android":"levelo://app?vid=7c9666cc-5746-41e6-a949-f2f5ff15ed4f","ios":"levelo://app?vid=7c9666cc-5746-41e6-a949-f2f5ff15ed4f"},"vehicle_type_id":"4","last_reported":1746119335,"current_range_meters":2800,"station_id":"ce4bgvp2rcd13ifvqct0","pricing_plan_id":"cebpf4jnsgd1na2vs0mg"},{"bike_id":"96953e80-d850-4ae2-b467-e5ba20102c26","system_id":"levelo_inurba_marseille","lat":43.25837,"lon":5.3943,"is_reserved":false,"is_disabled":false,"rental_uris":{"android":"levelo://app?vid=96953e80-d850-4ae2-b467-e5ba20102c26","ios":"levelo://app?vid=96953e80-d850-4ae2-b467-e5ba20102c26"},"vehicle_type_id":"4","last_reported":1746119335,"current_range_meters":2800,"station_id":"ce4bhip2rcd13ifvqft0","pricing_plan_id":"cebpf4jnsgd1na2vs0mg"},{"bike_id":"678d31d0-eae1-41c0-8922-51c4e908cb18","system_id":"levelo_inurba_marseille","lat":43.2868,"lon":5.38664,"is_reserved":false,"is_disabled":false,"rental_uris":{"android":"levelo://app?vid=678d31d0-eae1-41c0-8922-51c4e908cb18","ios":"levelo://app?vid=678d31d0-eae1-41c0-8922-51c4e908cb18"},"vehicle_type_id":"4","last_reported":1746119335,"current_range_meters":2000,"station_id":"ce4bh492rcd13ifvqdug","pricing_plan_id":"cebpf4jnsgd1na2vs0mg"},{"bike_id":"0344a4ae-087c-43e4-a070-5e33089b5d11","system_id":"levelo_inurba_marseille","lat":43.24074,"lon":5.37763,"is_reserved":false,"is_disabled":false,"rental_uris":{"android":"levelo://app?vid=0344a4ae-087c-43e4-a070-5e33089b5d11","ios":"levelo://app?vid=0344a4ae-087c-43e4-a070-5e33089b5d11"},"vehicle_type_id":"4","last_reported":1746119335,"current_range_meters":2800,"station_id":"ce4bhnp2rcd13ifvqgvg","pricing_plan_id":"cebpf4jnsgd1na2vs0mg"},{"bike_id":"01c6e764-bcfe-4433-8014-d9369ce5e545","system_id":"levelo_inurba_marseille","lat":43.29971,"lon":5.38494,"is_reserved":false,"is_disabled":false,"rental_uris":{"android":"levelo://app?vid=01c6e764-bcfe-4433-8014-d9369ce5e545","ios":"levelo://app?vid=01c6e764-bcfe-4433-8014-d9369ce5e545"},"vehicle_type_id":"4","last_reported":1746119335,"current_range_meters":3200,"station_id":"ce4bgj92rcd13ifvqbd0","pricing_plan_id":"cebpf4jnsgd1na2vs0mg"},{"bike_id":"a56da16e-7743-4a48-b46b-4e4301364c27","system_id":"levelo_inurba_marseille","lat":43.246432,"lon":5.388866,"is_reserved":false,"is_disabled":false,"rental_uris":{"android":"levelo://app?vid=a56da16e-7743-4a48-b46b-4e4301364c27","ios":"levelo://app?vid=a56da16e-7743-4a48-b46b-4e4301364c27"},"vehicle_type_id":"4","last_reported":1746119335,"current_range_meters":2000,"station_id":"ce4bhg12rcd13ifvqf60","pricing_plan_id":"cebpf4jnsgd1na2vs0mg"},{"bike_id":"ac963de3-31f8-4577-99da-84c4b480dc09","system_id":"levelo_inurba_marseille","lat":43.28936,"lon":5.38403,"is_reserved":false,"is_disabled":false,"rental_uris":{"android":"levelo://app?vid=ac963de3-31f8-4577-99da-84c4b480dc09","ios":"levelo://app?vid=ac963de3-31f8-4577-99da-84c4b480dc09"},"vehicle_type_id":"4","last_reported":1746119335,"current_range_meters":3200,"station_id":"ce4bh612rcd13ifvqe6g","pricing_plan_id":"cebpf4jnsgd1na2vs0mg"},{"bike_id":"b47626c9-dff4-4bf1-9301-bfa95e29ea69","system_id":"levelo_inurba_marseille","lat":43.29515,"lon":5.37501,"is_reserved":false,"is_disabled":false,"rental_uris":{"android":"levelo://app?vid=b47626c9-dff4-4bf1-9301-bfa95e29ea69","ios":"levelo://app?vid=b47626c9-dff4-4bf1-9301-bfa95e29ea69"},"vehicle_type_id":"4","last_reported":1746119335,"current_range_meters":3200,"station_id":"ce4bgkp2rcd13ifvqbmg","pricing_plan_id":"cebpf4jnsgd1na2vs0mg"},{"bike_id":"fb885a0e-0d3f-407e-87d3-d285d2631705","system_id":"levelo_inurba_marseille","lat":43.30236,"lon":5.36744,"is_reserved":false,"is_disabled":false,"rental_uris":{"android":"levelo://app?vid=fb885a0e-0d3f-407e-87d3-d285d2631705","ios":"levelo://app?vid=fb885a0e-0d3f-407e-87d3-d285d2631705"},"vehicle_type_id":"4","last_reported":1746119335,"current_range_meters":3200,"station_id":"","pricing_plan_id":"cebpf4jnsgd1na2vs0mg"},{"bike_id":"6335e007-5416-440f-adda-c11c5778c75d","system_id":"levelo_inurba_marseille","lat":43.2926,"lon":5.38434,"is_reserved":false,"is_disabled":false,"rental_uris":{"android":"levelo://app?vid=6335e007-5416-440f-adda-c11c5778c75d","ios":"levelo://app?vid=6335e007-5416-440f-adda-c11c5778c75d"},"vehicle_type_id":"4","last_reported":1746119335,"current_range_meters":3200,"station_id":"ce4bh692rcd13ifvqea0","pricing_plan_id":"cebpf4jnsgd1na2vs0mg"},{"bike_id":"ef8c85b0-d4f2-4476-8247-d6d6e5f960ff","system_id":"levelo_inurba_marseille","lat":43.30316,"lon":5.36888,"is_reserved":false,"is_disabled":false,"rental_uris":{"android":"levelo://app?vid=ef8c85b0-d4f2-4476-8247-d6d6e5f960ff","ios":"levelo://app?vid=ef8c85b0-d4f2-4476-8247-d6d6e5f960ff"},"vehicle_type_id":"4","last_reported":1746119335,"current_range_meters":2800,"station_id":"ce4bgqh2rcd13ifvqc5g","pricing_plan_id":"cebpf4jnsgd1na2vs0mg"},{"bike_id":"d8655bf3-2125-4e5c-b43c-51da42999a2c","system_id":"levelo_inurba_marseille","lat":43.281058,"lon":5.378386,"is_reserved":false,"is_disabled":false,"rental_uris":{"android":"levelo://app?vid=d8655bf3-2125-4e5c-b43c-51da42999a2c","ios":"levelo://app?vid=d8655bf3-2125-4e5c-b43c-51da42999a2c"},"vehicle_type_id":"4","last_reported":1746119335,"current_range_meters":3600,"station_id":"ce4bha12rcd13ifvqee0","pricing_plan_id":"cebpf4jnsgd1na2vs0mg"},{"bike_id":"9f1b9c6b-054b-48f5-bdcd-0b3ea8a0df0e","system_id":"levelo_inurba_marseille","lat":43.29865,"lon":5.3632,"is_reserved":false,"is_disabled":true,"rental_uris":{"android":"levelo://app?vid=9f1b9c6b-054b-48f5-bdcd-0b3ea8a0df0e","ios":"levelo://app?vid=9f1b9c6b-054b-48f5-bdcd-0b3ea8a0df0e"},"vehicle_type_id":"4","last_reported":1746119335,"current_range_meters":3600,"station_id":"ce4bgpp2rcd13ifvqc3g","pricing_plan_id":"cebpf4jnsgd1na2vs0mg"},{"bike_id":"a7613575-1679-40eb-82f9-3209304af9d7","system_id":"levelo_inurba_marseille","lat":43.27578,"lon":5.38424,"is_reserved":false,"is_disabled":false,"rental_uris":{"android":"levelo://app?vid=a7613575-1679-40eb-82f9-3209304af9d7","ios":"levelo://app?vid=a7613575-1679-40eb-82f9-3209304af9d7"},"vehicle_type_id":"4","last_reported":1746119335,"current_range_meters":3600,"station_id":"ce4bhh92rcd13ifvqfi0","pricing_plan_id":"cebpf4jnsgd1na2vs0mg"},{"bike_id":"4d1aa20a-e25a-4bd6-a302-f0fcd6c66b67","system_id":"levelo_inurba_marseille","lat":43.280967,"lon":5.378433,"is_reserved":false,"is_disabled":false,"rental_uris":{"android":"levelo://app?vid=4d1aa20a-e25a-4bd6-a302-f0fcd6c66b67","ios":"levelo://app?vid=4d1aa20a-e25a-4bd6-a302-f0fcd6c66b67"},"vehicle_type_id":"4","last_reported":1746119335,"current_range_meters":3600,"station_id":"ce4bha12rcd13ifvqee0","pricing_plan_id":"cebpf4jnsgd1na2vs0mg"},{"bike_id":"ef9165e8-a34f-440e-a0de-1c11b72684fa","system_id":"levelo_inurba_marseille","lat":43.26787,"lon":5.39415,"is_reserved":false,"is_disabled":false,"rental_uris":{"android":"levelo://app?vid=ef9165e8-a34f-440e-a0de-1c11b72684fa","ios":"levelo://app?vid=ef9165e8-a34f-440e-a0de-1c11b72684fa"},"vehicle_type_id":"4","last_reported":1746119335,"current_range_meters":3200,"station_id":"ce4bhh12rcd13ifvqfg0","pricing_plan_id":"cebpf4jnsgd1na2vs0mg"},{"bike_id":"d412de18-a15d-4d55-b56f-fa6eace5fda1","system_id":"levelo_inurba_marseille","lat":43.29984,"lon":5.38497,"is_reserved":false,"is_disabled":false,"rental_uris":{"android":"levelo://app?vid=d412de18-a15d-4d55-b56f-fa6eace5fda1","ios":"levelo://app?vid=d412de18-a15d-4d55-b56f-fa6eace5fda1"},"vehicle_type_id":"4","last_reported":1746119335,"current_range_meters":3200,"station_id":"ce4bgj92rcd13ifvqbd0","pricing_plan_id":"cebpf4jnsgd1na2vs0mg"},{"bike_id":"93b628cb-8edb-40e2-9265-ea560582455b","system_id":"levelo_inurba_marseille","lat":43.30912,"lon":5.36861,"is_reserved":false,"is_disabled":false,"rental_uris":{"android":"levelo://app?vid=93b628cb-8edb-40e2-9265-ea560582455b","ios":"levelo://app?vid=93b628cb-8edb-40e2-9265-ea560582455b"},"vehicle_type_id":"4","last_reported":1746119335,"current_range_meters":3600,"station_id":"ce4bgn92rcd13ifvqbvg","pricing_plan_id":"cebpf4jnsgd1na2vs0mg"},{"bike_id":"05dc1623-ca98-4dea-859d-e13bf87b90b5","system_id":"levelo_inurba_marseille","lat":43.32039,"lon":5.41537,"is_reserved":false,"is_disabled":false,"rental_uris":{"android":"levelo://app?vid=05dc1623-ca98-4dea-859d-e13bf87b90b5","ios":"levelo://app?vid=05dc1623-ca98-4dea-859d-e13bf87b90b5"},"vehicle_type_id":"4","last_reported":1746119335,"current_range_meters":4000,"station_id":"ce4bhq92rcd13ifvqhkg","pricing_plan_id":"cebpf4jnsgd1na2vs0mg"},{"bike_id":"428915ea-2fe8-4e67-873c-0e21c9f30f5c","system_id":"levelo_inurba_marseille","lat":43.31749,"lon":5.39015,"is_reserved":false,"is_disabled":false,"rental_uris":{"android":"levelo://app?vid=428915ea-2fe8-4e67-873c-0e21c9f30f5c","ios":"levelo://app?vid=428915ea-2fe8-4e67-873c-0e21c9f30f5c"},"vehicle_type_id":"4","last_reported":1746119335,"current_range_meters":3600,"station_id":"ce4bhqp2rcd13ifvqhng","pricing_plan_id":"cebpf4jnsgd1na2vs0mg"},{"bike_id":"5c354b7c-9ea8-4ac6-b27e-4689e36e2a26","system_id":"levelo_inurba_marseille","lat":43.29966,"lon":5.38492,"is_reserved":false,"is_disabled":false,"rental_uris":{"android":"levelo://app?vid=5c354b7c-9ea8-4ac6-b27e-4689e36e2a26","ios":"levelo://app?vid=5c354b7c-9ea8-4ac6-b27e-4689e36e2a26"},"vehicle_type_id":"4","last_reported":1746119335,"current_range_meters":4000,"station_id":"ce4bgj92rcd13ifvqbd0","pricing_plan_id":"cebpf4jnsgd1na2vs0mg"},{"bike_id":"3b5e0bae-a06d-487e-b5c0-f843aa18a3f3","system_id":"levelo_inurba_marseille","lat":43.28157,"lon":5.4265,"is_reserved":false,"is_disabled":false,"rental_uris":{"android":"levelo://app?vid=3b5e0bae-a06d-487e-b5c0-f843aa18a3f3","ios":"levelo://app?vid=3b5e0bae-a06d-487e-b5c0-f843aa18a3f3"},"vehicle_type_id":"4","last_reported":1746119335,"current_range_meters":4400,"station_id":"ce4bhnh2rcd13ifvqgug","pricing_plan_id":"cebpf4jnsgd1na2vs0mg"},{"bike_id":"ccb91302-6c31-4544-978a-5621a05cac99","system_id":"levelo_inurba_marseille","lat":43.28931,"lon":5.36642,"is_reserved":false,"is_disabled":false,"rental_uris":{"android":"levelo://app?vid=ccb91302-6c31-4544-978a-5621a05cac99","ios":"levelo://app?vid=ccb91302-6c31-4544-978a-5621a05cac99"},"vehicle_type_id":"4","last_reported":1746119335,"current_range_meters":4400,"station_id":"","pricing_plan_id":"cebpf4jnsgd1na2vs0mg"},{"bike_id":"f155c029-a90f-45f8-b738-80970826fe39","system_id":"levelo_inurba_marseille","lat":43.262,"lon":5.374733,"is_reserved":false,"is_disabled":true,"rental_uris":{"android":"levelo://app?vid=f155c029-a90f-45f8-b738-80970826fe39","ios":"levelo://app?vid=f155c029-a90f-45f8-b738-80970826fe39"},"vehicle_type_id":"4","last_reported":1746119335,"current_range_meters":4400,"station_id":"ce4bhgp2rcd13ifvqfc0","pricing_plan_id":"cebpf4jnsgd1na2vs0mg"},{"bike_id":"7cb7d4c2-5f89-4feb-8e32-b015e5e4f0ab","system_id":"levelo_inurba_marseille","lat":43.29256,"lon":5.40902,"is_reserved":false,"is_disabled":false,"rental_uris":{"android":"levelo://app?vid=7cb7d4c2-5f89-4feb-8e32-b015e5e4f0ab","ios":"levelo://app?vid=7cb7d4c2-5f89-4feb-8e32-b015e5e4f0ab"},"vehicle_type_id":"4","last_reported":1746119335,"current_range_meters":4400,"station_id":"ce4bh192rcd13ifvqdc0","pricing_plan_id":"cebpf4jnsgd1na2vs0mg"},{"bike_id":"27298edd-63fd-480e-9fc1-5b764d3a6b7f","system_id":"levelo_inurba_marseille","lat":43.2606,"lon":5.39399,"is_reserved":false,"is_disabled":false,"rental_uris":{"android":"levelo://app?vid=27298edd-63fd-480e-9fc1-5b764d3a6b7f","ios":"levelo://app?vid=27298edd-63fd-480e-9fc1-5b764d3a6b7f"},"vehicle_type_id":"4","last_reported":1746119335,"current_range_meters":4000,"station_id":"ce4bhh92rcd13ifvqfj0","pricing_plan_id":"cebpf4jnsgd1na2vs0mg"},{"bike_id":"d2697075-8057-49e1-9876-64b34fa7c7bc","system_id":"levelo_inurba_marseille","lat":43.311353,"lon":5.369357,"is_reserved":false,"is_disabled":false,"rental_uris":{"android":"levelo://app?vid=d2697075-8057-49e1-9876-64b34fa7c7bc","ios":"levelo://app?vid=d2697075-8057-49e1-9876-64b34fa7c7bc"},"vehicle_type_id":"4","last_reported":1746119335,"current_range_meters":4800,"station_id":"ce4bgl92rcd13ifvqbq0","pricing_plan_id":"cebpf4jnsgd1na2vs0mg"},{"bike_id":"cd8df5f2-69b0-43df-91eb-78f6b9978d27","system_id":"levelo_inurba_marseille","lat":43.30648,"lon":5.40079,"is_reserved":false,"is_disabled":false,"rental_uris":{"android":"levelo://app?vid=cd8df5f2-69b0-43df-91eb-78f6b9978d27","ios":"levelo://app?vid=cd8df5f2-69b0-43df-91eb-78f6b9978d27"},"vehicle_type_id":"4","last_reported":1746119335,"current_range_meters":4800,"station_id":"ce4bh112rcd13ifvqda0","pricing_plan_id":"cebpf4jnsgd1na2vs0mg"},{"bike_id":"58269a55-64bc-447c-b9d1-9dda866b4ae9","system_id":"levelo_inurba_marseille","lat":43.29573,"lon":5.39966,"is_reserved":false,"is_disabled":false,"rental_uris":{"android":"levelo://app?vid=58269a55-64bc-447c-b9d1-9dda866b4ae9","ios":"levelo://app?vid=58269a55-64bc-447c-b9d1-9dda866b4ae9"},"vehicle_type_id":"4","last_reported":1746119335,"current_range_meters":4800,"station_id":"ce4bh312rcd13ifvqdj0","pricing_plan_id":"cebpf4jnsgd1na2vs0mg"},{"bike_id":"38e6b411-75fd-419f-b18f-8157e690a728","system_id":"levelo_inurba_marseille","lat":43.270157,"lon":5.402665,"is_reserved":false,"is_disabled":false,"rental_uris":{"android":"levelo://app?vid=38e6b411-75fd-419f-b18f-8157e690a728","ios":"levelo://app?vid=38e6b411-75fd-419f-b18f-8157e690a728"},"vehicle_type_id":"4","last_reported":1746119335,"current_range_meters":4800,"station_id":"ce4bhk92rcd13ifvqgc0","pricing_plan_id":"cebpf4jnsgd1na2vs0mg"},{"bike_id":"20f29165-75db-4f77-9e56-31494a41df22","system_id":"levelo_inurba_marseille","lat":43.26945,"lon":5.40248,"is_reserved":false,"is_disabled":false,"rental_uris":{"android":"levelo://app?vid=20f29165-75db-4f77-9e56-31494a41df22","ios":"levelo://app?vid=20f29165-75db-4f77-9e56-31494a41df22"},"vehicle_type_id":"4","last_reported":1746119335,"current_range_meters":5600,"station_id":"cjm6bp8fraef2m0cb0m0","pricing_plan_id":"cebpf4jnsgd1na2vs0mg"},{"bike_id":"387e623a-d5eb-4f45-9883-107c0112f8c2","system_id":"levelo_inurba_marseille","lat":43.279668,"lon":5.387453,"is_reserved":false,"is_disabled":false,"rental_uris":{"android":"levelo://app?vid=387e623a-d5eb-4f45-9883-107c0112f8c2","ios":"levelo://app?vid=387e623a-d5eb-4f45-9883-107c0112f8c2"},"vehicle_type_id":"4","last_reported":1746119335,"current_range_meters":5600,"station_id":"","pricing_plan_id":"cebpf4jnsgd1na2vs0mg"},{"bike_id":"6571aeb4-cff8-4fbd-a9c9-845402817b6c","system_id":"levelo_inurba_marseille","lat":43.31841,"lon":5.40669,"is_reserved":false,"is_disabled":false,"rental_uris":{"android":"levelo://app?vid=6571aeb4-cff8-4fbd-a9c9-845402817b6c","ios":"levelo://app?vid=6571aeb4-cff8-4fbd-a9c9-845402817b6c"},"vehicle_type_id":"4","last_reported":1746119335,"current_range_meters":5600,"station_id":"ce4bhq12rcd13ifvqhig","pricing_plan_id":"cebpf4jnsgd1na2vs0mg"},{"bike_id":"a0f6bdbb-491a-4c94-b13f-da3933a8f024","system_id":"levelo_inurba_marseille","lat":43.32366,"lon":5.38877,"is_reserved":false,"is_disabled":false,"rental_uris":{"android":"levelo://app?vid=a0f6bdbb-491a-4c94-b13f-da3933a8f024","ios":"levelo://app?vid=a0f6bdbb-491a-4c94-b13f-da3933a8f024"},"vehicle_type_id":"4","last_reported":1746119335,"current_range_meters":5600,"station_id":"ce4bhqp2rcd13ifvqhog","pricing_plan_id":"cebpf4jnsgd1na2vs0mg"},{"bike_id":"07edfd45-c3fa-4b57-b865-cf1bf9963264","system_id":"levelo_inurba_marseille","lat":43.23389,"lon":5.364217,"is_reserved":false,"is_disabled":false,"rental_uris":{"android":"levelo://app?vid=07edfd45-c3fa-4b57-b865-cf1bf9963264","ios":"levelo://app?vid=07edfd45-c3fa-4b57-b865-cf1bf9963264"},"vehicle_type_id":"4","last_reported":1746119335,"current_range_meters":5600,"station_id":"","pricing_plan_id":"cebpf4jnsgd1na2vs0mg"},{"bike_id":"411ffb00-1e8f-4d2a-ba33-1b01b8c266a3","system_id":"levelo_inurba_marseille","lat":43.30437,"lon":5.38873,"is_reserved":false,"is_disabled":false,"rental_uris":{"android":"levelo://app?vid=411ffb00-1e8f-4d2a-ba33-1b01b8c266a3","ios":"levelo://app?vid=411ffb00-1e8f-4d2a-ba33-1b01b8c266a3"},"vehicle_type_id":"4","last_reported":1746119335,"current_range_meters":5600,"station_id":"ce4bgk12rcd13ifvqbi0","pricing_plan_id":"cebpf4jnsgd1na2vs0mg"},{"bike_id":"91f56ab4-0468-4927-814e-22998b9000f6","system_id":"levelo_inurba_marseille","lat":43.231897,"lon":5.355476,"is_reserved":false,"is_disabled":false,"rental_uris":{"android":"levelo://app?vid=91f56ab4-0468-4927-814e-22998b9000f6","ios":"levelo://app?vid=91f56ab4-0468-4927-814e-22998b9000f6"},"vehicle_type_id":"4","last_reported":1746119335,"current_range_meters":0,"station_id":"ce4bhu92rcd13ifvqi70","pricing_plan_id":"cebpf4jnsgd1na2vs0mg"},{"bike_id":"77e5aeac-17ec-4a34-9cbe-6ae2f36834ac","system_id":"levelo_inurba_marseille","lat":43.2848,"lon":5.38422,"is_reserved":false,"is_disabled":false,"rental_uris":{"android":"levelo://app?vid=77e5aeac-17ec-4a34-9cbe-6ae2f36834ac","ios":"levelo://app?vid=77e5aeac-17ec-4a34-9cbe-6ae2f36834ac"},"vehicle_type_id":"4","last_reported":1746119335,"current_range_meters":5600,"station_id":"ce4bh512rcd13ifvqe3g","pricing_plan_id":"cebpf4jnsgd1na2vs0mg"},{"bike_id":"6556c1d6-4893-4938-a7fd-a4840adc383d","system_id":"levelo_inurba_marseille","lat":43.250877,"lon":5.395252,"is_reserved":false,"is_disabled":false,"rental_uris":{"android":"levelo://app?vid=6556c1d6-4893-4938-a7fd-a4840adc383d","ios":"levelo://app?vid=6556c1d6-4893-4938-a7fd-a4840adc383d"},"vehicle_type_id":"4","last_reported":1746119335,"current_range_meters":4800,"station_id":"ce4bhm12rcd13ifvqgkg","pricing_plan_id":"cebpf4jnsgd1na2vs0mg"},{"bike_id":"1ab95f3e-d8cb-46c9-a256-413d4e358e6e","system_id":"levelo_inurba_marseille","lat":43.29577,"lon":5.39983,"is_reserved":false,"is_disabled":false,"rental_uris":{"android":"levelo://app?vid=1ab95f3e-d8cb-46c9-a256-413d4e358e6e","ios":"levelo://app?vid=1ab95f3e-d8cb-46c9-a256-413d4e358e6e"},"vehicle_type_id":"4","last_reported":1746119335,"current_range_meters":6000,"station_id":"ce4bh312rcd13ifvqdj0","pricing_plan_id":"cebpf4jnsgd1na2vs0mg"},{"bike_id":"3967df70-5d22-47d2-b57e-30cbee4cec75","system_id":"levelo_inurba_marseille","lat":43.31886,"lon":5.40732,"is_reserved":false,"is_disabled":false,"rental_uris":{"android":"levelo://app?vid=3967df70-5d22-47d2-b57e-30cbee4cec75","ios":"levelo://app?vid=3967df70-5d22-47d2-b57e-30cbee4cec75"},"vehicle_type_id":"4","last_reported":1746119335,"current_range_meters":6000,"station_id":"ce4bhq12rcd13ifvqhig","pricing_plan_id":"cebpf4jnsgd1na2vs0mg"},{"bike_id":"b4e60817-670e-4b3c-8834-d37869794af9","system_id":"levelo_inurba_marseille","lat":43.26225,"lon":5.40449,"is_reserved":false,"is_disabled":false,"rental_uris":{"android":"levelo://app?vid=b4e60817-670e-4b3c-8834-d37869794af9","ios":"levelo://app?vid=b4e60817-670e-4b3c-8834-d37869794af9"},"vehicle_type_id":"4","last_reported":1746119335,"current_range_meters":6000,"station_id":"ce4bhmh2rcd13ifvqgmg","pricing_plan_id":"cebpf4jnsgd1na2vs0mg"},{"bike_id":"de0200c5-6991-403c-a7d0-edd0fc9a2d42","system_id":"levelo_inurba_marseille","lat":43.33603,"lon":5.4103,"is_reserved":false,"is_disabled":false,"rental_uris":{"android":"levelo://app?vid=de0200c5-6991-403c-a7d0-edd0fc9a2d42","ios":"levelo://app?vid=de0200c5-6991-403c-a7d0-edd0fc9a2d42"},"vehicle_type_id":"4","last_reported":1746119335,"current_range_meters":6000,"station_id":"ce4bhqh2rcd13ifvqhmg","pricing_plan_id":"cebpf4jnsgd1na2vs0mg"},{"bike_id":"39ccc3a0-baae-41ad-bd60-2cf8edcfd4fa","system_id":"levelo_inurba_marseille","lat":43.25988,"lon":5.37572,"is_reserved":false,"is_disabled":true,"rental_uris":{"android":"levelo://app?vid=39ccc3a0-baae-41ad-bd60-2cf8edcfd4fa","ios":"levelo://app?vid=39ccc3a0-baae-41ad-bd60-2cf8edcfd4fa"},"vehicle_type_id":"4","last_reported":1746119335,"current_range_meters":6400,"station_id":"ce4bhgh2rcd13ifvqfa0","pricing_plan_id":"cebpf4jnsgd1na2vs0mg"},{"bike_id":"d831a412-d44e-4706-8795-665f278837e3","system_id":"levelo_inurba_marseille","lat":43.28073,"lon":5.39643,"is_reserved":false,"is_disabled":false,"rental_uris":{"android":"levelo://app?vid=d831a412-d44e-4706-8795-665f278837e3","ios":"levelo://app?vid=d831a412-d44e-4706-8795-665f278837e3"},"vehicle_type_id":"4","last_reported":1746119335,"current_range_meters":6400,"station_id":"ce4bho12rcd13ifvqh2g","pricing_plan_id":"cebpf4jnsgd1na2vs0mg"},{"bike_id":"d0480e52-e290-456b-acb5-a604cf31107d","system_id":"levelo_inurba_marseille","lat":43.29043,"lon":5.38152,"is_reserved":false,"is_disabled":false,"rental_uris":{"android":"levelo://app?vid=d0480e52-e290-456b-acb5-a604cf31107d","ios":"levelo://app?vid=d0480e52-e290-456b-acb5-a604cf31107d"},"vehicle_type_id":"4","last_reported":1746119335,"current_range_meters":6400,"station_id":"ce4bh4p2rcd13ifvqe1g","pricing_plan_id":"cebpf4jnsgd1na2vs0mg"},{"bike_id":"9993632a-4b57-4af1-b3f7-ae52baf8c31d","system_id":"levelo_inurba_marseille","lat":43.29418,"lon":5.38613,"is_reserved":false,"is_disabled":true,"rental_uris":{"android":"levelo://app?vid=9993632a-4b57-4af1-b3f7-ae52baf8c31d","ios":"levelo://app?vid=9993632a-4b57-4af1-b3f7-ae52baf8c31d"},"vehicle_type_id":"4","last_reported":1746119335,"current_range_meters":6400,"station_id":"ce4bh2h2rcd13ifvqdh0","pricing_plan_id":"cebpf4jnsgd1na2vs0mg"},{"bike_id":"eff5fb43-d786-4eb9-949f-aa81c93bcbe6","system_id":"levelo_inurba_marseille","lat":43.30556,"lon":5.36527,"is_reserved":false,"is_disabled":false,"rental_uris":{"android":"levelo://app?vid=eff5fb43-d786-4eb9-949f-aa81c93bcbe6","ios":"levelo://app?vid=eff5fb43-d786-4eb9-949f-aa81c93bcbe6"},"vehicle_type_id":"4","last_reported":1746119335,"current_range_meters":6400,"station_id":"","pricing_plan_id":"cebpf4jnsgd1na2vs0mg"},{"bike_id":"ec853579-da32-4aa7-b370-d4c64fe3c1c9","system_id":"levelo_inurba_marseille","lat":43.29003,"lon":5.35619,"is_reserved":false,"is_disabled":true,"rental_uris":{"android":"levelo://app?vid=ec853579-da32-4aa7-b370-d4c64fe3c1c9","ios":"levelo://app?vid=ec853579-da32-4aa7-b370-d4c64fe3c1c9"},"vehicle_type_id":"4","last_reported":1746119335,"current_range_meters":6400,"station_id":"ce4bhb92rcd13ifvqen0","pricing_plan_id":"cebpf4jnsgd1na2vs0mg"},{"bike_id":"f5108dfb-be79-49c8-a248-365330088c5c","system_id":"levelo_inurba_marseille","lat":43.29774,"lon":5.39137,"is_reserved":false,"is_disabled":false,"rental_uris":{"android":"levelo://app?vid=f5108dfb-be79-49c8-a248-365330088c5c","ios":"levelo://app?vid=f5108dfb-be79-49c8-a248-365330088c5c"},"vehicle_type_id":"4","last_reported":1746119335,"current_range_meters":6400,"station_id":"","pricing_plan_id":"cebpf4jnsgd1na2vs0mg"},{"bike_id":"3478b826-a241-4a25-bf0a-0f07551aee4b","system_id":"levelo_inurba_marseille","lat":43.305939,"lon":5.393627,"is_reserved":false,"is_disabled":false,"rental_uris":{"android":"levelo://app?vid=3478b826-a241-4a25-bf0a-0f07551aee4b","ios":"levelo://app?vid=3478b826-a241-4a25-bf0a-0f07551aee4b"},"vehicle_type_id":"4","last_reported":1746119335,"current_range_meters":6800,"station_id":"ce4bh0p2rcd13ifvqd80","pricing_plan_id":"cebpf4jnsgd1na2vs0mg"},{"bike_id":"dcc68d78-1ef9-492e-b8e4-4fe95532ad90","system_id":"levelo_inurba_marseille","lat":43.30951,"lon":5.39025,"is_reserved":false,"is_disabled":false,"rental_uris":{"android":"levelo://app?vid=dcc68d78-1ef9-492e-b8e4-4fe95532ad90","ios":"levelo://app?vid=dcc68d78-1ef9-492e-b8e4-4fe95532ad90"},"vehicle_type_id":"4","last_reported":1746119335,"current_range_meters":6800,"station_id":"ce4bgup2rcd13ifvqco0","pricing_plan_id":"cebpf4jnsgd1na2vs0mg"},{"bike_id":"fd9a4832-7310-4a2d-b55c-eb7e681369f4","system_id":"levelo_inurba_marseille","lat":43.27964,"lon":5.44207,"is_reserved":false,"is_disabled":false,"rental_uris":{"android":"levelo://app?vid=fd9a4832-7310-4a2d-b55c-eb7e681369f4","ios":"levelo://app?vid=fd9a4832-7310-4a2d-b55c-eb7e681369f4"},"vehicle_type_id":"4","last_reported":1746119335,"current_range_meters":6800,"station_id":"","pricing_plan_id":"cebpf4jnsgd1na2vs0mg"},{"bike_id":"e07b8579-c8c3-48bf-b236-cd6e28234631","system_id":"levelo_inurba_marseille","lat":43.29575,"lon":5.39986,"is_reserved":false,"is_disabled":false,"rental_uris":{"android":"levelo://app?vid=e07b8579-c8c3-48bf-b236-cd6e28234631","ios":"levelo://app?vid=e07b8579-c8c3-48bf-b236-cd6e28234631"},"vehicle_type_id":"4","last_reported":1746119335,"current_range_meters":6400,"station_id":"ce4bh312rcd13ifvqdj0","pricing_plan_id":"cebpf4jnsgd1na2vs0mg"},{"bike_id":"16209dd0-65b5-445f-9d99-e1fca74735e0","system_id":"levelo_inurba_marseille","lat":43.32336,"lon":5.40624,"is_reserved":false,"is_disabled":false,"rental_uris":{"android":"levelo://app?vid=16209dd0-65b5-445f-9d99-e1fca74735e0","ios":"levelo://app?vid=16209dd0-65b5-445f-9d99-e1fca74735e0"},"vehicle_type_id":"4","last_reported":1746119335,"current_range_meters":7200,"station_id":"ce4bhq92rcd13ifvqhjg","pricing_plan_id":"cebpf4jnsgd1na2vs0mg"},{"bike_id":"69d940e2-8a61-4fdc-b389-03ab28ab5ebe","system_id":"levelo_inurba_marseille","lat":43.24082,"lon":5.37754,"is_reserved":false,"is_disabled":false,"rental_uris":{"android":"levelo://app?vid=69d940e2-8a61-4fdc-b389-03ab28ab5ebe","ios":"levelo://app?vid=69d940e2-8a61-4fdc-b389-03ab28ab5ebe"},"vehicle_type_id":"4","last_reported":1746119335,"current_range_meters":7200,"station_id":"ce4bhnp2rcd13ifvqgvg","pricing_plan_id":"cebpf4jnsgd1na2vs0mg"},{"bike_id":"e8ad2654-523b-437a-96ba-27a715591f74","system_id":"levelo_inurba_marseille","lat":43.32477,"lon":5.36584,"is_reserved":false,"is_disabled":false,"rental_uris":{"android":"levelo://app?vid=e8ad2654-523b-437a-96ba-27a715591f74","ios":"levelo://app?vid=e8ad2654-523b-437a-96ba-27a715591f74"},"vehicle_type_id":"4","last_reported":1746119335,"current_range_meters":7200,"station_id":"ce4bhs12rcd13ifvqhvg","pricing_plan_id":"cebpf4jnsgd1na2vs0mg"},{"bike_id":"7f770ba9-2e48-47c9-8bb4-942855273bad","system_id":"levelo_inurba_marseille","lat":43.25345,"lon":5.42437,"is_reserved":false,"is_disabled":false,"rental_uris":{"android":"levelo://app?vid=7f770ba9-2e48-47c9-8bb4-942855273bad","ios":"levelo://app?vid=7f770ba9-2e48-47c9-8bb4-942855273bad"},"vehicle_type_id":"4","last_reported":1746119335,"current_range_meters":7200,"station_id":"","pricing_plan_id":"cebpf4jnsgd1na2vs0mg"},{"bike_id":"f81e8f66-69c4-4da6-9235-1100ecd1fcc3","system_id":"levelo_inurba_marseille","lat":43.30143,"lon":5.38778,"is_reserved":false,"is_disabled":false,"rental_uris":{"android":"levelo://app?vid=f81e8f66-69c4-4da6-9235-1100ecd1fcc3","ios":"levelo://app?vid=f81e8f66-69c4-4da6-9235-1100ecd1fcc3"},"vehicle_type_id":"4","last_reported":1746119335,"current_range_meters":7200,"station_id":"ce4bghh2rcd13ifvqb60","pricing_plan_id":"cebpf4jnsgd1na2vs0mg"},{"bike_id":"727a9e79-9eef-4d0d-8364-8cc93b121718","system_id":"levelo_inurba_marseille","lat":43.254899,"lon":5.376484,"is_reserved":false,"is_disabled":true,"rental_uris":{"android":"levelo://app?vid=727a9e79-9eef-4d0d-8364-8cc93b121718","ios":"levelo://app?vid=727a9e79-9eef-4d0d-8364-8cc93b121718"},"vehicle_type_id":"4","last_reported":1746119335,"current_range_meters":7200,"station_id":"ce4bhh12rcd13ifvqff0","pricing_plan_id":"cebpf4jnsgd1na2vs0mg"},{"bike_id":"d901647f-aef6-4e5f-b7ba-7cb0dfd0a264","system_id":"levelo_inurba_marseille","lat":43.308,"lon":5.37658,"is_reserved":false,"is_disabled":true,"rental_uris":{"android":"levelo://app?vid=d901647f-aef6-4e5f-b7ba-7cb0dfd0a264","ios":"levelo://app?vid=d901647f-aef6-4e5f-b7ba-7cb0dfd0a264"},"vehicle_type_id":"4","last_reported":1746119335,"current_range_meters":6800,"station_id":"","pricing_plan_id":"cebpf4jnsgd1na2vs0mg"},{"bike_id":"d60c29ba-c24b-443f-87fd-d476b92a570b","system_id":"levelo_inurba_marseille","lat":43.31866,"lon":5.37901,"is_reserved":false,"is_disabled":false,"rental_uris":{"android":"levelo://app?vid=d60c29ba-c24b-443f-87fd-d476b92a570b","ios":"levelo://app?vid=d60c29ba-c24b-443f-87fd-d476b92a570b"},"vehicle_type_id":"4","last_reported":1746119335,"current_range_meters":8000,"station_id":"","pricing_plan_id":"cebpf4jnsgd1na2vs0mg"},{"bike_id":"fca16558-5ca9-479c-bb70-4c23f4fc7f21","system_id":"levelo_inurba_marseille","lat":43.33025,"lon":5.39051,"is_reserved":false,"is_disabled":false,"rental_uris":{"android":"levelo://app?vid=fca16558-5ca9-479c-bb70-4c23f4fc7f21","ios":"levelo://app?vid=fca16558-5ca9-479c-bb70-4c23f4fc7f21"},"vehicle_type_id":"4","last_reported":1746119335,"current_range_meters":7200,"station_id":"ce4bhr92rcd13ifvqhrg","pricing_plan_id":"cebpf4jnsgd1na2vs0mg"},{"bike_id":"6f661b96-55ef-484a-9ef5-1af162132be3","system_id":"levelo_inurba_marseille","lat":43.2869,"lon":5.38655,"is_reserved":false,"is_disabled":false,"rental_uris":{"android":"levelo://app?vid=6f661b96-55ef-484a-9ef5-1af162132be3","ios":"levelo://app?vid=6f661b96-55ef-484a-9ef5-1af162132be3"},"vehicle_type_id":"4","last_reported":1746119335,"current_range_meters":8000,"station_id":"ce4bh492rcd13ifvqdug","pricing_plan_id":"cebpf4jnsgd1na2vs0mg"},{"bike_id":"299cea66-062c-42f3-a47c-a644b169594d","system_id":"levelo_inurba_marseille","lat":43.29612,"lon":5.3772,"is_reserved":false,"is_disabled":false,"rental_uris":{"android":"levelo://app?vid=299cea66-062c-42f3-a47c-a644b169594d","ios":"levelo://app?vid=299cea66-062c-42f3-a47c-a644b169594d"},"vehicle_type_id":"4","last_reported":1746119335,"current_range_meters":8400,"station_id":"ce4bgi92rcd13ifvqb90","pricing_plan_id":"cebpf4jnsgd1na2vs0mg"},{"bike_id":"beb25e16-052d-4575-a833-eced74f602b3","system_id":"levelo_inurba_marseille","lat":43.241734,"lon":5.364024,"is_reserved":false,"is_disabled":false,"rental_uris":{"android":"levelo://app?vid=beb25e16-052d-4575-a833-eced74f602b3","ios":"levelo://app?vid=beb25e16-052d-4575-a833-eced74f602b3"},"vehicle_type_id":"4","last_reported":1746119335,"current_range_meters":8400,"station_id":"cpo36qri1sfpv3e86is0","pricing_plan_id":"cebpf4jnsgd1na2vs0mg"},{"bike_id":"21bed3e6-76ee-4e6c-a95f-96d4139b6f1f","system_id":"levelo_inurba_marseille","lat":43.27494,"lon":5.42458,"is_reserved":false,"is_disabled":false,"rental_uris":{"android":"levelo://app?vid=21bed3e6-76ee-4e6c-a95f-96d4139b6f1f","ios":"levelo://app?vid=21bed3e6-76ee-4e6c-a95f-96d4139b6f1f"},"vehicle_type_id":"4","last_reported":1746119335,"current_range_meters":8400,"station_id":"ce4bhn92rcd13ifvqgrg","pricing_plan_id":"cebpf4jnsgd1na2vs0mg"},{"bike_id":"f2f0c778-e231-43c0-ba67-f87438a46bc1","system_id":"levelo_inurba_marseille","lat":43.29536,"lon":5.38547,"is_reserved":false,"is_disabled":false,"rental_uris":{"android":"levelo://app?vid=f2f0c778-e231-43c0-ba67-f87438a46bc1","ios":"levelo://app?vid=f2f0c778-e231-43c0-ba67-f87438a46bc1"},"vehicle_type_id":"4","last_reported":1746119335,"current_range_meters":8400,"station_id":"ce4bgih2rcd13ifvqba0","pricing_plan_id":"cebpf4jnsgd1na2vs0mg"},{"bike_id":"84ab9bdf-f062-4160-8d86-4eaa0b45b083","system_id":"levelo_inurba_marseille","lat":43.28939,"lon":5.38183,"is_reserved":false,"is_disabled":false,"rental_uris":{"android":"levelo://app?vid=84ab9bdf-f062-4160-8d86-4eaa0b45b083","ios":"levelo://app?vid=84ab9bdf-f062-4160-8d86-4eaa0b45b083"},"vehicle_type_id":"4","last_reported":1746119335,"current_range_meters":9200,"station_id":"","pricing_plan_id":"cebpf4jnsgd1na2vs0mg"},{"bike_id":"970a6f2b-4d6f-4009-8eb0-98158be55c00","system_id":"levelo_inurba_marseille","lat":43.27068,"lon":5.40269,"is_reserved":false,"is_disabled":false,"rental_uris":{"android":"levelo://app?vid=970a6f2b-4d6f-4009-8eb0-98158be55c00","ios":"levelo://app?vid=970a6f2b-4d6f-4009-8eb0-98158be55c00"},"vehicle_type_id":"4","last_reported":1746119335,"current_range_meters":9200,"station_id":"ce4bhk92rcd13ifvqgc0","pricing_plan_id":"cebpf4jnsgd1na2vs0mg"},{"bike_id":"08ae6229-5a47-4c4c-99ac-4ba6243e9cfe","system_id":"levelo_inurba_marseille","lat":43.23063,"lon":5.35502,"is_reserved":false,"is_disabled":true,"rental_uris":{"android":"levelo://app?vid=08ae6229-5a47-4c4c-99ac-4ba6243e9cfe","ios":"levelo://app?vid=08ae6229-5a47-4c4c-99ac-4ba6243e9cfe"},"vehicle_type_id":"4","last_reported":1746119335,"current_range_meters":9200,"station_id":"cpo3342slgdg3j2ifvpg","pricing_plan_id":"cebpf4jnsgd1na2vs0mg"},{"bike_id":"2203ac37-fed0-4a60-8663-0177e82d5949","system_id":"levelo_inurba_marseille","lat":43.30144,"lon":5.38061,"is_reserved":false,"is_disabled":false,"rental_uris":{"android":"levelo://app?vid=2203ac37-fed0-4a60-8663-0177e82d5949","ios":"levelo://app?vid=2203ac37-fed0-4a60-8663-0177e82d5949"},"vehicle_type_id":"4","last_reported":1746119335,"current_range_meters":9600,"station_id":"ce4bgjp2rcd13ifvqbh0","pricing_plan_id":"cebpf4jnsgd1na2vs0mg"},{"bike_id":"92c9c34a-2661-40c7-b42b-42a1687057dd","system_id":"levelo_inurba_marseille","lat":43.21198,"lon":5.35075,"is_reserved":false,"is_disabled":true,"rental_uris":{"android":"levelo://app?vid=92c9c34a-2661-40c7-b42b-42a1687057dd","ios":"levelo://app?vid=92c9c34a-2661-40c7-b42b-42a1687057dd"},"vehicle_type_id":"4","last_reported":1746119335,"current_range_meters":9600,"station_id":"st_cvj6sg6p6f1abm77japg","pricing_plan_id":"cebpf4jnsgd1na2vs0mg"},{"bike_id":"51ef9827-05d4-4f72-abc3-c6fec8c5a095","system_id":"levelo_inurba_marseille","lat":43.23205,"lon":5.43735,"is_reserved":false,"is_disabled":false,"rental_uris":{"android":"levelo://app?vid=51ef9827-05d4-4f72-abc3-c6fec8c5a095","ios":"levelo://app?vid=51ef9827-05d4-4f72-abc3-c6fec8c5a095"},"vehicle_type_id":"4","last_reported":1746119335,"current_range_meters":9600,"station_id":"","pricing_plan_id":"cebpf4jnsgd1na2vs0mg"},{"bike_id":"07d95c19-ff40-4b41-baca-8825e9322aa5","system_id":"levelo_inurba_marseille","lat":43.28156,"lon":5.42671,"is_reserved":false,"is_disabled":false,"rental_uris":{"android":"levelo://app?vid=07d95c19-ff40-4b41-baca-8825e9322aa5","ios":"levelo://app?vid=07d95c19-ff40-4b41-baca-8825e9322aa5"},"vehicle_type_id":"4","last_reported":1746119335,"current_range_meters":9600,"station_id":"ce4bhnh2rcd13ifvqgug","pricing_plan_id":"cebpf4jnsgd1na2vs0mg"},{"bike_id":"dfe80021-53fd-4c6a-910a-22053b739e49","system_id":"levelo_inurba_marseille","lat":43.30803,"lon":5.38164,"is_reserved":false,"is_disabled":false,"rental_uris":{"android":"levelo://app?vid=dfe80021-53fd-4c6a-910a-22053b739e49","ios":"levelo://app?vid=dfe80021-53fd-4c6a-910a-22053b739e49"},"vehicle_type_id":"4","last_reported":1746119335,"current_range_meters":9600,"station_id":"ce4bgt12rcd13ifvqce0","pricing_plan_id":"cebpf4jnsgd1na2vs0mg"},{"bike_id":"fb700f38-a3d8-44b9-a8b8-c4468a069b77","system_id":"levelo_inurba_marseille","lat":43.336,"lon":5.40977,"is_reserved":false,"is_disabled":false,"rental_uris":{"android":"levelo://app?vid=fb700f38-a3d8-44b9-a8b8-c4468a069b77","ios":"levelo://app?vid=fb700f38-a3d8-44b9-a8b8-c4468a069b77"},"vehicle_type_id":"4","last_reported":1746119335,"current_range_meters":10000,"station_id":"ce4bhqh2rcd13ifvqhmg","pricing_plan_id":"cebpf4jnsgd1na2vs0mg"},{"bike_id":"76a794e1-6a74-43ad-9436-880493fa1d9e","system_id":"levelo_inurba_marseille","lat":43.29417,"lon":5.38607,"is_reserved":false,"is_disabled":false,"rental_uris":{"android":"levelo://app?vid=76a794e1-6a74-43ad-9436-880493fa1d9e","ios":"levelo://app?vid=76a794e1-6a74-43ad-9436-880493fa1d9e"},"vehicle_type_id":"4","last_reported":1746119335,"current_range_meters":10000,"station_id":"ce4bh2h2rcd13ifvqdh0","pricing_plan_id":"cebpf4jnsgd1na2vs0mg"},{"bike_id":"22da4027-4f6f-45d1-9334-006a58311cd1","system_id":"levelo_inurba_marseille","lat":43.24082,"lon":5.36772,"is_reserved":false,"is_disabled":false,"rental_uris":{"android":"levelo://app?vid=22da4027-4f6f-45d1-9334-006a58311cd1","ios":"levelo://app?vid=22da4027-4f6f-45d1-9334-006a58311cd1"},"vehicle_type_id":"4","last_reported":1746119335,"current_range_meters":10000,"station_id":"","pricing_plan_id":"cebpf4jnsgd1na2vs0mg"},{"bike_id":"5e6f84ee-7803-4044-994c-9ad3c9e24453","system_id":"levelo_inurba_marseille","lat":43.22944,"lon":5.3539,"is_reserved":false,"is_disabled":false,"rental_uris":{"android":"levelo://app?vid=5e6f84ee-7803-4044-994c-9ad3c9e24453","ios":"levelo://app?vid=5e6f84ee-7803-4044-994c-9ad3c9e24453"},"vehicle_type_id":"4","last_reported":1746119335,"current_range_meters":10000,"station_id":"cpo3532slgdg3j2ikp40","pricing_plan_id":"cebpf4jnsgd1na2vs0mg"},{"bike_id":"1a0e9be5-bd4f-4026-be47-4bf333aa540c","system_id":"levelo_inurba_marseille","lat":43.28468,"lon":5.39191,"is_reserved":false,"is_disabled":true,"rental_uris":{"android":"levelo://app?vid=1a0e9be5-bd4f-4026-be47-4bf333aa540c","ios":"levelo://app?vid=1a0e9be5-bd4f-4026-be47-4bf333aa540c"},"vehicle_type_id":"4","last_reported":1746119335,"current_range_meters":10000,"station_id":"ce4bhoh2rcd13ifvqh5g","pricing_plan_id":"cebpf4jnsgd1na2vs0mg"},{"bike_id":"b92f882b-53e9-4575-a8cf-7dfac85883dc","system_id":"levelo_inurba_marseille","lat":43.29632,"lon":5.40593,"is_reserved":false,"is_disabled":false,"rental_uris":{"android":"levelo://app?vid=b92f882b-53e9-4575-a8cf-7dfac85883dc","ios":"levelo://app?vid=b92f882b-53e9-4575-a8cf-7dfac85883dc"},"vehicle_type_id":"4","last_reported":1746119335,"current_range_meters":10000,"station_id":"ce4bh0h2rcd13ifvqd60","pricing_plan_id":"cebpf4jnsgd1na2vs0mg"},{"bike_id":"1869b37b-743f-455d-bff6-19d84fb2196f","system_id":"levelo_inurba_marseille","lat":43.25104,"lon":5.40342,"is_reserved":false,"is_disabled":true,"rental_uris":{"android":"levelo://app?vid=1869b37b-743f-455d-bff6-19d84fb2196f","ios":"levelo://app?vid=1869b37b-743f-455d-bff6-19d84fb2196f"},"vehicle_type_id":"4","last_reported":1746119335,"current_range_meters":10800,"station_id":"ce4bhlh2rcd13ifvqgig","pricing_plan_id":"cebpf4jnsgd1na2vs0mg"},{"bike_id":"07f6028e-da0c-44c5-97f9-165f8a4fa5e7","system_id":"levelo_inurba_marseille","lat":43.30364,"lon":5.41877,"is_reserved":false,"is_disabled":false,"rental_uris":{"android":"levelo://app?vid=07f6028e-da0c-44c5-97f9-165f8a4fa5e7","ios":"levelo://app?vid=07f6028e-da0c-44c5-97f9-165f8a4fa5e7"},"vehicle_type_id":"4","last_reported":1746119335,"current_range_meters":10000,"station_id":"ce4bhop2rcd13ifvqh7g","pricing_plan_id":"cebpf4jnsgd1na2vs0mg"},{"bike_id":"d90a9f6a-dcc7-4188-90fd-9982aa485cbb","system_id":"levelo_inurba_marseille","lat":43.24392,"lon":5.37069,"is_reserved":false,"is_disabled":true,"rental_uris":{"android":"levelo://app?vid=d90a9f6a-dcc7-4188-90fd-9982aa485cbb","ios":"levelo://app?vid=d90a9f6a-dcc7-4188-90fd-9982aa485cbb"},"vehicle_type_id":"4","last_reported":1746119335,"current_range_meters":11200,"station_id":"ce4bhhh2rcd13ifvqfk0","pricing_plan_id":"cebpf4jnsgd1na2vs0mg"},{"bike_id":"392a2375-eef8-43f8-a9cc-9475f2447a1c","system_id":"levelo_inurba_marseille","lat":43.29794,"lon":5.40411,"is_reserved":false,"is_disabled":false,"rental_uris":{"android":"levelo://app?vid=392a2375-eef8-43f8-a9cc-9475f2447a1c","ios":"levelo://app?vid=392a2375-eef8-43f8-a9cc-9475f2447a1c"},"vehicle_type_id":"4","last_reported":1746119335,"current_range_meters":11600,"station_id":"ce4bh112rcd13ifvqd90","pricing_plan_id":"cebpf4jnsgd1na2vs0mg"},{"bike_id":"95f363b3-f361-4818-8817-99ef272bdca6","system_id":"levelo_inurba_marseille","lat":43.24079,"lon":5.37746,"is_reserved":false,"is_disabled":false,"rental_uris":{"android":"levelo://app?vid=95f363b3-f361-4818-8817-99ef272bdca6","ios":"levelo://app?vid=95f363b3-f361-4818-8817-99ef272bdca6"},"vehicle_type_id":"4","last_reported":1746119335,"current_range_meters":11200,"station_id":"ce4bhnp2rcd13ifvqgvg","pricing_plan_id":"cebpf4jnsgd1na2vs0mg"},{"bike_id":"fa0b4d05-f42d-4870-9261-5e2ae10c25c4","system_id":"levelo_inurba_marseille","lat":43.29268,"lon":5.38439,"is_reserved":false,"is_disabled":false,"rental_uris":{"android":"levelo://app?vid=fa0b4d05-f42d-4870-9261-5e2ae10c25c4","ios":"levelo://app?vid=fa0b4d05-f42d-4870-9261-5e2ae10c25c4"},"vehicle_type_id":"4","last_reported":1746119335,"current_range_meters":12000,"station_id":"ce4bh692rcd13ifvqea0","pricing_plan_id":"cebpf4jnsgd1na2vs0mg"},{"bike_id":"56f543c3-cb38-4272-a4e5-cab053dcc3e0","system_id":"levelo_inurba_marseille","lat":43.291966,"lon":5.392961,"is_reserved":false,"is_disabled":true,"rental_uris":{"android":"levelo://app?vid=56f543c3-cb38-4272-a4e5-cab053dcc3e0","ios":"levelo://app?vid=56f543c3-cb38-4272-a4e5-cab053dcc3e0"},"vehicle_type_id":"4","last_reported":1746119335,"current_range_meters":12000,"station_id":"ce4bhbh2rcd13ifvqeo0","pricing_plan_id":"cebpf4jnsgd1na2vs0mg"},{"bike_id":"dc3125e1-eda0-4c8c-8048-c647d58707fa","system_id":"levelo_inurba_marseille","lat":43.27058,"lon":5.40256,"is_reserved":false,"is_disabled":false,"rental_uris":{"android":"levelo://app?vid=dc3125e1-eda0-4c8c-8048-c647d58707fa","ios":"levelo://app?vid=dc3125e1-eda0-4c8c-8048-c647d58707fa"},"vehicle_type_id":"4","last_reported":1746119335,"current_range_meters":12000,"station_id":"ce4bhk92rcd13ifvqgc0","pricing_plan_id":"cebpf4jnsgd1na2vs0mg"},{"bike_id":"73de5af1-bf79-433a-a20c-6899488a09e7","system_id":"levelo_inurba_marseille","lat":43.29307,"lon":5.37173,"is_reserved":false,"is_disabled":true,"rental_uris":{"android":"levelo://app?vid=73de5af1-bf79-433a-a20c-6899488a09e7","ios":"levelo://app?vid=73de5af1-bf79-433a-a20c-6899488a09e7"},"vehicle_type_id":"4","last_reported":1746119335,"current_range_meters":12000,"station_id":"ce4bgh92rcd13ifvqb40","pricing_plan_id":"cebpf4jnsgd1na2vs0mg"},{"bike_id":"98179f2f-94df-4822-8b47-ce5361893e41","system_id":"levelo_inurba_marseille","lat":43.31276,"lon":5.40172,"is_reserved":false,"is_disabled":false,"rental_uris":{"android":"levelo://app?vid=98179f2f-94df-4822-8b47-ce5361893e41","ios":"levelo://app?vid=98179f2f-94df-4822-8b47-ce5361893e41"},"vehicle_type_id":"4","last_reported":1746119335,"current_range_meters":12800,"station_id":"ce4bh092rcd13ifvqd30","pricing_plan_id":"cebpf4jnsgd1na2vs0mg"},{"bike_id":"59e1ed8d-066c-42ad-af18-a43dab3a39a1","system_id":"levelo_inurba_marseille","lat":43.26614,"lon":5.39087,"is_reserved":false,"is_disabled":false,"rental_uris":{"android":"levelo://app?vid=59e1ed8d-066c-42ad-af18-a43dab3a39a1","ios":"levelo://app?vid=59e1ed8d-066c-42ad-af18-a43dab3a39a1"},"vehicle_type_id":"4","last_reported":1746119335,"current_range_meters":12400,"station_id":"ce4bhe12rcd13ifvqf30","pricing_plan_id":"cebpf4jnsgd1na2vs0mg"},{"bike_id":"71cd3341-adc5-42bf-9c76-c965e98990eb","system_id":"levelo_inurba_marseille","lat":43.29969,"lon":5.38497,"is_reserved":false,"is_disabled":false,"rental_uris":{"android":"levelo://app?vid=71cd3341-adc5-42bf-9c76-c965e98990eb","ios":"levelo://app?vid=71cd3341-adc5-42bf-9c76-c965e98990eb"},"vehicle_type_id":"4","last_reported":1746119335,"current_range_meters":12400,"station_id":"ce4bgj92rcd13ifvqbd0","pricing_plan_id":"cebpf4jnsgd1na2vs0mg"},{"bike_id":"b652f355-71f1-4da5-8a2f-1612121f51d7","system_id":"levelo_inurba_marseille","lat":43.290175,"lon":5.381286,"is_reserved":false,"is_disabled":false,"rental_uris":{"android":"levelo://app?vid=b652f355-71f1-4da5-8a2f-1612121f51d7","ios":"levelo://app?vid=b652f355-71f1-4da5-8a2f-1612121f51d7"},"vehicle_type_id":"4","last_reported":1746119335,"current_range_meters":12400,"station_id":"ce4bh4p2rcd13ifvqe1g","pricing_plan_id":"cebpf4jnsgd1na2vs0mg"},{"bike_id":"3f8bea75-f1b7-42a9-9ff5-4986c0552272","system_id":"levelo_inurba_marseille","lat":43.217436,"lon":5.346051,"is_reserved":false,"is_disabled":true,"rental_uris":{"android":"levelo://app?vid=3f8bea75-f1b7-42a9-9ff5-4986c0552272","ios":"levelo://app?vid=3f8bea75-f1b7-42a9-9ff5-4986c0552272"},"vehicle_type_id":"4","last_reported":1746119335,"current_range_meters":12800,"station_id":"","pricing_plan_id":"cebpf4jnsgd1na2vs0mg"},{"bike_id":"44f88353-cbee-4c48-a3d9-6e7a4d8a0e16","system_id":"levelo_inurba_marseille","lat":43.31369,"lon":5.38497,"is_reserved":false,"is_disabled":false,"rental_uris":{"android":"levelo://app?vid=44f88353-cbee-4c48-a3d9-6e7a4d8a0e16","ios":"levelo://app?vid=44f88353-cbee-4c48-a3d9-6e7a4d8a0e16"},"vehicle_type_id":"4","last_reported":1746119335,"current_range_meters":12800,"station_id":"ce4bgt92rcd13ifvqcf0","pricing_plan_id":"cebpf4jnsgd1na2vs0mg"},{"bike_id":"333694e7-837a-4366-9325-f6518648ddb0","system_id":"levelo_inurba_marseille","lat":43.317434,"lon":5.390205,"is_reserved":false,"is_disabled":false,"rental_uris":{"android":"levelo://app?vid=333694e7-837a-4366-9325-f6518648ddb0","ios":"levelo://app?vid=333694e7-837a-4366-9325-f6518648ddb0"},"vehicle_type_id":"4","last_reported":1746119335,"current_range_meters":12800,"station_id":"","pricing_plan_id":"cebpf4jnsgd1na2vs0mg"},{"bike_id":"c3bf16d0-70cb-420d-ac63-642084461ca2","system_id":"levelo_inurba_marseille","lat":43.25749,"lon":5.41116,"is_reserved":false,"is_disabled":false,"rental_uris":{"android":"levelo://app?vid=c3bf16d0-70cb-420d-ac63-642084461ca2","ios":"levelo://app?vid=c3bf16d0-70cb-420d-ac63-642084461ca2"},"vehicle_type_id":"4","last_reported":1746119335,"current_range_meters":13600,"station_id":"ce4bhkp2rcd13ifvqgd0","pricing_plan_id":"cebpf4jnsgd1na2vs0mg"},{"bike_id":"20e27d73-4f3c-493c-91f9-96e0f92cf713","system_id":"levelo_inurba_marseille","lat":43.30894,"lon":5.39661,"is_reserved":false,"is_disabled":false,"rental_uris":{"android":"levelo://app?vid=20e27d73-4f3c-493c-91f9-96e0f92cf713","ios":"levelo://app?vid=20e27d73-4f3c-493c-91f9-96e0f92cf713"},"vehicle_type_id":"4","last_reported":1746119335,"current_range_meters":14000,"station_id":"ce4bh012rcd13ifvqcv0","pricing_plan_id":"cebpf4jnsgd1na2vs0mg"},{"bike_id":"a73b869c-d941-493b-bfd5-f460ace6a9e8","system_id":"levelo_inurba_marseille","lat":43.31716,"lon":5.43715,"is_reserved":false,"is_disabled":false,"rental_uris":{"android":"levelo://app?vid=a73b869c-d941-493b-bfd5-f460ace6a9e8","ios":"levelo://app?vid=a73b869c-d941-493b-bfd5-f460ace6a9e8"},"vehicle_type_id":"4","last_reported":1746119335,"current_range_meters":12800,"station_id":"ce4bhp92rcd13ifvqhcg","pricing_plan_id":"cebpf4jnsgd1na2vs0mg"},{"bike_id":"1bdc3cc6-d9b3-4578-a16d-ab7c73678286","system_id":"levelo_inurba_marseille","lat":43.29845,"lon":5.39725,"is_reserved":false,"is_disabled":false,"rental_uris":{"android":"levelo://app?vid=1bdc3cc6-d9b3-4578-a16d-ab7c73678286","ios":"levelo://app?vid=1bdc3cc6-d9b3-4578-a16d-ab7c73678286"},"vehicle_type_id":"4","last_reported":1746119335,"current_range_meters":13600,"station_id":"ce4bh0h2rcd13ifvqd50","pricing_plan_id":"cebpf4jnsgd1na2vs0mg"},{"bike_id":"8a008d66-e045-4cad-a4ba-59cf0e51451d","system_id":"levelo_inurba_marseille","lat":43.323737,"lon":5.389494,"is_reserved":false,"is_disabled":false,"rental_uris":{"android":"levelo://app?vid=8a008d66-e045-4cad-a4ba-59cf0e51451d","ios":"levelo://app?vid=8a008d66-e045-4cad-a4ba-59cf0e51451d"},"vehicle_type_id":"4","last_reported":1746119335,"current_range_meters":13600,"station_id":"ce4bhqp2rcd13ifvqhog","pricing_plan_id":"cebpf4jnsgd1na2vs0mg"},{"bike_id":"0b9ac188-19a7-4ad4-8279-34f1318ce56d","system_id":"levelo_inurba_marseille","lat":43.31293,"lon":5.37783,"is_reserved":false,"is_disabled":false,"rental_uris":{"android":"levelo://app?vid=0b9ac188-19a7-4ad4-8279-34f1318ce56d","ios":"levelo://app?vid=0b9ac188-19a7-4ad4-8279-34f1318ce56d"},"vehicle_type_id":"4","last_reported":1746119335,"current_range_meters":14400,"station_id":"","pricing_plan_id":"cebpf4jnsgd1na2vs0mg"},{"bike_id":"a42fbf0d-8f55-43f7-a58f-19d5bd20684e","system_id":"levelo_inurba_marseille","lat":43.29314,"lon":5.37175,"is_reserved":false,"is_disabled":false,"rental_uris":{"android":"levelo://app?vid=a42fbf0d-8f55-43f7-a58f-19d5bd20684e","ios":"levelo://app?vid=a42fbf0d-8f55-43f7-a58f-19d5bd20684e"},"vehicle_type_id":"4","last_reported":1746119335,"current_range_meters":14800,"station_id":"ce4bgh92rcd13ifvqb40","pricing_plan_id":"cebpf4jnsgd1na2vs0mg"},{"bike_id":"b2083489-a112-4797-8cb1-d4ee789bb8be","system_id":"levelo_inurba_marseille","lat":43.295256,"lon":5.400362,"is_reserved":false,"is_disabled":false,"rental_uris":{"android":"levelo://app?vid=b2083489-a112-4797-8cb1-d4ee789bb8be","ios":"levelo://app?vid=b2083489-a112-4797-8cb1-d4ee789bb8be"},"vehicle_type_id":"4","last_reported":1746119335,"current_range_meters":14800,"station_id":"ce4bgup2rcd13ifvqco0","pricing_plan_id":"cebpf4jnsgd1na2vs0mg"},{"bike_id":"eb60ebeb-19e9-43bd-8d8a-276b6b709b53","system_id":"levelo_inurba_marseille","lat":43.318863,"lon":5.407354,"is_reserved":false,"is_disabled":false,"rental_uris":{"android":"levelo://app?vid=eb60ebeb-19e9-43bd-8d8a-276b6b709b53","ios":"levelo://app?vid=eb60ebeb-19e9-43bd-8d8a-276b6b709b53"},"vehicle_type_id":"4","last_reported":1746119335,"current_range_meters":15200,"station_id":"ce4bhq12rcd13ifvqhig","pricing_plan_id":"cebpf4jnsgd1na2vs0mg"},{"bike_id":"0c9a8767-a71f-4ef0-b390-c3b7e9c632a8","system_id":"levelo_inurba_marseille","lat":43.21186,"lon":5.35085,"is_reserved":false,"is_disabled":true,"rental_uris":{"android":"levelo://app?vid=0c9a8767-a71f-4ef0-b390-c3b7e9c632a8","ios":"levelo://app?vid=0c9a8767-a71f-4ef0-b390-c3b7e9c632a8"},"vehicle_type_id":"4","last_reported":1746119335,"current_range_meters":16000,"station_id":"st_cvj6sg6p6f1abm77japg","pricing_plan_id":"cebpf4jnsgd1na2vs0mg"},{"bike_id":"30ef1fbd-3c89-49d8-98cd-82480b987557","system_id":"levelo_inurba_marseille","lat":43.2439,"lon":5.37049,"is_reserved":false,"is_disabled":false,"rental_uris":{"android":"levelo://app?vid=30ef1fbd-3c89-49d8-98cd-82480b987557","ios":"levelo://app?vid=30ef1fbd-3c89-49d8-98cd-82480b987557"},"vehicle_type_id":"4","last_reported":1746119335,"current_range_meters":16000,"station_id":"ce4bhhh2rcd13ifvqfk0","pricing_plan_id":"cebpf4jnsgd1na2vs0mg"},{"bike_id":"a3197f58-133b-4fc7-838f-42a45d242f3d","system_id":"levelo_inurba_marseille","lat":43.30809,"lon":5.38148,"is_reserved":false,"is_disabled":false,"rental_uris":{"android":"levelo://app?vid=a3197f58-133b-4fc7-838f-42a45d242f3d","ios":"levelo://app?vid=a3197f58-133b-4fc7-838f-42a45d242f3d"},"vehicle_type_id":"4","last_reported":1746119335,"current_range_meters":16000,"station_id":"ce4bgt12rcd13ifvqce0","pricing_plan_id":"cebpf4jnsgd1na2vs0mg"},{"bike_id":"9b65e042-014b-4672-93f5-bc949cfe5366","system_id":"levelo_inurba_marseille","lat":43.28718,"lon":5.37939,"is_reserved":false,"is_disabled":false,"rental_uris":{"android":"levelo://app?vid=9b65e042-014b-4672-93f5-bc949cfe5366","ios":"levelo://app?vid=9b65e042-014b-4672-93f5-bc949cfe5366"},"vehicle_type_id":"4","last_reported":1746119335,"current_range_meters":16400,"station_id":"ce4bh9p2rcd13ifvqec0","pricing_plan_id":"cebpf4jnsgd1na2vs0mg"},{"bike_id":"f1cbb0bf-3202-4cd2-82e5-cd68b93271bd","system_id":"levelo_inurba_marseille","lat":43.26778,"lon":5.39392,"is_reserved":false,"is_disabled":false,"rental_uris":{"android":"levelo://app?vid=f1cbb0bf-3202-4cd2-82e5-cd68b93271bd","ios":"levelo://app?vid=f1cbb0bf-3202-4cd2-82e5-cd68b93271bd"},"vehicle_type_id":"4","last_reported":1746119335,"current_range_meters":16400,"station_id":"ce4bhh12rcd13ifvqfg0","pricing_plan_id":"cebpf4jnsgd1na2vs0mg"},{"bike_id":"26a44207-5bf7-4b20-ad3e-ceecd423ab9c","system_id":"levelo_inurba_marseille","lat":43.26962,"lon":5.38687,"is_reserved":false,"is_disabled":false,"rental_uris":{"android":"levelo://app?vid=26a44207-5bf7-4b20-ad3e-ceecd423ab9c","ios":"levelo://app?vid=26a44207-5bf7-4b20-ad3e-ceecd423ab9c"},"vehicle_type_id":"4","last_reported":1746119335,"current_range_meters":16400,"station_id":"ce4bhh92rcd13ifvqfh0","pricing_plan_id":"cebpf4jnsgd1na2vs0mg"},{"bike_id":"6ecf28c9-5ccf-4d73-8849-1fc85b9694ca","system_id":"levelo_inurba_marseille","lat":43.2893,"lon":5.38402,"is_reserved":false,"is_disabled":false,"rental_uris":{"android":"levelo://app?vid=6ecf28c9-5ccf-4d73-8849-1fc85b9694ca","ios":"levelo://app?vid=6ecf28c9-5ccf-4d73-8849-1fc85b9694ca"},"vehicle_type_id":"4","last_reported":1746119335,"current_range_meters":16400,"station_id":"ce4bh612rcd13ifvqe6g","pricing_plan_id":"cebpf4jnsgd1na2vs0mg"},{"bike_id":"7aeeb7bd-f82f-4e82-a8eb-3e842ecfcdf2","system_id":"levelo_inurba_marseille","lat":43.295348,"lon":5.422984,"is_reserved":false,"is_disabled":false,"rental_uris":{"android":"levelo://app?vid=7aeeb7bd-f82f-4e82-a8eb-3e842ecfcdf2","ios":"levelo://app?vid=7aeeb7bd-f82f-4e82-a8eb-3e842ecfcdf2"},"vehicle_type_id":"4","last_reported":1746119335,"current_range_meters":16400,"station_id":"ce4bhph2rcd13ifvqhdg","pricing_plan_id":"cebpf4jnsgd1na2vs0mg"},{"bike_id":"acd1797a-757f-40ba-b157-b12431d2d9e6","system_id":"levelo_inurba_marseille","lat":43.3093,"lon":5.40147,"is_reserved":false,"is_disabled":false,"rental_uris":{"android":"levelo://app?vid=acd1797a-757f-40ba-b157-b12431d2d9e6","ios":"levelo://app?vid=acd1797a-757f-40ba-b157-b12431d2d9e6"},"vehicle_type_id":"4","last_reported":1746119335,"current_range_meters":16800,"station_id":"ce4bgvp2rcd13ifvqct0","pricing_plan_id":"cebpf4jnsgd1na2vs0mg"},{"bike_id":"5921c0eb-9ba4-415e-8efc-92c46df47ae4","system_id":"levelo_inurba_marseille","lat":43.29957,"lon":5.36534,"is_reserved":false,"is_disabled":true,"rental_uris":{"android":"levelo://app?vid=5921c0eb-9ba4-415e-8efc-92c46df47ae4","ios":"levelo://app?vid=5921c0eb-9ba4-415e-8efc-92c46df47ae4"},"vehicle_type_id":"4","last_reported":1746119335,"current_range_meters":16800,"station_id":"ce4bgm92rcd13ifvqbr0","pricing_plan_id":"cebpf4jnsgd1na2vs0mg"},{"bike_id":"f46068c2-3814-486c-8a47-2aeb4213fc83","system_id":"levelo_inurba_marseille","lat":43.28465,"lon":5.38425,"is_reserved":false,"is_disabled":false,"rental_uris":{"android":"levelo://app?vid=f46068c2-3814-486c-8a47-2aeb4213fc83","ios":"levelo://app?vid=f46068c2-3814-486c-8a47-2aeb4213fc83"},"vehicle_type_id":"4","last_reported":1746119335,"current_range_meters":16800,"station_id":"ce4bh512rcd13ifvqe3g","pricing_plan_id":"cebpf4jnsgd1na2vs0mg"},{"bike_id":"58d9878c-86bc-4131-8f14-fdc46575268b","system_id":"levelo_inurba_marseille","lat":43.27501,"lon":5.42462,"is_reserved":false,"is_disabled":false,"rental_uris":{"android":"levelo://app?vid=58d9878c-86bc-4131-8f14-fdc46575268b","ios":"levelo://app?vid=58d9878c-86bc-4131-8f14-fdc46575268b"},"vehicle_type_id":"4","last_reported":1746119335,"current_range_meters":16800,"station_id":"ce4bhn92rcd13ifvqgrg","pricing_plan_id":"cebpf4jnsgd1na2vs0mg"},{"bike_id":"d3534cd5-a64e-46c6-87d8-9849db256567","system_id":"levelo_inurba_marseille","lat":43.28414,"lon":5.375108,"is_reserved":false,"is_disabled":true,"rental_uris":{"android":"levelo://app?vid=d3534cd5-a64e-46c6-87d8-9849db256567","ios":"levelo://app?vid=d3534cd5-a64e-46c6-87d8-9849db256567"},"vehicle_type_id":"4","last_reported":1746119335,"current_range_meters":16800,"station_id":"ce4bh412rcd13ifvqds0","pricing_plan_id":"cebpf4jnsgd1na2vs0mg"},{"bike_id":"c5b1c617-dedc-48b8-ab6f-cab7923a8be0","system_id":"levelo_inurba_marseille","lat":43.29572,"lon":5.37523,"is_reserved":false,"is_disabled":false,"rental_uris":{"android":"levelo://app?vid=c5b1c617-dedc-48b8-ab6f-cab7923a8be0","ios":"levelo://app?vid=c5b1c617-dedc-48b8-ab6f-cab7923a8be0"},"vehicle_type_id":"4","last_reported":1746119335,"current_range_meters":17200,"station_id":"ce4bgh92rcd13ifvqb50","pricing_plan_id":"cebpf4jnsgd1na2vs0mg"},{"bike_id":"1f6acc9f-0bba-4756-8644-96e3924ad543","system_id":"levelo_inurba_marseille","lat":43.26808,"lon":5.40268,"is_reserved":false,"is_disabled":false,"rental_uris":{"android":"levelo://app?vid=1f6acc9f-0bba-4756-8644-96e3924ad543","ios":"levelo://app?vid=1f6acc9f-0bba-4756-8644-96e3924ad543"},"vehicle_type_id":"4","last_reported":1746119335,"current_range_meters":17200,"station_id":"ce501612rcd8frsf0b60","pricing_plan_id":"cebpf4jnsgd1na2vs0mg"},{"bike_id":"8a98d962-578d-444b-a5bb-91a62b69d98d","system_id":"levelo_inurba_marseille","lat":43.21178,"lon":5.3512,"is_reserved":false,"is_disabled":true,"rental_uris":{"android":"levelo://app?vid=8a98d962-578d-444b-a5bb-91a62b69d98d","ios":"levelo://app?vid=8a98d962-578d-444b-a5bb-91a62b69d98d"},"vehicle_type_id":"4","last_reported":1746119335,"current_range_meters":17200,"station_id":"st_cvj6sg6p6f1abm77japg","pricing_plan_id":"cebpf4jnsgd1na2vs0mg"},{"bike_id":"b054f330-ad74-4af3-ad61-7c692f294101","system_id":"levelo_inurba_marseille","lat":43.29263,"lon":5.40909,"is_reserved":false,"is_disabled":false,"rental_uris":{"android":"levelo://app?vid=b054f330-ad74-4af3-ad61-7c692f294101","ios":"levelo://app?vid=b054f330-ad74-4af3-ad61-7c692f294101"},"vehicle_type_id":"4","last_reported":1746119335,"current_range_meters":17600,"station_id":"ce4bh192rcd13ifvqdc0","pricing_plan_id":"cebpf4jnsgd1na2vs0mg"},{"bike_id":"da178549-fec5-41e6-a279-aab50a87d02c","system_id":"levelo_inurba_marseille","lat":43.30607,"lon":5.37237,"is_reserved":false,"is_disabled":true,"rental_uris":{"android":"levelo://app?vid=da178549-fec5-41e6-a279-aab50a87d02c","ios":"levelo://app?vid=da178549-fec5-41e6-a279-aab50a87d02c"},"vehicle_type_id":"4","last_reported":1746119335,"current_range_meters":18000,"station_id":"ce4bgqh2rcd13ifvqc4g","pricing_plan_id":"cebpf4jnsgd1na2vs0mg"},{"bike_id":"19b10b12-85ca-45d8-bd41-41276e0f7994","system_id":"levelo_inurba_marseille","lat":43.306034,"lon":5.393442,"is_reserved":false,"is_disabled":false,"rental_uris":{"android":"levelo://app?vid=19b10b12-85ca-45d8-bd41-41276e0f7994","ios":"levelo://app?vid=19b10b12-85ca-45d8-bd41-41276e0f7994"},"vehicle_type_id":"4","last_reported":1746119335,"current_range_meters":18000,"station_id":"ce4bgih2rcd13ifvqba0","pricing_plan_id":"cebpf4jnsgd1na2vs0mg"},{"bike_id":"fea90467-7b9b-451d-849d-003674ab8347","system_id":"levelo_inurba_marseille","lat":43.27216,"lon":5.39207,"is_reserved":false,"is_disabled":true,"rental_uris":{"android":"levelo://app?vid=fea90467-7b9b-451d-849d-003674ab8347","ios":"levelo://app?vid=fea90467-7b9b-451d-849d-003674ab8347"},"vehicle_type_id":"4","last_reported":1746119335,"current_range_meters":18800,"station_id":"ce4bhhp2rcd13ifvqfm0","pricing_plan_id":"cebpf4jnsgd1na2vs0mg"},{"bike_id":"96a0f12d-e005-45fa-8ebb-c1ba1c7fae4f","system_id":"levelo_inurba_marseille","lat":43.29266,"lon":5.384958,"is_reserved":false,"is_disabled":false,"rental_uris":{"android":"levelo://app?vid=96a0f12d-e005-45fa-8ebb-c1ba1c7fae4f","ios":"levelo://app?vid=96a0f12d-e005-45fa-8ebb-c1ba1c7fae4f"},"vehicle_type_id":"4","last_reported":1746119335,"current_range_meters":18800,"station_id":"ce4bh692rcd13ifvqea0","pricing_plan_id":"cebpf4jnsgd1na2vs0mg"},{"bike_id":"0e23bce1-3e20-44ff-83fa-8b4efd5bb44a","system_id":"levelo_inurba_marseille","lat":43.31176,"lon":5.38723,"is_reserved":false,"is_disabled":false,"rental_uris":{"android":"levelo://app?vid=0e23bce1-3e20-44ff-83fa-8b4efd5bb44a","ios":"levelo://app?vid=0e23bce1-3e20-44ff-83fa-8b4efd5bb44a"},"vehicle_type_id":"4","last_reported":1746119335,"current_range_meters":18000,"station_id":"ce4bgv12rcd13ifvqcp0","pricing_plan_id":"cebpf4jnsgd1na2vs0mg"},{"bike_id":"f649bbcf-f1ec-41ae-9810-4157e3752ba7","system_id":"levelo_inurba_marseille","lat":43.29614,"lon":5.3769,"is_reserved":false,"is_disabled":false,"rental_uris":{"android":"levelo://app?vid=f649bbcf-f1ec-41ae-9810-4157e3752ba7","ios":"levelo://app?vid=f649bbcf-f1ec-41ae-9810-4157e3752ba7"},"vehicle_type_id":"4","last_reported":1746119335,"current_range_meters":19600,"station_id":"","pricing_plan_id":"cebpf4jnsgd1na2vs0mg"},{"bike_id":"c2caa7e2-3c99-4a78-83f3-ce07b86991cf","system_id":"levelo_inurba_marseille","lat":43.3029,"lon":5.37706,"is_reserved":false,"is_disabled":false,"rental_uris":{"android":"levelo://app?vid=c2caa7e2-3c99-4a78-83f3-ce07b86991cf","ios":"levelo://app?vid=c2caa7e2-3c99-4a78-83f3-ce07b86991cf"},"vehicle_type_id":"4","last_reported":1746119335,"current_range_meters":19200,"station_id":"ce4bguh2rcd13ifvqcj0","pricing_plan_id":"cebpf4jnsgd1na2vs0mg"},{"bike_id":"63607cc2-0538-4419-8e7f-baddce80a57b","system_id":"levelo_inurba_marseille","lat":43.29271,"lon":5.36846,"is_reserved":false,"is_disabled":false,"rental_uris":{"android":"levelo://app?vid=63607cc2-0538-4419-8e7f-baddce80a57b","ios":"levelo://app?vid=63607cc2-0538-4419-8e7f-baddce80a57b"},"vehicle_type_id":"4","last_reported":1746119335,"current_range_meters":19600,"station_id":"ce4bhbp2rcd13ifvqesg","pricing_plan_id":"cebpf4jnsgd1na2vs0mg"},{"bike_id":"b1988240-cf0c-4b94-acac-f30babe32d7d","system_id":"levelo_inurba_marseille","lat":43.304206,"lon":5.412825,"is_reserved":false,"is_disabled":true,"rental_uris":{"android":"levelo://app?vid=b1988240-cf0c-4b94-acac-f30babe32d7d","ios":"levelo://app?vid=b1988240-cf0c-4b94-acac-f30babe32d7d"},"vehicle_type_id":"4","last_reported":1746119335,"current_range_meters":19600,"station_id":"ce4bhop2rcd13ifvqh8g","pricing_plan_id":"cebpf4jnsgd1na2vs0mg"},{"bike_id":"b766edf4-fab4-4e4b-b7f3-1c3a32610073","system_id":"levelo_inurba_marseille","lat":43.29259,"lon":5.40902,"is_reserved":false,"is_disabled":false,"rental_uris":{"android":"levelo://app?vid=b766edf4-fab4-4e4b-b7f3-1c3a32610073","ios":"levelo://app?vid=b766edf4-fab4-4e4b-b7f3-1c3a32610073"},"vehicle_type_id":"4","last_reported":1746119335,"current_range_meters":19600,"station_id":"ce4bh192rcd13ifvqdc0","pricing_plan_id":"cebpf4jnsgd1na2vs0mg"},{"bike_id":"04e7a664-c88a-492c-b460-85ddaa91b6c4","system_id":"levelo_inurba_marseille","lat":43.29264,"lon":5.38429,"is_reserved":false,"is_disabled":false,"rental_uris":{"android":"levelo://app?vid=04e7a664-c88a-492c-b460-85ddaa91b6c4","ios":"levelo://app?vid=04e7a664-c88a-492c-b460-85ddaa91b6c4"},"vehicle_type_id":"4","last_reported":1746119335,"current_range_meters":20000,"station_id":"ce4bh692rcd13ifvqea0","pricing_plan_id":"cebpf4jnsgd1na2vs0mg"},{"bike_id":"08fd2d57-c23d-4654-8bd3-15091ca0bfee","system_id":"levelo_inurba_marseille","lat":43.31076,"lon":5.38357,"is_reserved":false,"is_disabled":false,"rental_uris":{"android":"levelo://app?vid=08fd2d57-c23d-4654-8bd3-15091ca0bfee","ios":"levelo://app?vid=08fd2d57-c23d-4654-8bd3-15091ca0bfee"},"vehicle_type_id":"4","last_reported":1746119335,"current_range_meters":20000,"station_id":"ce4bgv92rcd13ifvqcr0","pricing_plan_id":"cebpf4jnsgd1na2vs0mg"},{"bike_id":"68d8546e-8a6f-4c1b-b930-61bd7f34706d","system_id":"levelo_inurba_marseille","lat":43.23962,"lon":5.36639,"is_reserved":false,"is_disabled":false,"rental_uris":{"android":"levelo://app?vid=68d8546e-8a6f-4c1b-b930-61bd7f34706d","ios":"levelo://app?vid=68d8546e-8a6f-4c1b-b930-61bd7f34706d"},"vehicle_type_id":"4","last_reported":1746119335,"current_range_meters":20400,"station_id":"ce4bhi12rcd13ifvqfp0","pricing_plan_id":"cebpf4jnsgd1na2vs0mg"},{"bike_id":"69bbf392-e35e-4fb1-b516-c1cb42ba81ad","system_id":"levelo_inurba_marseille","lat":43.29031,"lon":5.3814,"is_reserved":false,"is_disabled":false,"rental_uris":{"android":"levelo://app?vid=69bbf392-e35e-4fb1-b516-c1cb42ba81ad","ios":"levelo://app?vid=69bbf392-e35e-4fb1-b516-c1cb42ba81ad"},"vehicle_type_id":"4","last_reported":1746119335,"current_range_meters":20400,"station_id":"ce4bh4p2rcd13ifvqe1g","pricing_plan_id":"cebpf4jnsgd1na2vs0mg"},{"bike_id":"ad72adac-0e09-4203-b7b0-bcbebec46e7f","system_id":"levelo_inurba_marseille","lat":43.3031,"lon":5.36893,"is_reserved":false,"is_disabled":false,"rental_uris":{"android":"levelo://app?vid=ad72adac-0e09-4203-b7b0-bcbebec46e7f","ios":"levelo://app?vid=ad72adac-0e09-4203-b7b0-bcbebec46e7f"},"vehicle_type_id":"4","last_reported":1746119335,"current_range_meters":20800,"station_id":"ce4bgqh2rcd13ifvqc5g","pricing_plan_id":"cebpf4jnsgd1na2vs0mg"},{"bike_id":"05c9ddd0-adc0-4438-af27-8eafd13f970c","system_id":"levelo_inurba_marseille","lat":43.27976,"lon":5.38755,"is_reserved":false,"is_disabled":false,"rental_uris":{"android":"levelo://app?vid=05c9ddd0-adc0-4438-af27-8eafd13f970c","ios":"levelo://app?vid=05c9ddd0-adc0-4438-af27-8eafd13f970c"},"vehicle_type_id":"4","last_reported":1746119335,"current_range_meters":20800,"station_id":"ce4bhg12rcd13ifvqf80","pricing_plan_id":"cebpf4jnsgd1na2vs0mg"},{"bike_id":"178e9476-9d22-4d43-8e42-3a2aaddd14c6","system_id":"levelo_inurba_marseille","lat":43.28355,"lon":5.38101,"is_reserved":false,"is_disabled":false,"rental_uris":{"android":"levelo://app?vid=178e9476-9d22-4d43-8e42-3a2aaddd14c6","ios":"levelo://app?vid=178e9476-9d22-4d43-8e42-3a2aaddd14c6"},"vehicle_type_id":"4","last_reported":1746119335,"current_range_meters":21600,"station_id":"ce4bh412rcd13ifvqdr0","pricing_plan_id":"cebpf4jnsgd1na2vs0mg"},{"bike_id":"606e5c46-d69a-4cec-8758-4ed9503e52f6","system_id":"levelo_inurba_marseille","lat":43.31684,"lon":5.40472,"is_reserved":false,"is_disabled":false,"rental_uris":{"android":"levelo://app?vid=606e5c46-d69a-4cec-8758-4ed9503e52f6","ios":"levelo://app?vid=606e5c46-d69a-4cec-8758-4ed9503e52f6"},"vehicle_type_id":"4","last_reported":1746119335,"current_range_meters":20800,"station_id":"ce4bh012rcd13ifvqd00","pricing_plan_id":"cebpf4jnsgd1na2vs0mg"},{"bike_id":"77c7952c-8a9e-4e53-a810-6deeb8653fde","system_id":"levelo_inurba_marseille","lat":43.30931,"lon":5.40149,"is_reserved":false,"is_disabled":false,"rental_uris":{"android":"levelo://app?vid=77c7952c-8a9e-4e53-a810-6deeb8653fde","ios":"levelo://app?vid=77c7952c-8a9e-4e53-a810-6deeb8653fde"},"vehicle_type_id":"4","last_reported":1746119335,"current_range_meters":21600,"station_id":"ce4bgvp2rcd13ifvqct0","pricing_plan_id":"cebpf4jnsgd1na2vs0mg"},{"bike_id":"3895ea6f-f5b9-4e07-adaa-8691e8bafbb8","system_id":"levelo_inurba_marseille","lat":43.24811,"lon":5.37468,"is_reserved":false,"is_disabled":true,"rental_uris":{"android":"levelo://app?vid=3895ea6f-f5b9-4e07-adaa-8691e8bafbb8","ios":"levelo://app?vid=3895ea6f-f5b9-4e07-adaa-8691e8bafbb8"},"vehicle_type_id":"4","last_reported":1746119335,"current_range_meters":22000,"station_id":"ce4bhgh2rcd13ifvqfb0","pricing_plan_id":"cebpf4jnsgd1na2vs0mg"},{"bike_id":"6b89a3d3-e339-4c95-a6b3-48a60903d098","system_id":"levelo_inurba_marseille","lat":43.31726,"lon":5.42393,"is_reserved":false,"is_disabled":false,"rental_uris":{"android":"levelo://app?vid=6b89a3d3-e339-4c95-a6b3-48a60903d098","ios":"levelo://app?vid=6b89a3d3-e339-4c95-a6b3-48a60903d098"},"vehicle_type_id":"4","last_reported":1746119335,"current_range_meters":22400,"station_id":"ce4bhp92rcd13ifvqhbg","pricing_plan_id":"cebpf4jnsgd1na2vs0mg"},{"bike_id":"de21e26b-7bb1-4725-8f81-bd0f74c2453d","system_id":"levelo_inurba_marseille","lat":43.278498,"lon":5.354428,"is_reserved":false,"is_disabled":false,"rental_uris":{"android":"levelo://app?vid=de21e26b-7bb1-4725-8f81-bd0f74c2453d","ios":"levelo://app?vid=de21e26b-7bb1-4725-8f81-bd0f74c2453d"},"vehicle_type_id":"4","last_reported":1746119335,"current_range_meters":22800,"station_id":"","pricing_plan_id":"cebpf4jnsgd1na2vs0mg"},{"bike_id":"6f03a44b-2af2-4032-a22a-802d95f59aff","system_id":"levelo_inurba_marseille","lat":43.282623,"lon":5.350599,"is_reserved":false,"is_disabled":false,"rental_uris":{"android":"levelo://app?vid=6f03a44b-2af2-4032-a22a-802d95f59aff","ios":"levelo://app?vid=6f03a44b-2af2-4032-a22a-802d95f59aff"},"vehicle_type_id":"4","last_reported":1746119335,"current_range_meters":22800,"station_id":"ce4bhbp2rcd13ifvqerg","pricing_plan_id":"cebpf4jnsgd1na2vs0mg"},{"bike_id":"16047a7d-2523-43a3-85ff-c33541e36656","system_id":"levelo_inurba_marseille","lat":43.29281,"lon":5.36844,"is_reserved":false,"is_disabled":false,"rental_uris":{"android":"levelo://app?vid=16047a7d-2523-43a3-85ff-c33541e36656","ios":"levelo://app?vid=16047a7d-2523-43a3-85ff-c33541e36656"},"vehicle_type_id":"4","last_reported":1746119335,"current_range_meters":22800,"station_id":"ce4bhbp2rcd13ifvqesg","pricing_plan_id":"cebpf4jnsgd1na2vs0mg"},{"bike_id":"eaa3a550-4f0d-4a34-b706-bea0943b3604","system_id":"levelo_inurba_marseille","lat":43.31172,"lon":5.38703,"is_reserved":false,"is_disabled":false,"rental_uris":{"android":"levelo://app?vid=eaa3a550-4f0d-4a34-b706-bea0943b3604","ios":"levelo://app?vid=eaa3a550-4f0d-4a34-b706-bea0943b3604"},"vehicle_type_id":"4","last_reported":1746119335,"current_range_meters":22400,"station_id":"ce4bgv12rcd13ifvqcp0","pricing_plan_id":"cebpf4jnsgd1na2vs0mg"},{"bike_id":"8351fa19-aa0e-4318-b95b-f1fb285920d9","system_id":"levelo_inurba_marseille","lat":43.22922,"lon":5.35366,"is_reserved":false,"is_disabled":true,"rental_uris":{"android":"levelo://app?vid=8351fa19-aa0e-4318-b95b-f1fb285920d9","ios":"levelo://app?vid=8351fa19-aa0e-4318-b95b-f1fb285920d9"},"vehicle_type_id":"4","last_reported":1746119335,"current_range_meters":23200,"station_id":"cpo3532slgdg3j2ikp40","pricing_plan_id":"cebpf4jnsgd1na2vs0mg"},{"bike_id":"132f2752-d703-4033-b518-2ddbf812efba","system_id":"levelo_inurba_marseille","lat":43.275319,"lon":5.425085,"is_reserved":false,"is_disabled":false,"rental_uris":{"android":"levelo://app?vid=132f2752-d703-4033-b518-2ddbf812efba","ios":"levelo://app?vid=132f2752-d703-4033-b518-2ddbf812efba"},"vehicle_type_id":"4","last_reported":1746119335,"current_range_meters":23200,"station_id":"","pricing_plan_id":"cebpf4jnsgd1na2vs0mg"},{"bike_id":"98874596-21b0-4edb-a3b0-0c5ceb377081","system_id":"levelo_inurba_marseille","lat":43.29265,"lon":5.38448,"is_reserved":false,"is_disabled":false,"rental_uris":{"android":"levelo://app?vid=98874596-21b0-4edb-a3b0-0c5ceb377081","ios":"levelo://app?vid=98874596-21b0-4edb-a3b0-0c5ceb377081"},"vehicle_type_id":"4","last_reported":1746119335,"current_range_meters":23200,"station_id":"ce4bh692rcd13ifvqea0","pricing_plan_id":"cebpf4jnsgd1na2vs0mg"},{"bike_id":"ce275a13-b30a-4634-b231-60deaeabc0f9","system_id":"levelo_inurba_marseille","lat":43.21687,"lon":5.3453,"is_reserved":false,"is_disabled":false,"rental_uris":{"android":"levelo://app?vid=ce275a13-b30a-4634-b231-60deaeabc0f9","ios":"levelo://app?vid=ce275a13-b30a-4634-b231-60deaeabc0f9"},"vehicle_type_id":"4","last_reported":1746119335,"current_range_meters":24000,"station_id":"","pricing_plan_id":"cebpf4jnsgd1na2vs0mg"},{"bike_id":"f0931227-8686-472e-86c1-79b42063f568","system_id":"levelo_inurba_marseille","lat":43.29536,"lon":5.38554,"is_reserved":false,"is_disabled":false,"rental_uris":{"android":"levelo://app?vid=f0931227-8686-472e-86c1-79b42063f568","ios":"levelo://app?vid=f0931227-8686-472e-86c1-79b42063f568"},"vehicle_type_id":"4","last_reported":1746119335,"current_range_meters":24000,"station_id":"ce4bgih2rcd13ifvqba0","pricing_plan_id":"cebpf4jnsgd1na2vs0mg"},{"bike_id":"213c1eeb-025d-43cb-966c-b69f03d52cfe","system_id":"levelo_inurba_marseille","lat":43.299683,"lon":5.384922,"is_reserved":false,"is_disabled":false,"rental_uris":{"android":"levelo://app?vid=213c1eeb-025d-43cb-966c-b69f03d52cfe","ios":"levelo://app?vid=213c1eeb-025d-43cb-966c-b69f03d52cfe"},"vehicle_type_id":"4","last_reported":1746119335,"current_range_meters":24000,"station_id":"ce4bgj92rcd13ifvqbd0","pricing_plan_id":"cebpf4jnsgd1na2vs0mg"},{"bike_id":"e0ceefc0-61c9-406f-91eb-ef69db9dbe42","system_id":"levelo_inurba_marseille","lat":43.26109,"lon":5.41461,"is_reserved":false,"is_disabled":false,"rental_uris":{"android":"levelo://app?vid=e0ceefc0-61c9-406f-91eb-ef69db9dbe42","ios":"levelo://app?vid=e0ceefc0-61c9-406f-91eb-ef69db9dbe42"},"vehicle_type_id":"4","last_reported":1746119335,"current_range_meters":24800,"station_id":"","pricing_plan_id":"cebpf4jnsgd1na2vs0mg"},{"bike_id":"1fe5086c-c507-4b2f-8e93-9d72f8283ed0","system_id":"levelo_inurba_marseille","lat":43.28675,"lon":5.38664,"is_reserved":false,"is_disabled":false,"rental_uris":{"android":"levelo://app?vid=1fe5086c-c507-4b2f-8e93-9d72f8283ed0","ios":"levelo://app?vid=1fe5086c-c507-4b2f-8e93-9d72f8283ed0"},"vehicle_type_id":"4","last_reported":1746119335,"current_range_meters":24400,"station_id":"ce4bh492rcd13ifvqdug","pricing_plan_id":"cebpf4jnsgd1na2vs0mg"},{"bike_id":"be334e2a-21e7-4673-b45a-ca537621f751","system_id":"levelo_inurba_marseille","lat":43.23959,"lon":5.36647,"is_reserved":false,"is_disabled":false,"rental_uris":{"android":"levelo://app?vid=be334e2a-21e7-4673-b45a-ca537621f751","ios":"levelo://app?vid=be334e2a-21e7-4673-b45a-ca537621f751"},"vehicle_type_id":"4","last_reported":1746119335,"current_range_meters":24800,"station_id":"ce4bhi12rcd13ifvqfp0","pricing_plan_id":"cebpf4jnsgd1na2vs0mg"},{"bike_id":"8d541b9c-8afe-4d13-8407-e0b3c8c5b806","system_id":"levelo_inurba_marseille","lat":43.26218,"lon":5.37456,"is_reserved":false,"is_disabled":true,"rental_uris":{"android":"levelo://app?vid=8d541b9c-8afe-4d13-8407-e0b3c8c5b806","ios":"levelo://app?vid=8d541b9c-8afe-4d13-8407-e0b3c8c5b806"},"vehicle_type_id":"4","last_reported":1746119335,"current_range_meters":24800,"station_id":"ce4bhgp2rcd13ifvqfc0","pricing_plan_id":"cebpf4jnsgd1na2vs0mg"},{"bike_id":"92ed8edd-edf8-4c68-b714-80f2ea7a8346","system_id":"levelo_inurba_marseille","lat":43.31328,"lon":5.39698,"is_reserved":false,"is_disabled":false,"rental_uris":{"android":"levelo://app?vid=92ed8edd-edf8-4c68-b714-80f2ea7a8346","ios":"levelo://app?vid=92ed8edd-edf8-4c68-b714-80f2ea7a8346"},"vehicle_type_id":"4","last_reported":1746119335,"current_range_meters":24800,"station_id":"ce4bgvp2rcd13ifvqcu0","pricing_plan_id":"cebpf4jnsgd1na2vs0mg"},{"bike_id":"3bb245c2-3a7b-46e3-be38-a4fb9be301e7","system_id":"levelo_inurba_marseille","lat":43.322915,"lon":5.38295,"is_reserved":false,"is_disabled":false,"rental_uris":{"android":"levelo://app?vid=3bb245c2-3a7b-46e3-be38-a4fb9be301e7","ios":"levelo://app?vid=3bb245c2-3a7b-46e3-be38-a4fb9be301e7"},"vehicle_type_id":"4","last_reported":1746119335,"current_range_meters":24800,"station_id":"ce4bhr12rcd13ifvqhqg","pricing_plan_id":"cebpf4jnsgd1na2vs0mg"},{"bike_id":"952248a0-0195-4009-a26a-36c7118470a3","system_id":"levelo_inurba_marseille","lat":43.31088,"lon":5.42432,"is_reserved":false,"is_disabled":false,"rental_uris":{"android":"levelo://app?vid=952248a0-0195-4009-a26a-36c7118470a3","ios":"levelo://app?vid=952248a0-0195-4009-a26a-36c7118470a3"},"vehicle_type_id":"4","last_reported":1746119335,"current_range_meters":24000,"station_id":"ce4bhp92rcd13ifvqhag","pricing_plan_id":"cebpf4jnsgd1na2vs0mg"},{"bike_id":"645a9f5d-e56f-45b4-8bc7-78b0acbd0c7e","system_id":"levelo_inurba_marseille","lat":43.25575,"lon":5.3823,"is_reserved":false,"is_disabled":true,"rental_uris":{"android":"levelo://app?vid=645a9f5d-e56f-45b4-8bc7-78b0acbd0c7e","ios":"levelo://app?vid=645a9f5d-e56f-45b4-8bc7-78b0acbd0c7e"},"vehicle_type_id":"4","last_reported":1746119335,"current_range_meters":25200,"station_id":"ce4bhih2rcd13ifvqfs0","pricing_plan_id":"cebpf4jnsgd1na2vs0mg"},{"bike_id":"b810aeed-a9a7-49ee-a835-2ad6b4c62d7c","system_id":"levelo_inurba_marseille","lat":43.24074,"lon":5.3776,"is_reserved":false,"is_disabled":false,"rental_uris":{"android":"levelo://app?vid=b810aeed-a9a7-49ee-a835-2ad6b4c62d7c","ios":"levelo://app?vid=b810aeed-a9a7-49ee-a835-2ad6b4c62d7c"},"vehicle_type_id":"4","last_reported":1746119335,"current_range_meters":25200,"station_id":"ce4bhnp2rcd13ifvqgvg","pricing_plan_id":"cebpf4jnsgd1na2vs0mg"},{"bike_id":"7930e405-b8a8-48f8-9e33-875b09eb00c7","system_id":"levelo_inurba_marseille","lat":43.30908,"lon":5.36845,"is_reserved":false,"is_disabled":false,"rental_uris":{"android":"levelo://app?vid=7930e405-b8a8-48f8-9e33-875b09eb00c7","ios":"levelo://app?vid=7930e405-b8a8-48f8-9e33-875b09eb00c7"},"vehicle_type_id":"4","last_reported":1746119335,"current_range_meters":25200,"station_id":"ce4bgn92rcd13ifvqbvg","pricing_plan_id":"cebpf4jnsgd1na2vs0mg"},{"bike_id":"1ac7dd63-a488-4427-957f-05304517dacd","system_id":"levelo_inurba_marseille","lat":43.29197,"lon":5.36049,"is_reserved":false,"is_disabled":false,"rental_uris":{"android":"levelo://app?vid=1ac7dd63-a488-4427-957f-05304517dacd","ios":"levelo://app?vid=1ac7dd63-a488-4427-957f-05304517dacd"},"vehicle_type_id":"4","last_reported":1746119335,"current_range_meters":25600,"station_id":"ce4bhbh2rcd13ifvqeqg","pricing_plan_id":"cebpf4jnsgd1na2vs0mg"},{"bike_id":"c2dd9cc6-5dee-43c8-87cc-995fd3c6efb1","system_id":"levelo_inurba_marseille","lat":43.24389,"lon":5.37065,"is_reserved":false,"is_disabled":false,"rental_uris":{"android":"levelo://app?vid=c2dd9cc6-5dee-43c8-87cc-995fd3c6efb1","ios":"levelo://app?vid=c2dd9cc6-5dee-43c8-87cc-995fd3c6efb1"},"vehicle_type_id":"4","last_reported":1746119335,"current_range_meters":25600,"station_id":"ce4bhhh2rcd13ifvqfk0","pricing_plan_id":"cebpf4jnsgd1na2vs0mg"},{"bike_id":"e1044fb3-a205-44c3-b8b3-ba7399cdb5f5","system_id":"levelo_inurba_marseille","lat":43.30264,"lon":5.40079,"is_reserved":false,"is_disabled":false,"rental_uris":{"android":"levelo://app?vid=e1044fb3-a205-44c3-b8b3-ba7399cdb5f5","ios":"levelo://app?vid=e1044fb3-a205-44c3-b8b3-ba7399cdb5f5"},"vehicle_type_id":"4","last_reported":1746119335,"current_range_meters":26000,"station_id":"ce4bgvh2rcd13ifvqcs0","pricing_plan_id":"cebpf4jnsgd1na2vs0mg"},{"bike_id":"57a25881-730d-4bb8-808c-3e7534284074","system_id":"levelo_inurba_marseille","lat":43.2944,"lon":5.3862,"is_reserved":false,"is_disabled":true,"rental_uris":{"android":"levelo://app?vid=57a25881-730d-4bb8-808c-3e7534284074","ios":"levelo://app?vid=57a25881-730d-4bb8-808c-3e7534284074"},"vehicle_type_id":"4","last_reported":1746119335,"current_range_meters":26800,"station_id":"ce4bh2h2rcd13ifvqdh0","pricing_plan_id":"cebpf4jnsgd1na2vs0mg"},{"bike_id":"d689d743-d9c5-4d9a-9abb-9efab7499921","system_id":"levelo_inurba_marseille","lat":43.30356,"lon":5.41884,"is_reserved":false,"is_disabled":false,"rental_uris":{"android":"levelo://app?vid=d689d743-d9c5-4d9a-9abb-9efab7499921","ios":"levelo://app?vid=d689d743-d9c5-4d9a-9abb-9efab7499921"},"vehicle_type_id":"4","last_reported":1746119335,"current_range_meters":26800,"station_id":"ce4bhop2rcd13ifvqh7g","pricing_plan_id":"cebpf4jnsgd1na2vs0mg"},{"bike_id":"1d91f7aa-2faf-4049-ae3a-5b3410bffce2","system_id":"levelo_inurba_marseille","lat":43.31217,"lon":5.36854,"is_reserved":false,"is_disabled":false,"rental_uris":{"android":"levelo://app?vid=1d91f7aa-2faf-4049-ae3a-5b3410bffce2","ios":"levelo://app?vid=1d91f7aa-2faf-4049-ae3a-5b3410bffce2"},"vehicle_type_id":"4","last_reported":1746119335,"current_range_meters":26800,"station_id":"ce4bgl92rcd13ifvqbq0","pricing_plan_id":"cebpf4jnsgd1na2vs0mg"},{"bike_id":"52541b57-32d0-4ceb-afac-766e8fb835ea","system_id":"levelo_inurba_marseille","lat":43.26019,"lon":5.37549,"is_reserved":false,"is_disabled":true,"rental_uris":{"android":"levelo://app?vid=52541b57-32d0-4ceb-afac-766e8fb835ea","ios":"levelo://app?vid=52541b57-32d0-4ceb-afac-766e8fb835ea"},"vehicle_type_id":"4","last_reported":1746119335,"current_range_meters":26800,"station_id":"ce4bhgh2rcd13ifvqfa0","pricing_plan_id":"cebpf4jnsgd1na2vs0mg"},{"bike_id":"4e53744c-205d-4785-89c5-d476961b944d","system_id":"levelo_inurba_marseille","lat":43.292825,"lon":5.384603,"is_reserved":false,"is_disabled":false,"rental_uris":{"android":"levelo://app?vid=4e53744c-205d-4785-89c5-d476961b944d","ios":"levelo://app?vid=4e53744c-205d-4785-89c5-d476961b944d"},"vehicle_type_id":"4","last_reported":1746119335,"current_range_meters":26800,"station_id":"ce4bh0h2rcd13ifvqd60","pricing_plan_id":"cebpf4jnsgd1na2vs0mg"},{"bike_id":"463e6e3f-8b93-47ee-a5a2-59762f30be79","system_id":"levelo_inurba_marseille","lat":43.284595,"lon":5.358874,"is_reserved":false,"is_disabled":false,"rental_uris":{"android":"levelo://app?vid=463e6e3f-8b93-47ee-a5a2-59762f30be79","ios":"levelo://app?vid=463e6e3f-8b93-47ee-a5a2-59762f30be79"},"vehicle_type_id":"4","last_reported":1746119335,"current_range_meters":27200,"station_id":"ce4bhah2rcd13ifvqei0","pricing_plan_id":"cebpf4jnsgd1na2vs0mg"},{"bike_id":"09af9eaf-47bf-4cd6-a60a-256c712dbd79","system_id":"levelo_inurba_marseille","lat":43.32672,"lon":5.41002,"is_reserved":false,"is_disabled":false,"rental_uris":{"android":"levelo://app?vid=09af9eaf-47bf-4cd6-a60a-256c712dbd79","ios":"levelo://app?vid=09af9eaf-47bf-4cd6-a60a-256c712dbd79"},"vehicle_type_id":"4","last_reported":1746119335,"current_range_meters":26000,"station_id":"ce4bhpp2rcd13ifvqhgg","pricing_plan_id":"cebpf4jnsgd1na2vs0mg"},{"bike_id":"5a10fb85-861e-43f2-bad6-5c4cdcb66a91","system_id":"levelo_inurba_marseille","lat":43.323276,"lon":5.38915,"is_reserved":false,"is_disabled":false,"rental_uris":{"android":"levelo://app?vid=5a10fb85-861e-43f2-bad6-5c4cdcb66a91","ios":"levelo://app?vid=5a10fb85-861e-43f2-bad6-5c4cdcb66a91"},"vehicle_type_id":"4","last_reported":1746119335,"current_range_meters":27600,"station_id":"ce4bhqp2rcd13ifvqhog","pricing_plan_id":"cebpf4jnsgd1na2vs0mg"},{"bike_id":"a768d723-6012-48af-ae78-e97c12315747","system_id":"levelo_inurba_marseille","lat":43.28858,"lon":5.3585,"is_reserved":false,"is_disabled":true,"rental_uris":{"android":"levelo://app?vid=a768d723-6012-48af-ae78-e97c12315747","ios":"levelo://app?vid=a768d723-6012-48af-ae78-e97c12315747"},"vehicle_type_id":"4","last_reported":1746119335,"current_range_meters":27600,"station_id":"ce4bhb12rcd13ifvqem0","pricing_plan_id":"cebpf4jnsgd1na2vs0mg"},{"bike_id":"0fe78011-0a07-4c4b-a7d2-4f09b19186c0","system_id":"levelo_inurba_marseille","lat":43.29417,"lon":5.38625,"is_reserved":false,"is_disabled":false,"rental_uris":{"android":"levelo://app?vid=0fe78011-0a07-4c4b-a7d2-4f09b19186c0","ios":"levelo://app?vid=0fe78011-0a07-4c4b-a7d2-4f09b19186c0"},"vehicle_type_id":"4","last_reported":1746119335,"current_range_meters":28000,"station_id":"ce4bh2h2rcd13ifvqdh0","pricing_plan_id":"cebpf4jnsgd1na2vs0mg"},{"bike_id":"8d99e7a9-8acb-4060-a722-24db9a6c353f","system_id":"levelo_inurba_marseille","lat":43.30138,"lon":5.38783,"is_reserved":false,"is_disabled":false,"rental_uris":{"android":"levelo://app?vid=8d99e7a9-8acb-4060-a722-24db9a6c353f","ios":"levelo://app?vid=8d99e7a9-8acb-4060-a722-24db9a6c353f"},"vehicle_type_id":"4","last_reported":1746119335,"current_range_meters":27600,"station_id":"ce4bghh2rcd13ifvqb60","pricing_plan_id":"cebpf4jnsgd1na2vs0mg"},{"bike_id":"bc319108-0bac-4178-9d08-caf2a9c29637","system_id":"levelo_inurba_marseille","lat":43.29764,"lon":5.40964,"is_reserved":false,"is_disabled":false,"rental_uris":{"android":"levelo://app?vid=bc319108-0bac-4178-9d08-caf2a9c29637","ios":"levelo://app?vid=bc319108-0bac-4178-9d08-caf2a9c29637"},"vehicle_type_id":"4","last_reported":1746119335,"current_range_meters":28800,"station_id":"","pricing_plan_id":"cebpf4jnsgd1na2vs0mg"},{"bike_id":"b1836c03-566f-4399-ac0d-9aa0fb93d717","system_id":"levelo_inurba_marseille","lat":43.29941,"lon":5.36537,"is_reserved":false,"is_disabled":true,"rental_uris":{"android":"levelo://app?vid=b1836c03-566f-4399-ac0d-9aa0fb93d717","ios":"levelo://app?vid=b1836c03-566f-4399-ac0d-9aa0fb93d717"},"vehicle_type_id":"4","last_reported":1746119335,"current_range_meters":29600,"station_id":"ce4bgm92rcd13ifvqbr0","pricing_plan_id":"cebpf4jnsgd1na2vs0mg"},{"bike_id":"3318d4e4-4820-44a4-8d25-110831bbafa5","system_id":"levelo_inurba_marseille","lat":43.32135,"lon":5.37452,"is_reserved":false,"is_disabled":false,"rental_uris":{"android":"levelo://app?vid=3318d4e4-4820-44a4-8d25-110831bbafa5","ios":"levelo://app?vid=3318d4e4-4820-44a4-8d25-110831bbafa5"},"vehicle_type_id":"4","last_reported":1746119335,"current_range_meters":30000,"station_id":"","pricing_plan_id":"cebpf4jnsgd1na2vs0mg"},{"bike_id":"49d319dd-ca74-4c03-b443-b6d5ccc5a418","system_id":"levelo_inurba_marseille","lat":43.29709,"lon":5.36604,"is_reserved":false,"is_disabled":false,"rental_uris":{"android":"levelo://app?vid=49d319dd-ca74-4c03-b443-b6d5ccc5a418","ios":"levelo://app?vid=49d319dd-ca74-4c03-b443-b6d5ccc5a418"},"vehicle_type_id":"4","last_reported":1746119335,"current_range_meters":30000,"station_id":"ce4bgn12rcd13ifvqbt0","pricing_plan_id":"cebpf4jnsgd1na2vs0mg"},{"bike_id":"e0a19602-4ecb-4fb3-aae4-c1890c8a8cb7","system_id":"levelo_inurba_marseille","lat":43.30145,"lon":5.38076,"is_reserved":false,"is_disabled":false,"rental_uris":{"android":"levelo://app?vid=e0a19602-4ecb-4fb3-aae4-c1890c8a8cb7","ios":"levelo://app?vid=e0a19602-4ecb-4fb3-aae4-c1890c8a8cb7"},"vehicle_type_id":"4","last_reported":1746119335,"current_range_meters":29600,"station_id":"ce4bgjp2rcd13ifvqbh0","pricing_plan_id":"cebpf4jnsgd1na2vs0mg"},{"bike_id":"6b5977d3-bf6f-4872-b3a5-db8c855a8d87","system_id":"levelo_inurba_marseille","lat":43.29414,"lon":5.38619,"is_reserved":false,"is_disabled":false,"rental_uris":{"android":"levelo://app?vid=6b5977d3-bf6f-4872-b3a5-db8c855a8d87","ios":"levelo://app?vid=6b5977d3-bf6f-4872-b3a5-db8c855a8d87"},"vehicle_type_id":"4","last_reported":1746119335,"current_range_meters":30000,"station_id":"ce4bh2h2rcd13ifvqdh0","pricing_plan_id":"cebpf4jnsgd1na2vs0mg"},{"bike_id":"2fe3923e-337c-4cb8-8bf3-a3e347193292","system_id":"levelo_inurba_marseille","lat":43.29257,"lon":5.401,"is_reserved":false,"is_disabled":true,"rental_uris":{"android":"levelo://app?vid=2fe3923e-337c-4cb8-8bf3-a3e347193292","ios":"levelo://app?vid=2fe3923e-337c-4cb8-8bf3-a3e347193292"},"vehicle_type_id":"4","last_reported":1746119335,"current_range_meters":30800,"station_id":"ce4bh312rcd13ifvqdk0","pricing_plan_id":"cebpf4jnsgd1na2vs0mg"},{"bike_id":"fa217b52-754a-4bce-a51b-c4d893cdc24c","system_id":"levelo_inurba_marseille","lat":43.28467,"lon":5.35896,"is_reserved":false,"is_disabled":false,"rental_uris":{"android":"levelo://app?vid=fa217b52-754a-4bce-a51b-c4d893cdc24c","ios":"levelo://app?vid=fa217b52-754a-4bce-a51b-c4d893cdc24c"},"vehicle_type_id":"4","last_reported":1746119335,"current_range_meters":30800,"station_id":"ce4bhah2rcd13ifvqei0","pricing_plan_id":"cebpf4jnsgd1na2vs0mg"},{"bike_id":"63e597b6-be60-471b-9ae3-53ce2eb6f800","system_id":"levelo_inurba_marseille","lat":43.324772,"lon":5.389638,"is_reserved":false,"is_disabled":false,"rental_uris":{"android":"levelo://app?vid=63e597b6-be60-471b-9ae3-53ce2eb6f800","ios":"levelo://app?vid=63e597b6-be60-471b-9ae3-53ce2eb6f800"},"vehicle_type_id":"4","last_reported":1746119335,"current_range_meters":31200,"station_id":"","pricing_plan_id":"cebpf4jnsgd1na2vs0mg"},{"bike_id":"f7d352fe-10dc-4bab-82dc-28f7a8a6796b","system_id":"levelo_inurba_marseille","lat":43.28985,"lon":5.37836,"is_reserved":false,"is_disabled":false,"rental_uris":{"android":"levelo://app?vid=f7d352fe-10dc-4bab-82dc-28f7a8a6796b","ios":"levelo://app?vid=f7d352fe-10dc-4bab-82dc-28f7a8a6796b"},"vehicle_type_id":"4","last_reported":1746119335,"current_range_meters":31200,"station_id":"ce4bh9p2rcd13ifvqed0","pricing_plan_id":"cebpf4jnsgd1na2vs0mg"},{"bike_id":"616368a2-4d1e-4ab6-b8a2-271d26695da3","system_id":"levelo_inurba_marseille","lat":43.30268,"lon":5.40069,"is_reserved":false,"is_disabled":false,"rental_uris":{"android":"levelo://app?vid=616368a2-4d1e-4ab6-b8a2-271d26695da3","ios":"levelo://app?vid=616368a2-4d1e-4ab6-b8a2-271d26695da3"},"vehicle_type_id":"4","last_reported":1746119335,"current_range_meters":32000,"station_id":"ce4bgvh2rcd13ifvqcs0","pricing_plan_id":"cebpf4jnsgd1na2vs0mg"},{"bike_id":"efda0881-ecba-48e2-90b7-e1b18983db05","system_id":"levelo_inurba_marseille","lat":43.28487,"lon":5.38415,"is_reserved":false,"is_disabled":false,"rental_uris":{"android":"levelo://app?vid=efda0881-ecba-48e2-90b7-e1b18983db05","ios":"levelo://app?vid=efda0881-ecba-48e2-90b7-e1b18983db05"},"vehicle_type_id":"4","last_reported":1746119335,"current_range_meters":33200,"station_id":"ce4bh512rcd13ifvqe3g","pricing_plan_id":"cebpf4jnsgd1na2vs0mg"},{"bike_id":"805d5540-d93f-4652-a30f-7d8d055f6052","system_id":"levelo_inurba_marseille","lat":43.28103,"lon":5.3785,"is_reserved":false,"is_disabled":false,"rental_uris":{"android":"levelo://app?vid=805d5540-d93f-4652-a30f-7d8d055f6052","ios":"levelo://app?vid=805d5540-d93f-4652-a30f-7d8d055f6052"},"vehicle_type_id":"4","last_reported":1746119335,"current_range_meters":33600,"station_id":"ce4bha12rcd13ifvqee0","pricing_plan_id":"cebpf4jnsgd1na2vs0mg"},{"bike_id":"e0d8e409-18cc-4bc6-9c63-902a9b3ad417","system_id":"levelo_inurba_marseille","lat":43.27347,"lon":5.39091,"is_reserved":false,"is_disabled":false,"rental_uris":{"android":"levelo://app?vid=e0d8e409-18cc-4bc6-9c63-902a9b3ad417","ios":"levelo://app?vid=e0d8e409-18cc-4bc6-9c63-902a9b3ad417"},"vehicle_type_id":"4","last_reported":1746119335,"current_range_meters":33600,"station_id":"ce4bhgp2rcd13ifvqfe0","pricing_plan_id":"cebpf4jnsgd1na2vs0mg"},{"bike_id":"ec438746-1629-4a18-8f23-1ee1b2e66461","system_id":"levelo_inurba_marseille","lat":43.29894,"lon":5.38903,"is_reserved":false,"is_disabled":false,"rental_uris":{"android":"levelo://app?vid=ec438746-1629-4a18-8f23-1ee1b2e66461","ios":"levelo://app?vid=ec438746-1629-4a18-8f23-1ee1b2e66461"},"vehicle_type_id":"4","last_reported":1746119335,"current_range_meters":34000,"station_id":"ce4bh392rcd13ifvqdl0","pricing_plan_id":"cebpf4jnsgd1na2vs0mg"},{"bike_id":"5526040b-4681-43b8-bde2-d01d7ae1287a","system_id":"levelo_inurba_marseille","lat":43.295762,"lon":5.375338,"is_reserved":false,"is_disabled":false,"rental_uris":{"android":"levelo://app?vid=5526040b-4681-43b8-bde2-d01d7ae1287a","ios":"levelo://app?vid=5526040b-4681-43b8-bde2-d01d7ae1287a"},"vehicle_type_id":"4","last_reported":1746119335,"current_range_meters":34800,"station_id":"","pricing_plan_id":"cebpf4jnsgd1na2vs0mg"},{"bike_id":"37464cc8-a22e-4600-b2b9-3547164c3511","system_id":"levelo_inurba_marseille","lat":43.295094,"lon":5.387044,"is_reserved":false,"is_disabled":false,"rental_uris":{"android":"levelo://app?vid=37464cc8-a22e-4600-b2b9-3547164c3511","ios":"levelo://app?vid=37464cc8-a22e-4600-b2b9-3547164c3511"},"vehicle_type_id":"4","last_reported":1746119335,"current_range_meters":35200,"station_id":"ce4bh292rcd13ifvqdf0","pricing_plan_id":"cebpf4jnsgd1na2vs0mg"},{"bike_id":"fe1ab8af-d5f2-4335-b1b7-57e62739630d","system_id":"levelo_inurba_marseille","lat":43.29572,"lon":5.37529,"is_reserved":false,"is_disabled":false,"rental_uris":{"android":"levelo://app?vid=fe1ab8af-d5f2-4335-b1b7-57e62739630d","ios":"levelo://app?vid=fe1ab8af-d5f2-4335-b1b7-57e62739630d"},"vehicle_type_id":"4","last_reported":1746119335,"current_range_meters":35200,"station_id":"ce4bgh92rcd13ifvqb50","pricing_plan_id":"cebpf4jnsgd1na2vs0mg"},{"bike_id":"1b6b73e0-f0c6-413e-ab4c-b2c394cb88d9","system_id":"levelo_inurba_marseille","lat":43.29499,"lon":5.39399,"is_reserved":false,"is_disabled":true,"rental_uris":{"android":"levelo://app?vid=1b6b73e0-f0c6-413e-ab4c-b2c394cb88d9","ios":"levelo://app?vid=1b6b73e0-f0c6-413e-ab4c-b2c394cb88d9"},"vehicle_type_id":"4","last_reported":1746119335,"current_range_meters":35200,"station_id":"ce4bh292rcd13ifvqdf0","pricing_plan_id":"cebpf4jnsgd1na2vs0mg"},{"bike_id":"a81bab0d-9e9d-4e00-9d74-ec607a1e2731","system_id":"levelo_inurba_marseille","lat":43.31759,"lon":5.39002,"is_reserved":false,"is_disabled":true,"rental_uris":{"android":"levelo://app?vid=a81bab0d-9e9d-4e00-9d74-ec607a1e2731","ios":"levelo://app?vid=a81bab0d-9e9d-4e00-9d74-ec607a1e2731"},"vehicle_type_id":"4","last_reported":1746119335,"current_range_meters":35600,"station_id":"ce4bhqp2rcd13ifvqhng","pricing_plan_id":"cebpf4jnsgd1na2vs0mg"},{"bike_id":"c6607991-aa27-4b99-b44b-09a92d43a540","system_id":"levelo_inurba_marseille","lat":43.29876,"lon":5.3893,"is_reserved":false,"is_disabled":false,"rental_uris":{"android":"levelo://app?vid=c6607991-aa27-4b99-b44b-09a92d43a540","ios":"levelo://app?vid=c6607991-aa27-4b99-b44b-09a92d43a540"},"vehicle_type_id":"4","last_reported":1746119335,"current_range_meters":36400,"station_id":"ce4bh392rcd13ifvqdl0","pricing_plan_id":"cebpf4jnsgd1na2vs0mg"},{"bike_id":"65663caf-dc99-4404-b1f1-465f18bff6db","system_id":"levelo_inurba_marseille","lat":43.26577,"lon":5.39045,"is_reserved":false,"is_disabled":true,"rental_uris":{"android":"levelo://app?vid=65663caf-dc99-4404-b1f1-465f18bff6db","ios":"levelo://app?vid=65663caf-dc99-4404-b1f1-465f18bff6db"},"vehicle_type_id":"4","last_reported":1746119335,"current_range_meters":36400,"station_id":"ce4bhe12rcd13ifvqf30","pricing_plan_id":"cebpf4jnsgd1na2vs0mg"},{"bike_id":"de2107d5-5170-421d-a416-c533f7569ea5","system_id":"levelo_inurba_marseille","lat":43.24103,"lon":5.3777,"is_reserved":false,"is_disabled":false,"rental_uris":{"android":"levelo://app?vid=de2107d5-5170-421d-a416-c533f7569ea5","ios":"levelo://app?vid=de2107d5-5170-421d-a416-c533f7569ea5"},"vehicle_type_id":"4","last_reported":1746119335,"current_range_meters":36000,"station_id":"ce4bhnp2rcd13ifvqgvg","pricing_plan_id":"cebpf4jnsgd1na2vs0mg"},{"bike_id":"231bc726-4a6b-48f0-bf52-f807be4dbd99","system_id":"levelo_inurba_marseille","lat":43.2926,"lon":5.40895,"is_reserved":false,"is_disabled":false,"rental_uris":{"android":"levelo://app?vid=231bc726-4a6b-48f0-bf52-f807be4dbd99","ios":"levelo://app?vid=231bc726-4a6b-48f0-bf52-f807be4dbd99"},"vehicle_type_id":"4","last_reported":1746119335,"current_range_meters":36400,"station_id":"ce4bh192rcd13ifvqdc0","pricing_plan_id":"cebpf4jnsgd1na2vs0mg"},{"bike_id":"062f5646-c0e4-4df7-bc12-df0acee61628","system_id":"levelo_inurba_marseille","lat":43.22507,"lon":5.34777,"is_reserved":false,"is_disabled":true,"rental_uris":{"android":"levelo://app?vid=062f5646-c0e4-4df7-bc12-df0acee61628","ios":"levelo://app?vid=062f5646-c0e4-4df7-bc12-df0acee61628"},"vehicle_type_id":"4","last_reported":1746119335,"current_range_meters":36800,"station_id":"st_cvj5dfep6f1abm77gieg","pricing_plan_id":"cebpf4jnsgd1na2vs0mg"},{"bike_id":"f40b5944-06b5-430e-b646-25a4c059a374","system_id":"levelo_inurba_marseille","lat":43.2957,"lon":5.37546,"is_reserved":false,"is_disabled":false,"rental_uris":{"android":"levelo://app?vid=f40b5944-06b5-430e-b646-25a4c059a374","ios":"levelo://app?vid=f40b5944-06b5-430e-b646-25a4c059a374"},"vehicle_type_id":"4","last_reported":1746119335,"current_range_meters":36800,"station_id":"ce4bgh92rcd13ifvqb50","pricing_plan_id":"cebpf4jnsgd1na2vs0mg"},{"bike_id":"52b12c4d-9137-4d65-b433-5e99d6a79497","system_id":"levelo_inurba_marseille","lat":43.294167,"lon":5.38623,"is_reserved":false,"is_disabled":false,"rental_uris":{"android":"levelo://app?vid=52b12c4d-9137-4d65-b433-5e99d6a79497","ios":"levelo://app?vid=52b12c4d-9137-4d65-b433-5e99d6a79497"},"vehicle_type_id":"4","last_reported":1746119335,"current_range_meters":36400,"station_id":"ce4bh2h2rcd13ifvqdh0","pricing_plan_id":"cebpf4jnsgd1na2vs0mg"},{"bike_id":"d49ddf6f-374e-4354-9e25-0ac418466687","system_id":"levelo_inurba_marseille","lat":43.2942,"lon":5.38629,"is_reserved":false,"is_disabled":false,"rental_uris":{"android":"levelo://app?vid=d49ddf6f-374e-4354-9e25-0ac418466687","ios":"levelo://app?vid=d49ddf6f-374e-4354-9e25-0ac418466687"},"vehicle_type_id":"4","last_reported":1746119335,"current_range_meters":36800,"station_id":"","pricing_plan_id":"cebpf4jnsgd1na2vs0mg"},{"bike_id":"e37c22ee-d3f4-4440-85c0-d70df087f2de","system_id":"levelo_inurba_marseille","lat":43.268,"lon":5.39417,"is_reserved":false,"is_disabled":true,"rental_uris":{"android":"levelo://app?vid=e37c22ee-d3f4-4440-85c0-d70df087f2de","ios":"levelo://app?vid=e37c22ee-d3f4-4440-85c0-d70df087f2de"},"vehicle_type_id":"4","last_reported":1746119335,"current_range_meters":36800,"station_id":"ce4bhh12rcd13ifvqfg0","pricing_plan_id":"cebpf4jnsgd1na2vs0mg"},{"bike_id":"f1ea25b9-80b9-4ea5-8928-f202a0583489","system_id":"levelo_inurba_marseille","lat":43.271785,"lon":5.40992,"is_reserved":false,"is_disabled":false,"rental_uris":{"android":"levelo://app?vid=f1ea25b9-80b9-4ea5-8928-f202a0583489","ios":"levelo://app?vid=f1ea25b9-80b9-4ea5-8928-f202a0583489"},"vehicle_type_id":"4","last_reported":1746119335,"current_range_meters":36800,"station_id":"ce4bhl12rcd13ifvqgf0","pricing_plan_id":"cebpf4jnsgd1na2vs0mg"},{"bike_id":"4cdd8bf7-06c9-4cb7-b8eb-119b9361b8fd","system_id":"levelo_inurba_marseille","lat":43.2954,"lon":5.38542,"is_reserved":false,"is_disabled":false,"rental_uris":{"android":"levelo://app?vid=4cdd8bf7-06c9-4cb7-b8eb-119b9361b8fd","ios":"levelo://app?vid=4cdd8bf7-06c9-4cb7-b8eb-119b9361b8fd"},"vehicle_type_id":"4","last_reported":1746119335,"current_range_meters":36800,"station_id":"ce4bgih2rcd13ifvqba0","pricing_plan_id":"cebpf4jnsgd1na2vs0mg"},{"bike_id":"4ba203ab-d828-484c-a1b1-70bfb115a630","system_id":"levelo_inurba_marseille","lat":43.29414,"lon":5.38623,"is_reserved":false,"is_disabled":false,"rental_uris":{"android":"levelo://app?vid=4ba203ab-d828-484c-a1b1-70bfb115a630","ios":"levelo://app?vid=4ba203ab-d828-484c-a1b1-70bfb115a630"},"vehicle_type_id":"4","last_reported":1746119335,"current_range_meters":36800,"station_id":"ce4bh2h2rcd13ifvqdh0","pricing_plan_id":"cebpf4jnsgd1na2vs0mg"},{"bike_id":"b75505c8-cc78-47d0-b98f-b6f13934a7e3","system_id":"levelo_inurba_marseille","lat":43.24081,"lon":5.37761,"is_reserved":false,"is_disabled":false,"rental_uris":{"android":"levelo://app?vid=b75505c8-cc78-47d0-b98f-b6f13934a7e3","ios":"levelo://app?vid=b75505c8-cc78-47d0-b98f-b6f13934a7e3"},"vehicle_type_id":"4","last_reported":1746119335,"current_range_meters":36800,"station_id":"ce4bhnp2rcd13ifvqgvg","pricing_plan_id":"cebpf4jnsgd1na2vs0mg"},{"bike_id":"a6ffde33-3522-42a3-a054-5033f08bdc0e","system_id":"levelo_inurba_marseille","lat":43.23198,"lon":5.35543,"is_reserved":false,"is_disabled":false,"rental_uris":{"android":"levelo://app?vid=a6ffde33-3522-42a3-a054-5033f08bdc0e","ios":"levelo://app?vid=a6ffde33-3522-42a3-a054-5033f08bdc0e"},"vehicle_type_id":"4","last_reported":1746119335,"current_range_meters":37600,"station_id":"ce4bhu92rcd13ifvqi70","pricing_plan_id":"cebpf4jnsgd1na2vs0mg"},{"bike_id":"744bc4fa-a146-45c5-b034-eaeadfb255ce","system_id":"levelo_inurba_marseille","lat":43.28156,"lon":5.42637,"is_reserved":false,"is_disabled":true,"rental_uris":{"android":"levelo://app?vid=744bc4fa-a146-45c5-b034-eaeadfb255ce","ios":"levelo://app?vid=744bc4fa-a146-45c5-b034-eaeadfb255ce"},"vehicle_type_id":"4","last_reported":1746119335,"current_range_meters":37600,"station_id":"ce4bhnh2rcd13ifvqgug","pricing_plan_id":"cebpf4jnsgd1na2vs0mg"},{"bike_id":"59563bea-e42b-432f-91bc-b8aff889d5b0","system_id":"levelo_inurba_marseille","lat":43.30622,"lon":5.39354,"is_reserved":false,"is_disabled":false,"rental_uris":{"android":"levelo://app?vid=59563bea-e42b-432f-91bc-b8aff889d5b0","ios":"levelo://app?vid=59563bea-e42b-432f-91bc-b8aff889d5b0"},"vehicle_type_id":"4","last_reported":1746119335,"current_range_meters":37600,"station_id":"ce4bh0p2rcd13ifvqd80","pricing_plan_id":"cebpf4jnsgd1na2vs0mg"},{"bike_id":"208b2b75-9bc1-49c8-8170-2add2649aeca","system_id":"levelo_inurba_marseille","lat":43.26798,"lon":5.39423,"is_reserved":false,"is_disabled":true,"rental_uris":{"android":"levelo://app?vid=208b2b75-9bc1-49c8-8170-2add2649aeca","ios":"levelo://app?vid=208b2b75-9bc1-49c8-8170-2add2649aeca"},