{"last_updated":1692202065,"ttl":30,"version":"2.2","data":{"bikes":[{"bike_id":"027106e7-e84d-4d19-bd67-26385a8755d8","system_id":"levelo_inurba_marseille","lat":43.30897,"lon":5.37205,"is_reserved":false,"is_disabled":false,"rental_uris":{"android":"levelo://app?vid=027106e7-e84d-4d19-bd67-26385a8755d8","ios":"levelo://app?vid=027106e7-e84d-4d19-bd67-26385a8755d8"},"vehicle_type_id":"4","last_reported":1692202068,"current_range_meters":1600,"station_id":"ce4bguh2rcd13ifvqckg","pricing_plan_id":"free"},{"bike_id":"74b29f75-95f0-4172-bf1c-0cfe343fcc09","system_id":"levelo_inurba_marseille","lat":43.30533,"lon":5.36553,"is_reserved":false,"is_disabled":false,"rental_uris":{"android":"levelo://app?vid=74b29f75-95f0-4172-bf1c-0cfe343fcc09","ios":"levelo://app?vid=74b29f75-95f0-4172-bf1c-0cfe343fcc09"},"vehicle_type_id":"4","last_reported":1692202068,"current_range_meters":4400,"station_id":"","pricing_plan_id":"free"},{"bike_id":"9fbe6e18-d192-44c2-98b5-cafb68b41aa4","system_id":"levelo_inurba_marseille","lat":43.30533,"lon":5.36538,"is_reserved":false,"is_disabled":false,"rental_uris":{"android":"levelo://app?vid=9fbe6e18-d192-44c2-98b5-cafb68b41aa4","ios":"levelo://app?vid=9fbe6e18-d192-44c2-98b5-cafb68b41aa4"},"vehicle_type_id":"4","last_reported":1692202068,"current_range_meters":24800,"station_id":"ce4bgs12rcd13ifvqcag","pricing_plan_id":"free"},{"bike_id":"a5dd9498-754e-41d0-9186-cf5f0e10360a","system_id":"levelo_inurba_marseille","lat":43.305989,"lon":5.37225,"is_reserved":false,"is_disabled":false,"rental_uris":{"android":"levelo://app?vid=a5dd9498-754e-41d0-9186-cf5f0e10360a","ios":"levelo://app?vid=a5dd9498-754e-41d0-9186-cf5f0e10360a"},"vehicle_type_id":"4","last_reported":1692202068,"current_range_meters":28800,"station_id":"ce4bgqh2rcd13ifvqc4g","pricing_plan_id":"free"},{"bike_id":"386ed8e3-b71e-4f68-86af-202c5b76503e","system_id":"levelo_inurba_marseille","lat":43.305989,"lon":5.37225,"is_reserved":false,"is_disabled":false,"rental_uris":{"android":"levelo://app?vid=386ed8e3-b71e-4f68-86af-202c5b76503e","ios":"levelo://app?vid=386ed8e3-b71e-4f68-86af-202c5b76503e"},"vehicle_type_id":"4","last_reported":1692202068,"current_range_meters":31200,"station_id":"ce4bgqh2rcd13ifvqc4g","pricing_plan_id":"free"},{"bike_id":"913ad8d8-ff4a-402b-845d-993d8ad47139","system_id":"levelo_inurba_marseille","lat":43.317075,"lon":5.377367,"is_reserved":false,"is_disabled":false,"rental_uris":{"android":"levelo://app?vid=913ad8d8-ff4a-402b-845d-993d8ad47139","ios":"levelo://app?vid=913ad8d8-ff4a-402b-845d-993d8ad47139"},"vehicle_type_id":"4","last_reported":1692202068,"current_range_meters":31200,"station_id":"ce4bgth2rcd13ifvqch0","pricing_plan_id":"free"},{"bike_id":"be2dbf05-e75a-434c-8474-c4fc485123e4","system_id":"levelo_inurba_marseille","lat":43.317075,"lon":5.377367,"is_reserved":false,"is_disabled":false,"rental_uris":{"android":"levelo://app?vid=be2dbf05-e75a-434c-8474-c4fc485123e4","ios":"levelo://app?vid=be2dbf05-e75a-434c-8474-c4fc485123e4"},"vehicle_type_id":"4","last_reported":1692202068,"current_range_meters":31200,"station_id":"ce4bgth2rcd13ifvqch0","pricing_plan_id":"free"},{"bike_id":"979741e3-695a-48b2-bb8c-d75d348bb2b4","system_id":"levelo_inurba_marseille","lat":43.317075,"lon":5.377367,"is_reserved":false,"is_disabled":false,"rental_uris":{"android":"levelo://app?vid=979741e3-695a-48b2-bb8c-d75d348bb2b4","ios":"levelo://app?vid=979741e3-695a-48b2-bb8c-d75d348bb2b4"},"vehicle_type_id":"4","last_reported":1692202068,"current_range_meters":26800,"station_id":"ce4bgth2rcd13ifvqch0","pricing_plan_id":"free"},{"bike_id":"ffcaa411-d2c9-4098-b007-fc17d98358ac","system_id":"levelo_inurba_marseille","lat":43.317075,"lon":5.377367,"is_reserved":false,"is_disabled":false,"rental_uris":{"android":"levelo://app?vid=ffcaa411-d2c9-4098-b007-fc17d98358ac","ios":"levelo://app?vid=ffcaa411-d2c9-4098-b007-fc17d98358ac"},"vehicle_type_id":"4","last_reported":1692202068,"current_range_meters":26800,"station_id":"ce4bgth2rcd13ifvqch0","pricing_plan_id":"free"},{"bike_id":"92be00df-8df7-4b91-b678-616ccf916c98","system_id":"levelo_inurba_marseille","lat":43.31683,"lon":5.37779,"is_reserved":false,"is_disabled":false,"rental_uris":{"android":"levelo://app?vid=92be00df-8df7-4b91-b678-616ccf916c98","ios":"levelo://app?vid=92be00df-8df7-4b91-b678-616ccf916c98"},"vehicle_type_id":"4","last_reported":1692202068,"current_range_meters":26000,"station_id":"ce4bgth2rcd13ifvqch0","pricing_plan_id":"free"},{"bike_id":"25559cf7-fd16-49d7-9379-469f1a9ff38e","system_id":"levelo_inurba_marseille","lat":43.31588,"lon":5.37889,"is_reserved":false,"is_disabled":false,"rental_uris":{"android":"levelo://app?vid=25559cf7-fd16-49d7-9379-469f1a9ff38e","ios":"levelo://app?vid=25559cf7-fd16-49d7-9379-469f1a9ff38e"},"vehicle_type_id":"4","last_reported":1692202068,"current_range_meters":20000,"station_id":"","pricing_plan_id":"free"},{"bike_id":"7eb9fbc0-3fb1-4a4a-920b-06770cb76eae","system_id":"levelo_inurba_marseille","lat":43.30307,"lon":5.36875,"is_reserved":false,"is_disabled":false,"rental_uris":{"android":"levelo://app?vid=7eb9fbc0-3fb1-4a4a-920b-06770cb76eae","ios":"levelo://app?vid=7eb9fbc0-3fb1-4a4a-920b-06770cb76eae"},"vehicle_type_id":"4","last_reported":1692202068,"current_range_meters":16800,"station_id":"ce4bgqh2rcd13ifvqc5g","pricing_plan_id":"free"},{"bike_id":"875b375c-a23c-41fe-88b1-584cf07bcbe7","system_id":"levelo_inurba_marseille","lat":43.31533,"lon":5.38032,"is_reserved":false,"is_disabled":false,"rental_uris":{"android":"levelo://app?vid=875b375c-a23c-41fe-88b1-584cf07bcbe7","ios":"levelo://app?vid=875b375c-a23c-41fe-88b1-584cf07bcbe7"},"vehicle_type_id":"4","last_reported":1692202068,"current_range_meters":24400,"station_id":"ce4bhsp2rcd13ifvqi50","pricing_plan_id":"free"},{"bike_id":"931cd3ec-0f78-4e6f-9b8c-7061cbf857bf","system_id":"levelo_inurba_marseille","lat":43.304606,"lon":5.379026,"is_reserved":false,"is_disabled":false,"rental_uris":{"android":"levelo://app?vid=931cd3ec-0f78-4e6f-9b8c-7061cbf857bf","ios":"levelo://app?vid=931cd3ec-0f78-4e6f-9b8c-7061cbf857bf"},"vehicle_type_id":"4","last_reported":1692202068,"current_range_meters":1200,"station_id":"ce4bgup2rcd13ifvqcn0","pricing_plan_id":"free"},{"bike_id":"62c98c6d-edf2-4a5b-9245-1031d6c24b55","system_id":"levelo_inurba_marseille","lat":43.302784,"lon":5.377158,"is_reserved":false,"is_disabled":false,"rental_uris":{"android":"levelo://app?vid=62c98c6d-edf2-4a5b-9245-1031d6c24b55","ios":"levelo://app?vid=62c98c6d-edf2-4a5b-9245-1031d6c24b55"},"vehicle_type_id":"4","last_reported":1692202068,"current_range_meters":16000,"station_id":"ce4bguh2rcd13ifvqcj0","pricing_plan_id":"free"},{"bike_id":"64e3b051-6e59-426e-82b7-732ae5858789","system_id":"levelo_inurba_marseille","lat":43.30141,"lon":5.37424,"is_reserved":false,"is_disabled":false,"rental_uris":{"android":"levelo://app?vid=64e3b051-6e59-426e-82b7-732ae5858789","ios":"levelo://app?vid=64e3b051-6e59-426e-82b7-732ae5858789"},"vehicle_type_id":"4","last_reported":1692202068,"current_range_meters":20400,"station_id":"ce4bgs92rcd13ifvqcc0","pricing_plan_id":"free"},{"bike_id":"627f700d-c49f-4358-8b81-9dc951a22015","system_id":"levelo_inurba_marseille","lat":43.304606,"lon":5.379026,"is_reserved":false,"is_disabled":false,"rental_uris":{"android":"levelo://app?vid=627f700d-c49f-4358-8b81-9dc951a22015","ios":"levelo://app?vid=627f700d-c49f-4358-8b81-9dc951a22015"},"vehicle_type_id":"4","last_reported":1692202068,"current_range_meters":21600,"station_id":"ce4bgup2rcd13ifvqcn0","pricing_plan_id":"free"},{"bike_id":"10ace6ff-ef76-4b4d-a04f-2ec52dd81c45","system_id":"levelo_inurba_marseille","lat":43.319935,"lon":5.381699,"is_reserved":false,"is_disabled":false,"rental_uris":{"android":"levelo://app?vid=10ace6ff-ef76-4b4d-a04f-2ec52dd81c45","ios":"levelo://app?vid=10ace6ff-ef76-4b4d-a04f-2ec52dd81c45"},"vehicle_type_id":"4","last_reported":1692202068,"current_range_meters":14400,"station_id":"ce4bhr12rcd13ifvqhpg","pricing_plan_id":"free"},{"bike_id":"4deb3b35-01fb-4705-b9e7-2c33ce6e34d8","system_id":"levelo_inurba_marseille","lat":43.313571,"lon":5.384829,"is_reserved":false,"is_disabled":false,"rental_uris":{"android":"levelo://app?vid=4deb3b35-01fb-4705-b9e7-2c33ce6e34d8","ios":"levelo://app?vid=4deb3b35-01fb-4705-b9e7-2c33ce6e34d8"},"vehicle_type_id":"4","last_reported":1692202068,"current_range_meters":27600,"station_id":"ce4bgt92rcd13ifvqcf0","pricing_plan_id":"free"},{"bike_id":"445860c1-2621-4d85-96df-e12bd78347ac","system_id":"levelo_inurba_marseille","lat":43.299712,"lon":5.371789,"is_reserved":false,"is_disabled":false,"rental_uris":{"android":"levelo://app?vid=445860c1-2621-4d85-96df-e12bd78347ac","ios":"levelo://app?vid=445860c1-2621-4d85-96df-e12bd78347ac"},"vehicle_type_id":"4","last_reported":1692202068,"current_range_meters":0,"station_id":"ce4bgr92rcd13ifvqc7g","pricing_plan_id":"free"},{"bike_id":"06e27a12-bdbc-4fb0-b167-d3286b574e74","system_id":"levelo_inurba_marseille","lat":43.298433,"lon":5.362774,"is_reserved":false,"is_disabled":false,"rental_uris":{"android":"levelo://app?vid=06e27a12-bdbc-4fb0-b167-d3286b574e74","ios":"levelo://app?vid=06e27a12-bdbc-4fb0-b167-d3286b574e74"},"vehicle_type_id":"4","last_reported":1692202068,"current_range_meters":3600,"station_id":"ce4bgpp2rcd13ifvqc3g","pricing_plan_id":"free"},{"bike_id":"76b3d268-7f26-4a0e-8cbd-eb2182b84a31","system_id":"levelo_inurba_marseille","lat":43.311722,"lon":5.387247,"is_reserved":false,"is_disabled":false,"rental_uris":{"android":"levelo://app?vid=76b3d268-7f26-4a0e-8cbd-eb2182b84a31","ios":"levelo://app?vid=76b3d268-7f26-4a0e-8cbd-eb2182b84a31"},"vehicle_type_id":"4","last_reported":1692202068,"current_range_meters":31600,"station_id":"ce4bgv12rcd13ifvqcp0","pricing_plan_id":"free"},{"bike_id":"c53b8eb0-38ad-4c95-ba88-4c7e97cb6e9c","system_id":"levelo_inurba_marseille","lat":43.31177,"lon":5.3872,"is_reserved":false,"is_disabled":false,"rental_uris":{"android":"levelo://app?vid=c53b8eb0-38ad-4c95-ba88-4c7e97cb6e9c","ios":"levelo://app?vid=c53b8eb0-38ad-4c95-ba88-4c7e97cb6e9c"},"vehicle_type_id":"4","last_reported":1692202068,"current_range_meters":31600,"station_id":"","pricing_plan_id":"free"},{"bike_id":"fdba286e-1cb5-4f0e-9cff-a4a5f609fe0b","system_id":"levelo_inurba_marseille","lat":43.32793,"lon":5.36697,"is_reserved":false,"is_disabled":false,"rental_uris":{"android":"levelo://app?vid=fdba286e-1cb5-4f0e-9cff-a4a5f609fe0b","ios":"levelo://app?vid=fdba286e-1cb5-4f0e-9cff-a4a5f609fe0b"},"vehicle_type_id":"4","last_reported":1692202068,"current_range_meters":28400,"station_id":"ce4bhs92rcd13ifvqi0g","pricing_plan_id":"free"},{"bike_id":"c6b539db-5b03-411d-8927-985ab9f2f17e","system_id":"levelo_inurba_marseille","lat":43.32292,"lon":5.38251,"is_reserved":false,"is_disabled":false,"rental_uris":{"android":"levelo://app?vid=c6b539db-5b03-411d-8927-985ab9f2f17e","ios":"levelo://app?vid=c6b539db-5b03-411d-8927-985ab9f2f17e"},"vehicle_type_id":"4","last_reported":1692202068,"current_range_meters":29600,"station_id":"ce4bhr12rcd13ifvqhqg","pricing_plan_id":"free"},{"bike_id":"7fe9d765-be11-47ec-95a5-b88fca545d8d","system_id":"levelo_inurba_marseille","lat":43.32285,"lon":5.38262,"is_reserved":false,"is_disabled":false,"rental_uris":{"android":"levelo://app?vid=7fe9d765-be11-47ec-95a5-b88fca545d8d","ios":"levelo://app?vid=7fe9d765-be11-47ec-95a5-b88fca545d8d"},"vehicle_type_id":"4","last_reported":1692202068,"current_range_meters":25600,"station_id":"ce4bhr12rcd13ifvqhqg","pricing_plan_id":"free"},{"bike_id":"1bf667cf-3514-4a07-b0cc-6779ab8ce747","system_id":"levelo_inurba_marseille","lat":43.32294,"lon":5.38263,"is_reserved":false,"is_disabled":false,"rental_uris":{"android":"levelo://app?vid=1bf667cf-3514-4a07-b0cc-6779ab8ce747","ios":"levelo://app?vid=1bf667cf-3514-4a07-b0cc-6779ab8ce747"},"vehicle_type_id":"4","last_reported":1692202068,"current_range_meters":15600,"station_id":"ce4bhr12rcd13ifvqhqg","pricing_plan_id":"free"},{"bike_id":"8a0b19c4-bd8f-4e1a-84a6-0e66a2788be3","system_id":"levelo_inurba_marseille","lat":43.290779,"lon":5.371482,"is_reserved":false,"is_disabled":false,"rental_uris":{"android":"levelo://app?vid=8a0b19c4-bd8f-4e1a-84a6-0e66a2788be3","ios":"levelo://app?vid=8a0b19c4-bd8f-4e1a-84a6-0e66a2788be3"},"vehicle_type_id":"4","last_reported":1692202068,"current_range_meters":6400,"station_id":"ce4bh5p2rcd13ifvqe4g","pricing_plan_id":"free"},{"bike_id":"2cacf4ba-30f0-4f40-92af-cee799fe4c0c","system_id":"levelo_inurba_marseille","lat":43.328371,"lon":5.366909,"is_reserved":false,"is_disabled":false,"rental_uris":{"android":"levelo://app?vid=2cacf4ba-30f0-4f40-92af-cee799fe4c0c","ios":"levelo://app?vid=2cacf4ba-30f0-4f40-92af-cee799fe4c0c"},"vehicle_type_id":"4","last_reported":1692202068,"current_range_meters":26800,"station_id":"ce4bhs92rcd13ifvqi0g","pricing_plan_id":"free"},{"bike_id":"6ece8e83-2d1d-4d08-ad69-51835c8252e1","system_id":"levelo_inurba_marseille","lat":43.3283,"lon":5.36687,"is_reserved":false,"is_disabled":false,"rental_uris":{"android":"levelo://app?vid=6ece8e83-2d1d-4d08-ad69-51835c8252e1","ios":"levelo://app?vid=6ece8e83-2d1d-4d08-ad69-51835c8252e1"},"vehicle_type_id":"4","last_reported":1692202068,"current_range_meters":24800,"station_id":"ce4bhs92rcd13ifvqi0g","pricing_plan_id":"free"},{"bike_id":"dd789220-e7b5-42c1-b9dc-dc4243148021","system_id":"levelo_inurba_marseille","lat":43.297163,"lon":5.365866,"is_reserved":false,"is_disabled":false,"rental_uris":{"android":"levelo://app?vid=dd789220-e7b5-42c1-b9dc-dc4243148021","ios":"levelo://app?vid=dd789220-e7b5-42c1-b9dc-dc4243148021"},"vehicle_type_id":"4","last_reported":1692202068,"current_range_meters":31200,"station_id":"ce4bgn12rcd13ifvqbt0","pricing_plan_id":"free"},{"bike_id":"4ed96fad-2e51-49a2-879d-e8c05ef80263","system_id":"levelo_inurba_marseille","lat":43.32831,"lon":5.36679,"is_reserved":false,"is_disabled":false,"rental_uris":{"android":"levelo://app?vid=4ed96fad-2e51-49a2-879d-e8c05ef80263","ios":"levelo://app?vid=4ed96fad-2e51-49a2-879d-e8c05ef80263"},"vehicle_type_id":"4","last_reported":1692202068,"current_range_meters":15200,"station_id":"ce4bhs92rcd13ifvqi0g","pricing_plan_id":"free"},{"bike_id":"d86e7b99-7484-476a-824e-ca64a2fdcfb6","system_id":"levelo_inurba_marseille","lat":43.32831,"lon":5.36674,"is_reserved":false,"is_disabled":false,"rental_uris":{"android":"levelo://app?vid=d86e7b99-7484-476a-824e-ca64a2fdcfb6","ios":"levelo://app?vid=d86e7b99-7484-476a-824e-ca64a2fdcfb6"},"vehicle_type_id":"4","last_reported":1692202068,"current_range_meters":30000,"station_id":"ce4bhs92rcd13ifvqi0g","pricing_plan_id":"free"},{"bike_id":"3dc8ddfd-e386-4774-938c-dc3a7b25274a","system_id":"levelo_inurba_marseille","lat":43.328371,"lon":5.366909,"is_reserved":false,"is_disabled":false,"rental_uris":{"android":"levelo://app?vid=3dc8ddfd-e386-4774-938c-dc3a7b25274a","ios":"levelo://app?vid=3dc8ddfd-e386-4774-938c-dc3a7b25274a"},"vehicle_type_id":"4","last_reported":1692202068,"current_range_meters":18000,"station_id":"ce4bhs92rcd13ifvqi0g","pricing_plan_id":"free"},{"bike_id":"154520f2-fd91-4cdf-914b-39adc14372e3","system_id":"levelo_inurba_marseille","lat":43.32834,"lon":5.36682,"is_reserved":false,"is_disabled":false,"rental_uris":{"android":"levelo://app?vid=154520f2-fd91-4cdf-914b-39adc14372e3","ios":"levelo://app?vid=154520f2-fd91-4cdf-914b-39adc14372e3"},"vehicle_type_id":"4","last_reported":1692202068,"current_range_meters":16800,"station_id":"ce4bhs92rcd13ifvqi0g","pricing_plan_id":"free"},{"bike_id":"5f8a6ca0-5dfe-4c06-929a-c1030bd48d99","system_id":"levelo_inurba_marseille","lat":43.32834,"lon":5.36677,"is_reserved":false,"is_disabled":false,"rental_uris":{"android":"levelo://app?vid=5f8a6ca0-5dfe-4c06-929a-c1030bd48d99","ios":"levelo://app?vid=5f8a6ca0-5dfe-4c06-929a-c1030bd48d99"},"vehicle_type_id":"4","last_reported":1692202068,"current_range_meters":14800,"station_id":"ce4bhs92rcd13ifvqi0g","pricing_plan_id":"free"},{"bike_id":"fa832a3b-a72f-42a2-8ac6-320395daaa8c","system_id":"levelo_inurba_marseille","lat":43.32836,"lon":5.36683,"is_reserved":false,"is_disabled":false,"rental_uris":{"android":"levelo://app?vid=fa832a3b-a72f-42a2-8ac6-320395daaa8c","ios":"levelo://app?vid=fa832a3b-a72f-42a2-8ac6-320395daaa8c"},"vehicle_type_id":"4","last_reported":1692202068,"current_range_meters":25200,"station_id":"ce4bhs92rcd13ifvqi0g","pricing_plan_id":"free"},{"bike_id":"6e141567-ce27-4b20-810a-9ecf17c0647e","system_id":"levelo_inurba_marseille","lat":43.32837,"lon":5.36691,"is_reserved":false,"is_disabled":false,"rental_uris":{"android":"levelo://app?vid=6e141567-ce27-4b20-810a-9ecf17c0647e","ios":"levelo://app?vid=6e141567-ce27-4b20-810a-9ecf17c0647e"},"vehicle_type_id":"4","last_reported":1692202068,"current_range_meters":23200,"station_id":"ce4bhs92rcd13ifvqi0g","pricing_plan_id":"free"},{"bike_id":"dcb38f3d-00a9-47a5-892d-27a970edbd08","system_id":"levelo_inurba_marseille","lat":43.32837,"lon":5.36687,"is_reserved":false,"is_disabled":false,"rental_uris":{"android":"levelo://app?vid=dcb38f3d-00a9-47a5-892d-27a970edbd08","ios":"levelo://app?vid=dcb38f3d-00a9-47a5-892d-27a970edbd08"},"vehicle_type_id":"4","last_reported":1692202068,"current_range_meters":30000,"station_id":"ce4bhs92rcd13ifvqi0g","pricing_plan_id":"free"},{"bike_id":"94ca1dde-c62e-406c-a1ed-ce8078fc26e1","system_id":"levelo_inurba_marseille","lat":43.32837,"lon":5.36684,"is_reserved":false,"is_disabled":false,"rental_uris":{"android":"levelo://app?vid=94ca1dde-c62e-406c-a1ed-ce8078fc26e1","ios":"levelo://app?vid=94ca1dde-c62e-406c-a1ed-ce8078fc26e1"},"vehicle_type_id":"4","last_reported":1692202068,"current_range_meters":14400,"station_id":"ce4bhs92rcd13ifvqi0g","pricing_plan_id":"free"},{"bike_id":"0342fb81-f731-403d-b1a6-fa78bc7d8b00","system_id":"levelo_inurba_marseille","lat":43.32838,"lon":5.36677,"is_reserved":false,"is_disabled":false,"rental_uris":{"android":"levelo://app?vid=0342fb81-f731-403d-b1a6-fa78bc7d8b00","ios":"levelo://app?vid=0342fb81-f731-403d-b1a6-fa78bc7d8b00"},"vehicle_type_id":"4","last_reported":1692202068,"current_range_meters":19200,"station_id":"ce4bhs92rcd13ifvqi0g","pricing_plan_id":"free"},{"bike_id":"0c16fd08-1d8d-44ab-8fd3-7ffb6e7e61a0","system_id":"levelo_inurba_marseille","lat":43.296131,"lon":5.370791,"is_reserved":false,"is_disabled":false,"rental_uris":{"android":"levelo://app?vid=0c16fd08-1d8d-44ab-8fd3-7ffb6e7e61a0","ios":"levelo://app?vid=0c16fd08-1d8d-44ab-8fd3-7ffb6e7e61a0"},"vehicle_type_id":"4","last_reported":1692202068,"current_range_meters":31200,"station_id":"ce4bgnh2rcd13ifvqc0g","pricing_plan_id":"free"},{"bike_id":"86d00bd1-b520-4fae-b85f-41415b4afbc7","system_id":"levelo_inurba_marseille","lat":43.296131,"lon":5.370791,"is_reserved":false,"is_disabled":false,"rental_uris":{"android":"levelo://app?vid=86d00bd1-b520-4fae-b85f-41415b4afbc7","ios":"levelo://app?vid=86d00bd1-b520-4fae-b85f-41415b4afbc7"},"vehicle_type_id":"4","last_reported":1692202068,"current_range_meters":24800,"station_id":"ce4bgnh2rcd13ifvqc0g","pricing_plan_id":"free"},{"bike_id":"bb155e93-116e-494a-9911-2df351c7dae8","system_id":"levelo_inurba_marseille","lat":43.296129,"lon":5.370777,"is_reserved":false,"is_disabled":false,"rental_uris":{"android":"levelo://app?vid=bb155e93-116e-494a-9911-2df351c7dae8","ios":"levelo://app?vid=bb155e93-116e-494a-9911-2df351c7dae8"},"vehicle_type_id":"4","last_reported":1692202068,"current_range_meters":26800,"station_id":"ce4bgnh2rcd13ifvqc0g","pricing_plan_id":"free"},{"bike_id":"10a62c17-72a4-4585-a932-60319e53a367","system_id":"levelo_inurba_marseille","lat":43.296921,"lon":5.376579,"is_reserved":false,"is_disabled":false,"rental_uris":{"android":"levelo://app?vid=10a62c17-72a4-4585-a932-60319e53a367","ios":"levelo://app?vid=10a62c17-72a4-4585-a932-60319e53a367"},"vehicle_type_id":"4","last_reported":1692202068,"current_range_meters":9600,"station_id":"ce4bgkh2rcd13ifvqbl0","pricing_plan_id":"free"},{"bike_id":"70e8fcba-4d06-491c-9de9-a14128c42746","system_id":"levelo_inurba_marseille","lat":43.317557,"lon":5.390173,"is_reserved":false,"is_disabled":false,"rental_uris":{"android":"levelo://app?vid=70e8fcba-4d06-491c-9de9-a14128c42746","ios":"levelo://app?vid=70e8fcba-4d06-491c-9de9-a14128c42746"},"vehicle_type_id":"4","last_reported":1692202068,"current_range_meters":30400,"station_id":"ce4bhqp2rcd13ifvqhng","pricing_plan_id":"free"},{"bike_id":"be472a66-12d7-4b1c-a801-1b9205d156df","system_id":"levelo_inurba_marseille","lat":43.317557,"lon":5.390173,"is_reserved":false,"is_disabled":false,"rental_uris":{"android":"levelo://app?vid=be472a66-12d7-4b1c-a801-1b9205d156df","ios":"levelo://app?vid=be472a66-12d7-4b1c-a801-1b9205d156df"},"vehicle_type_id":"4","last_reported":1692202068,"current_range_meters":30000,"station_id":"ce4bhqp2rcd13ifvqhng","pricing_plan_id":"free"},{"bike_id":"c2dd4bd6-ad62-4f90-af27-61e9344d9f3c","system_id":"levelo_inurba_marseille","lat":43.317557,"lon":5.390173,"is_reserved":false,"is_disabled":false,"rental_uris":{"android":"levelo://app?vid=c2dd4bd6-ad62-4f90-af27-61e9344d9f3c","ios":"levelo://app?vid=c2dd4bd6-ad62-4f90-af27-61e9344d9f3c"},"vehicle_type_id":"4","last_reported":1692202068,"current_range_meters":26000,"station_id":"ce4bhqp2rcd13ifvqhng","pricing_plan_id":"free"},{"bike_id":"3afc55b6-798d-4af5-8a96-20f6c2e39fc9","system_id":"levelo_inurba_marseille","lat":43.317557,"lon":5.390173,"is_reserved":false,"is_disabled":false,"rental_uris":{"android":"levelo://app?vid=3afc55b6-798d-4af5-8a96-20f6c2e39fc9","ios":"levelo://app?vid=3afc55b6-798d-4af5-8a96-20f6c2e39fc9"},"vehicle_type_id":"4","last_reported":1692202068,"current_range_meters":16800,"station_id":"ce4bhqp2rcd13ifvqhng","pricing_plan_id":"free"},{"bike_id":"56fd1203-3ec4-4539-b550-0fe19fbcfcae","system_id":"levelo_inurba_marseille","lat":43.295748,"lon":5.37522,"is_reserved":false,"is_disabled":false,"rental_uris":{"android":"levelo://app?vid=56fd1203-3ec4-4539-b550-0fe19fbcfcae","ios":"levelo://app?vid=56fd1203-3ec4-4539-b550-0fe19fbcfcae"},"vehicle_type_id":"4","last_reported":1692202068,"current_range_meters":16400,"station_id":"ce4bgh92rcd13ifvqb50","pricing_plan_id":"free"},{"bike_id":"a4df99ce-0488-49dd-a888-94686f562e88","system_id":"levelo_inurba_marseille","lat":43.29567,"lon":5.37512,"is_reserved":false,"is_disabled":false,"rental_uris":{"android":"levelo://app?vid=a4df99ce-0488-49dd-a888-94686f562e88","ios":"levelo://app?vid=a4df99ce-0488-49dd-a888-94686f562e88"},"vehicle_type_id":"4","last_reported":1692202068,"current_range_meters":29200,"station_id":"ce4bgh92rcd13ifvqb50","pricing_plan_id":"free"},{"bike_id":"0988fd3e-5f46-43fc-b21c-5bb1c9792d46","system_id":"levelo_inurba_marseille","lat":43.299707,"lon":5.384859,"is_reserved":false,"is_disabled":false,"rental_uris":{"android":"levelo://app?vid=0988fd3e-5f46-43fc-b21c-5bb1c9792d46","ios":"levelo://app?vid=0988fd3e-5f46-43fc-b21c-5bb1c9792d46"},"vehicle_type_id":"4","last_reported":1692202068,"current_range_meters":0,"station_id":"ce4bgj92rcd13ifvqbd0","pricing_plan_id":"free"},{"bike_id":"19d7ffd0-4389-463c-8957-f404f82c0eaa","system_id":"levelo_inurba_marseille","lat":43.299707,"lon":5.384859,"is_reserved":false,"is_disabled":false,"rental_uris":{"android":"levelo://app?vid=19d7ffd0-4389-463c-8957-f404f82c0eaa","ios":"levelo://app?vid=19d7ffd0-4389-463c-8957-f404f82c0eaa"},"vehicle_type_id":"4","last_reported":1692202068,"current_range_meters":4000,"station_id":"ce4bgj92rcd13ifvqbd0","pricing_plan_id":"free"},{"bike_id":"085845de-101d-4712-83d9-38ac7ffc0153","system_id":"levelo_inurba_marseille","lat":43.32366,"lon":5.38882,"is_reserved":false,"is_disabled":false,"rental_uris":{"android":"levelo://app?vid=085845de-101d-4712-83d9-38ac7ffc0153","ios":"levelo://app?vid=085845de-101d-4712-83d9-38ac7ffc0153"},"vehicle_type_id":"4","last_reported":1692202068,"current_range_meters":1600,"station_id":"ce4bhqp2rcd13ifvqhog","pricing_plan_id":"free"},{"bike_id":"055da435-6bc6-4b59-9432-a48788b6f09b","system_id":"levelo_inurba_marseille","lat":43.3237,"lon":5.3888,"is_reserved":false,"is_disabled":false,"rental_uris":{"android":"levelo://app?vid=055da435-6bc6-4b59-9432-a48788b6f09b","ios":"levelo://app?vid=055da435-6bc6-4b59-9432-a48788b6f09b"},"vehicle_type_id":"4","last_reported":1692202068,"current_range_meters":5600,"station_id":"ce4bhqp2rcd13ifvqhog","pricing_plan_id":"free"},{"bike_id":"6b6cba89-d2b8-44bb-8454-5df08cf65f67","system_id":"levelo_inurba_marseille","lat":43.32369,"lon":5.38882,"is_reserved":false,"is_disabled":false,"rental_uris":{"android":"levelo://app?vid=6b6cba89-d2b8-44bb-8454-5df08cf65f67","ios":"levelo://app?vid=6b6cba89-d2b8-44bb-8454-5df08cf65f67"},"vehicle_type_id":"4","last_reported":1692202068,"current_range_meters":26800,"station_id":"ce4bhqp2rcd13ifvqhog","pricing_plan_id":"free"},{"bike_id":"e331cd4d-5778-4e93-8119-89b8ec21ab84","system_id":"levelo_inurba_marseille","lat":43.29602,"lon":5.381084,"is_reserved":false,"is_disabled":false,"rental_uris":{"android":"levelo://app?vid=e331cd4d-5778-4e93-8119-89b8ec21ab84","ios":"levelo://app?vid=e331cd4d-5778-4e93-8119-89b8ec21ab84"},"vehicle_type_id":"4","last_reported":1692202068,"current_range_meters":10400,"station_id":"ce4bgl12rcd13ifvqbo0","pricing_plan_id":"free"},{"bike_id":"840c58bd-bbe3-48b9-a82b-d15efa6f297c","system_id":"levelo_inurba_marseille","lat":43.29311,"lon":5.37181,"is_reserved":false,"is_disabled":false,"rental_uris":{"android":"levelo://app?vid=840c58bd-bbe3-48b9-a82b-d15efa6f297c","ios":"levelo://app?vid=840c58bd-bbe3-48b9-a82b-d15efa6f297c"},"vehicle_type_id":"4","last_reported":1692202068,"current_range_meters":13600,"station_id":"ce4bgh92rcd13ifvqb40","pricing_plan_id":"free"},{"bike_id":"7fc62c2d-c9f5-4d3b-aa1f-4138e2a6632b","system_id":"levelo_inurba_marseille","lat":43.293058,"lon":5.371799,"is_reserved":false,"is_disabled":false,"rental_uris":{"android":"levelo://app?vid=7fc62c2d-c9f5-4d3b-aa1f-4138e2a6632b","ios":"levelo://app?vid=7fc62c2d-c9f5-4d3b-aa1f-4138e2a6632b"},"vehicle_type_id":"4","last_reported":1692202068,"current_range_meters":6400,"station_id":"ce4bgh92rcd13ifvqb40","pricing_plan_id":"free"},{"bike_id":"38fef587-7cc5-4800-b069-87b8f296a10a","system_id":"levelo_inurba_marseille","lat":43.293009,"lon":5.374584,"is_reserved":false,"is_disabled":false,"rental_uris":{"android":"levelo://app?vid=38fef587-7cc5-4800-b069-87b8f296a10a","ios":"levelo://app?vid=38fef587-7cc5-4800-b069-87b8f296a10a"},"vehicle_type_id":"4","last_reported":1692202068,"current_range_meters":31200,"station_id":"ce4bgi12rcd13ifvqb70","pricing_plan_id":"free"},{"bike_id":"c45f16a1-8679-415e-ad77-003764bf778d","system_id":"levelo_inurba_marseille","lat":43.305994,"lon":5.393687,"is_reserved":false,"is_disabled":false,"rental_uris":{"android":"levelo://app?vid=c45f16a1-8679-415e-ad77-003764bf778d","ios":"levelo://app?vid=c45f16a1-8679-415e-ad77-003764bf778d"},"vehicle_type_id":"4","last_reported":1692202068,"current_range_meters":17600,"station_id":"ce4bh0p2rcd13ifvqd80","pricing_plan_id":"free"},{"bike_id":"323caa99-9ff1-4c88-961b-b5f4ee1eb1cb","system_id":"levelo_inurba_marseille","lat":43.303054,"lon":5.392097,"is_reserved":false,"is_disabled":false,"rental_uris":{"android":"levelo://app?vid=323caa99-9ff1-4c88-961b-b5f4ee1eb1cb","ios":"levelo://app?vid=323caa99-9ff1-4c88-961b-b5f4ee1eb1cb"},"vehicle_type_id":"4","last_reported":1692202068,"current_range_meters":16400,"station_id":"ce4bgkh2rcd13ifvqbk0","pricing_plan_id":"free"},{"bike_id":"1c7e904e-8204-47e5-b4a8-8624529c9aaa","system_id":"levelo_inurba_marseille","lat":43.303088,"lon":5.392158,"is_reserved":false,"is_disabled":false,"rental_uris":{"android":"levelo://app?vid=1c7e904e-8204-47e5-b4a8-8624529c9aaa","ios":"levelo://app?vid=1c7e904e-8204-47e5-b4a8-8624529c9aaa"},"vehicle_type_id":"4","last_reported":1692202068,"current_range_meters":15600,"station_id":"ce4bgkh2rcd13ifvqbk0","pricing_plan_id":"free"},{"bike_id":"753355fc-dd66-4cbe-a124-bb500eb693f3","system_id":"levelo_inurba_marseille","lat":43.2936,"lon":5.37835,"is_reserved":false,"is_disabled":false,"rental_uris":{"android":"levelo://app?vid=753355fc-dd66-4cbe-a124-bb500eb693f3","ios":"levelo://app?vid=753355fc-dd66-4cbe-a124-bb500eb693f3"},"vehicle_type_id":"4","last_reported":1692202068,"current_range_meters":16000,"station_id":"ce4bgjh2rcd13ifvqbf0","pricing_plan_id":"free"},{"bike_id":"af05b98b-d129-4808-96df-d293e871ca7d","system_id":"levelo_inurba_marseille","lat":43.29372,"lon":5.37847,"is_reserved":false,"is_disabled":false,"rental_uris":{"android":"levelo://app?vid=af05b98b-d129-4808-96df-d293e871ca7d","ios":"levelo://app?vid=af05b98b-d129-4808-96df-d293e871ca7d"},"vehicle_type_id":"4","last_reported":1692202068,"current_range_meters":14800,"station_id":"ce4bgjh2rcd13ifvqbf0","pricing_plan_id":"free"},{"bike_id":"b1af5252-f243-4b88-9733-77e75974e152","system_id":"levelo_inurba_marseille","lat":43.302994,"lon":5.392203,"is_reserved":false,"is_disabled":false,"rental_uris":{"android":"levelo://app?vid=b1af5252-f243-4b88-9733-77e75974e152","ios":"levelo://app?vid=b1af5252-f243-4b88-9733-77e75974e152"},"vehicle_type_id":"4","last_reported":1692202068,"current_range_meters":29200,"station_id":"ce4bgkh2rcd13ifvqbk0","pricing_plan_id":"free"},{"bike_id":"78b16770-e981-46b7-97df-8af8364926cc","system_id":"levelo_inurba_marseille","lat":43.292311,"lon":5.360731,"is_reserved":false,"is_disabled":false,"rental_uris":{"android":"levelo://app?vid=78b16770-e981-46b7-97df-8af8364926cc","ios":"levelo://app?vid=78b16770-e981-46b7-97df-8af8364926cc"},"vehicle_type_id":"4","last_reported":1692202068,"current_range_meters":0,"station_id":"ce4bhbh2rcd13ifvqeqg","pricing_plan_id":"free"},{"bike_id":"76296191-f08f-46a3-bfbd-d7064c046ed8","system_id":"levelo_inurba_marseille","lat":43.292663,"lon":5.376389,"is_reserved":false,"is_disabled":false,"rental_uris":{"android":"levelo://app?vid=76296191-f08f-46a3-bfbd-d7064c046ed8","ios":"levelo://app?vid=76296191-f08f-46a3-bfbd-d7064c046ed8"},"vehicle_type_id":"4","last_reported":1692202068,"current_range_meters":26000,"station_id":"ce4bgi12rcd13ifvqb80","pricing_plan_id":"free"},{"bike_id":"a62ef1e0-970d-4278-92ba-06d5c1327648","system_id":"levelo_inurba_marseille","lat":43.298764,"lon":5.388973,"is_reserved":false,"is_disabled":false,"rental_uris":{"android":"levelo://app?vid=a62ef1e0-970d-4278-92ba-06d5c1327648","ios":"levelo://app?vid=a62ef1e0-970d-4278-92ba-06d5c1327648"},"vehicle_type_id":"4","last_reported":1692202068,"current_range_meters":4400,"station_id":"ce4bh392rcd13ifvqdl0","pricing_plan_id":"free"},{"bike_id":"7cf68528-4fba-4827-aa41-bb7fd4007837","system_id":"levelo_inurba_marseille","lat":43.29889,"lon":5.38904,"is_reserved":false,"is_disabled":false,"rental_uris":{"android":"levelo://app?vid=7cf68528-4fba-4827-aa41-bb7fd4007837","ios":"levelo://app?vid=7cf68528-4fba-4827-aa41-bb7fd4007837"},"vehicle_type_id":"4","last_reported":1692202068,"current_range_meters":24800,"station_id":"ce4bh392rcd13ifvqdl0","pricing_plan_id":"free"},{"bike_id":"465a314f-4c04-4ae3-b281-ce1163125fb4","system_id":"levelo_inurba_marseille","lat":43.2989,"lon":5.38907,"is_reserved":false,"is_disabled":false,"rental_uris":{"android":"levelo://app?vid=465a314f-4c04-4ae3-b281-ce1163125fb4","ios":"levelo://app?vid=465a314f-4c04-4ae3-b281-ce1163125fb4"},"vehicle_type_id":"4","last_reported":1692202068,"current_range_meters":21200,"station_id":"ce4bh392rcd13ifvqdl0","pricing_plan_id":"free"},{"bike_id":"c7640e2f-8e7a-4a51-87a1-bb721f0f41fe","system_id":"levelo_inurba_marseille","lat":43.29883,"lon":5.38907,"is_reserved":false,"is_disabled":false,"rental_uris":{"android":"levelo://app?vid=c7640e2f-8e7a-4a51-87a1-bb721f0f41fe","ios":"levelo://app?vid=c7640e2f-8e7a-4a51-87a1-bb721f0f41fe"},"vehicle_type_id":"4","last_reported":1692202068,"current_range_meters":4800,"station_id":"ce4bh392rcd13ifvqdl0","pricing_plan_id":"free"},{"bike_id":"d978de92-93bf-40a7-b0a8-f24d447aef32","system_id":"levelo_inurba_marseille","lat":43.29164,"lon":5.37154,"is_reserved":false,"is_disabled":false,"rental_uris":{"android":"levelo://app?vid=d978de92-93bf-40a7-b0a8-f24d447aef32","ios":"levelo://app?vid=d978de92-93bf-40a7-b0a8-f24d447aef32"},"vehicle_type_id":"4","last_reported":1692202068,"current_range_meters":2000,"station_id":"ce4bha92rcd13ifvqeh0","pricing_plan_id":"free"},{"bike_id":"e4547cf9-835a-4a91-a340-1a75366ab656","system_id":"levelo_inurba_marseille","lat":43.298764,"lon":5.388973,"is_reserved":false,"is_disabled":false,"rental_uris":{"android":"levelo://app?vid=e4547cf9-835a-4a91-a340-1a75366ab656","ios":"levelo://app?vid=e4547cf9-835a-4a91-a340-1a75366ab656"},"vehicle_type_id":"4","last_reported":1692202068,"current_range_meters":2400,"station_id":"ce4bh392rcd13ifvqdl0","pricing_plan_id":"free"},{"bike_id":"8d58ecec-a9c9-4557-8a32-9309f89288b7","system_id":"levelo_inurba_marseille","lat":43.29197,"lon":5.35796,"is_reserved":false,"is_disabled":false,"rental_uris":{"android":"levelo://app?vid=8d58ecec-a9c9-4557-8a32-9309f89288b7","ios":"levelo://app?vid=8d58ecec-a9c9-4557-8a32-9309f89288b7"},"vehicle_type_id":"4","last_reported":1692202068,"current_range_meters":15600,"station_id":"ce4bhb12rcd13ifvqel0","pricing_plan_id":"free"},{"bike_id":"00db7f7b-67a2-46d1-991e-ef9566c11aac","system_id":"levelo_inurba_marseille","lat":43.313291,"lon":5.396838,"is_reserved":false,"is_disabled":false,"rental_uris":{"android":"levelo://app?vid=00db7f7b-67a2-46d1-991e-ef9566c11aac","ios":"levelo://app?vid=00db7f7b-67a2-46d1-991e-ef9566c11aac"},"vehicle_type_id":"4","last_reported":1692202068,"current_range_meters":7600,"station_id":"ce4bgvp2rcd13ifvqcu0","pricing_plan_id":"free"},{"bike_id":"56f4c0e9-fc60-4f46-bfa9-1896caec5ed9","system_id":"levelo_inurba_marseille","lat":43.313291,"lon":5.396838,"is_reserved":false,"is_disabled":false,"rental_uris":{"android":"levelo://app?vid=56f4c0e9-fc60-4f46-bfa9-1896caec5ed9","ios":"levelo://app?vid=56f4c0e9-fc60-4f46-bfa9-1896caec5ed9"},"vehicle_type_id":"4","last_reported":1692202068,"current_range_meters":22400,"station_id":"ce4bgvp2rcd13ifvqcu0","pricing_plan_id":"free"},{"bike_id":"f6406ab3-9046-4091-9dd1-d940ef51e0c3","system_id":"levelo_inurba_marseille","lat":43.30889,"lon":5.39654,"is_reserved":false,"is_disabled":false,"rental_uris":{"android":"levelo://app?vid=f6406ab3-9046-4091-9dd1-d940ef51e0c3","ios":"levelo://app?vid=f6406ab3-9046-4091-9dd1-d940ef51e0c3"},"vehicle_type_id":"4","last_reported":1692202068,"current_range_meters":15200,"station_id":"ce4bh012rcd13ifvqcv0","pricing_plan_id":"free"},{"bike_id":"52acfd84-92ac-4ad4-8075-49c9ffe52270","system_id":"levelo_inurba_marseille","lat":43.309038,"lon":5.396546,"is_reserved":false,"is_disabled":false,"rental_uris":{"android":"levelo://app?vid=52acfd84-92ac-4ad4-8075-49c9ffe52270","ios":"levelo://app?vid=52acfd84-92ac-4ad4-8075-49c9ffe52270"},"vehicle_type_id":"4","last_reported":1692202068,"current_range_meters":14800,"station_id":"ce4bh012rcd13ifvqcv0","pricing_plan_id":"free"},{"bike_id":"af4069ac-59c2-487d-bf35-72c658bfa5e2","system_id":"levelo_inurba_marseille","lat":43.29529,"lon":5.385581,"is_reserved":false,"is_disabled":false,"rental_uris":{"android":"levelo://app?vid=af4069ac-59c2-487d-bf35-72c658bfa5e2","ios":"levelo://app?vid=af4069ac-59c2-487d-bf35-72c658bfa5e2"},"vehicle_type_id":"4","last_reported":1692202068,"current_range_meters":2000,"station_id":"ce4bgih2rcd13ifvqba0","pricing_plan_id":"free"},{"bike_id":"d10c08aa-10ed-4488-9e28-4a50b2775d1c","system_id":"levelo_inurba_marseille","lat":43.29529,"lon":5.385581,"is_reserved":false,"is_disabled":false,"rental_uris":{"android":"levelo://app?vid=d10c08aa-10ed-4488-9e28-4a50b2775d1c","ios":"levelo://app?vid=d10c08aa-10ed-4488-9e28-4a50b2775d1c"},"vehicle_type_id":"4","last_reported":1692202068,"current_range_meters":5200,"station_id":"ce4bgih2rcd13ifvqba0","pricing_plan_id":"free"},{"bike_id":"ac31f563-d50d-4783-b9d3-87f7ddda0fc8","system_id":"levelo_inurba_marseille","lat":43.29529,"lon":5.385581,"is_reserved":false,"is_disabled":false,"rental_uris":{"android":"levelo://app?vid=ac31f563-d50d-4783-b9d3-87f7ddda0fc8","ios":"levelo://app?vid=ac31f563-d50d-4783-b9d3-87f7ddda0fc8"},"vehicle_type_id":"4","last_reported":1692202068,"current_range_meters":19600,"station_id":"ce4bgih2rcd13ifvqba0","pricing_plan_id":"free"},{"bike_id":"4d64d63a-49f6-4a3a-b070-399036edeadd","system_id":"levelo_inurba_marseille","lat":43.290779,"lon":5.371482,"is_reserved":false,"is_disabled":false,"rental_uris":{"android":"levelo://app?vid=4d64d63a-49f6-4a3a-b070-399036edeadd","ios":"levelo://app?vid=4d64d63a-49f6-4a3a-b070-399036edeadd"},"vehicle_type_id":"4","last_reported":1692202068,"current_range_meters":20400,"station_id":"ce4bh5p2rcd13ifvqe4g","pricing_plan_id":"free"},{"bike_id":"9657b2cb-e3ce-4f9a-9432-7a5ecedd1b64","system_id":"levelo_inurba_marseille","lat":43.29044,"lon":5.35905,"is_reserved":false,"is_disabled":false,"rental_uris":{"android":"levelo://app?vid=9657b2cb-e3ce-4f9a-9432-7a5ecedd1b64","ios":"levelo://app?vid=9657b2cb-e3ce-4f9a-9432-7a5ecedd1b64"},"vehicle_type_id":"4","last_reported":1692202068,"current_range_meters":13200,"station_id":"ce4bha92rcd13ifvqeg0","pricing_plan_id":"free"},{"bike_id":"57fd59b6-6695-4b8d-959f-d972b79dcdfa","system_id":"levelo_inurba_marseille","lat":43.29423,"lon":5.38613,"is_reserved":false,"is_disabled":false,"rental_uris":{"android":"levelo://app?vid=57fd59b6-6695-4b8d-959f-d972b79dcdfa","ios":"levelo://app?vid=57fd59b6-6695-4b8d-959f-d972b79dcdfa"},"vehicle_type_id":"4","last_reported":1692202068,"current_range_meters":14800,"station_id":"ce4bh2h2rcd13ifvqdh0","pricing_plan_id":"free"},{"bike_id":"262d3db9-a6c7-46f0-86d5-9f2625d8524d","system_id":"levelo_inurba_marseille","lat":43.29419,"lon":5.38614,"is_reserved":false,"is_disabled":false,"rental_uris":{"android":"levelo://app?vid=262d3db9-a6c7-46f0-86d5-9f2625d8524d","ios":"levelo://app?vid=262d3db9-a6c7-46f0-86d5-9f2625d8524d"},"vehicle_type_id":"4","last_reported":1692202068,"current_range_meters":6000,"station_id":"ce4bh2h2rcd13ifvqdh0","pricing_plan_id":"free"},{"bike_id":"dd115cfe-aa96-4436-b7d9-4dc78601aba8","system_id":"levelo_inurba_marseille","lat":43.29419,"lon":5.38617,"is_reserved":false,"is_disabled":false,"rental_uris":{"android":"levelo://app?vid=dd115cfe-aa96-4436-b7d9-4dc78601aba8","ios":"levelo://app?vid=dd115cfe-aa96-4436-b7d9-4dc78601aba8"},"vehicle_type_id":"4","last_reported":1692202068,"current_range_meters":20400,"station_id":"ce4bh2h2rcd13ifvqdh0","pricing_plan_id":"free"},{"bike_id":"8eb07116-19f5-49a3-b526-7d19ca9ebd73","system_id":"levelo_inurba_marseille","lat":43.289184,"lon":5.366408,"is_reserved":false,"is_disabled":false,"rental_uris":{"android":"levelo://app?vid=8eb07116-19f5-49a3-b526-7d19ca9ebd73","ios":"levelo://app?vid=8eb07116-19f5-49a3-b526-7d19ca9ebd73"},"vehicle_type_id":"4","last_reported":1692202068,"current_range_meters":16400,"station_id":"ce4bhap2rcd13ifvqek0","pricing_plan_id":"free"},{"bike_id":"ce806d90-30c0-4231-bd41-b7c2a9a1a517","system_id":"levelo_inurba_marseille","lat":43.289184,"lon":5.366408,"is_reserved":false,"is_disabled":false,"rental_uris":{"android":"levelo://app?vid=ce806d90-30c0-4231-bd41-b7c2a9a1a517","ios":"levelo://app?vid=ce806d90-30c0-4231-bd41-b7c2a9a1a517"},"vehicle_type_id":"4","last_reported":1692202068,"current_range_meters":29600,"station_id":"ce4bhap2rcd13ifvqek0","pricing_plan_id":"free"},{"bike_id":"cbfb4ced-ef77-444e-9c61-9fb11801ef26","system_id":"levelo_inurba_marseille","lat":43.304296,"lon":5.397513,"is_reserved":false,"is_disabled":false,"rental_uris":{"android":"levelo://app?vid=cbfb4ced-ef77-444e-9c61-9fb11801ef26","ios":"levelo://app?vid=cbfb4ced-ef77-444e-9c61-9fb11801ef26"},"vehicle_type_id":"4","last_reported":1692202068,"current_range_meters":3600,"station_id":"ce4bh092rcd13ifvqd20","pricing_plan_id":"free"},{"bike_id":"46653832-a9a9-4768-a9ab-21470a076ce6","system_id":"levelo_inurba_marseille","lat":43.292642,"lon":5.384254,"is_reserved":false,"is_disabled":false,"rental_uris":{"android":"levelo://app?vid=46653832-a9a9-4768-a9ab-21470a076ce6","ios":"levelo://app?vid=46653832-a9a9-4768-a9ab-21470a076ce6"},"vehicle_type_id":"4","last_reported":1692202068,"current_range_meters":28400,"station_id":"ce4bh692rcd13ifvqea0","pricing_plan_id":"free"},{"bike_id":"053a5c29-7162-4f11-adfa-974414607169","system_id":"levelo_inurba_marseille","lat":43.292644,"lon":5.384257,"is_reserved":false,"is_disabled":false,"rental_uris":{"android":"levelo://app?vid=053a5c29-7162-4f11-adfa-974414607169","ios":"levelo://app?vid=053a5c29-7162-4f11-adfa-974414607169"},"vehicle_type_id":"4","last_reported":1692202068,"current_range_meters":8800,"station_id":"ce4bh692rcd13ifvqea0","pricing_plan_id":"free"},{"bike_id":"e06fa3ed-b30a-4d68-af8c-6c39e3057fbf","system_id":"levelo_inurba_marseille","lat":43.290103,"lon":5.356114,"is_reserved":false,"is_disabled":false,"rental_uris":{"android":"levelo://app?vid=e06fa3ed-b30a-4d68-af8c-6c39e3057fbf","ios":"levelo://app?vid=e06fa3ed-b30a-4d68-af8c-6c39e3057fbf"},"vehicle_type_id":"4","last_reported":1692202068,"current_range_meters":22000,"station_id":"ce4bhb92rcd13ifvqen0","pricing_plan_id":"free"},{"bike_id":"96ead541-9c33-4112-927f-93c74ea92183","system_id":"levelo_inurba_marseille","lat":43.33041,"lon":5.38918,"is_reserved":false,"is_disabled":false,"rental_uris":{"android":"levelo://app?vid=96ead541-9c33-4112-927f-93c74ea92183","ios":"levelo://app?vid=96ead541-9c33-4112-927f-93c74ea92183"},"vehicle_type_id":"4","last_reported":1692202068,"current_range_meters":29600,"station_id":"ce4bhr92rcd13ifvqhrg","pricing_plan_id":"free"},{"bike_id":"859ece1b-eaf2-4429-915d-1d151e169e7f","system_id":"levelo_inurba_marseille","lat":43.33039,"lon":5.38922,"is_reserved":false,"is_disabled":false,"rental_uris":{"android":"levelo://app?vid=859ece1b-eaf2-4429-915d-1d151e169e7f","ios":"levelo://app?vid=859ece1b-eaf2-4429-915d-1d151e169e7f"},"vehicle_type_id":"4","last_reported":1692202068,"current_range_meters":18800,"station_id":"ce4bhr92rcd13ifvqhrg","pricing_plan_id":"free"},{"bike_id":"fa076e56-c4e4-481e-9547-eae6acb509a4","system_id":"levelo_inurba_marseille","lat":43.33043,"lon":5.38917,"is_reserved":false,"is_disabled":false,"rental_uris":{"android":"levelo://app?vid=fa076e56-c4e4-481e-9547-eae6acb509a4","ios":"levelo://app?vid=fa076e56-c4e4-481e-9547-eae6acb509a4"},"vehicle_type_id":"4","last_reported":1692202068,"current_range_meters":4800,"station_id":"ce4bhr92rcd13ifvqhrg","pricing_plan_id":"free"},{"bike_id":"2f0a0ac7-6e1a-4328-a504-4e02f95ee392","system_id":"levelo_inurba_marseille","lat":43.33042,"lon":5.38919,"is_reserved":false,"is_disabled":false,"rental_uris":{"android":"levelo://app?vid=2f0a0ac7-6e1a-4328-a504-4e02f95ee392","ios":"levelo://app?vid=2f0a0ac7-6e1a-4328-a504-4e02f95ee392"},"vehicle_type_id":"4","last_reported":1692202068,"current_range_meters":21600,"station_id":"ce4bhr92rcd13ifvqhrg","pricing_plan_id":"free"},{"bike_id":"dd63075f-b9f7-4560-b11b-2a0a23c150b7","system_id":"levelo_inurba_marseille","lat":43.290103,"lon":5.356114,"is_reserved":false,"is_disabled":false,"rental_uris":{"android":"levelo://app?vid=dd63075f-b9f7-4560-b11b-2a0a23c150b7","ios":"levelo://app?vid=dd63075f-b9f7-4560-b11b-2a0a23c150b7"},"vehicle_type_id":"4","last_reported":1692202068,"current_range_meters":30000,"station_id":"ce4bhb92rcd13ifvqen0","pricing_plan_id":"free"},{"bike_id":"454b0b4f-dc87-4e03-ac2a-cf0617f16bff","system_id":"levelo_inurba_marseille","lat":43.33042,"lon":5.3892,"is_reserved":false,"is_disabled":false,"rental_uris":{"android":"levelo://app?vid=454b0b4f-dc87-4e03-ac2a-cf0617f16bff","ios":"levelo://app?vid=454b0b4f-dc87-4e03-ac2a-cf0617f16bff"},"vehicle_type_id":"4","last_reported":1692202068,"current_range_meters":13200,"station_id":"ce4bhr92rcd13ifvqhrg","pricing_plan_id":"free"},{"bike_id":"e184d9f0-8163-4a17-b3ea-e9518599abc7","system_id":"levelo_inurba_marseille","lat":43.33044,"lon":5.38917,"is_reserved":false,"is_disabled":false,"rental_uris":{"android":"levelo://app?vid=e184d9f0-8163-4a17-b3ea-e9518599abc7","ios":"levelo://app?vid=e184d9f0-8163-4a17-b3ea-e9518599abc7"},"vehicle_type_id":"4","last_reported":1692202068,"current_range_meters":25600,"station_id":"ce4bhr92rcd13ifvqhrg","pricing_plan_id":"free"},{"bike_id":"dd21e30f-6b3c-40b1-93a3-88d9dc314e71","system_id":"levelo_inurba_marseille","lat":43.290103,"lon":5.356114,"is_reserved":false,"is_disabled":false,"rental_uris":{"android":"levelo://app?vid=dd21e30f-6b3c-40b1-93a3-88d9dc314e71","ios":"levelo://app?vid=dd21e30f-6b3c-40b1-93a3-88d9dc314e71"},"vehicle_type_id":"4","last_reported":1692202068,"current_range_meters":31200,"station_id":"ce4bhb92rcd13ifvqen0","pricing_plan_id":"free"},{"bike_id":"01bb66e8-6fc1-4982-b9b2-af4dae23e37f","system_id":"levelo_inurba_marseille","lat":43.33041,"lon":5.38922,"is_reserved":false,"is_disabled":false,"rental_uris":{"android":"levelo://app?vid=01bb66e8-6fc1-4982-b9b2-af4dae23e37f","ios":"levelo://app?vid=01bb66e8-6fc1-4982-b9b2-af4dae23e37f"},"vehicle_type_id":"4","last_reported":1692202068,"current_range_meters":23600,"station_id":"ce4bhr92rcd13ifvqhrg","pricing_plan_id":"free"},{"bike_id":"75899b3c-8cc6-4cac-9d71-50fdae7076ff","system_id":"levelo_inurba_marseille","lat":43.290103,"lon":5.356114,"is_reserved":false,"is_disabled":false,"rental_uris":{"android":"levelo://app?vid=75899b3c-8cc6-4cac-9d71-50fdae7076ff","ios":"levelo://app?vid=75899b3c-8cc6-4cac-9d71-50fdae7076ff"},"vehicle_type_id":"4","last_reported":1692202068,"current_range_meters":19200,"station_id":"ce4bhb92rcd13ifvqen0","pricing_plan_id":"free"},{"bike_id":"fb75b0dc-b7ef-4c5d-9fff-ba63e9728994","system_id":"levelo_inurba_marseille","lat":43.33044,"lon":5.38918,"is_reserved":false,"is_disabled":false,"rental_uris":{"android":"levelo://app?vid=fb75b0dc-b7ef-4c5d-9fff-ba63e9728994","ios":"levelo://app?vid=fb75b0dc-b7ef-4c5d-9fff-ba63e9728994"},"vehicle_type_id":"4","last_reported":1692202068,"current_range_meters":16800,"station_id":"ce4bhr92rcd13ifvqhrg","pricing_plan_id":"free"},{"bike_id":"143c4cde-a9c3-49be-9246-bd3440416cf3","system_id":"levelo_inurba_marseille","lat":43.29007,"lon":5.35615,"is_reserved":false,"is_disabled":false,"rental_uris":{"android":"levelo://app?vid=143c4cde-a9c3-49be-9246-bd3440416cf3","ios":"levelo://app?vid=143c4cde-a9c3-49be-9246-bd3440416cf3"},"vehicle_type_id":"4","last_reported":1692202068,"current_range_meters":24000,"station_id":"ce4bhb92rcd13ifvqen0","pricing_plan_id":"free"},{"bike_id":"75001701-ed95-4c4f-ae0f-256296c20192","system_id":"levelo_inurba_marseille","lat":43.33045,"lon":5.38918,"is_reserved":false,"is_disabled":false,"rental_uris":{"android":"levelo://app?vid=75001701-ed95-4c4f-ae0f-256296c20192","ios":"levelo://app?vid=75001701-ed95-4c4f-ae0f-256296c20192"},"vehicle_type_id":"4","last_reported":1692202068,"current_range_meters":4400,"station_id":"ce4bhr92rcd13ifvqhrg","pricing_plan_id":"free"},{"bike_id":"ca420c02-7b3c-4340-963d-964224bd400d","system_id":"levelo_inurba_marseille","lat":43.33044,"lon":5.3892,"is_reserved":false,"is_disabled":false,"rental_uris":{"android":"levelo://app?vid=ca420c02-7b3c-4340-963d-964224bd400d","ios":"levelo://app?vid=ca420c02-7b3c-4340-963d-964224bd400d"},"vehicle_type_id":"4","last_reported":1692202068,"current_range_meters":24800,"station_id":"ce4bhr92rcd13ifvqhrg","pricing_plan_id":"free"},{"bike_id":"30c95313-0de5-4c2d-b7df-94c0baf7bb50","system_id":"levelo_inurba_marseille","lat":43.29005,"lon":5.35619,"is_reserved":false,"is_disabled":false,"rental_uris":{"android":"levelo://app?vid=30c95313-0de5-4c2d-b7df-94c0baf7bb50","ios":"levelo://app?vid=30c95313-0de5-4c2d-b7df-94c0baf7bb50"},"vehicle_type_id":"4","last_reported":1692202068,"current_range_meters":22800,"station_id":"ce4bhb92rcd13ifvqen0","pricing_plan_id":"free"},{"bike_id":"8ae0ce58-4162-4719-947c-e47cc63be26c","system_id":"levelo_inurba_marseille","lat":43.33046,"lon":5.38917,"is_reserved":false,"is_disabled":false,"rental_uris":{"android":"levelo://app?vid=8ae0ce58-4162-4719-947c-e47cc63be26c","ios":"levelo://app?vid=8ae0ce58-4162-4719-947c-e47cc63be26c"},"vehicle_type_id":"4","last_reported":1692202068,"current_range_meters":27600,"station_id":"ce4bhr92rcd13ifvqhrg","pricing_plan_id":"free"},{"bike_id":"0d302d25-5671-441b-8782-a8016324549b","system_id":"levelo_inurba_marseille","lat":43.29007,"lon":5.35611,"is_reserved":false,"is_disabled":false,"rental_uris":{"android":"levelo://app?vid=0d302d25-5671-441b-8782-a8016324549b","ios":"levelo://app?vid=0d302d25-5671-441b-8782-a8016324549b"},"vehicle_type_id":"4","last_reported":1692202068,"current_range_meters":0,"station_id":"ce4bhb92rcd13ifvqen0","pricing_plan_id":"free"},{"bike_id":"78f1a325-e5b4-4a72-bb0e-b29d3285ba24","system_id":"levelo_inurba_marseille","lat":43.290104,"lon":5.356111,"is_reserved":false,"is_disabled":false,"rental_uris":{"android":"levelo://app?vid=78f1a325-e5b4-4a72-bb0e-b29d3285ba24","ios":"levelo://app?vid=78f1a325-e5b4-4a72-bb0e-b29d3285ba24"},"vehicle_type_id":"4","last_reported":1692202068,"current_range_meters":31200,"station_id":"ce4bhb92rcd13ifvqen0","pricing_plan_id":"free"},{"bike_id":"52172462-74db-474f-9d0a-cda42a7e3797","system_id":"levelo_inurba_marseille","lat":43.290103,"lon":5.356114,"is_reserved":false,"is_disabled":false,"rental_uris":{"android":"levelo://app?vid=52172462-74db-474f-9d0a-cda42a7e3797","ios":"levelo://app?vid=52172462-74db-474f-9d0a-cda42a7e3797"},"vehicle_type_id":"4","last_reported":1692202068,"current_range_meters":19600,"station_id":"ce4bhb92rcd13ifvqen0","pricing_plan_id":"free"},{"bike_id":"3705f4f1-e049-4483-8652-da204880a34d","system_id":"levelo_inurba_marseille","lat":43.29007,"lon":5.3561,"is_reserved":false,"is_disabled":false,"rental_uris":{"android":"levelo://app?vid=3705f4f1-e049-4483-8652-da204880a34d","ios":"levelo://app?vid=3705f4f1-e049-4483-8652-da204880a34d"},"vehicle_type_id":"4","last_reported":1692202068,"current_range_meters":18400,"station_id":"ce4bhb92rcd13ifvqen0","pricing_plan_id":"free"},{"bike_id":"be005e4f-d207-40fd-bd99-241d744b2797","system_id":"levelo_inurba_marseille","lat":43.33044,"lon":5.38922,"is_reserved":false,"is_disabled":false,"rental_uris":{"android":"levelo://app?vid=be005e4f-d207-40fd-bd99-241d744b2797","ios":"levelo://app?vid=be005e4f-d207-40fd-bd99-241d744b2797"},"vehicle_type_id":"4","last_reported":1692202068,"current_range_meters":16400,"station_id":"ce4bhr92rcd13ifvqhrg","pricing_plan_id":"free"},{"bike_id":"569fb482-04ac-449f-b013-337617dfb7a0","system_id":"levelo_inurba_marseille","lat":43.33046,"lon":5.38919,"is_reserved":false,"is_disabled":false,"rental_uris":{"android":"levelo://app?vid=569fb482-04ac-449f-b013-337617dfb7a0","ios":"levelo://app?vid=569fb482-04ac-449f-b013-337617dfb7a0"},"vehicle_type_id":"4","last_reported":1692202068,"current_range_meters":21200,"station_id":"ce4bhr92rcd13ifvqhrg","pricing_plan_id":"free"},{"bike_id":"4bfc2d32-2e35-4e49-bf37-a82a235a0d3d","system_id":"levelo_inurba_marseille","lat":43.29005,"lon":5.35614,"is_reserved":false,"is_disabled":false,"rental_uris":{"android":"levelo://app?vid=4bfc2d32-2e35-4e49-bf37-a82a235a0d3d","ios":"levelo://app?vid=4bfc2d32-2e35-4e49-bf37-a82a235a0d3d"},"vehicle_type_id":"4","last_reported":1692202068,"current_range_meters":31200,"station_id":"ce4bhb92rcd13ifvqen0","pricing_plan_id":"free"},{"bike_id":"7e39f847-aeae-4957-b11d-42b99eee26f2","system_id":"levelo_inurba_marseille","lat":43.290995,"lon":5.381361,"is_reserved":false,"is_disabled":false,"rental_uris":{"android":"levelo://app?vid=7e39f847-aeae-4957-b11d-42b99eee26f2","ios":"levelo://app?vid=7e39f847-aeae-4957-b11d-42b99eee26f2"},"vehicle_type_id":"4","last_reported":1692202068,"current_range_meters":19600,"station_id":"ce4bh512rcd13ifvqe2g","pricing_plan_id":"free"},{"bike_id":"d5578a77-3302-4d8a-ae9c-7edceb0f071e","system_id":"levelo_inurba_marseille","lat":43.33045,"lon":5.38926,"is_reserved":false,"is_disabled":false,"rental_uris":{"android":"levelo://app?vid=d5578a77-3302-4d8a-ae9c-7edceb0f071e","ios":"levelo://app?vid=d5578a77-3302-4d8a-ae9c-7edceb0f071e"},"vehicle_type_id":"4","last_reported":1692202068,"current_range_meters":25200,"station_id":"ce4bhr92rcd13ifvqhrg","pricing_plan_id":"free"},{"bike_id":"ed551bf1-fcd9-441c-887b-7c48c5f42aed","system_id":"levelo_inurba_marseille","lat":43.29107,"lon":5.38123,"is_reserved":false,"is_disabled":false,"rental_uris":{"android":"levelo://app?vid=ed551bf1-fcd9-441c-887b-7c48c5f42aed","ios":"levelo://app?vid=ed551bf1-fcd9-441c-887b-7c48c5f42aed"},"vehicle_type_id":"4","last_reported":1692202068,"current_range_meters":1200,"station_id":"","pricing_plan_id":"free"},{"bike_id":"288630a7-9e1f-45bc-b46d-d518d08b5190","system_id":"levelo_inurba_marseille","lat":43.290995,"lon":5.381361,"is_reserved":false,"is_disabled":false,"rental_uris":{"android":"levelo://app?vid=288630a7-9e1f-45bc-b46d-d518d08b5190","ios":"levelo://app?vid=288630a7-9e1f-45bc-b46d-d518d08b5190"},"vehicle_type_id":"4","last_reported":1692202068,"current_range_meters":27600,"station_id":"ce4bh512rcd13ifvqe2g","pricing_plan_id":"free"},{"bike_id":"3a05b2f0-38d3-4584-9476-34718ad61599","system_id":"levelo_inurba_marseille","lat":43.290995,"lon":5.381361,"is_reserved":false,"is_disabled":false,"rental_uris":{"android":"levelo://app?vid=3a05b2f0-38d3-4584-9476-34718ad61599","ios":"levelo://app?vid=3a05b2f0-38d3-4584-9476-34718ad61599"},"vehicle_type_id":"4","last_reported":1692202068,"current_range_meters":16000,"station_id":"ce4bh512rcd13ifvqe2g","pricing_plan_id":"free"},{"bike_id":"641af8c1-1076-4253-a5ab-08a97a75e250","system_id":"levelo_inurba_marseille","lat":43.290995,"lon":5.381361,"is_reserved":false,"is_disabled":false,"rental_uris":{"android":"levelo://app?vid=641af8c1-1076-4253-a5ab-08a97a75e250","ios":"levelo://app?vid=641af8c1-1076-4253-a5ab-08a97a75e250"},"vehicle_type_id":"4","last_reported":1692202068,"current_range_meters":0,"station_id":"ce4bh512rcd13ifvqe2g","pricing_plan_id":"free"},{"bike_id":"f17cd8e4-1576-4fb5-9757-bc550bf0cc0a","system_id":"levelo_inurba_marseille","lat":43.295169,"lon":5.390426,"is_reserved":false,"is_disabled":false,"rental_uris":{"android":"levelo://app?vid=f17cd8e4-1576-4fb5-9757-bc550bf0cc0a","ios":"levelo://app?vid=f17cd8e4-1576-4fb5-9757-bc550bf0cc0a"},"vehicle_type_id":"4","last_reported":1692202068,"current_range_meters":17600,"station_id":"ce4bh3p2rcd13ifvqdp0","pricing_plan_id":"free"},{"bike_id":"dc866d56-a5a4-4ece-9046-a968893f9a9e","system_id":"levelo_inurba_marseille","lat":43.295169,"lon":5.390426,"is_reserved":false,"is_disabled":false,"rental_uris":{"android":"levelo://app?vid=dc866d56-a5a4-4ece-9046-a968893f9a9e","ios":"levelo://app?vid=dc866d56-a5a4-4ece-9046-a968893f9a9e"},"vehicle_type_id":"4","last_reported":1692202068,"current_range_meters":23600,"station_id":"ce4bh3p2rcd13ifvqdp0","pricing_plan_id":"free"},{"bike_id":"bc077e4d-1c7e-4223-b124-07d9d3d1b670","system_id":"levelo_inurba_marseille","lat":43.28856,"lon":5.358371,"is_reserved":false,"is_disabled":false,"rental_uris":{"android":"levelo://app?vid=bc077e4d-1c7e-4223-b124-07d9d3d1b670","ios":"levelo://app?vid=bc077e4d-1c7e-4223-b124-07d9d3d1b670"},"vehicle_type_id":"4","last_reported":1692202068,"current_range_meters":0,"station_id":"ce4bhb12rcd13ifvqem0","pricing_plan_id":"free"},{"bike_id":"fb073dcc-9cc5-4265-9738-20cd5e1df19b","system_id":"levelo_inurba_marseille","lat":43.28856,"lon":5.358371,"is_reserved":false,"is_disabled":false,"rental_uris":{"android":"levelo://app?vid=fb073dcc-9cc5-4265-9738-20cd5e1df19b","ios":"levelo://app?vid=fb073dcc-9cc5-4265-9738-20cd5e1df19b"},"vehicle_type_id":"4","last_reported":1692202068,"current_range_meters":30800,"station_id":"ce4bhb12rcd13ifvqem0","pricing_plan_id":"free"},{"bike_id":"9e009048-f939-4b3b-af03-e577dfdbb4d4","system_id":"levelo_inurba_marseille","lat":43.312609,"lon":5.401662,"is_reserved":false,"is_disabled":false,"rental_uris":{"android":"levelo://app?vid=9e009048-f939-4b3b-af03-e577dfdbb4d4","ios":"levelo://app?vid=9e009048-f939-4b3b-af03-e577dfdbb4d4"},"vehicle_type_id":"4","last_reported":1692202068,"current_range_meters":10400,"station_id":"ce4bh092rcd13ifvqd30","pricing_plan_id":"free"},{"bike_id":"1435b356-1c3a-4bed-96ad-ded51c081340","system_id":"levelo_inurba_marseille","lat":43.33748,"lon":5.37467,"is_reserved":false,"is_disabled":false,"rental_uris":{"android":"levelo://app?vid=1435b356-1c3a-4bed-96ad-ded51c081340","ios":"levelo://app?vid=1435b356-1c3a-4bed-96ad-ded51c081340"},"vehicle_type_id":"4","last_reported":1692202068,"current_range_meters":27200,"station_id":"","pricing_plan_id":"free"},{"bike_id":"6e755711-35d0-494f-b6de-5b640aedb278","system_id":"levelo_inurba_marseille","lat":43.30653,"lon":5.40096,"is_reserved":false,"is_disabled":false,"rental_uris":{"android":"levelo://app?vid=6e755711-35d0-494f-b6de-5b640aedb278","ios":"levelo://app?vid=6e755711-35d0-494f-b6de-5b640aedb278"},"vehicle_type_id":"4","last_reported":1692202068,"current_range_meters":15200,"station_id":"ce4bh112rcd13ifvqda0","pricing_plan_id":"free"},{"bike_id":"45855abc-7e17-4b52-82de-e1f25f0a6a64","system_id":"levelo_inurba_marseille","lat":43.33773,"lon":5.37436,"is_reserved":false,"is_disabled":false,"rental_uris":{"android":"levelo://app?vid=45855abc-7e17-4b52-82de-e1f25f0a6a64","ios":"levelo://app?vid=45855abc-7e17-4b52-82de-e1f25f0a6a64"},"vehicle_type_id":"4","last_reported":1692202068,"current_range_meters":9200,"station_id":"","pricing_plan_id":"free"},{"bike_id":"bbd089f1-75c4-496b-b722-fbe1640a7cb7","system_id":"levelo_inurba_marseille","lat":43.33774,"lon":5.37438,"is_reserved":false,"is_disabled":false,"rental_uris":{"android":"levelo://app?vid=bbd089f1-75c4-496b-b722-fbe1640a7cb7","ios":"levelo://app?vid=bbd089f1-75c4-496b-b722-fbe1640a7cb7"},"vehicle_type_id":"4","last_reported":1692202068,"current_range_meters":10000,"station_id":"","pricing_plan_id":"free"},{"bike_id":"5408ff9c-98b0-40b5-a75b-2441f8a186be","system_id":"levelo_inurba_marseille","lat":43.295194,"lon":5.39397,"is_reserved":false,"is_disabled":false,"rental_uris":{"android":"levelo://app?vid=5408ff9c-98b0-40b5-a75b-2441f8a186be","ios":"levelo://app?vid=5408ff9c-98b0-40b5-a75b-2441f8a186be"},"vehicle_type_id":"4","last_reported":1692202068,"current_range_meters":12800,"station_id":"ce4bh292rcd13ifvqdf0","pricing_plan_id":"free"},{"bike_id":"9dbd9579-ca9d-43c0-af40-b13ac0fd6800","system_id":"levelo_inurba_marseille","lat":43.295196,"lon":5.39397,"is_reserved":false,"is_disabled":false,"rental_uris":{"android":"levelo://app?vid=9dbd9579-ca9d-43c0-af40-b13ac0fd6800","ios":"levelo://app?vid=9dbd9579-ca9d-43c0-af40-b13ac0fd6800"},"vehicle_type_id":"4","last_reported":1692202068,"current_range_meters":5600,"station_id":"ce4bh292rcd13ifvqdf0","pricing_plan_id":"free"},{"bike_id":"75199276-b705-4ad7-b6a9-49aeaa84628a","system_id":"levelo_inurba_marseille","lat":43.286591,"lon":5.363346,"is_reserved":false,"is_disabled":false,"rental_uris":{"android":"levelo://app?vid=75199276-b705-4ad7-b6a9-49aeaa84628a","ios":"levelo://app?vid=75199276-b705-4ad7-b6a9-49aeaa84628a"},"vehicle_type_id":"4","last_reported":1692202068,"current_range_meters":31200,"station_id":"ce4bhah2rcd13ifvqej0","pricing_plan_id":"free"},{"bike_id":"41d6733c-f735-4a71-993d-90a71e1b9b46","system_id":"levelo_inurba_marseille","lat":43.286591,"lon":5.363346,"is_reserved":false,"is_disabled":false,"rental_uris":{"android":"levelo://app?vid=41d6733c-f735-4a71-993d-90a71e1b9b46","ios":"levelo://app?vid=41d6733c-f735-4a71-993d-90a71e1b9b46"},"vehicle_type_id":"4","last_reported":1692202068,"current_range_meters":15600,"station_id":"ce4bhah2rcd13ifvqej0","pricing_plan_id":"free"},{"bike_id":"6516a400-f1c9-466d-bd63-a7b5153b0b5e","system_id":"levelo_inurba_marseille","lat":43.295194,"lon":5.39397,"is_reserved":false,"is_disabled":false,"rental_uris":{"android":"levelo://app?vid=6516a400-f1c9-466d-bd63-a7b5153b0b5e","ios":"levelo://app?vid=6516a400-f1c9-466d-bd63-a7b5153b0b5e"},"vehicle_type_id":"4","last_reported":1692202068,"current_range_meters":20000,"station_id":"ce4bh292rcd13ifvqdf0","pricing_plan_id":"free"},{"bike_id":"1f8de527-64a7-46b1-890a-b038d34dc2bb","system_id":"levelo_inurba_marseille","lat":43.29531,"lon":5.394552,"is_reserved":false,"is_disabled":false,"rental_uris":{"android":"levelo://app?vid=1f8de527-64a7-46b1-890a-b038d34dc2bb","ios":"levelo://app?vid=1f8de527-64a7-46b1-890a-b038d34dc2bb"},"vehicle_type_id":"4","last_reported":1692202068,"current_range_meters":21600,"station_id":"","pricing_plan_id":"free"},{"bike_id":"d37479ec-1f87-4a63-a21e-c091abef1b18","system_id":"levelo_inurba_marseille","lat":43.295194,"lon":5.39397,"is_reserved":false,"is_disabled":false,"rental_uris":{"android":"levelo://app?vid=d37479ec-1f87-4a63-a21e-c091abef1b18","ios":"levelo://app?vid=d37479ec-1f87-4a63-a21e-c091abef1b18"},"vehicle_type_id":"4","last_reported":1692202068,"current_range_meters":400,"station_id":"ce4bh292rcd13ifvqdf0","pricing_plan_id":"free"},{"bike_id":"b68858a4-a561-4cf7-99cf-de043fa7c6ad","system_id":"levelo_inurba_marseille","lat":43.302759,"lon":5.400793,"is_reserved":false,"is_disabled":false,"rental_uris":{"android":"levelo://app?vid=b68858a4-a561-4cf7-99cf-de043fa7c6ad","ios":"levelo://app?vid=b68858a4-a561-4cf7-99cf-de043fa7c6ad"},"vehicle_type_id":"4","last_reported":1692202068,"current_range_meters":23600,"station_id":"ce4bgvh2rcd13ifvqcs0","pricing_plan_id":"free"},{"bike_id":"9a116938-6397-4cd0-9608-049db6d1bb91","system_id":"levelo_inurba_marseille","lat":43.30248,"lon":5.40076,"is_reserved":false,"is_disabled":false,"rental_uris":{"android":"levelo://app?vid=9a116938-6397-4cd0-9608-049db6d1bb91","ios":"levelo://app?vid=9a116938-6397-4cd0-9608-049db6d1bb91"},"vehicle_type_id":"4","last_reported":1692202068,"current_range_meters":0,"station_id":"ce4bgvh2rcd13ifvqcs0","pricing_plan_id":"free"},{"bike_id":"474689ee-55a5-452f-95b1-ed00bd7b7d8b","system_id":"levelo_inurba_marseille","lat":43.28607,"lon":5.37066,"is_reserved":false,"is_disabled":false,"rental_uris":{"android":"levelo://app?vid=474689ee-55a5-452f-95b1-ed00bd7b7d8b","ios":"levelo://app?vid=474689ee-55a5-452f-95b1-ed00bd7b7d8b"},"vehicle_type_id":"4","last_reported":1692202068,"current_range_meters":4000,"station_id":"ce4bht12rcd13ifvqi60","pricing_plan_id":"free"},{"bike_id":"6a447cf5-32f8-4edc-8111-88958f922770","system_id":"levelo_inurba_marseille","lat":43.295194,"lon":5.39397,"is_reserved":false,"is_disabled":false,"rental_uris":{"android":"levelo://app?vid=6a447cf5-32f8-4edc-8111-88958f922770","ios":"levelo://app?vid=6a447cf5-32f8-4edc-8111-88958f922770"},"vehicle_type_id":"4","last_reported":1692202068,"current_range_meters":25200,"station_id":"ce4bh292rcd13ifvqdf0","pricing_plan_id":"free"},{"bike_id":"4aebdf6a-5176-46ca-9ddf-24582a418c25","system_id":"levelo_inurba_marseille","lat":43.30244,"lon":5.40122,"is_reserved":false,"is_disabled":false,"rental_uris":{"android":"levelo://app?vid=4aebdf6a-5176-46ca-9ddf-24582a418c25","ios":"levelo://app?vid=4aebdf6a-5176-46ca-9ddf-24582a418c25"},"vehicle_type_id":"4","last_reported":1692202068,"current_range_meters":400,"station_id":"ce4bgvh2rcd13ifvqcs0","pricing_plan_id":"free"},{"bike_id":"c988aeeb-8829-4a19-a420-7c149d6e0ddb","system_id":"levelo_inurba_marseille","lat":43.316517,"lon":5.404375,"is_reserved":false,"is_disabled":false,"rental_uris":{"android":"levelo://app?vid=c988aeeb-8829-4a19-a420-7c149d6e0ddb","ios":"levelo://app?vid=c988aeeb-8829-4a19-a420-7c149d6e0ddb"},"vehicle_type_id":"4","last_reported":1692202068,"current_range_meters":21600,"station_id":"ce4bh012rcd13ifvqd00","pricing_plan_id":"free"},{"bike_id":"74220d3c-4cd6-4230-be8a-c26c4d78ecbf","system_id":"levelo_inurba_marseille","lat":43.31651,"lon":5.40441,"is_reserved":false,"is_disabled":false,"rental_uris":{"android":"levelo://app?vid=74220d3c-4cd6-4230-be8a-c26c4d78ecbf","ios":"levelo://app?vid=74220d3c-4cd6-4230-be8a-c26c4d78ecbf"},"vehicle_type_id":"4","last_reported":1692202068,"current_range_meters":14400,"station_id":"ce4bh012rcd13ifvqd00","pricing_plan_id":"free"},{"bike_id":"83efbe0d-5279-4e79-bde2-ef434252747a","system_id":"levelo_inurba_marseille","lat":43.29201,"lon":5.39322,"is_reserved":false,"is_disabled":false,"rental_uris":{"android":"levelo://app?vid=83efbe0d-5279-4e79-bde2-ef434252747a","ios":"levelo://app?vid=83efbe0d-5279-4e79-bde2-ef434252747a"},"vehicle_type_id":"4","last_reported":1692202068,"current_range_meters":18800,"station_id":"ce4bh192rcd13ifvqdd0","pricing_plan_id":"free"},{"bike_id":"301d478f-6e5a-4cb2-855c-a679c0aeb880","system_id":"levelo_inurba_marseille","lat":43.28622,"lon":5.351,"is_reserved":false,"is_disabled":false,"rental_uris":{"android":"levelo://app?vid=301d478f-6e5a-4cb2-855c-a679c0aeb880","ios":"levelo://app?vid=301d478f-6e5a-4cb2-855c-a679c0aeb880"},"vehicle_type_id":"4","last_reported":1692202068,"current_range_meters":30800,"station_id":"ce4bhch2rcd13ifvqeug","pricing_plan_id":"free"},{"bike_id":"450e3bdd-579c-44ed-a65d-7393590ca232","system_id":"levelo_inurba_marseille","lat":43.28615,"lon":5.351086,"is_reserved":false,"is_disabled":false,"rental_uris":{"android":"levelo://app?vid=450e3bdd-579c-44ed-a65d-7393590ca232","ios":"levelo://app?vid=450e3bdd-579c-44ed-a65d-7393590ca232"},"vehicle_type_id":"4","last_reported":1692202068,"current_range_meters":12400,"station_id":"ce4bhch2rcd13ifvqeug","pricing_plan_id":"free"},{"bike_id":"e81eb7b3-9aeb-4792-aca0-c918b7f93865","system_id":"levelo_inurba_marseille","lat":43.285856,"lon":5.350771,"is_reserved":false,"is_disabled":false,"rental_uris":{"android":"levelo://app?vid=e81eb7b3-9aeb-4792-aca0-c918b7f93865","ios":"levelo://app?vid=e81eb7b3-9aeb-4792-aca0-c918b7f93865"},"vehicle_type_id":"4","last_reported":1692202068,"current_range_meters":24000,"station_id":"ce4bhch2rcd13ifvqeug","pricing_plan_id":"free"},{"bike_id":"acb242bc-329f-44f9-9f83-bcd1a70aef49","system_id":"levelo_inurba_marseille","lat":43.28614,"lon":5.35098,"is_reserved":false,"is_disabled":false,"rental_uris":{"android":"levelo://app?vid=acb242bc-329f-44f9-9f83-bcd1a70aef49","ios":"levelo://app?vid=acb242bc-329f-44f9-9f83-bcd1a70aef49"},"vehicle_type_id":"4","last_reported":1692202068,"current_range_meters":31200,"station_id":"ce4bhch2rcd13ifvqeug","pricing_plan_id":"free"},{"bike_id":"8c7b3a8e-3c8a-468f-9dd3-a956f144f4ec","system_id":"levelo_inurba_marseille","lat":43.286133,"lon":5.351003,"is_reserved":false,"is_disabled":false,"rental_uris":{"android":"levelo://app?vid=8c7b3a8e-3c8a-468f-9dd3-a956f144f4ec","ios":"levelo://app?vid=8c7b3a8e-3c8a-468f-9dd3-a956f144f4ec"},"vehicle_type_id":"4","last_reported":1692202068,"current_range_meters":7600,"station_id":"ce4bhch2rcd13ifvqeug","pricing_plan_id":"free"},{"bike_id":"3ecee97e-3a9b-46c0-b012-3bc1b0d83425","system_id":"levelo_inurba_marseille","lat":43.283998,"lon":5.375062,"is_reserved":false,"is_disabled":false,"rental_uris":{"android":"levelo://app?vid=3ecee97e-3a9b-46c0-b012-3bc1b0d83425","ios":"levelo://app?vid=3ecee97e-3a9b-46c0-b012-3bc1b0d83425"},"vehicle_type_id":"4","last_reported":1692202068,"current_range_meters":6800,"station_id":"ce4bh412rcd13ifvqds0","pricing_plan_id":"free"},{"bike_id":"d4d891bd-d2af-41e9-896e-5f690855b9c0","system_id":"levelo_inurba_marseille","lat":43.295713,"lon":5.399639,"is_reserved":false,"is_disabled":false,"rental_uris":{"android":"levelo://app?vid=d4d891bd-d2af-41e9-896e-5f690855b9c0","ios":"levelo://app?vid=d4d891bd-d2af-41e9-896e-5f690855b9c0"},"vehicle_type_id":"4","last_reported":1692202068,"current_range_meters":17600,"station_id":"ce4bh312rcd13ifvqdj0","pricing_plan_id":"free"},{"bike_id":"853035f7-aa01-43ab-90c6-48d906817dd6","system_id":"levelo_inurba_marseille","lat":43.286595,"lon":5.386795,"is_reserved":false,"is_disabled":false,"rental_uris":{"android":"levelo://app?vid=853035f7-aa01-43ab-90c6-48d906817dd6","ios":"levelo://app?vid=853035f7-aa01-43ab-90c6-48d906817dd6"},"vehicle_type_id":"4","last_reported":1692202068,"current_range_meters":22000,"station_id":"ce4bh492rcd13ifvqdug","pricing_plan_id":"free"},{"bike_id":"7d990ca5-f420-4945-a4a1-a0288a5b26c7","system_id":"levelo_inurba_marseille","lat":43.337168,"lon":5.391825,"is_reserved":false,"is_disabled":false,"rental_uris":{"android":"levelo://app?vid=7d990ca5-f420-4945-a4a1-a0288a5b26c7","ios":"levelo://app?vid=7d990ca5-f420-4945-a4a1-a0288a5b26c7"},"vehicle_type_id":"4","last_reported":1692202068,"current_range_meters":6800,"station_id":"ce4bhr92rcd13ifvqhsg","pricing_plan_id":"free"},{"bike_id":"c7f55b38-f91b-41fb-a480-21b4dec7e541","system_id":"levelo_inurba_marseille","lat":43.33725,"lon":5.39177,"is_reserved":false,"is_disabled":false,"rental_uris":{"android":"levelo://app?vid=c7f55b38-f91b-41fb-a480-21b4dec7e541","ios":"levelo://app?vid=c7f55b38-f91b-41fb-a480-21b4dec7e541"},"vehicle_type_id":"4","last_reported":1692202068,"current_range_meters":20400,"station_id":"ce4bhr92rcd13ifvqhsg","pricing_plan_id":"free"},{"bike_id":"6ed2964b-5392-406b-b9af-45404a2ee5fa","system_id":"levelo_inurba_marseille","lat":43.337168,"lon":5.391825,"is_reserved":false,"is_disabled":false,"rental_uris":{"android":"levelo://app?vid=6ed2964b-5392-406b-b9af-45404a2ee5fa","ios":"levelo://app?vid=6ed2964b-5392-406b-b9af-45404a2ee5fa"},"vehicle_type_id":"4","last_reported":1692202068,"current_range_meters":26000,"station_id":"ce4bhr92rcd13ifvqhsg","pricing_plan_id":"free"},{"bike_id":"3418df2e-6699-4bed-91a2-b25e9f32f724","system_id":"levelo_inurba_marseille","lat":43.33724,"lon":5.39183,"is_reserved":false,"is_disabled":false,"rental_uris":{"android":"levelo://app?vid=3418df2e-6699-4bed-91a2-b25e9f32f724","ios":"levelo://app?vid=3418df2e-6699-4bed-91a2-b25e9f32f724"},"vehicle_type_id":"4","last_reported":1692202068,"current_range_meters":17600,"station_id":"ce4bhr92rcd13ifvqhsg","pricing_plan_id":"free"},{"bike_id":"5998f81c-1eca-456a-a4d5-b95c154b11b7","system_id":"levelo_inurba_marseille","lat":43.337168,"lon":5.391825,"is_reserved":false,"is_disabled":false,"rental_uris":{"android":"levelo://app?vid=5998f81c-1eca-456a-a4d5-b95c154b11b7","ios":"levelo://app?vid=5998f81c-1eca-456a-a4d5-b95c154b11b7"},"vehicle_type_id":"4","last_reported":1692202068,"current_range_meters":24400,"station_id":"ce4bhr92rcd13ifvqhsg","pricing_plan_id":"free"},{"bike_id":"6a16d4f0-1bee-4a48-8250-841c97df9d59","system_id":"levelo_inurba_marseille","lat":43.33726,"lon":5.39181,"is_reserved":false,"is_disabled":false,"rental_uris":{"android":"levelo://app?vid=6a16d4f0-1bee-4a48-8250-841c97df9d59","ios":"levelo://app?vid=6a16d4f0-1bee-4a48-8250-841c97df9d59"},"vehicle_type_id":"4","last_reported":1692202068,"current_range_meters":23200,"station_id":"ce4bhr92rcd13ifvqhsg","pricing_plan_id":"free"},{"bike_id":"9f8e5212-09d2-4a89-9f7e-3346a7538def","system_id":"levelo_inurba_marseille","lat":43.323464,"lon":5.406297,"is_reserved":false,"is_disabled":false,"rental_uris":{"android":"levelo://app?vid=9f8e5212-09d2-4a89-9f7e-3346a7538def","ios":"levelo://app?vid=9f8e5212-09d2-4a89-9f7e-3346a7538def"},"vehicle_type_id":"4","last_reported":1692202068,"current_range_meters":17600,"station_id":"ce4bhq92rcd13ifvqhjg","pricing_plan_id":"free"},{"bike_id":"404d2578-f101-464e-81f7-e2e7b3c82af2","system_id":"levelo_inurba_marseille","lat":43.323464,"lon":5.406297,"is_reserved":false,"is_disabled":false,"rental_uris":{"android":"levelo://app?vid=404d2578-f101-464e-81f7-e2e7b3c82af2","ios":"levelo://app?vid=404d2578-f101-464e-81f7-e2e7b3c82af2"},"vehicle_type_id":"4","last_reported":1692202068,"current_range_meters":19200,"station_id":"ce4bhq92rcd13ifvqhjg","pricing_plan_id":"free"},{"bike_id":"23f5f11c-1631-4826-9b70-90ab56e6e026","system_id":"levelo_inurba_marseille","lat":43.32347,"lon":5.40632,"is_reserved":false,"is_disabled":false,"rental_uris":{"android":"levelo://app?vid=23f5f11c-1631-4826-9b70-90ab56e6e026","ios":"levelo://app?vid=23f5f11c-1631-4826-9b70-90ab56e6e026"},"vehicle_type_id":"4","last_reported":1692202068,"current_range_meters":16800,"station_id":"ce4bhq92rcd13ifvqhjg","pricing_plan_id":"free"},{"bike_id":"e2c03bc4-df59-493e-9c41-2358a60706b7","system_id":"levelo_inurba_marseille","lat":43.30674,"lon":5.40872,"is_reserved":false,"is_disabled":false,"rental_uris":{"android":"levelo://app?vid=e2c03bc4-df59-493e-9c41-2358a60706b7","ios":"levelo://app?vid=e2c03bc4-df59-493e-9c41-2358a60706b7"},"vehicle_type_id":"4","last_reported":1692202068,"current_range_meters":6000,"station_id":"","pricing_plan_id":"free"},{"bike_id":"da1e2494-54bc-4c73-b9ee-48d4edb95dc2","system_id":"levelo_inurba_marseille","lat":43.284219,"lon":5.3497,"is_reserved":false,"is_disabled":false,"rental_uris":{"android":"levelo://app?vid=da1e2494-54bc-4c73-b9ee-48d4edb95dc2","ios":"levelo://app?vid=da1e2494-54bc-4c73-b9ee-48d4edb95dc2"},"vehicle_type_id":"4","last_reported":1692202068,"current_range_meters":31200,"station_id":"ce4bhbh2rcd13ifvqepg","pricing_plan_id":"free"},{"bike_id":"4e8f3342-d3ca-4502-8ef2-7948300e0166","system_id":"levelo_inurba_marseille","lat":43.284219,"lon":5.3497,"is_reserved":false,"is_disabled":false,"rental_uris":{"android":"levelo://app?vid=4e8f3342-d3ca-4502-8ef2-7948300e0166","ios":"levelo://app?vid=4e8f3342-d3ca-4502-8ef2-7948300e0166"},"vehicle_type_id":"4","last_reported":1692202068,"current_range_meters":14400,"station_id":"ce4bhbh2rcd13ifvqepg","pricing_plan_id":"free"},{"bike_id":"40b6f3fa-c7f7-4968-9699-680eed5f002f","system_id":"levelo_inurba_marseille","lat":43.284219,"lon":5.3497,"is_reserved":false,"is_disabled":false,"rental_uris":{"android":"levelo://app?vid=40b6f3fa-c7f7-4968-9699-680eed5f002f","ios":"levelo://app?vid=40b6f3fa-c7f7-4968-9699-680eed5f002f"},"vehicle_type_id":"4","last_reported":1692202068,"current_range_meters":19600,"station_id":"ce4bhbh2rcd13ifvqepg","pricing_plan_id":"free"},{"bike_id":"812be4a5-bab4-4d90-b383-3dd79f5f6499","system_id":"levelo_inurba_marseille","lat":43.284219,"lon":5.3497,"is_reserved":false,"is_disabled":false,"rental_uris":{"android":"levelo://app?vid=812be4a5-bab4-4d90-b383-3dd79f5f6499","ios":"levelo://app?vid=812be4a5-bab4-4d90-b383-3dd79f5f6499"},"vehicle_type_id":"4","last_reported":1692202068,"current_range_meters":31600,"station_id":"ce4bhbh2rcd13ifvqepg","pricing_plan_id":"free"},{"bike_id":"a9c9822f-1624-4827-bda4-f693b753184a","system_id":"levelo_inurba_marseille","lat":43.284219,"lon":5.3497,"is_reserved":false,"is_disabled":false,"rental_uris":{"android":"levelo://app?vid=a9c9822f-1624-4827-bda4-f693b753184a","ios":"levelo://app?vid=a9c9822f-1624-4827-bda4-f693b753184a"},"vehicle_type_id":"4","last_reported":1692202068,"current_range_meters":19200,"station_id":"ce4bhbh2rcd13ifvqepg","pricing_plan_id":"free"},{"bike_id":"5bd1d67d-7f49-4127-92f5-85d35ced1506","system_id":"levelo_inurba_marseille","lat":43.284217,"lon":5.349697,"is_reserved":false,"is_disabled":false,"rental_uris":{"android":"levelo://app?vid=5bd1d67d-7f49-4127-92f5-85d35ced1506","ios":"levelo://app?vid=5bd1d67d-7f49-4127-92f5-85d35ced1506"},"vehicle_type_id":"4","last_reported":1692202068,"current_range_meters":22400,"station_id":"ce4bhbh2rcd13ifvqepg","pricing_plan_id":"free"},{"bike_id":"77a92690-727c-4c5a-ba98-3402c2258a4b","system_id":"levelo_inurba_marseille","lat":43.284219,"lon":5.3497,"is_reserved":false,"is_disabled":false,"rental_uris":{"android":"levelo://app?vid=77a92690-727c-4c5a-ba98-3402c2258a4b","ios":"levelo://app?vid=77a92690-727c-4c5a-ba98-3402c2258a4b"},"vehicle_type_id":"4","last_reported":1692202068,"current_range_meters":31200,"station_id":"ce4bhbh2rcd13ifvqepg","pricing_plan_id":"free"},{"bike_id":"2bd7f0c3-ad42-4674-afa9-e7f467c32a26","system_id":"levelo_inurba_marseille","lat":43.28425,"lon":5.34985,"is_reserved":false,"is_disabled":false,"rental_uris":{"android":"levelo://app?vid=2bd7f0c3-ad42-4674-afa9-e7f467c32a26","ios":"levelo://app?vid=2bd7f0c3-ad42-4674-afa9-e7f467c32a26"},"vehicle_type_id":"4","last_reported":1692202068,"current_range_meters":20400,"station_id":"ce4bhbh2rcd13ifvqepg","pricing_plan_id":"free"},{"bike_id":"5eba570c-bebc-41d3-8b18-ddf77860b66c","system_id":"levelo_inurba_marseille","lat":43.28422,"lon":5.34994,"is_reserved":false,"is_disabled":false,"rental_uris":{"android":"levelo://app?vid=5eba570c-bebc-41d3-8b18-ddf77860b66c","ios":"levelo://app?vid=5eba570c-bebc-41d3-8b18-ddf77860b66c"},"vehicle_type_id":"4","last_reported":1692202068,"current_range_meters":16000,"station_id":"ce4bhbh2rcd13ifvqepg","pricing_plan_id":"free"},{"bike_id":"2ccc6d8f-fce4-48ba-b76e-d3b1ba918686","system_id":"levelo_inurba_marseille","lat":43.284219,"lon":5.3497,"is_reserved":false,"is_disabled":false,"rental_uris":{"android":"levelo://app?vid=2ccc6d8f-fce4-48ba-b76e-d3b1ba918686","ios":"levelo://app?vid=2ccc6d8f-fce4-48ba-b76e-d3b1ba918686"},"vehicle_type_id":"4","last_reported":1692202068,"current_range_meters":24400,"station_id":"ce4bhbh2rcd13ifvqepg","pricing_plan_id":"free"},{"bike_id":"de225b5c-cdd8-4232-9f9b-2716809a9648","system_id":"levelo_inurba_marseille","lat":43.28422,"lon":5.34993,"is_reserved":false,"is_disabled":false,"rental_uris":{"android":"levelo://app?vid=de225b5c-cdd8-4232-9f9b-2716809a9648","ios":"levelo://app?vid=de225b5c-cdd8-4232-9f9b-2716809a9648"},"vehicle_type_id":"4","last_reported":1692202068,"current_range_meters":11200,"station_id":"ce4bhbh2rcd13ifvqepg","pricing_plan_id":"free"},{"bike_id":"2b7f6387-d120-4602-9445-634776b18155","system_id":"levelo_inurba_marseille","lat":43.28423,"lon":5.34988,"is_reserved":false,"is_disabled":false,"rental_uris":{"android":"levelo://app?vid=2b7f6387-d120-4602-9445-634776b18155","ios":"levelo://app?vid=2b7f6387-d120-4602-9445-634776b18155"},"vehicle_type_id":"4","last_reported":1692202068,"current_range_meters":20400,"station_id":"ce4bhbh2rcd13ifvqepg","pricing_plan_id":"free"},{"bike_id":"27ca77c0-caa5-49d8-8aca-9feb587d8317","system_id":"levelo_inurba_marseille","lat":43.284219,"lon":5.3497,"is_reserved":false,"is_disabled":false,"rental_uris":{"android":"levelo://app?vid=27ca77c0-caa5-49d8-8aca-9feb587d8317","ios":"levelo://app?vid=27ca77c0-caa5-49d8-8aca-9feb587d8317"},"vehicle_type_id":"4","last_reported":1692202068,"current_range_meters":30400,"station_id":"ce4bhbh2rcd13ifvqepg","pricing_plan_id":"free"},{"bike_id":"fb2672c2-315b-4b77-913c-3077564383a6","system_id":"levelo_inurba_marseille","lat":43.284219,"lon":5.3497,"is_reserved":false,"is_disabled":false,"rental_uris":{"android":"levelo://app?vid=fb2672c2-315b-4b77-913c-3077564383a6","ios":"levelo://app?vid=fb2672c2-315b-4b77-913c-3077564383a6"},"vehicle_type_id":"4","last_reported":1692202068,"current_range_meters":17600,"station_id":"ce4bhbh2rcd13ifvqepg","pricing_plan_id":"free"},{"bike_id":"512161a6-2c34-4a5f-8438-94a3680533b1","system_id":"levelo_inurba_marseille","lat":43.28422,"lon":5.34988,"is_reserved":false,"is_disabled":false,"rental_uris":{"android":"levelo://app?vid=512161a6-2c34-4a5f-8438-94a3680533b1","ios":"levelo://app?vid=512161a6-2c34-4a5f-8438-94a3680533b1"},"vehicle_type_id":"4","last_reported":1692202068,"current_range_meters":31200,"station_id":"ce4bhbh2rcd13ifvqepg","pricing_plan_id":"free"},{"bike_id":"6e55e5ad-d42b-4632-ba60-d32db4416fe1","system_id":"levelo_inurba_marseille","lat":43.28424,"lon":5.34981,"is_reserved":false,"is_disabled":false,"rental_uris":{"android":"levelo://app?vid=6e55e5ad-d42b-4632-ba60-d32db4416fe1","ios":"levelo://app?vid=6e55e5ad-d42b-4632-ba60-d32db4416fe1"},"vehicle_type_id":"4","last_reported":1692202068,"current_range_meters":31200,"station_id":"ce4bhbh2rcd13ifvqepg","pricing_plan_id":"free"},{"bike_id":"23712d50-691a-438c-aae2-f26b88c73f24","system_id":"levelo_inurba_marseille","lat":43.28425,"lon":5.34976,"is_reserved":false,"is_disabled":false,"rental_uris":{"android":"levelo://app?vid=23712d50-691a-438c-aae2-f26b88c73f24","ios":"levelo://app?vid=23712d50-691a-438c-aae2-f26b88c73f24"},"vehicle_type_id":"4","last_reported":1692202068,"current_range_meters":24000,"station_id":"ce4bhbh2rcd13ifvqepg","pricing_plan_id":"free"},{"bike_id":"150c2a09-09c6-4714-baf6-c2d63a8eacfe","system_id":"levelo_inurba_marseille","lat":43.284217,"lon":5.349697,"is_reserved":false,"is_disabled":false,"rental_uris":{"android":"levelo://app?vid=150c2a09-09c6-4714-baf6-c2d63a8eacfe","ios":"levelo://app?vid=150c2a09-09c6-4714-baf6-c2d63a8eacfe"},"vehicle_type_id":"4","last_reported":1692202068,"current_range_meters":31200,"station_id":"ce4bhbh2rcd13ifvqepg","pricing_plan_id":"free"},{"bike_id":"7e20bd46-9208-46df-8bad-d3e20b1ec517","system_id":"levelo_inurba_marseille","lat":43.28424,"lon":5.34978,"is_reserved":false,"is_disabled":false,"rental_uris":{"android":"levelo://app?vid=7e20bd46-9208-46df-8bad-d3e20b1ec517","ios":"levelo://app?vid=7e20bd46-9208-46df-8bad-d3e20b1ec517"},"vehicle_type_id":"4","last_reported":1692202068,"current_range_meters":31200,"station_id":"ce4bhbh2rcd13ifvqepg","pricing_plan_id":"free"},{"bike_id":"8c56a298-4c64-4757-abdc-13570d34cc77","system_id":"levelo_inurba_marseille","lat":43.284219,"lon":5.3497,"is_reserved":false,"is_disabled":false,"rental_uris":{"android":"levelo://app?vid=8c56a298-4c64-4757-abdc-13570d34cc77","ios":"levelo://app?vid=8c56a298-4c64-4757-abdc-13570d34cc77"},"vehicle_type_id":"4","last_reported":1692202068,"current_range_meters":30800,"station_id":"ce4bhbh2rcd13ifvqepg","pricing_plan_id":"free"},{"bike_id":"61a9578d-6de3-45d8-9d85-fd4444fdc161","system_id":"levelo_inurba_marseille","lat":43.28419,"lon":5.34986,"is_reserved":false,"is_disabled":false,"rental_uris":{"android":"levelo://app?vid=61a9578d-6de3-45d8-9d85-fd4444fdc161","ios":"levelo://app?vid=61a9578d-6de3-45d8-9d85-fd4444fdc161"},"vehicle_type_id":"4","last_reported":1692202068,"current_range_meters":17600,"station_id":"ce4bhbh2rcd13ifvqepg","pricing_plan_id":"free"},{"bike_id":"985d8689-8cd4-46e2-8aaf-6bbe014d3880","system_id":"levelo_inurba_marseille","lat":43.28421,"lon":5.34977,"is_reserved":false,"is_disabled":false,"rental_uris":{"android":"levelo://app?vid=985d8689-8cd4-46e2-8aaf-6bbe014d3880","ios":"levelo://app?vid=985d8689-8cd4-46e2-8aaf-6bbe014d3880"},"vehicle_type_id":"4","last_reported":1692202068,"current_range_meters":28000,"station_id":"ce4bhbh2rcd13ifvqepg","pricing_plan_id":"free"},{"bike_id":"4fafdf41-a81d-4622-84b9-79251e42f332","system_id":"levelo_inurba_marseille","lat":43.284217,"lon":5.349697,"is_reserved":false,"is_disabled":false,"rental_uris":{"android":"levelo://app?vid=4fafdf41-a81d-4622-84b9-79251e42f332","ios":"levelo://app?vid=4fafdf41-a81d-4622-84b9-79251e42f332"},"vehicle_type_id":"4","last_reported":1692202068,"current_range_meters":31600,"station_id":"ce4bhbh2rcd13ifvqepg","pricing_plan_id":"free"},{"bike_id":"94c736ee-866a-4242-81ea-fa374613ba4a","system_id":"levelo_inurba_marseille","lat":43.28417,"lon":5.34988,"is_reserved":false,"is_disabled":false,"rental_uris":{"android":"levelo://app?vid=94c736ee-866a-4242-81ea-fa374613ba4a","ios":"levelo://app?vid=94c736ee-866a-4242-81ea-fa374613ba4a"},"vehicle_type_id":"4","last_reported":1692202068,"current_range_meters":31200,"station_id":"ce4bhbh2rcd13ifvqepg","pricing_plan_id":"free"},{"bike_id":"0ff9da94-a23d-451d-803e-ac4eae0139ae","system_id":"levelo_inurba_marseille","lat":43.28195,"lon":5.374165,"is_reserved":false,"is_disabled":false,"rental_uris":{"android":"levelo://app?vid=0ff9da94-a23d-451d-803e-ac4eae0139ae","ios":"levelo://app?vid=0ff9da94-a23d-451d-803e-ac4eae0139ae"},"vehicle_type_id":"4","last_reported":1692202068,"current_range_meters":23200,"station_id":"","pricing_plan_id":"free"},{"bike_id":"9000ce1a-8890-4ecd-90c9-d52e4df686db","system_id":"levelo_inurba_marseille","lat":43.28944,"lon":5.39626,"is_reserved":false,"is_disabled":false,"rental_uris":{"android":"levelo://app?vid=9000ce1a-8890-4ecd-90c9-d52e4df686db","ios":"levelo://app?vid=9000ce1a-8890-4ecd-90c9-d52e4df686db"},"vehicle_type_id":"4","last_reported":1692202068,"current_range_meters":29600,"station_id":"ce4bh3h2rcd13ifvqdn0","pricing_plan_id":"free"},{"bike_id":"5cec26ac-344f-432b-af34-450b75305b9b","system_id":"levelo_inurba_marseille","lat":43.292724,"lon":5.401131,"is_reserved":false,"is_disabled":false,"rental_uris":{"android":"levelo://app?vid=5cec26ac-344f-432b-af34-450b75305b9b","ios":"levelo://app?vid=5cec26ac-344f-432b-af34-450b75305b9b"},"vehicle_type_id":"4","last_reported":1692202068,"current_range_meters":31200,"station_id":"ce4bh312rcd13ifvqdk0","pricing_plan_id":"free"},{"bike_id":"f66ec447-e256-4a1e-bb87-14047bc2dee8","system_id":"levelo_inurba_marseille","lat":43.28288,"lon":5.35083,"is_reserved":false,"is_disabled":false,"rental_uris":{"android":"levelo://app?vid=f66ec447-e256-4a1e-bb87-14047bc2dee8","ios":"levelo://app?vid=f66ec447-e256-4a1e-bb87-14047bc2dee8"},"vehicle_type_id":"4","last_reported":1692202068,"current_range_meters":23600,"station_id":"ce4bhbp2rcd13ifvqerg","pricing_plan_id":"free"},{"bike_id":"487293ee-b80c-4377-a228-254db477fe01","system_id":"levelo_inurba_marseille","lat":43.282754,"lon":5.350519,"is_reserved":false,"is_disabled":false,"rental_uris":{"android":"levelo://app?vid=487293ee-b80c-4377-a228-254db477fe01","ios":"levelo://app?vid=487293ee-b80c-4377-a228-254db477fe01"},"vehicle_type_id":"4","last_reported":1692202068,"current_range_meters":26000,"station_id":"ce4bhbp2rcd13ifvqerg","pricing_plan_id":"free"},{"bike_id":"4dbbd2f3-c817-4df2-8872-135766362e46","system_id":"levelo_inurba_marseille","lat":43.283502,"lon":5.386471,"is_reserved":false,"is_disabled":false,"rental_uris":{"android":"levelo://app?vid=4dbbd2f3-c817-4df2-8872-135766362e46","ios":"levelo://app?vid=4dbbd2f3-c817-4df2-8872-135766362e46"},"vehicle_type_id":"4","last_reported":1692202068,"current_range_meters":29600,"station_id":"ce4bh492rcd13ifvqdvg","pricing_plan_id":"free"},{"bike_id":"88940920-727e-47f8-bee6-24feedff1167","system_id":"levelo_inurba_marseille","lat":43.28277,"lon":5.3508,"is_reserved":false,"is_disabled":false,"rental_uris":{"android":"levelo://app?vid=88940920-727e-47f8-bee6-24feedff1167","ios":"levelo://app?vid=88940920-727e-47f8-bee6-24feedff1167"},"vehicle_type_id":"4","last_reported":1692202068,"current_range_meters":30400,"station_id":"ce4bhbp2rcd13ifvqerg","pricing_plan_id":"free"},{"bike_id":"f2ea941b-a424-45e3-8ce0-0d41be6c2256","system_id":"levelo_inurba_marseille","lat":43.28276,"lon":5.35065,"is_reserved":false,"is_disabled":false,"rental_uris":{"android":"levelo://app?vid=f2ea941b-a424-45e3-8ce0-0d41be6c2256","ios":"levelo://app?vid=f2ea941b-a424-45e3-8ce0-0d41be6c2256"},"vehicle_type_id":"4","last_reported":1692202068,"current_range_meters":21600,"station_id":"ce4bhbp2rcd13ifvqerg","pricing_plan_id":"free"},{"bike_id":"cd2704a3-0cc8-4d38-a4bd-ee142074bd04","system_id":"levelo_inurba_marseille","lat":43.28272,"lon":5.35076,"is_reserved":false,"is_disabled":false,"rental_uris":{"android":"levelo://app?vid=cd2704a3-0cc8-4d38-a4bd-ee142074bd04","ios":"levelo://app?vid=cd2704a3-0cc8-4d38-a4bd-ee142074bd04"},"vehicle_type_id":"4","last_reported":1692202068,"current_range_meters":26400,"station_id":"ce4bhbp2rcd13ifvqerg","pricing_plan_id":"free"},{"bike_id":"74d2829f-8f29-47e5-9779-88be0cd540e1","system_id":"levelo_inurba_marseille","lat":43.28274,"lon":5.35065,"is_reserved":false,"is_disabled":false,"rental_uris":{"android":"levelo://app?vid=74d2829f-8f29-47e5-9779-88be0cd540e1","ios":"levelo://app?vid=74d2829f-8f29-47e5-9779-88be0cd540e1"},"vehicle_type_id":"4","last_reported":1692202068,"current_range_meters":5200,"station_id":"ce4bhbp2rcd13ifvqerg","pricing_plan_id":"free"},{"bike_id":"bc66baef-7035-4e07-8c78-f477e674fd12","system_id":"levelo_inurba_marseille","lat":43.2827,"lon":5.35074,"is_reserved":false,"is_disabled":false,"rental_uris":{"android":"levelo://app?vid=bc66baef-7035-4e07-8c78-f477e674fd12","ios":"levelo://app?vid=bc66baef-7035-4e07-8c78-f477e674fd12"},"vehicle_type_id":"4","last_reported":1692202068,"current_range_meters":19600,"station_id":"ce4bhbp2rcd13ifvqerg","pricing_plan_id":"free"},{"bike_id":"aa60c77c-5c5e-49f1-b2ce-22bd5603f158","system_id":"levelo_inurba_marseille","lat":43.2827,"lon":5.35069,"is_reserved":false,"is_disabled":false,"rental_uris":{"android":"levelo://app?vid=aa60c77c-5c5e-49f1-b2ce-22bd5603f158","ios":"levelo://app?vid=aa60c77c-5c5e-49f1-b2ce-22bd5603f158"},"vehicle_type_id":"4","last_reported":1692202068,"current_range_meters":31200,"station_id":"ce4bhbp2rcd13ifvqerg","pricing_plan_id":"free"},{"bike_id":"6cfad63d-de19-45f9-99d7-25b91c75c4e6","system_id":"levelo_inurba_marseille","lat":43.2827,"lon":5.35062,"is_reserved":false,"is_disabled":false,"rental_uris":{"android":"levelo://app?vid=6cfad63d-de19-45f9-99d7-25b91c75c4e6","ios":"levelo://app?vid=6cfad63d-de19-45f9-99d7-25b91c75c4e6"},"vehicle_type_id":"4","last_reported":1692202068,"current_range_meters":26000,"station_id":"ce4bhbp2rcd13ifvqerg","pricing_plan_id":"free"},{"bike_id":"321e52b3-2da3-4753-a2cb-03c96daa8fe3","system_id":"levelo_inurba_marseille","lat":43.283502,"lon":5.386471,"is_reserved":false,"is_disabled":false,"rental_uris":{"android":"levelo://app?vid=321e52b3-2da3-4753-a2cb-03c96daa8fe3","ios":"levelo://app?vid=321e52b3-2da3-4753-a2cb-03c96daa8fe3"},"vehicle_type_id":"4","last_reported":1692202068,"current_range_meters":2400,"station_id":"ce4bh492rcd13ifvqdvg","pricing_plan_id":"free"},{"bike_id":"422fa103-37fa-45ef-854f-d628f9b85185","system_id":"levelo_inurba_marseille","lat":43.280382,"lon":5.369291,"is_reserved":false,"is_disabled":false,"rental_uris":{"android":"levelo://app?vid=422fa103-37fa-45ef-854f-d628f9b85185","ios":"levelo://app?vid=422fa103-37fa-45ef-854f-d628f9b85185"},"vehicle_type_id":"4","last_reported":1692202068,"current_range_meters":6400,"station_id":"ce4bha12rcd13ifvqef0","pricing_plan_id":"free"},{"bike_id":"24795538-70d4-49a7-b551-1ed24814e895","system_id":"levelo_inurba_marseille","lat":43.28262,"lon":5.35058,"is_reserved":false,"is_disabled":false,"rental_uris":{"android":"levelo://app?vid=24795538-70d4-49a7-b551-1ed24814e895","ios":"levelo://app?vid=24795538-70d4-49a7-b551-1ed24814e895"},"vehicle_type_id":"4","last_reported":1692202068,"current_range_meters":25600,"station_id":"ce4bhbp2rcd13ifvqerg","pricing_plan_id":"free"},{"bike_id":"eafeec11-3add-4800-bb88-4b3337c565e4","system_id":"levelo_inurba_marseille","lat":43.280382,"lon":5.369291,"is_reserved":false,"is_disabled":false,"rental_uris":{"android":"levelo://app?vid=eafeec11-3add-4800-bb88-4b3337c565e4","ios":"levelo://app?vid=eafeec11-3add-4800-bb88-4b3337c565e4"},"vehicle_type_id":"4","last_reported":1692202068,"current_range_meters":6000,"station_id":"ce4bha12rcd13ifvqef0","pricing_plan_id":"free"},{"bike_id":"0a720216-062b-4b22-be9b-969620088b5b","system_id":"levelo_inurba_marseille","lat":43.28258,"lon":5.3506,"is_reserved":false,"is_disabled":false,"rental_uris":{"android":"levelo://app?vid=0a720216-062b-4b22-be9b-969620088b5b","ios":"levelo://app?vid=0a720216-062b-4b22-be9b-969620088b5b"},"vehicle_type_id":"4","last_reported":1692202068,"current_range_meters":31200,"station_id":"ce4bhbp2rcd13ifvqerg","pricing_plan_id":"free"},{"bike_id":"eb8e4c4f-5fc5-4007-ab2b-231fad0dc17c","system_id":"levelo_inurba_marseille","lat":43.290412,"lon":5.399633,"is_reserved":false,"is_disabled":false,"rental_uris":{"android":"levelo://app?vid=eb8e4c4f-5fc5-4007-ab2b-231fad0dc17c","ios":"levelo://app?vid=eb8e4c4f-5fc5-4007-ab2b-231fad0dc17c"},"vehicle_type_id":"4","last_reported":1692202068,"current_range_meters":31200,"station_id":"ce4bh392rcd13ifvqdm0","pricing_plan_id":"free"},{"bike_id":"99efca54-7c75-4720-89dc-c52b61a287a1","system_id":"levelo_inurba_marseille","lat":43.29044,"lon":5.39967,"is_reserved":false,"is_disabled":false,"rental_uris":{"android":"levelo://app?vid=99efca54-7c75-4720-89dc-c52b61a287a1","ios":"levelo://app?vid=99efca54-7c75-4720-89dc-c52b61a287a1"},"vehicle_type_id":"4","last_reported":1692202068,"current_range_meters":23600,"station_id":"ce4bh392rcd13ifvqdm0","pricing_plan_id":"free"},{"bike_id":"ac921679-2c72-4c63-b52b-4aa627220343","system_id":"levelo_inurba_marseille","lat":43.29046,"lon":5.39973,"is_reserved":false,"is_disabled":false,"rental_uris":{"android":"levelo://app?vid=ac921679-2c72-4c63-b52b-4aa627220343","ios":"levelo://app?vid=ac921679-2c72-4c63-b52b-4aa627220343"},"vehicle_type_id":"4","last_reported":1692202068,"current_range_meters":22400,"station_id":"ce4bh392rcd13ifvqdm0","pricing_plan_id":"free"},{"bike_id":"a2b09e30-e6f6-4705-8ea3-4ce8a0431bb1","system_id":"levelo_inurba_marseille","lat":43.284462,"lon":5.392121,"is_reserved":false,"is_disabled":false,"rental_uris":{"android":"levelo://app?vid=a2b09e30-e6f6-4705-8ea3-4ce8a0431bb1","ios":"levelo://app?vid=a2b09e30-e6f6-4705-8ea3-4ce8a0431bb1"},"vehicle_type_id":"4","last_reported":1692202068,"current_range_meters":20000,"station_id":"ce4bhoh2rcd13ifvqh5g","pricing_plan_id":"free"},{"bike_id":"2ca627f5-c22c-40e8-9e21-28ff7a069973","system_id":"levelo_inurba_marseille","lat":43.284462,"lon":5.392121,"is_reserved":false,"is_disabled":false,"rental_uris":{"android":"levelo://app?vid=2ca627f5-c22c-40e8-9e21-28ff7a069973","ios":"levelo://app?vid=2ca627f5-c22c-40e8-9e21-28ff7a069973"},"vehicle_type_id":"4","last_reported":1692202068,"current_range_meters":10000,"station_id":"ce4bhoh2rcd13ifvqh5g","pricing_plan_id":"free"},{"bike_id":"2a9752ed-e0d1-4d2e-9e31-5de2a186485d","system_id":"levelo_inurba_marseille","lat":43.284462,"lon":5.392121,"is_reserved":false,"is_disabled":false,"rental_uris":{"android":"levelo://app?vid=2a9752ed-e0d1-4d2e-9e31-5de2a186485d","ios":"levelo://app?vid=2a9752ed-e0d1-4d2e-9e31-5de2a186485d"},"vehicle_type_id":"4","last_reported":1692202068,"current_range_meters":13600,"station_id":"ce4bhoh2rcd13ifvqh5g","pricing_plan_id":"free"},{"bike_id":"a0f258ed-ced3-412c-a3a0-592502c28464","system_id":"levelo_inurba_marseille","lat":43.32661,"lon":5.40929,"is_reserved":false,"is_disabled":false,"rental_uris":{"android":"levelo://app?vid=a0f258ed-ced3-412c-a3a0-592502c28464","ios":"levelo://app?vid=a0f258ed-ced3-412c-a3a0-592502c28464"},"vehicle_type_id":"4","last_reported":1692202068,"current_range_meters":0,"station_id":"","pricing_plan_id":"free"},{"bike_id":"c3fdbacd-84b4-49ea-b2d8-3316a3d7d836","system_id":"levelo_inurba_marseille","lat":43.28573,"lon":5.394992,"is_reserved":false,"is_disabled":false,"rental_uris":{"android":"levelo://app?vid=c3fdbacd-84b4-49ea-b2d8-3316a3d7d836","ios":"levelo://app?vid=c3fdbacd-84b4-49ea-b2d8-3316a3d7d836"},"vehicle_type_id":"4","last_reported":1692202068,"current_range_meters":20800,"station_id":"ce4bh292rcd13ifvqdg0","pricing_plan_id":"free"},{"bike_id":"c56dad39-f503-47cc-ab41-bfe195bbc551","system_id":"levelo_inurba_marseille","lat":43.28573,"lon":5.394992,"is_reserved":false,"is_disabled":false,"rental_uris":{"android":"levelo://app?vid=c56dad39-f503-47cc-ab41-bfe195bbc551","ios":"levelo://app?vid=c56dad39-f503-47cc-ab41-bfe195bbc551"},"vehicle_type_id":"4","last_reported":1692202068,"current_range_meters":23200,"station_id":"ce4bh292rcd13ifvqdg0","pricing_plan_id":"free"},{"bike_id":"7f0c38d0-63db-4297-a7b4-2c1fdccbfd87","system_id":"levelo_inurba_marseille","lat":43.32656,"lon":5.40957,"is_reserved":false,"is_disabled":false,"rental_uris":{"android":"levelo://app?vid=7f0c38d0-63db-4297-a7b4-2c1fdccbfd87","ios":"levelo://app?vid=7f0c38d0-63db-4297-a7b4-2c1fdccbfd87"},"vehicle_type_id":"4","last_reported":1692202068,"current_range_meters":5200,"station_id":"ce4bhpp2rcd13ifvqhgg","pricing_plan_id":"free"},{"bike_id":"63848bea-4f8c-463a-ab04-16e58b803324","system_id":"levelo_inurba_marseille","lat":43.32657,"lon":5.40997,"is_reserved":false,"is_disabled":false,"rental_uris":{"android":"levelo://app?vid=63848bea-4f8c-463a-ab04-16e58b803324","ios":"levelo://app?vid=63848bea-4f8c-463a-ab04-16e58b803324"},"vehicle_type_id":"4","last_reported":1692202068,"current_range_meters":14000,"station_id":"ce4bhpp2rcd13ifvqhgg","pricing_plan_id":"free"},{"bike_id":"cb789b04-2525-45cd-b43d-641a5497c89d","system_id":"levelo_inurba_marseille","lat":43.304188,"lon":5.412904,"is_reserved":false,"is_disabled":false,"rental_uris":{"android":"levelo://app?vid=cb789b04-2525-45cd-b43d-641a5497c89d","ios":"levelo://app?vid=cb789b04-2525-45cd-b43d-641a5497c89d"},"vehicle_type_id":"4","last_reported":1692202068,"current_range_meters":12400,"station_id":"ce4bhop2rcd13ifvqh8g","pricing_plan_id":"free"},{"bike_id":"ba5b820a-19ae-43e7-b95a-e34bd4c1f2af","system_id":"levelo_inurba_marseille","lat":43.3042,"lon":5.41288,"is_reserved":false,"is_disabled":false,"rental_uris":{"android":"levelo://app?vid=ba5b820a-19ae-43e7-b95a-e34bd4c1f2af","ios":"levelo://app?vid=ba5b820a-19ae-43e7-b95a-e34bd4c1f2af"},"vehicle_type_id":"4","last_reported":1692202068,"current_range_meters":7600,"station_id":"ce4bhop2rcd13ifvqh8g","pricing_plan_id":"free"},{"bike_id":"8469c912-45c7-4f6b-8184-469f0338929b","system_id":"levelo_inurba_marseille","lat":43.28072,"lon":5.34768,"is_reserved":false,"is_disabled":false,"rental_uris":{"android":"levelo://app?vid=8469c912-45c7-4f6b-8184-469f0338929b","ios":"levelo://app?vid=8469c912-45c7-4f6b-8184-469f0338929b"},"vehicle_type_id":"4","last_reported":1692202068,"current_range_meters":17200,"station_id":"","pricing_plan_id":"free"},{"bike_id":"c327718a-8fe6-4791-a349-aba0f8f94e82","system_id":"levelo_inurba_marseille","lat":43.27973,"lon":5.3871,"is_reserved":false,"is_disabled":false,"rental_uris":{"android":"levelo://app?vid=c327718a-8fe6-4791-a349-aba0f8f94e82","ios":"levelo://app?vid=c327718a-8fe6-4791-a349-aba0f8f94e82"},"vehicle_type_id":"4","last_reported":1692202068,"current_range_meters":24800,"station_id":"ce4bhg12rcd13ifvqf80","pricing_plan_id":"free"},{"bike_id":"35e2fc0a-b760-40fb-909e-3e48c2d41cab","system_id":"levelo_inurba_marseille","lat":43.32043,"lon":5.41545,"is_reserved":false,"is_disabled":false,"rental_uris":{"android":"levelo://app?vid=35e2fc0a-b760-40fb-909e-3e48c2d41cab","ios":"levelo://app?vid=35e2fc0a-b760-40fb-909e-3e48c2d41cab"},"vehicle_type_id":"4","last_reported":1692202068,"current_range_meters":23200,"station_id":"","pricing_plan_id":"free"},{"bike_id":"2767b5dd-aa4e-48d0-95cd-f02f6a69a356","system_id":"levelo_inurba_marseille","lat":43.28192,"lon":5.3939,"is_reserved":false,"is_disabled":false,"rental_uris":{"android":"levelo://app?vid=2767b5dd-aa4e-48d0-95cd-f02f6a69a356","ios":"levelo://app?vid=2767b5dd-aa4e-48d0-95cd-f02f6a69a356"},"vehicle_type_id":"4","last_reported":1692202068,"current_range_meters":31200,"station_id":"","pricing_plan_id":"free"},{"bike_id":"2af6a703-941b-4a3c-b2fa-d42a395fec6a","system_id":"levelo_inurba_marseille","lat":43.276245,"lon":5.36113,"is_reserved":false,"is_disabled":false,"rental_uris":{"android":"levelo://app?vid=2af6a703-941b-4a3c-b2fa-d42a395fec6a","ios":"levelo://app?vid=2af6a703-941b-4a3c-b2fa-d42a395fec6a"},"vehicle_type_id":"4","last_reported":1692202068,"current_range_meters":9600,"station_id":"","pricing_plan_id":"free"},{"bike_id":"0f5b0623-61b7-44c8-85a2-a2bf387cea16","system_id":"levelo_inurba_marseille","lat":43.27618,"lon":5.361009,"is_reserved":false,"is_disabled":false,"rental_uris":{"android":"levelo://app?vid=0f5b0623-61b7-44c8-85a2-a2bf387cea16","ios":"levelo://app?vid=0f5b0623-61b7-44c8-85a2-a2bf387cea16"},"vehicle_type_id":"4","last_reported":1692202068,"current_range_meters":19200,"station_id":"ce4bgj92rcd13ifvqbe0","pricing_plan_id":"free"},{"bike_id":"b8a237bc-5018-428c-a4ef-29a0f4d07e8e","system_id":"levelo_inurba_marseille","lat":43.27621,"lon":5.36108,"is_reserved":false,"is_disabled":false,"rental_uris":{"android":"levelo://app?vid=b8a237bc-5018-428c-a4ef-29a0f4d07e8e","ios":"levelo://app?vid=b8a237bc-5018-428c-a4ef-29a0f4d07e8e"},"vehicle_type_id":"4","last_reported":1692202068,"current_range_meters":25200,"station_id":"ce4bgj92rcd13ifvqbe0","pricing_plan_id":"free"},{"bike_id":"d8f87ebb-6b10-4024-b7a4-0cc39058d11b","system_id":"levelo_inurba_marseille","lat":43.2762,"lon":5.36108,"is_reserved":false,"is_disabled":false,"rental_uris":{"android":"levelo://app?vid=d8f87ebb-6b10-4024-b7a4-0cc39058d11b","ios":"levelo://app?vid=d8f87ebb-6b10-4024-b7a4-0cc39058d11b"},"vehicle_type_id":"4","last_reported":1692202068,"current_range_meters":5200,"station_id":"ce4bgj92rcd13ifvqbe0","pricing_plan_id":"free"},