{"last_updated":1734408791,"ttl":60,"version":"2.2","data":{"bikes":[{"bike_id":"42c22991-bbb2-4c12-ab0d-47d496460860","system_id":"levelo_inurba_marseille","lat":43.276184,"lon":5.361191,"is_reserved":false,"is_disabled":false,"rental_uris":{"android":"levelo://app?vid=42c22991-bbb2-4c12-ab0d-47d496460860","ios":"levelo://app?vid=42c22991-bbb2-4c12-ab0d-47d496460860"},"vehicle_type_id":"4","last_reported":1734408791,"current_range_meters":14000,"station_id":"ce4bgj92rcd13ifvqbe0","pricing_plan_id":"cebpf4jnsgd1na2vs0mg"},{"bike_id":"3945d924-4864-404c-8dc1-69939c22235c","system_id":"levelo_inurba_marseille","lat":43.32338,"lon":5.40619,"is_reserved":false,"is_disabled":false,"rental_uris":{"android":"levelo://app?vid=3945d924-4864-404c-8dc1-69939c22235c","ios":"levelo://app?vid=3945d924-4864-404c-8dc1-69939c22235c"},"vehicle_type_id":"4","last_reported":1734408791,"current_range_meters":16800,"station_id":"ce4bhq92rcd13ifvqhjg","pricing_plan_id":"cebpf4jnsgd1na2vs0mg"},{"bike_id":"f6454cc5-1690-43a6-92aa-1d6f0da09f29","system_id":"levelo_inurba_marseille","lat":43.31327,"lon":5.39695,"is_reserved":false,"is_disabled":false,"rental_uris":{"android":"levelo://app?vid=f6454cc5-1690-43a6-92aa-1d6f0da09f29","ios":"levelo://app?vid=f6454cc5-1690-43a6-92aa-1d6f0da09f29"},"vehicle_type_id":"4","last_reported":1734408791,"current_range_meters":18000,"station_id":"ce4bgvp2rcd13ifvqcu0","pricing_plan_id":"cebpf4jnsgd1na2vs0mg"},{"bike_id":"b3620522-96c6-48bb-953b-bc9cfe9f311a","system_id":"levelo_inurba_marseille","lat":43.284547,"lon":5.358894,"is_reserved":false,"is_disabled":false,"rental_uris":{"android":"levelo://app?vid=b3620522-96c6-48bb-953b-bc9cfe9f311a","ios":"levelo://app?vid=b3620522-96c6-48bb-953b-bc9cfe9f311a"},"vehicle_type_id":"4","last_reported":1734408791,"current_range_meters":7200,"station_id":"ce4bhah2rcd13ifvqei0","pricing_plan_id":"cebpf4jnsgd1na2vs0mg"},{"bike_id":"60694eb5-3776-4b2a-853c-0bc9979500e3","system_id":"levelo_inurba_marseille","lat":43.2844,"lon":5.3588,"is_reserved":false,"is_disabled":false,"rental_uris":{"android":"levelo://app?vid=60694eb5-3776-4b2a-853c-0bc9979500e3","ios":"levelo://app?vid=60694eb5-3776-4b2a-853c-0bc9979500e3"},"vehicle_type_id":"4","last_reported":1734408791,"current_range_meters":32400,"station_id":"ce4bhah2rcd13ifvqei0","pricing_plan_id":"cebpf4jnsgd1na2vs0mg"},{"bike_id":"2f5d94cd-9442-4cc7-9ddb-7c4903b293c4","system_id":"levelo_inurba_marseille","lat":43.24671,"lon":5.38156,"is_reserved":false,"is_disabled":false,"rental_uris":{"android":"levelo://app?vid=2f5d94cd-9442-4cc7-9ddb-7c4903b293c4","ios":"levelo://app?vid=2f5d94cd-9442-4cc7-9ddb-7c4903b293c4"},"vehicle_type_id":"4","last_reported":1734408791,"current_range_meters":16000,"station_id":"ce4bhih2rcd13ifvqfr0","pricing_plan_id":"cebpf4jnsgd1na2vs0mg"},{"bike_id":"0ef6db4d-529f-4d18-a3e2-fe1b03a2423c","system_id":"levelo_inurba_marseille","lat":43.31484,"lon":5.37268,"is_reserved":false,"is_disabled":false,"rental_uris":{"android":"levelo://app?vid=0ef6db4d-529f-4d18-a3e2-fe1b03a2423c","ios":"levelo://app?vid=0ef6db4d-529f-4d18-a3e2-fe1b03a2423c"},"vehicle_type_id":"4","last_reported":1734408791,"current_range_meters":38800,"station_id":"ce4bgt12rcd13ifvqcd0","pricing_plan_id":"cebpf4jnsgd1na2vs0mg"},{"bike_id":"cfab8bd3-b49b-4939-8a9f-c5672b029bb5","system_id":"levelo_inurba_marseille","lat":43.31326,"lon":5.396924,"is_reserved":false,"is_disabled":false,"rental_uris":{"android":"levelo://app?vid=cfab8bd3-b49b-4939-8a9f-c5672b029bb5","ios":"levelo://app?vid=cfab8bd3-b49b-4939-8a9f-c5672b029bb5"},"vehicle_type_id":"4","last_reported":1734408791,"current_range_meters":36800,"station_id":"ce4bgvp2rcd13ifvqcu0","pricing_plan_id":"cebpf4jnsgd1na2vs0mg"},{"bike_id":"66c2d464-591d-4cf7-a92e-3040a1b49fea","system_id":"levelo_inurba_marseille","lat":43.28662,"lon":5.36353,"is_reserved":false,"is_disabled":false,"rental_uris":{"android":"levelo://app?vid=66c2d464-591d-4cf7-a92e-3040a1b49fea","ios":"levelo://app?vid=66c2d464-591d-4cf7-a92e-3040a1b49fea"},"vehicle_type_id":"4","last_reported":1734408791,"current_range_meters":39200,"station_id":"ce4bhah2rcd13ifvqej0","pricing_plan_id":"cebpf4jnsgd1na2vs0mg"},{"bike_id":"0e5fa3cd-a913-4061-b0b9-e6b5b6a4b26a","system_id":"levelo_inurba_marseille","lat":43.25085,"lon":5.3952,"is_reserved":false,"is_disabled":false,"rental_uris":{"android":"levelo://app?vid=0e5fa3cd-a913-4061-b0b9-e6b5b6a4b26a","ios":"levelo://app?vid=0e5fa3cd-a913-4061-b0b9-e6b5b6a4b26a"},"vehicle_type_id":"4","last_reported":1734408791,"current_range_meters":22400,"station_id":"ce4bhm12rcd13ifvqgkg","pricing_plan_id":"cebpf4jnsgd1na2vs0mg"},{"bike_id":"ed8635a9-8a62-4be7-9d4b-a4dbff1f7c6d","system_id":"levelo_inurba_marseille","lat":43.28525,"lon":5.3805,"is_reserved":false,"is_disabled":true,"rental_uris":{"android":"levelo://app?vid=ed8635a9-8a62-4be7-9d4b-a4dbff1f7c6d","ios":"levelo://app?vid=ed8635a9-8a62-4be7-9d4b-a4dbff1f7c6d"},"vehicle_type_id":"4","last_reported":1734408791,"current_range_meters":21600,"station_id":"","pricing_plan_id":"cebpf4jnsgd1na2vs0mg"},{"bike_id":"79e08014-78be-4b51-8e47-3248ec87023b","system_id":"levelo_inurba_marseille","lat":43.24663,"lon":5.38159,"is_reserved":false,"is_disabled":false,"rental_uris":{"android":"levelo://app?vid=79e08014-78be-4b51-8e47-3248ec87023b","ios":"levelo://app?vid=79e08014-78be-4b51-8e47-3248ec87023b"},"vehicle_type_id":"4","last_reported":1734408791,"current_range_meters":36000,"station_id":"ce4bhih2rcd13ifvqfr0","pricing_plan_id":"cebpf4jnsgd1na2vs0mg"},{"bike_id":"b1141b56-3e7b-49ed-8c3a-fdb8940f3e60","system_id":"levelo_inurba_marseille","lat":43.3001,"lon":5.37739,"is_reserved":false,"is_disabled":true,"rental_uris":{"android":"levelo://app?vid=b1141b56-3e7b-49ed-8c3a-fdb8940f3e60","ios":"levelo://app?vid=b1141b56-3e7b-49ed-8c3a-fdb8940f3e60"},"vehicle_type_id":"4","last_reported":1734408791,"current_range_meters":8400,"station_id":"","pricing_plan_id":"cebpf4jnsgd1na2vs0mg"},{"bike_id":"9803638d-a938-45ea-aef4-b2c366107a44","system_id":"levelo_inurba_marseille","lat":43.27985,"lon":5.4003,"is_reserved":false,"is_disabled":false,"rental_uris":{"android":"levelo://app?vid=9803638d-a938-45ea-aef4-b2c366107a44","ios":"levelo://app?vid=9803638d-a938-45ea-aef4-b2c366107a44"},"vehicle_type_id":"4","last_reported":1734408791,"current_range_meters":38000,"station_id":"ce4bho92rcd13ifvqh4g","pricing_plan_id":"cebpf4jnsgd1na2vs0mg"},{"bike_id":"e6d133bd-af2c-45d5-a97a-3aefb8b0f7a9","system_id":"levelo_inurba_marseille","lat":43.29848,"lon":5.3628,"is_reserved":false,"is_disabled":false,"rental_uris":{"android":"levelo://app?vid=e6d133bd-af2c-45d5-a97a-3aefb8b0f7a9","ios":"levelo://app?vid=e6d133bd-af2c-45d5-a97a-3aefb8b0f7a9"},"vehicle_type_id":"4","last_reported":1734408791,"current_range_meters":37600,"station_id":"ce4bgpp2rcd13ifvqc3g","pricing_plan_id":"cebpf4jnsgd1na2vs0mg"},{"bike_id":"10086f5f-eb94-421a-8247-01c4a38e23de","system_id":"levelo_inurba_marseille","lat":43.26786,"lon":5.39928,"is_reserved":false,"is_disabled":true,"rental_uris":{"android":"levelo://app?vid=10086f5f-eb94-421a-8247-01c4a38e23de","ios":"levelo://app?vid=10086f5f-eb94-421a-8247-01c4a38e23de"},"vehicle_type_id":"4","last_reported":1734408791,"current_range_meters":0,"station_id":"","pricing_plan_id":"cebpf4jnsgd1na2vs0mg"},{"bike_id":"43080d42-6f82-421a-a638-62cb8c5273ca","system_id":"levelo_inurba_marseille","lat":43.25105,"lon":5.40326,"is_reserved":false,"is_disabled":false,"rental_uris":{"android":"levelo://app?vid=43080d42-6f82-421a-a638-62cb8c5273ca","ios":"levelo://app?vid=43080d42-6f82-421a-a638-62cb8c5273ca"},"vehicle_type_id":"4","last_reported":1734408791,"current_range_meters":38800,"station_id":"ce4bhlh2rcd13ifvqgig","pricing_plan_id":"cebpf4jnsgd1na2vs0mg"},{"bike_id":"19b63edb-b49d-48d7-a32f-d786a72a8236","system_id":"levelo_inurba_marseille","lat":43.284966,"lon":5.350645,"is_reserved":false,"is_disabled":false,"rental_uris":{"android":"levelo://app?vid=19b63edb-b49d-48d7-a32f-d786a72a8236","ios":"levelo://app?vid=19b63edb-b49d-48d7-a32f-d786a72a8236"},"vehicle_type_id":"4","last_reported":1734408791,"current_range_meters":30400,"station_id":"","pricing_plan_id":"cebpf4jnsgd1na2vs0mg"},{"bike_id":"2bcb2020-1157-48f1-aa76-65d8d9a083d0","system_id":"levelo_inurba_marseille","lat":43.30594,"lon":5.37205,"is_reserved":false,"is_disabled":false,"rental_uris":{"android":"levelo://app?vid=2bcb2020-1157-48f1-aa76-65d8d9a083d0","ios":"levelo://app?vid=2bcb2020-1157-48f1-aa76-65d8d9a083d0"},"vehicle_type_id":"4","last_reported":1734408791,"current_range_meters":9600,"station_id":"ce4bgqh2rcd13ifvqc4g","pricing_plan_id":"cebpf4jnsgd1na2vs0mg"},{"bike_id":"6b49ebdf-767b-495c-8b00-273a87320406","system_id":"levelo_inurba_marseille","lat":43.30144,"lon":5.39861,"is_reserved":false,"is_disabled":false,"rental_uris":{"android":"levelo://app?vid=6b49ebdf-767b-495c-8b00-273a87320406","ios":"levelo://app?vid=6b49ebdf-767b-495c-8b00-273a87320406"},"vehicle_type_id":"4","last_reported":1734408791,"current_range_meters":8800,"station_id":"ce4bh0h2rcd13ifvqd40","pricing_plan_id":"cebpf4jnsgd1na2vs0mg"},{"bike_id":"82bfb1cc-5635-4d47-bc8e-b9ff0bb37081","system_id":"levelo_inurba_marseille","lat":43.30805,"lon":5.38153,"is_reserved":false,"is_disabled":false,"rental_uris":{"android":"levelo://app?vid=82bfb1cc-5635-4d47-bc8e-b9ff0bb37081","ios":"levelo://app?vid=82bfb1cc-5635-4d47-bc8e-b9ff0bb37081"},"vehicle_type_id":"4","last_reported":1734408791,"current_range_meters":38800,"station_id":"ce4bgt12rcd13ifvqce0","pricing_plan_id":"cebpf4jnsgd1na2vs0mg"},{"bike_id":"0942ec52-e4c2-4259-b7e5-1369cb3cb0e8","system_id":"levelo_inurba_marseille","lat":43.31683,"lon":5.37771,"is_reserved":false,"is_disabled":false,"rental_uris":{"android":"levelo://app?vid=0942ec52-e4c2-4259-b7e5-1369cb3cb0e8","ios":"levelo://app?vid=0942ec52-e4c2-4259-b7e5-1369cb3cb0e8"},"vehicle_type_id":"4","last_reported":1734408791,"current_range_meters":38800,"station_id":"ce4bgth2rcd13ifvqch0","pricing_plan_id":"cebpf4jnsgd1na2vs0mg"},{"bike_id":"6e68a8b1-0e13-427b-839f-d0db81a56eee","system_id":"levelo_inurba_marseille","lat":43.28931,"lon":5.36391,"is_reserved":false,"is_disabled":false,"rental_uris":{"android":"levelo://app?vid=6e68a8b1-0e13-427b-839f-d0db81a56eee","ios":"levelo://app?vid=6e68a8b1-0e13-427b-839f-d0db81a56eee"},"vehicle_type_id":"4","last_reported":1734408791,"current_range_meters":27200,"station_id":"ce4bhc92rcd13ifvqetg","pricing_plan_id":"cebpf4jnsgd1na2vs0mg"},{"bike_id":"3d591825-2339-4c6b-9755-23f26a0e2fa6","system_id":"levelo_inurba_marseille","lat":43.27993,"lon":5.41659,"is_reserved":false,"is_disabled":false,"rental_uris":{"android":"levelo://app?vid=3d591825-2339-4c6b-9755-23f26a0e2fa6","ios":"levelo://app?vid=3d591825-2339-4c6b-9755-23f26a0e2fa6"},"vehicle_type_id":"4","last_reported":1734408791,"current_range_meters":38800,"station_id":"ce4bho12rcd13ifvqh1g","pricing_plan_id":"cebpf4jnsgd1na2vs0mg"},{"bike_id":"491b5c18-99d4-4072-a89f-caaafeb4b981","system_id":"levelo_inurba_marseille","lat":43.30255,"lon":5.40095,"is_reserved":false,"is_disabled":false,"rental_uris":{"android":"levelo://app?vid=491b5c18-99d4-4072-a89f-caaafeb4b981","ios":"levelo://app?vid=491b5c18-99d4-4072-a89f-caaafeb4b981"},"vehicle_type_id":"4","last_reported":1734408791,"current_range_meters":18800,"station_id":"ce4bgvh2rcd13ifvqcs0","pricing_plan_id":"cebpf4jnsgd1na2vs0mg"},{"bike_id":"6cb9fe89-432b-437b-8ac2-83ad2cda73a0","system_id":"levelo_inurba_marseille","lat":43.29254,"lon":5.40909,"is_reserved":false,"is_disabled":true,"rental_uris":{"android":"levelo://app?vid=6cb9fe89-432b-437b-8ac2-83ad2cda73a0","ios":"levelo://app?vid=6cb9fe89-432b-437b-8ac2-83ad2cda73a0"},"vehicle_type_id":"4","last_reported":1734408791,"current_range_meters":36800,"station_id":"ce4bh192rcd13ifvqdc0","pricing_plan_id":"cebpf4jnsgd1na2vs0mg"},{"bike_id":"ec6fd560-80ad-469b-8d2b-c65539592be7","system_id":"levelo_inurba_marseille","lat":43.27423,"lon":5.39417,"is_reserved":false,"is_disabled":false,"rental_uris":{"android":"levelo://app?vid=ec6fd560-80ad-469b-8d2b-c65539592be7","ios":"levelo://app?vid=ec6fd560-80ad-469b-8d2b-c65539592be7"},"vehicle_type_id":"4","last_reported":1734408791,"current_range_meters":30400,"station_id":"ce4bhdp2rcd13ifvqf20","pricing_plan_id":"cebpf4jnsgd1na2vs0mg"},{"bike_id":"b98cd8cf-b3b3-4f57-8006-8fb738ec896b","system_id":"levelo_inurba_marseille","lat":43.31725,"lon":5.42401,"is_reserved":false,"is_disabled":false,"rental_uris":{"android":"levelo://app?vid=b98cd8cf-b3b3-4f57-8006-8fb738ec896b","ios":"levelo://app?vid=b98cd8cf-b3b3-4f57-8006-8fb738ec896b"},"vehicle_type_id":"4","last_reported":1734408791,"current_range_meters":37600,"station_id":"ce4bhp92rcd13ifvqhbg","pricing_plan_id":"cebpf4jnsgd1na2vs0mg"},{"bike_id":"407426e2-5473-4726-8fbf-7659838178e2","system_id":"levelo_inurba_marseille","lat":43.27492,"lon":5.42444,"is_reserved":false,"is_disabled":false,"rental_uris":{"android":"levelo://app?vid=407426e2-5473-4726-8fbf-7659838178e2","ios":"levelo://app?vid=407426e2-5473-4726-8fbf-7659838178e2"},"vehicle_type_id":"4","last_reported":1734408791,"current_range_meters":38800,"station_id":"ce4bhn92rcd13ifvqgrg","pricing_plan_id":"cebpf4jnsgd1na2vs0mg"},{"bike_id":"e6029fb1-ca48-4fee-ba7d-8ee528661eb7","system_id":"levelo_inurba_marseille","lat":43.264939,"lon":5.39545,"is_reserved":false,"is_disabled":false,"rental_uris":{"android":"levelo://app?vid=e6029fb1-ca48-4fee-ba7d-8ee528661eb7","ios":"levelo://app?vid=e6029fb1-ca48-4fee-ba7d-8ee528661eb7"},"vehicle_type_id":"4","last_reported":1734408791,"current_range_meters":32000,"station_id":"ce4bhi12rcd13ifvqfq0","pricing_plan_id":"cebpf4jnsgd1na2vs0mg"},{"bike_id":"3210868a-ae7c-446f-9222-fef482512f15","system_id":"levelo_inurba_marseille","lat":43.24139,"lon":5.397,"is_reserved":false,"is_disabled":false,"rental_uris":{"android":"levelo://app?vid=3210868a-ae7c-446f-9222-fef482512f15","ios":"levelo://app?vid=3210868a-ae7c-446f-9222-fef482512f15"},"vehicle_type_id":"4","last_reported":1734408791,"current_range_meters":39200,"station_id":"ce4bhn12rcd13ifvqgpg","pricing_plan_id":"cebpf4jnsgd1na2vs0mg"},{"bike_id":"08860759-a12d-4523-91fe-6df91f670ec4","system_id":"levelo_inurba_marseille","lat":43.30297,"lon":5.39224,"is_reserved":false,"is_disabled":false,"rental_uris":{"android":"levelo://app?vid=08860759-a12d-4523-91fe-6df91f670ec4","ios":"levelo://app?vid=08860759-a12d-4523-91fe-6df91f670ec4"},"vehicle_type_id":"4","last_reported":1734408791,"current_range_meters":38800,"station_id":"ce4bgkh2rcd13ifvqbk0","pricing_plan_id":"cebpf4jnsgd1na2vs0mg"},{"bike_id":"df8d9f60-67d3-4227-99b7-48c256f5c206","system_id":"levelo_inurba_marseille","lat":43.317066,"lon":5.37763,"is_reserved":false,"is_disabled":false,"rental_uris":{"android":"levelo://app?vid=df8d9f60-67d3-4227-99b7-48c256f5c206","ios":"levelo://app?vid=df8d9f60-67d3-4227-99b7-48c256f5c206"},"vehicle_type_id":"4","last_reported":1734408791,"current_range_meters":38800,"station_id":"ce4bgth2rcd13ifvqch0","pricing_plan_id":"cebpf4jnsgd1na2vs0mg"},{"bike_id":"a716bf4a-483b-4082-8d5e-a159c3e6bcca","system_id":"levelo_inurba_marseille","lat":43.2998,"lon":5.41306,"is_reserved":false,"is_disabled":true,"rental_uris":{"android":"levelo://app?vid=a716bf4a-483b-4082-8d5e-a159c3e6bcca","ios":"levelo://app?vid=a716bf4a-483b-4082-8d5e-a159c3e6bcca"},"vehicle_type_id":"4","last_reported":1734408791,"current_range_meters":32000,"station_id":"ce4bhp12rcd13ifvqh9g","pricing_plan_id":"cebpf4jnsgd1na2vs0mg"},{"bike_id":"3d267de2-ee4b-437e-ae53-7fc94a4768ee","system_id":"levelo_inurba_marseille","lat":43.28419,"lon":5.37514,"is_reserved":false,"is_disabled":false,"rental_uris":{"android":"levelo://app?vid=3d267de2-ee4b-437e-ae53-7fc94a4768ee","ios":"levelo://app?vid=3d267de2-ee4b-437e-ae53-7fc94a4768ee"},"vehicle_type_id":"4","last_reported":1734408791,"current_range_meters":7200,"station_id":"ce4bh412rcd13ifvqds0","pricing_plan_id":"cebpf4jnsgd1na2vs0mg"},{"bike_id":"75979f35-52fb-4ff9-aef4-c293842957ed","system_id":"levelo_inurba_marseille","lat":43.32569,"lon":5.41451,"is_reserved":false,"is_disabled":true,"rental_uris":{"android":"levelo://app?vid=75979f35-52fb-4ff9-aef4-c293842957ed","ios":"levelo://app?vid=75979f35-52fb-4ff9-aef4-c293842957ed"},"vehicle_type_id":"4","last_reported":1734408791,"current_range_meters":35200,"station_id":"","pricing_plan_id":"cebpf4jnsgd1na2vs0mg"},{"bike_id":"434843cf-9364-4dd4-8d3c-6f995f6c8fa3","system_id":"levelo_inurba_marseille","lat":43.23056,"lon":5.35495,"is_reserved":false,"is_disabled":false,"rental_uris":{"android":"levelo://app?vid=434843cf-9364-4dd4-8d3c-6f995f6c8fa3","ios":"levelo://app?vid=434843cf-9364-4dd4-8d3c-6f995f6c8fa3"},"vehicle_type_id":"4","last_reported":1734408791,"current_range_meters":25600,"station_id":"cpo3342slgdg3j2ifvpg","pricing_plan_id":"cebpf4jnsgd1na2vs0mg"},{"bike_id":"01dd261f-922b-4db8-a73b-009ae8f8ee61","system_id":"levelo_inurba_marseille","lat":43.30798,"lon":5.38159,"is_reserved":false,"is_disabled":false,"rental_uris":{"android":"levelo://app?vid=01dd261f-922b-4db8-a73b-009ae8f8ee61","ios":"levelo://app?vid=01dd261f-922b-4db8-a73b-009ae8f8ee61"},"vehicle_type_id":"4","last_reported":1734408791,"current_range_meters":9600,"station_id":"ce4bgt12rcd13ifvqce0","pricing_plan_id":"cebpf4jnsgd1na2vs0mg"},{"bike_id":"3c486d8c-f5a2-4087-8094-e3c8e2507354","system_id":"levelo_inurba_marseille","lat":43.25116,"lon":5.40416,"is_reserved":false,"is_disabled":false,"rental_uris":{"android":"levelo://app?vid=3c486d8c-f5a2-4087-8094-e3c8e2507354","ios":"levelo://app?vid=3c486d8c-f5a2-4087-8094-e3c8e2507354"},"vehicle_type_id":"4","last_reported":1734408791,"current_range_meters":26800,"station_id":"ce4bhlh2rcd13ifvqgig","pricing_plan_id":"cebpf4jnsgd1na2vs0mg"},{"bike_id":"ba98bdce-aee7-48db-921f-e5b23de6229a","system_id":"levelo_inurba_marseille","lat":43.33788,"lon":5.42094,"is_reserved":false,"is_disabled":true,"rental_uris":{"android":"levelo://app?vid=ba98bdce-aee7-48db-921f-e5b23de6229a","ios":"levelo://app?vid=ba98bdce-aee7-48db-921f-e5b23de6229a"},"vehicle_type_id":"4","last_reported":1734408791,"current_range_meters":0,"station_id":"","pricing_plan_id":"cebpf4jnsgd1na2vs0mg"},{"bike_id":"9cfc09f0-d43f-48e4-babe-f93a6fdf0d20","system_id":"levelo_inurba_marseille","lat":43.29182,"lon":5.35795,"is_reserved":false,"is_disabled":false,"rental_uris":{"android":"levelo://app?vid=9cfc09f0-d43f-48e4-babe-f93a6fdf0d20","ios":"levelo://app?vid=9cfc09f0-d43f-48e4-babe-f93a6fdf0d20"},"vehicle_type_id":"4","last_reported":1734408791,"current_range_meters":11200,"station_id":"ce4bhb12rcd13ifvqel0","pricing_plan_id":"cebpf4jnsgd1na2vs0mg"},{"bike_id":"4a362138-7fa3-4e22-886c-fe544747f1fc","system_id":"levelo_inurba_marseille","lat":43.28959,"lon":5.36371,"is_reserved":false,"is_disabled":false,"rental_uris":{"android":"levelo://app?vid=4a362138-7fa3-4e22-886c-fe544747f1fc","ios":"levelo://app?vid=4a362138-7fa3-4e22-886c-fe544747f1fc"},"vehicle_type_id":"4","last_reported":1734408791,"current_range_meters":25200,"station_id":"ce4bhc92rcd13ifvqetg","pricing_plan_id":"cebpf4jnsgd1na2vs0mg"},{"bike_id":"9a1338f2-16a3-4644-85a6-79582cb358ee","system_id":"levelo_inurba_marseille","lat":43.31302,"lon":5.38594,"is_reserved":false,"is_disabled":false,"rental_uris":{"android":"levelo://app?vid=9a1338f2-16a3-4644-85a6-79582cb358ee","ios":"levelo://app?vid=9a1338f2-16a3-4644-85a6-79582cb358ee"},"vehicle_type_id":"4","last_reported":1734408791,"current_range_meters":9600,"station_id":"","pricing_plan_id":"cebpf4jnsgd1na2vs0mg"},{"bike_id":"5acaff48-7325-4a5d-918f-3d56be2f8383","system_id":"levelo_inurba_marseille","lat":43.30532,"lon":5.3843,"is_reserved":false,"is_disabled":false,"rental_uris":{"android":"levelo://app?vid=5acaff48-7325-4a5d-918f-3d56be2f8383","ios":"levelo://app?vid=5acaff48-7325-4a5d-918f-3d56be2f8383"},"vehicle_type_id":"4","last_reported":1734408791,"current_range_meters":38800,"station_id":"ce4bgg92rcd13ifvqb30","pricing_plan_id":"cebpf4jnsgd1na2vs0mg"},{"bike_id":"e9e7807d-fbf4-40c3-a707-f9babe7d56c2","system_id":"levelo_inurba_marseille","lat":43.28611,"lon":5.37058,"is_reserved":false,"is_disabled":false,"rental_uris":{"android":"levelo://app?vid=e9e7807d-fbf4-40c3-a707-f9babe7d56c2","ios":"levelo://app?vid=e9e7807d-fbf4-40c3-a707-f9babe7d56c2"},"vehicle_type_id":"4","last_reported":1734408791,"current_range_meters":38800,"station_id":"ce4bht12rcd13ifvqi60","pricing_plan_id":"cebpf4jnsgd1na2vs0mg"},{"bike_id":"8275f4eb-07eb-44a4-8bd8-4036a333488d","system_id":"levelo_inurba_marseille","lat":43.25118,"lon":5.40317,"is_reserved":false,"is_disabled":false,"rental_uris":{"android":"levelo://app?vid=8275f4eb-07eb-44a4-8bd8-4036a333488d","ios":"levelo://app?vid=8275f4eb-07eb-44a4-8bd8-4036a333488d"},"vehicle_type_id":"4","last_reported":1734408791,"current_range_meters":34800,"station_id":"ce4bhlh2rcd13ifvqgig","pricing_plan_id":"cebpf4jnsgd1na2vs0mg"},{"bike_id":"c3e06171-606e-48df-8fdf-8daebe9ad97f","system_id":"levelo_inurba_marseille","lat":43.23188,"lon":5.39981,"is_reserved":false,"is_disabled":false,"rental_uris":{"android":"levelo://app?vid=c3e06171-606e-48df-8fdf-8daebe9ad97f","ios":"levelo://app?vid=c3e06171-606e-48df-8fdf-8daebe9ad97f"},"vehicle_type_id":"4","last_reported":1734408791,"current_range_meters":39200,"station_id":"ce4bhn12rcd13ifvqgqg","pricing_plan_id":"cebpf4jnsgd1na2vs0mg"},{"bike_id":"e140feec-2771-48c7-83d4-2c6bc36c1315","system_id":"levelo_inurba_marseille","lat":43.30896,"lon":5.39654,"is_reserved":false,"is_disabled":false,"rental_uris":{"android":"levelo://app?vid=e140feec-2771-48c7-83d4-2c6bc36c1315","ios":"levelo://app?vid=e140feec-2771-48c7-83d4-2c6bc36c1315"},"vehicle_type_id":"4","last_reported":1734408791,"current_range_meters":28800,"station_id":"ce4bh012rcd13ifvqcv0","pricing_plan_id":"cebpf4jnsgd1na2vs0mg"},{"bike_id":"eff0ee10-69f9-4d94-90b9-243d2e460994","system_id":"levelo_inurba_marseille","lat":43.26694,"lon":5.38267,"is_reserved":false,"is_disabled":false,"rental_uris":{"android":"levelo://app?vid=eff0ee10-69f9-4d94-90b9-243d2e460994","ios":"levelo://app?vid=eff0ee10-69f9-4d94-90b9-243d2e460994"},"vehicle_type_id":"4","last_reported":1734408791,"current_range_meters":20400,"station_id":"ce4bhg92rcd13ifvqf90","pricing_plan_id":"cebpf4jnsgd1na2vs0mg"},{"bike_id":"03a86a1d-ad23-45b9-b8c2-8ad21cf9e42f","system_id":"levelo_inurba_marseille","lat":43.26553,"lon":5.37295,"is_reserved":false,"is_disabled":false,"rental_uris":{"android":"levelo://app?vid=03a86a1d-ad23-45b9-b8c2-8ad21cf9e42f","ios":"levelo://app?vid=03a86a1d-ad23-45b9-b8c2-8ad21cf9e42f"},"vehicle_type_id":"4","last_reported":1734408791,"current_range_meters":38000,"station_id":"ce4bhg12rcd13ifvqf70","pricing_plan_id":"cebpf4jnsgd1na2vs0mg"},{"bike_id":"87ee05a6-7bf0-4b2d-98c3-db5d2162d893","system_id":"levelo_inurba_marseille","lat":43.299851,"lon":5.371856,"is_reserved":false,"is_disabled":false,"rental_uris":{"android":"levelo://app?vid=87ee05a6-7bf0-4b2d-98c3-db5d2162d893","ios":"levelo://app?vid=87ee05a6-7bf0-4b2d-98c3-db5d2162d893"},"vehicle_type_id":"4","last_reported":1734408791,"current_range_meters":38000,"station_id":"ce4bgr92rcd13ifvqc7g","pricing_plan_id":"cebpf4jnsgd1na2vs0mg"},{"bike_id":"e8649dca-63cd-44d1-8d73-065270fb8001","system_id":"levelo_inurba_marseille","lat":43.30135,"lon":5.3989,"is_reserved":false,"is_disabled":false,"rental_uris":{"android":"levelo://app?vid=e8649dca-63cd-44d1-8d73-065270fb8001","ios":"levelo://app?vid=e8649dca-63cd-44d1-8d73-065270fb8001"},"vehicle_type_id":"4","last_reported":1734408791,"current_range_meters":27600,"station_id":"ce4bh0h2rcd13ifvqd40","pricing_plan_id":"cebpf4jnsgd1na2vs0mg"},{"bike_id":"c0b753ba-4d49-4251-94d6-22c21097403a","system_id":"levelo_inurba_marseille","lat":43.29891,"lon":5.43653,"is_reserved":false,"is_disabled":false,"rental_uris":{"android":"levelo://app?vid=c0b753ba-4d49-4251-94d6-22c21097403a","ios":"levelo://app?vid=c0b753ba-4d49-4251-94d6-22c21097403a"},"vehicle_type_id":"4","last_reported":1734408791,"current_range_meters":18000,"station_id":"ce4bhpp2rcd13ifvqhfg","pricing_plan_id":"cebpf4jnsgd1na2vs0mg"},{"bike_id":"f90a56d8-6b58-4667-b1e0-9be9da1c9d3e","system_id":"levelo_inurba_marseille","lat":43.289335,"lon":5.379026,"is_reserved":false,"is_disabled":true,"rental_uris":{"android":"levelo://app?vid=f90a56d8-6b58-4667-b1e0-9be9da1c9d3e","ios":"levelo://app?vid=f90a56d8-6b58-4667-b1e0-9be9da1c9d3e"},"vehicle_type_id":"4","last_reported":1734408791,"current_range_meters":29600,"station_id":"","pricing_plan_id":"cebpf4jnsgd1na2vs0mg"},{"bike_id":"06a23c1a-d42a-4e1c-b1b4-ee94afa8cf99","system_id":"levelo_inurba_marseille","lat":43.28921,"lon":5.36427,"is_reserved":false,"is_disabled":false,"rental_uris":{"android":"levelo://app?vid=06a23c1a-d42a-4e1c-b1b4-ee94afa8cf99","ios":"levelo://app?vid=06a23c1a-d42a-4e1c-b1b4-ee94afa8cf99"},"vehicle_type_id":"4","last_reported":1734408791,"current_range_meters":24800,"station_id":"ce4bhc92rcd13ifvqetg","pricing_plan_id":"cebpf4jnsgd1na2vs0mg"},{"bike_id":"ecbca169-1285-49c3-8599-27d606689683","system_id":"levelo_inurba_marseille","lat":43.23174,"lon":5.43744,"is_reserved":false,"is_disabled":true,"rental_uris":{"android":"levelo://app?vid=ecbca169-1285-49c3-8599-27d606689683","ios":"levelo://app?vid=ecbca169-1285-49c3-8599-27d606689683"},"vehicle_type_id":"4","last_reported":1734408791,"current_range_meters":0,"station_id":"ce4bhmp2rcd13ifvqgog","pricing_plan_id":"cebpf4jnsgd1na2vs0mg"},{"bike_id":"c84b2943-d429-4852-8ae2-0b7dc34368c8","system_id":"levelo_inurba_marseille","lat":43.31895,"lon":5.40738,"is_reserved":false,"is_disabled":false,"rental_uris":{"android":"levelo://app?vid=c84b2943-d429-4852-8ae2-0b7dc34368c8","ios":"levelo://app?vid=c84b2943-d429-4852-8ae2-0b7dc34368c8"},"vehicle_type_id":"4","last_reported":1734408791,"current_range_meters":37600,"station_id":"ce4bhq12rcd13ifvqhig","pricing_plan_id":"cebpf4jnsgd1na2vs0mg"},{"bike_id":"0c281ba5-3f42-4962-a4d8-5f995bbb41ad","system_id":"levelo_inurba_marseille","lat":43.290082,"lon":5.356086,"is_reserved":false,"is_disabled":false,"rental_uris":{"android":"levelo://app?vid=0c281ba5-3f42-4962-a4d8-5f995bbb41ad","ios":"levelo://app?vid=0c281ba5-3f42-4962-a4d8-5f995bbb41ad"},"vehicle_type_id":"4","last_reported":1734408791,"current_range_meters":38000,"station_id":"ce4bhb92rcd13ifvqen0","pricing_plan_id":"cebpf4jnsgd1na2vs0mg"},{"bike_id":"e2fa2199-d3dd-47c3-8996-03d11144708e","system_id":"levelo_inurba_marseille","lat":43.33022,"lon":5.39037,"is_reserved":false,"is_disabled":false,"rental_uris":{"android":"levelo://app?vid=e2fa2199-d3dd-47c3-8996-03d11144708e","ios":"levelo://app?vid=e2fa2199-d3dd-47c3-8996-03d11144708e"},"vehicle_type_id":"4","last_reported":1734408791,"current_range_meters":38800,"station_id":"ce4bhr92rcd13ifvqhrg","pricing_plan_id":"cebpf4jnsgd1na2vs0mg"},{"bike_id":"cc236266-b4a4-4242-9542-29d54f50c8e0","system_id":"levelo_inurba_marseille","lat":43.311699,"lon":5.387096,"is_reserved":false,"is_disabled":false,"rental_uris":{"android":"levelo://app?vid=cc236266-b4a4-4242-9542-29d54f50c8e0","ios":"levelo://app?vid=cc236266-b4a4-4242-9542-29d54f50c8e0"},"vehicle_type_id":"4","last_reported":1734408791,"current_range_meters":35600,"station_id":"ce4bgv12rcd13ifvqcp0","pricing_plan_id":"cebpf4jnsgd1na2vs0mg"},{"bike_id":"d9e49cd9-d4b5-4ef4-98f8-834de6126cc0","system_id":"levelo_inurba_marseille","lat":43.28267,"lon":5.35081,"is_reserved":false,"is_disabled":false,"rental_uris":{"android":"levelo://app?vid=d9e49cd9-d4b5-4ef4-98f8-834de6126cc0","ios":"levelo://app?vid=d9e49cd9-d4b5-4ef4-98f8-834de6126cc0"},"vehicle_type_id":"4","last_reported":1734408791,"current_range_meters":38000,"station_id":"ce4bhbp2rcd13ifvqerg","pricing_plan_id":"cebpf4jnsgd1na2vs0mg"},{"bike_id":"c3123191-8af3-4905-b6f5-28cd8730b742","system_id":"levelo_inurba_marseille","lat":43.31322,"lon":5.39708,"is_reserved":false,"is_disabled":false,"rental_uris":{"android":"levelo://app?vid=c3123191-8af3-4905-b6f5-28cd8730b742","ios":"levelo://app?vid=c3123191-8af3-4905-b6f5-28cd8730b742"},"vehicle_type_id":"4","last_reported":1734408791,"current_range_meters":30800,"station_id":"ce4bgvp2rcd13ifvqcu0","pricing_plan_id":"cebpf4jnsgd1na2vs0mg"},{"bike_id":"0854f93a-27ef-4312-bd8f-be30bba0059f","system_id":"levelo_inurba_marseille","lat":43.286178,"lon":5.35102,"is_reserved":false,"is_disabled":true,"rental_uris":{"android":"levelo://app?vid=0854f93a-27ef-4312-bd8f-be30bba0059f","ios":"levelo://app?vid=0854f93a-27ef-4312-bd8f-be30bba0059f"},"vehicle_type_id":"4","last_reported":1734408791,"current_range_meters":25600,"station_id":"","pricing_plan_id":"cebpf4jnsgd1na2vs0mg"},{"bike_id":"aba89028-2dad-4f7b-a390-4dbdf8068634","system_id":"levelo_inurba_marseille","lat":43.29552,"lon":5.42293,"is_reserved":false,"is_disabled":false,"rental_uris":{"android":"levelo://app?vid=aba89028-2dad-4f7b-a390-4dbdf8068634","ios":"levelo://app?vid=aba89028-2dad-4f7b-a390-4dbdf8068634"},"vehicle_type_id":"4","last_reported":1734408791,"current_range_meters":33600,"station_id":"ce4bhph2rcd13ifvqhdg","pricing_plan_id":"cebpf4jnsgd1na2vs0mg"},{"bike_id":"b89cace3-fd84-4fd5-b7d4-63c8d0b748f3","system_id":"levelo_inurba_marseille","lat":43.30138,"lon":5.39886,"is_reserved":false,"is_disabled":false,"rental_uris":{"android":"levelo://app?vid=b89cace3-fd84-4fd5-b7d4-63c8d0b748f3","ios":"levelo://app?vid=b89cace3-fd84-4fd5-b7d4-63c8d0b748f3"},"vehicle_type_id":"4","last_reported":1734408791,"current_range_meters":36800,"station_id":"ce4bh0h2rcd13ifvqd40","pricing_plan_id":"cebpf4jnsgd1na2vs0mg"},{"bike_id":"c4270ea9-5ce6-4111-8dc1-8ae345013bb1","system_id":"levelo_inurba_marseille","lat":43.27185,"lon":5.40995,"is_reserved":false,"is_disabled":false,"rental_uris":{"android":"levelo://app?vid=c4270ea9-5ce6-4111-8dc1-8ae345013bb1","ios":"levelo://app?vid=c4270ea9-5ce6-4111-8dc1-8ae345013bb1"},"vehicle_type_id":"4","last_reported":1734408791,"current_range_meters":12400,"station_id":"ce4bhl12rcd13ifvqgf0","pricing_plan_id":"cebpf4jnsgd1na2vs0mg"},{"bike_id":"c0a0c9e6-d71d-42e0-9b1f-2849721da8f4","system_id":"levelo_inurba_marseille","lat":43.27185,"lon":5.40978,"is_reserved":false,"is_disabled":false,"rental_uris":{"android":"levelo://app?vid=c0a0c9e6-d71d-42e0-9b1f-2849721da8f4","ios":"levelo://app?vid=c0a0c9e6-d71d-42e0-9b1f-2849721da8f4"},"vehicle_type_id":"4","last_reported":1734408791,"current_range_meters":22000,"station_id":"ce4bhl12rcd13ifvqgf0","pricing_plan_id":"cebpf4jnsgd1na2vs0mg"},{"bike_id":"4307528f-73ef-4ebb-ab88-bcab69796fe2","system_id":"levelo_inurba_marseille","lat":43.30572,"lon":5.39372,"is_reserved":false,"is_disabled":false,"rental_uris":{"android":"levelo://app?vid=4307528f-73ef-4ebb-ab88-bcab69796fe2","ios":"levelo://app?vid=4307528f-73ef-4ebb-ab88-bcab69796fe2"},"vehicle_type_id":"4","last_reported":1734408791,"current_range_meters":12800,"station_id":"ce4bh0p2rcd13ifvqd80","pricing_plan_id":"cebpf4jnsgd1na2vs0mg"},{"bike_id":"d9f638ef-8ccb-454e-adae-4e085f7e7956","system_id":"levelo_inurba_marseille","lat":43.24383,"lon":5.37052,"is_reserved":false,"is_disabled":false,"rental_uris":{"android":"levelo://app?vid=d9f638ef-8ccb-454e-adae-4e085f7e7956","ios":"levelo://app?vid=d9f638ef-8ccb-454e-adae-4e085f7e7956"},"vehicle_type_id":"4","last_reported":1734408791,"current_range_meters":38800,"station_id":"ce4bhhh2rcd13ifvqfk0","pricing_plan_id":"cebpf4jnsgd1na2vs0mg"},{"bike_id":"bc58f67f-2d15-4b81-980e-a5b29618e48d","system_id":"levelo_inurba_marseille","lat":43.30444,"lon":5.38893,"is_reserved":false,"is_disabled":true,"rental_uris":{"android":"levelo://app?vid=bc58f67f-2d15-4b81-980e-a5b29618e48d","ios":"levelo://app?vid=bc58f67f-2d15-4b81-980e-a5b29618e48d"},"vehicle_type_id":"4","last_reported":1734408791,"current_range_meters":24000,"station_id":"ce4bgk12rcd13ifvqbi0","pricing_plan_id":"cebpf4jnsgd1na2vs0mg"},{"bike_id":"209bd16c-28da-4aaf-91b3-949cf5d910d0","system_id":"levelo_inurba_marseille","lat":43.292578,"lon":5.38434,"is_reserved":false,"is_disabled":true,"rental_uris":{"android":"levelo://app?vid=209bd16c-28da-4aaf-91b3-949cf5d910d0","ios":"levelo://app?vid=209bd16c-28da-4aaf-91b3-949cf5d910d0"},"vehicle_type_id":"4","last_reported":1734408791,"current_range_meters":22000,"station_id":"ce4bh692rcd13ifvqea0","pricing_plan_id":"cebpf4jnsgd1na2vs0mg"},{"bike_id":"14270be7-87cd-4bad-92bc-7f49cbd5cacd","system_id":"levelo_inurba_marseille","lat":43.28163,"lon":5.42649,"is_reserved":false,"is_disabled":false,"rental_uris":{"android":"levelo://app?vid=14270be7-87cd-4bad-92bc-7f49cbd5cacd","ios":"levelo://app?vid=14270be7-87cd-4bad-92bc-7f49cbd5cacd"},"vehicle_type_id":"4","last_reported":1734408791,"current_range_meters":10800,"station_id":"ce4bhnh2rcd13ifvqgug","pricing_plan_id":"cebpf4jnsgd1na2vs0mg"},{"bike_id":"555e7050-23c8-4f64-9c01-6f8aa78f8bb7","system_id":"levelo_inurba_marseille","lat":43.30529,"lon":5.38431,"is_reserved":false,"is_disabled":false,"rental_uris":{"android":"levelo://app?vid=555e7050-23c8-4f64-9c01-6f8aa78f8bb7","ios":"levelo://app?vid=555e7050-23c8-4f64-9c01-6f8aa78f8bb7"},"vehicle_type_id":"4","last_reported":1734408791,"current_range_meters":37600,"station_id":"ce4bgg92rcd13ifvqb30","pricing_plan_id":"cebpf4jnsgd1na2vs0mg"},{"bike_id":"7b70bd7c-233a-4d42-9c2b-cff9df18c3b2","system_id":"levelo_inurba_marseille","lat":43.29283,"lon":5.4012,"is_reserved":false,"is_disabled":true,"rental_uris":{"android":"levelo://app?vid=7b70bd7c-233a-4d42-9c2b-cff9df18c3b2","ios":"levelo://app?vid=7b70bd7c-233a-4d42-9c2b-cff9df18c3b2"},"vehicle_type_id":"4","last_reported":1734408791,"current_range_meters":0,"station_id":"ce4bh312rcd13ifvqdk0","pricing_plan_id":"cebpf4jnsgd1na2vs0mg"},{"bike_id":"9deef00e-810f-42c9-a63d-00fba51c2b82","system_id":"levelo_inurba_marseille","lat":43.336138,"lon":5.41037,"is_reserved":false,"is_disabled":false,"rental_uris":{"android":"levelo://app?vid=9deef00e-810f-42c9-a63d-00fba51c2b82","ios":"levelo://app?vid=9deef00e-810f-42c9-a63d-00fba51c2b82"},"vehicle_type_id":"4","last_reported":1734408791,"current_range_meters":39200,"station_id":"ce4bhqh2rcd13ifvqhmg","pricing_plan_id":"cebpf4jnsgd1na2vs0mg"},{"bike_id":"9595ff7a-ff62-488c-b31c-ab18b0cf92a2","system_id":"levelo_inurba_marseille","lat":43.23962,"lon":5.3663,"is_reserved":false,"is_disabled":false,"rental_uris":{"android":"levelo://app?vid=9595ff7a-ff62-488c-b31c-ab18b0cf92a2","ios":"levelo://app?vid=9595ff7a-ff62-488c-b31c-ab18b0cf92a2"},"vehicle_type_id":"4","last_reported":1734408791,"current_range_meters":38800,"station_id":"ce4bhi12rcd13ifvqfp0","pricing_plan_id":"cebpf4jnsgd1na2vs0mg"},{"bike_id":"eeed152f-b0af-481f-83b6-5a77a6023927","system_id":"levelo_inurba_marseille","lat":43.31221,"lon":5.36867,"is_reserved":false,"is_disabled":false,"rental_uris":{"android":"levelo://app?vid=eeed152f-b0af-481f-83b6-5a77a6023927","ios":"levelo://app?vid=eeed152f-b0af-481f-83b6-5a77a6023927"},"vehicle_type_id":"4","last_reported":1734408791,"current_range_meters":38800,"station_id":"ce4bgl92rcd13ifvqbq0","pricing_plan_id":"cebpf4jnsgd1na2vs0mg"},{"bike_id":"3fb6596b-b720-4e37-88d1-377c7a736425","system_id":"levelo_inurba_marseille","lat":43.23192,"lon":5.35557,"is_reserved":false,"is_disabled":false,"rental_uris":{"android":"levelo://app?vid=3fb6596b-b720-4e37-88d1-377c7a736425","ios":"levelo://app?vid=3fb6596b-b720-4e37-88d1-377c7a736425"},"vehicle_type_id":"4","last_reported":1734408791,"current_range_meters":38800,"station_id":"ce4bhu92rcd13ifvqi70","pricing_plan_id":"cebpf4jnsgd1na2vs0mg"},{"bike_id":"8914bb17-7251-4066-b905-d58eaff8838d","system_id":"levelo_inurba_marseille","lat":43.2718,"lon":5.40992,"is_reserved":false,"is_disabled":false,"rental_uris":{"android":"levelo://app?vid=8914bb17-7251-4066-b905-d58eaff8838d","ios":"levelo://app?vid=8914bb17-7251-4066-b905-d58eaff8838d"},"vehicle_type_id":"4","last_reported":1734408791,"current_range_meters":27200,"station_id":"ce4bhl12rcd13ifvqgf0","pricing_plan_id":"cebpf4jnsgd1na2vs0mg"},{"bike_id":"8ee62417-ba9c-4b61-84a5-5bd7e2cbee2e","system_id":"levelo_inurba_marseille","lat":43.337444,"lon":5.374475,"is_reserved":false,"is_disabled":true,"rental_uris":{"android":"levelo://app?vid=8ee62417-ba9c-4b61-84a5-5bd7e2cbee2e","ios":"levelo://app?vid=8ee62417-ba9c-4b61-84a5-5bd7e2cbee2e"},"vehicle_type_id":"4","last_reported":1734408791,"current_range_meters":0,"station_id":"","pricing_plan_id":"cebpf4jnsgd1na2vs0mg"},{"bike_id":"20c4d571-f9f9-426e-8c0f-9955d737fd82","system_id":"levelo_inurba_marseille","lat":43.26809,"lon":5.40264,"is_reserved":false,"is_disabled":false,"rental_uris":{"android":"levelo://app?vid=20c4d571-f9f9-426e-8c0f-9955d737fd82","ios":"levelo://app?vid=20c4d571-f9f9-426e-8c0f-9955d737fd82"},"vehicle_type_id":"4","last_reported":1734408791,"current_range_meters":11200,"station_id":"ce501612rcd8frsf0b60","pricing_plan_id":"cebpf4jnsgd1na2vs0mg"},{"bike_id":"d2294c64-af77-450b-b299-fc06315dbf1a","system_id":"levelo_inurba_marseille","lat":43.29307,"lon":5.37183,"is_reserved":false,"is_disabled":true,"rental_uris":{"android":"levelo://app?vid=d2294c64-af77-450b-b299-fc06315dbf1a","ios":"levelo://app?vid=d2294c64-af77-450b-b299-fc06315dbf1a"},"vehicle_type_id":"4","last_reported":1734408791,"current_range_meters":19200,"station_id":"ce4bgh92rcd13ifvqb40","pricing_plan_id":"cebpf4jnsgd1na2vs0mg"},{"bike_id":"efc57f04-4351-4676-97a0-14c3c2859977","system_id":"levelo_inurba_marseille","lat":43.295948,"lon":5.367541,"is_reserved":false,"is_disabled":false,"rental_uris":{"android":"levelo://app?vid=efc57f04-4351-4676-97a0-14c3c2859977","ios":"levelo://app?vid=efc57f04-4351-4676-97a0-14c3c2859977"},"vehicle_type_id":"4","last_reported":1734408791,"current_range_meters":38800,"station_id":"ce4bgph2rcd13ifvqc2g","pricing_plan_id":"cebpf4jnsgd1na2vs0mg"},{"bike_id":"056177a6-f3a6-40fa-80e0-574bf5840c95","system_id":"levelo_inurba_marseille","lat":43.283623,"lon":5.386404,"is_reserved":false,"is_disabled":true,"rental_uris":{"android":"levelo://app?vid=056177a6-f3a6-40fa-80e0-574bf5840c95","ios":"levelo://app?vid=056177a6-f3a6-40fa-80e0-574bf5840c95"},"vehicle_type_id":"4","last_reported":1734408791,"current_range_meters":27600,"station_id":"ce4bh492rcd13ifvqdvg","pricing_plan_id":"cebpf4jnsgd1na2vs0mg"},{"bike_id":"2a03e7a9-e623-43fe-99c0-8c16e6af2b40","system_id":"levelo_inurba_marseille","lat":43.269871,"lon":5.398713,"is_reserved":false,"is_disabled":false,"rental_uris":{"android":"levelo://app?vid=2a03e7a9-e623-43fe-99c0-8c16e6af2b40","ios":"levelo://app?vid=2a03e7a9-e623-43fe-99c0-8c16e6af2b40"},"vehicle_type_id":"4","last_reported":1734408791,"current_range_meters":12800,"station_id":"","pricing_plan_id":"cebpf4jnsgd1na2vs0mg"},{"bike_id":"32d1df07-0c63-4e6c-87ad-7c97c2cbc8ce","system_id":"levelo_inurba_marseille","lat":43.30889,"lon":5.3965,"is_reserved":false,"is_disabled":false,"rental_uris":{"android":"levelo://app?vid=32d1df07-0c63-4e6c-87ad-7c97c2cbc8ce","ios":"levelo://app?vid=32d1df07-0c63-4e6c-87ad-7c97c2cbc8ce"},"vehicle_type_id":"4","last_reported":1734408791,"current_range_meters":17600,"station_id":"ce4bh012rcd13ifvqcv0","pricing_plan_id":"cebpf4jnsgd1na2vs0mg"},{"bike_id":"b10d48f1-c7ec-4c0f-a97b-b71c2f6a750b","system_id":"levelo_inurba_marseille","lat":43.28928,"lon":5.36397,"is_reserved":false,"is_disabled":false,"rental_uris":{"android":"levelo://app?vid=b10d48f1-c7ec-4c0f-a97b-b71c2f6a750b","ios":"levelo://app?vid=b10d48f1-c7ec-4c0f-a97b-b71c2f6a750b"},"vehicle_type_id":"4","last_reported":1734408791,"current_range_meters":38800,"station_id":"ce4bhc92rcd13ifvqetg","pricing_plan_id":"cebpf4jnsgd1na2vs0mg"},{"bike_id":"0e009e2b-5946-4a59-bf02-ae4910d6465b","system_id":"levelo_inurba_marseille","lat":43.295545,"lon":5.42287,"is_reserved":false,"is_disabled":false,"rental_uris":{"android":"levelo://app?vid=0e009e2b-5946-4a59-bf02-ae4910d6465b","ios":"levelo://app?vid=0e009e2b-5946-4a59-bf02-ae4910d6465b"},"vehicle_type_id":"4","last_reported":1734408791,"current_range_meters":8400,"station_id":"ce4bhph2rcd13ifvqhdg","pricing_plan_id":"cebpf4jnsgd1na2vs0mg"},{"bike_id":"d82023e7-5914-44f9-8b97-0992779a3467","system_id":"levelo_inurba_marseille","lat":43.245464,"lon":5.395246,"is_reserved":false,"is_disabled":false,"rental_uris":{"android":"levelo://app?vid=d82023e7-5914-44f9-8b97-0992779a3467","ios":"levelo://app?vid=d82023e7-5914-44f9-8b97-0992779a3467"},"vehicle_type_id":"4","last_reported":1734408791,"current_range_meters":38800,"station_id":"ce4bhlp2rcd13ifvqgjg","pricing_plan_id":"cebpf4jnsgd1na2vs0mg"},{"bike_id":"0e2e421d-cab6-4bab-ab43-0de2daec6dd5","system_id":"levelo_inurba_marseille","lat":43.278805,"lon":5.388003,"is_reserved":false,"is_disabled":true,"rental_uris":{"android":"levelo://app?vid=0e2e421d-cab6-4bab-ab43-0de2daec6dd5","ios":"levelo://app?vid=0e2e421d-cab6-4bab-ab43-0de2daec6dd5"},"vehicle_type_id":"4","last_reported":1734408791,"current_range_meters":0,"station_id":"","pricing_plan_id":"cebpf4jnsgd1na2vs0mg"},{"bike_id":"8502b089-cc21-4430-ae9b-191f30338f55","system_id":"levelo_inurba_marseille","lat":43.29267,"lon":5.3893,"is_reserved":false,"is_disabled":false,"rental_uris":{"android":"levelo://app?vid=8502b089-cc21-4430-ae9b-191f30338f55","ios":"levelo://app?vid=8502b089-cc21-4430-ae9b-191f30338f55"},"vehicle_type_id":"4","last_reported":1734408791,"current_range_meters":10000,"station_id":"","pricing_plan_id":"cebpf4jnsgd1na2vs0mg"},{"bike_id":"bf85f0b9-c86c-43a7-bfe7-23af3028a90a","system_id":"levelo_inurba_marseille","lat":43.25573,"lon":5.38243,"is_reserved":false,"is_disabled":false,"rental_uris":{"android":"levelo://app?vid=bf85f0b9-c86c-43a7-bfe7-23af3028a90a","ios":"levelo://app?vid=bf85f0b9-c86c-43a7-bfe7-23af3028a90a"},"vehicle_type_id":"4","last_reported":1734408791,"current_range_meters":38800,"station_id":"ce4bhih2rcd13ifvqfs0","pricing_plan_id":"cebpf4jnsgd1na2vs0mg"},{"bike_id":"25c0c336-834d-421d-b66d-e51c42a0ba97","system_id":"levelo_inurba_marseille","lat":43.30725,"lon":5.36822,"is_reserved":false,"is_disabled":false,"rental_uris":{"android":"levelo://app?vid=25c0c336-834d-421d-b66d-e51c42a0ba97","ios":"levelo://app?vid=25c0c336-834d-421d-b66d-e51c42a0ba97"},"vehicle_type_id":"4","last_reported":1734408791,"current_range_meters":11600,"station_id":"","pricing_plan_id":"cebpf4jnsgd1na2vs0mg"},{"bike_id":"048041f3-0a08-4bb3-967a-efe1acd6593e","system_id":"levelo_inurba_marseille","lat":43.25499,"lon":5.37657,"is_reserved":false,"is_disabled":false,"rental_uris":{"android":"levelo://app?vid=048041f3-0a08-4bb3-967a-efe1acd6593e","ios":"levelo://app?vid=048041f3-0a08-4bb3-967a-efe1acd6593e"},"vehicle_type_id":"4","last_reported":1734408791,"current_range_meters":38000,"station_id":"ce4bhh12rcd13ifvqff0","pricing_plan_id":"cebpf4jnsgd1na2vs0mg"},{"bike_id":"5e10a06f-6d61-4ebb-9345-c784442507a3","system_id":"levelo_inurba_marseille","lat":43.32491,"lon":5.36562,"is_reserved":false,"is_disabled":true,"rental_uris":{"android":"levelo://app?vid=5e10a06f-6d61-4ebb-9345-c784442507a3","ios":"levelo://app?vid=5e10a06f-6d61-4ebb-9345-c784442507a3"},"vehicle_type_id":"4","last_reported":1734408791,"current_range_meters":38800,"station_id":"ce4bhs12rcd13ifvqhvg","pricing_plan_id":"cebpf4jnsgd1na2vs0mg"},{"bike_id":"1469fe98-071b-47c8-a80a-3e20f248b4b8","system_id":"levelo_inurba_marseille","lat":43.28086,"lon":5.3785,"is_reserved":false,"is_disabled":false,"rental_uris":{"android":"levelo://app?vid=1469fe98-071b-47c8-a80a-3e20f248b4b8","ios":"levelo://app?vid=1469fe98-071b-47c8-a80a-3e20f248b4b8"},"vehicle_type_id":"4","last_reported":1734408791,"current_range_meters":37600,"station_id":"ce4bha12rcd13ifvqee0","pricing_plan_id":"cebpf4jnsgd1na2vs0mg"},{"bike_id":"54a85025-694f-47a0-8f8f-7005fb77c937","system_id":"levelo_inurba_marseille","lat":43.28083,"lon":5.39648,"is_reserved":false,"is_disabled":false,"rental_uris":{"android":"levelo://app?vid=54a85025-694f-47a0-8f8f-7005fb77c937","ios":"levelo://app?vid=54a85025-694f-47a0-8f8f-7005fb77c937"},"vehicle_type_id":"4","last_reported":1734408791,"current_range_meters":36400,"station_id":"ce4bho12rcd13ifvqh2g","pricing_plan_id":"cebpf4jnsgd1na2vs0mg"},{"bike_id":"584b569e-7298-4afe-b48b-612c38273697","system_id":"levelo_inurba_marseille","lat":43.31073,"lon":5.3835,"is_reserved":false,"is_disabled":true,"rental_uris":{"android":"levelo://app?vid=584b569e-7298-4afe-b48b-612c38273697","ios":"levelo://app?vid=584b569e-7298-4afe-b48b-612c38273697"},"vehicle_type_id":"4","last_reported":1734408791,"current_range_meters":0,"station_id":"ce4bgv92rcd13ifvqcr0","pricing_plan_id":"cebpf4jnsgd1na2vs0mg"},{"bike_id":"6fcca420-7b9a-4500-9580-675e569a2a96","system_id":"levelo_inurba_marseille","lat":43.2655,"lon":5.37294,"is_reserved":false,"is_disabled":false,"rental_uris":{"android":"levelo://app?vid=6fcca420-7b9a-4500-9580-675e569a2a96","ios":"levelo://app?vid=6fcca420-7b9a-4500-9580-675e569a2a96"},"vehicle_type_id":"4","last_reported":1734408791,"current_range_meters":24400,"station_id":"ce4bhg12rcd13ifvqf70","pricing_plan_id":"cebpf4jnsgd1na2vs0mg"},{"bike_id":"120abb77-5811-4e7b-9581-8e972edf37fd","system_id":"levelo_inurba_marseille","lat":43.297894,"lon":5.371151,"is_reserved":false,"is_disabled":true,"rental_uris":{"android":"levelo://app?vid=120abb77-5811-4e7b-9581-8e972edf37fd","ios":"levelo://app?vid=120abb77-5811-4e7b-9581-8e972edf37fd"},"vehicle_type_id":"4","last_reported":1734408791,"current_range_meters":38400,"station_id":"ce4bgop2rcd13ifvqc1g","pricing_plan_id":"cebpf4jnsgd1na2vs0mg"},{"bike_id":"11600c38-dc3d-4aea-88bc-c214298d70f1","system_id":"levelo_inurba_marseille","lat":43.28443,"lon":5.35876,"is_reserved":false,"is_disabled":false,"rental_uris":{"android":"levelo://app?vid=11600c38-dc3d-4aea-88bc-c214298d70f1","ios":"levelo://app?vid=11600c38-dc3d-4aea-88bc-c214298d70f1"},"vehicle_type_id":"4","last_reported":1734408791,"current_range_meters":36800,"station_id":"ce4bhah2rcd13ifvqei0","pricing_plan_id":"cebpf4jnsgd1na2vs0mg"},{"bike_id":"2b15d063-7a3f-4ab1-9a96-79820bd042f5","system_id":"levelo_inurba_marseille","lat":43.302424,"lon":5.400693,"is_reserved":false,"is_disabled":true,"rental_uris":{"android":"levelo://app?vid=2b15d063-7a3f-4ab1-9a96-79820bd042f5","ios":"levelo://app?vid=2b15d063-7a3f-4ab1-9a96-79820bd042f5"},"vehicle_type_id":"4","last_reported":1734408791,"current_range_meters":18000,"station_id":"ce4bgvh2rcd13ifvqcs0","pricing_plan_id":"cebpf4jnsgd1na2vs0mg"},{"bike_id":"bfe5e067-4070-40f8-8cac-6448828a3f77","system_id":"levelo_inurba_marseille","lat":43.29867,"lon":5.39735,"is_reserved":false,"is_disabled":false,"rental_uris":{"android":"levelo://app?vid=bfe5e067-4070-40f8-8cac-6448828a3f77","ios":"levelo://app?vid=bfe5e067-4070-40f8-8cac-6448828a3f77"},"vehicle_type_id":"4","last_reported":1734408791,"current_range_meters":38800,"station_id":"ce4bh0h2rcd13ifvqd50","pricing_plan_id":"cebpf4jnsgd1na2vs0mg"},{"bike_id":"a8e8da64-46d2-4140-a717-5860e695aab7","system_id":"levelo_inurba_marseille","lat":43.2835,"lon":5.38112,"is_reserved":false,"is_disabled":false,"rental_uris":{"android":"levelo://app?vid=a8e8da64-46d2-4140-a717-5860e695aab7","ios":"levelo://app?vid=a8e8da64-46d2-4140-a717-5860e695aab7"},"vehicle_type_id":"4","last_reported":1734408791,"current_range_meters":38800,"station_id":"ce4bh412rcd13ifvqdr0","pricing_plan_id":"cebpf4jnsgd1na2vs0mg"},{"bike_id":"54c11d0c-45a0-42d8-8ca0-d10a61cb44e5","system_id":"levelo_inurba_marseille","lat":43.2655,"lon":5.37288,"is_reserved":false,"is_disabled":false,"rental_uris":{"android":"levelo://app?vid=54c11d0c-45a0-42d8-8ca0-d10a61cb44e5","ios":"levelo://app?vid=54c11d0c-45a0-42d8-8ca0-d10a61cb44e5"},"vehicle_type_id":"4","last_reported":1734408791,"current_range_meters":29600,"station_id":"ce4bhg12rcd13ifvqf70","pricing_plan_id":"cebpf4jnsgd1na2vs0mg"},{"bike_id":"63b80b07-02f6-4570-afe0-999789fb48d9","system_id":"levelo_inurba_marseille","lat":43.25497,"lon":5.376532,"is_reserved":false,"is_disabled":false,"rental_uris":{"android":"levelo://app?vid=63b80b07-02f6-4570-afe0-999789fb48d9","ios":"levelo://app?vid=63b80b07-02f6-4570-afe0-999789fb48d9"},"vehicle_type_id":"4","last_reported":1734408791,"current_range_meters":37600,"station_id":"ce4bhh12rcd13ifvqff0","pricing_plan_id":"cebpf4jnsgd1na2vs0mg"},{"bike_id":"2b0d00ea-e18e-4e2b-9087-38d7d88e3458","system_id":"levelo_inurba_marseille","lat":43.28934,"lon":5.36395,"is_reserved":false,"is_disabled":false,"rental_uris":{"android":"levelo://app?vid=2b0d00ea-e18e-4e2b-9087-38d7d88e3458","ios":"levelo://app?vid=2b0d00ea-e18e-4e2b-9087-38d7d88e3458"},"vehicle_type_id":"4","last_reported":1734408791,"current_range_meters":38800,"station_id":"ce4bhc92rcd13ifvqetg","pricing_plan_id":"cebpf4jnsgd1na2vs0mg"},{"bike_id":"8c7e2759-1761-4283-8484-bda9243b869e","system_id":"levelo_inurba_marseille","lat":43.32484,"lon":5.36562,"is_reserved":false,"is_disabled":false,"rental_uris":{"android":"levelo://app?vid=8c7e2759-1761-4283-8484-bda9243b869e","ios":"levelo://app?vid=8c7e2759-1761-4283-8484-bda9243b869e"},"vehicle_type_id":"4","last_reported":1734408791,"current_range_meters":39200,"station_id":"ce4bhs12rcd13ifvqhvg","pricing_plan_id":"cebpf4jnsgd1na2vs0mg"},{"bike_id":"5e68685b-5a26-4a2c-81cf-c3ecf4f3378f","system_id":"levelo_inurba_marseille","lat":43.2844,"lon":5.35884,"is_reserved":false,"is_disabled":false,"rental_uris":{"android":"levelo://app?vid=5e68685b-5a26-4a2c-81cf-c3ecf4f3378f","ios":"levelo://app?vid=5e68685b-5a26-4a2c-81cf-c3ecf4f3378f"},"vehicle_type_id":"4","last_reported":1734408791,"current_range_meters":31200,"station_id":"ce4bhah2rcd13ifvqei0","pricing_plan_id":"cebpf4jnsgd1na2vs0mg"},{"bike_id":"57dd0c1d-c442-4111-819c-722da721fac4","system_id":"levelo_inurba_marseille","lat":43.298813,"lon":5.389128,"is_reserved":false,"is_disabled":false,"rental_uris":{"android":"levelo://app?vid=57dd0c1d-c442-4111-819c-722da721fac4","ios":"levelo://app?vid=57dd0c1d-c442-4111-819c-722da721fac4"},"vehicle_type_id":"4","last_reported":1734408791,"current_range_meters":38800,"station_id":"ce4bh392rcd13ifvqdl0","pricing_plan_id":"cebpf4jnsgd1na2vs0mg"},{"bike_id":"865920f3-1ff2-409f-b448-e657ecc61490","system_id":"levelo_inurba_marseille","lat":43.285633,"lon":5.395011,"is_reserved":false,"is_disabled":false,"rental_uris":{"android":"levelo://app?vid=865920f3-1ff2-409f-b448-e657ecc61490","ios":"levelo://app?vid=865920f3-1ff2-409f-b448-e657ecc61490"},"vehicle_type_id":"4","last_reported":1734408791,"current_range_meters":24800,"station_id":"ce4bh292rcd13ifvqdg0","pricing_plan_id":"cebpf4jnsgd1na2vs0mg"},{"bike_id":"d600d5f9-a3e6-4b94-ba8f-df9f8ed10059","system_id":"levelo_inurba_marseille","lat":43.24548,"lon":5.39531,"is_reserved":false,"is_disabled":false,"rental_uris":{"android":"levelo://app?vid=d600d5f9-a3e6-4b94-ba8f-df9f8ed10059","ios":"levelo://app?vid=d600d5f9-a3e6-4b94-ba8f-df9f8ed10059"},"vehicle_type_id":"4","last_reported":1734408791,"current_range_meters":12400,"station_id":"ce4bhlp2rcd13ifvqgjg","pricing_plan_id":"cebpf4jnsgd1na2vs0mg"},{"bike_id":"6bcea96b-2fd2-4aa6-b10c-d89cef8832d2","system_id":"levelo_inurba_marseille","lat":43.29255,"lon":5.40901,"is_reserved":false,"is_disabled":false,"rental_uris":{"android":"levelo://app?vid=6bcea96b-2fd2-4aa6-b10c-d89cef8832d2","ios":"levelo://app?vid=6bcea96b-2fd2-4aa6-b10c-d89cef8832d2"},"vehicle_type_id":"4","last_reported":1734408791,"current_range_meters":38800,"station_id":"ce4bh192rcd13ifvqdc0","pricing_plan_id":"cebpf4jnsgd1na2vs0mg"},{"bike_id":"d56b8641-06e1-4323-9a69-75ab328d3cd1","system_id":"levelo_inurba_marseille","lat":43.23183,"lon":5.39984,"is_reserved":false,"is_disabled":false,"rental_uris":{"android":"levelo://app?vid=d56b8641-06e1-4323-9a69-75ab328d3cd1","ios":"levelo://app?vid=d56b8641-06e1-4323-9a69-75ab328d3cd1"},"vehicle_type_id":"4","last_reported":1734408791,"current_range_meters":38800,"station_id":"ce4bhn12rcd13ifvqgqg","pricing_plan_id":"cebpf4jnsgd1na2vs0mg"},{"bike_id":"76ec3642-6b04-4fa3-81b8-996f867e214d","system_id":"levelo_inurba_marseille","lat":43.24172,"lon":5.39716,"is_reserved":false,"is_disabled":true,"rental_uris":{"android":"levelo://app?vid=76ec3642-6b04-4fa3-81b8-996f867e214d","ios":"levelo://app?vid=76ec3642-6b04-4fa3-81b8-996f867e214d"},"vehicle_type_id":"4","last_reported":1734408791,"current_range_meters":14400,"station_id":"ce4bhn12rcd13ifvqgpg","pricing_plan_id":"cebpf4jnsgd1na2vs0mg"},{"bike_id":"a88760a5-bded-4b2b-92be-418e7a03d3a5","system_id":"levelo_inurba_marseille","lat":43.29614,"lon":5.37713,"is_reserved":false,"is_disabled":true,"rental_uris":{"android":"levelo://app?vid=a88760a5-bded-4b2b-92be-418e7a03d3a5","ios":"levelo://app?vid=a88760a5-bded-4b2b-92be-418e7a03d3a5"},"vehicle_type_id":"4","last_reported":1734408791,"current_range_meters":0,"station_id":"ce4bgi92rcd13ifvqb90","pricing_plan_id":"cebpf4jnsgd1na2vs0mg"},{"bike_id":"79f3ae0d-6333-4e50-b3b7-522f8072751f","system_id":"levelo_inurba_marseille","lat":43.33611,"lon":5.41027,"is_reserved":false,"is_disabled":false,"rental_uris":{"android":"levelo://app?vid=79f3ae0d-6333-4e50-b3b7-522f8072751f","ios":"levelo://app?vid=79f3ae0d-6333-4e50-b3b7-522f8072751f"},"vehicle_type_id":"4","last_reported":1734408791,"current_range_meters":39200,"station_id":"ce4bhqh2rcd13ifvqhmg","pricing_plan_id":"cebpf4jnsgd1na2vs0mg"},{"bike_id":"ac9d3cf6-aaeb-482e-8ebb-d3183ed5b44c","system_id":"levelo_inurba_marseille","lat":43.31747,"lon":5.3903,"is_reserved":false,"is_disabled":false,"rental_uris":{"android":"levelo://app?vid=ac9d3cf6-aaeb-482e-8ebb-d3183ed5b44c","ios":"levelo://app?vid=ac9d3cf6-aaeb-482e-8ebb-d3183ed5b44c"},"vehicle_type_id":"4","last_reported":1734408791,"current_range_meters":22400,"station_id":"ce4bhqp2rcd13ifvqhng","pricing_plan_id":"cebpf4jnsgd1na2vs0mg"},{"bike_id":"d97fe5f2-9491-4c9e-bede-890204658da0","system_id":"levelo_inurba_marseille","lat":43.284555,"lon":5.358808,"is_reserved":false,"is_disabled":false,"rental_uris":{"android":"levelo://app?vid=d97fe5f2-9491-4c9e-bede-890204658da0","ios":"levelo://app?vid=d97fe5f2-9491-4c9e-bede-890204658da0"},"vehicle_type_id":"4","last_reported":1734408791,"current_range_meters":37600,"station_id":"ce4bhah2rcd13ifvqei0","pricing_plan_id":"cebpf4jnsgd1na2vs0mg"},{"bike_id":"03d4ca6b-f6c8-4763-90b4-5fc0a101449e","system_id":"levelo_inurba_marseille","lat":43.28732,"lon":5.36089,"is_reserved":false,"is_disabled":false,"rental_uris":{"android":"levelo://app?vid=03d4ca6b-f6c8-4763-90b4-5fc0a101449e","ios":"levelo://app?vid=03d4ca6b-f6c8-4763-90b4-5fc0a101449e"},"vehicle_type_id":"4","last_reported":1734408791,"current_range_meters":35200,"station_id":"cki0cbj6b192h4jlfktg","pricing_plan_id":"cebpf4jnsgd1na2vs0mg"},{"bike_id":"b38afd42-c0ab-4d89-bb51-653c55809745","system_id":"levelo_inurba_marseille","lat":43.31309,"lon":5.39725,"is_reserved":false,"is_disabled":false,"rental_uris":{"android":"levelo://app?vid=b38afd42-c0ab-4d89-bb51-653c55809745","ios":"levelo://app?vid=b38afd42-c0ab-4d89-bb51-653c55809745"},"vehicle_type_id":"4","last_reported":1734408791,"current_range_meters":38800,"station_id":"ce4bgvp2rcd13ifvqcu0","pricing_plan_id":"cebpf4jnsgd1na2vs0mg"},{"bike_id":"c23cd138-2a8f-4687-846c-ea5d55e0bd33","system_id":"levelo_inurba_marseille","lat":43.301256,"lon":5.398705,"is_reserved":false,"is_disabled":false,"rental_uris":{"android":"levelo://app?vid=c23cd138-2a8f-4687-846c-ea5d55e0bd33","ios":"levelo://app?vid=c23cd138-2a8f-4687-846c-ea5d55e0bd33"},"vehicle_type_id":"4","last_reported":1734408791,"current_range_meters":38800,"station_id":"ce4bh0h2rcd13ifvqd40","pricing_plan_id":"cebpf4jnsgd1na2vs0mg"},{"bike_id":"6b2019df-57c6-4717-bb28-99523c4cbdf8","system_id":"levelo_inurba_marseille","lat":43.29515,"lon":5.3902,"is_reserved":false,"is_disabled":true,"rental_uris":{"android":"levelo://app?vid=6b2019df-57c6-4717-bb28-99523c4cbdf8","ios":"levelo://app?vid=6b2019df-57c6-4717-bb28-99523c4cbdf8"},"vehicle_type_id":"4","last_reported":1734408791,"current_range_meters":7200,"station_id":"ce4bh3p2rcd13ifvqdp0","pricing_plan_id":"cebpf4jnsgd1na2vs0mg"},{"bike_id":"e6d61402-c937-4e29-8dec-b52b2a0c0925","system_id":"levelo_inurba_marseille","lat":43.285652,"lon":5.39491,"is_reserved":false,"is_disabled":false,"rental_uris":{"android":"levelo://app?vid=e6d61402-c937-4e29-8dec-b52b2a0c0925","ios":"levelo://app?vid=e6d61402-c937-4e29-8dec-b52b2a0c0925"},"vehicle_type_id":"4","last_reported":1734408791,"current_range_meters":38400,"station_id":"ce4bh292rcd13ifvqdg0","pricing_plan_id":"cebpf4jnsgd1na2vs0mg"},{"bike_id":"31258b1a-5d53-43c4-bfc9-1c3c86bbf630","system_id":"levelo_inurba_marseille","lat":43.30145,"lon":5.3807,"is_reserved":false,"is_disabled":false,"rental_uris":{"android":"levelo://app?vid=31258b1a-5d53-43c4-bfc9-1c3c86bbf630","ios":"levelo://app?vid=31258b1a-5d53-43c4-bfc9-1c3c86bbf630"},"vehicle_type_id":"4","last_reported":1734408791,"current_range_meters":23200,"station_id":"ce4bgjp2rcd13ifvqbh0","pricing_plan_id":"cebpf4jnsgd1na2vs0mg"},{"bike_id":"4375d76a-dfa4-4b4b-b81c-b45a1fb8d4ca","system_id":"levelo_inurba_marseille","lat":43.28948,"lon":5.36386,"is_reserved":false,"is_disabled":false,"rental_uris":{"android":"levelo://app?vid=4375d76a-dfa4-4b4b-b81c-b45a1fb8d4ca","ios":"levelo://app?vid=4375d76a-dfa4-4b4b-b81c-b45a1fb8d4ca"},"vehicle_type_id":"4","last_reported":1734408791,"current_range_meters":35600,"station_id":"ce4bhc92rcd13ifvqetg","pricing_plan_id":"cebpf4jnsgd1na2vs0mg"},{"bike_id":"0ff63b43-e762-4853-8e57-8ec84f36bda7","system_id":"levelo_inurba_marseille","lat":43.311786,"lon":5.387134,"is_reserved":false,"is_disabled":false,"rental_uris":{"android":"levelo://app?vid=0ff63b43-e762-4853-8e57-8ec84f36bda7","ios":"levelo://app?vid=0ff63b43-e762-4853-8e57-8ec84f36bda7"},"vehicle_type_id":"4","last_reported":1734408791,"current_range_meters":32400,"station_id":"ce4bgv12rcd13ifvqcp0","pricing_plan_id":"cebpf4jnsgd1na2vs0mg"},{"bike_id":"3adf56f7-e398-4f39-9aed-d791bf6ebdd6","system_id":"levelo_inurba_marseille","lat":43.26483,"lon":5.39543,"is_reserved":false,"is_disabled":false,"rental_uris":{"android":"levelo://app?vid=3adf56f7-e398-4f39-9aed-d791bf6ebdd6","ios":"levelo://app?vid=3adf56f7-e398-4f39-9aed-d791bf6ebdd6"},"vehicle_type_id":"4","last_reported":1734408791,"current_range_meters":11600,"station_id":"ce4bhi12rcd13ifvqfq0","pricing_plan_id":"cebpf4jnsgd1na2vs0mg"},{"bike_id":"730a6134-88d8-47e4-be24-a87eaceaba81","system_id":"levelo_inurba_marseille","lat":43.27973,"lon":5.39585,"is_reserved":false,"is_disabled":false,"rental_uris":{"android":"levelo://app?vid=730a6134-88d8-47e4-be24-a87eaceaba81","ios":"levelo://app?vid=730a6134-88d8-47e4-be24-a87eaceaba81"},"vehicle_type_id":"4","last_reported":1734408791,"current_range_meters":38800,"station_id":"","pricing_plan_id":"cebpf4jnsgd1na2vs0mg"},{"bike_id":"8448c279-d2d5-44a5-94ec-3edb3e4116cc","system_id":"levelo_inurba_marseille","lat":43.30254,"lon":5.40058,"is_reserved":false,"is_disabled":false,"rental_uris":{"android":"levelo://app?vid=8448c279-d2d5-44a5-94ec-3edb3e4116cc","ios":"levelo://app?vid=8448c279-d2d5-44a5-94ec-3edb3e4116cc"},"vehicle_type_id":"4","last_reported":1734408791,"current_range_meters":35200,"station_id":"ce4bgvh2rcd13ifvqcs0","pricing_plan_id":"cebpf4jnsgd1na2vs0mg"},{"bike_id":"bb1c0ef0-184d-4b17-9016-88e561b3d27b","system_id":"levelo_inurba_marseille","lat":43.28615,"lon":5.35099,"is_reserved":false,"is_disabled":true,"rental_uris":{"android":"levelo://app?vid=bb1c0ef0-184d-4b17-9016-88e561b3d27b","ios":"levelo://app?vid=bb1c0ef0-184d-4b17-9016-88e561b3d27b"},"vehicle_type_id":"4","last_reported":1734408791,"current_range_meters":24400,"station_id":"ce4bhch2rcd13ifvqeug","pricing_plan_id":"cebpf4jnsgd1na2vs0mg"},{"bike_id":"63e53b98-acea-4a22-8d02-003944a706e6","system_id":"levelo_inurba_marseille","lat":43.25706,"lon":5.41115,"is_reserved":false,"is_disabled":false,"rental_uris":{"android":"levelo://app?vid=63e53b98-acea-4a22-8d02-003944a706e6","ios":"levelo://app?vid=63e53b98-acea-4a22-8d02-003944a706e6"},"vehicle_type_id":"4","last_reported":1734408791,"current_range_meters":39200,"station_id":"ce4bhkp2rcd13ifvqgd0","pricing_plan_id":"cebpf4jnsgd1na2vs0mg"},{"bike_id":"7464f61b-492b-4f2c-b3c0-c83417d5a111","system_id":"levelo_inurba_marseille","lat":43.31169,"lon":5.3871,"is_reserved":false,"is_disabled":false,"rental_uris":{"android":"levelo://app?vid=7464f61b-492b-4f2c-b3c0-c83417d5a111","ios":"levelo://app?vid=7464f61b-492b-4f2c-b3c0-c83417d5a111"},"vehicle_type_id":"4","last_reported":1734408791,"current_range_meters":9600,"station_id":"ce4bgv12rcd13ifvqcp0","pricing_plan_id":"cebpf4jnsgd1na2vs0mg"},{"bike_id":"44861a73-1a94-4497-ad37-285de7daa1ae","system_id":"levelo_inurba_marseille","lat":43.280338,"lon":5.369352,"is_reserved":false,"is_disabled":false,"rental_uris":{"android":"levelo://app?vid=44861a73-1a94-4497-ad37-285de7daa1ae","ios":"levelo://app?vid=44861a73-1a94-4497-ad37-285de7daa1ae"},"vehicle_type_id":"4","last_reported":1734408791,"current_range_meters":38800,"station_id":"ce4bha12rcd13ifvqef0","pricing_plan_id":"cebpf4jnsgd1na2vs0mg"},{"bike_id":"c5595fd0-fc8e-462b-8984-5c1c92ed35f5","system_id":"levelo_inurba_marseille","lat":43.29538,"lon":5.42282,"is_reserved":false,"is_disabled":true,"rental_uris":{"android":"levelo://app?vid=c5595fd0-fc8e-462b-8984-5c1c92ed35f5","ios":"levelo://app?vid=c5595fd0-fc8e-462b-8984-5c1c92ed35f5"},"vehicle_type_id":"4","last_reported":1734408791,"current_range_meters":0,"station_id":"ce4bhph2rcd13ifvqhdg","pricing_plan_id":"cebpf4jnsgd1na2vs0mg"},{"bike_id":"d17068e4-bff5-4619-b1b5-acf62ffb0fb1","system_id":"levelo_inurba_marseille","lat":43.28852,"lon":5.35834,"is_reserved":false,"is_disabled":false,"rental_uris":{"android":"levelo://app?vid=d17068e4-bff5-4619-b1b5-acf62ffb0fb1","ios":"levelo://app?vid=d17068e4-bff5-4619-b1b5-acf62ffb0fb1"},"vehicle_type_id":"4","last_reported":1734408791,"current_range_meters":29600,"station_id":"ce4bhb12rcd13ifvqem0","pricing_plan_id":"cebpf4jnsgd1na2vs0mg"},{"bike_id":"ebaa68e4-3d1b-47af-9a69-6f7f2246f6e7","system_id":"levelo_inurba_marseille","lat":43.24667,"lon":5.38166,"is_reserved":false,"is_disabled":true,"rental_uris":{"android":"levelo://app?vid=ebaa68e4-3d1b-47af-9a69-6f7f2246f6e7","ios":"levelo://app?vid=ebaa68e4-3d1b-47af-9a69-6f7f2246f6e7"},"vehicle_type_id":"4","last_reported":1734408791,"current_range_meters":38800,"station_id":"ce4bhih2rcd13ifvqfr0","pricing_plan_id":"cebpf4jnsgd1na2vs0mg"},{"bike_id":"16ff838f-1cdb-4ddb-b5eb-dde2105d633a","system_id":"levelo_inurba_marseille","lat":43.265525,"lon":5.372915,"is_reserved":false,"is_disabled":false,"rental_uris":{"android":"levelo://app?vid=16ff838f-1cdb-4ddb-b5eb-dde2105d633a","ios":"levelo://app?vid=16ff838f-1cdb-4ddb-b5eb-dde2105d633a"},"vehicle_type_id":"4","last_reported":1734408791,"current_range_meters":28000,"station_id":"ce4bhg12rcd13ifvqf70","pricing_plan_id":"cebpf4jnsgd1na2vs0mg"},{"bike_id":"1273d0ea-868c-4b40-af39-d859d3abf9f5","system_id":"levelo_inurba_marseille","lat":43.243883,"lon":5.370553,"is_reserved":false,"is_disabled":false,"rental_uris":{"android":"levelo://app?vid=1273d0ea-868c-4b40-af39-d859d3abf9f5","ios":"levelo://app?vid=1273d0ea-868c-4b40-af39-d859d3abf9f5"},"vehicle_type_id":"4","last_reported":1734408791,"current_range_meters":38800,"station_id":"ce4bhhh2rcd13ifvqfk0","pricing_plan_id":"cebpf4jnsgd1na2vs0mg"},{"bike_id":"ed15a02e-1f11-4fab-be7c-ed27688f620c","system_id":"levelo_inurba_marseille","lat":43.31167,"lon":5.38716,"is_reserved":false,"is_disabled":false,"rental_uris":{"android":"levelo://app?vid=ed15a02e-1f11-4fab-be7c-ed27688f620c","ios":"levelo://app?vid=ed15a02e-1f11-4fab-be7c-ed27688f620c"},"vehicle_type_id":"4","last_reported":1734408791,"current_range_meters":21600,"station_id":"ce4bgv12rcd13ifvqcp0","pricing_plan_id":"cebpf4jnsgd1na2vs0mg"},{"bike_id":"8e7c3683-99a9-4188-89c4-858575c3d04c","system_id":"levelo_inurba_marseille","lat":43.27649,"lon":5.38951,"is_reserved":false,"is_disabled":true,"rental_uris":{"android":"levelo://app?vid=8e7c3683-99a9-4188-89c4-858575c3d04c","ios":"levelo://app?vid=8e7c3683-99a9-4188-89c4-858575c3d04c"},"vehicle_type_id":"4","last_reported":1734408791,"current_range_meters":32000,"station_id":"","pricing_plan_id":"cebpf4jnsgd1na2vs0mg"},{"bike_id":"c2b15600-6c6a-46ab-91af-17b7273fdfc4","system_id":"levelo_inurba_marseille","lat":43.28668,"lon":5.3635,"is_reserved":false,"is_disabled":false,"rental_uris":{"android":"levelo://app?vid=c2b15600-6c6a-46ab-91af-17b7273fdfc4","ios":"levelo://app?vid=c2b15600-6c6a-46ab-91af-17b7273fdfc4"},"vehicle_type_id":"4","last_reported":1734408791,"current_range_meters":27200,"station_id":"ce4bhah2rcd13ifvqej0","pricing_plan_id":"cebpf4jnsgd1na2vs0mg"},{"bike_id":"b2a6d57f-5052-4d3c-9a8b-5166108f0a2a","system_id":"levelo_inurba_marseille","lat":43.2584,"lon":5.39901,"is_reserved":false,"is_disabled":false,"rental_uris":{"android":"levelo://app?vid=b2a6d57f-5052-4d3c-9a8b-5166108f0a2a","ios":"levelo://app?vid=b2a6d57f-5052-4d3c-9a8b-5166108f0a2a"},"vehicle_type_id":"4","last_reported":1734408791,"current_range_meters":38000,"station_id":"ce4bhl92rcd13ifvqghg","pricing_plan_id":"cebpf4jnsgd1na2vs0mg"},{"bike_id":"4577e3e8-7ec6-4361-8738-81257af38076","system_id":"levelo_inurba_marseille","lat":43.28414,"lon":5.35017,"is_reserved":false,"is_disabled":false,"rental_uris":{"android":"levelo://app?vid=4577e3e8-7ec6-4361-8738-81257af38076","ios":"levelo://app?vid=4577e3e8-7ec6-4361-8738-81257af38076"},"vehicle_type_id":"4","last_reported":1734408791,"current_range_meters":38000,"station_id":"ce4bhbh2rcd13ifvqepg","pricing_plan_id":"cebpf4jnsgd1na2vs0mg"},{"bike_id":"add9ba96-7459-451c-8e6d-baaa8033dc3a","system_id":"levelo_inurba_marseille","lat":43.29787,"lon":5.39344,"is_reserved":false,"is_disabled":false,"rental_uris":{"android":"levelo://app?vid=add9ba96-7459-451c-8e6d-baaa8033dc3a","ios":"levelo://app?vid=add9ba96-7459-451c-8e6d-baaa8033dc3a"},"vehicle_type_id":"4","last_reported":1734408791,"current_range_meters":38800,"station_id":"chh1huq6cuj3fo74tm60","pricing_plan_id":"cebpf4jnsgd1na2vs0mg"},{"bike_id":"aed794a0-7229-469a-a13b-e3b6912de584","system_id":"levelo_inurba_marseille","lat":43.31176,"lon":5.38708,"is_reserved":false,"is_disabled":false,"rental_uris":{"android":"levelo://app?vid=aed794a0-7229-469a-a13b-e3b6912de584","ios":"levelo://app?vid=aed794a0-7229-469a-a13b-e3b6912de584"},"vehicle_type_id":"4","last_reported":1734408791,"current_range_meters":26800,"station_id":"ce4bgv12rcd13ifvqcp0","pricing_plan_id":"cebpf4jnsgd1na2vs0mg"},{"bike_id":"df3c5b33-0731-4d28-883c-1a4af4ad0ec4","system_id":"levelo_inurba_marseille","lat":43.26211,"lon":5.37444,"is_reserved":false,"is_disabled":false,"rental_uris":{"android":"levelo://app?vid=df3c5b33-0731-4d28-883c-1a4af4ad0ec4","ios":"levelo://app?vid=df3c5b33-0731-4d28-883c-1a4af4ad0ec4"},"vehicle_type_id":"4","last_reported":1734408791,"current_range_meters":22400,"station_id":"ce4bhgp2rcd13ifvqfc0","pricing_plan_id":"cebpf4jnsgd1na2vs0mg"},{"bike_id":"fce89ad1-8179-44ba-bc08-912eb64808ee","system_id":"levelo_inurba_marseille","lat":43.28066,"lon":5.39661,"is_reserved":false,"is_disabled":false,"rental_uris":{"android":"levelo://app?vid=fce89ad1-8179-44ba-bc08-912eb64808ee","ios":"levelo://app?vid=fce89ad1-8179-44ba-bc08-912eb64808ee"},"vehicle_type_id":"4","last_reported":1734408791,"current_range_meters":38800,"station_id":"ce4bho12rcd13ifvqh2g","pricing_plan_id":"cebpf4jnsgd1na2vs0mg"},{"bike_id":"d866e701-7bee-4d60-b865-75d9d70ca9ec","system_id":"levelo_inurba_marseille","lat":43.28924,"lon":5.36637,"is_reserved":false,"is_disabled":false,"rental_uris":{"android":"levelo://app?vid=d866e701-7bee-4d60-b865-75d9d70ca9ec","ios":"levelo://app?vid=d866e701-7bee-4d60-b865-75d9d70ca9ec"},"vehicle_type_id":"4","last_reported":1734408791,"current_range_meters":38800,"station_id":"ce4bhap2rcd13ifvqek0","pricing_plan_id":"cebpf4jnsgd1na2vs0mg"},{"bike_id":"1646a938-afb6-4989-a747-7c36d0948da5","system_id":"levelo_inurba_marseille","lat":43.28563,"lon":5.39493,"is_reserved":false,"is_disabled":false,"rental_uris":{"android":"levelo://app?vid=1646a938-afb6-4989-a747-7c36d0948da5","ios":"levelo://app?vid=1646a938-afb6-4989-a747-7c36d0948da5"},"vehicle_type_id":"4","last_reported":1734408791,"current_range_meters":20400,"station_id":"ce4bh292rcd13ifvqdg0","pricing_plan_id":"cebpf4jnsgd1na2vs0mg"},{"bike_id":"cbd46a1e-a30c-4edf-bd43-7bd67d2d18c8","system_id":"levelo_inurba_marseille","lat":43.28909,"lon":5.36359,"is_reserved":false,"is_disabled":false,"rental_uris":{"android":"levelo://app?vid=cbd46a1e-a30c-4edf-bd43-7bd67d2d18c8","ios":"levelo://app?vid=cbd46a1e-a30c-4edf-bd43-7bd67d2d18c8"},"vehicle_type_id":"4","last_reported":1734408791,"current_range_meters":38800,"station_id":"ce4bhc92rcd13ifvqetg","pricing_plan_id":"cebpf4jnsgd1na2vs0mg"},{"bike_id":"6afe920d-4000-429a-84e5-416689c1fee2","system_id":"levelo_inurba_marseille","lat":43.288489,"lon":5.358528,"is_reserved":false,"is_disabled":false,"rental_uris":{"android":"levelo://app?vid=6afe920d-4000-429a-84e5-416689c1fee2","ios":"levelo://app?vid=6afe920d-4000-429a-84e5-416689c1fee2"},"vehicle_type_id":"4","last_reported":1734408791,"current_range_meters":38800,"station_id":"ce4bhb12rcd13ifvqem0","pricing_plan_id":"cebpf4jnsgd1na2vs0mg"},{"bike_id":"e14b8748-e4dd-4eba-9e7f-1675e71e7a55","system_id":"levelo_inurba_marseille","lat":43.26789,"lon":5.40277,"is_reserved":false,"is_disabled":false,"rental_uris":{"android":"levelo://app?vid=e14b8748-e4dd-4eba-9e7f-1675e71e7a55","ios":"levelo://app?vid=e14b8748-e4dd-4eba-9e7f-1675e71e7a55"},"vehicle_type_id":"4","last_reported":1734408791,"current_range_meters":39200,"station_id":"ce501612rcd8frsf0b60","pricing_plan_id":"cebpf4jnsgd1na2vs0mg"},{"bike_id":"9f319d58-4e1f-4982-b409-b9dae2c131f9","system_id":"levelo_inurba_marseille","lat":43.29058,"lon":5.35914,"is_reserved":false,"is_disabled":false,"rental_uris":{"android":"levelo://app?vid=9f319d58-4e1f-4982-b409-b9dae2c131f9","ios":"levelo://app?vid=9f319d58-4e1f-4982-b409-b9dae2c131f9"},"vehicle_type_id":"4","last_reported":1734408791,"current_range_meters":38000,"station_id":"ce4bha92rcd13ifvqeg0","pricing_plan_id":"cebpf4jnsgd1na2vs0mg"},{"bike_id":"51d84435-6690-4d85-963e-bbaae1721698","system_id":"levelo_inurba_marseille","lat":43.28952,"lon":5.36384,"is_reserved":false,"is_disabled":false,"rental_uris":{"android":"levelo://app?vid=51d84435-6690-4d85-963e-bbaae1721698","ios":"levelo://app?vid=51d84435-6690-4d85-963e-bbaae1721698"},"vehicle_type_id":"4","last_reported":1734408791,"current_range_meters":39200,"station_id":"ce4bhc92rcd13ifvqetg","pricing_plan_id":"cebpf4jnsgd1na2vs0mg"},{"bike_id":"03156a43-27f1-4d88-b75f-6e81fc09e3fc","system_id":"levelo_inurba_marseille","lat":43.31883,"lon":5.40729,"is_reserved":false,"is_disabled":false,"rental_uris":{"android":"levelo://app?vid=03156a43-27f1-4d88-b75f-6e81fc09e3fc","ios":"levelo://app?vid=03156a43-27f1-4d88-b75f-6e81fc09e3fc"},"vehicle_type_id":"4","last_reported":1734408791,"current_range_meters":38000,"station_id":"ce4bhq12rcd13ifvqhig","pricing_plan_id":"cebpf4jnsgd1na2vs0mg"},{"bike_id":"95cb1a12-3d24-4b7c-8cc9-a0c3e83a05b3","system_id":"levelo_inurba_marseille","lat":43.2918,"lon":5.35806,"is_reserved":false,"is_disabled":false,"rental_uris":{"android":"levelo://app?vid=95cb1a12-3d24-4b7c-8cc9-a0c3e83a05b3","ios":"levelo://app?vid=95cb1a12-3d24-4b7c-8cc9-a0c3e83a05b3"},"vehicle_type_id":"4","last_reported":1734408791,"current_range_meters":38800,"station_id":"ce4bhb12rcd13ifvqel0","pricing_plan_id":"cebpf4jnsgd1na2vs0mg"},{"bike_id":"17fd1c3b-23af-4fb5-9435-033e2a988571","system_id":"levelo_inurba_marseille","lat":43.309808,"lon":5.401271,"is_reserved":false,"is_disabled":true,"rental_uris":{"android":"levelo://app?vid=17fd1c3b-23af-4fb5-9435-033e2a988571","ios":"levelo://app?vid=17fd1c3b-23af-4fb5-9435-033e2a988571"},"vehicle_type_id":"4","last_reported":1734408791,"current_range_meters":35600,"station_id":"","pricing_plan_id":"cebpf4jnsgd1na2vs0mg"},{"bike_id":"8912d06c-9480-45f0-991d-76f346d018e9","system_id":"levelo_inurba_marseille","lat":43.30131,"lon":5.39879,"is_reserved":false,"is_disabled":false,"rental_uris":{"android":"levelo://app?vid=8912d06c-9480-45f0-991d-76f346d018e9","ios":"levelo://app?vid=8912d06c-9480-45f0-991d-76f346d018e9"},"vehicle_type_id":"4","last_reported":1734408791,"current_range_meters":38800,"station_id":"ce4bh0h2rcd13ifvqd40","pricing_plan_id":"cebpf4jnsgd1na2vs0mg"},{"bike_id":"56f645d0-d459-4a27-ba9a-c72d2ef792b2","system_id":"levelo_inurba_marseille","lat":43.28466,"lon":5.35867,"is_reserved":false,"is_disabled":false,"rental_uris":{"android":"levelo://app?vid=56f645d0-d459-4a27-ba9a-c72d2ef792b2","ios":"levelo://app?vid=56f645d0-d459-4a27-ba9a-c72d2ef792b2"},"vehicle_type_id":"4","last_reported":1734408791,"current_range_meters":36000,"station_id":"ce4bhah2rcd13ifvqei0","pricing_plan_id":"cebpf4jnsgd1na2vs0mg"},{"bike_id":"dc00a16e-e0f9-409f-99ed-e646d8c3d055","system_id":"levelo_inurba_marseille","lat":43.25103,"lon":5.4034,"is_reserved":false,"is_disabled":false,"rental_uris":{"android":"levelo://app?vid=dc00a16e-e0f9-409f-99ed-e646d8c3d055","ios":"levelo://app?vid=dc00a16e-e0f9-409f-99ed-e646d8c3d055"},"vehicle_type_id":"4","last_reported":1734408791,"current_range_meters":19200,"station_id":"ce4bhlh2rcd13ifvqgig","pricing_plan_id":"cebpf4jnsgd1na2vs0mg"},{"bike_id":"d7c1cf73-5ea5-4c2f-a402-88978e03c60a","system_id":"levelo_inurba_marseille","lat":43.29463,"lon":5.36229,"is_reserved":false,"is_disabled":false,"rental_uris":{"android":"levelo://app?vid=d7c1cf73-5ea5-4c2f-a402-88978e03c60a","ios":"levelo://app?vid=d7c1cf73-5ea5-4c2f-a402-88978e03c60a"},"vehicle_type_id":"4","last_reported":1734408791,"current_range_meters":5600,"station_id":"","pricing_plan_id":"cebpf4jnsgd1na2vs0mg"},{"bike_id":"26ef2c06-f6a1-44da-a156-f1644ab22047","system_id":"levelo_inurba_marseille","lat":43.33613,"lon":5.41035,"is_reserved":false,"is_disabled":false,"rental_uris":{"android":"levelo://app?vid=26ef2c06-f6a1-44da-a156-f1644ab22047","ios":"levelo://app?vid=26ef2c06-f6a1-44da-a156-f1644ab22047"},"vehicle_type_id":"4","last_reported":1734408791,"current_range_meters":39200,"station_id":"ce4bhqh2rcd13ifvqhmg","pricing_plan_id":"cebpf4jnsgd1na2vs0mg"},{"bike_id":"82711b20-7bed-4fec-a4b5-4945e51505d9","system_id":"levelo_inurba_marseille","lat":43.308,"lon":5.43535,"is_reserved":false,"is_disabled":false,"rental_uris":{"android":"levelo://app?vid=82711b20-7bed-4fec-a4b5-4945e51505d9","ios":"levelo://app?vid=82711b20-7bed-4fec-a4b5-4945e51505d9"},"vehicle_type_id":"4","last_reported":1734408791,"current_range_meters":38800,"station_id":"ce4bhph2rcd13ifvqheg","pricing_plan_id":"cebpf4jnsgd1na2vs0mg"},{"bike_id":"d68a8bfe-a1fe-43aa-94f3-8bfaa3478d06","system_id":"levelo_inurba_marseille","lat":43.26552,"lon":5.37285,"is_reserved":false,"is_disabled":false,"rental_uris":{"android":"levelo://app?vid=d68a8bfe-a1fe-43aa-94f3-8bfaa3478d06","ios":"levelo://app?vid=d68a8bfe-a1fe-43aa-94f3-8bfaa3478d06"},"vehicle_type_id":"4","last_reported":1734408791,"current_range_meters":38400,"station_id":"ce4bhg12rcd13ifvqf70","pricing_plan_id":"cebpf4jnsgd1na2vs0mg"},{"bike_id":"74148a3d-e1ce-4bc3-a657-bb402326ef32","system_id":"levelo_inurba_marseille","lat":43.28262,"lon":5.35072,"is_reserved":false,"is_disabled":false,"rental_uris":{"android":"levelo://app?vid=74148a3d-e1ce-4bc3-a657-bb402326ef32","ios":"levelo://app?vid=74148a3d-e1ce-4bc3-a657-bb402326ef32"},"vehicle_type_id":"4","last_reported":1734408791,"current_range_meters":38000,"station_id":"ce4bhbp2rcd13ifvqerg","pricing_plan_id":"cebpf4jnsgd1na2vs0mg"},{"bike_id":"9935a82e-b512-40ea-8632-24adb4fd0019","system_id":"levelo_inurba_marseille","lat":43.30145,"lon":5.39882,"is_reserved":false,"is_disabled":false,"rental_uris":{"android":"levelo://app?vid=9935a82e-b512-40ea-8632-24adb4fd0019","ios":"levelo://app?vid=9935a82e-b512-40ea-8632-24adb4fd0019"},"vehicle_type_id":"4","last_reported":1734408791,"current_range_meters":31200,"station_id":"ce4bh0h2rcd13ifvqd40","pricing_plan_id":"cebpf4jnsgd1na2vs0mg"},{"bike_id":"e53b9f40-7cbe-4478-bd2b-78685be42b06","system_id":"levelo_inurba_marseille","lat":43.28688,"lon":5.37403,"is_reserved":false,"is_disabled":false,"rental_uris":{"android":"levelo://app?vid=e53b9f40-7cbe-4478-bd2b-78685be42b06","ios":"levelo://app?vid=e53b9f40-7cbe-4478-bd2b-78685be42b06"},"vehicle_type_id":"4","last_reported":1734408791,"current_range_meters":22400,"station_id":"ce4bh3p2rcd13ifvqdq0","pricing_plan_id":"cebpf4jnsgd1na2vs0mg"},{"bike_id":"55f80f81-ad6e-4bc9-b366-50507bc87bcd","system_id":"levelo_inurba_marseille","lat":43.32352,"lon":5.40595,"is_reserved":false,"is_disabled":true,"rental_uris":{"android":"levelo://app?vid=55f80f81-ad6e-4bc9-b366-50507bc87bcd","ios":"levelo://app?vid=55f80f81-ad6e-4bc9-b366-50507bc87bcd"},"vehicle_type_id":"4","last_reported":1734408791,"current_range_meters":1200,"station_id":"ce4bhq92rcd13ifvqhjg","pricing_plan_id":"cebpf4jnsgd1na2vs0mg"},{"bike_id":"ddefe9f2-23b4-4062-a0ac-7c8a96367f14","system_id":"levelo_inurba_marseille","lat":43.29196,"lon":5.35789,"is_reserved":false,"is_disabled":false,"rental_uris":{"android":"levelo://app?vid=ddefe9f2-23b4-4062-a0ac-7c8a96367f14","ios":"levelo://app?vid=ddefe9f2-23b4-4062-a0ac-7c8a96367f14"},"vehicle_type_id":"4","last_reported":1734408791,"current_range_meters":38800,"station_id":"ce4bhb12rcd13ifvqel0","pricing_plan_id":"cebpf4jnsgd1na2vs0mg"},{"bike_id":"80b890ba-f789-4286-923f-c395aa20fb92","system_id":"levelo_inurba_marseille","lat":43.29309,"lon":5.37175,"is_reserved":false,"is_disabled":false,"rental_uris":{"android":"levelo://app?vid=80b890ba-f789-4286-923f-c395aa20fb92","ios":"levelo://app?vid=80b890ba-f789-4286-923f-c395aa20fb92"},"vehicle_type_id":"4","last_reported":1734408791,"current_range_meters":37600,"station_id":"ce4bgh92rcd13ifvqb40","pricing_plan_id":"cebpf4jnsgd1na2vs0mg"},{"bike_id":"e76a1b6d-7052-4ff1-948e-2b8006ff4fd9","system_id":"levelo_inurba_marseille","lat":43.297132,"lon":5.36615,"is_reserved":false,"is_disabled":false,"rental_uris":{"android":"levelo://app?vid=e76a1b6d-7052-4ff1-948e-2b8006ff4fd9","ios":"levelo://app?vid=e76a1b6d-7052-4ff1-948e-2b8006ff4fd9"},"vehicle_type_id":"4","last_reported":1734408791,"current_range_meters":37600,"station_id":"ce4bgn12rcd13ifvqbt0","pricing_plan_id":"cebpf4jnsgd1na2vs0mg"},{"bike_id":"60e9ff38-efcb-428e-8e74-cd94fa0bd389","system_id":"levelo_inurba_marseille","lat":43.31718,"lon":5.37814,"is_reserved":false,"is_disabled":false,"rental_uris":{"android":"levelo://app?vid=60e9ff38-efcb-428e-8e74-cd94fa0bd389","ios":"levelo://app?vid=60e9ff38-efcb-428e-8e74-cd94fa0bd389"},"vehicle_type_id":"4","last_reported":1734408791,"current_range_meters":31200,"station_id":"ce4bgth2rcd13ifvqch0","pricing_plan_id":"cebpf4jnsgd1na2vs0mg"},{"bike_id":"4958e405-c63c-4a3b-99af-eb128a22b647","system_id":"levelo_inurba_marseille","lat":43.30273,"lon":5.37712,"is_reserved":false,"is_disabled":false,"rental_uris":{"android":"levelo://app?vid=4958e405-c63c-4a3b-99af-eb128a22b647","ios":"levelo://app?vid=4958e405-c63c-4a3b-99af-eb128a22b647"},"vehicle_type_id":"4","last_reported":1734408791,"current_range_meters":26000,"station_id":"ce4bguh2rcd13ifvqcj0","pricing_plan_id":"cebpf4jnsgd1na2vs0mg"},{"bike_id":"5f2be17f-083e-494f-a7a1-4802346cfcb9","system_id":"levelo_inurba_marseille","lat":43.28566,"lon":5.39503,"is_reserved":false,"is_disabled":true,"rental_uris":{"android":"levelo://app?vid=5f2be17f-083e-494f-a7a1-4802346cfcb9","ios":"levelo://app?vid=5f2be17f-083e-494f-a7a1-4802346cfcb9"},"vehicle_type_id":"4","last_reported":1734408791,"current_range_meters":24800,"station_id":"ce4bh292rcd13ifvqdg0","pricing_plan_id":"cebpf4jnsgd1na2vs0mg"},{"bike_id":"d705ef2b-d72b-417f-b321-d9710b5a9281","system_id":"levelo_inurba_marseille","lat":43.24649,"lon":5.38893,"is_reserved":false,"is_disabled":false,"rental_uris":{"android":"levelo://app?vid=d705ef2b-d72b-417f-b321-d9710b5a9281","ios":"levelo://app?vid=d705ef2b-d72b-417f-b321-d9710b5a9281"},"vehicle_type_id":"4","last_reported":1734408791,"current_range_meters":12000,"station_id":"ce4bhg12rcd13ifvqf60","pricing_plan_id":"cebpf4jnsgd1na2vs0mg"},{"bike_id":"d3e29b4b-4386-4f03-a1dd-c7c9a11c63cb","system_id":"levelo_inurba_marseille","lat":43.26043,"lon":5.39406,"is_reserved":false,"is_disabled":false,"rental_uris":{"android":"levelo://app?vid=d3e29b4b-4386-4f03-a1dd-c7c9a11c63cb","ios":"levelo://app?vid=d3e29b4b-4386-4f03-a1dd-c7c9a11c63cb"},"vehicle_type_id":"4","last_reported":1734408791,"current_range_meters":10000,"station_id":"ce4bhh92rcd13ifvqfj0","pricing_plan_id":"cebpf4jnsgd1na2vs0mg"},{"bike_id":"c569cb87-3117-4e1f-800d-ba1a26ff1c49","system_id":"levelo_inurba_marseille","lat":43.307996,"lon":5.381504,"is_reserved":false,"is_disabled":false,"rental_uris":{"android":"levelo://app?vid=c569cb87-3117-4e1f-800d-ba1a26ff1c49","ios":"levelo://app?vid=c569cb87-3117-4e1f-800d-ba1a26ff1c49"},"vehicle_type_id":"4","last_reported":1734408791,"current_range_meters":38800,"station_id":"ce4bgt12rcd13ifvqce0","pricing_plan_id":"cebpf4jnsgd1na2vs0mg"},{"bike_id":"b080cd93-ae1d-416c-aff0-33280d88921a","system_id":"levelo_inurba_marseille","lat":43.26495,"lon":5.39547,"is_reserved":false,"is_disabled":false,"rental_uris":{"android":"levelo://app?vid=b080cd93-ae1d-416c-aff0-33280d88921a","ios":"levelo://app?vid=b080cd93-ae1d-416c-aff0-33280d88921a"},"vehicle_type_id":"4","last_reported":1734408791,"current_range_meters":32800,"station_id":"ce4bhi12rcd13ifvqfq0","pricing_plan_id":"cebpf4jnsgd1na2vs0mg"},{"bike_id":"318aa57b-1568-4ffc-a05f-60313d3eca7d","system_id":"levelo_inurba_marseille","lat":43.30799,"lon":5.43525,"is_reserved":false,"is_disabled":false,"rental_uris":{"android":"levelo://app?vid=318aa57b-1568-4ffc-a05f-60313d3eca7d","ios":"levelo://app?vid=318aa57b-1568-4ffc-a05f-60313d3eca7d"},"vehicle_type_id":"4","last_reported":1734408791,"current_range_meters":38800,"station_id":"ce4bhph2rcd13ifvqheg","pricing_plan_id":"cebpf4jnsgd1na2vs0mg"},{"bike_id":"dc745e3a-9aae-4a4b-9b24-4df6bd906afd","system_id":"levelo_inurba_marseille","lat":43.25505,"lon":5.37639,"is_reserved":false,"is_disabled":false,"rental_uris":{"android":"levelo://app?vid=dc745e3a-9aae-4a4b-9b24-4df6bd906afd","ios":"levelo://app?vid=dc745e3a-9aae-4a4b-9b24-4df6bd906afd"},"vehicle_type_id":"4","last_reported":1734408791,"current_range_meters":38400,"station_id":"ce4bhh12rcd13ifvqff0","pricing_plan_id":"cebpf4jnsgd1na2vs0mg"},{"bike_id":"586ce07a-15e4-4f19-a803-224f9d280bb7","system_id":"levelo_inurba_marseille","lat":43.24396,"lon":5.37054,"is_reserved":false,"is_disabled":false,"rental_uris":{"android":"levelo://app?vid=586ce07a-15e4-4f19-a803-224f9d280bb7","ios":"levelo://app?vid=586ce07a-15e4-4f19-a803-224f9d280bb7"},"vehicle_type_id":"4","last_reported":1734408791,"current_range_meters":38800,"station_id":"ce4bhhh2rcd13ifvqfk0","pricing_plan_id":"cebpf4jnsgd1na2vs0mg"},{"bike_id":"048ede08-1dd8-40d1-8404-3b85f61fc0d5","system_id":"levelo_inurba_marseille","lat":43.29556,"lon":5.42278,"is_reserved":false,"is_disabled":false,"rental_uris":{"android":"levelo://app?vid=048ede08-1dd8-40d1-8404-3b85f61fc0d5","ios":"levelo://app?vid=048ede08-1dd8-40d1-8404-3b85f61fc0d5"},"vehicle_type_id":"4","last_reported":1734408791,"current_range_meters":36400,"station_id":"ce4bhph2rcd13ifvqhdg","pricing_plan_id":"cebpf4jnsgd1na2vs0mg"},{"bike_id":"84876f57-9228-4c29-8dc5-7725e669d6fb","system_id":"levelo_inurba_marseille","lat":43.31326,"lon":5.39673,"is_reserved":false,"is_disabled":false,"rental_uris":{"android":"levelo://app?vid=84876f57-9228-4c29-8dc5-7725e669d6fb","ios":"levelo://app?vid=84876f57-9228-4c29-8dc5-7725e669d6fb"},"vehicle_type_id":"4","last_reported":1734408791,"current_range_meters":24400,"station_id":"ce4bgvp2rcd13ifvqcu0","pricing_plan_id":"cebpf4jnsgd1na2vs0mg"},{"bike_id":"98e9c359-f12e-4d60-8054-eac280f0daf0","system_id":"levelo_inurba_marseille","lat":43.30888,"lon":5.39649,"is_reserved":false,"is_disabled":false,"rental_uris":{"android":"levelo://app?vid=98e9c359-f12e-4d60-8054-eac280f0daf0","ios":"levelo://app?vid=98e9c359-f12e-4d60-8054-eac280f0daf0"},"vehicle_type_id":"4","last_reported":1734408791,"current_range_meters":28000,"station_id":"ce4bh012rcd13ifvqcv0","pricing_plan_id":"cebpf4jnsgd1na2vs0mg"},{"bike_id":"e0b34c3f-004d-4bd8-93a8-b71f93dc87a3","system_id":"levelo_inurba_marseille","lat":43.29698,"lon":5.36617,"is_reserved":false,"is_disabled":false,"rental_uris":{"android":"levelo://app?vid=e0b34c3f-004d-4bd8-93a8-b71f93dc87a3","ios":"levelo://app?vid=e0b34c3f-004d-4bd8-93a8-b71f93dc87a3"},"vehicle_type_id":"4","last_reported":1734408791,"current_range_meters":38000,"station_id":"ce4bgn12rcd13ifvqbt0","pricing_plan_id":"cebpf4jnsgd1na2vs0mg"},{"bike_id":"a3ae6ee4-d060-4597-a716-f8c3846f7f84","system_id":"levelo_inurba_marseille","lat":43.28269,"lon":5.35071,"is_reserved":false,"is_disabled":false,"rental_uris":{"android":"levelo://app?vid=a3ae6ee4-d060-4597-a716-f8c3846f7f84","ios":"levelo://app?vid=a3ae6ee4-d060-4597-a716-f8c3846f7f84"},"vehicle_type_id":"4","last_reported":1734408791,"current_range_meters":37600,"station_id":"ce4bhbp2rcd13ifvqerg","pricing_plan_id":"cebpf4jnsgd1na2vs0mg"},{"bike_id":"a5572d10-2ba6-48e2-9296-3c77d287a8b0","system_id":"levelo_inurba_marseille","lat":43.31345,"lon":5.3968,"is_reserved":false,"is_disabled":false,"rental_uris":{"android":"levelo://app?vid=a5572d10-2ba6-48e2-9296-3c77d287a8b0","ios":"levelo://app?vid=a5572d10-2ba6-48e2-9296-3c77d287a8b0"},"vehicle_type_id":"4","last_reported":1734408791,"current_range_meters":38800,"station_id":"ce4bgvp2rcd13ifvqcu0","pricing_plan_id":"cebpf4jnsgd1na2vs0mg"},{"bike_id":"c9b6ceb3-3fe8-4b5f-93cf-b2e0f99bf1b7","system_id":"levelo_inurba_marseille","lat":43.32999,"lon":5.39039,"is_reserved":false,"is_disabled":false,"rental_uris":{"android":"levelo://app?vid=c9b6ceb3-3fe8-4b5f-93cf-b2e0f99bf1b7","ios":"levelo://app?vid=c9b6ceb3-3fe8-4b5f-93cf-b2e0f99bf1b7"},"vehicle_type_id":"4","last_reported":1734408791,"current_range_meters":31200,"station_id":"ce4bhr92rcd13ifvqhrg","pricing_plan_id":"cebpf4jnsgd1na2vs0mg"},{"bike_id":"a939b72a-eb93-48d5-93d2-5b5defdd7d63","system_id":"levelo_inurba_marseille","lat":43.24553,"lon":5.3952,"is_reserved":false,"is_disabled":false,"rental_uris":{"android":"levelo://app?vid=a939b72a-eb93-48d5-93d2-5b5defdd7d63","ios":"levelo://app?vid=a939b72a-eb93-48d5-93d2-5b5defdd7d63"},"vehicle_type_id":"4","last_reported":1734408791,"current_range_meters":10000,"station_id":"ce4bhlp2rcd13ifvqgjg","pricing_plan_id":"cebpf4jnsgd1na2vs0mg"},{"bike_id":"0e8ea9c7-6956-4ca9-935f-297b8d89d03c","system_id":"levelo_inurba_marseille","lat":43.27994,"lon":5.41653,"is_reserved":false,"is_disabled":false,"rental_uris":{"android":"levelo://app?vid=0e8ea9c7-6956-4ca9-935f-297b8d89d03c","ios":"levelo://app?vid=0e8ea9c7-6956-4ca9-935f-297b8d89d03c"},"vehicle_type_id":"4","last_reported":1734408791,"current_range_meters":37600,"station_id":"ce4bho12rcd13ifvqh1g","pricing_plan_id":"cebpf4jnsgd1na2vs0mg"},{"bike_id":"f3379db6-4ea4-44b7-bec9-c44fb1a483c8","system_id":"levelo_inurba_marseille","lat":43.24167,"lon":5.39703,"is_reserved":false,"is_disabled":false,"rental_uris":{"android":"levelo://app?vid=f3379db6-4ea4-44b7-bec9-c44fb1a483c8","ios":"levelo://app?vid=f3379db6-4ea4-44b7-bec9-c44fb1a483c8"},"vehicle_type_id":"4","last_reported":1734408791,"current_range_meters":26800,"station_id":"ce4bhn12rcd13ifvqgpg","pricing_plan_id":"cebpf4jnsgd1na2vs0mg"},{"bike_id":"53e42023-e252-4b7f-a9eb-a99e355c181f","system_id":"levelo_inurba_marseille","lat":43.28728,"lon":5.36092,"is_reserved":false,"is_disabled":false,"rental_uris":{"android":"levelo://app?vid=53e42023-e252-4b7f-a9eb-a99e355c181f","ios":"levelo://app?vid=53e42023-e252-4b7f-a9eb-a99e355c181f"},"vehicle_type_id":"4","last_reported":1734408791,"current_range_meters":33200,"station_id":"cki0cbj6b192h4jlfktg","pricing_plan_id":"cebpf4jnsgd1na2vs0mg"},{"bike_id":"a423dfc8-22d7-4651-975b-8e8614ee351b","system_id":"levelo_inurba_marseille","lat":43.30778,"lon":5.39999,"is_reserved":false,"is_disabled":false,"rental_uris":{"android":"levelo://app?vid=a423dfc8-22d7-4651-975b-8e8614ee351b","ios":"levelo://app?vid=a423dfc8-22d7-4651-975b-8e8614ee351b"},"vehicle_type_id":"4","last_reported":1734408791,"current_range_meters":8400,"station_id":"","pricing_plan_id":"cebpf4jnsgd1na2vs0mg"},{"bike_id":"93c5eb91-3fba-4bf2-b5c1-03c9a75bad92","system_id":"levelo_inurba_marseille","lat":43.250803,"lon":5.395127,"is_reserved":false,"is_disabled":false,"rental_uris":{"android":"levelo://app?vid=93c5eb91-3fba-4bf2-b5c1-03c9a75bad92","ios":"levelo://app?vid=93c5eb91-3fba-4bf2-b5c1-03c9a75bad92"},"vehicle_type_id":"4","last_reported":1734408791,"current_range_meters":8800,"station_id":"ce4bhm12rcd13ifvqgkg","pricing_plan_id":"cebpf4jnsgd1na2vs0mg"},{"bike_id":"8b55af00-49fb-410c-83cb-63af81c64c0f","system_id":"levelo_inurba_marseille","lat":43.304078,"lon":5.41287,"is_reserved":false,"is_disabled":false,"rental_uris":{"android":"levelo://app?vid=8b55af00-49fb-410c-83cb-63af81c64c0f","ios":"levelo://app?vid=8b55af00-49fb-410c-83cb-63af81c64c0f"},"vehicle_type_id":"4","last_reported":1734408791,"current_range_meters":30400,"station_id":"ce4bhop2rcd13ifvqh8g","pricing_plan_id":"cebpf4jnsgd1na2vs0mg"},{"bike_id":"764dd124-8b6c-4e2e-8283-a78f598ae4cd","system_id":"levelo_inurba_marseille","lat":43.313253,"lon":5.396864,"is_reserved":false,"is_disabled":false,"rental_uris":{"android":"levelo://app?vid=764dd124-8b6c-4e2e-8283-a78f598ae4cd","ios":"levelo://app?vid=764dd124-8b6c-4e2e-8283-a78f598ae4cd"},"vehicle_type_id":"4","last_reported":1734408791,"current_range_meters":38400,"station_id":"ce4bgvp2rcd13ifvqcu0","pricing_plan_id":"cebpf4jnsgd1na2vs0mg"},{"bike_id":"8f16ed72-f3d6-49c7-b3ae-8758bc247503","system_id":"levelo_inurba_marseille","lat":43.29038,"lon":5.35917,"is_reserved":false,"is_disabled":false,"rental_uris":{"android":"levelo://app?vid=8f16ed72-f3d6-49c7-b3ae-8758bc247503","ios":"levelo://app?vid=8f16ed72-f3d6-49c7-b3ae-8758bc247503"},"vehicle_type_id":"4","last_reported":1734408791,"current_range_meters":37600,"station_id":"ce4bha92rcd13ifvqeg0","pricing_plan_id":"cebpf4jnsgd1na2vs0mg"},{"bike_id":"bda38b21-c7e5-4cf3-a915-d2dc62c0831e","system_id":"levelo_inurba_marseille","lat":43.31765,"lon":5.39014,"is_reserved":false,"is_disabled":false,"rental_uris":{"android":"levelo://app?vid=bda38b21-c7e5-4cf3-a915-d2dc62c0831e","ios":"levelo://app?vid=bda38b21-c7e5-4cf3-a915-d2dc62c0831e"},"vehicle_type_id":"4","last_reported":1734408791,"current_range_meters":18800,"station_id":"ce4bhqp2rcd13ifvqhng","pricing_plan_id":"cebpf4jnsgd1na2vs0mg"},{"bike_id":"169c23d3-816f-4fb1-b1f6-6a28c3c0935c","system_id":"levelo_inurba_marseille","lat":43.30782,"lon":5.37659,"is_reserved":false,"is_disabled":false,"rental_uris":{"android":"levelo://app?vid=169c23d3-816f-4fb1-b1f6-6a28c3c0935c","ios":"levelo://app?vid=169c23d3-816f-4fb1-b1f6-6a28c3c0935c"},"vehicle_type_id":"4","last_reported":1734408791,"current_range_meters":38800,"station_id":"ce4bgv92rcd13ifvqcq0","pricing_plan_id":"cebpf4jnsgd1na2vs0mg"},{"bike_id":"32bcd328-f7f5-4900-8d76-f3d18c79595c","system_id":"levelo_inurba_marseille","lat":43.248141,"lon":5.374551,"is_reserved":false,"is_disabled":false,"rental_uris":{"android":"levelo://app?vid=32bcd328-f7f5-4900-8d76-f3d18c79595c","ios":"levelo://app?vid=32bcd328-f7f5-4900-8d76-f3d18c79595c"},"vehicle_type_id":"4","last_reported":1734408791,"current_range_meters":36800,"station_id":"ce4bhgh2rcd13ifvqfb0","pricing_plan_id":"cebpf4jnsgd1na2vs0mg"},{"bike_id":"ad3e51cb-df7c-4ce4-b243-f609a121c657","system_id":"levelo_inurba_marseille","lat":43.24171,"lon":5.36392,"is_reserved":false,"is_disabled":false,"rental_uris":{"android":"levelo://app?vid=ad3e51cb-df7c-4ce4-b243-f609a121c657","ios":"levelo://app?vid=ad3e51cb-df7c-4ce4-b243-f609a121c657"},"vehicle_type_id":"4","last_reported":1734408791,"current_range_meters":12400,"station_id":"cpo36qri1sfpv3e86is0","pricing_plan_id":"cebpf4jnsgd1na2vs0mg"},{"bike_id":"e57f73df-9b93-4f69-88b3-e3c8f724a4d9","system_id":"levelo_inurba_marseille","lat":43.29553,"lon":5.42294,"is_reserved":false,"is_disabled":false,"rental_uris":{"android":"levelo://app?vid=e57f73df-9b93-4f69-88b3-e3c8f724a4d9","ios":"levelo://app?vid=e57f73df-9b93-4f69-88b3-e3c8f724a4d9"},"vehicle_type_id":"4","last_reported":1734408791,"current_range_meters":33200,"station_id":"ce4bhph2rcd13ifvqhdg","pricing_plan_id":"cebpf4jnsgd1na2vs0mg"},{"bike_id":"6c2f8196-548c-49d5-bcb1-35ab07679de5","system_id":"levelo_inurba_marseille","lat":43.31754,"lon":5.39015,"is_reserved":false,"is_disabled":false,"rental_uris":{"android":"levelo://app?vid=6c2f8196-548c-49d5-bcb1-35ab07679de5","ios":"levelo://app?vid=6c2f8196-548c-49d5-bcb1-35ab07679de5"},"vehicle_type_id":"4","last_reported":1734408791,"current_range_meters":33600,"station_id":"ce4bhqp2rcd13ifvqhng","pricing_plan_id":"cebpf4jnsgd1na2vs0mg"},{"bike_id":"c59837dc-8d74-4db1-b183-a5034d718c43","system_id":"levelo_inurba_marseille","lat":43.25862,"lon":5.39904,"is_reserved":false,"is_disabled":false,"rental_uris":{"android":"levelo://app?vid=c59837dc-8d74-4db1-b183-a5034d718c43","ios":"levelo://app?vid=c59837dc-8d74-4db1-b183-a5034d718c43"},"vehicle_type_id":"4","last_reported":1734408791,"current_range_meters":38800,"station_id":"ce4bhl92rcd13ifvqghg","pricing_plan_id":"cebpf4jnsgd1na2vs0mg"},{"bike_id":"6fb001bd-cbfc-4b33-8fbb-908a2824bf04","system_id":"levelo_inurba_marseille","lat":43.25872,"lon":5.39876,"is_reserved":false,"is_disabled":false,"rental_uris":{"android":"levelo://app?vid=6fb001bd-cbfc-4b33-8fbb-908a2824bf04","ios":"levelo://app?vid=6fb001bd-cbfc-4b33-8fbb-908a2824bf04"},"vehicle_type_id":"4","last_reported":1734408791,"current_range_meters":38800,"station_id":"ce4bhl92rcd13ifvqghg","pricing_plan_id":"cebpf4jnsgd1na2vs0mg"},{"bike_id":"5238a452-8b9f-4926-9e6f-8cdba3b52d76","system_id":"levelo_inurba_marseille","lat":43.23151,"lon":5.43708,"is_reserved":false,"is_disabled":false,"rental_uris":{"android":"levelo://app?vid=5238a452-8b9f-4926-9e6f-8cdba3b52d76","ios":"levelo://app?vid=5238a452-8b9f-4926-9e6f-8cdba3b52d76"},"vehicle_type_id":"4","last_reported":1734408791,"current_range_meters":32000,"station_id":"ce4bhmp2rcd13ifvqgog","pricing_plan_id":"cebpf4jnsgd1na2vs0mg"},{"bike_id":"feec68f8-7e7f-4d17-8aa9-3bb28707fff0","system_id":"levelo_inurba_marseille","lat":43.28355,"lon":5.38109,"is_reserved":false,"is_disabled":false,"rental_uris":{"android":"levelo://app?vid=feec68f8-7e7f-4d17-8aa9-3bb28707fff0","ios":"levelo://app?vid=feec68f8-7e7f-4d17-8aa9-3bb28707fff0"},"vehicle_type_id":"4","last_reported":1734408791,"current_range_meters":38400,"station_id":"ce4bh412rcd13ifvqdr0","pricing_plan_id":"cebpf4jnsgd1na2vs0mg"},{"bike_id":"66da5468-c888-4096-b30f-52d5ce02be14","system_id":"levelo_inurba_marseille","lat":43.30147,"lon":5.38777,"is_reserved":false,"is_disabled":false,"rental_uris":{"android":"levelo://app?vid=66da5468-c888-4096-b30f-52d5ce02be14","ios":"levelo://app?vid=66da5468-c888-4096-b30f-52d5ce02be14"},"vehicle_type_id":"4","last_reported":1734408791,"current_range_meters":29600,"station_id":"ce4bghh2rcd13ifvqb60","pricing_plan_id":"cebpf4jnsgd1na2vs0mg"},{"bike_id":"81391304-b451-4119-80ac-f61ef4862eb2","system_id":"levelo_inurba_marseille","lat":43.337444,"lon":5.374475,"is_reserved":false,"is_disabled":true,"rental_uris":{"android":"levelo://app?vid=81391304-b451-4119-80ac-f61ef4862eb2","ios":"levelo://app?vid=81391304-b451-4119-80ac-f61ef4862eb2"},"vehicle_type_id":"4","last_reported":1734408791,"current_range_meters":0,"station_id":"","pricing_plan_id":"cebpf4jnsgd1na2vs0mg"},{"bike_id":"ed8e8bd1-fd85-4eb2-9bd0-55619e432958","system_id":"levelo_inurba_marseille","lat":43.30883,"lon":5.39636,"is_reserved":false,"is_disabled":false,"rental_uris":{"android":"levelo://app?vid=ed8e8bd1-fd85-4eb2-9bd0-55619e432958","ios":"levelo://app?vid=ed8e8bd1-fd85-4eb2-9bd0-55619e432958"},"vehicle_type_id":"4","last_reported":1734408791,"current_range_meters":11200,"station_id":"ce4bh012rcd13ifvqcv0","pricing_plan_id":"cebpf4jnsgd1na2vs0mg"},{"bike_id":"66343f16-c96a-493e-b903-7c265d82cce1","system_id":"levelo_inurba_marseille","lat":43.32501,"lon":5.36565,"is_reserved":false,"is_disabled":false,"rental_uris":{"android":"levelo://app?vid=66343f16-c96a-493e-b903-7c265d82cce1","ios":"levelo://app?vid=66343f16-c96a-493e-b903-7c265d82cce1"},"vehicle_type_id":"4","last_reported":1734408791,"current_range_meters":28000,"station_id":"ce4bhs12rcd13ifvqhvg","pricing_plan_id":"cebpf4jnsgd1na2vs0mg"},{"bike_id":"15f71a9f-864d-48de-9d20-f621cbff105e","system_id":"levelo_inurba_marseille","lat":43.26814,"lon":5.40232,"is_reserved":false,"is_disabled":false,"rental_uris":{"android":"levelo://app?vid=15f71a9f-864d-48de-9d20-f621cbff105e","ios":"levelo://app?vid=15f71a9f-864d-48de-9d20-f621cbff105e"},"vehicle_type_id":"4","last_reported":1734408791,"current_range_meters":38800,"station_id":"ce501612rcd8frsf0b60","pricing_plan_id":"cebpf4jnsgd1na2vs0mg"},{"bike_id":"42e397f9-c2c4-4210-9f93-2a88b663eb3a","system_id":"levelo_inurba_marseille","lat":43.28676,"lon":5.3867,"is_reserved":false,"is_disabled":false,"rental_uris":{"android":"levelo://app?vid=42e397f9-c2c4-4210-9f93-2a88b663eb3a","ios":"levelo://app?vid=42e397f9-c2c4-4210-9f93-2a88b663eb3a"},"vehicle_type_id":"4","last_reported":1734408791,"current_range_meters":34000,"station_id":"ce4bh492rcd13ifvqdug","pricing_plan_id":"cebpf4jnsgd1na2vs0mg"},{"bike_id":"d5accae4-0b7f-4603-8070-ad403bf2e0fe","system_id":"levelo_inurba_marseille","lat":43.28856,"lon":5.35839,"is_reserved":false,"is_disabled":false,"rental_uris":{"android":"levelo://app?vid=d5accae4-0b7f-4603-8070-ad403bf2e0fe","ios":"levelo://app?vid=d5accae4-0b7f-4603-8070-ad403bf2e0fe"},"vehicle_type_id":"4","last_reported":1734408791,"current_range_meters":33600,"station_id":"ce4bhb12rcd13ifvqem0","pricing_plan_id":"cebpf4jnsgd1na2vs0mg"},{"bike_id":"11f05fe5-e450-4aa1-bdaa-c4445fc827c3","system_id":"levelo_inurba_marseille","lat":43.27812,"lon":5.40729,"is_reserved":false,"is_disabled":false,"rental_uris":{"android":"levelo://app?vid=11f05fe5-e450-4aa1-bdaa-c4445fc827c3","ios":"levelo://app?vid=11f05fe5-e450-4aa1-bdaa-c4445fc827c3"},"vehicle_type_id":"4","last_reported":1734408791,"current_range_meters":26800,"station_id":"ce4bhnh2rcd13ifvqgtg","pricing_plan_id":"cebpf4jnsgd1na2vs0mg"},{"bike_id":"8c92f62c-a171-43fa-a0c9-1ec039481665","system_id":"levelo_inurba_marseille","lat":43.290025,"lon":5.356101,"is_reserved":false,"is_disabled":false,"rental_uris":{"android":"levelo://app?vid=8c92f62c-a171-43fa-a0c9-1ec039481665","ios":"levelo://app?vid=8c92f62c-a171-43fa-a0c9-1ec039481665"},"vehicle_type_id":"4","last_reported":1734408791,"current_range_meters":38800,"station_id":"ce4bhb92rcd13ifvqen0","pricing_plan_id":"cebpf4jnsgd1na2vs0mg"},{"bike_id":"29f246a6-bf44-455d-b9d7-de191a6777e4","system_id":"levelo_inurba_marseille","lat":43.29216,"lon":5.36053,"is_reserved":false,"is_disabled":true,"rental_uris":{"android":"levelo://app?vid=29f246a6-bf44-455d-b9d7-de191a6777e4","ios":"levelo://app?vid=29f246a6-bf44-455d-b9d7-de191a6777e4"},"vehicle_type_id":"4","last_reported":1734408791,"current_range_meters":0,"station_id":"ce4bhbh2rcd13ifvqeqg","pricing_plan_id":"cebpf4jnsgd1na2vs0mg"},{"bike_id":"9e8afa4d-c208-40c0-805a-620a5080516c","system_id":"levelo_inurba_marseille","lat":43.28561,"lon":5.39492,"is_reserved":false,"is_disabled":false,"rental_uris":{"android":"levelo://app?vid=9e8afa4d-c208-40c0-805a-620a5080516c","ios":"levelo://app?vid=9e8afa4d-c208-40c0-805a-620a5080516c"},"vehicle_type_id":"4","last_reported":1734408791,"current_range_meters":24800,"station_id":"ce4bh292rcd13ifvqdg0","pricing_plan_id":"cebpf4jnsgd1na2vs0mg"},{"bike_id":"1a769f71-3e5c-4c8e-a890-b756e5e1f753","system_id":"levelo_inurba_marseille","lat":43.29794,"lon":5.40415,"is_reserved":false,"is_disabled":false,"rental_uris":{"android":"levelo://app?vid=1a769f71-3e5c-4c8e-a890-b756e5e1f753","ios":"levelo://app?vid=1a769f71-3e5c-4c8e-a890-b756e5e1f753"},