{"last_updated":1726690190,"ttl":30,"version":"2.2","data":{"bikes":[{"bike_id":"0288d614-6e4f-4934-ad15-cf509b72b6b9","system_id":"levelo_inurba_marseille","lat":43.275,"lon":5.42452,"is_reserved":false,"is_disabled":false,"rental_uris":{"android":"levelo://app?vid=0288d614-6e4f-4934-ad15-cf509b72b6b9","ios":"levelo://app?vid=0288d614-6e4f-4934-ad15-cf509b72b6b9"},"vehicle_type_id":"4","last_reported":1726690190,"current_range_meters":40000,"station_id":"ce4bhn92rcd13ifvqgrg","pricing_plan_id":"cebpf4jnsgd1na2vs0mg"},{"bike_id":"4e716995-f263-4f52-b2fb-2ed7cf45ae45","system_id":"levelo_inurba_marseille","lat":43.28264,"lon":5.35063,"is_reserved":false,"is_disabled":false,"rental_uris":{"android":"levelo://app?vid=4e716995-f263-4f52-b2fb-2ed7cf45ae45","ios":"levelo://app?vid=4e716995-f263-4f52-b2fb-2ed7cf45ae45"},"vehicle_type_id":"4","last_reported":1726690190,"current_range_meters":38800,"station_id":"ce4bhbp2rcd13ifvqerg","pricing_plan_id":"cebpf4jnsgd1na2vs0mg"},{"bike_id":"6a3ddc2a-1be4-4577-a233-5cc468852dcd","system_id":"levelo_inurba_marseille","lat":43.28658,"lon":5.3636,"is_reserved":false,"is_disabled":false,"rental_uris":{"android":"levelo://app?vid=6a3ddc2a-1be4-4577-a233-5cc468852dcd","ios":"levelo://app?vid=6a3ddc2a-1be4-4577-a233-5cc468852dcd"},"vehicle_type_id":"4","last_reported":1726690190,"current_range_meters":18800,"station_id":"ce4bhah2rcd13ifvqej0","pricing_plan_id":"cebpf4jnsgd1na2vs0mg"},{"bike_id":"6cb80f7a-647c-431f-af80-0a5fa80b3e12","system_id":"levelo_inurba_marseille","lat":43.3134,"lon":5.39731,"is_reserved":false,"is_disabled":false,"rental_uris":{"android":"levelo://app?vid=6cb80f7a-647c-431f-af80-0a5fa80b3e12","ios":"levelo://app?vid=6cb80f7a-647c-431f-af80-0a5fa80b3e12"},"vehicle_type_id":"4","last_reported":1726690190,"current_range_meters":14400,"station_id":"ce4bgvp2rcd13ifvqcu0","pricing_plan_id":"cebpf4jnsgd1na2vs0mg"},{"bike_id":"dd0d6c40-5bec-4397-8580-2628aae2ec2a","system_id":"levelo_inurba_marseille","lat":43.22926,"lon":5.35376,"is_reserved":false,"is_disabled":false,"rental_uris":{"android":"levelo://app?vid=dd0d6c40-5bec-4397-8580-2628aae2ec2a","ios":"levelo://app?vid=dd0d6c40-5bec-4397-8580-2628aae2ec2a"},"vehicle_type_id":"4","last_reported":1726690190,"current_range_meters":38800,"station_id":"cpo3532slgdg3j2ikp40","pricing_plan_id":"cebpf4jnsgd1na2vs0mg"},{"bike_id":"64c965d1-5882-4cc1-b789-3a68c462abe0","system_id":"levelo_inurba_marseille","lat":43.29891,"lon":5.43658,"is_reserved":false,"is_disabled":false,"rental_uris":{"android":"levelo://app?vid=64c965d1-5882-4cc1-b789-3a68c462abe0","ios":"levelo://app?vid=64c965d1-5882-4cc1-b789-3a68c462abe0"},"vehicle_type_id":"4","last_reported":1726690190,"current_range_meters":37600,"station_id":"ce4bhpp2rcd13ifvqhfg","pricing_plan_id":"cebpf4jnsgd1na2vs0mg"},{"bike_id":"b706b40c-250b-4b61-bcfe-28ea47e10d31","system_id":"levelo_inurba_marseille","lat":43.29901,"lon":5.38148,"is_reserved":false,"is_disabled":false,"rental_uris":{"android":"levelo://app?vid=b706b40c-250b-4b61-bcfe-28ea47e10d31","ios":"levelo://app?vid=b706b40c-250b-4b61-bcfe-28ea47e10d31"},"vehicle_type_id":"4","last_reported":1726690190,"current_range_meters":38000,"station_id":"ce4bgj12rcd13ifvqbc0","pricing_plan_id":"cebpf4jnsgd1na2vs0mg"},{"bike_id":"0d1bc426-802a-417c-a284-12ea603100ea","system_id":"levelo_inurba_marseille","lat":43.31331,"lon":5.39695,"is_reserved":false,"is_disabled":false,"rental_uris":{"android":"levelo://app?vid=0d1bc426-802a-417c-a284-12ea603100ea","ios":"levelo://app?vid=0d1bc426-802a-417c-a284-12ea603100ea"},"vehicle_type_id":"4","last_reported":1726690190,"current_range_meters":24800,"station_id":"ce4bgvp2rcd13ifvqcu0","pricing_plan_id":"cebpf4jnsgd1na2vs0mg"},{"bike_id":"f2876510-e6ed-4b98-95f3-6431711f8da6","system_id":"levelo_inurba_marseille","lat":43.28712,"lon":5.37943,"is_reserved":false,"is_disabled":false,"rental_uris":{"android":"levelo://app?vid=f2876510-e6ed-4b98-95f3-6431711f8da6","ios":"levelo://app?vid=f2876510-e6ed-4b98-95f3-6431711f8da6"},"vehicle_type_id":"4","last_reported":1726690190,"current_range_meters":36400,"station_id":"ce4bh9p2rcd13ifvqec0","pricing_plan_id":"cebpf4jnsgd1na2vs0mg"},{"bike_id":"12ca8798-d15b-49cc-a8e7-75f7c34ba400","system_id":"levelo_inurba_marseille","lat":43.33026,"lon":5.39044,"is_reserved":false,"is_disabled":false,"rental_uris":{"android":"levelo://app?vid=12ca8798-d15b-49cc-a8e7-75f7c34ba400","ios":"levelo://app?vid=12ca8798-d15b-49cc-a8e7-75f7c34ba400"},"vehicle_type_id":"4","last_reported":1726690190,"current_range_meters":33200,"station_id":"ce4bhr92rcd13ifvqhrg","pricing_plan_id":"cebpf4jnsgd1na2vs0mg"},{"bike_id":"875ac674-0e23-4639-99ab-36bcb10602b3","system_id":"levelo_inurba_marseille","lat":43.29618,"lon":5.37719,"is_reserved":false,"is_disabled":false,"rental_uris":{"android":"levelo://app?vid=875ac674-0e23-4639-99ab-36bcb10602b3","ios":"levelo://app?vid=875ac674-0e23-4639-99ab-36bcb10602b3"},"vehicle_type_id":"4","last_reported":1726690190,"current_range_meters":24400,"station_id":"ce4bgi92rcd13ifvqb90","pricing_plan_id":"cebpf4jnsgd1na2vs0mg"},{"bike_id":"e532fd53-ad12-4848-82ea-70ac934c1c37","system_id":"levelo_inurba_marseille","lat":43.337444,"lon":5.374475,"is_reserved":false,"is_disabled":false,"rental_uris":{"android":"levelo://app?vid=e532fd53-ad12-4848-82ea-70ac934c1c37","ios":"levelo://app?vid=e532fd53-ad12-4848-82ea-70ac934c1c37"},"vehicle_type_id":"4","last_reported":1726690190,"current_range_meters":18800,"station_id":"","pricing_plan_id":"cebpf4jnsgd1na2vs0mg"},{"bike_id":"7332dc89-86f5-4102-96be-093ed50799dc","system_id":"levelo_inurba_marseille","lat":43.24658,"lon":5.38163,"is_reserved":false,"is_disabled":false,"rental_uris":{"android":"levelo://app?vid=7332dc89-86f5-4102-96be-093ed50799dc","ios":"levelo://app?vid=7332dc89-86f5-4102-96be-093ed50799dc"},"vehicle_type_id":"4","last_reported":1726690190,"current_range_meters":27200,"station_id":"ce4bhih2rcd13ifvqfr0","pricing_plan_id":"cebpf4jnsgd1na2vs0mg"},{"bike_id":"6e94e9c5-d894-4774-9532-e457829fd8c6","system_id":"levelo_inurba_marseille","lat":43.31489,"lon":5.37298,"is_reserved":false,"is_disabled":false,"rental_uris":{"android":"levelo://app?vid=6e94e9c5-d894-4774-9532-e457829fd8c6","ios":"levelo://app?vid=6e94e9c5-d894-4774-9532-e457829fd8c6"},"vehicle_type_id":"4","last_reported":1726690190,"current_range_meters":17200,"station_id":"ce4bgt12rcd13ifvqcd0","pricing_plan_id":"cebpf4jnsgd1na2vs0mg"},{"bike_id":"0e1541be-4757-4c55-b9ae-7fbe65e22263","system_id":"levelo_inurba_marseille","lat":43.2827,"lon":5.35071,"is_reserved":false,"is_disabled":false,"rental_uris":{"android":"levelo://app?vid=0e1541be-4757-4c55-b9ae-7fbe65e22263","ios":"levelo://app?vid=0e1541be-4757-4c55-b9ae-7fbe65e22263"},"vehicle_type_id":"4","last_reported":1726690190,"current_range_meters":24400,"station_id":"ce4bhbp2rcd13ifvqerg","pricing_plan_id":"cebpf4jnsgd1na2vs0mg"},{"bike_id":"df1003b0-3c83-469a-aeeb-2eaf283222f8","system_id":"levelo_inurba_marseille","lat":43.30214,"lon":5.39463,"is_reserved":false,"is_disabled":false,"rental_uris":{"android":"levelo://app?vid=df1003b0-3c83-469a-aeeb-2eaf283222f8","ios":"levelo://app?vid=df1003b0-3c83-469a-aeeb-2eaf283222f8"},"vehicle_type_id":"4","last_reported":1726690190,"current_range_meters":25600,"station_id":"ce4bh0p2rcd13ifvqd70","pricing_plan_id":"cebpf4jnsgd1na2vs0mg"},{"bike_id":"23b9db77-47a5-4143-83dc-f048aa958491","system_id":"levelo_inurba_marseille","lat":43.301279,"lon":5.398668,"is_reserved":false,"is_disabled":false,"rental_uris":{"android":"levelo://app?vid=23b9db77-47a5-4143-83dc-f048aa958491","ios":"levelo://app?vid=23b9db77-47a5-4143-83dc-f048aa958491"},"vehicle_type_id":"4","last_reported":1726690190,"current_range_meters":37600,"station_id":"chh1huq6cuj3fo74tm60","pricing_plan_id":"cebpf4jnsgd1na2vs0mg"},{"bike_id":"4e871cbb-8554-40d4-8be2-dd07b4559d20","system_id":"levelo_inurba_marseille","lat":43.28615,"lon":5.35102,"is_reserved":false,"is_disabled":false,"rental_uris":{"android":"levelo://app?vid=4e871cbb-8554-40d4-8be2-dd07b4559d20","ios":"levelo://app?vid=4e871cbb-8554-40d4-8be2-dd07b4559d20"},"vehicle_type_id":"4","last_reported":1726690190,"current_range_meters":7200,"station_id":"ce4bhch2rcd13ifvqeug","pricing_plan_id":"cebpf4jnsgd1na2vs0mg"},{"bike_id":"31984896-19d8-4961-9d12-66e62eb7e1b9","system_id":"levelo_inurba_marseille","lat":43.28621,"lon":5.35106,"is_reserved":false,"is_disabled":false,"rental_uris":{"android":"levelo://app?vid=31984896-19d8-4961-9d12-66e62eb7e1b9","ios":"levelo://app?vid=31984896-19d8-4961-9d12-66e62eb7e1b9"},"vehicle_type_id":"4","last_reported":1726690190,"current_range_meters":38800,"station_id":"ce4bhch2rcd13ifvqeug","pricing_plan_id":"cebpf4jnsgd1na2vs0mg"},{"bike_id":"61c3fb8d-f1ae-4f0e-a433-68e4163be93e","system_id":"levelo_inurba_marseille","lat":43.28426,"lon":5.37522,"is_reserved":false,"is_disabled":false,"rental_uris":{"android":"levelo://app?vid=61c3fb8d-f1ae-4f0e-a433-68e4163be93e","ios":"levelo://app?vid=61c3fb8d-f1ae-4f0e-a433-68e4163be93e"},"vehicle_type_id":"4","last_reported":1726690190,"current_range_meters":7200,"station_id":"ce4bh412rcd13ifvqds0","pricing_plan_id":"cebpf4jnsgd1na2vs0mg"},{"bike_id":"77465972-81bf-4af6-bb71-abb4a405f63b","system_id":"levelo_inurba_marseille","lat":43.30465,"lon":5.37904,"is_reserved":false,"is_disabled":false,"rental_uris":{"android":"levelo://app?vid=77465972-81bf-4af6-bb71-abb4a405f63b","ios":"levelo://app?vid=77465972-81bf-4af6-bb71-abb4a405f63b"},"vehicle_type_id":"4","last_reported":1726690190,"current_range_meters":32000,"station_id":"ce4bgup2rcd13ifvqcn0","pricing_plan_id":"cebpf4jnsgd1na2vs0mg"},{"bike_id":"78af430c-86d6-4a41-89c3-4d3bf7be2957","system_id":"levelo_inurba_marseille","lat":43.28705,"lon":5.37943,"is_reserved":false,"is_disabled":false,"rental_uris":{"android":"levelo://app?vid=78af430c-86d6-4a41-89c3-4d3bf7be2957","ios":"levelo://app?vid=78af430c-86d6-4a41-89c3-4d3bf7be2957"},"vehicle_type_id":"4","last_reported":1726690190,"current_range_meters":38800,"station_id":"ce4bh9p2rcd13ifvqec0","pricing_plan_id":"cebpf4jnsgd1na2vs0mg"},{"bike_id":"3a50afd2-cdfd-4dd4-900b-cf09c58ce3d6","system_id":"levelo_inurba_marseille","lat":43.2707,"lon":5.42283,"is_reserved":false,"is_disabled":false,"rental_uris":{"android":"levelo://app?vid=3a50afd2-cdfd-4dd4-900b-cf09c58ce3d6","ios":"levelo://app?vid=3a50afd2-cdfd-4dd4-900b-cf09c58ce3d6"},"vehicle_type_id":"4","last_reported":1726690190,"current_range_meters":32000,"station_id":"ce4bhk92rcd13ifvqgb0","pricing_plan_id":"cebpf4jnsgd1na2vs0mg"},{"bike_id":"1990f9ed-b0a9-4db5-8aa8-97b4d764c0af","system_id":"levelo_inurba_marseille","lat":43.26685,"lon":5.38273,"is_reserved":false,"is_disabled":false,"rental_uris":{"android":"levelo://app?vid=1990f9ed-b0a9-4db5-8aa8-97b4d764c0af","ios":"levelo://app?vid=1990f9ed-b0a9-4db5-8aa8-97b4d764c0af"},"vehicle_type_id":"4","last_reported":1726690190,"current_range_meters":38800,"station_id":"ce4bhg92rcd13ifvqf90","pricing_plan_id":"cebpf4jnsgd1na2vs0mg"},{"bike_id":"2f2579d7-da8e-4d48-acd6-80dced6622e3","system_id":"levelo_inurba_marseille","lat":43.29023,"lon":5.37557,"is_reserved":false,"is_disabled":false,"rental_uris":{"android":"levelo://app?vid=2f2579d7-da8e-4d48-acd6-80dced6622e3","ios":"levelo://app?vid=2f2579d7-da8e-4d48-acd6-80dced6622e3"},"vehicle_type_id":"4","last_reported":1726690190,"current_range_meters":8000,"station_id":"ce4bh692rcd13ifvqe90","pricing_plan_id":"cebpf4jnsgd1na2vs0mg"},{"bike_id":"bed91c9d-d86a-48eb-9707-c4bc0626e228","system_id":"levelo_inurba_marseille","lat":43.24667,"lon":5.38169,"is_reserved":false,"is_disabled":false,"rental_uris":{"android":"levelo://app?vid=bed91c9d-d86a-48eb-9707-c4bc0626e228","ios":"levelo://app?vid=bed91c9d-d86a-48eb-9707-c4bc0626e228"},"vehicle_type_id":"4","last_reported":1726690190,"current_range_meters":27600,"station_id":"ce4bhih2rcd13ifvqfr0","pricing_plan_id":"cebpf4jnsgd1na2vs0mg"},{"bike_id":"c8b16021-ad4f-4c1b-80b1-7d1b9c811227","system_id":"levelo_inurba_marseille","lat":43.32358,"lon":5.38889,"is_reserved":false,"is_disabled":false,"rental_uris":{"android":"levelo://app?vid=c8b16021-ad4f-4c1b-80b1-7d1b9c811227","ios":"levelo://app?vid=c8b16021-ad4f-4c1b-80b1-7d1b9c811227"},"vehicle_type_id":"4","last_reported":1726690190,"current_range_meters":8400,"station_id":"ce4bhqp2rcd13ifvqhog","pricing_plan_id":"cebpf4jnsgd1na2vs0mg"},{"bike_id":"31a481df-758e-4fdd-ad03-764853162f0b","system_id":"levelo_inurba_marseille","lat":43.30149,"lon":5.37425,"is_reserved":false,"is_disabled":false,"rental_uris":{"android":"levelo://app?vid=31a481df-758e-4fdd-ad03-764853162f0b","ios":"levelo://app?vid=31a481df-758e-4fdd-ad03-764853162f0b"},"vehicle_type_id":"4","last_reported":1726690190,"current_range_meters":11200,"station_id":"ce4bgs92rcd13ifvqcc0","pricing_plan_id":"cebpf4jnsgd1na2vs0mg"},{"bike_id":"734aa74e-b926-4042-9aab-1e80809573f6","system_id":"levelo_inurba_marseille","lat":43.28975,"lon":5.37977,"is_reserved":false,"is_disabled":false,"rental_uris":{"android":"levelo://app?vid=734aa74e-b926-4042-9aab-1e80809573f6","ios":"levelo://app?vid=734aa74e-b926-4042-9aab-1e80809573f6"},"vehicle_type_id":"4","last_reported":1726690190,"current_range_meters":27200,"station_id":"","pricing_plan_id":"cebpf4jnsgd1na2vs0mg"},{"bike_id":"6fca5209-2cfc-475c-bf2d-19e350f4b119","system_id":"levelo_inurba_marseille","lat":43.31169,"lon":5.38713,"is_reserved":false,"is_disabled":false,"rental_uris":{"android":"levelo://app?vid=6fca5209-2cfc-475c-bf2d-19e350f4b119","ios":"levelo://app?vid=6fca5209-2cfc-475c-bf2d-19e350f4b119"},"vehicle_type_id":"4","last_reported":1726690190,"current_range_meters":33600,"station_id":"ce4bgv12rcd13ifvqcp0","pricing_plan_id":"cebpf4jnsgd1na2vs0mg"},{"bike_id":"a89d1128-5ace-4b11-8958-f760f707f20b","system_id":"levelo_inurba_marseille","lat":43.29522,"lon":5.39045,"is_reserved":false,"is_disabled":false,"rental_uris":{"android":"levelo://app?vid=a89d1128-5ace-4b11-8958-f760f707f20b","ios":"levelo://app?vid=a89d1128-5ace-4b11-8958-f760f707f20b"},"vehicle_type_id":"4","last_reported":1726690190,"current_range_meters":37600,"station_id":"ce4bh3p2rcd13ifvqdp0","pricing_plan_id":"cebpf4jnsgd1na2vs0mg"},{"bike_id":"562f8830-0282-4afb-ad74-0edfeab1f1c1","system_id":"levelo_inurba_marseille","lat":43.24072,"lon":5.37762,"is_reserved":false,"is_disabled":false,"rental_uris":{"android":"levelo://app?vid=562f8830-0282-4afb-ad74-0edfeab1f1c1","ios":"levelo://app?vid=562f8830-0282-4afb-ad74-0edfeab1f1c1"},"vehicle_type_id":"4","last_reported":1726690190,"current_range_meters":37600,"station_id":"ce4bhnp2rcd13ifvqgvg","pricing_plan_id":"cebpf4jnsgd1na2vs0mg"},{"bike_id":"90d40abe-b095-4f0b-8811-2a51c6549295","system_id":"levelo_inurba_marseille","lat":43.26057,"lon":5.39397,"is_reserved":false,"is_disabled":false,"rental_uris":{"android":"levelo://app?vid=90d40abe-b095-4f0b-8811-2a51c6549295","ios":"levelo://app?vid=90d40abe-b095-4f0b-8811-2a51c6549295"},"vehicle_type_id":"4","last_reported":1726690190,"current_range_meters":38800,"station_id":"ce4bhh92rcd13ifvqfj0","pricing_plan_id":"cebpf4jnsgd1na2vs0mg"},{"bike_id":"187f7ecf-ccc0-4e0f-a855-d748a5435d6f","system_id":"levelo_inurba_marseille","lat":43.24664,"lon":5.38162,"is_reserved":false,"is_disabled":false,"rental_uris":{"android":"levelo://app?vid=187f7ecf-ccc0-4e0f-a855-d748a5435d6f","ios":"levelo://app?vid=187f7ecf-ccc0-4e0f-a855-d748a5435d6f"},"vehicle_type_id":"4","last_reported":1726690190,"current_range_meters":22000,"station_id":"ce4bhih2rcd13ifvqfr0","pricing_plan_id":"cebpf4jnsgd1na2vs0mg"},{"bike_id":"3ceb4910-26dd-4e94-a3d0-4274cb5a83f0","system_id":"levelo_inurba_marseille","lat":43.30134,"lon":5.40281,"is_reserved":false,"is_disabled":false,"rental_uris":{"android":"levelo://app?vid=3ceb4910-26dd-4e94-a3d0-4274cb5a83f0","ios":"levelo://app?vid=3ceb4910-26dd-4e94-a3d0-4274cb5a83f0"},"vehicle_type_id":"4","last_reported":1726690190,"current_range_meters":6000,"station_id":"","pricing_plan_id":"cebpf4jnsgd1na2vs0mg"},{"bike_id":"0a3ffc0e-8e0f-478e-a002-b5e086f1ac54","system_id":"levelo_inurba_marseille","lat":43.25687,"lon":5.41087,"is_reserved":false,"is_disabled":false,"rental_uris":{"android":"levelo://app?vid=0a3ffc0e-8e0f-478e-a002-b5e086f1ac54","ios":"levelo://app?vid=0a3ffc0e-8e0f-478e-a002-b5e086f1ac54"},"vehicle_type_id":"4","last_reported":1726690190,"current_range_meters":24800,"station_id":"ce4bhkp2rcd13ifvqgd0","pricing_plan_id":"cebpf4jnsgd1na2vs0mg"},{"bike_id":"c2272d1c-de85-40c3-8a06-70b6bf4106b7","system_id":"levelo_inurba_marseille","lat":43.308066,"lon":5.435312,"is_reserved":false,"is_disabled":false,"rental_uris":{"android":"levelo://app?vid=c2272d1c-de85-40c3-8a06-70b6bf4106b7","ios":"levelo://app?vid=c2272d1c-de85-40c3-8a06-70b6bf4106b7"},"vehicle_type_id":"4","last_reported":1726690190,"current_range_meters":38800,"station_id":"ce4bhph2rcd13ifvqheg","pricing_plan_id":"cebpf4jnsgd1na2vs0mg"},{"bike_id":"beb4d508-840d-460e-855f-a91031349485","system_id":"levelo_inurba_marseille","lat":43.28928,"lon":5.39624,"is_reserved":false,"is_disabled":false,"rental_uris":{"android":"levelo://app?vid=beb4d508-840d-460e-855f-a91031349485","ios":"levelo://app?vid=beb4d508-840d-460e-855f-a91031349485"},"vehicle_type_id":"4","last_reported":1726690190,"current_range_meters":22000,"station_id":"ce4bh3h2rcd13ifvqdn0","pricing_plan_id":"cebpf4jnsgd1na2vs0mg"},{"bike_id":"5c20a958-d490-41db-84a7-f9730ee7ce03","system_id":"levelo_inurba_marseille","lat":43.29575,"lon":5.39965,"is_reserved":false,"is_disabled":false,"rental_uris":{"android":"levelo://app?vid=5c20a958-d490-41db-84a7-f9730ee7ce03","ios":"levelo://app?vid=5c20a958-d490-41db-84a7-f9730ee7ce03"},"vehicle_type_id":"4","last_reported":1726690190,"current_range_meters":22400,"station_id":"ce4bh312rcd13ifvqdj0","pricing_plan_id":"cebpf4jnsgd1na2vs0mg"},{"bike_id":"acb02b61-cd8a-4f56-bf3d-e286f3d403dd","system_id":"levelo_inurba_marseille","lat":43.29778,"lon":5.37122,"is_reserved":false,"is_disabled":false,"rental_uris":{"android":"levelo://app?vid=acb02b61-cd8a-4f56-bf3d-e286f3d403dd","ios":"levelo://app?vid=acb02b61-cd8a-4f56-bf3d-e286f3d403dd"},"vehicle_type_id":"4","last_reported":1726690190,"current_range_meters":25200,"station_id":"ce4bgop2rcd13ifvqc1g","pricing_plan_id":"cebpf4jnsgd1na2vs0mg"},{"bike_id":"ab8b1643-9e7f-47cc-b599-33f414e2c958","system_id":"levelo_inurba_marseille","lat":43.23179,"lon":5.39995,"is_reserved":false,"is_disabled":false,"rental_uris":{"android":"levelo://app?vid=ab8b1643-9e7f-47cc-b599-33f414e2c958","ios":"levelo://app?vid=ab8b1643-9e7f-47cc-b599-33f414e2c958"},"vehicle_type_id":"4","last_reported":1726690190,"current_range_meters":38800,"station_id":"ce4bhn12rcd13ifvqgqg","pricing_plan_id":"cebpf4jnsgd1na2vs0mg"},{"bike_id":"ddc2f7e6-d23b-4d89-96bc-a18a7029d574","system_id":"levelo_inurba_marseille","lat":43.31753,"lon":5.39019,"is_reserved":false,"is_disabled":false,"rental_uris":{"android":"levelo://app?vid=ddc2f7e6-d23b-4d89-96bc-a18a7029d574","ios":"levelo://app?vid=ddc2f7e6-d23b-4d89-96bc-a18a7029d574"},"vehicle_type_id":"4","last_reported":1726690190,"current_range_meters":30000,"station_id":"ce4bhqp2rcd13ifvqhng","pricing_plan_id":"cebpf4jnsgd1na2vs0mg"},{"bike_id":"c2667222-5d26-4d9c-a938-761c480fe584","system_id":"levelo_inurba_marseille","lat":43.33024,"lon":5.39049,"is_reserved":false,"is_disabled":false,"rental_uris":{"android":"levelo://app?vid=c2667222-5d26-4d9c-a938-761c480fe584","ios":"levelo://app?vid=c2667222-5d26-4d9c-a938-761c480fe584"},"vehicle_type_id":"4","last_reported":1726690190,"current_range_meters":9200,"station_id":"ce4bhr92rcd13ifvqhrg","pricing_plan_id":"cebpf4jnsgd1na2vs0mg"},{"bike_id":"fcafa99b-a808-43dd-a42a-2a120b6cb165","system_id":"levelo_inurba_marseille","lat":43.28099,"lon":5.37848,"is_reserved":false,"is_disabled":false,"rental_uris":{"android":"levelo://app?vid=fcafa99b-a808-43dd-a42a-2a120b6cb165","ios":"levelo://app?vid=fcafa99b-a808-43dd-a42a-2a120b6cb165"},"vehicle_type_id":"4","last_reported":1726690190,"current_range_meters":6000,"station_id":"ce4bha12rcd13ifvqee0","pricing_plan_id":"cebpf4jnsgd1na2vs0mg"},{"bike_id":"12dbd066-211c-436a-bc3e-f828b4c8a0ed","system_id":"levelo_inurba_marseille","lat":43.29784,"lon":5.39339,"is_reserved":false,"is_disabled":false,"rental_uris":{"android":"levelo://app?vid=12dbd066-211c-436a-bc3e-f828b4c8a0ed","ios":"levelo://app?vid=12dbd066-211c-436a-bc3e-f828b4c8a0ed"},"vehicle_type_id":"4","last_reported":1726690190,"current_range_meters":38800,"station_id":"chh1huq6cuj3fo74tm60","pricing_plan_id":"cebpf4jnsgd1na2vs0mg"},{"bike_id":"608bc886-7142-4d07-8c02-3bda548dc5a6","system_id":"levelo_inurba_marseille","lat":43.2926,"lon":5.38444,"is_reserved":false,"is_disabled":false,"rental_uris":{"android":"levelo://app?vid=608bc886-7142-4d07-8c02-3bda548dc5a6","ios":"levelo://app?vid=608bc886-7142-4d07-8c02-3bda548dc5a6"},"vehicle_type_id":"4","last_reported":1726690190,"current_range_meters":36800,"station_id":"ce4bh692rcd13ifvqea0","pricing_plan_id":"cebpf4jnsgd1na2vs0mg"},{"bike_id":"f6e507eb-4310-4aa0-92a0-7f91c2ec66a1","system_id":"levelo_inurba_marseille","lat":43.284695,"lon":5.384223,"is_reserved":false,"is_disabled":false,"rental_uris":{"android":"levelo://app?vid=f6e507eb-4310-4aa0-92a0-7f91c2ec66a1","ios":"levelo://app?vid=f6e507eb-4310-4aa0-92a0-7f91c2ec66a1"},"vehicle_type_id":"4","last_reported":1726690190,"current_range_meters":27600,"station_id":"ce4bh0h2rcd13ifvqd60","pricing_plan_id":"cebpf4jnsgd1na2vs0mg"},{"bike_id":"bd100488-c448-4f25-897e-cfd9e6863224","system_id":"levelo_inurba_marseille","lat":43.28255,"lon":5.35059,"is_reserved":false,"is_disabled":false,"rental_uris":{"android":"levelo://app?vid=bd100488-c448-4f25-897e-cfd9e6863224","ios":"levelo://app?vid=bd100488-c448-4f25-897e-cfd9e6863224"},"vehicle_type_id":"4","last_reported":1726690190,"current_range_meters":35600,"station_id":"ce4bhbp2rcd13ifvqerg","pricing_plan_id":"cebpf4jnsgd1na2vs0mg"},{"bike_id":"1bdaddb0-3afa-41b4-b612-d2bd6db18652","system_id":"levelo_inurba_marseille","lat":43.28099,"lon":5.37837,"is_reserved":false,"is_disabled":false,"rental_uris":{"android":"levelo://app?vid=1bdaddb0-3afa-41b4-b612-d2bd6db18652","ios":"levelo://app?vid=1bdaddb0-3afa-41b4-b612-d2bd6db18652"},"vehicle_type_id":"4","last_reported":1726690190,"current_range_meters":35200,"station_id":"ce4bha12rcd13ifvqee0","pricing_plan_id":"cebpf4jnsgd1na2vs0mg"},{"bike_id":"215e1243-d773-4d5c-99dd-c9c39a44c76c","system_id":"levelo_inurba_marseille","lat":43.312622,"lon":5.401706,"is_reserved":false,"is_disabled":false,"rental_uris":{"android":"levelo://app?vid=215e1243-d773-4d5c-99dd-c9c39a44c76c","ios":"levelo://app?vid=215e1243-d773-4d5c-99dd-c9c39a44c76c"},"vehicle_type_id":"4","last_reported":1726690190,"current_range_meters":36400,"station_id":"ce4bh092rcd13ifvqd30","pricing_plan_id":"cebpf4jnsgd1na2vs0mg"},{"bike_id":"30273ac5-f770-4374-869e-af69990c2ec7","system_id":"levelo_inurba_marseille","lat":43.29522,"lon":5.39046,"is_reserved":false,"is_disabled":false,"rental_uris":{"android":"levelo://app?vid=30273ac5-f770-4374-869e-af69990c2ec7","ios":"levelo://app?vid=30273ac5-f770-4374-869e-af69990c2ec7"},"vehicle_type_id":"4","last_reported":1726690190,"current_range_meters":37600,"station_id":"ce4bh3p2rcd13ifvqdp0","pricing_plan_id":"cebpf4jnsgd1na2vs0mg"},{"bike_id":"0c2516aa-5bff-41e5-8b39-bac87b60df3b","system_id":"levelo_inurba_marseille","lat":43.29173,"lon":5.37156,"is_reserved":false,"is_disabled":false,"rental_uris":{"android":"levelo://app?vid=0c2516aa-5bff-41e5-8b39-bac87b60df3b","ios":"levelo://app?vid=0c2516aa-5bff-41e5-8b39-bac87b60df3b"},"vehicle_type_id":"4","last_reported":1726690190,"current_range_meters":24000,"station_id":"ce4bha92rcd13ifvqeh0","pricing_plan_id":"cebpf4jnsgd1na2vs0mg"},{"bike_id":"d325cef9-4c42-4313-82a5-afd80f597758","system_id":"levelo_inurba_marseille","lat":43.3091,"lon":5.3685,"is_reserved":false,"is_disabled":false,"rental_uris":{"android":"levelo://app?vid=d325cef9-4c42-4313-82a5-afd80f597758","ios":"levelo://app?vid=d325cef9-4c42-4313-82a5-afd80f597758"},"vehicle_type_id":"4","last_reported":1726690190,"current_range_meters":38800,"station_id":"ce4bgn92rcd13ifvqbvg","pricing_plan_id":"cebpf4jnsgd1na2vs0mg"},{"bike_id":"65ae8588-215c-43b1-bd06-ee54af55b578","system_id":"levelo_inurba_marseille","lat":43.285458,"lon":5.384043,"is_reserved":false,"is_disabled":false,"rental_uris":{"android":"levelo://app?vid=65ae8588-215c-43b1-bd06-ee54af55b578","ios":"levelo://app?vid=65ae8588-215c-43b1-bd06-ee54af55b578"},"vehicle_type_id":"4","last_reported":1726690190,"current_range_meters":8800,"station_id":"ce4bh512rcd13ifvqe3g","pricing_plan_id":"cebpf4jnsgd1na2vs0mg"},{"bike_id":"f73cab25-e77c-47a3-8def-b8875f74ecae","system_id":"levelo_inurba_marseille","lat":43.27823,"lon":5.39209,"is_reserved":false,"is_disabled":false,"rental_uris":{"android":"levelo://app?vid=f73cab25-e77c-47a3-8def-b8875f74ecae","ios":"levelo://app?vid=f73cab25-e77c-47a3-8def-b8875f74ecae"},"vehicle_type_id":"4","last_reported":1726690190,"current_range_meters":8400,"station_id":"ce4bhjp2rcd13ifvqga0","pricing_plan_id":"cebpf4jnsgd1na2vs0mg"},{"bike_id":"0dd3cd64-9b1b-470d-90e1-cb799c6f2a9b","system_id":"levelo_inurba_marseille","lat":43.24071,"lon":5.37763,"is_reserved":false,"is_disabled":false,"rental_uris":{"android":"levelo://app?vid=0dd3cd64-9b1b-470d-90e1-cb799c6f2a9b","ios":"levelo://app?vid=0dd3cd64-9b1b-470d-90e1-cb799c6f2a9b"},"vehicle_type_id":"4","last_reported":1726690190,"current_range_meters":16000,"station_id":"ce4bhnp2rcd13ifvqgvg","pricing_plan_id":"cebpf4jnsgd1na2vs0mg"},{"bike_id":"7e1d5be8-2c3f-48ef-aa1e-14f1f3130ebe","system_id":"levelo_inurba_marseille","lat":43.23965,"lon":5.36635,"is_reserved":false,"is_disabled":false,"rental_uris":{"android":"levelo://app?vid=7e1d5be8-2c3f-48ef-aa1e-14f1f3130ebe","ios":"levelo://app?vid=7e1d5be8-2c3f-48ef-aa1e-14f1f3130ebe"},"vehicle_type_id":"4","last_reported":1726690190,"current_range_meters":24800,"station_id":"ce4bhi12rcd13ifvqfp0","pricing_plan_id":"cebpf4jnsgd1na2vs0mg"},{"bike_id":"bf63366c-87b9-4862-a020-53f8279007b5","system_id":"levelo_inurba_marseille","lat":43.301208,"lon":5.398461,"is_reserved":false,"is_disabled":false,"rental_uris":{"android":"levelo://app?vid=bf63366c-87b9-4862-a020-53f8279007b5","ios":"levelo://app?vid=bf63366c-87b9-4862-a020-53f8279007b5"},"vehicle_type_id":"4","last_reported":1726690190,"current_range_meters":38400,"station_id":"ce4bhi12rcd13ifvqfo0","pricing_plan_id":"cebpf4jnsgd1na2vs0mg"},{"bike_id":"a8cf1998-7f9f-4af3-9620-4b99d5e3ad99","system_id":"levelo_inurba_marseille","lat":43.28461,"lon":5.35889,"is_reserved":false,"is_disabled":false,"rental_uris":{"android":"levelo://app?vid=a8cf1998-7f9f-4af3-9620-4b99d5e3ad99","ios":"levelo://app?vid=a8cf1998-7f9f-4af3-9620-4b99d5e3ad99"},"vehicle_type_id":"4","last_reported":1726690190,"current_range_meters":20400,"station_id":"ce4bhah2rcd13ifvqei0","pricing_plan_id":"cebpf4jnsgd1na2vs0mg"},{"bike_id":"b714cd8d-49fa-4b4e-9341-ea3f2b2707d9","system_id":"levelo_inurba_marseille","lat":43.3095,"lon":5.39039,"is_reserved":false,"is_disabled":false,"rental_uris":{"android":"levelo://app?vid=b714cd8d-49fa-4b4e-9341-ea3f2b2707d9","ios":"levelo://app?vid=b714cd8d-49fa-4b4e-9341-ea3f2b2707d9"},"vehicle_type_id":"4","last_reported":1726690190,"current_range_meters":8400,"station_id":"ce4bgup2rcd13ifvqco0","pricing_plan_id":"cebpf4jnsgd1na2vs0mg"},{"bike_id":"646b3e73-3d30-4b6d-a473-ca7cbdd4be03","system_id":"levelo_inurba_marseille","lat":43.29001,"lon":5.35615,"is_reserved":false,"is_disabled":false,"rental_uris":{"android":"levelo://app?vid=646b3e73-3d30-4b6d-a473-ca7cbdd4be03","ios":"levelo://app?vid=646b3e73-3d30-4b6d-a473-ca7cbdd4be03"},"vehicle_type_id":"4","last_reported":1726690190,"current_range_meters":26800,"station_id":"ce4bhb92rcd13ifvqen0","pricing_plan_id":"cebpf4jnsgd1na2vs0mg"},{"bike_id":"a5c5147f-6437-4391-b265-ea09784a3d69","system_id":"levelo_inurba_marseille","lat":43.2587,"lon":5.39897,"is_reserved":false,"is_disabled":false,"rental_uris":{"android":"levelo://app?vid=a5c5147f-6437-4391-b265-ea09784a3d69","ios":"levelo://app?vid=a5c5147f-6437-4391-b265-ea09784a3d69"},"vehicle_type_id":"4","last_reported":1726690190,"current_range_meters":36000,"station_id":"ce4bhl92rcd13ifvqghg","pricing_plan_id":"cebpf4jnsgd1na2vs0mg"},{"bike_id":"8f63ed9f-0d3a-4ab5-baf2-ef0c4ac64707","system_id":"levelo_inurba_marseille","lat":43.29554,"lon":5.42274,"is_reserved":false,"is_disabled":false,"rental_uris":{"android":"levelo://app?vid=8f63ed9f-0d3a-4ab5-baf2-ef0c4ac64707","ios":"levelo://app?vid=8f63ed9f-0d3a-4ab5-baf2-ef0c4ac64707"},"vehicle_type_id":"4","last_reported":1726690190,"current_range_meters":40000,"station_id":"ce4bhph2rcd13ifvqhdg","pricing_plan_id":"cebpf4jnsgd1na2vs0mg"},{"bike_id":"44b3b041-d9ea-4dd2-9333-d1f77a4bb946","system_id":"levelo_inurba_marseille","lat":43.27966,"lon":5.38727,"is_reserved":false,"is_disabled":false,"rental_uris":{"android":"levelo://app?vid=44b3b041-d9ea-4dd2-9333-d1f77a4bb946","ios":"levelo://app?vid=44b3b041-d9ea-4dd2-9333-d1f77a4bb946"},"vehicle_type_id":"4","last_reported":1726690190,"current_range_meters":36800,"station_id":"ce4bhg12rcd13ifvqf80","pricing_plan_id":"cebpf4jnsgd1na2vs0mg"},{"bike_id":"beb15bd0-b449-4862-b0ef-bc6b9508122c","system_id":"levelo_inurba_marseille","lat":43.27613,"lon":5.36116,"is_reserved":false,"is_disabled":false,"rental_uris":{"android":"levelo://app?vid=beb15bd0-b449-4862-b0ef-bc6b9508122c","ios":"levelo://app?vid=beb15bd0-b449-4862-b0ef-bc6b9508122c"},"vehicle_type_id":"4","last_reported":1726690190,"current_range_meters":7200,"station_id":"ce4bgj92rcd13ifvqbe0","pricing_plan_id":"cebpf4jnsgd1na2vs0mg"},{"bike_id":"008e3724-a782-4111-8a11-b9e7641f8482","system_id":"levelo_inurba_marseille","lat":43.2957,"lon":5.39962,"is_reserved":false,"is_disabled":false,"rental_uris":{"android":"levelo://app?vid=008e3724-a782-4111-8a11-b9e7641f8482","ios":"levelo://app?vid=008e3724-a782-4111-8a11-b9e7641f8482"},"vehicle_type_id":"4","last_reported":1726690190,"current_range_meters":19600,"station_id":"ce4bh312rcd13ifvqdj0","pricing_plan_id":"cebpf4jnsgd1na2vs0mg"},{"bike_id":"5d78b308-9505-4ed0-832a-dc6eb31a5971","system_id":"levelo_inurba_marseille","lat":43.25574,"lon":5.38225,"is_reserved":false,"is_disabled":false,"rental_uris":{"android":"levelo://app?vid=5d78b308-9505-4ed0-832a-dc6eb31a5971","ios":"levelo://app?vid=5d78b308-9505-4ed0-832a-dc6eb31a5971"},"vehicle_type_id":"4","last_reported":1726690190,"current_range_meters":24400,"station_id":"ce4bhih2rcd13ifvqfs0","pricing_plan_id":"cebpf4jnsgd1na2vs0mg"},{"bike_id":"cafdd73d-4866-483c-a5a9-906f34d1ec7c","system_id":"levelo_inurba_marseille","lat":43.313162,"lon":5.396824,"is_reserved":false,"is_disabled":false,"rental_uris":{"android":"levelo://app?vid=cafdd73d-4866-483c-a5a9-906f34d1ec7c","ios":"levelo://app?vid=cafdd73d-4866-483c-a5a9-906f34d1ec7c"},"vehicle_type_id":"4","last_reported":1726690190,"current_range_meters":6000,"station_id":"ce4bgvp2rcd13ifvqcu0","pricing_plan_id":"cebpf4jnsgd1na2vs0mg"},{"bike_id":"ba54f573-336a-40ad-b931-1ca2a8b1e077","system_id":"levelo_inurba_marseille","lat":43.25828,"lon":5.3944,"is_reserved":false,"is_disabled":false,"rental_uris":{"android":"levelo://app?vid=ba54f573-336a-40ad-b931-1ca2a8b1e077","ios":"levelo://app?vid=ba54f573-336a-40ad-b931-1ca2a8b1e077"},"vehicle_type_id":"4","last_reported":1726690190,"current_range_meters":38800,"station_id":"ce4bhip2rcd13ifvqft0","pricing_plan_id":"cebpf4jnsgd1na2vs0mg"},{"bike_id":"c4c8acd1-ff3d-4806-8174-cea36604d882","system_id":"levelo_inurba_marseille","lat":43.29949,"lon":5.41318,"is_reserved":false,"is_disabled":false,"rental_uris":{"android":"levelo://app?vid=c4c8acd1-ff3d-4806-8174-cea36604d882","ios":"levelo://app?vid=c4c8acd1-ff3d-4806-8174-cea36604d882"},"vehicle_type_id":"4","last_reported":1726690190,"current_range_meters":34000,"station_id":"ce4bhp12rcd13ifvqh9g","pricing_plan_id":"cebpf4jnsgd1na2vs0mg"},{"bike_id":"4cda1419-d3bd-4034-886b-4553c41e863d","system_id":"levelo_inurba_marseille","lat":43.2893,"lon":5.36635,"is_reserved":false,"is_disabled":false,"rental_uris":{"android":"levelo://app?vid=4cda1419-d3bd-4034-886b-4553c41e863d","ios":"levelo://app?vid=4cda1419-d3bd-4034-886b-4553c41e863d"},"vehicle_type_id":"4","last_reported":1726690190,"current_range_meters":22400,"station_id":"ce4bhap2rcd13ifvqek0","pricing_plan_id":"cebpf4jnsgd1na2vs0mg"},{"bike_id":"ab2fb42a-7254-4e5c-819c-e4c1439e6b74","system_id":"levelo_inurba_marseille","lat":43.28705,"lon":5.3999,"is_reserved":false,"is_disabled":false,"rental_uris":{"android":"levelo://app?vid=ab2fb42a-7254-4e5c-819c-e4c1439e6b74","ios":"levelo://app?vid=ab2fb42a-7254-4e5c-819c-e4c1439e6b74"},"vehicle_type_id":"4","last_reported":1726690190,"current_range_meters":11200,"station_id":"ce4bho92rcd13ifvqh3g","pricing_plan_id":"cebpf4jnsgd1na2vs0mg"},{"bike_id":"34773d52-8757-498a-add0-9b3fcbba7821","system_id":"levelo_inurba_marseille","lat":43.28425,"lon":5.34988,"is_reserved":false,"is_disabled":false,"rental_uris":{"android":"levelo://app?vid=34773d52-8757-498a-add0-9b3fcbba7821","ios":"levelo://app?vid=34773d52-8757-498a-add0-9b3fcbba7821"},"vehicle_type_id":"4","last_reported":1726690190,"current_range_meters":6400,"station_id":"ce4bhbh2rcd13ifvqepg","pricing_plan_id":"cebpf4jnsgd1na2vs0mg"},{"bike_id":"a58dc92f-d4cf-423a-9ba0-7ca2320e84c1","system_id":"levelo_inurba_marseille","lat":43.28031,"lon":5.36951,"is_reserved":false,"is_disabled":false,"rental_uris":{"android":"levelo://app?vid=a58dc92f-d4cf-423a-9ba0-7ca2320e84c1","ios":"levelo://app?vid=a58dc92f-d4cf-423a-9ba0-7ca2320e84c1"},"vehicle_type_id":"4","last_reported":1726690190,"current_range_meters":38000,"station_id":"ce4bha12rcd13ifvqef0","pricing_plan_id":"cebpf4jnsgd1na2vs0mg"},{"bike_id":"89d2e671-f0b9-44b6-9f35-a805a345c1b2","system_id":"levelo_inurba_marseille","lat":43.29022,"lon":5.38631,"is_reserved":false,"is_disabled":false,"rental_uris":{"android":"levelo://app?vid=89d2e671-f0b9-44b6-9f35-a805a345c1b2","ios":"levelo://app?vid=89d2e671-f0b9-44b6-9f35-a805a345c1b2"},"vehicle_type_id":"4","last_reported":1726690190,"current_range_meters":14000,"station_id":"ce4bh4p2rcd13ifvqe0g","pricing_plan_id":"cebpf4jnsgd1na2vs0mg"},{"bike_id":"7ddae6db-a5e5-4637-b018-d22c4c6ee222","system_id":"levelo_inurba_marseille","lat":43.28261,"lon":5.35065,"is_reserved":false,"is_disabled":false,"rental_uris":{"android":"levelo://app?vid=7ddae6db-a5e5-4637-b018-d22c4c6ee222","ios":"levelo://app?vid=7ddae6db-a5e5-4637-b018-d22c4c6ee222"},"vehicle_type_id":"4","last_reported":1726690190,"current_range_meters":28000,"station_id":"ce4bhbp2rcd13ifvqerg","pricing_plan_id":"cebpf4jnsgd1na2vs0mg"},{"bike_id":"ef34c70d-2e65-48fd-bb4f-c142f621d359","system_id":"levelo_inurba_marseille","lat":43.24551,"lon":5.39523,"is_reserved":false,"is_disabled":false,"rental_uris":{"android":"levelo://app?vid=ef34c70d-2e65-48fd-bb4f-c142f621d359","ios":"levelo://app?vid=ef34c70d-2e65-48fd-bb4f-c142f621d359"},"vehicle_type_id":"4","last_reported":1726690190,"current_range_meters":38800,"station_id":"ce4bhlp2rcd13ifvqgjg","pricing_plan_id":"cebpf4jnsgd1na2vs0mg"},{"bike_id":"938a1d8e-8f7a-4dbb-a7f7-9b765b9ff51b","system_id":"levelo_inurba_marseille","lat":43.27611,"lon":5.36121,"is_reserved":false,"is_disabled":false,"rental_uris":{"android":"levelo://app?vid=938a1d8e-8f7a-4dbb-a7f7-9b765b9ff51b","ios":"levelo://app?vid=938a1d8e-8f7a-4dbb-a7f7-9b765b9ff51b"},"vehicle_type_id":"4","last_reported":1726690190,"current_range_meters":26000,"station_id":"ce4bgj92rcd13ifvqbe0","pricing_plan_id":"cebpf4jnsgd1na2vs0mg"},{"bike_id":"fa77e604-95b4-476d-a30f-499c3aaf710d","system_id":"levelo_inurba_marseille","lat":43.33722,"lon":5.39187,"is_reserved":false,"is_disabled":false,"rental_uris":{"android":"levelo://app?vid=fa77e604-95b4-476d-a30f-499c3aaf710d","ios":"levelo://app?vid=fa77e604-95b4-476d-a30f-499c3aaf710d"},"vehicle_type_id":"4","last_reported":1726690190,"current_range_meters":9600,"station_id":"ce4bhr92rcd13ifvqhsg","pricing_plan_id":"cebpf4jnsgd1na2vs0mg"},{"bike_id":"7620db55-f9a9-48d3-8e71-922c33f82c8f","system_id":"levelo_inurba_marseille","lat":43.33022,"lon":5.39034,"is_reserved":false,"is_disabled":false,"rental_uris":{"android":"levelo://app?vid=7620db55-f9a9-48d3-8e71-922c33f82c8f","ios":"levelo://app?vid=7620db55-f9a9-48d3-8e71-922c33f82c8f"},"vehicle_type_id":"4","last_reported":1726690190,"current_range_meters":27600,"station_id":"ce4bhr92rcd13ifvqhrg","pricing_plan_id":"cebpf4jnsgd1na2vs0mg"},{"bike_id":"a38468d6-008e-4542-b64c-f93d0f0b9f9b","system_id":"levelo_inurba_marseille","lat":43.23962,"lon":5.36627,"is_reserved":false,"is_disabled":false,"rental_uris":{"android":"levelo://app?vid=a38468d6-008e-4542-b64c-f93d0f0b9f9b","ios":"levelo://app?vid=a38468d6-008e-4542-b64c-f93d0f0b9f9b"},"vehicle_type_id":"4","last_reported":1726690190,"current_range_meters":35200,"station_id":"ce4bhi12rcd13ifvqfp0","pricing_plan_id":"cebpf4jnsgd1na2vs0mg"},{"bike_id":"6bea07ff-b7cf-43d7-9614-efd55ed0f2d6","system_id":"levelo_inurba_marseille","lat":43.24646,"lon":5.38899,"is_reserved":false,"is_disabled":false,"rental_uris":{"android":"levelo://app?vid=6bea07ff-b7cf-43d7-9614-efd55ed0f2d6","ios":"levelo://app?vid=6bea07ff-b7cf-43d7-9614-efd55ed0f2d6"},"vehicle_type_id":"4","last_reported":1726690190,"current_range_meters":29600,"station_id":"ce4bhg12rcd13ifvqf60","pricing_plan_id":"cebpf4jnsgd1na2vs0mg"},{"bike_id":"5304ed70-fad3-470c-b0c3-63f08a2a0a36","system_id":"levelo_inurba_marseille","lat":43.31333,"lon":5.3969,"is_reserved":false,"is_disabled":false,"rental_uris":{"android":"levelo://app?vid=5304ed70-fad3-470c-b0c3-63f08a2a0a36","ios":"levelo://app?vid=5304ed70-fad3-470c-b0c3-63f08a2a0a36"},"vehicle_type_id":"4","last_reported":1726690190,"current_range_meters":17200,"station_id":"ce4bgvp2rcd13ifvqcu0","pricing_plan_id":"cebpf4jnsgd1na2vs0mg"},{"bike_id":"5dc8462b-9f67-4f26-a70b-5cb5a55d9baa","system_id":"levelo_inurba_marseille","lat":43.23953,"lon":5.36626,"is_reserved":false,"is_disabled":false,"rental_uris":{"android":"levelo://app?vid=5dc8462b-9f67-4f26-a70b-5cb5a55d9baa","ios":"levelo://app?vid=5dc8462b-9f67-4f26-a70b-5cb5a55d9baa"},"vehicle_type_id":"4","last_reported":1726690190,"current_range_meters":38800,"station_id":"ce4bhi12rcd13ifvqfp0","pricing_plan_id":"cebpf4jnsgd1na2vs0mg"},{"bike_id":"9be94feb-a495-4651-8693-da9a946157ae","system_id":"levelo_inurba_marseille","lat":43.25008,"lon":5.38915,"is_reserved":false,"is_disabled":false,"rental_uris":{"android":"levelo://app?vid=9be94feb-a495-4651-8693-da9a946157ae","ios":"levelo://app?vid=9be94feb-a495-4651-8693-da9a946157ae"},"vehicle_type_id":"4","last_reported":1726690190,"current_range_meters":21600,"station_id":"ce4bhgp2rcd13ifvqfd0","pricing_plan_id":"cebpf4jnsgd1na2vs0mg"},{"bike_id":"8b92f07f-bbfd-414c-9917-9010c838ca72","system_id":"levelo_inurba_marseille","lat":43.32484,"lon":5.36556,"is_reserved":false,"is_disabled":false,"rental_uris":{"android":"levelo://app?vid=8b92f07f-bbfd-414c-9917-9010c838ca72","ios":"levelo://app?vid=8b92f07f-bbfd-414c-9917-9010c838ca72"},"vehicle_type_id":"4","last_reported":1726690190,"current_range_meters":18800,"station_id":"ce4bhs12rcd13ifvqhvg","pricing_plan_id":"cebpf4jnsgd1na2vs0mg"},{"bike_id":"5853071a-a7de-43ad-87c8-982495d79fa0","system_id":"levelo_inurba_marseille","lat":43.25006,"lon":5.38921,"is_reserved":false,"is_disabled":false,"rental_uris":{"android":"levelo://app?vid=5853071a-a7de-43ad-87c8-982495d79fa0","ios":"levelo://app?vid=5853071a-a7de-43ad-87c8-982495d79fa0"},"vehicle_type_id":"4","last_reported":1726690190,"current_range_meters":38000,"station_id":"ce4bhgp2rcd13ifvqfd0","pricing_plan_id":"cebpf4jnsgd1na2vs0mg"},{"bike_id":"eefbe1f3-0e29-4cd9-8a77-17693f615228","system_id":"levelo_inurba_marseille","lat":43.30429,"lon":5.41279,"is_reserved":false,"is_disabled":false,"rental_uris":{"android":"levelo://app?vid=eefbe1f3-0e29-4cd9-8a77-17693f615228","ios":"levelo://app?vid=eefbe1f3-0e29-4cd9-8a77-17693f615228"},"vehicle_type_id":"4","last_reported":1726690190,"current_range_meters":38800,"station_id":"ce4bhop2rcd13ifvqh8g","pricing_plan_id":"cebpf4jnsgd1na2vs0mg"},{"bike_id":"27c4c581-bfb3-44f9-b05a-3427f14de815","system_id":"levelo_inurba_marseille","lat":43.28573,"lon":5.39503,"is_reserved":false,"is_disabled":false,"rental_uris":{"android":"levelo://app?vid=27c4c581-bfb3-44f9-b05a-3427f14de815","ios":"levelo://app?vid=27c4c581-bfb3-44f9-b05a-3427f14de815"},"vehicle_type_id":"4","last_reported":1726690190,"current_range_meters":36800,"station_id":"ce4bh292rcd13ifvqdg0","pricing_plan_id":"cebpf4jnsgd1na2vs0mg"},{"bike_id":"b18d8b94-ea3f-41c4-a439-b580881ddfe3","system_id":"levelo_inurba_marseille","lat":43.31331,"lon":5.39702,"is_reserved":false,"is_disabled":false,"rental_uris":{"android":"levelo://app?vid=b18d8b94-ea3f-41c4-a439-b580881ddfe3","ios":"levelo://app?vid=b18d8b94-ea3f-41c4-a439-b580881ddfe3"},"vehicle_type_id":"4","last_reported":1726690190,"current_range_meters":38800,"station_id":"ce4bgvp2rcd13ifvqcu0","pricing_plan_id":"cebpf4jnsgd1na2vs0mg"},{"bike_id":"e0173d18-6c8e-483c-9db6-bd92135cda26","system_id":"levelo_inurba_marseille","lat":43.31994,"lon":5.38147,"is_reserved":false,"is_disabled":false,"rental_uris":{"android":"levelo://app?vid=e0173d18-6c8e-483c-9db6-bd92135cda26","ios":"levelo://app?vid=e0173d18-6c8e-483c-9db6-bd92135cda26"},"vehicle_type_id":"4","last_reported":1726690190,"current_range_meters":23200,"station_id":"ce4bhr12rcd13ifvqhpg","pricing_plan_id":"cebpf4jnsgd1na2vs0mg"},{"bike_id":"05410574-e19a-470a-bce7-ed8f6ab9135a","system_id":"levelo_inurba_marseille","lat":43.3171,"lon":5.43708,"is_reserved":false,"is_disabled":false,"rental_uris":{"android":"levelo://app?vid=05410574-e19a-470a-bce7-ed8f6ab9135a","ios":"levelo://app?vid=05410574-e19a-470a-bce7-ed8f6ab9135a"},"vehicle_type_id":"4","last_reported":1726690190,"current_range_meters":8400,"station_id":"ce4bhp92rcd13ifvqhcg","pricing_plan_id":"cebpf4jnsgd1na2vs0mg"},{"bike_id":"77e86427-f18b-4502-b4ab-6d97fdc517ac","system_id":"levelo_inurba_marseille","lat":43.28857,"lon":5.35845,"is_reserved":false,"is_disabled":false,"rental_uris":{"android":"levelo://app?vid=77e86427-f18b-4502-b4ab-6d97fdc517ac","ios":"levelo://app?vid=77e86427-f18b-4502-b4ab-6d97fdc517ac"},"vehicle_type_id":"4","last_reported":1726690190,"current_range_meters":27200,"station_id":"ce4bhb12rcd13ifvqem0","pricing_plan_id":"cebpf4jnsgd1na2vs0mg"},{"bike_id":"c934dec3-0b7c-498c-bd4f-f23b7aa70ba5","system_id":"levelo_inurba_marseille","lat":43.24071,"lon":5.3776,"is_reserved":false,"is_disabled":false,"rental_uris":{"android":"levelo://app?vid=c934dec3-0b7c-498c-bd4f-f23b7aa70ba5","ios":"levelo://app?vid=c934dec3-0b7c-498c-bd4f-f23b7aa70ba5"},"vehicle_type_id":"4","last_reported":1726690190,"current_range_meters":9600,"station_id":"ce4bhnp2rcd13ifvqgvg","pricing_plan_id":"cebpf4jnsgd1na2vs0mg"},{"bike_id":"55fed244-caf4-46e6-99fc-fcd916ddb5b7","system_id":"levelo_inurba_marseille","lat":43.23199,"lon":5.35545,"is_reserved":false,"is_disabled":false,"rental_uris":{"android":"levelo://app?vid=55fed244-caf4-46e6-99fc-fcd916ddb5b7","ios":"levelo://app?vid=55fed244-caf4-46e6-99fc-fcd916ddb5b7"},"vehicle_type_id":"4","last_reported":1726690190,"current_range_meters":23200,"station_id":"ce4bhu92rcd13ifvqi70","pricing_plan_id":"cebpf4jnsgd1na2vs0mg"},{"bike_id":"3f7da9c1-e887-441d-8808-9e98153d4023","system_id":"levelo_inurba_marseille","lat":43.28613,"lon":5.35101,"is_reserved":false,"is_disabled":false,"rental_uris":{"android":"levelo://app?vid=3f7da9c1-e887-441d-8808-9e98153d4023","ios":"levelo://app?vid=3f7da9c1-e887-441d-8808-9e98153d4023"},"vehicle_type_id":"4","last_reported":1726690190,"current_range_meters":6400,"station_id":"ce4bhch2rcd13ifvqeug","pricing_plan_id":"cebpf4jnsgd1na2vs0mg"},{"bike_id":"2c58c0a2-6a54-46f7-b118-a6b26f7e41f2","system_id":"levelo_inurba_marseille","lat":43.30644,"lon":5.4008,"is_reserved":false,"is_disabled":false,"rental_uris":{"android":"levelo://app?vid=2c58c0a2-6a54-46f7-b118-a6b26f7e41f2","ios":"levelo://app?vid=2c58c0a2-6a54-46f7-b118-a6b26f7e41f2"},"vehicle_type_id":"4","last_reported":1726690190,"current_range_meters":8800,"station_id":"ce4bh112rcd13ifvqda0","pricing_plan_id":"cebpf4jnsgd1na2vs0mg"},{"bike_id":"62e335eb-aaec-4647-b7e9-321a9f4dff46","system_id":"levelo_inurba_marseille","lat":43.28462,"lon":5.35887,"is_reserved":false,"is_disabled":false,"rental_uris":{"android":"levelo://app?vid=62e335eb-aaec-4647-b7e9-321a9f4dff46","ios":"levelo://app?vid=62e335eb-aaec-4647-b7e9-321a9f4dff46"},"vehicle_type_id":"4","last_reported":1726690190,"current_range_meters":38800,"station_id":"ce4bhah2rcd13ifvqei0","pricing_plan_id":"cebpf4jnsgd1na2vs0mg"},{"bike_id":"3e5ce477-7f69-4c9f-bf73-e98e38620e8a","system_id":"levelo_inurba_marseille","lat":43.3176,"lon":5.39009,"is_reserved":false,"is_disabled":false,"rental_uris":{"android":"levelo://app?vid=3e5ce477-7f69-4c9f-bf73-e98e38620e8a","ios":"levelo://app?vid=3e5ce477-7f69-4c9f-bf73-e98e38620e8a"},"vehicle_type_id":"4","last_reported":1726690190,"current_range_meters":19600,"station_id":"ce4bhqp2rcd13ifvqhng","pricing_plan_id":"cebpf4jnsgd1na2vs0mg"},{"bike_id":"67e3a6af-f6ee-4466-86cf-1bd6401a24ff","system_id":"levelo_inurba_marseille","lat":43.28268,"lon":5.35061,"is_reserved":false,"is_disabled":false,"rental_uris":{"android":"levelo://app?vid=67e3a6af-f6ee-4466-86cf-1bd6401a24ff","ios":"levelo://app?vid=67e3a6af-f6ee-4466-86cf-1bd6401a24ff"},"vehicle_type_id":"4","last_reported":1726690190,"current_range_meters":38800,"station_id":"ce4bhbp2rcd13ifvqerg","pricing_plan_id":"cebpf4jnsgd1na2vs0mg"},{"bike_id":"677498c9-746b-4650-9a8e-2c7479635944","system_id":"levelo_inurba_marseille","lat":43.33023,"lon":5.39047,"is_reserved":false,"is_disabled":false,"rental_uris":{"android":"levelo://app?vid=677498c9-746b-4650-9a8e-2c7479635944","ios":"levelo://app?vid=677498c9-746b-4650-9a8e-2c7479635944"},"vehicle_type_id":"4","last_reported":1726690190,"current_range_meters":12400,"station_id":"ce4bhr92rcd13ifvqhrg","pricing_plan_id":"cebpf4jnsgd1na2vs0mg"},{"bike_id":"bee0e7c0-a7b3-4aa5-ab3e-0f242b502b94","system_id":"levelo_inurba_marseille","lat":43.31077,"lon":5.38363,"is_reserved":false,"is_disabled":false,"rental_uris":{"android":"levelo://app?vid=bee0e7c0-a7b3-4aa5-ab3e-0f242b502b94","ios":"levelo://app?vid=bee0e7c0-a7b3-4aa5-ab3e-0f242b502b94"},"vehicle_type_id":"4","last_reported":1726690190,"current_range_meters":11200,"station_id":"ce4bgv92rcd13ifvqcr0","pricing_plan_id":"cebpf4jnsgd1na2vs0mg"},{"bike_id":"3e99e2ac-cdfd-4893-be50-20dbb5272dd6","system_id":"levelo_inurba_marseille","lat":43.308073,"lon":5.435315,"is_reserved":false,"is_disabled":false,"rental_uris":{"android":"levelo://app?vid=3e99e2ac-cdfd-4893-be50-20dbb5272dd6","ios":"levelo://app?vid=3e99e2ac-cdfd-4893-be50-20dbb5272dd6"},"vehicle_type_id":"4","last_reported":1726690190,"current_range_meters":38800,"station_id":"ce4bhph2rcd13ifvqheg","pricing_plan_id":"cebpf4jnsgd1na2vs0mg"},{"bike_id":"7d1ee808-291a-4e08-9c9a-7318984664a1","system_id":"levelo_inurba_marseille","lat":43.30897,"lon":5.37205,"is_reserved":false,"is_disabled":false,"rental_uris":{"android":"levelo://app?vid=7d1ee808-291a-4e08-9c9a-7318984664a1","ios":"levelo://app?vid=7d1ee808-291a-4e08-9c9a-7318984664a1"},"vehicle_type_id":"4","last_reported":1726690190,"current_range_meters":34000,"station_id":"ce4bguh2rcd13ifvqckg","pricing_plan_id":"cebpf4jnsgd1na2vs0mg"},{"bike_id":"2cbb6dd5-2ec8-4ba5-808a-c5301f897d27","system_id":"levelo_inurba_marseille","lat":43.23955,"lon":5.36631,"is_reserved":false,"is_disabled":false,"rental_uris":{"android":"levelo://app?vid=2cbb6dd5-2ec8-4ba5-808a-c5301f897d27","ios":"levelo://app?vid=2cbb6dd5-2ec8-4ba5-808a-c5301f897d27"},"vehicle_type_id":"4","last_reported":1726690190,"current_range_meters":26000,"station_id":"ce4bhi12rcd13ifvqfp0","pricing_plan_id":"cebpf4jnsgd1na2vs0mg"},{"bike_id":"53b2f801-a3db-47c7-b86a-b31e19a78736","system_id":"levelo_inurba_marseille","lat":43.29258,"lon":5.38433,"is_reserved":false,"is_disabled":false,"rental_uris":{"android":"levelo://app?vid=53b2f801-a3db-47c7-b86a-b31e19a78736","ios":"levelo://app?vid=53b2f801-a3db-47c7-b86a-b31e19a78736"},"vehicle_type_id":"4","last_reported":1726690190,"current_range_meters":29600,"station_id":"ce4bh692rcd13ifvqea0","pricing_plan_id":"cebpf4jnsgd1na2vs0mg"},{"bike_id":"f5ddcaf2-4df3-4791-8314-9ff825829baa","system_id":"levelo_inurba_marseille","lat":43.28461,"lon":5.35892,"is_reserved":false,"is_disabled":false,"rental_uris":{"android":"levelo://app?vid=f5ddcaf2-4df3-4791-8314-9ff825829baa","ios":"levelo://app?vid=f5ddcaf2-4df3-4791-8314-9ff825829baa"},"vehicle_type_id":"4","last_reported":1726690190,"current_range_meters":25600,"station_id":"ce4bhah2rcd13ifvqei0","pricing_plan_id":"cebpf4jnsgd1na2vs0mg"},{"bike_id":"60a48ecc-9daa-48c2-b121-ddd2616d1aab","system_id":"levelo_inurba_marseille","lat":43.28352,"lon":5.38115,"is_reserved":false,"is_disabled":false,"rental_uris":{"android":"levelo://app?vid=60a48ecc-9daa-48c2-b121-ddd2616d1aab","ios":"levelo://app?vid=60a48ecc-9daa-48c2-b121-ddd2616d1aab"},"vehicle_type_id":"4","last_reported":1726690190,"current_range_meters":8800,"station_id":"ce4bh412rcd13ifvqdr0","pricing_plan_id":"cebpf4jnsgd1na2vs0mg"},{"bike_id":"1478a44f-74d8-48d2-a01f-74a3a0b9df5a","system_id":"levelo_inurba_marseille","lat":43.31278,"lon":5.4017,"is_reserved":false,"is_disabled":false,"rental_uris":{"android":"levelo://app?vid=1478a44f-74d8-48d2-a01f-74a3a0b9df5a","ios":"levelo://app?vid=1478a44f-74d8-48d2-a01f-74a3a0b9df5a"},"vehicle_type_id":"4","last_reported":1726690190,"current_range_meters":11200,"station_id":"ce4bh092rcd13ifvqd30","pricing_plan_id":"cebpf4jnsgd1na2vs0mg"},{"bike_id":"b151f387-634b-4ed3-b8d1-d6d9523ac044","system_id":"levelo_inurba_marseille","lat":43.29778,"lon":5.37098,"is_reserved":false,"is_disabled":false,"rental_uris":{"android":"levelo://app?vid=b151f387-634b-4ed3-b8d1-d6d9523ac044","ios":"levelo://app?vid=b151f387-634b-4ed3-b8d1-d6d9523ac044"},"vehicle_type_id":"4","last_reported":1726690190,"current_range_meters":38800,"station_id":"ce4bgop2rcd13ifvqc1g","pricing_plan_id":"cebpf4jnsgd1na2vs0mg"},{"bike_id":"10074ca6-1985-4939-a802-8c358e57d5bb","system_id":"levelo_inurba_marseille","lat":43.31888,"lon":5.40729,"is_reserved":false,"is_disabled":false,"rental_uris":{"android":"levelo://app?vid=10074ca6-1985-4939-a802-8c358e57d5bb","ios":"levelo://app?vid=10074ca6-1985-4939-a802-8c358e57d5bb"},"vehicle_type_id":"4","last_reported":1726690190,"current_range_meters":12800,"station_id":"ce4bhq12rcd13ifvqhig","pricing_plan_id":"cebpf4jnsgd1na2vs0mg"},{"bike_id":"52fffaf1-dd98-4e0a-a39d-48011512624f","system_id":"levelo_inurba_marseille","lat":43.25505,"lon":5.37646,"is_reserved":false,"is_disabled":false,"rental_uris":{"android":"levelo://app?vid=52fffaf1-dd98-4e0a-a39d-48011512624f","ios":"levelo://app?vid=52fffaf1-dd98-4e0a-a39d-48011512624f"},"vehicle_type_id":"4","last_reported":1726690190,"current_range_meters":30800,"station_id":"ce4bhh12rcd13ifvqff0","pricing_plan_id":"cebpf4jnsgd1na2vs0mg"},{"bike_id":"62eb64bf-1496-4e1f-9221-724f499e1636","system_id":"levelo_inurba_marseille","lat":43.295,"lon":5.3852,"is_reserved":false,"is_disabled":false,"rental_uris":{"android":"levelo://app?vid=62eb64bf-1496-4e1f-9221-724f499e1636","ios":"levelo://app?vid=62eb64bf-1496-4e1f-9221-724f499e1636"},"vehicle_type_id":"4","last_reported":1726690190,"current_range_meters":9200,"station_id":"ce4bgih2rcd13ifvqba0","pricing_plan_id":"cebpf4jnsgd1na2vs0mg"},{"bike_id":"de268f51-9584-4adc-87a7-5847e45d9d4d","system_id":"levelo_inurba_marseille","lat":43.30423,"lon":5.41278,"is_reserved":false,"is_disabled":false,"rental_uris":{"android":"levelo://app?vid=de268f51-9584-4adc-87a7-5847e45d9d4d","ios":"levelo://app?vid=de268f51-9584-4adc-87a7-5847e45d9d4d"},"vehicle_type_id":"4","last_reported":1726690190,"current_range_meters":38800,"station_id":"ce4bhop2rcd13ifvqh8g","pricing_plan_id":"cebpf4jnsgd1na2vs0mg"},{"bike_id":"998ddacb-a930-414c-8e03-6e6d234ecf40","system_id":"levelo_inurba_marseille","lat":43.30417,"lon":5.41281,"is_reserved":false,"is_disabled":false,"rental_uris":{"android":"levelo://app?vid=998ddacb-a930-414c-8e03-6e6d234ecf40","ios":"levelo://app?vid=998ddacb-a930-414c-8e03-6e6d234ecf40"},"vehicle_type_id":"4","last_reported":1726690190,"current_range_meters":38000,"station_id":"ce4bhop2rcd13ifvqh8g","pricing_plan_id":"cebpf4jnsgd1na2vs0mg"},{"bike_id":"37804655-3b91-46a3-b91b-1ceef89e4f83","system_id":"levelo_inurba_marseille","lat":43.28459,"lon":5.35897,"is_reserved":false,"is_disabled":false,"rental_uris":{"android":"levelo://app?vid=37804655-3b91-46a3-b91b-1ceef89e4f83","ios":"levelo://app?vid=37804655-3b91-46a3-b91b-1ceef89e4f83"},"vehicle_type_id":"4","last_reported":1726690190,"current_range_meters":6800,"station_id":"ce4bhah2rcd13ifvqei0","pricing_plan_id":"cebpf4jnsgd1na2vs0mg"},{"bike_id":"4db52eb6-98ee-4a84-af00-f7fac3c0feba","system_id":"levelo_inurba_marseille","lat":43.28466,"lon":5.3589,"is_reserved":false,"is_disabled":false,"rental_uris":{"android":"levelo://app?vid=4db52eb6-98ee-4a84-af00-f7fac3c0feba","ios":"levelo://app?vid=4db52eb6-98ee-4a84-af00-f7fac3c0feba"},"vehicle_type_id":"4","last_reported":1726690190,"current_range_meters":7200,"station_id":"ce4bhah2rcd13ifvqei0","pricing_plan_id":"cebpf4jnsgd1na2vs0mg"},{"bike_id":"d37aa318-9eec-42e5-ad66-edcb803356f0","system_id":"levelo_inurba_marseille","lat":43.27805,"lon":5.42817,"is_reserved":false,"is_disabled":false,"rental_uris":{"android":"levelo://app?vid=d37aa318-9eec-42e5-ad66-edcb803356f0","ios":"levelo://app?vid=d37aa318-9eec-42e5-ad66-edcb803356f0"},"vehicle_type_id":"4","last_reported":1726690190,"current_range_meters":8000,"station_id":"","pricing_plan_id":"cebpf4jnsgd1na2vs0mg"},{"bike_id":"b51480c2-9b9c-41e3-9bfc-f3e2a0ce7444","system_id":"levelo_inurba_marseille","lat":43.23193,"lon":5.35551,"is_reserved":false,"is_disabled":false,"rental_uris":{"android":"levelo://app?vid=b51480c2-9b9c-41e3-9bfc-f3e2a0ce7444","ios":"levelo://app?vid=b51480c2-9b9c-41e3-9bfc-f3e2a0ce7444"},"vehicle_type_id":"4","last_reported":1726690190,"current_range_meters":38800,"station_id":"ce4bhu92rcd13ifvqi70","pricing_plan_id":"cebpf4jnsgd1na2vs0mg"},{"bike_id":"59312797-1210-48d1-bfd5-65f7078849b3","system_id":"levelo_inurba_marseille","lat":43.30252,"lon":5.40077,"is_reserved":false,"is_disabled":false,"rental_uris":{"android":"levelo://app?vid=59312797-1210-48d1-bfd5-65f7078849b3","ios":"levelo://app?vid=59312797-1210-48d1-bfd5-65f7078849b3"},"vehicle_type_id":"4","last_reported":1726690190,"current_range_meters":36800,"station_id":"ce4bgvh2rcd13ifvqcs0","pricing_plan_id":"cebpf4jnsgd1na2vs0mg"},{"bike_id":"93ba4ede-58ab-412a-bc91-fb80ea0cb912","system_id":"levelo_inurba_marseille","lat":43.30883,"lon":5.39659,"is_reserved":false,"is_disabled":false,"rental_uris":{"android":"levelo://app?vid=93ba4ede-58ab-412a-bc91-fb80ea0cb912","ios":"levelo://app?vid=93ba4ede-58ab-412a-bc91-fb80ea0cb912"},"vehicle_type_id":"4","last_reported":1726690190,"current_range_meters":17600,"station_id":"ce4bh012rcd13ifvqcv0","pricing_plan_id":"cebpf4jnsgd1na2vs0mg"},{"bike_id":"2b714e73-49f8-4f26-bb6d-7d72ce23aabc","system_id":"levelo_inurba_marseille","lat":43.23051,"lon":5.35491,"is_reserved":false,"is_disabled":false,"rental_uris":{"android":"levelo://app?vid=2b714e73-49f8-4f26-bb6d-7d72ce23aabc","ios":"levelo://app?vid=2b714e73-49f8-4f26-bb6d-7d72ce23aabc"},"vehicle_type_id":"4","last_reported":1726690190,"current_range_meters":6800,"station_id":"cpo3342slgdg3j2ifvpg","pricing_plan_id":"cebpf4jnsgd1na2vs0mg"},{"bike_id":"cb36a45f-4c0a-42ed-b37c-eea18317ed3b","system_id":"levelo_inurba_marseille","lat":43.29412,"lon":5.38628,"is_reserved":false,"is_disabled":false,"rental_uris":{"android":"levelo://app?vid=cb36a45f-4c0a-42ed-b37c-eea18317ed3b","ios":"levelo://app?vid=cb36a45f-4c0a-42ed-b37c-eea18317ed3b"},"vehicle_type_id":"4","last_reported":1726690190,"current_range_meters":24400,"station_id":"ce4bh2h2rcd13ifvqdh0","pricing_plan_id":"cebpf4jnsgd1na2vs0mg"},{"bike_id":"20f49174-6ab6-4ee8-8b65-9490551f9311","system_id":"levelo_inurba_marseille","lat":43.28666,"lon":5.38669,"is_reserved":false,"is_disabled":false,"rental_uris":{"android":"levelo://app?vid=20f49174-6ab6-4ee8-8b65-9490551f9311","ios":"levelo://app?vid=20f49174-6ab6-4ee8-8b65-9490551f9311"},"vehicle_type_id":"4","last_reported":1726690190,"current_range_meters":10800,"station_id":"ce4bh492rcd13ifvqdug","pricing_plan_id":"cebpf4jnsgd1na2vs0mg"},{"bike_id":"2e64ac77-37d0-42c4-9b89-df897b66197d","system_id":"levelo_inurba_marseille","lat":43.29964,"lon":5.41324,"is_reserved":false,"is_disabled":false,"rental_uris":{"android":"levelo://app?vid=2e64ac77-37d0-42c4-9b89-df897b66197d","ios":"levelo://app?vid=2e64ac77-37d0-42c4-9b89-df897b66197d"},"vehicle_type_id":"4","last_reported":1726690190,"current_range_meters":39200,"station_id":"ce4bhp12rcd13ifvqh9g","pricing_plan_id":"cebpf4jnsgd1na2vs0mg"},{"bike_id":"451cd4e6-d747-4d42-b652-d593351ccec4","system_id":"levelo_inurba_marseille","lat":43.24387,"lon":5.37052,"is_reserved":false,"is_disabled":false,"rental_uris":{"android":"levelo://app?vid=451cd4e6-d747-4d42-b652-d593351ccec4","ios":"levelo://app?vid=451cd4e6-d747-4d42-b652-d593351ccec4"},"vehicle_type_id":"4","last_reported":1726690190,"current_range_meters":38000,"station_id":"ce4bhhh2rcd13ifvqfk0","pricing_plan_id":"cebpf4jnsgd1na2vs0mg"},{"bike_id":"13b57b80-59e8-43e9-b969-57ed41f63348","system_id":"levelo_inurba_marseille","lat":43.28397,"lon":5.37528,"is_reserved":false,"is_disabled":false,"rental_uris":{"android":"levelo://app?vid=13b57b80-59e8-43e9-b969-57ed41f63348","ios":"levelo://app?vid=13b57b80-59e8-43e9-b969-57ed41f63348"},"vehicle_type_id":"4","last_reported":1726690190,"current_range_meters":12000,"station_id":"ce4bh412rcd13ifvqds0","pricing_plan_id":"cebpf4jnsgd1na2vs0mg"},{"bike_id":"6e23909e-b006-4268-922d-0cfbcc827226","system_id":"levelo_inurba_marseille","lat":43.301117,"lon":5.387559,"is_reserved":false,"is_disabled":false,"rental_uris":{"android":"levelo://app?vid=6e23909e-b006-4268-922d-0cfbcc827226","ios":"levelo://app?vid=6e23909e-b006-4268-922d-0cfbcc827226"},"vehicle_type_id":"4","last_reported":1726690190,"current_range_meters":3200,"station_id":"ce4bgv12rcd13ifvqcp0","pricing_plan_id":"cebpf4jnsgd1na2vs0mg"},{"bike_id":"814c3ad7-ae62-4a71-888b-ee4b0342d150","system_id":"levelo_inurba_marseille","lat":43.31757,"lon":5.39013,"is_reserved":false,"is_disabled":false,"rental_uris":{"android":"levelo://app?vid=814c3ad7-ae62-4a71-888b-ee4b0342d150","ios":"levelo://app?vid=814c3ad7-ae62-4a71-888b-ee4b0342d150"},"vehicle_type_id":"4","last_reported":1726690190,"current_range_meters":27200,"station_id":"ce4bhqp2rcd13ifvqhng","pricing_plan_id":"cebpf4jnsgd1na2vs0mg"},{"bike_id":"62605b61-4e41-49b0-8ed2-e4c0780af73e","system_id":"levelo_inurba_marseille","lat":43.28932,"lon":5.36637,"is_reserved":false,"is_disabled":false,"rental_uris":{"android":"levelo://app?vid=62605b61-4e41-49b0-8ed2-e4c0780af73e","ios":"levelo://app?vid=62605b61-4e41-49b0-8ed2-e4c0780af73e"},"vehicle_type_id":"4","last_reported":1726690190,"current_range_meters":37600,"station_id":"ce4bhap2rcd13ifvqek0","pricing_plan_id":"cebpf4jnsgd1na2vs0mg"},{"bike_id":"bdb8a83f-b7ae-485f-aff7-4b006a98c438","system_id":"levelo_inurba_marseille","lat":43.29599,"lon":5.38101,"is_reserved":false,"is_disabled":false,"rental_uris":{"android":"levelo://app?vid=bdb8a83f-b7ae-485f-aff7-4b006a98c438","ios":"levelo://app?vid=bdb8a83f-b7ae-485f-aff7-4b006a98c438"},"vehicle_type_id":"4","last_reported":1726690190,"current_range_meters":38800,"station_id":"ce4bgl12rcd13ifvqbo0","pricing_plan_id":"cebpf4jnsgd1na2vs0mg"},{"bike_id":"02c639a4-fe62-499a-a69a-f474d98d7667","system_id":"levelo_inurba_marseille","lat":43.28454,"lon":5.35895,"is_reserved":false,"is_disabled":false,"rental_uris":{"android":"levelo://app?vid=02c639a4-fe62-499a-a69a-f474d98d7667","ios":"levelo://app?vid=02c639a4-fe62-499a-a69a-f474d98d7667"},"vehicle_type_id":"4","last_reported":1726690190,"current_range_meters":38400,"station_id":"ce4bhah2rcd13ifvqei0","pricing_plan_id":"cebpf4jnsgd1na2vs0mg"},{"bike_id":"2a77f009-a165-4701-94ec-5d7702a4d450","system_id":"levelo_inurba_marseille","lat":43.2656,"lon":5.39012,"is_reserved":false,"is_disabled":false,"rental_uris":{"android":"levelo://app?vid=2a77f009-a165-4701-94ec-5d7702a4d450","ios":"levelo://app?vid=2a77f009-a165-4701-94ec-5d7702a4d450"},"vehicle_type_id":"4","last_reported":1726690190,"current_range_meters":38800,"station_id":"ce4bhe12rcd13ifvqf30","pricing_plan_id":"cebpf4jnsgd1na2vs0mg"},{"bike_id":"6dd17a2f-59bb-4453-859d-2c09ab795824","system_id":"levelo_inurba_marseille","lat":43.33026,"lon":5.39049,"is_reserved":false,"is_disabled":false,"rental_uris":{"android":"levelo://app?vid=6dd17a2f-59bb-4453-859d-2c09ab795824","ios":"levelo://app?vid=6dd17a2f-59bb-4453-859d-2c09ab795824"},"vehicle_type_id":"4","last_reported":1726690190,"current_range_meters":24000,"station_id":"ce4bhr92rcd13ifvqhrg","pricing_plan_id":"cebpf4jnsgd1na2vs0mg"},{"bike_id":"682c326f-9756-4537-a3eb-f525cbc855ff","system_id":"levelo_inurba_marseille","lat":43.25722,"lon":5.41113,"is_reserved":false,"is_disabled":false,"rental_uris":{"android":"levelo://app?vid=682c326f-9756-4537-a3eb-f525cbc855ff","ios":"levelo://app?vid=682c326f-9756-4537-a3eb-f525cbc855ff"},"vehicle_type_id":"4","last_reported":1726690190,"current_range_meters":39200,"station_id":"ce4bhkp2rcd13ifvqgd0","pricing_plan_id":"cebpf4jnsgd1na2vs0mg"},{"bike_id":"fc2c37fd-b30e-4e49-9975-3233bf5effda","system_id":"levelo_inurba_marseille","lat":43.31915,"lon":5.39303,"is_reserved":false,"is_disabled":false,"rental_uris":{"android":"levelo://app?vid=fc2c37fd-b30e-4e49-9975-3233bf5effda","ios":"levelo://app?vid=fc2c37fd-b30e-4e49-9975-3233bf5effda"},"vehicle_type_id":"4","last_reported":1726690190,"current_range_meters":30000,"station_id":"","pricing_plan_id":"cebpf4jnsgd1na2vs0mg"},{"bike_id":"05f48429-9a91-4fad-8be5-0970b020dfe6","system_id":"levelo_inurba_marseille","lat":43.23952,"lon":5.36633,"is_reserved":false,"is_disabled":false,"rental_uris":{"android":"levelo://app?vid=05f48429-9a91-4fad-8be5-0970b020dfe6","ios":"levelo://app?vid=05f48429-9a91-4fad-8be5-0970b020dfe6"},"vehicle_type_id":"4","last_reported":1726690190,"current_range_meters":6800,"station_id":"ce4bhi12rcd13ifvqfp0","pricing_plan_id":"cebpf4jnsgd1na2vs0mg"},{"bike_id":"f2c95146-36ce-4175-8035-0c4ee99efa92","system_id":"levelo_inurba_marseille","lat":43.23193,"lon":5.35551,"is_reserved":false,"is_disabled":false,"rental_uris":{"android":"levelo://app?vid=f2c95146-36ce-4175-8035-0c4ee99efa92","ios":"levelo://app?vid=f2c95146-36ce-4175-8035-0c4ee99efa92"},"vehicle_type_id":"4","last_reported":1726690190,"current_range_meters":10800,"station_id":"ce4bhu92rcd13ifvqi70","pricing_plan_id":"cebpf4jnsgd1na2vs0mg"},{"bike_id":"11859f6c-e16b-4ee4-8084-fee7beccc9d9","system_id":"levelo_inurba_marseille","lat":43.2903,"lon":5.38642,"is_reserved":false,"is_disabled":false,"rental_uris":{"android":"levelo://app?vid=11859f6c-e16b-4ee4-8084-fee7beccc9d9","ios":"levelo://app?vid=11859f6c-e16b-4ee4-8084-fee7beccc9d9"},"vehicle_type_id":"4","last_reported":1726690190,"current_range_meters":8400,"station_id":"ce4bh4p2rcd13ifvqe0g","pricing_plan_id":"cebpf4jnsgd1na2vs0mg"},{"bike_id":"97a270e8-ed67-4ad2-9631-e76c964cede9","system_id":"levelo_inurba_marseille","lat":43.29108,"lon":5.38138,"is_reserved":false,"is_disabled":false,"rental_uris":{"android":"levelo://app?vid=97a270e8-ed67-4ad2-9631-e76c964cede9","ios":"levelo://app?vid=97a270e8-ed67-4ad2-9631-e76c964cede9"},"vehicle_type_id":"4","last_reported":1726690190,"current_range_meters":35200,"station_id":"ce4bh512rcd13ifvqe2g","pricing_plan_id":"cebpf4jnsgd1na2vs0mg"},{"bike_id":"3b823bbf-e4a3-414a-b06e-601b92cfecb3","system_id":"levelo_inurba_marseille","lat":43.29262,"lon":5.38448,"is_reserved":false,"is_disabled":false,"rental_uris":{"android":"levelo://app?vid=3b823bbf-e4a3-414a-b06e-601b92cfecb3","ios":"levelo://app?vid=3b823bbf-e4a3-414a-b06e-601b92cfecb3"},"vehicle_type_id":"4","last_reported":1726690190,"current_range_meters":28800,"station_id":"ce4bh692rcd13ifvqea0","pricing_plan_id":"cebpf4jnsgd1na2vs0mg"},{"bike_id":"30aacab6-17c4-42f0-b9be-80144ff199d9","system_id":"levelo_inurba_marseille","lat":43.29024,"lon":5.37564,"is_reserved":false,"is_disabled":false,"rental_uris":{"android":"levelo://app?vid=30aacab6-17c4-42f0-b9be-80144ff199d9","ios":"levelo://app?vid=30aacab6-17c4-42f0-b9be-80144ff199d9"},"vehicle_type_id":"4","last_reported":1726690190,"current_range_meters":39200,"station_id":"ce4bh692rcd13ifvqe90","pricing_plan_id":"cebpf4jnsgd1na2vs0mg"},{"bike_id":"750e8351-13f9-43b0-b164-24061995e5de","system_id":"levelo_inurba_marseille","lat":43.30895,"lon":5.372,"is_reserved":false,"is_disabled":false,"rental_uris":{"android":"levelo://app?vid=750e8351-13f9-43b0-b164-24061995e5de","ios":"levelo://app?vid=750e8351-13f9-43b0-b164-24061995e5de"},"vehicle_type_id":"4","last_reported":1726690190,"current_range_meters":40000,"station_id":"ce4bguh2rcd13ifvqckg","pricing_plan_id":"cebpf4jnsgd1na2vs0mg"},{"bike_id":"7d67441c-acf3-496b-9711-da23da5e28f1","system_id":"levelo_inurba_marseille","lat":43.28562,"lon":5.40275,"is_reserved":false,"is_disabled":false,"rental_uris":{"android":"levelo://app?vid=7d67441c-acf3-496b-9711-da23da5e28f1","ios":"levelo://app?vid=7d67441c-acf3-496b-9711-da23da5e28f1"},"vehicle_type_id":"4","last_reported":1726690190,"current_range_meters":30800,"station_id":"","pricing_plan_id":"cebpf4jnsgd1na2vs0mg"},{"bike_id":"db5bed51-afb9-4548-98e9-7b7ae226c501","system_id":"levelo_inurba_marseille","lat":43.33746,"lon":5.37451,"is_reserved":false,"is_disabled":false,"rental_uris":{"android":"levelo://app?vid=db5bed51-afb9-4548-98e9-7b7ae226c501","ios":"levelo://app?vid=db5bed51-afb9-4548-98e9-7b7ae226c501"},"vehicle_type_id":"4","last_reported":1726690190,"current_range_meters":34000,"station_id":"","pricing_plan_id":"cebpf4jnsgd1na2vs0mg"},{"bike_id":"6a78926c-7c24-4114-b69b-79fe85c63250","system_id":"levelo_inurba_marseille","lat":43.30882,"lon":5.39648,"is_reserved":false,"is_disabled":false,"rental_uris":{"android":"levelo://app?vid=6a78926c-7c24-4114-b69b-79fe85c63250","ios":"levelo://app?vid=6a78926c-7c24-4114-b69b-79fe85c63250"},"vehicle_type_id":"4","last_reported":1726690190,"current_range_meters":32800,"station_id":"ce4bh012rcd13ifvqcv0","pricing_plan_id":"cebpf4jnsgd1na2vs0mg"},{"bike_id":"df24e1d2-544f-4464-95b7-c195713bbc3a","system_id":"levelo_inurba_marseille","lat":43.28434,"lon":5.39199,"is_reserved":false,"is_disabled":false,"rental_uris":{"android":"levelo://app?vid=df24e1d2-544f-4464-95b7-c195713bbc3a","ios":"levelo://app?vid=df24e1d2-544f-4464-95b7-c195713bbc3a"},"vehicle_type_id":"4","last_reported":1726690190,"current_range_meters":18800,"station_id":"ce4bhoh2rcd13ifvqh5g","pricing_plan_id":"cebpf4jnsgd1na2vs0mg"},{"bike_id":"e21ea265-c698-40df-8912-9e36c742f349","system_id":"levelo_inurba_marseille","lat":43.30086,"lon":5.390813,"is_reserved":false,"is_disabled":false,"rental_uris":{"android":"levelo://app?vid=e21ea265-c698-40df-8912-9e36c742f349","ios":"levelo://app?vid=e21ea265-c698-40df-8912-9e36c742f349"},"vehicle_type_id":"4","last_reported":1726690190,"current_range_meters":17200,"station_id":"ce4bgi12rcd13ifvqb70","pricing_plan_id":"cebpf4jnsgd1na2vs0mg"},{"bike_id":"69399783-5eae-4af9-ae4b-1495b2d249b1","system_id":"levelo_inurba_marseille","lat":43.24166,"lon":5.36395,"is_reserved":false,"is_disabled":false,"rental_uris":{"android":"levelo://app?vid=69399783-5eae-4af9-ae4b-1495b2d249b1","ios":"levelo://app?vid=69399783-5eae-4af9-ae4b-1495b2d249b1"},"vehicle_type_id":"4","last_reported":1726690190,"current_range_meters":36800,"station_id":"cpo36qri1sfpv3e86is0","pricing_plan_id":"cebpf4jnsgd1na2vs0mg"},{"bike_id":"a748aa19-aa0a-4511-ba33-7fe7309322d3","system_id":"levelo_inurba_marseille","lat":43.28938,"lon":5.36635,"is_reserved":false,"is_disabled":false,"rental_uris":{"android":"levelo://app?vid=a748aa19-aa0a-4511-ba33-7fe7309322d3","ios":"levelo://app?vid=a748aa19-aa0a-4511-ba33-7fe7309322d3"},"vehicle_type_id":"4","last_reported":1726690190,"current_range_meters":37600,"station_id":"ce4bhap2rcd13ifvqek0","pricing_plan_id":"cebpf4jnsgd1na2vs0mg"},{"bike_id":"d06834b6-14ec-477c-92f7-a04b5630a0da","system_id":"levelo_inurba_marseille","lat":43.26547,"lon":5.37293,"is_reserved":false,"is_disabled":false,"rental_uris":{"android":"levelo://app?vid=d06834b6-14ec-477c-92f7-a04b5630a0da","ios":"levelo://app?vid=d06834b6-14ec-477c-92f7-a04b5630a0da"},"vehicle_type_id":"4","last_reported":1726690190,"current_range_meters":8800,"station_id":"ce4bhg12rcd13ifvqf70","pricing_plan_id":"cebpf4jnsgd1na2vs0mg"},{"bike_id":"2a02a26f-7ad3-47bb-a66f-dad3d347c4c9","system_id":"levelo_inurba_marseille","lat":43.25104,"lon":5.40328,"is_reserved":false,"is_disabled":false,"rental_uris":{"android":"levelo://app?vid=2a02a26f-7ad3-47bb-a66f-dad3d347c4c9","ios":"levelo://app?vid=2a02a26f-7ad3-47bb-a66f-dad3d347c4c9"},"vehicle_type_id":"4","last_reported":1726690190,"current_range_meters":17600,"station_id":"ce4bhlh2rcd13ifvqgig","pricing_plan_id":"cebpf4jnsgd1na2vs0mg"},{"bike_id":"6228b1a7-edf5-4578-8675-6da3a2ed3f0e","system_id":"levelo_inurba_marseille","lat":43.29042,"lon":5.3592,"is_reserved":false,"is_disabled":false,"rental_uris":{"android":"levelo://app?vid=6228b1a7-edf5-4578-8675-6da3a2ed3f0e","ios":"levelo://app?vid=6228b1a7-edf5-4578-8675-6da3a2ed3f0e"},"vehicle_type_id":"4","last_reported":1726690190,"current_range_meters":19600,"station_id":"ce4bha92rcd13ifvqeg0","pricing_plan_id":"cebpf4jnsgd1na2vs0mg"},{"bike_id":"955951c0-82ad-457e-818d-1db9706d249f","system_id":"levelo_inurba_marseille","lat":43.28457,"lon":5.35886,"is_reserved":false,"is_disabled":false,"rental_uris":{"android":"levelo://app?vid=955951c0-82ad-457e-818d-1db9706d249f","ios":"levelo://app?vid=955951c0-82ad-457e-818d-1db9706d249f"},"vehicle_type_id":"4","last_reported":1726690190,"current_range_meters":4400,"station_id":"ce4bhah2rcd13ifvqei0","pricing_plan_id":"cebpf4jnsgd1na2vs0mg"},{"bike_id":"58014cc6-4f39-4119-a8a0-cdc0e2507820","system_id":"levelo_inurba_marseille","lat":43.32291,"lon":5.38267,"is_reserved":false,"is_disabled":false,"rental_uris":{"android":"levelo://app?vid=58014cc6-4f39-4119-a8a0-cdc0e2507820","ios":"levelo://app?vid=58014cc6-4f39-4119-a8a0-cdc0e2507820"},"vehicle_type_id":"4","last_reported":1726690190,"current_range_meters":40000,"station_id":"ce4bhr12rcd13ifvqhqg","pricing_plan_id":"cebpf4jnsgd1na2vs0mg"},{"bike_id":"b168231b-2f3d-4b28-bd24-348b4b373070","system_id":"levelo_inurba_marseille","lat":43.31333,"lon":5.39698,"is_reserved":false,"is_disabled":false,"rental_uris":{"android":"levelo://app?vid=b168231b-2f3d-4b28-bd24-348b4b373070","ios":"levelo://app?vid=b168231b-2f3d-4b28-bd24-348b4b373070"},"vehicle_type_id":"4","last_reported":1726690190,"current_range_meters":38800,"station_id":"ce4bgvp2rcd13ifvqcu0","pricing_plan_id":"cebpf4jnsgd1na2vs0mg"},{"bike_id":"67101e27-2fdd-4e84-bdf7-495c619879ab","system_id":"levelo_inurba_marseille","lat":43.31995,"lon":5.38144,"is_reserved":false,"is_disabled":false,"rental_uris":{"android":"levelo://app?vid=67101e27-2fdd-4e84-bdf7-495c619879ab","ios":"levelo://app?vid=67101e27-2fdd-4e84-bdf7-495c619879ab"},"vehicle_type_id":"4","last_reported":1726690190,"current_range_meters":12400,"station_id":"ce4bhr12rcd13ifvqhpg","pricing_plan_id":"cebpf4jnsgd1na2vs0mg"},{"bike_id":"13ee2a72-83d4-4ef5-8ab9-b048ac85604d","system_id":"levelo_inurba_marseille","lat":43.28449,"lon":5.35888,"is_reserved":false,"is_disabled":false,"rental_uris":{"android":"levelo://app?vid=13ee2a72-83d4-4ef5-8ab9-b048ac85604d","ios":"levelo://app?vid=13ee2a72-83d4-4ef5-8ab9-b048ac85604d"},"vehicle_type_id":"4","last_reported":1726690190,"current_range_meters":38800,"station_id":"ce4bhah2rcd13ifvqei0","pricing_plan_id":"cebpf4jnsgd1na2vs0mg"},{"bike_id":"9de036c4-decb-465b-a775-32e663a8924f","system_id":"levelo_inurba_marseille","lat":43.33023,"lon":5.39036,"is_reserved":false,"is_disabled":false,"rental_uris":{"android":"levelo://app?vid=9de036c4-decb-465b-a775-32e663a8924f","ios":"levelo://app?vid=9de036c4-decb-465b-a775-32e663a8924f"},"vehicle_type_id":"4","last_reported":1726690190,"current_range_meters":32400,"station_id":"ce4bhr92rcd13ifvqhrg","pricing_plan_id":"cebpf4jnsgd1na2vs0mg"},{"bike_id":"00c89807-b118-4bf3-9f06-d79e69ea4ff6","system_id":"levelo_inurba_marseille","lat":43.318824,"lon":5.407391,"is_reserved":false,"is_disabled":false,"rental_uris":{"android":"levelo://app?vid=00c89807-b118-4bf3-9f06-d79e69ea4ff6","ios":"levelo://app?vid=00c89807-b118-4bf3-9f06-d79e69ea4ff6"},"vehicle_type_id":"4","last_reported":1726690190,"current_range_meters":6800,"station_id":"ce4bhq12rcd13ifvqhig","pricing_plan_id":"cebpf4jnsgd1na2vs0mg"},{"bike_id":"3eda4607-df67-4e07-b923-8887faadc06b","system_id":"levelo_inurba_marseille","lat":43.30898,"lon":5.37198,"is_reserved":false,"is_disabled":false,"rental_uris":{"android":"levelo://app?vid=3eda4607-df67-4e07-b923-8887faadc06b","ios":"levelo://app?vid=3eda4607-df67-4e07-b923-8887faadc06b"},"vehicle_type_id":"4","last_reported":1726690190,"current_range_meters":38800,"station_id":"ce4bguh2rcd13ifvqckg","pricing_plan_id":"cebpf4jnsgd1na2vs0mg"},{"bike_id":"17988050-fa09-4bf2-a553-de1e02c3549c","system_id":"levelo_inurba_marseille","lat":43.29881,"lon":5.39736,"is_reserved":false,"is_disabled":false,"rental_uris":{"android":"levelo://app?vid=17988050-fa09-4bf2-a553-de1e02c3549c","ios":"levelo://app?vid=17988050-fa09-4bf2-a553-de1e02c3549c"},"vehicle_type_id":"4","last_reported":1726690190,"current_range_meters":39200,"station_id":"ce4bh0h2rcd13ifvqd50","pricing_plan_id":"cebpf4jnsgd1na2vs0mg"},{"bike_id":"0c95fa43-48bf-4681-83d7-aad86c7517d9","system_id":"levelo_inurba_marseille","lat":43.28265,"lon":5.35072,"is_reserved":false,"is_disabled":false,"rental_uris":{"android":"levelo://app?vid=0c95fa43-48bf-4681-83d7-aad86c7517d9","ios":"levelo://app?vid=0c95fa43-48bf-4681-83d7-aad86c7517d9"},"vehicle_type_id":"4","last_reported":1726690190,"current_range_meters":39200,"station_id":"ce4bhbp2rcd13ifvqerg","pricing_plan_id":"cebpf4jnsgd1na2vs0mg"},{"bike_id":"6bb0db76-0aa7-4a13-ba92-3f924be251b8","system_id":"levelo_inurba_marseille","lat":43.28711,"lon":5.39993,"is_reserved":false,"is_disabled":false,"rental_uris":{"android":"levelo://app?vid=6bb0db76-0aa7-4a13-ba92-3f924be251b8","ios":"levelo://app?vid=6bb0db76-0aa7-4a13-ba92-3f924be251b8"},"vehicle_type_id":"4","last_reported":1726690190,"current_range_meters":36400,"station_id":"ce4bho92rcd13ifvqh3g","pricing_plan_id":"cebpf4jnsgd1na2vs0mg"},{"bike_id":"55256b03-7844-4d77-9601-6f7e880a9bdc","system_id":"levelo_inurba_marseille","lat":43.28369,"lon":5.38629,"is_reserved":false,"is_disabled":false,"rental_uris":{"android":"levelo://app?vid=55256b03-7844-4d77-9601-6f7e880a9bdc","ios":"levelo://app?vid=55256b03-7844-4d77-9601-6f7e880a9bdc"},"vehicle_type_id":"4","last_reported":1726690190,"current_range_meters":17200,"station_id":"ce4bh492rcd13ifvqdvg","pricing_plan_id":"cebpf4jnsgd1na2vs0mg"},{"bike_id":"54643dfd-5f69-4c30-a0a4-468b91710d67","system_id":"levelo_inurba_marseille","lat":43.27317,"lon":5.39085,"is_reserved":false,"is_disabled":false,"rental_uris":{"android":"levelo://app?vid=54643dfd-5f69-4c30-a0a4-468b91710d67","ios":"levelo://app?vid=54643dfd-5f69-4c30-a0a4-468b91710d67"},"vehicle_type_id":"4","last_reported":1726690190,"current_range_meters":8000,"station_id":"ce4bhgp2rcd13ifvqfe0","pricing_plan_id":"cebpf4jnsgd1na2vs0mg"},{"bike_id":"4f828f1e-4ae3-474b-a364-fdd6760ad0a3","system_id":"levelo_inurba_marseille","lat":43.29266,"lon":5.38441,"is_reserved":false,"is_disabled":false,"rental_uris":{"android":"levelo://app?vid=4f828f1e-4ae3-474b-a364-fdd6760ad0a3","ios":"levelo://app?vid=4f828f1e-4ae3-474b-a364-fdd6760ad0a3"},"vehicle_type_id":"4","last_reported":1726690190,"current_range_meters":35200,"station_id":"ce4bh692rcd13ifvqea0","pricing_plan_id":"cebpf4jnsgd1na2vs0mg"},{"bike_id":"6e00666a-f02f-4580-a990-0531883c2cb7","system_id":"levelo_inurba_marseille","lat":43.298962,"lon":5.4367,"is_reserved":false,"is_disabled":false,"rental_uris":{"android":"levelo://app?vid=6e00666a-f02f-4580-a990-0531883c2cb7","ios":"levelo://app?vid=6e00666a-f02f-4580-a990-0531883c2cb7"},"vehicle_type_id":"4","last_reported":1726690190,"current_range_meters":38800,"station_id":"ce4bhpp2rcd13ifvqhfg","pricing_plan_id":"cebpf4jnsgd1na2vs0mg"},{"bike_id":"7d54046c-3cf1-4344-8137-17101feedbd5","system_id":"levelo_inurba_marseille","lat":43.32289,"lon":5.38282,"is_reserved":false,"is_disabled":false,"rental_uris":{"android":"levelo://app?vid=7d54046c-3cf1-4344-8137-17101feedbd5","ios":"levelo://app?vid=7d54046c-3cf1-4344-8137-17101feedbd5"},"vehicle_type_id":"4","last_reported":1726690190,"current_range_meters":38800,"station_id":"ce4bhr12rcd13ifvqhqg","pricing_plan_id":"cebpf4jnsgd1na2vs0mg"},{"bike_id":"b1959830-410a-463f-b79b-29c07a860a4b","system_id":"levelo_inurba_marseille","lat":43.30414,"lon":5.3975,"is_reserved":false,"is_disabled":false,"rental_uris":{"android":"levelo://app?vid=b1959830-410a-463f-b79b-29c07a860a4b","ios":"levelo://app?vid=b1959830-410a-463f-b79b-29c07a860a4b"},"vehicle_type_id":"4","last_reported":1726690190,"current_range_meters":28400,"station_id":"ce4bh092rcd13ifvqd20","pricing_plan_id":"cebpf4jnsgd1na2vs0mg"},{"bike_id":"2828bd69-0c75-4d81-b85e-7e7dee15c6fc","system_id":"levelo_inurba_marseille","lat":43.29416,"lon":5.3862,"is_reserved":false,"is_disabled":false,"rental_uris":{"android":"levelo://app?vid=2828bd69-0c75-4d81-b85e-7e7dee15c6fc","ios":"levelo://app?vid=2828bd69-0c75-4d81-b85e-7e7dee15c6fc"},"vehicle_type_id":"4","last_reported":1726690190,"current_range_meters":8000,"station_id":"ce4bh2h2rcd13ifvqdh0","pricing_plan_id":"cebpf4jnsgd1na2vs0mg"},{"bike_id":"fa2e946d-01fe-4bb4-a2b0-55af60a0bcec","system_id":"levelo_inurba_marseille","lat":43.3372,"lon":5.39187,"is_reserved":false,"is_disabled":false,"rental_uris":{"android":"levelo://app?vid=fa2e946d-01fe-4bb4-a2b0-55af60a0bcec","ios":"levelo://app?vid=fa2e946d-01fe-4bb4-a2b0-55af60a0bcec"},"vehicle_type_id":"4","last_reported":1726690190,"current_range_meters":38800,"station_id":"ce4bhr92rcd13ifvqhsg","pricing_plan_id":"cebpf4jnsgd1na2vs0mg"},{"bike_id":"3884d8c9-8196-43c1-8e1b-85179e85dab7","system_id":"levelo_inurba_marseille","lat":43.25864,"lon":5.39899,"is_reserved":false,"is_disabled":false,"rental_uris":{"android":"levelo://app?vid=3884d8c9-8196-43c1-8e1b-85179e85dab7","ios":"levelo://app?vid=3884d8c9-8196-43c1-8e1b-85179e85dab7"},"vehicle_type_id":"4","last_reported":1726690190,"current_range_meters":30000,"station_id":"ce4bhl92rcd13ifvqghg","pricing_plan_id":"cebpf4jnsgd1na2vs0mg"},{"bike_id":"c33e380e-e482-4047-874e-f3c84705d066","system_id":"levelo_inurba_marseille","lat":43.28704,"lon":5.37389,"is_reserved":false,"is_disabled":false,"rental_uris":{"android":"levelo://app?vid=c33e380e-e482-4047-874e-f3c84705d066","ios":"levelo://app?vid=c33e380e-e482-4047-874e-f3c84705d066"},"vehicle_type_id":"4","last_reported":1726690190,"current_range_meters":40000,"station_id":"ce4bh3p2rcd13ifvqdq0","pricing_plan_id":"cebpf4jnsgd1na2vs0mg"},{"bike_id":"0dd50930-fcc4-4373-9ec1-9e1e8b5e9aac","system_id":"levelo_inurba_marseille","lat":43.254883,"lon":5.376485,"is_reserved":false,"is_disabled":false,"rental_uris":{"android":"levelo://app?vid=0dd50930-fcc4-4373-9ec1-9e1e8b5e9aac","ios":"levelo://app?vid=0dd50930-fcc4-4373-9ec1-9e1e8b5e9aac"},"vehicle_type_id":"4","last_reported":1726690190,"current_range_meters":34800,"station_id":"ce4bhh12rcd13ifvqff0","pricing_plan_id":"cebpf4jnsgd1na2vs0mg"},{"bike_id":"6649cb01-e002-43e5-9929-37eaf0d58301","system_id":"levelo_inurba_marseille","lat":43.31165,"lon":5.38729,"is_reserved":false,"is_disabled":false,"rental_uris":{"android":"levelo://app?vid=6649cb01-e002-43e5-9929-37eaf0d58301","ios":"levelo://app?vid=6649cb01-e002-43e5-9929-37eaf0d58301"},"vehicle_type_id":"4","last_reported":1726690190,"current_range_meters":24000,"station_id":"ce4bgv12rcd13ifvqcp0","pricing_plan_id":"cebpf4jnsgd1na2vs0mg"},{"bike_id":"f84c07cb-ff23-4dd7-9634-7c6d17498a94","system_id":"levelo_inurba_marseille","lat":43.28866,"lon":5.35833,"is_reserved":false,"is_disabled":false,"rental_uris":{"android":"levelo://app?vid=f84c07cb-ff23-4dd7-9634-7c6d17498a94","ios":"levelo://app?vid=f84c07cb-ff23-4dd7-9634-7c6d17498a94"},"vehicle_type_id":"4","last_reported":1726690190,"current_range_meters":4400,"station_id":"ce4bhb12rcd13ifvqem0","pricing_plan_id":"cebpf4jnsgd1na2vs0mg"},{"bike_id":"61c10cfa-2038-4d33-87a0-e7ba444d48b6","system_id":"levelo_inurba_marseille","lat":43.30124,"lon":5.38794,"is_reserved":false,"is_disabled":false,"rental_uris":{"android":"levelo://app?vid=61c10cfa-2038-4d33-87a0-e7ba444d48b6","ios":"levelo://app?vid=61c10cfa-2038-4d33-87a0-e7ba444d48b6"},"vehicle_type_id":"4","last_reported":1726690190,"current_range_meters":20400,"station_id":"ce4bghh2rcd13ifvqb60","pricing_plan_id":"cebpf4jnsgd1na2vs0mg"},{"bike_id":"328d45f9-980e-4811-97c0-47d761861509","system_id":"levelo_inurba_marseille","lat":43.29847,"lon":5.37836,"is_reserved":false,"is_disabled":false,"rental_uris":{"android":"levelo://app?vid=328d45f9-980e-4811-97c0-47d761861509","ios":"levelo://app?vid=328d45f9-980e-4811-97c0-47d761861509"},"vehicle_type_id":"4","last_reported":1726690190,"current_range_meters":9600,"station_id":"ce4bgkh2rcd13ifvqbl0","pricing_plan_id":"cebpf4jnsgd1na2vs0mg"},{"bike_id":"0068267d-5c7b-4440-874d-1ae7ea9928d5","system_id":"levelo_inurba_marseille","lat":43.30432,"lon":5.38899,"is_reserved":false,"is_disabled":false,"rental_uris":{"android":"levelo://app?vid=0068267d-5c7b-4440-874d-1ae7ea9928d5","ios":"levelo://app?vid=0068267d-5c7b-4440-874d-1ae7ea9928d5"},"vehicle_type_id":"4","last_reported":1726690190,"current_range_meters":10000,"station_id":"ce4bgk12rcd13ifvqbi0","pricing_plan_id":"cebpf4jnsgd1na2vs0mg"},{"bike_id":"5621425a-c21e-4811-9342-002c998a1bde","system_id":"levelo_inurba_marseille","lat":43.2871,"lon":5.37939,"is_reserved":false,"is_disabled":false,"rental_uris":{"android":"levelo://app?vid=5621425a-c21e-4811-9342-002c998a1bde","ios":"levelo://app?vid=5621425a-c21e-4811-9342-002c998a1bde"},"vehicle_type_id":"4","last_reported":1726690190,"current_range_meters":37600,"station_id":"ce4bh9p2rcd13ifvqec0","pricing_plan_id":"cebpf4jnsgd1na2vs0mg"},{"bike_id":"70d6316d-15d8-443b-9f41-9417530b2115","system_id":"levelo_inurba_marseille","lat":43.2799,"lon":5.41655,"is_reserved":false,"is_disabled":false,"rental_uris":{"android":"levelo://app?vid=70d6316d-15d8-443b-9f41-9417530b2115","ios":"levelo://app?vid=70d6316d-15d8-443b-9f41-9417530b2115"},"vehicle_type_id":"4","last_reported":1726690190,"current_range_meters":3600,"station_id":"ce4bho12rcd13ifvqh1g","pricing_plan_id":"cebpf4jnsgd1na2vs0mg"},{"bike_id":"fa690805-233a-4a70-a9f3-33f1b67cdb1f","system_id":"levelo_inurba_marseille","lat":43.32284,"lon":5.38263,"is_reserved":false,"is_disabled":false,"rental_uris":{"android":"levelo://app?vid=fa690805-233a-4a70-a9f3-33f1b67cdb1f","ios":"levelo://app?vid=fa690805-233a-4a70-a9f3-33f1b67cdb1f"},"vehicle_type_id":"4","last_reported":1726690190,"current_range_meters":26800,"station_id":"ce4bhr12rcd13ifvqhqg","pricing_plan_id":"cebpf4jnsgd1na2vs0mg"},{"bike_id":"cbe1f610-9ee1-4b04-a8cd-7f6ae05b413e","system_id":"levelo_inurba_marseille","lat":43.29253,"lon":5.38441,"is_reserved":false,"is_disabled":false,"rental_uris":{"android":"levelo://app?vid=cbe1f610-9ee1-4b04-a8cd-7f6ae05b413e","ios":"levelo://app?vid=cbe1f610-9ee1-4b04-a8cd-7f6ae05b413e"},"vehicle_type_id":"4","last_reported":1726690190,"current_range_meters":38800,"station_id":"ce4bh692rcd13ifvqea0","pricing_plan_id":"cebpf4jnsgd1na2vs0mg"},{"bike_id":"8b608b96-fedf-4511-8d4b-09bad2606e1a","system_id":"levelo_inurba_marseille","lat":43.27733,"lon":5.4114,"is_reserved":false,"is_disabled":false,"rental_uris":{"android":"levelo://app?vid=8b608b96-fedf-4511-8d4b-09bad2606e1a","ios":"levelo://app?vid=8b608b96-fedf-4511-8d4b-09bad2606e1a"},"vehicle_type_id":"4","last_reported":1726690190,"current_range_meters":3600,"station_id":"","pricing_plan_id":"cebpf4jnsgd1na2vs0mg"},{"bike_id":"488fd8b1-2ba6-41ed-8221-4f217f0d787e","system_id":"levelo_inurba_marseille","lat":43.294193,"lon":5.386306,"is_reserved":false,"is_disabled":false,"rental_uris":{"android":"levelo://app?vid=488fd8b1-2ba6-41ed-8221-4f217f0d787e","ios":"levelo://app?vid=488fd8b1-2ba6-41ed-8221-4f217f0d787e"},"vehicle_type_id":"4","last_reported":1726690190,"current_range_meters":33200,"station_id":"ce4bh2h2rcd13ifvqdh0","pricing_plan_id":"cebpf4jnsgd1na2vs0mg"},{"bike_id":"05e97dc7-b2d3-4eeb-a72a-064534cf4f39","system_id":"levelo_inurba_marseille","lat":43.24069,"lon":5.37766,"is_reserved":false,"is_disabled":false,"rental_uris":{"android":"levelo://app?vid=05e97dc7-b2d3-4eeb-a72a-064534cf4f39","ios":"levelo://app?vid=05e97dc7-b2d3-4eeb-a72a-064534cf4f39"},"vehicle_type_id":"4","last_reported":1726690190,"current_range_meters":38400,"station_id":"ce4bhnp2rcd13ifvqgvg","pricing_plan_id":"cebpf4jnsgd1na2vs0mg"},{"bike_id":"199f033e-b42f-4bee-b7c0-47c1de8e1506","system_id":"levelo_inurba_marseille","lat":43.302572,"lon":5.400812,"is_reserved":false,"is_disabled":false,"rental_uris":{"android":"levelo://app?vid=199f033e-b42f-4bee-b7c0-47c1de8e1506","ios":"levelo://app?vid=199f033e-b42f-4bee-b7c0-47c1de8e1506"},"vehicle_type_id":"4","last_reported":1726690190,"current_range_meters":38800,"station_id":"ce4bgvh2rcd13ifvqcs0","pricing_plan_id":"cebpf4jnsgd1na2vs0mg"},{"bike_id":"400f66ab-adf6-45ca-8d59-aa838db7bdf4","system_id":"levelo_inurba_marseille","lat":43.29899,"lon":5.38904,"is_reserved":false,"is_disabled":false,"rental_uris":{"android":"levelo://app?vid=400f66ab-adf6-45ca-8d59-aa838db7bdf4","ios":"levelo://app?vid=400f66ab-adf6-45ca-8d59-aa838db7bdf4"},"vehicle_type_id":"4","last_reported":1726690190,"current_range_meters":26000,"station_id":"ce4bh392rcd13ifvqdl0","pricing_plan_id":"cebpf4jnsgd1na2vs0mg"},{"bike_id":"5a5670bf-02f2-409e-91a1-66a418fef6b7","system_id":"levelo_inurba_marseille","lat":43.27898,"lon":5.38009,"is_reserved":false,"is_disabled":false,"rental_uris":{"android":"levelo://app?vid=5a5670bf-02f2-409e-91a1-66a418fef6b7","ios":"levelo://app?vid=5a5670bf-02f2-409e-91a1-66a418fef6b7"},"vehicle_type_id":"4","last_reported":1726690190,"current_range_meters":27600,"station_id":"ce4bhf92rcd13ifvqf50","pricing_plan_id":"cebpf4jnsgd1na2vs0mg"},{"bike_id":"b2763354-ec6c-4733-8de6-6c4493759ae9","system_id":"levelo_inurba_marseille","lat":43.29089,"lon":5.40204,"is_reserved":false,"is_disabled":false,"rental_uris":{"android":"levelo://app?vid=b2763354-ec6c-4733-8de6-6c4493759ae9","ios":"levelo://app?vid=b2763354-ec6c-4733-8de6-6c4493759ae9"},"vehicle_type_id":"4","last_reported":1726690190,"current_range_meters":30400,"station_id":"","pricing_plan_id":"cebpf4jnsgd1na2vs0mg"},{"bike_id":"393aba91-d33e-4182-9a1e-a7e4512eddbe","system_id":"levelo_inurba_marseille","lat":43.32364,"lon":5.38884,"is_reserved":false,"is_disabled":false,"rental_uris":{"android":"levelo://app?vid=393aba91-d33e-4182-9a1e-a7e4512eddbe","ios":"levelo://app?vid=393aba91-d33e-4182-9a1e-a7e4512eddbe"},"vehicle_type_id":"4","last_reported":1726690190,"current_range_meters":38800,"station_id":"ce4bhqp2rcd13ifvqhog","pricing_plan_id":"cebpf4jnsgd1na2vs0mg"},{"bike_id":"e95562f2-ea41-48ff-b212-746c44bde19d","system_id":"levelo_inurba_marseille","lat":43.29267,"lon":5.38444,"is_reserved":false,"is_disabled":false,"rental_uris":{"android":"levelo://app?vid=e95562f2-ea41-48ff-b212-746c44bde19d","ios":"levelo://app?vid=e95562f2-ea41-48ff-b212-746c44bde19d"},"vehicle_type_id":"4","last_reported":1726690190,"current_range_meters":38800,"station_id":"ce4bh692rcd13ifvqea0","pricing_plan_id":"cebpf4jnsgd1na2vs0mg"},{"bike_id":"a2e4bcbf-e3f1-4b09-9ec2-6bd2b8536fc7","system_id":"levelo_inurba_marseille","lat":43.29881,"lon":5.38919,"is_reserved":false,"is_disabled":false,"rental_uris":{"android":"levelo://app?vid=a2e4bcbf-e3f1-4b09-9ec2-6bd2b8536fc7","ios":"levelo://app?vid=a2e4bcbf-e3f1-4b09-9ec2-6bd2b8536fc7"},"vehicle_type_id":"4","last_reported":1726690190,"current_range_meters":38800,"station_id":"ce4bh392rcd13ifvqdl0","pricing_plan_id":"cebpf4jnsgd1na2vs0mg"},{"bike_id":"0233f0af-35d2-47b6-b2fc-15e59b18717b","system_id":"levelo_inurba_marseille","lat":43.23058,"lon":5.3549,"is_reserved":false,"is_disabled":false,"rental_uris":{"android":"levelo://app?vid=0233f0af-35d2-47b6-b2fc-15e59b18717b","ios":"levelo://app?vid=0233f0af-35d2-47b6-b2fc-15e59b18717b"},"vehicle_type_id":"4","last_reported":1726690190,"current_range_meters":20800,"station_id":"cpo3342slgdg3j2ifvpg","pricing_plan_id":"cebpf4jnsgd1na2vs0mg"},{"bike_id":"31d5e271-0f86-46ad-b6a8-92a47ed9db25","system_id":"levelo_inurba_marseille","lat":43.298792,"lon":5.389105,"is_reserved":false,"is_disabled":false,"rental_uris":{"android":"levelo://app?vid=31d5e271-0f86-46ad-b6a8-92a47ed9db25","ios":"levelo://app?vid=31d5e271-0f86-46ad-b6a8-92a47ed9db25"},"vehicle_type_id":"4","last_reported":1726690190,"current_range_meters":21600,"station_id":"ce4bh392rcd13ifvqdl0","pricing_plan_id":"cebpf4jnsgd1na2vs0mg"},{"bike_id":"1be052d1-ff94-4095-aab0-4664d445c421","system_id":"levelo_inurba_marseille","lat":43.25089,"lon":5.39526,"is_reserved":false,"is_disabled":false,"rental_uris":{"android":"levelo://app?vid=1be052d1-ff94-4095-aab0-4664d445c421","ios":"levelo://app?vid=1be052d1-ff94-4095-aab0-4664d445c421"},"vehicle_type_id":"4","last_reported":1726690190,"current_range_meters":12400,"station_id":"ce4bhm12rcd13ifvqgkg","pricing_plan_id":"cebpf4jnsgd1na2vs0mg"},{"bike_id":"28cc4f42-0c59-4c04-b868-2d61f35ef940","system_id":"levelo_inurba_marseille","lat":43.29532,"lon":5.38547,"is_reserved":false,"is_disabled":false,"rental_uris":{"android":"levelo://app?vid=28cc4f42-0c59-4c04-b868-2d61f35ef940","ios":"levelo://app?vid=28cc4f42-0c59-4c04-b868-2d61f35ef940"},"vehicle_type_id":"4","last_reported":1726690190,"current_range_meters":38800,"station_id":"ce4bgih2rcd13ifvqba0","pricing_plan_id":"cebpf4jnsgd1na2vs0mg"},{"bike_id":"2b47050c-74af-4f78-bfda-b264705afceb","system_id":"levelo_inurba_marseille","lat":43.22931,"lon":5.35379,"is_reserved":false,"is_disabled":false,"rental_uris":{"android":"levelo://app?vid=2b47050c-74af-4f78-bfda-b264705afceb","ios":"levelo://app?vid=2b47050c-74af-4f78-bfda-b264705afceb"},"vehicle_type_id":"4","last_reported":1726690190,"current_range_meters":32000,"station_id":"cpo3532slgdg3j2ikp40","pricing_plan_id":"cebpf4jnsgd1na2vs0mg"},{"bike_id":"869928a8-fab7-4125-917c-a0216dd6bac5","system_id":"levelo_inurba_marseille","lat":43.30634,"lon":5.40087,"is_reserved":false,"is_disabled":false,"rental_uris":{"android":"levelo://app?vid=869928a8-fab7-4125-917c-a0216dd6bac5","ios":"levelo://app?vid=869928a8-fab7-4125-917c-a0216dd6bac5"},"vehicle_type_id":"4","last_reported":1726690190,"current_range_meters":34800,"station_id":"ce4bh112rcd13ifvqda0","pricing_plan_id":"cebpf4jnsgd1na2vs0mg"},{"bike_id":"e41512a5-fc1e-4b06-82e1-fd61533bebd1","system_id":"levelo_inurba_marseille","lat":43.2846,"lon":5.35892,"is_reserved":false,"is_disabled":false,"rental_uris":{"android":"levelo://app?vid=e41512a5-fc1e-4b06-82e1-fd61533bebd1","ios":"levelo://app?vid=e41512a5-fc1e-4b06-82e1-fd61533bebd1"},"vehicle_type_id":"4","last_reported":1726690190,"current_range_meters":6400,"station_id":"ce4bhah2rcd13ifvqei0","pricing_plan_id":"cebpf4jnsgd1na2vs0mg"},{"bike_id":"552c0e13-8093-42ac-8d0d-78b12d4d4012","system_id":"levelo_inurba_marseille","lat":43.28346,"lon":5.38097,"is_reserved":false,"is_disabled":false,"rental_uris":{"android":"levelo://app?vid=552c0e13-8093-42ac-8d0d-78b12d4d4012","ios":"levelo://app?vid=552c0e13-8093-42ac-8d0d-78b12d4d4012"},"vehicle_type_id":"4","last_reported":1726690190,"current_range_meters":14800,"station_id":"ce4bh412rcd13ifvqdr0","pricing_plan_id":"cebpf4jnsgd1na2vs0mg"},{"bike_id":"69e590dd-833b-4543-9057-ad6cd95b18bd","system_id":"levelo_inurba_marseille","lat":43.269226,"lon":5.389271,"is_reserved":false,"is_disabled":false,"rental_uris":{"android":"levelo://app?vid=69e590dd-833b-4543-9057-ad6cd95b18bd","ios":"levelo://app?vid=69e590dd-833b-4543-9057-ad6cd95b18bd"},"vehicle_type_id":"4","last_reported":1726690190,"current_range_meters":31200,"station_id":"ce4bhq12rcd13ifvqhig","pricing_plan_id":"cebpf4jnsgd1na2vs0mg"},{"bike_id":"e2421df7-1c7d-4e98-96e2-c048573d19af","system_id":"levelo_inurba_marseille","lat":43.29793,"lon":5.3935,"is_reserved":false,"is_disabled":false,"rental_uris":{"android":"levelo://app?vid=e2421df7-1c7d-4e98-96e2-c048573d19af","ios":"levelo://app?vid=e2421df7-1c7d-4e98-96e2-c048573d19af"},"vehicle_type_id":"4","last_reported":1726690190,"current_range_meters":32000,"station_id":"chh1huq6cuj3fo74tm60","pricing_plan_id":"cebpf4jnsgd1na2vs0mg"},{"bike_id":"e15a3f5b-ae80-4c2b-a3c6-acaceeeece59","system_id":"levelo_inurba_marseille","lat":43.26942,"lon":5.40252,"is_reserved":false,"is_disabled":false,"rental_uris":{"android":"levelo://app?vid=e15a3f5b-ae80-4c2b-a3c6-acaceeeece59","ios":"levelo://app?vid=e15a3f5b-ae80-4c2b-a3c6-acaceeeece59"},"vehicle_type_id":"4","last_reported":1726690190,"current_range_meters":13600,"station_id":"cjm6bp8fraef2m0cb0m0","pricing_plan_id":"cebpf4jnsgd1na2vs0mg"},{"bike_id":"b4640925-4aaf-4090-95b1-62963d29dde6","system_id":"levelo_inurba_marseille","lat":43.28699,"lon":5.37393,"is_reserved":false,"is_disabled":false,"rental_uris":{"android":"levelo://app?vid=b4640925-4aaf-4090-95b1-62963d29dde6","ios":"levelo://app?vid=b4640925-4aaf-4090-95b1-62963d29dde6"},"vehicle_type_id":"4","last_reported":1726690190,"current_range_meters":30400,"station_id":"ce4bh3p2rcd13ifvqdq0","pricing_plan_id":"cebpf4jnsgd1na2vs0mg"},{"bike_id":"1b7e3651-8a03-4eda-a521-592bd47272c5","system_id":"levelo_inurba_marseille","lat":43.29783,"lon":5.39357,"is_reserved":false,"is_disabled":false,"rental_uris":{"android":"levelo://app?vid=1b7e3651-8a03-4eda-a521-592bd47272c5","ios":"levelo://app?vid=1b7e3651-8a03-4eda-a521-592bd47272c5"},"vehicle_type_id":"4","last_reported":1726690190,"current_range_meters":25600,"station_id":"chh1huq6cuj3fo74tm60","pricing_plan_id":"cebpf4jnsgd1na2vs0mg"},{"bike_id":"e12ef9cd-775f-49fc-9956-ce44453148f3","system_id":"levelo_inurba_marseille","lat":43.30321,"lon":5.40435,"is_reserved":false,"is_disabled":false,"rental_uris":{"android":"levelo://app?vid=e12ef9cd-775f-49fc-9956-ce44453148f3","ios":"levelo://app?vid=e12ef9cd-775f-49fc-9956-ce44453148f3"},"vehicle_type_id":"4","last_reported":1726690190,"current_range_meters":38000,"station_id":"ce4bh012rcd13ifvqd10","pricing_plan_id":"cebpf4jnsgd1na2vs0mg"},{"bike_id":"a0ef5eb5-8b16-4e07-bc6b-76ccbd003aa4","system_id":"levelo_inurba_marseille","lat":43.28456,"lon":5.35892,"is_reserved":false,"is_disabled":false,"rental_uris":{"android":"levelo://app?vid=a0ef5eb5-8b16-4e07-bc6b-76ccbd003aa4","ios":"levelo://app?vid=a0ef5eb5-8b16-4e07-bc6b-76ccbd003aa4"},"vehicle_type_id":"4","last_reported":1726690190,"current_range_meters":38800,"station_id":"ce4bhah2rcd13ifvqei0","pricing_plan_id":"cebpf4jnsgd1na2vs0mg"},{"bike_id":"c2c9a555-6ec8-4b92-b33e-073571605c93","system_id":"levelo_inurba_marseille","lat":43.23194,"lon":5.35551,"is_reserved":false,"is_disabled":false,"rental_uris":{"android":"levelo://app?vid=c2c9a555-6ec8-4b92-b33e-073571605c93","ios":"levelo://app?vid=c2c9a555-6ec8-4b92-b33e-073571605c93"},"vehicle_type_id":"4","last_reported":1726690190,"current_range_meters":36400,"station_id":"ce4bhu92rcd13ifvqi70","pricing_plan_id":"cebpf4jnsgd1na2vs0mg"},{"bike_id":"5a82f295-988a-4376-8039-2b42eaaf0a77","system_id":"levelo_inurba_marseille","lat":43.30882,"lon":5.39652,"is_reserved":false,"is_disabled":false,"rental_uris":{"android":"levelo://app?vid=5a82f295-988a-4376-8039-2b42eaaf0a77","ios":"levelo://app?vid=5a82f295-988a-4376-8039-2b42eaaf0a77"},"vehicle_type_id":"4","last_reported":1726690190,"current_range_meters":24400,"station_id":"ce4bh012rcd13ifvqcv0","pricing_plan_id":"cebpf4jnsgd1na2vs0mg"},{"bike_id":"dfcc6937-ccf4-40b9-bffa-ec9f24f52bd3","system_id":"levelo_inurba_marseille","lat":43.235992,"lon":5.435991,"is_reserved":false,"is_disabled":false,"rental_uris":{"android":"levelo://app?vid=dfcc6937-ccf4-40b9-bffa-ec9f24f52bd3","ios":"levelo://app?vid=dfcc6937-ccf4-40b9-bffa-ec9f24f52bd3"},"vehicle_type_id":"4","last_reported":1726690190,"current_range_meters":14400,"station_id":"","pricing_plan_id":"cebpf4jnsgd1na2vs0mg"},{"bike_id":"a3d6e420-91b4-4a45-ba88-4f136a98dac0","system_id":"levelo_inurba_marseille","lat":43.285736,"lon":5.394979,"is_reserved":false,"is_disabled":false,"rental_uris":{"android":"levelo://app?vid=a3d6e420-91b4-4a45-ba88-4f136a98dac0","ios":"levelo://app?vid=a3d6e420-91b4-4a45-ba88-4f136a98dac0"},"vehicle_type_id":"4","last_reported":1726690190,"current_range_meters":14400,"station_id":"ce4bhbp2rcd13ifvqerg","pricing_plan_id":"cebpf4jnsgd1na2vs0mg"},{"bike_id":"7249f43f-c207-4c6b-8068-6b29ec25d00f","system_id":"levelo_inurba_marseille","lat":43.285065,"lon":5.383805,"is_reserved":false,"is_disabled":false,"rental_uris":{"android":"levelo://app?vid=7249f43f-c207-4c6b-8068-6b29ec25d00f","ios":"levelo://app?vid=7249f43f-c207-4c6b-8068-6b29ec25d00f"},"vehicle_type_id":"4","last_reported":1726690190,"current_range_meters":23200,"station_id":"ce4bh512rcd13ifvqe3g","pricing_plan_id":"cebpf4jnsgd1na2vs0mg"},{"bike_id":"e5ce120e-f189-4882-876a-d185220bcf95","system_id":"levelo_inurba_marseille","lat":43.3302,"lon":5.39049,"is_reserved":false,"is_disabled":false,"rental_uris":{"android":"levelo://app?vid=e5ce120e-f189-4882-876a-d185220bcf95","ios":"levelo://app?vid=e5ce120e-f189-4882-876a-d185220bcf95"},"vehicle_type_id":"4","last_reported":1726690190,"current_range_meters":9200,"station_id":"ce4bhr92rcd13ifvqhrg","pricing_plan_id":"cebpf4jnsgd1na2vs0mg"},{"bike_id":"0a3283f9-1885-4d53-8177-f8e3517fc853","system_id":"levelo_inurba_marseille","lat":43.28914,"lon":5.378,"is_reserved":false,"is_disabled":false,"rental_uris":{"android":"levelo://app?vid=0a3283f9-1885-4d53-8177-f8e3517fc853","ios":"levelo://app?vid=0a3283f9-1885-4d53-8177-f8e3517fc853"},"vehicle_type_id":"4","last_reported":1726690190,"current_range_meters":27600,"station_id":"","pricing_plan_id":"cebpf4jnsgd1na2vs0mg"},{"bike_id":"ccddadf4-3b94-4dd2-8b65-379eb3a02b33","system_id":"levelo_inurba_marseille","lat":43.29414,"lon":5.3862,"is_reserved":false,"is_disabled":false,"rental_uris":{"android":"levelo://app?vid=ccddadf4-3b94-4dd2-8b65-379eb3a02b33","ios":"levelo://app?vid=ccddadf4-3b94-4dd2-8b65-379eb3a02b33"},"vehicle_type_id":"4","last_reported":1726690190,"current_range_meters":6000,"station_id":"ce4bh2h2rcd13ifvqdh0","pricing_plan_id":"cebpf4jnsgd1na2vs0mg"},{"bike_id":"290f014c-38ce-43b2-a8c7-078c8996ca3c","system_id":"levelo_inurba_marseille","lat":43.30208,"lon":5.39473,"is_reserved":false,"is_disabled":false,"rental_uris":{"android":"levelo://app?vid=290f014c-38ce-43b2-a8c7-078c8996ca3c","ios":"levelo://app?vid=290f014c-38ce-43b2-a8c7-078c8996ca3c"},"vehicle_type_id":"4","last_reported":1726690190,"current_range_meters":18800,"station_id":"ce4bh0p2rcd13ifvqd70","pricing_plan_id":"cebpf4jnsgd1na2vs0mg"},{"bike_id":"ce79fe19-b82d-444b-83e3-be566916e793","system_id":"levelo_inurba_marseille","lat":43.29709,"lon":5.36608,"is_reserved":false,"is_disabled":false,"rental_uris":{"android":"levelo://app?vid=ce79fe19-b82d-444b-83e3-be566916e793","ios":"levelo://app?vid=ce79fe19-b82d-444b-83e3-be566916e793"},"vehicle_type_id":"4","last_reported":1726690190,"current_range_meters":28800,"station_id":"ce4bgn12rcd13ifvqbt0","pricing_plan_id":"cebpf4jnsgd1na2vs0mg"},