{"last_updated":1781155828,"ttl":60,"version":"2.2","data":{"bikes":[{"bike_id":"ec12d144-24c8-4071-abf6-197e520eae96","system_id":"levelo_inurba_marseille","lat":43.337444,"lon":5.374475,"is_reserved":false,"is_disabled":false,"rental_uris":{"android":"levelo://app?vid=ec12d144-24c8-4071-abf6-197e520eae96","ios":"levelo://app?vid=ec12d144-24c8-4071-abf6-197e520eae96"},"vehicle_type_id":"4","last_reported":1781155828,"current_range_meters":0,"station_id":"","pricing_plan_id":"cebpf4jnsgd1na2vs0mg"},{"bike_id":"fcc143ff-ffb4-4feb-8989-5fe9ece653cd","system_id":"levelo_inurba_marseille","lat":43.30653,"lon":5.40089,"is_reserved":false,"is_disabled":false,"rental_uris":{"android":"levelo://app?vid=fcc143ff-ffb4-4feb-8989-5fe9ece653cd","ios":"levelo://app?vid=fcc143ff-ffb4-4feb-8989-5fe9ece653cd"},"vehicle_type_id":"4","last_reported":1781155828,"current_range_meters":2800,"station_id":"ce4bh112rcd13ifvqda0","pricing_plan_id":"cebpf4jnsgd1na2vs0mg"},{"bike_id":"953200b3-ed43-46ba-b290-928309542a30","system_id":"levelo_inurba_marseille","lat":43.29884,"lon":5.3974,"is_reserved":false,"is_disabled":false,"rental_uris":{"android":"levelo://app?vid=953200b3-ed43-46ba-b290-928309542a30","ios":"levelo://app?vid=953200b3-ed43-46ba-b290-928309542a30"},"vehicle_type_id":"4","last_reported":1781155828,"current_range_meters":2800,"station_id":"ce4bh0h2rcd13ifvqd50","pricing_plan_id":"cebpf4jnsgd1na2vs0mg"},{"bike_id":"bdd5aa0b-e096-411b-9ad7-6a292d91dd03","system_id":"levelo_inurba_marseille","lat":43.30424,"lon":5.38876,"is_reserved":false,"is_disabled":false,"rental_uris":{"android":"levelo://app?vid=bdd5aa0b-e096-411b-9ad7-6a292d91dd03","ios":"levelo://app?vid=bdd5aa0b-e096-411b-9ad7-6a292d91dd03"},"vehicle_type_id":"4","last_reported":1781155828,"current_range_meters":2800,"station_id":"ce4bgk12rcd13ifvqbi0","pricing_plan_id":"cebpf4jnsgd1na2vs0mg"},{"bike_id":"346c81d4-45c2-4298-b449-f32929fda09d","system_id":"levelo_inurba_marseille","lat":43.30289,"lon":5.3918,"is_reserved":false,"is_disabled":false,"rental_uris":{"android":"levelo://app?vid=346c81d4-45c2-4298-b449-f32929fda09d","ios":"levelo://app?vid=346c81d4-45c2-4298-b449-f32929fda09d"},"vehicle_type_id":"4","last_reported":1781155828,"current_range_meters":2800,"station_id":"ce4bgkh2rcd13ifvqbk0","pricing_plan_id":"cebpf4jnsgd1na2vs0mg"},{"bike_id":"4850adc6-e640-4812-843c-a31e0b78cc98","system_id":"levelo_inurba_marseille","lat":43.31697,"lon":5.39534,"is_reserved":false,"is_disabled":false,"rental_uris":{"android":"levelo://app?vid=4850adc6-e640-4812-843c-a31e0b78cc98","ios":"levelo://app?vid=4850adc6-e640-4812-843c-a31e0b78cc98"},"vehicle_type_id":"4","last_reported":1781155828,"current_range_meters":2800,"station_id":"","pricing_plan_id":"cebpf4jnsgd1na2vs0mg"},{"bike_id":"b85f8f7c-3f23-4d15-8911-0e18a42c0f57","system_id":"levelo_inurba_marseille","lat":43.2803,"lon":5.36946,"is_reserved":false,"is_disabled":false,"rental_uris":{"android":"levelo://app?vid=b85f8f7c-3f23-4d15-8911-0e18a42c0f57","ios":"levelo://app?vid=b85f8f7c-3f23-4d15-8911-0e18a42c0f57"},"vehicle_type_id":"4","last_reported":1781155828,"current_range_meters":2800,"station_id":"ce4bha12rcd13ifvqef0","pricing_plan_id":"cebpf4jnsgd1na2vs0mg"},{"bike_id":"6f886f4f-ea45-44af-9213-ac25ec49e1df","system_id":"levelo_inurba_marseille","lat":43.33149,"lon":5.37686,"is_reserved":false,"is_disabled":false,"rental_uris":{"android":"levelo://app?vid=6f886f4f-ea45-44af-9213-ac25ec49e1df","ios":"levelo://app?vid=6f886f4f-ea45-44af-9213-ac25ec49e1df"},"vehicle_type_id":"4","last_reported":1781155828,"current_range_meters":2800,"station_id":"st_d46cu089ee8s73dldbu0","pricing_plan_id":"cebpf4jnsgd1na2vs0mg"},{"bike_id":"86cff962-68f4-4256-93f0-a13505633f92","system_id":"levelo_inurba_marseille","lat":43.29222,"lon":5.36056,"is_reserved":false,"is_disabled":false,"rental_uris":{"android":"levelo://app?vid=86cff962-68f4-4256-93f0-a13505633f92","ios":"levelo://app?vid=86cff962-68f4-4256-93f0-a13505633f92"},"vehicle_type_id":"4","last_reported":1781155828,"current_range_meters":2800,"station_id":"ce4bhbh2rcd13ifvqeqg","pricing_plan_id":"cebpf4jnsgd1na2vs0mg"},{"bike_id":"7bed8ae6-2be0-4819-a9a2-c60b87b73c73","system_id":"levelo_inurba_marseille","lat":43.272122,"lon":5.391816,"is_reserved":false,"is_disabled":true,"rental_uris":{"android":"levelo://app?vid=7bed8ae6-2be0-4819-a9a2-c60b87b73c73","ios":"levelo://app?vid=7bed8ae6-2be0-4819-a9a2-c60b87b73c73"},"vehicle_type_id":"4","last_reported":1781155828,"current_range_meters":2800,"station_id":"ce4bhhp2rcd13ifvqfm0","pricing_plan_id":"cebpf4jnsgd1na2vs0mg"},{"bike_id":"32902832-9228-4afa-89fe-76729ec8218d","system_id":"levelo_inurba_marseille","lat":43.31436,"lon":5.37372,"is_reserved":false,"is_disabled":true,"rental_uris":{"android":"levelo://app?vid=32902832-9228-4afa-89fe-76729ec8218d","ios":"levelo://app?vid=32902832-9228-4afa-89fe-76729ec8218d"},"vehicle_type_id":"4","last_reported":1781155828,"current_range_meters":3200,"station_id":"","pricing_plan_id":"cebpf4jnsgd1na2vs0mg"},{"bike_id":"9ca28915-9231-4c6c-961b-ceb9d7dd8638","system_id":"levelo_inurba_marseille","lat":43.30255,"lon":5.4006,"is_reserved":false,"is_disabled":false,"rental_uris":{"android":"levelo://app?vid=9ca28915-9231-4c6c-961b-ceb9d7dd8638","ios":"levelo://app?vid=9ca28915-9231-4c6c-961b-ceb9d7dd8638"},"vehicle_type_id":"4","last_reported":1781155828,"current_range_meters":3200,"station_id":"ce4bgvh2rcd13ifvqcs0","pricing_plan_id":"cebpf4jnsgd1na2vs0mg"},{"bike_id":"3e658393-96ce-44b7-bdea-fdd79e557932","system_id":"levelo_inurba_marseille","lat":43.31901,"lon":5.36804,"is_reserved":false,"is_disabled":false,"rental_uris":{"android":"levelo://app?vid=3e658393-96ce-44b7-bdea-fdd79e557932","ios":"levelo://app?vid=3e658393-96ce-44b7-bdea-fdd79e557932"},"vehicle_type_id":"4","last_reported":1781155828,"current_range_meters":3200,"station_id":"st_d6o2h0d0559c73evc1b0","pricing_plan_id":"cebpf4jnsgd1na2vs0mg"},{"bike_id":"5609407f-ae48-41b7-a968-bfb987f42b36","system_id":"levelo_inurba_marseille","lat":43.29539,"lon":5.39026,"is_reserved":false,"is_disabled":false,"rental_uris":{"android":"levelo://app?vid=5609407f-ae48-41b7-a968-bfb987f42b36","ios":"levelo://app?vid=5609407f-ae48-41b7-a968-bfb987f42b36"},"vehicle_type_id":"4","last_reported":1781155828,"current_range_meters":3200,"station_id":"ce4bh3p2rcd13ifvqdp0","pricing_plan_id":"cebpf4jnsgd1na2vs0mg"},{"bike_id":"4313e452-17f1-4f0e-aad1-72ae345ff246","system_id":"levelo_inurba_marseille","lat":43.28343,"lon":5.38105,"is_reserved":false,"is_disabled":true,"rental_uris":{"android":"levelo://app?vid=4313e452-17f1-4f0e-aad1-72ae345ff246","ios":"levelo://app?vid=4313e452-17f1-4f0e-aad1-72ae345ff246"},"vehicle_type_id":"4","last_reported":1781155828,"current_range_meters":3200,"station_id":"ce4bh412rcd13ifvqdr0","pricing_plan_id":"cebpf4jnsgd1na2vs0mg"},{"bike_id":"5ce31bd9-2c9f-4f01-96a5-6e567aeba930","system_id":"levelo_inurba_marseille","lat":43.31439,"lon":5.38431,"is_reserved":false,"is_disabled":false,"rental_uris":{"android":"levelo://app?vid=5ce31bd9-2c9f-4f01-96a5-6e567aeba930","ios":"levelo://app?vid=5ce31bd9-2c9f-4f01-96a5-6e567aeba930"},"vehicle_type_id":"4","last_reported":1781155828,"current_range_meters":3200,"station_id":"","pricing_plan_id":"cebpf4jnsgd1na2vs0mg"},{"bike_id":"1dc2eb10-0c51-4525-ba6b-2819a0b2f48f","system_id":"levelo_inurba_marseille","lat":43.32353,"lon":5.3673,"is_reserved":false,"is_disabled":false,"rental_uris":{"android":"levelo://app?vid=1dc2eb10-0c51-4525-ba6b-2819a0b2f48f","ios":"levelo://app?vid=1dc2eb10-0c51-4525-ba6b-2819a0b2f48f"},"vehicle_type_id":"4","last_reported":1781155828,"current_range_meters":3200,"station_id":"ce4bhsh2rcd13ifvqi2g","pricing_plan_id":"cebpf4jnsgd1na2vs0mg"},{"bike_id":"2ea5e2f6-987d-40f7-878d-e553d501b666","system_id":"levelo_inurba_marseille","lat":43.30857,"lon":5.38271,"is_reserved":false,"is_disabled":false,"rental_uris":{"android":"levelo://app?vid=2ea5e2f6-987d-40f7-878d-e553d501b666","ios":"levelo://app?vid=2ea5e2f6-987d-40f7-878d-e553d501b666"},"vehicle_type_id":"4","last_reported":1781155828,"current_range_meters":3200,"station_id":"","pricing_plan_id":"cebpf4jnsgd1na2vs0mg"},{"bike_id":"29d27daa-46f7-4981-a760-8b5b63da600b","system_id":"levelo_inurba_marseille","lat":43.30603,"lon":5.37226,"is_reserved":false,"is_disabled":false,"rental_uris":{"android":"levelo://app?vid=29d27daa-46f7-4981-a760-8b5b63da600b","ios":"levelo://app?vid=29d27daa-46f7-4981-a760-8b5b63da600b"},"vehicle_type_id":"4","last_reported":1781155828,"current_range_meters":3200,"station_id":"ce4bgqh2rcd13ifvqc4g","pricing_plan_id":"cebpf4jnsgd1na2vs0mg"},{"bike_id":"be337c42-c63e-48a9-ac8a-e6d41d863eb7","system_id":"levelo_inurba_marseille","lat":43.30687,"lon":5.38394,"is_reserved":false,"is_disabled":false,"rental_uris":{"android":"levelo://app?vid=be337c42-c63e-48a9-ac8a-e6d41d863eb7","ios":"levelo://app?vid=be337c42-c63e-48a9-ac8a-e6d41d863eb7"},"vehicle_type_id":"4","last_reported":1781155828,"current_range_meters":3200,"station_id":"","pricing_plan_id":"cebpf4jnsgd1na2vs0mg"},{"bike_id":"ef7c0ad7-d410-4165-b98d-0dfc9a5aa0dd","system_id":"levelo_inurba_marseille","lat":43.32567,"lon":5.4129,"is_reserved":false,"is_disabled":false,"rental_uris":{"android":"levelo://app?vid=ef7c0ad7-d410-4165-b98d-0dfc9a5aa0dd","ios":"levelo://app?vid=ef7c0ad7-d410-4165-b98d-0dfc9a5aa0dd"},"vehicle_type_id":"4","last_reported":1781155828,"current_range_meters":3200,"station_id":"","pricing_plan_id":"cebpf4jnsgd1na2vs0mg"},{"bike_id":"8889112d-9a30-4014-9764-5c0a53d7ca46","system_id":"levelo_inurba_marseille","lat":43.30625,"lon":5.43009,"is_reserved":false,"is_disabled":false,"rental_uris":{"android":"levelo://app?vid=8889112d-9a30-4014-9764-5c0a53d7ca46","ios":"levelo://app?vid=8889112d-9a30-4014-9764-5c0a53d7ca46"},"vehicle_type_id":"4","last_reported":1781155828,"current_range_meters":3200,"station_id":"","pricing_plan_id":"cebpf4jnsgd1na2vs0mg"},{"bike_id":"20833eff-4b8d-454c-b2c6-b3431f55628f","system_id":"levelo_inurba_marseille","lat":43.31359,"lon":5.39017,"is_reserved":false,"is_disabled":false,"rental_uris":{"android":"levelo://app?vid=20833eff-4b8d-454c-b2c6-b3431f55628f","ios":"levelo://app?vid=20833eff-4b8d-454c-b2c6-b3431f55628f"},"vehicle_type_id":"4","last_reported":1781155828,"current_range_meters":3200,"station_id":"","pricing_plan_id":"cebpf4jnsgd1na2vs0mg"},{"bike_id":"f84d8d24-ab91-4db9-93aa-6230dd0589f2","system_id":"levelo_inurba_marseille","lat":43.28607,"lon":5.35106,"is_reserved":false,"is_disabled":true,"rental_uris":{"android":"levelo://app?vid=f84d8d24-ab91-4db9-93aa-6230dd0589f2","ios":"levelo://app?vid=f84d8d24-ab91-4db9-93aa-6230dd0589f2"},"vehicle_type_id":"4","last_reported":1781155828,"current_range_meters":3200,"station_id":"ce4bhch2rcd13ifvqeug","pricing_plan_id":"cebpf4jnsgd1na2vs0mg"},{"bike_id":"7fadd987-b1a2-4c31-a4cd-5dedc0eb4ddf","system_id":"levelo_inurba_marseille","lat":43.28614,"lon":5.39867,"is_reserved":false,"is_disabled":false,"rental_uris":{"android":"levelo://app?vid=7fadd987-b1a2-4c31-a4cd-5dedc0eb4ddf","ios":"levelo://app?vid=7fadd987-b1a2-4c31-a4cd-5dedc0eb4ddf"},"vehicle_type_id":"4","last_reported":1781155828,"current_range_meters":3200,"station_id":"st_d4a7ka997mjs738ck50g","pricing_plan_id":"cebpf4jnsgd1na2vs0mg"},{"bike_id":"920f1313-0caf-4dcb-bf71-428dd902521b","system_id":"levelo_inurba_marseille","lat":43.26117,"lon":5.40988,"is_reserved":false,"is_disabled":false,"rental_uris":{"android":"levelo://app?vid=920f1313-0caf-4dcb-bf71-428dd902521b","ios":"levelo://app?vid=920f1313-0caf-4dcb-bf71-428dd902521b"},"vehicle_type_id":"4","last_reported":1781155828,"current_range_meters":3200,"station_id":"","pricing_plan_id":"cebpf4jnsgd1na2vs0mg"},{"bike_id":"81a82297-bdd1-43ff-9c66-f58529d43fc0","system_id":"levelo_inurba_marseille","lat":43.29556,"lon":5.42303,"is_reserved":false,"is_disabled":false,"rental_uris":{"android":"levelo://app?vid=81a82297-bdd1-43ff-9c66-f58529d43fc0","ios":"levelo://app?vid=81a82297-bdd1-43ff-9c66-f58529d43fc0"},"vehicle_type_id":"4","last_reported":1781155828,"current_range_meters":3200,"station_id":"ce4bhph2rcd13ifvqhdg","pricing_plan_id":"cebpf4jnsgd1na2vs0mg"},{"bike_id":"d8894ae8-c26b-43e4-9e77-71e40945a2db","system_id":"levelo_inurba_marseille","lat":43.29898,"lon":5.37152,"is_reserved":false,"is_disabled":false,"rental_uris":{"android":"levelo://app?vid=d8894ae8-c26b-43e4-9e77-71e40945a2db","ios":"levelo://app?vid=d8894ae8-c26b-43e4-9e77-71e40945a2db"},"vehicle_type_id":"4","last_reported":1781155828,"current_range_meters":3600,"station_id":"","pricing_plan_id":"cebpf4jnsgd1na2vs0mg"},{"bike_id":"2a916c05-371d-4b51-8b06-60610eaed15f","system_id":"levelo_inurba_marseille","lat":43.30613,"lon":5.37201,"is_reserved":false,"is_disabled":false,"rental_uris":{"android":"levelo://app?vid=2a916c05-371d-4b51-8b06-60610eaed15f","ios":"levelo://app?vid=2a916c05-371d-4b51-8b06-60610eaed15f"},"vehicle_type_id":"4","last_reported":1781155828,"current_range_meters":3600,"station_id":"ce4bgqh2rcd13ifvqc4g","pricing_plan_id":"cebpf4jnsgd1na2vs0mg"},{"bike_id":"f095e9b8-2a5a-4b32-bff8-de2e54cafb9a","system_id":"levelo_inurba_marseille","lat":43.28088,"lon":5.37834,"is_reserved":false,"is_disabled":false,"rental_uris":{"android":"levelo://app?vid=f095e9b8-2a5a-4b32-bff8-de2e54cafb9a","ios":"levelo://app?vid=f095e9b8-2a5a-4b32-bff8-de2e54cafb9a"},"vehicle_type_id":"4","last_reported":1781155828,"current_range_meters":3600,"station_id":"ce4bha12rcd13ifvqee0","pricing_plan_id":"cebpf4jnsgd1na2vs0mg"},{"bike_id":"04a3e8a7-ad8d-4eb7-a734-51882990bf4b","system_id":"levelo_inurba_marseille","lat":43.30261,"lon":5.40026,"is_reserved":false,"is_disabled":false,"rental_uris":{"android":"levelo://app?vid=04a3e8a7-ad8d-4eb7-a734-51882990bf4b","ios":"levelo://app?vid=04a3e8a7-ad8d-4eb7-a734-51882990bf4b"},"vehicle_type_id":"4","last_reported":1781155828,"current_range_meters":3600,"station_id":"ce4bgvh2rcd13ifvqcs0","pricing_plan_id":"cebpf4jnsgd1na2vs0mg"},{"bike_id":"e97ad386-58d9-46a5-b4fe-e47bdfacb483","system_id":"levelo_inurba_marseille","lat":43.27062,"lon":5.4226,"is_reserved":false,"is_disabled":true,"rental_uris":{"android":"levelo://app?vid=e97ad386-58d9-46a5-b4fe-e47bdfacb483","ios":"levelo://app?vid=e97ad386-58d9-46a5-b4fe-e47bdfacb483"},"vehicle_type_id":"4","last_reported":1781155828,"current_range_meters":3600,"station_id":"ce4bhk92rcd13ifvqgb0","pricing_plan_id":"cebpf4jnsgd1na2vs0mg"},{"bike_id":"5f45f485-764a-4056-bec3-0e2b75f6d60f","system_id":"levelo_inurba_marseille","lat":43.30011,"lon":5.37678,"is_reserved":false,"is_disabled":false,"rental_uris":{"android":"levelo://app?vid=5f45f485-764a-4056-bec3-0e2b75f6d60f","ios":"levelo://app?vid=5f45f485-764a-4056-bec3-0e2b75f6d60f"},"vehicle_type_id":"4","last_reported":1781155828,"current_range_meters":3600,"station_id":"","pricing_plan_id":"cebpf4jnsgd1na2vs0mg"},{"bike_id":"34788644-3cba-4002-b03e-1c22173bba5b","system_id":"levelo_inurba_marseille","lat":43.28658,"lon":5.36357,"is_reserved":false,"is_disabled":false,"rental_uris":{"android":"levelo://app?vid=34788644-3cba-4002-b03e-1c22173bba5b","ios":"levelo://app?vid=34788644-3cba-4002-b03e-1c22173bba5b"},"vehicle_type_id":"4","last_reported":1781155828,"current_range_meters":3600,"station_id":"ce4bhah2rcd13ifvqej0","pricing_plan_id":"cebpf4jnsgd1na2vs0mg"},{"bike_id":"95419af6-d198-447e-9eb8-9fff749eb92a","system_id":"levelo_inurba_marseille","lat":43.32117,"lon":5.36784,"is_reserved":false,"is_disabled":false,"rental_uris":{"android":"levelo://app?vid=95419af6-d198-447e-9eb8-9fff749eb92a","ios":"levelo://app?vid=95419af6-d198-447e-9eb8-9fff749eb92a"},"vehicle_type_id":"4","last_reported":1781155828,"current_range_meters":3600,"station_id":"ce4bhrh2rcd13ifvqhug","pricing_plan_id":"cebpf4jnsgd1na2vs0mg"},{"bike_id":"76d09565-aa02-41fd-b414-550f4f29ecb5","system_id":"levelo_inurba_marseille","lat":43.28333,"lon":5.36494,"is_reserved":false,"is_disabled":false,"rental_uris":{"android":"levelo://app?vid=76d09565-aa02-41fd-b414-550f4f29ecb5","ios":"levelo://app?vid=76d09565-aa02-41fd-b414-550f4f29ecb5"},"vehicle_type_id":"4","last_reported":1781155828,"current_range_meters":3600,"station_id":"","pricing_plan_id":"cebpf4jnsgd1na2vs0mg"},{"bike_id":"f8a31b76-8e0f-415a-8bb2-7292db18e3c4","system_id":"levelo_inurba_marseille","lat":43.28477,"lon":5.39135,"is_reserved":false,"is_disabled":false,"rental_uris":{"android":"levelo://app?vid=f8a31b76-8e0f-415a-8bb2-7292db18e3c4","ios":"levelo://app?vid=f8a31b76-8e0f-415a-8bb2-7292db18e3c4"},"vehicle_type_id":"4","last_reported":1781155828,"current_range_meters":3600,"station_id":"","pricing_plan_id":"cebpf4jnsgd1na2vs0mg"},{"bike_id":"6d782c50-d888-4b77-b17b-7c938da4d0d1","system_id":"levelo_inurba_marseille","lat":43.299282,"lon":5.365146,"is_reserved":false,"is_disabled":false,"rental_uris":{"android":"levelo://app?vid=6d782c50-d888-4b77-b17b-7c938da4d0d1","ios":"levelo://app?vid=6d782c50-d888-4b77-b17b-7c938da4d0d1"},"vehicle_type_id":"4","last_reported":1781155828,"current_range_meters":3600,"station_id":"ce4bgm92rcd13ifvqbr0","pricing_plan_id":"cebpf4jnsgd1na2vs0mg"},{"bike_id":"a1e31850-ef22-4bb8-933d-3a515b05116f","system_id":"levelo_inurba_marseille","lat":43.31126,"lon":5.37781,"is_reserved":false,"is_disabled":true,"rental_uris":{"android":"levelo://app?vid=a1e31850-ef22-4bb8-933d-3a515b05116f","ios":"levelo://app?vid=a1e31850-ef22-4bb8-933d-3a515b05116f"},"vehicle_type_id":"4","last_reported":1781155828,"current_range_meters":3600,"station_id":"ce4bgt92rcd13ifvqcg0","pricing_plan_id":"cebpf4jnsgd1na2vs0mg"},{"bike_id":"45ce06fe-30a1-49bb-b8bf-eb3d1814617f","system_id":"levelo_inurba_marseille","lat":43.33019,"lon":5.39032,"is_reserved":false,"is_disabled":false,"rental_uris":{"android":"levelo://app?vid=45ce06fe-30a1-49bb-b8bf-eb3d1814617f","ios":"levelo://app?vid=45ce06fe-30a1-49bb-b8bf-eb3d1814617f"},"vehicle_type_id":"4","last_reported":1781155828,"current_range_meters":3600,"station_id":"ce4bhr92rcd13ifvqhrg","pricing_plan_id":"cebpf4jnsgd1na2vs0mg"},{"bike_id":"de9d9135-b13b-46f8-bef8-05aa0affef31","system_id":"levelo_inurba_marseille","lat":43.23148,"lon":5.43705,"is_reserved":false,"is_disabled":false,"rental_uris":{"android":"levelo://app?vid=de9d9135-b13b-46f8-bef8-05aa0affef31","ios":"levelo://app?vid=de9d9135-b13b-46f8-bef8-05aa0affef31"},"vehicle_type_id":"4","last_reported":1781155828,"current_range_meters":3600,"station_id":"ce4bhmp2rcd13ifvqgog","pricing_plan_id":"cebpf4jnsgd1na2vs0mg"},{"bike_id":"1de7d0c0-67d3-4366-bfb8-bb91dcf6cec5","system_id":"levelo_inurba_marseille","lat":43.29069,"lon":5.38719,"is_reserved":false,"is_disabled":false,"rental_uris":{"android":"levelo://app?vid=1de7d0c0-67d3-4366-bfb8-bb91dcf6cec5","ios":"levelo://app?vid=1de7d0c0-67d3-4366-bfb8-bb91dcf6cec5"},"vehicle_type_id":"4","last_reported":1781155828,"current_range_meters":3600,"station_id":"","pricing_plan_id":"cebpf4jnsgd1na2vs0mg"},{"bike_id":"1140d017-c3b9-43dd-ba73-6e5a45e2fcc8","system_id":"levelo_inurba_marseille","lat":43.31915,"lon":5.38208,"is_reserved":false,"is_disabled":false,"rental_uris":{"android":"levelo://app?vid=1140d017-c3b9-43dd-ba73-6e5a45e2fcc8","ios":"levelo://app?vid=1140d017-c3b9-43dd-ba73-6e5a45e2fcc8"},"vehicle_type_id":"4","last_reported":1781155828,"current_range_meters":3600,"station_id":"","pricing_plan_id":"cebpf4jnsgd1na2vs0mg"},{"bike_id":"3cc2114e-3287-439d-b622-8709afae5898","system_id":"levelo_inurba_marseille","lat":43.27905,"lon":5.38002,"is_reserved":false,"is_disabled":false,"rental_uris":{"android":"levelo://app?vid=3cc2114e-3287-439d-b622-8709afae5898","ios":"levelo://app?vid=3cc2114e-3287-439d-b622-8709afae5898"},"vehicle_type_id":"4","last_reported":1781155828,"current_range_meters":3600,"station_id":"ce4bhf92rcd13ifvqf50","pricing_plan_id":"cebpf4jnsgd1na2vs0mg"},{"bike_id":"66214ed5-ab92-4dc5-b7d1-dad4e8f34e1e","system_id":"levelo_inurba_marseille","lat":43.28931,"lon":5.39635,"is_reserved":false,"is_disabled":false,"rental_uris":{"android":"levelo://app?vid=66214ed5-ab92-4dc5-b7d1-dad4e8f34e1e","ios":"levelo://app?vid=66214ed5-ab92-4dc5-b7d1-dad4e8f34e1e"},"vehicle_type_id":"4","last_reported":1781155828,"current_range_meters":3600,"station_id":"ce4bh3h2rcd13ifvqdn0","pricing_plan_id":"cebpf4jnsgd1na2vs0mg"},{"bike_id":"0001a67e-ca0c-4052-b9ef-4ce63eed1cd2","system_id":"levelo_inurba_marseille","lat":43.30256,"lon":5.40049,"is_reserved":false,"is_disabled":false,"rental_uris":{"android":"levelo://app?vid=0001a67e-ca0c-4052-b9ef-4ce63eed1cd2","ios":"levelo://app?vid=0001a67e-ca0c-4052-b9ef-4ce63eed1cd2"},"vehicle_type_id":"4","last_reported":1781155828,"current_range_meters":4000,"station_id":"ce4bgvh2rcd13ifvqcs0","pricing_plan_id":"cebpf4jnsgd1na2vs0mg"},{"bike_id":"8bc3129f-5a06-4c33-9807-ad2d49260525","system_id":"levelo_inurba_marseille","lat":43.30561,"lon":5.36657,"is_reserved":false,"is_disabled":false,"rental_uris":{"android":"levelo://app?vid=8bc3129f-5a06-4c33-9807-ad2d49260525","ios":"levelo://app?vid=8bc3129f-5a06-4c33-9807-ad2d49260525"},"vehicle_type_id":"4","last_reported":1781155828,"current_range_meters":4000,"station_id":"","pricing_plan_id":"cebpf4jnsgd1na2vs0mg"},{"bike_id":"9016ed31-fecf-4a25-bb1f-d25239c359df","system_id":"levelo_inurba_marseille","lat":43.29705,"lon":5.36581,"is_reserved":false,"is_disabled":false,"rental_uris":{"android":"levelo://app?vid=9016ed31-fecf-4a25-bb1f-d25239c359df","ios":"levelo://app?vid=9016ed31-fecf-4a25-bb1f-d25239c359df"},"vehicle_type_id":"4","last_reported":1781155828,"current_range_meters":4000,"station_id":"ce4bgn12rcd13ifvqbt0","pricing_plan_id":"cebpf4jnsgd1na2vs0mg"},{"bike_id":"1ce92a12-47ec-401a-9340-bf1dc91c5036","system_id":"levelo_inurba_marseille","lat":43.27371,"lon":5.36246,"is_reserved":false,"is_disabled":false,"rental_uris":{"android":"levelo://app?vid=1ce92a12-47ec-401a-9340-bf1dc91c5036","ios":"levelo://app?vid=1ce92a12-47ec-401a-9340-bf1dc91c5036"},"vehicle_type_id":"4","last_reported":1781155828,"current_range_meters":4000,"station_id":"ce4bhbh2rcd13ifvqeo0","pricing_plan_id":"cebpf4jnsgd1na2vs0mg"},{"bike_id":"b8d6f49d-6178-4f38-b88b-d7f3a3df7558","system_id":"levelo_inurba_marseille","lat":43.28935,"lon":5.36636,"is_reserved":false,"is_disabled":false,"rental_uris":{"android":"levelo://app?vid=b8d6f49d-6178-4f38-b88b-d7f3a3df7558","ios":"levelo://app?vid=b8d6f49d-6178-4f38-b88b-d7f3a3df7558"},"vehicle_type_id":"4","last_reported":1781155828,"current_range_meters":4000,"station_id":"ce4bhap2rcd13ifvqek0","pricing_plan_id":"cebpf4jnsgd1na2vs0mg"},{"bike_id":"e1727bda-1e5d-48d1-bf61-2cffa26ec8c0","system_id":"levelo_inurba_marseille","lat":43.28455,"lon":5.35868,"is_reserved":false,"is_disabled":false,"rental_uris":{"android":"levelo://app?vid=e1727bda-1e5d-48d1-bf61-2cffa26ec8c0","ios":"levelo://app?vid=e1727bda-1e5d-48d1-bf61-2cffa26ec8c0"},"vehicle_type_id":"4","last_reported":1781155828,"current_range_meters":4000,"station_id":"ce4bhah2rcd13ifvqei0","pricing_plan_id":"cebpf4jnsgd1na2vs0mg"},{"bike_id":"c5535c1a-2bc7-4b3e-b0c8-6feeb715a35f","system_id":"levelo_inurba_marseille","lat":43.24964,"lon":5.40469,"is_reserved":false,"is_disabled":false,"rental_uris":{"android":"levelo://app?vid=c5535c1a-2bc7-4b3e-b0c8-6feeb715a35f","ios":"levelo://app?vid=c5535c1a-2bc7-4b3e-b0c8-6feeb715a35f"},"vehicle_type_id":"4","last_reported":1781155828,"current_range_meters":4000,"station_id":"st_d2ngiaodas8pm72gd1h0","pricing_plan_id":"cebpf4jnsgd1na2vs0mg"},{"bike_id":"c9b2220e-f3e4-4c7a-80f9-cc88d841a349","system_id":"levelo_inurba_marseille","lat":43.33148,"lon":5.35456,"is_reserved":false,"is_disabled":false,"rental_uris":{"android":"levelo://app?vid=c9b2220e-f3e4-4c7a-80f9-cc88d841a349","ios":"levelo://app?vid=c9b2220e-f3e4-4c7a-80f9-cc88d841a349"},"vehicle_type_id":"4","last_reported":1781155828,"current_range_meters":4000,"station_id":"","pricing_plan_id":"cebpf4jnsgd1na2vs0mg"},{"bike_id":"6d1fe721-eceb-4809-a5fc-55d60977f503","system_id":"levelo_inurba_marseille","lat":43.28601,"lon":5.35112,"is_reserved":false,"is_disabled":true,"rental_uris":{"android":"levelo://app?vid=6d1fe721-eceb-4809-a5fc-55d60977f503","ios":"levelo://app?vid=6d1fe721-eceb-4809-a5fc-55d60977f503"},"vehicle_type_id":"4","last_reported":1781155828,"current_range_meters":4000,"station_id":"ce4bhch2rcd13ifvqeug","pricing_plan_id":"cebpf4jnsgd1na2vs0mg"},{"bike_id":"8e15d398-cbf5-4316-91b9-5a85450f991f","system_id":"levelo_inurba_marseille","lat":43.31316,"lon":5.39695,"is_reserved":false,"is_disabled":false,"rental_uris":{"android":"levelo://app?vid=8e15d398-cbf5-4316-91b9-5a85450f991f","ios":"levelo://app?vid=8e15d398-cbf5-4316-91b9-5a85450f991f"},"vehicle_type_id":"4","last_reported":1781155828,"current_range_meters":4000,"station_id":"ce4bgvp2rcd13ifvqcu0","pricing_plan_id":"cebpf4jnsgd1na2vs0mg"},{"bike_id":"2703b7fb-a199-40c4-973b-9bbda4ce16fc","system_id":"levelo_inurba_marseille","lat":43.28144,"lon":5.401,"is_reserved":false,"is_disabled":false,"rental_uris":{"android":"levelo://app?vid=2703b7fb-a199-40c4-973b-9bbda4ce16fc","ios":"levelo://app?vid=2703b7fb-a199-40c4-973b-9bbda4ce16fc"},"vehicle_type_id":"4","last_reported":1781155828,"current_range_meters":4000,"station_id":"","pricing_plan_id":"cebpf4jnsgd1na2vs0mg"},{"bike_id":"da856244-89da-4e26-a684-6145ba975523","system_id":"levelo_inurba_marseille","lat":43.27177,"lon":5.40996,"is_reserved":false,"is_disabled":false,"rental_uris":{"android":"levelo://app?vid=da856244-89da-4e26-a684-6145ba975523","ios":"levelo://app?vid=da856244-89da-4e26-a684-6145ba975523"},"vehicle_type_id":"4","last_reported":1781155828,"current_range_meters":4000,"station_id":"ce4bhl12rcd13ifvqgf0","pricing_plan_id":"cebpf4jnsgd1na2vs0mg"},{"bike_id":"abb78f7f-a1f1-4efa-ae79-de495c6faf89","system_id":"levelo_inurba_marseille","lat":43.29745,"lon":5.3896,"is_reserved":false,"is_disabled":false,"rental_uris":{"android":"levelo://app?vid=abb78f7f-a1f1-4efa-ae79-de495c6faf89","ios":"levelo://app?vid=abb78f7f-a1f1-4efa-ae79-de495c6faf89"},"vehicle_type_id":"4","last_reported":1781155828,"current_range_meters":4000,"station_id":"","pricing_plan_id":"cebpf4jnsgd1na2vs0mg"},{"bike_id":"83783ea4-5f99-4109-9289-7f429cce3820","system_id":"levelo_inurba_marseille","lat":43.28473,"lon":5.48393,"is_reserved":false,"is_disabled":false,"rental_uris":{"android":"levelo://app?vid=83783ea4-5f99-4109-9289-7f429cce3820","ios":"levelo://app?vid=83783ea4-5f99-4109-9289-7f429cce3820"},"vehicle_type_id":"4","last_reported":1781155828,"current_range_meters":4000,"station_id":"st_d3svhcjqgbts73a3dn0g","pricing_plan_id":"cebpf4jnsgd1na2vs0mg"},{"bike_id":"e598b8ea-d46e-4936-8117-e87b9fbc734d","system_id":"levelo_inurba_marseille","lat":43.24475,"lon":5.42542,"is_reserved":false,"is_disabled":false,"rental_uris":{"android":"levelo://app?vid=e598b8ea-d46e-4936-8117-e87b9fbc734d","ios":"levelo://app?vid=e598b8ea-d46e-4936-8117-e87b9fbc734d"},"vehicle_type_id":"4","last_reported":1781155828,"current_range_meters":4000,"station_id":"st_d4a3vfp97mjs738cd8kg","pricing_plan_id":"cebpf4jnsgd1na2vs0mg"},{"bike_id":"ee90cbc8-cf86-44b0-badd-4016027f9333","system_id":"levelo_inurba_marseille","lat":43.33739,"lon":5.39191,"is_reserved":false,"is_disabled":false,"rental_uris":{"android":"levelo://app?vid=ee90cbc8-cf86-44b0-badd-4016027f9333","ios":"levelo://app?vid=ee90cbc8-cf86-44b0-badd-4016027f9333"},"vehicle_type_id":"4","last_reported":1781155828,"current_range_meters":4000,"station_id":"ce4bhr92rcd13ifvqhsg","pricing_plan_id":"cebpf4jnsgd1na2vs0mg"},{"bike_id":"4028e588-c2bc-496e-a911-ea895c92cb29","system_id":"levelo_inurba_marseille","lat":43.24469,"lon":5.42533,"is_reserved":false,"is_disabled":false,"rental_uris":{"android":"levelo://app?vid=4028e588-c2bc-496e-a911-ea895c92cb29","ios":"levelo://app?vid=4028e588-c2bc-496e-a911-ea895c92cb29"},"vehicle_type_id":"4","last_reported":1781155828,"current_range_meters":4000,"station_id":"st_d4a3vfp97mjs738cd8kg","pricing_plan_id":"cebpf4jnsgd1na2vs0mg"},{"bike_id":"e3f195c1-68de-441e-ba78-12bea24338a5","system_id":"levelo_inurba_marseille","lat":43.25652,"lon":5.41851,"is_reserved":false,"is_disabled":false,"rental_uris":{"android":"levelo://app?vid=e3f195c1-68de-441e-ba78-12bea24338a5","ios":"levelo://app?vid=e3f195c1-68de-441e-ba78-12bea24338a5"},"vehicle_type_id":"4","last_reported":1781155828,"current_range_meters":4000,"station_id":"","pricing_plan_id":"cebpf4jnsgd1na2vs0mg"},{"bike_id":"a8cff10f-925f-47d3-8d2a-4913d17e9425","system_id":"levelo_inurba_marseille","lat":43.30165,"lon":5.40045,"is_reserved":false,"is_disabled":true,"rental_uris":{"android":"levelo://app?vid=a8cff10f-925f-47d3-8d2a-4913d17e9425","ios":"levelo://app?vid=a8cff10f-925f-47d3-8d2a-4913d17e9425"},"vehicle_type_id":"4","last_reported":1781155828,"current_range_meters":4400,"station_id":"","pricing_plan_id":"cebpf4jnsgd1na2vs0mg"},{"bike_id":"df10c025-f144-4346-a678-3c2c70800370","system_id":"levelo_inurba_marseille","lat":43.27189,"lon":5.40989,"is_reserved":false,"is_disabled":false,"rental_uris":{"android":"levelo://app?vid=df10c025-f144-4346-a678-3c2c70800370","ios":"levelo://app?vid=df10c025-f144-4346-a678-3c2c70800370"},"vehicle_type_id":"4","last_reported":1781155828,"current_range_meters":4400,"station_id":"ce4bhl12rcd13ifvqgf0","pricing_plan_id":"cebpf4jnsgd1na2vs0mg"},{"bike_id":"e8bc6ded-1b14-4639-b058-8d68e4a8ae57","system_id":"levelo_inurba_marseille","lat":43.2861,"lon":5.3704,"is_reserved":false,"is_disabled":false,"rental_uris":{"android":"levelo://app?vid=e8bc6ded-1b14-4639-b058-8d68e4a8ae57","ios":"levelo://app?vid=e8bc6ded-1b14-4639-b058-8d68e4a8ae57"},"vehicle_type_id":"4","last_reported":1781155828,"current_range_meters":4400,"station_id":"ce4bht12rcd13ifvqi60","pricing_plan_id":"cebpf4jnsgd1na2vs0mg"},{"bike_id":"11a15681-a55f-45b2-b38d-3ba53221a964","system_id":"levelo_inurba_marseille","lat":43.29576,"lon":5.37511,"is_reserved":false,"is_disabled":true,"rental_uris":{"android":"levelo://app?vid=11a15681-a55f-45b2-b38d-3ba53221a964","ios":"levelo://app?vid=11a15681-a55f-45b2-b38d-3ba53221a964"},"vehicle_type_id":"4","last_reported":1781155828,"current_range_meters":4400,"station_id":"ce4bgh92rcd13ifvqb50","pricing_plan_id":"cebpf4jnsgd1na2vs0mg"},{"bike_id":"951ce970-b414-4ee7-9eae-b1a351dd20cf","system_id":"levelo_inurba_marseille","lat":43.28472,"lon":5.48404,"is_reserved":false,"is_disabled":false,"rental_uris":{"android":"levelo://app?vid=951ce970-b414-4ee7-9eae-b1a351dd20cf","ios":"levelo://app?vid=951ce970-b414-4ee7-9eae-b1a351dd20cf"},"vehicle_type_id":"4","last_reported":1781155828,"current_range_meters":4400,"station_id":"st_d3svhcjqgbts73a3dn0g","pricing_plan_id":"cebpf4jnsgd1na2vs0mg"},{"bike_id":"189d966d-1d3d-4c27-87e2-7a9c620d9606","system_id":"levelo_inurba_marseille","lat":43.26936,"lon":5.38929,"is_reserved":false,"is_disabled":false,"rental_uris":{"android":"levelo://app?vid=189d966d-1d3d-4c27-87e2-7a9c620d9606","ios":"levelo://app?vid=189d966d-1d3d-4c27-87e2-7a9c620d9606"},"vehicle_type_id":"4","last_reported":1781155828,"current_range_meters":4400,"station_id":"ce4bhhh2rcd13ifvqfl0","pricing_plan_id":"cebpf4jnsgd1na2vs0mg"},{"bike_id":"fc826026-2325-4c9d-9e22-cebf11ed21bf","system_id":"levelo_inurba_marseille","lat":43.28429,"lon":5.34975,"is_reserved":false,"is_disabled":false,"rental_uris":{"android":"levelo://app?vid=fc826026-2325-4c9d-9e22-cebf11ed21bf","ios":"levelo://app?vid=fc826026-2325-4c9d-9e22-cebf11ed21bf"},"vehicle_type_id":"4","last_reported":1781155828,"current_range_meters":4400,"station_id":"ce4bhbh2rcd13ifvqepg","pricing_plan_id":"cebpf4jnsgd1na2vs0mg"},{"bike_id":"17b2175d-8521-4ed0-b95a-dcd1034c2a89","system_id":"levelo_inurba_marseille","lat":43.2961,"lon":5.37682,"is_reserved":false,"is_disabled":true,"rental_uris":{"android":"levelo://app?vid=17b2175d-8521-4ed0-b95a-dcd1034c2a89","ios":"levelo://app?vid=17b2175d-8521-4ed0-b95a-dcd1034c2a89"},"vehicle_type_id":"4","last_reported":1781155828,"current_range_meters":4400,"station_id":"ce4bgi92rcd13ifvqb90","pricing_plan_id":"cebpf4jnsgd1na2vs0mg"},{"bike_id":"bfead3df-3898-46ff-8027-03c813a765b0","system_id":"levelo_inurba_marseille","lat":43.30138,"lon":5.43103,"is_reserved":false,"is_disabled":false,"rental_uris":{"android":"levelo://app?vid=bfead3df-3898-46ff-8027-03c813a765b0","ios":"levelo://app?vid=bfead3df-3898-46ff-8027-03c813a765b0"},"vehicle_type_id":"4","last_reported":1781155828,"current_range_meters":4400,"station_id":"st_d3js3co5814s73ftftug","pricing_plan_id":"cebpf4jnsgd1na2vs0mg"},{"bike_id":"ee2ede92-45f1-411b-b9ab-4653d15b78cd","system_id":"levelo_inurba_marseille","lat":43.29247,"lon":5.40909,"is_reserved":false,"is_disabled":false,"rental_uris":{"android":"levelo://app?vid=ee2ede92-45f1-411b-b9ab-4653d15b78cd","ios":"levelo://app?vid=ee2ede92-45f1-411b-b9ab-4653d15b78cd"},"vehicle_type_id":"4","last_reported":1781155828,"current_range_meters":4400,"station_id":"ce4bh192rcd13ifvqdc0","pricing_plan_id":"cebpf4jnsgd1na2vs0mg"},{"bike_id":"4cf08ae4-51d5-40e9-852b-67ecf290aadc","system_id":"levelo_inurba_marseille","lat":43.30908,"lon":5.36846,"is_reserved":false,"is_disabled":false,"rental_uris":{"android":"levelo://app?vid=4cf08ae4-51d5-40e9-852b-67ecf290aadc","ios":"levelo://app?vid=4cf08ae4-51d5-40e9-852b-67ecf290aadc"},"vehicle_type_id":"4","last_reported":1781155828,"current_range_meters":4800,"station_id":"ce4bgn92rcd13ifvqbvg","pricing_plan_id":"cebpf4jnsgd1na2vs0mg"},{"bike_id":"686cbf6f-5189-427a-acbe-8c6bc141b04e","system_id":"levelo_inurba_marseille","lat":43.23187,"lon":5.39988,"is_reserved":false,"is_disabled":false,"rental_uris":{"android":"levelo://app?vid=686cbf6f-5189-427a-acbe-8c6bc141b04e","ios":"levelo://app?vid=686cbf6f-5189-427a-acbe-8c6bc141b04e"},"vehicle_type_id":"4","last_reported":1781155828,"current_range_meters":4800,"station_id":"ce4bhn12rcd13ifvqgqg","pricing_plan_id":"cebpf4jnsgd1na2vs0mg"},{"bike_id":"6cc12bbc-d98c-4e10-8400-06767c1cf1fa","system_id":"levelo_inurba_marseille","lat":43.24796,"lon":5.37457,"is_reserved":false,"is_disabled":false,"rental_uris":{"android":"levelo://app?vid=6cc12bbc-d98c-4e10-8400-06767c1cf1fa","ios":"levelo://app?vid=6cc12bbc-d98c-4e10-8400-06767c1cf1fa"},"vehicle_type_id":"4","last_reported":1781155828,"current_range_meters":4800,"station_id":"ce4bhgh2rcd13ifvqfb0","pricing_plan_id":"cebpf4jnsgd1na2vs0mg"},{"bike_id":"0b201b39-89e7-459e-98e8-3144c28966d7","system_id":"levelo_inurba_marseille","lat":43.27943,"lon":5.4102,"is_reserved":false,"is_disabled":false,"rental_uris":{"android":"levelo://app?vid=0b201b39-89e7-459e-98e8-3144c28966d7","ios":"levelo://app?vid=0b201b39-89e7-459e-98e8-3144c28966d7"},"vehicle_type_id":"4","last_reported":1781155828,"current_range_meters":4800,"station_id":"ce4bhnp2rcd13ifvqh0g","pricing_plan_id":"cebpf4jnsgd1na2vs0mg"},{"bike_id":"2e07d43e-1d15-4f78-9c56-e234cec1a6e1","system_id":"levelo_inurba_marseille","lat":43.29602,"lon":5.38091,"is_reserved":false,"is_disabled":true,"rental_uris":{"android":"levelo://app?vid=2e07d43e-1d15-4f78-9c56-e234cec1a6e1","ios":"levelo://app?vid=2e07d43e-1d15-4f78-9c56-e234cec1a6e1"},"vehicle_type_id":"4","last_reported":1781155828,"current_range_meters":4800,"station_id":"ce4bgl12rcd13ifvqbo0","pricing_plan_id":"cebpf4jnsgd1na2vs0mg"},{"bike_id":"c46384f4-53c8-4f51-8b80-c45773b69697","system_id":"levelo_inurba_marseille","lat":43.3015,"lon":5.37717,"is_reserved":false,"is_disabled":false,"rental_uris":{"android":"levelo://app?vid=c46384f4-53c8-4f51-8b80-c45773b69697","ios":"levelo://app?vid=c46384f4-53c8-4f51-8b80-c45773b69697"},"vehicle_type_id":"4","last_reported":1781155828,"current_range_meters":4800,"station_id":"","pricing_plan_id":"cebpf4jnsgd1na2vs0mg"},{"bike_id":"9f60b1cf-7eb1-4ced-bd66-bbe2f6bb00b5","system_id":"levelo_inurba_marseille","lat":43.25517,"lon":5.37651,"is_reserved":false,"is_disabled":true,"rental_uris":{"android":"levelo://app?vid=9f60b1cf-7eb1-4ced-bd66-bbe2f6bb00b5","ios":"levelo://app?vid=9f60b1cf-7eb1-4ced-bd66-bbe2f6bb00b5"},"vehicle_type_id":"4","last_reported":1781155828,"current_range_meters":4800,"station_id":"ce4bhh12rcd13ifvqff0","pricing_plan_id":"cebpf4jnsgd1na2vs0mg"},{"bike_id":"1cf5493f-d1da-4470-b6ed-142e394b1620","system_id":"levelo_inurba_marseille","lat":43.24793,"lon":5.37458,"is_reserved":false,"is_disabled":false,"rental_uris":{"android":"levelo://app?vid=1cf5493f-d1da-4470-b6ed-142e394b1620","ios":"levelo://app?vid=1cf5493f-d1da-4470-b6ed-142e394b1620"},"vehicle_type_id":"4","last_reported":1781155828,"current_range_meters":4800,"station_id":"ce4bhgh2rcd13ifvqfb0","pricing_plan_id":"cebpf4jnsgd1na2vs0mg"},{"bike_id":"2a8ee5a0-6852-44b0-a6e2-f4e4bf4a3fe5","system_id":"levelo_inurba_marseille","lat":43.2551,"lon":5.3892,"is_reserved":false,"is_disabled":true,"rental_uris":{"android":"levelo://app?vid=2a8ee5a0-6852-44b0-a6e2-f4e4bf4a3fe5","ios":"levelo://app?vid=2a8ee5a0-6852-44b0-a6e2-f4e4bf4a3fe5"},"vehicle_type_id":"4","last_reported":1781155828,"current_range_meters":4800,"station_id":"","pricing_plan_id":"cebpf4jnsgd1na2vs0mg"},{"bike_id":"89e0ab8b-6344-4103-87e9-567c0b71abef","system_id":"levelo_inurba_marseille","lat":43.23176,"lon":5.43681,"is_reserved":false,"is_disabled":false,"rental_uris":{"android":"levelo://app?vid=89e0ab8b-6344-4103-87e9-567c0b71abef","ios":"levelo://app?vid=89e0ab8b-6344-4103-87e9-567c0b71abef"},"vehicle_type_id":"4","last_reported":1781155828,"current_range_meters":4800,"station_id":"ce4bhmp2rcd13ifvqgog","pricing_plan_id":"cebpf4jnsgd1na2vs0mg"},{"bike_id":"70b95156-19cf-4c01-ab10-ac38df626785","system_id":"levelo_inurba_marseille","lat":43.25856,"lon":5.39911,"is_reserved":false,"is_disabled":false,"rental_uris":{"android":"levelo://app?vid=70b95156-19cf-4c01-ab10-ac38df626785","ios":"levelo://app?vid=70b95156-19cf-4c01-ab10-ac38df626785"},"vehicle_type_id":"4","last_reported":1781155828,"current_range_meters":4800,"station_id":"ce4bhl92rcd13ifvqghg","pricing_plan_id":"cebpf4jnsgd1na2vs0mg"},{"bike_id":"ed395267-d9fc-4dd7-ac4a-db71bc4d29c7","system_id":"levelo_inurba_marseille","lat":43.22544,"lon":5.34828,"is_reserved":false,"is_disabled":false,"rental_uris":{"android":"levelo://app?vid=ed395267-d9fc-4dd7-ac4a-db71bc4d29c7","ios":"levelo://app?vid=ed395267-d9fc-4dd7-ac4a-db71bc4d29c7"},"vehicle_type_id":"4","last_reported":1781155828,"current_range_meters":4800,"station_id":"st_cvj5dfep6f1abm77gieg","pricing_plan_id":"cebpf4jnsgd1na2vs0mg"},{"bike_id":"1b0eac04-f591-4a98-a859-f6b12de18cd7","system_id":"levelo_inurba_marseille","lat":43.2869,"lon":5.46694,"is_reserved":false,"is_disabled":true,"rental_uris":{"android":"levelo://app?vid=1b0eac04-f591-4a98-a859-f6b12de18cd7","ios":"levelo://app?vid=1b0eac04-f591-4a98-a859-f6b12de18cd7"},"vehicle_type_id":"4","last_reported":1781155828,"current_range_meters":4800,"station_id":"st_d6tc3vkotcvc738tfjhg","pricing_plan_id":"cebpf4jnsgd1na2vs0mg"},{"bike_id":"853b0d6f-b336-492c-8d19-63652c554c7e","system_id":"levelo_inurba_marseille","lat":43.25401,"lon":5.42587,"is_reserved":false,"is_disabled":false,"rental_uris":{"android":"levelo://app?vid=853b0d6f-b336-492c-8d19-63652c554c7e","ios":"levelo://app?vid=853b0d6f-b336-492c-8d19-63652c554c7e"},"vehicle_type_id":"4","last_reported":1781155828,"current_range_meters":4800,"station_id":"","pricing_plan_id":"cebpf4jnsgd1na2vs0mg"},{"bike_id":"64c9f91d-5075-4479-b683-d48593996d86","system_id":"levelo_inurba_marseille","lat":43.29855,"lon":5.36275,"is_reserved":false,"is_disabled":true,"rental_uris":{"android":"levelo://app?vid=64c9f91d-5075-4479-b683-d48593996d86","ios":"levelo://app?vid=64c9f91d-5075-4479-b683-d48593996d86"},"vehicle_type_id":"4","last_reported":1781155828,"current_range_meters":4800,"station_id":"ce4bgpp2rcd13ifvqc3g","pricing_plan_id":"cebpf4jnsgd1na2vs0mg"},{"bike_id":"4d735a9e-f2c8-4bb6-9521-dc1073864621","system_id":"levelo_inurba_marseille","lat":43.29272,"lon":5.42126,"is_reserved":false,"is_disabled":false,"rental_uris":{"android":"levelo://app?vid=4d735a9e-f2c8-4bb6-9521-dc1073864621","ios":"levelo://app?vid=4d735a9e-f2c8-4bb6-9521-dc1073864621"},"vehicle_type_id":"4","last_reported":1781155828,"current_range_meters":4800,"station_id":"","pricing_plan_id":"cebpf4jnsgd1na2vs0mg"},{"bike_id":"e2c0a208-0dcf-49b6-acbe-9bb56c554953","system_id":"levelo_inurba_marseille","lat":43.26913,"lon":5.42507,"is_reserved":false,"is_disabled":false,"rental_uris":{"android":"levelo://app?vid=e2c0a208-0dcf-49b6-acbe-9bb56c554953","ios":"levelo://app?vid=e2c0a208-0dcf-49b6-acbe-9bb56c554953"},"vehicle_type_id":"4","last_reported":1781155828,"current_range_meters":4800,"station_id":"","pricing_plan_id":"cebpf4jnsgd1na2vs0mg"},{"bike_id":"9f69559d-08c0-4029-babe-679d2d8d0d4d","system_id":"levelo_inurba_marseille","lat":43.30941,"lon":5.40127,"is_reserved":false,"is_disabled":false,"rental_uris":{"android":"levelo://app?vid=9f69559d-08c0-4029-babe-679d2d8d0d4d","ios":"levelo://app?vid=9f69559d-08c0-4029-babe-679d2d8d0d4d"},"vehicle_type_id":"4","last_reported":1781155828,"current_range_meters":4800,"station_id":"ce4bgvp2rcd13ifvqct0","pricing_plan_id":"cebpf4jnsgd1na2vs0mg"},{"bike_id":"c50a9e43-666a-4ebb-bb15-fba6ac3b0d59","system_id":"levelo_inurba_marseille","lat":43.29328,"lon":5.3634,"is_reserved":false,"is_disabled":false,"rental_uris":{"android":"levelo://app?vid=c50a9e43-666a-4ebb-bb15-fba6ac3b0d59","ios":"levelo://app?vid=c50a9e43-666a-4ebb-bb15-fba6ac3b0d59"},"vehicle_type_id":"4","last_reported":1781155828,"current_range_meters":4800,"station_id":"","pricing_plan_id":"cebpf4jnsgd1na2vs0mg"},{"bike_id":"e80f8996-351c-4723-8d75-5faf96cf832b","system_id":"levelo_inurba_marseille","lat":43.28699,"lon":5.46674,"is_reserved":false,"is_disabled":false,"rental_uris":{"android":"levelo://app?vid=e80f8996-351c-4723-8d75-5faf96cf832b","ios":"levelo://app?vid=e80f8996-351c-4723-8d75-5faf96cf832b"},"vehicle_type_id":"4","last_reported":1781155828,"current_range_meters":5600,"station_id":"st_d6tc3vkotcvc738tfjhg","pricing_plan_id":"cebpf4jnsgd1na2vs0mg"},{"bike_id":"419d9b4c-e958-411a-8dae-27cf413417bf","system_id":"levelo_inurba_marseille","lat":43.29976,"lon":5.38496,"is_reserved":false,"is_disabled":true,"rental_uris":{"android":"levelo://app?vid=419d9b4c-e958-411a-8dae-27cf413417bf","ios":"levelo://app?vid=419d9b4c-e958-411a-8dae-27cf413417bf"},"vehicle_type_id":"4","last_reported":1781155828,"current_range_meters":5600,"station_id":"ce4bgj92rcd13ifvqbd0","pricing_plan_id":"cebpf4jnsgd1na2vs0mg"},{"bike_id":"b839ba99-7b0a-470d-b46f-0a94dc9eec55","system_id":"levelo_inurba_marseille","lat":43.28397,"lon":5.38729,"is_reserved":false,"is_disabled":false,"rental_uris":{"android":"levelo://app?vid=b839ba99-7b0a-470d-b46f-0a94dc9eec55","ios":"levelo://app?vid=b839ba99-7b0a-470d-b46f-0a94dc9eec55"},"vehicle_type_id":"4","last_reported":1781155828,"current_range_meters":5600,"station_id":"","pricing_plan_id":"cebpf4jnsgd1na2vs0mg"},{"bike_id":"53857259-0278-4061-aa8b-b1f8b6bfd315","system_id":"levelo_inurba_marseille","lat":43.26079,"lon":5.39319,"is_reserved":false,"is_disabled":false,"rental_uris":{"android":"levelo://app?vid=53857259-0278-4061-aa8b-b1f8b6bfd315","ios":"levelo://app?vid=53857259-0278-4061-aa8b-b1f8b6bfd315"},"vehicle_type_id":"4","last_reported":1781155828,"current_range_meters":5600,"station_id":"","pricing_plan_id":"cebpf4jnsgd1na2vs0mg"},{"bike_id":"b0e170a1-f9e5-4e3b-80cf-3072fd2f6a74","system_id":"levelo_inurba_marseille","lat":43.23145,"lon":5.4372,"is_reserved":false,"is_disabled":false,"rental_uris":{"android":"levelo://app?vid=b0e170a1-f9e5-4e3b-80cf-3072fd2f6a74","ios":"levelo://app?vid=b0e170a1-f9e5-4e3b-80cf-3072fd2f6a74"},"vehicle_type_id":"4","last_reported":1781155828,"current_range_meters":5600,"station_id":"ce4bhmp2rcd13ifvqgog","pricing_plan_id":"cebpf4jnsgd1na2vs0mg"},{"bike_id":"c7ab8725-31b6-47a7-8129-07bb1827a268","system_id":"levelo_inurba_marseille","lat":43.28634,"lon":5.35081,"is_reserved":false,"is_disabled":false,"rental_uris":{"android":"levelo://app?vid=c7ab8725-31b6-47a7-8129-07bb1827a268","ios":"levelo://app?vid=c7ab8725-31b6-47a7-8129-07bb1827a268"},"vehicle_type_id":"4","last_reported":1781155828,"current_range_meters":5600,"station_id":"ce4bhch2rcd13ifvqeug","pricing_plan_id":"cebpf4jnsgd1na2vs0mg"},{"bike_id":"a0b53861-d04c-461f-8009-234356175c64","system_id":"levelo_inurba_marseille","lat":43.287,"lon":5.46686,"is_reserved":false,"is_disabled":false,"rental_uris":{"android":"levelo://app?vid=a0b53861-d04c-461f-8009-234356175c64","ios":"levelo://app?vid=a0b53861-d04c-461f-8009-234356175c64"},"vehicle_type_id":"4","last_reported":1781155828,"current_range_meters":5600,"station_id":"st_d6tc3vkotcvc738tfjhg","pricing_plan_id":"cebpf4jnsgd1na2vs0mg"},{"bike_id":"b6df974b-1086-4cf8-a110-93614529e4c6","system_id":"levelo_inurba_marseille","lat":43.2609,"lon":5.39358,"is_reserved":false,"is_disabled":false,"rental_uris":{"android":"levelo://app?vid=b6df974b-1086-4cf8-a110-93614529e4c6","ios":"levelo://app?vid=b6df974b-1086-4cf8-a110-93614529e4c6"},"vehicle_type_id":"4","last_reported":1781155828,"current_range_meters":5600,"station_id":"ce4bhh92rcd13ifvqfj0","pricing_plan_id":"cebpf4jnsgd1na2vs0mg"},{"bike_id":"d4d7ba4b-ebbf-402f-a2ad-de790c6ae3df","system_id":"levelo_inurba_marseille","lat":43.30891,"lon":5.39656,"is_reserved":false,"is_disabled":false,"rental_uris":{"android":"levelo://app?vid=d4d7ba4b-ebbf-402f-a2ad-de790c6ae3df","ios":"levelo://app?vid=d4d7ba4b-ebbf-402f-a2ad-de790c6ae3df"},"vehicle_type_id":"4","last_reported":1781155828,"current_range_meters":5600,"station_id":"ce4bh012rcd13ifvqcv0","pricing_plan_id":"cebpf4jnsgd1na2vs0mg"},{"bike_id":"c765285d-9479-4c39-9925-6a71ee2e19fa","system_id":"levelo_inurba_marseille","lat":43.28453,"lon":5.35856,"is_reserved":false,"is_disabled":false,"rental_uris":{"android":"levelo://app?vid=c765285d-9479-4c39-9925-6a71ee2e19fa","ios":"levelo://app?vid=c765285d-9479-4c39-9925-6a71ee2e19fa"},"vehicle_type_id":"4","last_reported":1781155828,"current_range_meters":5600,"station_id":"ce4bhah2rcd13ifvqei0","pricing_plan_id":"cebpf4jnsgd1na2vs0mg"},{"bike_id":"2b53231d-b659-45cb-b39d-07469101c33e","system_id":"levelo_inurba_marseille","lat":43.29219,"lon":5.36056,"is_reserved":false,"is_disabled":false,"rental_uris":{"android":"levelo://app?vid=2b53231d-b659-45cb-b39d-07469101c33e","ios":"levelo://app?vid=2b53231d-b659-45cb-b39d-07469101c33e"},"vehicle_type_id":"4","last_reported":1781155828,"current_range_meters":5600,"station_id":"ce4bhbh2rcd13ifvqeqg","pricing_plan_id":"cebpf4jnsgd1na2vs0mg"},{"bike_id":"e4420f0b-e0a1-46e6-b2c9-46f258426670","system_id":"levelo_inurba_marseille","lat":43.22547,"lon":5.34816,"is_reserved":false,"is_disabled":false,"rental_uris":{"android":"levelo://app?vid=e4420f0b-e0a1-46e6-b2c9-46f258426670","ios":"levelo://app?vid=e4420f0b-e0a1-46e6-b2c9-46f258426670"},"vehicle_type_id":"4","last_reported":1781155828,"current_range_meters":5600,"station_id":"st_cvj5dfep6f1abm77gieg","pricing_plan_id":"cebpf4jnsgd1na2vs0mg"},{"bike_id":"12df29cc-abfa-41e4-9d8d-6005376fb963","system_id":"levelo_inurba_marseille","lat":43.266188,"lon":5.394222,"is_reserved":false,"is_disabled":false,"rental_uris":{"android":"levelo://app?vid=12df29cc-abfa-41e4-9d8d-6005376fb963","ios":"levelo://app?vid=12df29cc-abfa-41e4-9d8d-6005376fb963"},"vehicle_type_id":"4","last_reported":1781155828,"current_range_meters":6000,"station_id":"","pricing_plan_id":"cebpf4jnsgd1na2vs0mg"},{"bike_id":"51ddaeae-58f5-4168-a980-8a1d345c055b","system_id":"levelo_inurba_marseille","lat":43.3089,"lon":5.38042,"is_reserved":false,"is_disabled":false,"rental_uris":{"android":"levelo://app?vid=51ddaeae-58f5-4168-a980-8a1d345c055b","ios":"levelo://app?vid=51ddaeae-58f5-4168-a980-8a1d345c055b"},"vehicle_type_id":"4","last_reported":1781155828,"current_range_meters":6000,"station_id":"","pricing_plan_id":"cebpf4jnsgd1na2vs0mg"},{"bike_id":"f2a22988-e631-4daa-ad0a-0b5688d18701","system_id":"levelo_inurba_marseille","lat":43.3354,"lon":5.37471,"is_reserved":false,"is_disabled":false,"rental_uris":{"android":"levelo://app?vid=f2a22988-e631-4daa-ad0a-0b5688d18701","ios":"levelo://app?vid=f2a22988-e631-4daa-ad0a-0b5688d18701"},"vehicle_type_id":"4","last_reported":1781155828,"current_range_meters":6000,"station_id":"st_d46tts09ee8s73dlu43g","pricing_plan_id":"cebpf4jnsgd1na2vs0mg"},{"bike_id":"cc044a5d-6424-486c-a90d-3884464a6b29","system_id":"levelo_inurba_marseille","lat":43.32069,"lon":5.36297,"is_reserved":false,"is_disabled":false,"rental_uris":{"android":"levelo://app?vid=cc044a5d-6424-486c-a90d-3884464a6b29","ios":"levelo://app?vid=cc044a5d-6424-486c-a90d-3884464a6b29"},"vehicle_type_id":"4","last_reported":1781155828,"current_range_meters":6000,"station_id":"","pricing_plan_id":"cebpf4jnsgd1na2vs0mg"},{"bike_id":"6124b231-474a-4e03-93b8-c31be0f74f91","system_id":"levelo_inurba_marseille","lat":43.27824,"lon":5.36448,"is_reserved":false,"is_disabled":false,"rental_uris":{"android":"levelo://app?vid=6124b231-474a-4e03-93b8-c31be0f74f91","ios":"levelo://app?vid=6124b231-474a-4e03-93b8-c31be0f74f91"},"vehicle_type_id":"4","last_reported":1781155828,"current_range_meters":6000,"station_id":"","pricing_plan_id":"cebpf4jnsgd1na2vs0mg"},{"bike_id":"92e93ffe-1641-472d-bcb2-8d8cee5ea29d","system_id":"levelo_inurba_marseille","lat":43.28616,"lon":5.351,"is_reserved":false,"is_disabled":false,"rental_uris":{"android":"levelo://app?vid=92e93ffe-1641-472d-bcb2-8d8cee5ea29d","ios":"levelo://app?vid=92e93ffe-1641-472d-bcb2-8d8cee5ea29d"},"vehicle_type_id":"4","last_reported":1781155828,"current_range_meters":6000,"station_id":"ce4bhch2rcd13ifvqeug","pricing_plan_id":"cebpf4jnsgd1na2vs0mg"},{"bike_id":"c02be140-eedb-4b02-a602-f51cb8f61f86","system_id":"levelo_inurba_marseille","lat":43.30292,"lon":5.39196,"is_reserved":false,"is_disabled":false,"rental_uris":{"android":"levelo://app?vid=c02be140-eedb-4b02-a602-f51cb8f61f86","ios":"levelo://app?vid=c02be140-eedb-4b02-a602-f51cb8f61f86"},"vehicle_type_id":"4","last_reported":1781155828,"current_range_meters":6000,"station_id":"ce4bgkh2rcd13ifvqbk0","pricing_plan_id":"cebpf4jnsgd1na2vs0mg"},{"bike_id":"e5034541-ace2-4c45-b6be-e09ee225784f","system_id":"levelo_inurba_marseille","lat":43.28571,"lon":5.39505,"is_reserved":false,"is_disabled":true,"rental_uris":{"android":"levelo://app?vid=e5034541-ace2-4c45-b6be-e09ee225784f","ios":"levelo://app?vid=e5034541-ace2-4c45-b6be-e09ee225784f"},"vehicle_type_id":"4","last_reported":1781155828,"current_range_meters":6000,"station_id":"ce4bh292rcd13ifvqdg0","pricing_plan_id":"cebpf4jnsgd1na2vs0mg"},{"bike_id":"f8a0ebe5-5329-4401-b050-c226eca0ff50","system_id":"levelo_inurba_marseille","lat":43.24179,"lon":5.3973,"is_reserved":false,"is_disabled":false,"rental_uris":{"android":"levelo://app?vid=f8a0ebe5-5329-4401-b050-c226eca0ff50","ios":"levelo://app?vid=f8a0ebe5-5329-4401-b050-c226eca0ff50"},"vehicle_type_id":"4","last_reported":1781155828,"current_range_meters":6000,"station_id":"ce4bhn12rcd13ifvqgpg","pricing_plan_id":"cebpf4jnsgd1na2vs0mg"},{"bike_id":"d4a485ca-544f-4e15-a3d5-638351c050dc","system_id":"levelo_inurba_marseille","lat":43.28683,"lon":5.40384,"is_reserved":false,"is_disabled":false,"rental_uris":{"android":"levelo://app?vid=d4a485ca-544f-4e15-a3d5-638351c050dc","ios":"levelo://app?vid=d4a485ca-544f-4e15-a3d5-638351c050dc"},"vehicle_type_id":"4","last_reported":1781155828,"current_range_meters":6000,"station_id":"","pricing_plan_id":"cebpf4jnsgd1na2vs0mg"},{"bike_id":"8022dafe-ee17-4283-9a19-c06150b0055a","system_id":"levelo_inurba_marseille","lat":43.31726,"lon":5.37768,"is_reserved":false,"is_disabled":false,"rental_uris":{"android":"levelo://app?vid=8022dafe-ee17-4283-9a19-c06150b0055a","ios":"levelo://app?vid=8022dafe-ee17-4283-9a19-c06150b0055a"},"vehicle_type_id":"4","last_reported":1781155828,"current_range_meters":6000,"station_id":"ce4bgth2rcd13ifvqch0","pricing_plan_id":"cebpf4jnsgd1na2vs0mg"},{"bike_id":"b854a984-e039-4569-beee-aa994d51a692","system_id":"levelo_inurba_marseille","lat":43.27379,"lon":5.36254,"is_reserved":false,"is_disabled":false,"rental_uris":{"android":"levelo://app?vid=b854a984-e039-4569-beee-aa994d51a692","ios":"levelo://app?vid=b854a984-e039-4569-beee-aa994d51a692"},"vehicle_type_id":"4","last_reported":1781155828,"current_range_meters":6000,"station_id":"ce4bhbh2rcd13ifvqeo0","pricing_plan_id":"cebpf4jnsgd1na2vs0mg"},{"bike_id":"a723aae1-1645-45b8-8f5a-f56c385f2a98","system_id":"levelo_inurba_marseille","lat":43.301461,"lon":5.380899,"is_reserved":false,"is_disabled":false,"rental_uris":{"android":"levelo://app?vid=a723aae1-1645-45b8-8f5a-f56c385f2a98","ios":"levelo://app?vid=a723aae1-1645-45b8-8f5a-f56c385f2a98"},"vehicle_type_id":"4","last_reported":1781155828,"current_range_meters":6000,"station_id":"ce4bgjp2rcd13ifvqbh0","pricing_plan_id":"cebpf4jnsgd1na2vs0mg"},{"bike_id":"b6d3637a-0952-4e4f-8026-e2107cb5e7fd","system_id":"levelo_inurba_marseille","lat":43.28613,"lon":5.39878,"is_reserved":false,"is_disabled":false,"rental_uris":{"android":"levelo://app?vid=b6d3637a-0952-4e4f-8026-e2107cb5e7fd","ios":"levelo://app?vid=b6d3637a-0952-4e4f-8026-e2107cb5e7fd"},"vehicle_type_id":"4","last_reported":1781155828,"current_range_meters":6000,"station_id":"st_d4a7ka997mjs738ck50g","pricing_plan_id":"cebpf4jnsgd1na2vs0mg"},{"bike_id":"f8671556-b7c4-4a04-86c9-422f70a6fa84","system_id":"levelo_inurba_marseille","lat":43.33495,"lon":5.41941,"is_reserved":false,"is_disabled":false,"rental_uris":{"android":"levelo://app?vid=f8671556-b7c4-4a04-86c9-422f70a6fa84","ios":"levelo://app?vid=f8671556-b7c4-4a04-86c9-422f70a6fa84"},"vehicle_type_id":"4","last_reported":1781155828,"current_range_meters":6000,"station_id":"","pricing_plan_id":"cebpf4jnsgd1na2vs0mg"},{"bike_id":"896c85fb-cbc3-4159-8d57-2687e390f8a6","system_id":"levelo_inurba_marseille","lat":43.23875,"lon":5.3745,"is_reserved":false,"is_disabled":true,"rental_uris":{"android":"levelo://app?vid=896c85fb-cbc3-4159-8d57-2687e390f8a6","ios":"levelo://app?vid=896c85fb-cbc3-4159-8d57-2687e390f8a6"},"vehicle_type_id":"4","last_reported":1781155828,"current_range_meters":6000,"station_id":"st_d6sm7csbq4hs73f8fpjg","pricing_plan_id":"cebpf4jnsgd1na2vs0mg"},{"bike_id":"a22bdfd4-f5ab-4ba0-bb7a-3e570045354b","system_id":"levelo_inurba_marseille","lat":43.30189,"lon":5.39102,"is_reserved":false,"is_disabled":false,"rental_uris":{"android":"levelo://app?vid=a22bdfd4-f5ab-4ba0-bb7a-3e570045354b","ios":"levelo://app?vid=a22bdfd4-f5ab-4ba0-bb7a-3e570045354b"},"vehicle_type_id":"4","last_reported":1781155828,"current_range_meters":6000,"station_id":"","pricing_plan_id":"cebpf4jnsgd1na2vs0mg"},{"bike_id":"4d141148-7a04-4724-8f93-622a13e7daac","system_id":"levelo_inurba_marseille","lat":43.30635,"lon":5.40078,"is_reserved":false,"is_disabled":false,"rental_uris":{"android":"levelo://app?vid=4d141148-7a04-4724-8f93-622a13e7daac","ios":"levelo://app?vid=4d141148-7a04-4724-8f93-622a13e7daac"},"vehicle_type_id":"4","last_reported":1781155828,"current_range_meters":6400,"station_id":"ce4bh112rcd13ifvqda0","pricing_plan_id":"cebpf4jnsgd1na2vs0mg"},{"bike_id":"3a0a3c1e-d128-4138-b2e1-df846eb876c4","system_id":"levelo_inurba_marseille","lat":43.28674,"lon":5.39462,"is_reserved":false,"is_disabled":false,"rental_uris":{"android":"levelo://app?vid=3a0a3c1e-d128-4138-b2e1-df846eb876c4","ios":"levelo://app?vid=3a0a3c1e-d128-4138-b2e1-df846eb876c4"},"vehicle_type_id":"4","last_reported":1781155828,"current_range_meters":6400,"station_id":"","pricing_plan_id":"cebpf4jnsgd1na2vs0mg"},{"bike_id":"ea0132b2-a066-4377-b9f5-03e8f3a17900","system_id":"levelo_inurba_marseille","lat":43.23157,"lon":5.43706,"is_reserved":false,"is_disabled":false,"rental_uris":{"android":"levelo://app?vid=ea0132b2-a066-4377-b9f5-03e8f3a17900","ios":"levelo://app?vid=ea0132b2-a066-4377-b9f5-03e8f3a17900"},"vehicle_type_id":"4","last_reported":1781155828,"current_range_meters":6400,"station_id":"ce4bhmp2rcd13ifvqgog","pricing_plan_id":"cebpf4jnsgd1na2vs0mg"},{"bike_id":"6078d331-8dff-4743-abcb-be75a8bdd58f","system_id":"levelo_inurba_marseille","lat":43.24677,"lon":5.38174,"is_reserved":false,"is_disabled":false,"rental_uris":{"android":"levelo://app?vid=6078d331-8dff-4743-abcb-be75a8bdd58f","ios":"levelo://app?vid=6078d331-8dff-4743-abcb-be75a8bdd58f"},"vehicle_type_id":"4","last_reported":1781155828,"current_range_meters":6400,"station_id":"ce4bhih2rcd13ifvqfr0","pricing_plan_id":"cebpf4jnsgd1na2vs0mg"},{"bike_id":"9fdd6cb6-0904-4d57-ba58-40c7a7ff4720","system_id":"levelo_inurba_marseille","lat":43.26038,"lon":5.37514,"is_reserved":false,"is_disabled":true,"rental_uris":{"android":"levelo://app?vid=9fdd6cb6-0904-4d57-ba58-40c7a7ff4720","ios":"levelo://app?vid=9fdd6cb6-0904-4d57-ba58-40c7a7ff4720"},"vehicle_type_id":"4","last_reported":1781155828,"current_range_meters":6400,"station_id":"ce4bhgh2rcd13ifvqfa0","pricing_plan_id":"cebpf4jnsgd1na2vs0mg"},{"bike_id":"2ff017c8-2cbc-493f-b435-f6a67427a94c","system_id":"levelo_inurba_marseille","lat":43.30143,"lon":5.43084,"is_reserved":false,"is_disabled":false,"rental_uris":{"android":"levelo://app?vid=2ff017c8-2cbc-493f-b435-f6a67427a94c","ios":"levelo://app?vid=2ff017c8-2cbc-493f-b435-f6a67427a94c"},"vehicle_type_id":"4","last_reported":1781155828,"current_range_meters":6400,"station_id":"st_d3js3co5814s73ftftug","pricing_plan_id":"cebpf4jnsgd1na2vs0mg"},{"bike_id":"89e366c3-1a4f-4118-80b3-b10f3ed79b47","system_id":"levelo_inurba_marseille","lat":43.30322,"lon":5.36933,"is_reserved":false,"is_disabled":false,"rental_uris":{"android":"levelo://app?vid=89e366c3-1a4f-4118-80b3-b10f3ed79b47","ios":"levelo://app?vid=89e366c3-1a4f-4118-80b3-b10f3ed79b47"},"vehicle_type_id":"4","last_reported":1781155828,"current_range_meters":6400,"station_id":"ce4bgqh2rcd13ifvqc5g","pricing_plan_id":"cebpf4jnsgd1na2vs0mg"},{"bike_id":"7f45feb5-bbfe-4850-a346-a6947e745275","system_id":"levelo_inurba_marseille","lat":43.24659,"lon":5.38176,"is_reserved":false,"is_disabled":false,"rental_uris":{"android":"levelo://app?vid=7f45feb5-bbfe-4850-a346-a6947e745275","ios":"levelo://app?vid=7f45feb5-bbfe-4850-a346-a6947e745275"},"vehicle_type_id":"4","last_reported":1781155828,"current_range_meters":6400,"station_id":"ce4bhih2rcd13ifvqfr0","pricing_plan_id":"cebpf4jnsgd1na2vs0mg"},{"bike_id":"479a476a-158f-4fed-bb39-6f43ac9d4715","system_id":"levelo_inurba_marseille","lat":43.32094,"lon":5.36771,"is_reserved":false,"is_disabled":false,"rental_uris":{"android":"levelo://app?vid=479a476a-158f-4fed-bb39-6f43ac9d4715","ios":"levelo://app?vid=479a476a-158f-4fed-bb39-6f43ac9d4715"},"vehicle_type_id":"4","last_reported":1781155828,"current_range_meters":6400,"station_id":"ce4bhrh2rcd13ifvqhug","pricing_plan_id":"cebpf4jnsgd1na2vs0mg"},{"bike_id":"0b542d53-e4b2-4fd5-adf4-084e17c09620","system_id":"levelo_inurba_marseille","lat":43.30121,"lon":5.43117,"is_reserved":false,"is_disabled":false,"rental_uris":{"android":"levelo://app?vid=0b542d53-e4b2-4fd5-adf4-084e17c09620","ios":"levelo://app?vid=0b542d53-e4b2-4fd5-adf4-084e17c09620"},"vehicle_type_id":"4","last_reported":1781155828,"current_range_meters":6400,"station_id":"st_d3js3co5814s73ftftug","pricing_plan_id":"cebpf4jnsgd1na2vs0mg"},{"bike_id":"ef0f2e99-d735-476a-b5dd-6021bf8d5c45","system_id":"levelo_inurba_marseille","lat":43.28224,"lon":5.39055,"is_reserved":false,"is_disabled":false,"rental_uris":{"android":"levelo://app?vid=ef0f2e99-d735-476a-b5dd-6021bf8d5c45","ios":"levelo://app?vid=ef0f2e99-d735-476a-b5dd-6021bf8d5c45"},"vehicle_type_id":"4","last_reported":1781155828,"current_range_meters":6400,"station_id":"ce4bhn92rcd13ifvqgsg","pricing_plan_id":"cebpf4jnsgd1na2vs0mg"},{"bike_id":"690a7ad4-d67b-460a-95bf-5ff19e9b0b1b","system_id":"levelo_inurba_marseille","lat":43.25095,"lon":5.3951,"is_reserved":false,"is_disabled":false,"rental_uris":{"android":"levelo://app?vid=690a7ad4-d67b-460a-95bf-5ff19e9b0b1b","ios":"levelo://app?vid=690a7ad4-d67b-460a-95bf-5ff19e9b0b1b"},"vehicle_type_id":"4","last_reported":1781155828,"current_range_meters":6400,"station_id":"ce4bhm12rcd13ifvqgkg","pricing_plan_id":"cebpf4jnsgd1na2vs0mg"},{"bike_id":"eb329a01-e691-4f8e-8655-7c24a9dc2218","system_id":"levelo_inurba_marseille","lat":43.28414,"lon":5.34968,"is_reserved":false,"is_disabled":false,"rental_uris":{"android":"levelo://app?vid=eb329a01-e691-4f8e-8655-7c24a9dc2218","ios":"levelo://app?vid=eb329a01-e691-4f8e-8655-7c24a9dc2218"},"vehicle_type_id":"4","last_reported":1781155828,"current_range_meters":6400,"station_id":"ce4bhbh2rcd13ifvqepg","pricing_plan_id":"cebpf4jnsgd1na2vs0mg"},{"bike_id":"a56ead97-709d-4bab-aa60-7e3ebdde11a5","system_id":"levelo_inurba_marseille","lat":43.3105,"lon":5.38201,"is_reserved":false,"is_disabled":false,"rental_uris":{"android":"levelo://app?vid=a56ead97-709d-4bab-aa60-7e3ebdde11a5","ios":"levelo://app?vid=a56ead97-709d-4bab-aa60-7e3ebdde11a5"},"vehicle_type_id":"4","last_reported":1781155828,"current_range_meters":6400,"station_id":"","pricing_plan_id":"cebpf4jnsgd1na2vs0mg"},{"bike_id":"9dc5ca98-97bb-454b-84ac-3052ec49edfa","system_id":"levelo_inurba_marseille","lat":43.30298,"lon":5.39214,"is_reserved":false,"is_disabled":false,"rental_uris":{"android":"levelo://app?vid=9dc5ca98-97bb-454b-84ac-3052ec49edfa","ios":"levelo://app?vid=9dc5ca98-97bb-454b-84ac-3052ec49edfa"},"vehicle_type_id":"4","last_reported":1781155828,"current_range_meters":6400,"station_id":"ce4bgkh2rcd13ifvqbk0","pricing_plan_id":"cebpf4jnsgd1na2vs0mg"},{"bike_id":"191c05e8-e409-41e9-ab96-966cd625ba6b","system_id":"levelo_inurba_marseille","lat":43.24431,"lon":5.37004,"is_reserved":false,"is_disabled":false,"rental_uris":{"android":"levelo://app?vid=191c05e8-e409-41e9-ab96-966cd625ba6b","ios":"levelo://app?vid=191c05e8-e409-41e9-ab96-966cd625ba6b"},"vehicle_type_id":"4","last_reported":1781155828,"current_range_meters":6400,"station_id":"ce4bhhh2rcd13ifvqfk0","pricing_plan_id":"cebpf4jnsgd1na2vs0mg"},{"bike_id":"14b4b371-8f26-4cf1-95b4-880cc3bc4611","system_id":"levelo_inurba_marseille","lat":43.29202,"lon":5.37152,"is_reserved":false,"is_disabled":true,"rental_uris":{"android":"levelo://app?vid=14b4b371-8f26-4cf1-95b4-880cc3bc4611","ios":"levelo://app?vid=14b4b371-8f26-4cf1-95b4-880cc3bc4611"},"vehicle_type_id":"4","last_reported":1781155828,"current_range_meters":6400,"station_id":"ce4bha92rcd13ifvqeh0","pricing_plan_id":"cebpf4jnsgd1na2vs0mg"},{"bike_id":"9626ef2c-1942-4889-91e7-1405c722fcd5","system_id":"levelo_inurba_marseille","lat":43.30456,"lon":5.37915,"is_reserved":false,"is_disabled":false,"rental_uris":{"android":"levelo://app?vid=9626ef2c-1942-4889-91e7-1405c722fcd5","ios":"levelo://app?vid=9626ef2c-1942-4889-91e7-1405c722fcd5"},"vehicle_type_id":"4","last_reported":1781155828,"current_range_meters":6400,"station_id":"ce4bgup2rcd13ifvqcn0","pricing_plan_id":"cebpf4jnsgd1na2vs0mg"},{"bike_id":"4df93a2d-aa6a-4b31-93fb-7fa77fa8a80d","system_id":"levelo_inurba_marseille","lat":43.32171,"lon":5.44057,"is_reserved":false,"is_disabled":false,"rental_uris":{"android":"levelo://app?vid=4df93a2d-aa6a-4b31-93fb-7fa77fa8a80d","ios":"levelo://app?vid=4df93a2d-aa6a-4b31-93fb-7fa77fa8a80d"},"vehicle_type_id":"4","last_reported":1781155828,"current_range_meters":6400,"station_id":"","pricing_plan_id":"cebpf4jnsgd1na2vs0mg"},{"bike_id":"2658f148-69af-4ed7-989a-ed885a04c39f","system_id":"levelo_inurba_marseille","lat":43.31333,"lon":5.39679,"is_reserved":false,"is_disabled":false,"rental_uris":{"android":"levelo://app?vid=2658f148-69af-4ed7-989a-ed885a04c39f","ios":"levelo://app?vid=2658f148-69af-4ed7-989a-ed885a04c39f"},"vehicle_type_id":"4","last_reported":1781155828,"current_range_meters":6400,"station_id":"ce4bgvp2rcd13ifvqcu0","pricing_plan_id":"cebpf4jnsgd1na2vs0mg"},{"bike_id":"b5d713d6-fb2c-4f85-9496-147ac99b124c","system_id":"levelo_inurba_marseille","lat":43.22915,"lon":5.35384,"is_reserved":false,"is_disabled":true,"rental_uris":{"android":"levelo://app?vid=b5d713d6-fb2c-4f85-9496-147ac99b124c","ios":"levelo://app?vid=b5d713d6-fb2c-4f85-9496-147ac99b124c"},"vehicle_type_id":"4","last_reported":1781155828,"current_range_meters":6800,"station_id":"cpo3532slgdg3j2ikp40","pricing_plan_id":"cebpf4jnsgd1na2vs0mg"},{"bike_id":"83dd7f2a-a1db-471f-b2c8-6f4269377848","system_id":"levelo_inurba_marseille","lat":43.24071,"lon":5.3776,"is_reserved":false,"is_disabled":false,"rental_uris":{"android":"levelo://app?vid=83dd7f2a-a1db-471f-b2c8-6f4269377848","ios":"levelo://app?vid=83dd7f2a-a1db-471f-b2c8-6f4269377848"},"vehicle_type_id":"4","last_reported":1781155828,"current_range_meters":6800,"station_id":"ce4bhnp2rcd13ifvqgvg","pricing_plan_id":"cebpf4jnsgd1na2vs0mg"},{"bike_id":"8eac35b7-8fae-4c29-97ab-522f5c5baeab","system_id":"levelo_inurba_marseille","lat":43.27813,"lon":5.40696,"is_reserved":false,"is_disabled":false,"rental_uris":{"android":"levelo://app?vid=8eac35b7-8fae-4c29-97ab-522f5c5baeab","ios":"levelo://app?vid=8eac35b7-8fae-4c29-97ab-522f5c5baeab"},"vehicle_type_id":"4","last_reported":1781155828,"current_range_meters":6800,"station_id":"ce4bhnh2rcd13ifvqgtg","pricing_plan_id":"cebpf4jnsgd1na2vs0mg"},{"bike_id":"f019a36b-d3ce-44a6-93bd-64b044d508ea","system_id":"levelo_inurba_marseille","lat":43.28952,"lon":5.36379,"is_reserved":false,"is_disabled":false,"rental_uris":{"android":"levelo://app?vid=f019a36b-d3ce-44a6-93bd-64b044d508ea","ios":"levelo://app?vid=f019a36b-d3ce-44a6-93bd-64b044d508ea"},"vehicle_type_id":"4","last_reported":1781155828,"current_range_meters":6800,"station_id":"ce4bhc92rcd13ifvqetg","pricing_plan_id":"cebpf4jnsgd1na2vs0mg"},{"bike_id":"655b66a2-947a-4c93-bcb0-4b25db1964cb","system_id":"levelo_inurba_marseille","lat":43.28831,"lon":5.39324,"is_reserved":false,"is_disabled":false,"rental_uris":{"android":"levelo://app?vid=655b66a2-947a-4c93-bcb0-4b25db1964cb","ios":"levelo://app?vid=655b66a2-947a-4c93-bcb0-4b25db1964cb"},"vehicle_type_id":"4","last_reported":1781155828,"current_range_meters":6800,"station_id":"ce4bh2p2rcd13ifvqdi0","pricing_plan_id":"cebpf4jnsgd1na2vs0mg"},{"bike_id":"be1814a8-176c-47a3-ae51-e549d5714948","system_id":"levelo_inurba_marseille","lat":43.306,"lon":5.37203,"is_reserved":false,"is_disabled":false,"rental_uris":{"android":"levelo://app?vid=be1814a8-176c-47a3-ae51-e549d5714948","ios":"levelo://app?vid=be1814a8-176c-47a3-ae51-e549d5714948"},"vehicle_type_id":"4","last_reported":1781155828,"current_range_meters":6800,"station_id":"ce4bgqh2rcd13ifvqc4g","pricing_plan_id":"cebpf4jnsgd1na2vs0mg"},{"bike_id":"9fe7b9d4-4500-40c9-929b-9e81d9cfcfb4","system_id":"levelo_inurba_marseille","lat":43.26585,"lon":5.39023,"is_reserved":false,"is_disabled":false,"rental_uris":{"android":"levelo://app?vid=9fe7b9d4-4500-40c9-929b-9e81d9cfcfb4","ios":"levelo://app?vid=9fe7b9d4-4500-40c9-929b-9e81d9cfcfb4"},"vehicle_type_id":"4","last_reported":1781155828,"current_range_meters":6800,"station_id":"ce4bhe12rcd13ifvqf30","pricing_plan_id":"cebpf4jnsgd1na2vs0mg"},{"bike_id":"fcbb05bf-9861-4e7c-83bf-8b4944690c16","system_id":"levelo_inurba_marseille","lat":43.30801,"lon":5.38135,"is_reserved":false,"is_disabled":false,"rental_uris":{"android":"levelo://app?vid=fcbb05bf-9861-4e7c-83bf-8b4944690c16","ios":"levelo://app?vid=fcbb05bf-9861-4e7c-83bf-8b4944690c16"},"vehicle_type_id":"4","last_reported":1781155828,"current_range_meters":6800,"station_id":"ce4bgt12rcd13ifvqce0","pricing_plan_id":"cebpf4jnsgd1na2vs0mg"},{"bike_id":"82694181-4ba9-4ac6-ae71-4f691163966a","system_id":"levelo_inurba_marseille","lat":43.28939,"lon":5.36636,"is_reserved":false,"is_disabled":false,"rental_uris":{"android":"levelo://app?vid=82694181-4ba9-4ac6-ae71-4f691163966a","ios":"levelo://app?vid=82694181-4ba9-4ac6-ae71-4f691163966a"},"vehicle_type_id":"4","last_reported":1781155828,"current_range_meters":6800,"station_id":"ce4bhap2rcd13ifvqek0","pricing_plan_id":"cebpf4jnsgd1na2vs0mg"},{"bike_id":"627383c3-1ca4-4292-a0f0-c21bf7584678","system_id":"levelo_inurba_marseille","lat":43.28728,"lon":5.42708,"is_reserved":false,"is_disabled":false,"rental_uris":{"android":"levelo://app?vid=627383c3-1ca4-4292-a0f0-c21bf7584678","ios":"levelo://app?vid=627383c3-1ca4-4292-a0f0-c21bf7584678"},"vehicle_type_id":"4","last_reported":1781155828,"current_range_meters":6800,"station_id":"","pricing_plan_id":"cebpf4jnsgd1na2vs0mg"},{"bike_id":"36a2d6e6-0484-4278-b429-bb49a21e1b95","system_id":"levelo_inurba_marseille","lat":43.24799,"lon":5.37451,"is_reserved":false,"is_disabled":false,"rental_uris":{"android":"levelo://app?vid=36a2d6e6-0484-4278-b429-bb49a21e1b95","ios":"levelo://app?vid=36a2d6e6-0484-4278-b429-bb49a21e1b95"},"vehicle_type_id":"4","last_reported":1781155828,"current_range_meters":6800,"station_id":"ce4bhgh2rcd13ifvqfb0","pricing_plan_id":"cebpf4jnsgd1na2vs0mg"},{"bike_id":"abd88b7d-d8a1-4bad-8b2d-b08d04c54f45","system_id":"levelo_inurba_marseille","lat":43.30153,"lon":5.38077,"is_reserved":false,"is_disabled":false,"rental_uris":{"android":"levelo://app?vid=abd88b7d-d8a1-4bad-8b2d-b08d04c54f45","ios":"levelo://app?vid=abd88b7d-d8a1-4bad-8b2d-b08d04c54f45"},"vehicle_type_id":"4","last_reported":1781155828,"current_range_meters":6800,"station_id":"ce4bgjp2rcd13ifvqbh0","pricing_plan_id":"cebpf4jnsgd1na2vs0mg"},{"bike_id":"1d885001-881f-4c7a-ac86-1941adfead6e","system_id":"levelo_inurba_marseille","lat":43.25523,"lon":5.37701,"is_reserved":false,"is_disabled":false,"rental_uris":{"android":"levelo://app?vid=1d885001-881f-4c7a-ac86-1941adfead6e","ios":"levelo://app?vid=1d885001-881f-4c7a-ac86-1941adfead6e"},"vehicle_type_id":"4","last_reported":1781155828,"current_range_meters":6800,"station_id":"","pricing_plan_id":"cebpf4jnsgd1na2vs0mg"},{"bike_id":"9f45c17e-31c1-48e0-b1fa-f9280522fd60","system_id":"levelo_inurba_marseille","lat":43.24659,"lon":5.38173,"is_reserved":false,"is_disabled":false,"rental_uris":{"android":"levelo://app?vid=9f45c17e-31c1-48e0-b1fa-f9280522fd60","ios":"levelo://app?vid=9f45c17e-31c1-48e0-b1fa-f9280522fd60"},"vehicle_type_id":"4","last_reported":1781155828,"current_range_meters":6800,"station_id":"ce4bhih2rcd13ifvqfr0","pricing_plan_id":"cebpf4jnsgd1na2vs0mg"},{"bike_id":"10735159-3397-4800-83f9-6dea2cbec6ca","system_id":"levelo_inurba_marseille","lat":43.3354,"lon":5.37476,"is_reserved":false,"is_disabled":false,"rental_uris":{"android":"levelo://app?vid=10735159-3397-4800-83f9-6dea2cbec6ca","ios":"levelo://app?vid=10735159-3397-4800-83f9-6dea2cbec6ca"},"vehicle_type_id":"4","last_reported":1781155828,"current_range_meters":6800,"station_id":"st_d46tts09ee8s73dlu43g","pricing_plan_id":"cebpf4jnsgd1na2vs0mg"},{"bike_id":"2c9008ec-eff6-41b9-bff5-3d266d108cfb","system_id":"levelo_inurba_marseille","lat":43.30452,"lon":5.4152,"is_reserved":false,"is_disabled":false,"rental_uris":{"android":"levelo://app?vid=2c9008ec-eff6-41b9-bff5-3d266d108cfb","ios":"levelo://app?vid=2c9008ec-eff6-41b9-bff5-3d266d108cfb"},"vehicle_type_id":"4","last_reported":1781155828,"current_range_meters":6800,"station_id":"","pricing_plan_id":"cebpf4jnsgd1na2vs0mg"},{"bike_id":"810366c5-bb77-4ca7-981f-51c029a1c454","system_id":"levelo_inurba_marseille","lat":43.30652,"lon":5.39851,"is_reserved":false,"is_disabled":false,"rental_uris":{"android":"levelo://app?vid=810366c5-bb77-4ca7-981f-51c029a1c454","ios":"levelo://app?vid=810366c5-bb77-4ca7-981f-51c029a1c454"},"vehicle_type_id":"4","last_reported":1781155828,"current_range_meters":6800,"station_id":"","pricing_plan_id":"cebpf4jnsgd1na2vs0mg"},{"bike_id":"fadbe248-96f4-4da0-8a5e-bd3c6f824303","system_id":"levelo_inurba_marseille","lat":43.21196,"lon":5.35057,"is_reserved":false,"is_disabled":false,"rental_uris":{"android":"levelo://app?vid=fadbe248-96f4-4da0-8a5e-bd3c6f824303","ios":"levelo://app?vid=fadbe248-96f4-4da0-8a5e-bd3c6f824303"},"vehicle_type_id":"4","last_reported":1781155828,"current_range_meters":7200,"station_id":"st_cvj6sg6p6f1abm77japg","pricing_plan_id":"cebpf4jnsgd1na2vs0mg"},{"bike_id":"172575f4-60a1-49c0-aea1-545504653d27","system_id":"levelo_inurba_marseille","lat":43.31552,"lon":5.38861,"is_reserved":false,"is_disabled":false,"rental_uris":{"android":"levelo://app?vid=172575f4-60a1-49c0-aea1-545504653d27","ios":"levelo://app?vid=172575f4-60a1-49c0-aea1-545504653d27"},"vehicle_type_id":"4","last_reported":1781155828,"current_range_meters":7200,"station_id":"","pricing_plan_id":"cebpf4jnsgd1na2vs0mg"},{"bike_id":"cae47b58-43e2-495c-aab9-8274044b53a6","system_id":"levelo_inurba_marseille","lat":43.307365,"lon":5.424483,"is_reserved":false,"is_disabled":false,"rental_uris":{"android":"levelo://app?vid=cae47b58-43e2-495c-aab9-8274044b53a6","ios":"levelo://app?vid=cae47b58-43e2-495c-aab9-8274044b53a6"},"vehicle_type_id":"4","last_reported":1781155828,"current_range_meters":7200,"station_id":"st_cvj6ca6bvosntc0bfgr0","pricing_plan_id":"cebpf4jnsgd1na2vs0mg"},{"bike_id":"ab450d47-d293-44a6-8426-9362fe0e8737","system_id":"levelo_inurba_marseille","lat":43.2757,"lon":5.4334,"is_reserved":false,"is_disabled":false,"rental_uris":{"android":"levelo://app?vid=ab450d47-d293-44a6-8426-9362fe0e8737","ios":"levelo://app?vid=ab450d47-d293-44a6-8426-9362fe0e8737"},"vehicle_type_id":"4","last_reported":1781155828,"current_range_meters":7200,"station_id":"","pricing_plan_id":"cebpf4jnsgd1na2vs0mg"},{"bike_id":"00f8f761-6a2f-4810-8608-f3ec9bf82068","system_id":"levelo_inurba_marseille","lat":43.28483,"lon":5.38575,"is_reserved":false,"is_disabled":false,"rental_uris":{"android":"levelo://app?vid=00f8f761-6a2f-4810-8608-f3ec9bf82068","ios":"levelo://app?vid=00f8f761-6a2f-4810-8608-f3ec9bf82068"},"vehicle_type_id":"4","last_reported":1781155828,"current_range_meters":7200,"station_id":"ce4bh8p2rcd13ifvqeb0","pricing_plan_id":"cebpf4jnsgd1na2vs0mg"},{"bike_id":"b90e56c3-76e7-49da-ae74-c7deaeca993c","system_id":"levelo_inurba_marseille","lat":43.30793,"lon":5.37951,"is_reserved":false,"is_disabled":false,"rental_uris":{"android":"levelo://app?vid=b90e56c3-76e7-49da-ae74-c7deaeca993c","ios":"levelo://app?vid=b90e56c3-76e7-49da-ae74-c7deaeca993c"},"vehicle_type_id":"4","last_reported":1781155828,"current_range_meters":7200,"station_id":"","pricing_plan_id":"cebpf4jnsgd1na2vs0mg"},{"bike_id":"c28e5294-a285-4abe-a6c2-b058cc8e525e","system_id":"levelo_inurba_marseille","lat":43.2695,"lon":5.38625,"is_reserved":false,"is_disabled":true,"rental_uris":{"android":"levelo://app?vid=c28e5294-a285-4abe-a6c2-b058cc8e525e","ios":"levelo://app?vid=c28e5294-a285-4abe-a6c2-b058cc8e525e"},"vehicle_type_id":"4","last_reported":1781155828,"current_range_meters":7200,"station_id":"ce4bhh92rcd13ifvqfh0","pricing_plan_id":"cebpf4jnsgd1na2vs0mg"},{"bike_id":"be77b39f-fc98-4801-b472-ab2c645d167e","system_id":"levelo_inurba_marseille","lat":43.30931,"lon":5.40142,"is_reserved":false,"is_disabled":false,"rental_uris":{"android":"levelo://app?vid=be77b39f-fc98-4801-b472-ab2c645d167e","ios":"levelo://app?vid=be77b39f-fc98-4801-b472-ab2c645d167e"},"vehicle_type_id":"4","last_reported":1781155828,"current_range_meters":7200,"station_id":"ce4bgvp2rcd13ifvqct0","pricing_plan_id":"cebpf4jnsgd1na2vs0mg"},{"bike_id":"a1c015e9-3e11-46f0-b642-1fa3036dfa73","system_id":"levelo_inurba_marseille","lat":43.33166,"lon":5.37678,"is_reserved":false,"is_disabled":false,"rental_uris":{"android":"levelo://app?vid=a1c015e9-3e11-46f0-b642-1fa3036dfa73","ios":"levelo://app?vid=a1c015e9-3e11-46f0-b642-1fa3036dfa73"},"vehicle_type_id":"4","last_reported":1781155828,"current_range_meters":7200,"station_id":"st_d46cu089ee8s73dldbu0","pricing_plan_id":"cebpf4jnsgd1na2vs0mg"},{"bike_id":"d2f35c37-cdb6-41c9-a2ae-058109bc0ab1","system_id":"levelo_inurba_marseille","lat":43.290396,"lon":5.399604,"is_reserved":false,"is_disabled":false,"rental_uris":{"android":"levelo://app?vid=d2f35c37-cdb6-41c9-a2ae-058109bc0ab1","ios":"levelo://app?vid=d2f35c37-cdb6-41c9-a2ae-058109bc0ab1"},"vehicle_type_id":"4","last_reported":1781155828,"current_range_meters":7200,"station_id":"st_d4a7ka997mjs738ck50g","pricing_plan_id":"cebpf4jnsgd1na2vs0mg"},{"bike_id":"becf7538-a49a-47b2-898c-da691a16b228","system_id":"levelo_inurba_marseille","lat":43.29048,"lon":5.35894,"is_reserved":false,"is_disabled":true,"rental_uris":{"android":"levelo://app?vid=becf7538-a49a-47b2-898c-da691a16b228","ios":"levelo://app?vid=becf7538-a49a-47b2-898c-da691a16b228"},"vehicle_type_id":"4","last_reported":1781155828,"current_range_meters":7200,"station_id":"ce4bha92rcd13ifvqeg0","pricing_plan_id":"cebpf4jnsgd1na2vs0mg"},{"bike_id":"5ec0d57f-d887-4090-9a74-fd0a0c71d0b3","system_id":"levelo_inurba_marseille","lat":43.25578,"lon":5.38235,"is_reserved":false,"is_disabled":false,"rental_uris":{"android":"levelo://app?vid=5ec0d57f-d887-4090-9a74-fd0a0c71d0b3","ios":"levelo://app?vid=5ec0d57f-d887-4090-9a74-fd0a0c71d0b3"},"vehicle_type_id":"4","last_reported":1781155828,"current_range_meters":7200,"station_id":"ce4bhih2rcd13ifvqfs0","pricing_plan_id":"cebpf4jnsgd1na2vs0mg"},{"bike_id":"a4b00031-ee09-4aec-8eb7-94d1603e3e96","system_id":"levelo_inurba_marseille","lat":43.32109,"lon":5.36763,"is_reserved":false,"is_disabled":false,"rental_uris":{"android":"levelo://app?vid=a4b00031-ee09-4aec-8eb7-94d1603e3e96","ios":"levelo://app?vid=a4b00031-ee09-4aec-8eb7-94d1603e3e96"},"vehicle_type_id":"4","last_reported":1781155828,"current_range_meters":7200,"station_id":"ce4bhrh2rcd13ifvqhug","pricing_plan_id":"cebpf4jnsgd1na2vs0mg"},{"bike_id":"db9eac72-933b-481e-ab72-f5fd609c0023","system_id":"levelo_inurba_marseille","lat":43.30307,"lon":5.39211,"is_reserved":false,"is_disabled":false,"rental_uris":{"android":"levelo://app?vid=db9eac72-933b-481e-ab72-f5fd609c0023","ios":"levelo://app?vid=db9eac72-933b-481e-ab72-f5fd609c0023"},"vehicle_type_id":"4","last_reported":1781155828,"current_range_meters":7200,"station_id":"ce4bgkh2rcd13ifvqbk0","pricing_plan_id":"cebpf4jnsgd1na2vs0mg"},{"bike_id":"4447eedc-956a-4b06-9e3d-6d7cc4b464d5","system_id":"levelo_inurba_marseille","lat":43.2927,"lon":5.36837,"is_reserved":false,"is_disabled":true,"rental_uris":{"android":"levelo://app?vid=4447eedc-956a-4b06-9e3d-6d7cc4b464d5","ios":"levelo://app?vid=4447eedc-956a-4b06-9e3d-6d7cc4b464d5"},"vehicle_type_id":"4","last_reported":1781155828,"current_range_meters":7200,"station_id":"ce4bhbp2rcd13ifvqesg","pricing_plan_id":"cebpf4jnsgd1na2vs0mg"},{"bike_id":"d0b6f97d-392b-4355-9f32-cf4ba73fb823","system_id":"levelo_inurba_marseille","lat":43.21196,"lon":5.35071,"is_reserved":false,"is_disabled":false,"rental_uris":{"android":"levelo://app?vid=d0b6f97d-392b-4355-9f32-cf4ba73fb823","ios":"levelo://app?vid=d0b6f97d-392b-4355-9f32-cf4ba73fb823"},"vehicle_type_id":"4","last_reported":1781155828,"current_range_meters":7200,"station_id":"st_cvj6sg6p6f1abm77japg","pricing_plan_id":"cebpf4jnsgd1na2vs0mg"},{"bike_id":"74d62127-e1b5-4940-a48e-e9ea7928adf0","system_id":"levelo_inurba_marseille","lat":43.30817,"lon":5.41275,"is_reserved":false,"is_disabled":false,"rental_uris":{"android":"levelo://app?vid=74d62127-e1b5-4940-a48e-e9ea7928adf0","ios":"levelo://app?vid=74d62127-e1b5-4940-a48e-e9ea7928adf0"},"vehicle_type_id":"4","last_reported":1781155828,"current_range_meters":7200,"station_id":"","pricing_plan_id":"cebpf4jnsgd1na2vs0mg"},{"bike_id":"817d6002-22a4-40b0-8438-25534d030abd","system_id":"levelo_inurba_marseille","lat":43.31326,"lon":5.39701,"is_reserved":false,"is_disabled":false,"rental_uris":{"android":"levelo://app?vid=817d6002-22a4-40b0-8438-25534d030abd","ios":"levelo://app?vid=817d6002-22a4-40b0-8438-25534d030abd"},"vehicle_type_id":"4","last_reported":1781155828,"current_range_meters":7200,"station_id":"ce4bgvp2rcd13ifvqcu0","pricing_plan_id":"cebpf4jnsgd1na2vs0mg"},{"bike_id":"b01d1429-d775-4212-bddf-9c70789e9cdc","system_id":"levelo_inurba_marseille","lat":43.28612,"lon":5.39874,"is_reserved":false,"is_disabled":false,"rental_uris":{"android":"levelo://app?vid=b01d1429-d775-4212-bddf-9c70789e9cdc","ios":"levelo://app?vid=b01d1429-d775-4212-bddf-9c70789e9cdc"},"vehicle_type_id":"4","last_reported":1781155828,"current_range_meters":7200,"station_id":"st_d4a7ka997mjs738ck50g","pricing_plan_id":"cebpf4jnsgd1na2vs0mg"},{"bike_id":"024a7271-335c-4907-8e50-95404b45e921","system_id":"levelo_inurba_marseille","lat":43.25087,"lon":5.39516,"is_reserved":false,"is_disabled":false,"rental_uris":{"android":"levelo://app?vid=024a7271-335c-4907-8e50-95404b45e921","ios":"levelo://app?vid=024a7271-335c-4907-8e50-95404b45e921"},"vehicle_type_id":"4","last_reported":1781155828,"current_range_meters":7200,"station_id":"ce4bhm12rcd13ifvqgkg","pricing_plan_id":"cebpf4jnsgd1na2vs0mg"},{"bike_id":"2a25c068-8bed-4a95-be62-5f89bd4a2a2b","system_id":"levelo_inurba_marseille","lat":43.23158,"lon":5.43711,"is_reserved":false,"is_disabled":false,"rental_uris":{"android":"levelo://app?vid=2a25c068-8bed-4a95-be62-5f89bd4a2a2b","ios":"levelo://app?vid=2a25c068-8bed-4a95-be62-5f89bd4a2a2b"},"vehicle_type_id":"4","last_reported":1781155828,"current_range_meters":7200,"station_id":"ce4bhmp2rcd13ifvqgog","pricing_plan_id":"cebpf4jnsgd1na2vs0mg"},{"bike_id":"03a7a031-8468-4601-8184-85ebd1c11bea","system_id":"levelo_inurba_marseille","lat":43.31618,"lon":5.3837,"is_reserved":false,"is_disabled":false,"rental_uris":{"android":"levelo://app?vid=03a7a031-8468-4601-8184-85ebd1c11bea","ios":"levelo://app?vid=03a7a031-8468-4601-8184-85ebd1c11bea"},"vehicle_type_id":"4","last_reported":1781155828,"current_range_meters":8000,"station_id":"","pricing_plan_id":"cebpf4jnsgd1na2vs0mg"},{"bike_id":"827450c9-d29c-412a-bc7a-3cb46980caf7","system_id":"levelo_inurba_marseille","lat":43.28852,"lon":5.3931,"is_reserved":false,"is_disabled":false,"rental_uris":{"android":"levelo://app?vid=827450c9-d29c-412a-bc7a-3cb46980caf7","ios":"levelo://app?vid=827450c9-d29c-412a-bc7a-3cb46980caf7"},"vehicle_type_id":"4","last_reported":1781155828,"current_range_meters":8000,"station_id":"ce4bh2p2rcd13ifvqdi0","pricing_plan_id":"cebpf4jnsgd1na2vs0mg"},{"bike_id":"2edd0c56-afc7-4272-8fba-4916f3cda995","system_id":"levelo_inurba_marseille","lat":43.313249,"lon":5.396847,"is_reserved":false,"is_disabled":false,"rental_uris":{"android":"levelo://app?vid=2edd0c56-afc7-4272-8fba-4916f3cda995","ios":"levelo://app?vid=2edd0c56-afc7-4272-8fba-4916f3cda995"},"vehicle_type_id":"4","last_reported":1781155828,"current_range_meters":8000,"station_id":"ce4bgvp2rcd13ifvqcu0","pricing_plan_id":"cebpf4jnsgd1na2vs0mg"},{"bike_id":"20853355-0c32-4458-8252-d63fe5f6288e","system_id":"levelo_inurba_marseille","lat":43.31274,"lon":5.3841,"is_reserved":false,"is_disabled":false,"rental_uris":{"android":"levelo://app?vid=20853355-0c32-4458-8252-d63fe5f6288e","ios":"levelo://app?vid=20853355-0c32-4458-8252-d63fe5f6288e"},"vehicle_type_id":"4","last_reported":1781155828,"current_range_meters":8000,"station_id":"","pricing_plan_id":"cebpf4jnsgd1na2vs0mg"},{"bike_id":"604b767f-1605-4201-aa7d-1d0f99ed4217","system_id":"levelo_inurba_marseille","lat":43.28222,"lon":5.39056,"is_reserved":false,"is_disabled":false,"rental_uris":{"android":"levelo://app?vid=604b767f-1605-4201-aa7d-1d0f99ed4217","ios":"levelo://app?vid=604b767f-1605-4201-aa7d-1d0f99ed4217"},"vehicle_type_id":"4","last_reported":1781155828,"current_range_meters":8000,"station_id":"ce4bhn92rcd13ifvqgsg","pricing_plan_id":"cebpf4jnsgd1na2vs0mg"},{"bike_id":"405615ca-a7e6-4e69-9ef9-7b44c801363a","system_id":"levelo_inurba_marseille","lat":43.30142,"lon":5.3988,"is_reserved":false,"is_disabled":false,"rental_uris":{"android":"levelo://app?vid=405615ca-a7e6-4e69-9ef9-7b44c801363a","ios":"levelo://app?vid=405615ca-a7e6-4e69-9ef9-7b44c801363a"},"vehicle_type_id":"4","last_reported":1781155828,"current_range_meters":8000,"station_id":"ce4bh0h2rcd13ifvqd40","pricing_plan_id":"cebpf4jnsgd1na2vs0mg"},{"bike_id":"a305566b-67c9-4d60-9a2d-97c6102e9bb3","system_id":"levelo_inurba_marseille","lat":43.27566,"lon":5.38434,"is_reserved":false,"is_disabled":false,"rental_uris":{"android":"levelo://app?vid=a305566b-67c9-4d60-9a2d-97c6102e9bb3","ios":"levelo://app?vid=a305566b-67c9-4d60-9a2d-97c6102e9bb3"},"vehicle_type_id":"4","last_reported":1781155828,"current_range_meters":8000,"station_id":"ce4bhh92rcd13ifvqfi0","pricing_plan_id":"cebpf4jnsgd1na2vs0mg"},{"bike_id":"9634c414-240c-4fff-a9df-d2619a6ec22c","system_id":"levelo_inurba_marseille","lat":43.2706,"lon":5.38304,"is_reserved":false,"is_disabled":false,"rental_uris":{"android":"levelo://app?vid=9634c414-240c-4fff-a9df-d2619a6ec22c","ios":"levelo://app?vid=9634c414-240c-4fff-a9df-d2619a6ec22c"},"vehicle_type_id":"4","last_reported":1781155828,"current_range_meters":8000,"station_id":"st_d3n2fo6cfp8s73cte1j0","pricing_plan_id":"cebpf4jnsgd1na2vs0mg"},{"bike_id":"b569ede8-3e87-47c5-b518-48de1494cd35","system_id":"levelo_inurba_marseille","lat":43.269983,"lon":5.393043,"is_reserved":false,"is_disabled":false,"rental_uris":{"android":"levelo://app?vid=b569ede8-3e87-47c5-b518-48de1494cd35","ios":"levelo://app?vid=b569ede8-3e87-47c5-b518-48de1494cd35"},"vehicle_type_id":"4","last_reported":1781155828,"current_range_meters":8000,"station_id":"ce4bhhp2rcd13ifvqfm0","pricing_plan_id":"cebpf4jnsgd1na2vs0mg"},{"bike_id":"7940b7b5-8638-49cd-86d9-15287edc4b1c","system_id":"levelo_inurba_marseille","lat":43.26233,"lon":5.38756,"is_reserved":false,"is_disabled":false,"rental_uris":{"android":"levelo://app?vid=7940b7b5-8638-49cd-86d9-15287edc4b1c","ios":"levelo://app?vid=7940b7b5-8638-49cd-86d9-15287edc4b1c"},"vehicle_type_id":"4","last_reported":1781155828,"current_range_meters":8000,"station_id":"st_d8gjfg747rts73coq3b0","pricing_plan_id":"cebpf4jnsgd1na2vs0mg"},{"bike_id":"7c131e63-4882-494d-814c-185065bffc7c","system_id":"levelo_inurba_marseille","lat":43.28473,"lon":5.48393,"is_reserved":false,"is_disabled":false,"rental_uris":{"android":"levelo://app?vid=7c131e63-4882-494d-814c-185065bffc7c","ios":"levelo://app?vid=7c131e63-4882-494d-814c-185065bffc7c"},"vehicle_type_id":"4","last_reported":1781155828,"current_range_meters":8000,"station_id":"st_d3svhcjqgbts73a3dn0g","pricing_plan_id":"cebpf4jnsgd1na2vs0mg"},{"bike_id":"72596ebd-ea6d-4b6d-968a-acb42e5b04cf","system_id":"levelo_inurba_marseille","lat":43.2961,"lon":5.37909,"is_reserved":false,"is_disabled":false,"rental_uris":{"android":"levelo://app?vid=72596ebd-ea6d-4b6d-968a-acb42e5b04cf","ios":"levelo://app?vid=72596ebd-ea6d-4b6d-968a-acb42e5b04cf"},"vehicle_type_id":"4","last_reported":1781155828,"current_range_meters":8000,"station_id":"","pricing_plan_id":"cebpf4jnsgd1na2vs0mg"},{"bike_id":"4343f291-38b8-47e7-a883-039a0fd0f77e","system_id":"levelo_inurba_marseille","lat":43.3211,"lon":5.36759,"is_reserved":false,"is_disabled":false,"rental_uris":{"android":"levelo://app?vid=4343f291-38b8-47e7-a883-039a0fd0f77e","ios":"levelo://app?vid=4343f291-38b8-47e7-a883-039a0fd0f77e"},"vehicle_type_id":"4","last_reported":1781155828,"current_range_meters":8000,"station_id":"ce4bhrh2rcd13ifvqhug","pricing_plan_id":"cebpf4jnsgd1na2vs0mg"},{"bike_id":"a384c101-de5e-4857-925c-516c7f23b3ab","system_id":"levelo_inurba_marseille","lat":43.28619,"lon":5.35112,"is_reserved":false,"is_disabled":false,"rental_uris":{"android":"levelo://app?vid=a384c101-de5e-4857-925c-516c7f23b3ab","ios":"levelo://app?vid=a384c101-de5e-4857-925c-516c7f23b3ab"},"vehicle_type_id":"4","last_reported":1781155828,"current_range_meters":8000,"station_id":"ce4bhch2rcd13ifvqeug","pricing_plan_id":"cebpf4jnsgd1na2vs0mg"},{"bike_id":"cf061b85-7a5f-4df9-9f01-b0768f07b7a0","system_id":"levelo_inurba_marseille","lat":43.30788,"lon":5.37659,"is_reserved":false,"is_disabled":false,"rental_uris":{"android":"levelo://app?vid=cf061b85-7a5f-4df9-9f01-b0768f07b7a0","ios":"levelo://app?vid=cf061b85-7a5f-4df9-9f01-b0768f07b7a0"},"vehicle_type_id":"4","last_reported":1781155828,"current_range_meters":8000,"station_id":"ce4bgv92rcd13ifvqcq0","pricing_plan_id":"cebpf4jnsgd1na2vs0mg"},{"bike_id":"b6156383-23f9-4130-af4b-3240f755ca4a","system_id":"levelo_inurba_marseille","lat":43.30646,"lon":5.40104,"is_reserved":false,"is_disabled":false,"rental_uris":{"android":"levelo://app?vid=b6156383-23f9-4130-af4b-3240f755ca4a","ios":"levelo://app?vid=b6156383-23f9-4130-af4b-3240f755ca4a"},"vehicle_type_id":"4","last_reported":1781155828,"current_range_meters":8000,"station_id":"ce4bh112rcd13ifvqda0","pricing_plan_id":"cebpf4jnsgd1na2vs0mg"},{"bike_id":"ea83f12e-2e69-4bb2-8785-19597977ac3f","system_id":"levelo_inurba_marseille","lat":43.22543,"lon":5.34812,"is_reserved":false,"is_disabled":false,"rental_uris":{"android":"levelo://app?vid=ea83f12e-2e69-4bb2-8785-19597977ac3f","ios":"levelo://app?vid=ea83f12e-2e69-4bb2-8785-19597977ac3f"},"vehicle_type_id":"4","last_reported":1781155828,"current_range_meters":8000,"station_id":"st_cvj5dfep6f1abm77gieg","pricing_plan_id":"cebpf4jnsgd1na2vs0mg"},{"bike_id":"9fb4c5c8-d5b8-4788-8a31-0b9d29a7f438","system_id":"levelo_inurba_marseille","lat":43.28232,"lon":5.39034,"is_reserved":false,"is_disabled":false,"rental_uris":{"android":"levelo://app?vid=9fb4c5c8-d5b8-4788-8a31-0b9d29a7f438","ios":"levelo://app?vid=9fb4c5c8-d5b8-4788-8a31-0b9d29a7f438"},"vehicle_type_id":"4","last_reported":1781155828,"current_range_meters":8000,"station_id":"ce4bhn92rcd13ifvqgsg","pricing_plan_id":"cebpf4jnsgd1na2vs0mg"},{"bike_id":"8682f4e8-0798-4b4f-8fef-c4dc002ea1c8","system_id":"levelo_inurba_marseille","lat":43.2914,"lon":5.46106,"is_reserved":false,"is_disabled":false,"rental_uris":{"android":"levelo://app?vid=8682f4e8-0798-4b4f-8fef-c4dc002ea1c8","ios":"levelo://app?vid=8682f4e8-0798-4b4f-8fef-c4dc002ea1c8"},"vehicle_type_id":"4","last_reported":1781155828,"current_range_meters":8000,"station_id":"","pricing_plan_id":"cebpf4jnsgd1na2vs0mg"},{"bike_id":"9024bbd8-6bc1-4274-88b5-1bef94c94591","system_id":"levelo_inurba_marseille","lat":43.26566,"lon":5.39008,"is_reserved":false,"is_disabled":false,"rental_uris":{"android":"levelo://app?vid=9024bbd8-6bc1-4274-88b5-1bef94c94591","ios":"levelo://app?vid=9024bbd8-6bc1-4274-88b5-1bef94c94591"},"vehicle_type_id":"4","last_reported":1781155828,"current_range_meters":8000,"station_id":"ce4bhe12rcd13ifvqf30","pricing_plan_id":"cebpf4jnsgd1na2vs0mg"},{"bike_id":"52571cc2-49cd-465e-824e-c38930dc7e28","system_id":"levelo_inurba_marseille","lat":43.24645,"lon":5.38158,"is_reserved":false,"is_disabled":false,"rental_uris":{"android":"levelo://app?vid=52571cc2-49cd-465e-824e-c38930dc7e28","ios":"levelo://app?vid=52571cc2-49cd-465e-824e-c38930dc7e28"},"vehicle_type_id":"4","last_reported":1781155828,"current_range_meters":8000,"station_id":"ce4bhih2rcd13ifvqfr0","pricing_plan_id":"cebpf4jnsgd1na2vs0mg"},{"bike_id":"b41976db-bf44-46db-bd91-c5b3de590a30","system_id":"levelo_inurba_marseille","lat":43.22534,"lon":5.34831,"is_reserved":false,"is_disabled":false,"rental_uris":{"android":"levelo://app?vid=b41976db-bf44-46db-bd91-c5b3de590a30","ios":"levelo://app?vid=b41976db-bf44-46db-bd91-c5b3de590a30"},"vehicle_type_id":"4","last_reported":1781155828,"current_range_meters":8000,"station_id":"st_cvj5dfep6f1abm77gieg","pricing_plan_id":"cebpf4jnsgd1na2vs0mg"},{"bike_id":"0e712a67-6cb3-4982-b7ab-b4114beb9158","system_id":"levelo_inurba_marseille","lat":43.24952,"lon":5.40482,"is_reserved":false,"is_disabled":false,"rental_uris":{"android":"levelo://app?vid=0e712a67-6cb3-4982-b7ab-b4114beb9158","ios":"levelo://app?vid=0e712a67-6cb3-4982-b7ab-b4114beb9158"},"vehicle_type_id":"4","last_reported":1781155828,"current_range_meters":8000,"station_id":"st_d2ngiaodas8pm72gd1h0","pricing_plan_id":"cebpf4jnsgd1na2vs0mg"},{"bike_id":"cc9a61c7-3d4c-4d7c-a62b-d6778360c9f2","system_id":"levelo_inurba_marseille","lat":43.24187,"lon":5.39718,"is_reserved":false,"is_disabled":false,"rental_uris":{"android":"levelo://app?vid=cc9a61c7-3d4c-4d7c-a62b-d6778360c9f2","ios":"levelo://app?vid=cc9a61c7-3d4c-4d7c-a62b-d6778360c9f2"},"vehicle_type_id":"4","last_reported":1781155828,"current_range_meters":8000,"station_id":"ce4bhn12rcd13ifvqgpg","pricing_plan_id":"cebpf4jnsgd1na2vs0mg"},{"bike_id":"8369abbd-c3fb-412a-8d1a-49e51529efce","system_id":"levelo_inurba_marseille","lat":43.3014,"lon":5.37422,"is_reserved":false,"is_disabled":true,"rental_uris":{"android":"levelo://app?vid=8369abbd-c3fb-412a-8d1a-49e51529efce","ios":"levelo://app?vid=8369abbd-c3fb-412a-8d1a-49e51529efce"},"vehicle_type_id":"4","last_reported":1781155828,"current_range_meters":8400,"station_id":"ce4bgs92rcd13ifvqcc0","pricing_plan_id":"cebpf4jnsgd1na2vs0mg"},{"bike_id":"18c76cdd-8c55-4ae2-8cdd-582cfa98e23e","system_id":"levelo_inurba_marseille","lat":43.30539,"lon":5.36552,"is_reserved":false,"is_disabled":true,"rental_uris":{"android":"levelo://app?vid=18c76cdd-8c55-4ae2-8cdd-582cfa98e23e","ios":"levelo://app?vid=18c76cdd-8c55-4ae2-8cdd-582cfa98e23e"},"vehicle_type_id":"4","last_reported":1781155828,"current_range_meters":8400,"station_id":"ce4bgs12rcd13ifvqcag","pricing_plan_id":"cebpf4jnsgd1na2vs0mg"},{"bike_id":"41f77c62-b267-4e4a-b4c6-3c069448ad80","system_id":"levelo_inurba_marseille","lat":43.29208,"lon":5.3934,"is_reserved":false,"is_disabled":false,"rental_uris":{"android":"levelo://app?vid=41f77c62-b267-4e4a-b4c6-3c069448ad80","ios":"levelo://app?vid=41f77c62-b267-4e4a-b4c6-3c069448ad80"},"vehicle_type_id":"4","last_reported":1781155828,"current_range_meters":8400,"station_id":"ce4bh192rcd13ifvqdd0","pricing_plan_id":"cebpf4jnsgd1na2vs0mg"},{"bike_id":"91f57b43-fef8-4751-ade7-b776093b8207","system_id":"levelo_inurba_marseille","lat":43.24434,"lon":5.37042,"is_reserved":false,"is_disabled":false,"rental_uris":{"android":"levelo://app?vid=91f57b43-fef8-4751-ade7-b776093b8207","ios":"levelo://app?vid=91f57b43-fef8-4751-ade7-b776093b8207"},"vehicle_type_id":"4","last_reported":1781155828,"current_range_meters":8400,"station_id":"","pricing_plan_id":"cebpf4jnsgd1na2vs0mg"},{"bike_id":"b6f22122-0e8a-4b38-8dd5-af3325c2effb","system_id":"levelo_inurba_marseille","lat":43.25053,"lon":5.39506,"is_reserved":false,"is_disabled":false,"rental_uris":{"android":"levelo://app?vid=b6f22122-0e8a-4b38-8dd5-af3325c2effb","ios":"levelo://app?vid=b6f22122-0e8a-4b38-8dd5-af3325c2effb"},"vehicle_type_id":"4","last_reported":1781155828,"current_range_meters":8400,"station_id":"ce4bhm12rcd13ifvqgkg","pricing_plan_id":"cebpf4jnsgd1na2vs0mg"},{"bike_id":"0c1dc458-878c-4ebd-912e-32a6863822de","system_id":"levelo_inurba_marseille","lat":43.2706,"lon":5.42272,"is_reserved":false,"is_disabled":true,"rental_uris":{"android":"levelo://app?vid=0c1dc458-878c-4ebd-912e-32a6863822de","ios":"levelo://app?vid=0c1dc458-878c-4ebd-912e-32a6863822de"},"vehicle_type_id":"4","last_reported":1781155828,"current_range_meters":8400,"station_id":"ce4bhk92rcd13ifvqgb0","pricing_plan_id":"cebpf4jnsgd1na2vs0mg"},{"bike_id":"35b048a7-e18a-45e3-af10-0f69baf1889c","system_id":"levelo_inurba_marseille","lat":43.23193,"lon":5.35557,"is_reserved":false,"is_disabled":false,"rental_uris":{"android":"levelo://app?vid=35b048a7-e18a-45e3-af10-0f69baf1889c","ios":"levelo://app?vid=35b048a7-e18a-45e3-af10-0f69baf1889c"},"vehicle_type_id":"4","last_reported":1781155828,"current_range_meters":8400,"station_id":"ce4bhu92rcd13ifvqi70","pricing_plan_id":"cebpf4jnsgd1na2vs0mg"},{"bike_id":"e76b8826-608a-43d5-84ee-3eea9bc7666f","system_id":"levelo_inurba_marseille","lat":43.28441,"lon":5.3955,"is_reserved":false,"is_disabled":false,"rental_uris":{"android":"levelo://app?vid=e76b8826-608a-43d5-84ee-3eea9bc7666f","ios":"levelo://app?vid=e76b8826-608a-43d5-84ee-3eea9bc7666f"},"vehicle_type_id":"4","last_reported":1781155828,"current_range_meters":8400,"station_id":"","pricing_plan_id":"cebpf4jnsgd1na2vs0mg"},{"bike_id":"096d6001-d632-4984-a8c4-66585906260e","system_id":"levelo_inurba_marseille","lat":43.27934,"lon":5.39561,"is_reserved":false,"is_disabled":false,"rental_uris":{"android":"levelo://app?vid=096d6001-d632-4984-a8c4-66585906260e","ios":"levelo://app?vid=096d6001-d632-4984-a8c4-66585906260e"},"vehicle_type_id":"4","last_reported":1781155828,"current_range_meters":8400,"station_id":"ce4bhf92rcd13ifvqf40","pricing_plan_id":"cebpf4jnsgd1na2vs0mg"},{"bike_id":"7a2582a1-9f4e-4b77-a662-c666529e13ef","system_id":"levelo_inurba_marseille","lat":43.28053,"lon":5.35003,"is_reserved":false,"is_disabled":false,"rental_uris":{"android":"levelo://app?vid=7a2582a1-9f4e-4b77-a662-c666529e13ef","ios":"levelo://app?vid=7a2582a1-9f4e-4b77-a662-c666529e13ef"},"vehicle_type_id":"4","last_reported":1781155828,"current_range_meters":8400,"station_id":"","pricing_plan_id":"cebpf4jnsgd1na2vs0mg"},{"bike_id":"8b7f23fc-1e65-43c2-998e-b3ee6ddf07c7","system_id":"levelo_inurba_marseille","lat":43.30141,"lon":5.37495,"is_reserved":false,"is_disabled":false,"rental_uris":{"android":"levelo://app?vid=8b7f23fc-1e65-43c2-998e-b3ee6ddf07c7","ios":"levelo://app?vid=8b7f23fc-1e65-43c2-998e-b3ee6ddf07c7"},"vehicle_type_id":"4","last_reported":1781155828,"current_range_meters":8400,"station_id":"","pricing_plan_id":"cebpf4jnsgd1na2vs0mg"},{"bike_id":"cc474a1a-11ae-4d69-975a-b4b7c2ba9dbc","system_id":"levelo_inurba_marseille","lat":43.23151,"lon":5.43708,"is_reserved":false,"is_disabled":false,"rental_uris":{"android":"levelo://app?vid=cc474a1a-11ae-4d69-975a-b4b7c2ba9dbc","ios":"levelo://app?vid=cc474a1a-11ae-4d69-975a-b4b7c2ba9dbc"},"vehicle_type_id":"4","last_reported":1781155828,"current_range_meters":8400,"station_id":"ce4bhmp2rcd13ifvqgog","pricing_plan_id":"cebpf4jnsgd1na2vs0mg"},{"bike_id":"40de0209-043c-4ed6-84c3-7ac1da5cf58d","system_id":"levelo_inurba_marseille","lat":43.32079,"lon":5.36757,"is_reserved":false,"is_disabled":false,"rental_uris":{"android":"levelo://app?vid=40de0209-043c-4ed6-84c3-7ac1da5cf58d","ios":"levelo://app?vid=40de0209-043c-4ed6-84c3-7ac1da5cf58d"},"vehicle_type_id":"4","last_reported":1781155828,"current_range_meters":8400,"station_id":"ce4bhrh2rcd13ifvqhug","pricing_plan_id":"cebpf4jnsgd1na2vs0mg"},{"bike_id":"8859d173-9f5d-4e39-86ed-34ec86a90175","system_id":"levelo_inurba_marseille","lat":43.29909,"lon":5.42779,"is_reserved":false,"is_disabled":false,"rental_uris":{"android":"levelo://app?vid=8859d173-9f5d-4e39-86ed-34ec86a90175","ios":"levelo://app?vid=8859d173-9f5d-4e39-86ed-34ec86a90175"},"vehicle_type_id":"4","last_reported":1781155828,"current_range_meters":8400,"station_id":"","pricing_plan_id":"cebpf4jnsgd1na2vs0mg"},{"bike_id":"551721cc-4abe-415c-b408-9f461dd4b762","system_id":"levelo_inurba_marseille","lat":43.24363,"lon":5.37062,"is_reserved":false,"is_disabled":false,"rental_uris":{"android":"levelo://app?vid=551721cc-4abe-415c-b408-9f461dd4b762","ios":"levelo://app?vid=551721cc-4abe-415c-b408-9f461dd4b762"},"vehicle_type_id":"4","last_reported":1781155828,"current_range_meters":8400,"station_id":"ce4bhhh2rcd13ifvqfk0","pricing_plan_id":"cebpf4jnsgd1na2vs0mg"},{"bike_id":"18942700-0945-449b-a777-15fb67ff0026","system_id":"levelo_inurba_marseille","lat":43.29574,"lon":5.39967,"is_reserved":false,"is_disabled":false,"rental_uris":{"android":"levelo://app?vid=18942700-0945-449b-a777-15fb67ff0026","ios":"levelo://app?vid=18942700-0945-449b-a777-15fb67ff0026"},"vehicle_type_id":"4","last_reported":1781155828,"current_range_meters":8400,"station_id":"ce4bh312rcd13ifvqdj0","pricing_plan_id":"cebpf4jnsgd1na2vs0mg"},{"bike_id":"83144996-3acf-43de-801a-762831fb6732","system_id":"levelo_inurba_marseille","lat":43.29437,"lon":5.39749,"is_reserved":false,"is_disabled":false,"rental_uris":{"android":"levelo://app?vid=83144996-3acf-43de-801a-762831fb6732","ios":"levelo://app?vid=83144996-3acf-43de-801a-762831fb6732"},"vehicle_type_id":"4","last_reported":1781155828,"current_range_meters":8400,"station_id":"ce4bh3h2rcd13ifvqdo0","pricing_plan_id":"cebpf4jnsgd1na2vs0mg"},{"bike_id":"e78362e3-b674-4de9-b04e-dad96ee3c7eb","system_id":"levelo_inurba_marseille","lat":43.28734,"lon":5.36082,"is_reserved":false,"is_disabled":false,"rental_uris":{"android":"levelo://app?vid=e78362e3-b674-4de9-b04e-dad96ee3c7eb","ios":"levelo://app?vid=e78362e3-b674-4de9-b04e-dad96ee3c7eb"},"vehicle_type_id":"4","last_reported":1781155828,"current_range_meters":8400,"station_id":"cki0cbj6b192h4jlfktg","pricing_plan_id":"cebpf4jnsgd1na2vs0mg"},