{"last_updated":1699715152,"ttl":30,"version":"2.2","data":{"bikes":[{"bike_id":"72137045-379c-4b57-b82f-58aa50d10b32","system_id":"levelo_inurba_marseille","lat":43.31341,"lon":5.367098,"is_reserved":false,"is_disabled":false,"rental_uris":{"android":"levelo://app?vid=72137045-379c-4b57-b82f-58aa50d10b32","ios":"levelo://app?vid=72137045-379c-4b57-b82f-58aa50d10b32"},"vehicle_type_id":"4","last_reported":1699715152,"current_range_meters":28000,"station_id":"ce4bgr92rcd13ifvqc6g","pricing_plan_id":"free"},{"bike_id":"25b6a399-a318-47c5-8745-40352c9c9869","system_id":"levelo_inurba_marseille","lat":43.312239,"lon":5.368562,"is_reserved":false,"is_disabled":false,"rental_uris":{"android":"levelo://app?vid=25b6a399-a318-47c5-8745-40352c9c9869","ios":"levelo://app?vid=25b6a399-a318-47c5-8745-40352c9c9869"},"vehicle_type_id":"4","last_reported":1699715152,"current_range_meters":19600,"station_id":"ce4bgl92rcd13ifvqbq0","pricing_plan_id":"free"},{"bike_id":"51247f5b-efae-4030-82a3-aee7899bdc96","system_id":"levelo_inurba_marseille","lat":43.312239,"lon":5.368562,"is_reserved":false,"is_disabled":false,"rental_uris":{"android":"levelo://app?vid=51247f5b-efae-4030-82a3-aee7899bdc96","ios":"levelo://app?vid=51247f5b-efae-4030-82a3-aee7899bdc96"},"vehicle_type_id":"4","last_reported":1699715152,"current_range_meters":24800,"station_id":"ce4bgl92rcd13ifvqbq0","pricing_plan_id":"free"},{"bike_id":"34884476-6af2-4a30-b20d-2bac53ea00c4","system_id":"levelo_inurba_marseille","lat":43.312239,"lon":5.368562,"is_reserved":false,"is_disabled":false,"rental_uris":{"android":"levelo://app?vid=34884476-6af2-4a30-b20d-2bac53ea00c4","ios":"levelo://app?vid=34884476-6af2-4a30-b20d-2bac53ea00c4"},"vehicle_type_id":"4","last_reported":1699715152,"current_range_meters":25600,"station_id":"ce4bgl92rcd13ifvqbq0","pricing_plan_id":"free"},{"bike_id":"b629e02c-3f16-414b-ab03-30db5c333aeb","system_id":"levelo_inurba_marseille","lat":43.3131,"lon":5.368996,"is_reserved":false,"is_disabled":false,"rental_uris":{"android":"levelo://app?vid=b629e02c-3f16-414b-ab03-30db5c333aeb","ios":"levelo://app?vid=b629e02c-3f16-414b-ab03-30db5c333aeb"},"vehicle_type_id":"4","last_reported":1699715152,"current_range_meters":24400,"station_id":"","pricing_plan_id":"free"},{"bike_id":"f7d3ad3f-67e9-46eb-8e21-03260ea9b930","system_id":"levelo_inurba_marseille","lat":43.309076,"lon":5.368465,"is_reserved":false,"is_disabled":false,"rental_uris":{"android":"levelo://app?vid=f7d3ad3f-67e9-46eb-8e21-03260ea9b930","ios":"levelo://app?vid=f7d3ad3f-67e9-46eb-8e21-03260ea9b930"},"vehicle_type_id":"4","last_reported":1699715152,"current_range_meters":10000,"station_id":"ce4bgn92rcd13ifvqbvg","pricing_plan_id":"free"},{"bike_id":"a303c1eb-c1f9-4f91-8e86-71c806c20ac5","system_id":"levelo_inurba_marseille","lat":43.311595,"lon":5.372786,"is_reserved":false,"is_disabled":false,"rental_uris":{"android":"levelo://app?vid=a303c1eb-c1f9-4f91-8e86-71c806c20ac5","ios":"levelo://app?vid=a303c1eb-c1f9-4f91-8e86-71c806c20ac5"},"vehicle_type_id":"4","last_reported":1699715152,"current_range_meters":28000,"station_id":"","pricing_plan_id":"free"},{"bike_id":"697fee07-62df-44e5-861b-24bcc599bc59","system_id":"levelo_inurba_marseille","lat":43.31473,"lon":5.37284,"is_reserved":false,"is_disabled":false,"rental_uris":{"android":"levelo://app?vid=697fee07-62df-44e5-861b-24bcc599bc59","ios":"levelo://app?vid=697fee07-62df-44e5-861b-24bcc599bc59"},"vehicle_type_id":"4","last_reported":1699715152,"current_range_meters":23600,"station_id":"","pricing_plan_id":"free"},{"bike_id":"8e4bdcc4-457c-4ab0-bf4a-82dacadfedcd","system_id":"levelo_inurba_marseille","lat":43.31477,"lon":5.37282,"is_reserved":false,"is_disabled":false,"rental_uris":{"android":"levelo://app?vid=8e4bdcc4-457c-4ab0-bf4a-82dacadfedcd","ios":"levelo://app?vid=8e4bdcc4-457c-4ab0-bf4a-82dacadfedcd"},"vehicle_type_id":"4","last_reported":1699715152,"current_range_meters":25600,"station_id":"","pricing_plan_id":"free"},{"bike_id":"3dbd25b1-9e69-4fb7-93fc-85784d38f9e9","system_id":"levelo_inurba_marseille","lat":43.31477,"lon":5.37289,"is_reserved":false,"is_disabled":false,"rental_uris":{"android":"levelo://app?vid=3dbd25b1-9e69-4fb7-93fc-85784d38f9e9","ios":"levelo://app?vid=3dbd25b1-9e69-4fb7-93fc-85784d38f9e9"},"vehicle_type_id":"4","last_reported":1699715152,"current_range_meters":26400,"station_id":"","pricing_plan_id":"free"},{"bike_id":"90e44254-8cd2-4b0c-9485-bfb761836a15","system_id":"levelo_inurba_marseille","lat":43.30555,"lon":5.3654,"is_reserved":false,"is_disabled":false,"rental_uris":{"android":"levelo://app?vid=90e44254-8cd2-4b0c-9485-bfb761836a15","ios":"levelo://app?vid=90e44254-8cd2-4b0c-9485-bfb761836a15"},"vehicle_type_id":"4","last_reported":1699715152,"current_range_meters":0,"station_id":"ce4bgs12rcd13ifvqcag","pricing_plan_id":"free"},{"bike_id":"76b359af-c20b-45d0-a1df-78f4c9a6553a","system_id":"levelo_inurba_marseille","lat":43.305714,"lon":5.365633,"is_reserved":false,"is_disabled":false,"rental_uris":{"android":"levelo://app?vid=76b359af-c20b-45d0-a1df-78f4c9a6553a","ios":"levelo://app?vid=76b359af-c20b-45d0-a1df-78f4c9a6553a"},"vehicle_type_id":"4","last_reported":1699715152,"current_range_meters":18800,"station_id":"ce4bgs12rcd13ifvqcag","pricing_plan_id":"free"},{"bike_id":"e94712a1-3888-4d71-a4ed-4e1e949bfd11","system_id":"levelo_inurba_marseille","lat":43.305989,"lon":5.37225,"is_reserved":false,"is_disabled":false,"rental_uris":{"android":"levelo://app?vid=e94712a1-3888-4d71-a4ed-4e1e949bfd11","ios":"levelo://app?vid=e94712a1-3888-4d71-a4ed-4e1e949bfd11"},"vehicle_type_id":"4","last_reported":1699715152,"current_range_meters":17200,"station_id":"ce4bgqh2rcd13ifvqc4g","pricing_plan_id":"free"},{"bike_id":"57053367-5328-4d78-8951-737f56b37ed9","system_id":"levelo_inurba_marseille","lat":43.319924,"lon":5.373389,"is_reserved":false,"is_disabled":false,"rental_uris":{"android":"levelo://app?vid=57053367-5328-4d78-8951-737f56b37ed9","ios":"levelo://app?vid=57053367-5328-4d78-8951-737f56b37ed9"},"vehicle_type_id":"4","last_reported":1699715152,"current_range_meters":18400,"station_id":"","pricing_plan_id":"free"},{"bike_id":"a26a672c-8f86-40f5-9e8e-9856cf399a24","system_id":"levelo_inurba_marseille","lat":43.308012,"lon":5.381511,"is_reserved":false,"is_disabled":false,"rental_uris":{"android":"levelo://app?vid=a26a672c-8f86-40f5-9e8e-9856cf399a24","ios":"levelo://app?vid=a26a672c-8f86-40f5-9e8e-9856cf399a24"},"vehicle_type_id":"4","last_reported":1699715152,"current_range_meters":26800,"station_id":"ce4bgt12rcd13ifvqce0","pricing_plan_id":"free"},{"bike_id":"8ef52193-4a3c-4256-8c92-d02dc1148f05","system_id":"levelo_inurba_marseille","lat":43.3248,"lon":5.36558,"is_reserved":false,"is_disabled":false,"rental_uris":{"android":"levelo://app?vid=8ef52193-4a3c-4256-8c92-d02dc1148f05","ios":"levelo://app?vid=8ef52193-4a3c-4256-8c92-d02dc1148f05"},"vehicle_type_id":"4","last_reported":1699715152,"current_range_meters":12000,"station_id":"ce4bhs12rcd13ifvqhvg","pricing_plan_id":"free"},{"bike_id":"b94700b9-36bc-481c-9757-14d636e50ad7","system_id":"levelo_inurba_marseille","lat":43.301429,"lon":5.37413,"is_reserved":false,"is_disabled":false,"rental_uris":{"android":"levelo://app?vid=b94700b9-36bc-481c-9757-14d636e50ad7","ios":"levelo://app?vid=b94700b9-36bc-481c-9757-14d636e50ad7"},"vehicle_type_id":"4","last_reported":1699715152,"current_range_meters":800,"station_id":"ce4bgs92rcd13ifvqcc0","pricing_plan_id":"free"},{"bike_id":"3dfdc2f4-8851-4848-8441-1e9a9546fe42","system_id":"levelo_inurba_marseille","lat":43.316423,"lon":5.383324,"is_reserved":false,"is_disabled":false,"rental_uris":{"android":"levelo://app?vid=3dfdc2f4-8851-4848-8441-1e9a9546fe42","ios":"levelo://app?vid=3dfdc2f4-8851-4848-8441-1e9a9546fe42"},"vehicle_type_id":"4","last_reported":1699715152,"current_range_meters":18000,"station_id":"","pricing_plan_id":"free"},{"bike_id":"d77686bd-d946-45ab-93d8-ee8e91a94486","system_id":"levelo_inurba_marseille","lat":43.30139,"lon":5.37415,"is_reserved":false,"is_disabled":false,"rental_uris":{"android":"levelo://app?vid=d77686bd-d946-45ab-93d8-ee8e91a94486","ios":"levelo://app?vid=d77686bd-d946-45ab-93d8-ee8e91a94486"},"vehicle_type_id":"4","last_reported":1699715152,"current_range_meters":0,"station_id":"ce4bgs92rcd13ifvqcc0","pricing_plan_id":"free"},{"bike_id":"3819deec-fe3d-41c7-8346-2b107cb07054","system_id":"levelo_inurba_marseille","lat":43.315237,"lon":5.383797,"is_reserved":false,"is_disabled":false,"rental_uris":{"android":"levelo://app?vid=3819deec-fe3d-41c7-8346-2b107cb07054","ios":"levelo://app?vid=3819deec-fe3d-41c7-8346-2b107cb07054"},"vehicle_type_id":"4","last_reported":1699715152,"current_range_meters":0,"station_id":"","pricing_plan_id":"free"},{"bike_id":"69166d53-ec8e-4a0a-864c-7a29f7650dd8","system_id":"levelo_inurba_marseille","lat":43.32115,"lon":5.380029,"is_reserved":false,"is_disabled":false,"rental_uris":{"android":"levelo://app?vid=69166d53-ec8e-4a0a-864c-7a29f7650dd8","ios":"levelo://app?vid=69166d53-ec8e-4a0a-864c-7a29f7650dd8"},"vehicle_type_id":"4","last_reported":1699715152,"current_range_meters":18400,"station_id":"","pricing_plan_id":"free"},{"bike_id":"13d78257-2559-4a10-97b8-aaa7032179bc","system_id":"levelo_inurba_marseille","lat":43.319975,"lon":5.381519,"is_reserved":false,"is_disabled":false,"rental_uris":{"android":"levelo://app?vid=13d78257-2559-4a10-97b8-aaa7032179bc","ios":"levelo://app?vid=13d78257-2559-4a10-97b8-aaa7032179bc"},"vehicle_type_id":"4","last_reported":1699715152,"current_range_meters":4000,"station_id":"","pricing_plan_id":"free"},{"bike_id":"0828994e-25f0-47df-9c09-c8cd7b6cbd74","system_id":"levelo_inurba_marseille","lat":43.313571,"lon":5.384829,"is_reserved":false,"is_disabled":false,"rental_uris":{"android":"levelo://app?vid=0828994e-25f0-47df-9c09-c8cd7b6cbd74","ios":"levelo://app?vid=0828994e-25f0-47df-9c09-c8cd7b6cbd74"},"vehicle_type_id":"4","last_reported":1699715152,"current_range_meters":9600,"station_id":"ce4bgt92rcd13ifvqcf0","pricing_plan_id":"free"},{"bike_id":"a9805820-e884-43dd-9982-f6a632a612bb","system_id":"levelo_inurba_marseille","lat":43.313571,"lon":5.384829,"is_reserved":false,"is_disabled":false,"rental_uris":{"android":"levelo://app?vid=a9805820-e884-43dd-9982-f6a632a612bb","ios":"levelo://app?vid=a9805820-e884-43dd-9982-f6a632a612bb"},"vehicle_type_id":"4","last_reported":1699715152,"current_range_meters":10400,"station_id":"ce4bgt92rcd13ifvqcf0","pricing_plan_id":"free"},{"bike_id":"0d7d3e8c-fd0c-48db-874f-14701a10e8a8","system_id":"levelo_inurba_marseille","lat":43.313571,"lon":5.384829,"is_reserved":false,"is_disabled":false,"rental_uris":{"android":"levelo://app?vid=0d7d3e8c-fd0c-48db-874f-14701a10e8a8","ios":"levelo://app?vid=0d7d3e8c-fd0c-48db-874f-14701a10e8a8"},"vehicle_type_id":"4","last_reported":1699715152,"current_range_meters":30000,"station_id":"ce4bgt92rcd13ifvqcf0","pricing_plan_id":"free"},{"bike_id":"a461e96b-27e9-48cb-b92c-3ac3af5e98e1","system_id":"levelo_inurba_marseille","lat":43.313571,"lon":5.384829,"is_reserved":false,"is_disabled":false,"rental_uris":{"android":"levelo://app?vid=a461e96b-27e9-48cb-b92c-3ac3af5e98e1","ios":"levelo://app?vid=a461e96b-27e9-48cb-b92c-3ac3af5e98e1"},"vehicle_type_id":"4","last_reported":1699715152,"current_range_meters":2800,"station_id":"ce4bgt92rcd13ifvqcf0","pricing_plan_id":"free"},{"bike_id":"dd30265d-96d2-4f90-add7-9a1eb41b0b51","system_id":"levelo_inurba_marseille","lat":43.29979,"lon":5.37174,"is_reserved":false,"is_disabled":false,"rental_uris":{"android":"levelo://app?vid=dd30265d-96d2-4f90-add7-9a1eb41b0b51","ios":"levelo://app?vid=dd30265d-96d2-4f90-add7-9a1eb41b0b51"},"vehicle_type_id":"4","last_reported":1699715152,"current_range_meters":15600,"station_id":"ce4bgr92rcd13ifvqc7g","pricing_plan_id":"free"},{"bike_id":"37dfa4c5-1656-4793-b633-b931326a9495","system_id":"levelo_inurba_marseille","lat":43.29934,"lon":5.365453,"is_reserved":false,"is_disabled":false,"rental_uris":{"android":"levelo://app?vid=37dfa4c5-1656-4793-b633-b931326a9495","ios":"levelo://app?vid=37dfa4c5-1656-4793-b633-b931326a9495"},"vehicle_type_id":"4","last_reported":1699715152,"current_range_meters":400,"station_id":"ce4bgm92rcd13ifvqbr0","pricing_plan_id":"free"},{"bike_id":"f0cd0e99-99df-428b-bcc4-5dfc1403c621","system_id":"levelo_inurba_marseille","lat":43.2989,"lon":5.36639,"is_reserved":false,"is_disabled":false,"rental_uris":{"android":"levelo://app?vid=f0cd0e99-99df-428b-bcc4-5dfc1403c621","ios":"levelo://app?vid=f0cd0e99-99df-428b-bcc4-5dfc1403c621"},"vehicle_type_id":"4","last_reported":1699715152,"current_range_meters":21600,"station_id":"","pricing_plan_id":"free"},{"bike_id":"2aa07dbd-abc3-43b6-a1fa-b3b25d3cf066","system_id":"levelo_inurba_marseille","lat":43.32148,"lon":5.38202,"is_reserved":false,"is_disabled":false,"rental_uris":{"android":"levelo://app?vid=2aa07dbd-abc3-43b6-a1fa-b3b25d3cf066","ios":"levelo://app?vid=2aa07dbd-abc3-43b6-a1fa-b3b25d3cf066"},"vehicle_type_id":"4","last_reported":1699715152,"current_range_meters":0,"station_id":"","pricing_plan_id":"free"},{"bike_id":"cdd6a15f-63f2-4ffa-b25b-f3ad46c2279e","system_id":"levelo_inurba_marseille","lat":43.298433,"lon":5.362774,"is_reserved":false,"is_disabled":false,"rental_uris":{"android":"levelo://app?vid=cdd6a15f-63f2-4ffa-b25b-f3ad46c2279e","ios":"levelo://app?vid=cdd6a15f-63f2-4ffa-b25b-f3ad46c2279e"},"vehicle_type_id":"4","last_reported":1699715152,"current_range_meters":12400,"station_id":"ce4bgpp2rcd13ifvqc3g","pricing_plan_id":"free"},{"bike_id":"8950f55a-e75d-4fac-9a7c-f529bc0580a5","system_id":"levelo_inurba_marseille","lat":43.320464,"lon":5.384144,"is_reserved":false,"is_disabled":false,"rental_uris":{"android":"levelo://app?vid=8950f55a-e75d-4fac-9a7c-f529bc0580a5","ios":"levelo://app?vid=8950f55a-e75d-4fac-9a7c-f529bc0580a5"},"vehicle_type_id":"4","last_reported":1699715152,"current_range_meters":12800,"station_id":"","pricing_plan_id":"free"},{"bike_id":"b8ede394-b34c-4d43-add9-69398e57229c","system_id":"levelo_inurba_marseille","lat":43.297774,"lon":5.370875,"is_reserved":false,"is_disabled":false,"rental_uris":{"android":"levelo://app?vid=b8ede394-b34c-4d43-add9-69398e57229c","ios":"levelo://app?vid=b8ede394-b34c-4d43-add9-69398e57229c"},"vehicle_type_id":"4","last_reported":1699715152,"current_range_meters":6400,"station_id":"ce4bgop2rcd13ifvqc1g","pricing_plan_id":"free"},{"bike_id":"3fc29c95-14f8-466b-984e-30e97660fd5f","system_id":"levelo_inurba_marseille","lat":43.32831,"lon":5.36676,"is_reserved":false,"is_disabled":false,"rental_uris":{"android":"levelo://app?vid=3fc29c95-14f8-466b-984e-30e97660fd5f","ios":"levelo://app?vid=3fc29c95-14f8-466b-984e-30e97660fd5f"},"vehicle_type_id":"4","last_reported":1699715152,"current_range_meters":0,"station_id":"ce4bhs92rcd13ifvqi0g","pricing_plan_id":"free"},{"bike_id":"02e9556e-a56f-46f2-94be-41af76f72551","system_id":"levelo_inurba_marseille","lat":43.297163,"lon":5.365866,"is_reserved":false,"is_disabled":false,"rental_uris":{"android":"levelo://app?vid=02e9556e-a56f-46f2-94be-41af76f72551","ios":"levelo://app?vid=02e9556e-a56f-46f2-94be-41af76f72551"},"vehicle_type_id":"4","last_reported":1699715152,"current_range_meters":21200,"station_id":"ce4bgn12rcd13ifvqbt0","pricing_plan_id":"free"},{"bike_id":"d447991a-59b4-4778-a190-7d2b0920a414","system_id":"levelo_inurba_marseille","lat":43.32215,"lon":5.38613,"is_reserved":false,"is_disabled":false,"rental_uris":{"android":"levelo://app?vid=d447991a-59b4-4778-a190-7d2b0920a414","ios":"levelo://app?vid=d447991a-59b4-4778-a190-7d2b0920a414"},"vehicle_type_id":"4","last_reported":1699715152,"current_range_meters":20400,"station_id":"","pricing_plan_id":"free"},{"bike_id":"408e1bba-ac1b-479c-ad30-32026784c873","system_id":"levelo_inurba_marseille","lat":43.2966,"lon":5.37463,"is_reserved":false,"is_disabled":false,"rental_uris":{"android":"levelo://app?vid=408e1bba-ac1b-479c-ad30-32026784c873","ios":"levelo://app?vid=408e1bba-ac1b-479c-ad30-32026784c873"},"vehicle_type_id":"4","last_reported":1699715152,"current_range_meters":16000,"station_id":"","pricing_plan_id":"free"},{"bike_id":"5c590f75-aa1f-49bb-beb0-4cbfe60c857b","system_id":"levelo_inurba_marseille","lat":43.321253,"lon":5.38743,"is_reserved":false,"is_disabled":false,"rental_uris":{"android":"levelo://app?vid=5c590f75-aa1f-49bb-beb0-4cbfe60c857b","ios":"levelo://app?vid=5c590f75-aa1f-49bb-beb0-4cbfe60c857b"},"vehicle_type_id":"4","last_reported":1699715152,"current_range_meters":28400,"station_id":"","pricing_plan_id":"free"},{"bike_id":"f616e376-ada9-424f-9343-51b9dd5c331c","system_id":"levelo_inurba_marseille","lat":43.309589,"lon":5.390258,"is_reserved":false,"is_disabled":false,"rental_uris":{"android":"levelo://app?vid=f616e376-ada9-424f-9343-51b9dd5c331c","ios":"levelo://app?vid=f616e376-ada9-424f-9343-51b9dd5c331c"},"vehicle_type_id":"4","last_reported":1699715152,"current_range_meters":0,"station_id":"ce4bgup2rcd13ifvqco0","pricing_plan_id":"free"},{"bike_id":"feff7d8e-9456-4b4b-b917-4f91bb23e023","system_id":"levelo_inurba_marseille","lat":43.3175,"lon":5.39022,"is_reserved":false,"is_disabled":false,"rental_uris":{"android":"levelo://app?vid=feff7d8e-9456-4b4b-b917-4f91bb23e023","ios":"levelo://app?vid=feff7d8e-9456-4b4b-b917-4f91bb23e023"},"vehicle_type_id":"4","last_reported":1699715152,"current_range_meters":18400,"station_id":"","pricing_plan_id":"free"},{"bike_id":"9e588716-b81f-44d8-b071-857cbb7449e1","system_id":"levelo_inurba_marseille","lat":43.300227,"lon":5.384293,"is_reserved":false,"is_disabled":false,"rental_uris":{"android":"levelo://app?vid=9e588716-b81f-44d8-b071-857cbb7449e1","ios":"levelo://app?vid=9e588716-b81f-44d8-b071-857cbb7449e1"},"vehicle_type_id":"4","last_reported":1699715152,"current_range_meters":0,"station_id":"","pricing_plan_id":"free"},{"bike_id":"428887e9-b03a-4abb-94fd-61442cdcc89d","system_id":"levelo_inurba_marseille","lat":43.304274,"lon":5.388873,"is_reserved":false,"is_disabled":false,"rental_uris":{"android":"levelo://app?vid=428887e9-b03a-4abb-94fd-61442cdcc89d","ios":"levelo://app?vid=428887e9-b03a-4abb-94fd-61442cdcc89d"},"vehicle_type_id":"4","last_reported":1699715152,"current_range_meters":24400,"station_id":"ce4bgk12rcd13ifvqbi0","pricing_plan_id":"free"},{"bike_id":"1684c5b9-54a4-4345-99e3-b43992054ddd","system_id":"levelo_inurba_marseille","lat":43.304278,"lon":5.388868,"is_reserved":false,"is_disabled":false,"rental_uris":{"android":"levelo://app?vid=1684c5b9-54a4-4345-99e3-b43992054ddd","ios":"levelo://app?vid=1684c5b9-54a4-4345-99e3-b43992054ddd"},"vehicle_type_id":"4","last_reported":1699715152,"current_range_meters":20000,"station_id":"ce4bgk12rcd13ifvqbi0","pricing_plan_id":"free"},{"bike_id":"4112fa8a-3158-4f0c-84df-b0bb2a9e49b5","system_id":"levelo_inurba_marseille","lat":43.304274,"lon":5.388873,"is_reserved":false,"is_disabled":false,"rental_uris":{"android":"levelo://app?vid=4112fa8a-3158-4f0c-84df-b0bb2a9e49b5","ios":"levelo://app?vid=4112fa8a-3158-4f0c-84df-b0bb2a9e49b5"},"vehicle_type_id":"4","last_reported":1699715152,"current_range_meters":28400,"station_id":"ce4bgk12rcd13ifvqbi0","pricing_plan_id":"free"},{"bike_id":"1f2edeec-835f-4188-b75a-b19c37bb1dac","system_id":"levelo_inurba_marseille","lat":43.30109,"lon":5.3894,"is_reserved":false,"is_disabled":false,"rental_uris":{"android":"levelo://app?vid=1f2edeec-835f-4188-b75a-b19c37bb1dac","ios":"levelo://app?vid=1f2edeec-835f-4188-b75a-b19c37bb1dac"},"vehicle_type_id":"4","last_reported":1699715152,"current_range_meters":5600,"station_id":"","pricing_plan_id":"free"},{"bike_id":"a6d7d3c0-cb85-45c3-87f3-5745bee2c3af","system_id":"levelo_inurba_marseille","lat":43.2936,"lon":5.37835,"is_reserved":false,"is_disabled":false,"rental_uris":{"android":"levelo://app?vid=a6d7d3c0-cb85-45c3-87f3-5745bee2c3af","ios":"levelo://app?vid=a6d7d3c0-cb85-45c3-87f3-5745bee2c3af"},"vehicle_type_id":"4","last_reported":1699715152,"current_range_meters":7200,"station_id":"ce4bgjh2rcd13ifvqbf0","pricing_plan_id":"free"},{"bike_id":"afe9d959-801f-4fe9-992d-a328eb761162","system_id":"levelo_inurba_marseille","lat":43.292663,"lon":5.376389,"is_reserved":false,"is_disabled":false,"rental_uris":{"android":"levelo://app?vid=afe9d959-801f-4fe9-992d-a328eb761162","ios":"levelo://app?vid=afe9d959-801f-4fe9-992d-a328eb761162"},"vehicle_type_id":"4","last_reported":1699715152,"current_range_meters":0,"station_id":"ce4bgi12rcd13ifvqb80","pricing_plan_id":"free"},{"bike_id":"bd603e8a-b93b-4546-acc8-eda339f89c29","system_id":"levelo_inurba_marseille","lat":43.291671,"lon":5.371575,"is_reserved":false,"is_disabled":false,"rental_uris":{"android":"levelo://app?vid=bd603e8a-b93b-4546-acc8-eda339f89c29","ios":"levelo://app?vid=bd603e8a-b93b-4546-acc8-eda339f89c29"},"vehicle_type_id":"4","last_reported":1699715152,"current_range_meters":22800,"station_id":"ce4bha92rcd13ifvqeh0","pricing_plan_id":"free"},{"bike_id":"616c9788-4fe7-4fe4-928d-ae3624a05cbb","system_id":"levelo_inurba_marseille","lat":43.309038,"lon":5.396546,"is_reserved":false,"is_disabled":false,"rental_uris":{"android":"levelo://app?vid=616c9788-4fe7-4fe4-928d-ae3624a05cbb","ios":"levelo://app?vid=616c9788-4fe7-4fe4-928d-ae3624a05cbb"},"vehicle_type_id":"4","last_reported":1699715152,"current_range_meters":26000,"station_id":"ce4bh012rcd13ifvqcv0","pricing_plan_id":"free"},{"bike_id":"cae1052b-35b1-4b7d-85f9-f68dce5dee0c","system_id":"levelo_inurba_marseille","lat":43.29527,"lon":5.38554,"is_reserved":false,"is_disabled":false,"rental_uris":{"android":"levelo://app?vid=cae1052b-35b1-4b7d-85f9-f68dce5dee0c","ios":"levelo://app?vid=cae1052b-35b1-4b7d-85f9-f68dce5dee0c"},"vehicle_type_id":"4","last_reported":1699715152,"current_range_meters":0,"station_id":"ce4bgih2rcd13ifvqba0","pricing_plan_id":"free"},{"bike_id":"30323e43-d1ab-4d74-9e51-d3e68bb77aaa","system_id":"levelo_inurba_marseille","lat":43.290129,"lon":5.365232,"is_reserved":false,"is_disabled":false,"rental_uris":{"android":"levelo://app?vid=30323e43-d1ab-4d74-9e51-d3e68bb77aaa","ios":"levelo://app?vid=30323e43-d1ab-4d74-9e51-d3e68bb77aaa"},"vehicle_type_id":"4","last_reported":1699715152,"current_range_meters":24800,"station_id":"","pricing_plan_id":"free"},{"bike_id":"6538da46-0902-4486-a084-cfea14800a78","system_id":"levelo_inurba_marseille","lat":43.302008,"lon":5.394694,"is_reserved":false,"is_disabled":false,"rental_uris":{"android":"levelo://app?vid=6538da46-0902-4486-a084-cfea14800a78","ios":"levelo://app?vid=6538da46-0902-4486-a084-cfea14800a78"},"vehicle_type_id":"4","last_reported":1699715152,"current_range_meters":8800,"station_id":"ce4bh0p2rcd13ifvqd70","pricing_plan_id":"free"},{"bike_id":"c4e76843-07ae-47c3-995f-ff6da052e35d","system_id":"levelo_inurba_marseille","lat":43.29409,"lon":5.3863,"is_reserved":false,"is_disabled":false,"rental_uris":{"android":"levelo://app?vid=c4e76843-07ae-47c3-995f-ff6da052e35d","ios":"levelo://app?vid=c4e76843-07ae-47c3-995f-ff6da052e35d"},"vehicle_type_id":"4","last_reported":1699715152,"current_range_meters":0,"station_id":"ce4bh2h2rcd13ifvqdh0","pricing_plan_id":"free"},{"bike_id":"024ef8ad-ec8a-4298-b35c-b3d2ba471238","system_id":"levelo_inurba_marseille","lat":43.290995,"lon":5.381361,"is_reserved":false,"is_disabled":false,"rental_uris":{"android":"levelo://app?vid=024ef8ad-ec8a-4298-b35c-b3d2ba471238","ios":"levelo://app?vid=024ef8ad-ec8a-4298-b35c-b3d2ba471238"},"vehicle_type_id":"4","last_reported":1699715152,"current_range_meters":15200,"station_id":"ce4bh512rcd13ifvqe2g","pricing_plan_id":"free"},{"bike_id":"83862952-1376-4c12-9b74-3e20e4d6da1e","system_id":"levelo_inurba_marseille","lat":43.297902,"lon":5.393486,"is_reserved":false,"is_disabled":false,"rental_uris":{"android":"levelo://app?vid=83862952-1376-4c12-9b74-3e20e4d6da1e","ios":"levelo://app?vid=83862952-1376-4c12-9b74-3e20e4d6da1e"},"vehicle_type_id":"4","last_reported":1699715152,"current_range_meters":0,"station_id":"chh1huq6cuj3fo74tm60","pricing_plan_id":"free"},{"bike_id":"5f1ca851-a4db-416d-bc99-42d33fd33ea1","system_id":"levelo_inurba_marseille","lat":43.2898,"lon":5.37832,"is_reserved":false,"is_disabled":false,"rental_uris":{"android":"levelo://app?vid=5f1ca851-a4db-416d-bc99-42d33fd33ea1","ios":"levelo://app?vid=5f1ca851-a4db-416d-bc99-42d33fd33ea1"},"vehicle_type_id":"4","last_reported":1699715152,"current_range_meters":20800,"station_id":"ce4bh9p2rcd13ifvqed0","pricing_plan_id":"free"},{"bike_id":"0e78c097-cf8b-4cf3-b473-cfefee7db3ce","system_id":"levelo_inurba_marseille","lat":43.289743,"lon":5.378304,"is_reserved":false,"is_disabled":false,"rental_uris":{"android":"levelo://app?vid=0e78c097-cf8b-4cf3-b473-cfefee7db3ce","ios":"levelo://app?vid=0e78c097-cf8b-4cf3-b473-cfefee7db3ce"},"vehicle_type_id":"4","last_reported":1699715152,"current_range_meters":7600,"station_id":"ce4bh9p2rcd13ifvqed0","pricing_plan_id":"free"},{"bike_id":"cd5aac88-e4dc-492e-b73a-b9734b6bc368","system_id":"levelo_inurba_marseille","lat":43.295169,"lon":5.390426,"is_reserved":false,"is_disabled":false,"rental_uris":{"android":"levelo://app?vid=cd5aac88-e4dc-492e-b73a-b9734b6bc368","ios":"levelo://app?vid=cd5aac88-e4dc-492e-b73a-b9734b6bc368"},"vehicle_type_id":"4","last_reported":1699715152,"current_range_meters":0,"station_id":"ce4bh3p2rcd13ifvqdp0","pricing_plan_id":"free"},{"bike_id":"49f72583-9872-4a30-ba71-82a988aa3cd9","system_id":"levelo_inurba_marseille","lat":43.28856,"lon":5.358371,"is_reserved":false,"is_disabled":false,"rental_uris":{"android":"levelo://app?vid=49f72583-9872-4a30-ba71-82a988aa3cd9","ios":"levelo://app?vid=49f72583-9872-4a30-ba71-82a988aa3cd9"},"vehicle_type_id":"4","last_reported":1699715152,"current_range_meters":400,"station_id":"ce4bhb12rcd13ifvqem0","pricing_plan_id":"free"},{"bike_id":"37bfd983-9ac7-4551-b34a-4696e83531af","system_id":"levelo_inurba_marseille","lat":43.28856,"lon":5.358371,"is_reserved":false,"is_disabled":false,"rental_uris":{"android":"levelo://app?vid=37bfd983-9ac7-4551-b34a-4696e83531af","ios":"levelo://app?vid=37bfd983-9ac7-4551-b34a-4696e83531af"},"vehicle_type_id":"4","last_reported":1699715152,"current_range_meters":15200,"station_id":"ce4bhb12rcd13ifvqem0","pricing_plan_id":"free"},{"bike_id":"61c9606b-5e0c-419f-a3b5-4fe4d535e889","system_id":"levelo_inurba_marseille","lat":43.33037,"lon":5.392367,"is_reserved":false,"is_disabled":false,"rental_uris":{"android":"levelo://app?vid=61c9606b-5e0c-419f-a3b5-4fe4d535e889","ios":"levelo://app?vid=61c9606b-5e0c-419f-a3b5-4fe4d535e889"},"vehicle_type_id":"4","last_reported":1699715152,"current_range_meters":10000,"station_id":"","pricing_plan_id":"free"},{"bike_id":"2521ede4-93a1-46bf-9301-9b054511fd22","system_id":"levelo_inurba_marseille","lat":43.28727,"lon":5.36078,"is_reserved":false,"is_disabled":false,"rental_uris":{"android":"levelo://app?vid=2521ede4-93a1-46bf-9301-9b054511fd22","ios":"levelo://app?vid=2521ede4-93a1-46bf-9301-9b054511fd22"},"vehicle_type_id":"4","last_reported":1699715152,"current_range_meters":4800,"station_id":"cki0cbj6b192h4jlfktg","pricing_plan_id":"free"},{"bike_id":"17d653ca-ba4f-4a2d-8756-996fb37e6ea3","system_id":"levelo_inurba_marseille","lat":43.28922,"lon":5.3839,"is_reserved":false,"is_disabled":false,"rental_uris":{"android":"levelo://app?vid=17d653ca-ba4f-4a2d-8756-996fb37e6ea3","ios":"levelo://app?vid=17d653ca-ba4f-4a2d-8756-996fb37e6ea3"},"vehicle_type_id":"4","last_reported":1699715152,"current_range_meters":0,"station_id":"ce4bh612rcd13ifvqe6g","pricing_plan_id":"free"},{"bike_id":"796a9ff6-4942-48d3-998f-7d3c1658034b","system_id":"levelo_inurba_marseille","lat":43.31648,"lon":5.40436,"is_reserved":false,"is_disabled":false,"rental_uris":{"android":"levelo://app?vid=796a9ff6-4942-48d3-998f-7d3c1658034b","ios":"levelo://app?vid=796a9ff6-4942-48d3-998f-7d3c1658034b"},"vehicle_type_id":"4","last_reported":1699715152,"current_range_meters":0,"station_id":"ce4bh012rcd13ifvqd00","pricing_plan_id":"free"},{"bike_id":"e57449c2-d088-47cf-8bf2-271593713c89","system_id":"levelo_inurba_marseille","lat":43.328576,"lon":5.398841,"is_reserved":false,"is_disabled":false,"rental_uris":{"android":"levelo://app?vid=e57449c2-d088-47cf-8bf2-271593713c89","ios":"levelo://app?vid=e57449c2-d088-47cf-8bf2-271593713c89"},"vehicle_type_id":"4","last_reported":1699715152,"current_range_meters":8000,"station_id":"","pricing_plan_id":"free"},{"bike_id":"9f3cc0cc-d7a2-49fd-b834-176b54d9323a","system_id":"levelo_inurba_marseille","lat":43.31676,"lon":5.40522,"is_reserved":false,"is_disabled":false,"rental_uris":{"android":"levelo://app?vid=9f3cc0cc-d7a2-49fd-b834-176b54d9323a","ios":"levelo://app?vid=9f3cc0cc-d7a2-49fd-b834-176b54d9323a"},"vehicle_type_id":"4","last_reported":1699715152,"current_range_meters":0,"station_id":"","pricing_plan_id":"free"},{"bike_id":"ab3d1f34-44e1-4c7b-aa21-5d9a98591807","system_id":"levelo_inurba_marseille","lat":43.33088,"lon":5.39733,"is_reserved":false,"is_disabled":false,"rental_uris":{"android":"levelo://app?vid=ab3d1f34-44e1-4c7b-aa21-5d9a98591807","ios":"levelo://app?vid=ab3d1f34-44e1-4c7b-aa21-5d9a98591807"},"vehicle_type_id":"4","last_reported":1699715152,"current_range_meters":4800,"station_id":"","pricing_plan_id":"free"},{"bike_id":"f13d3f92-8aae-499a-8c22-65fa7ff7397e","system_id":"levelo_inurba_marseille","lat":43.28458,"lon":5.35889,"is_reserved":false,"is_disabled":false,"rental_uris":{"android":"levelo://app?vid=f13d3f92-8aae-499a-8c22-65fa7ff7397e","ios":"levelo://app?vid=f13d3f92-8aae-499a-8c22-65fa7ff7397e"},"vehicle_type_id":"4","last_reported":1699715152,"current_range_meters":6000,"station_id":"ce4bhah2rcd13ifvqei0","pricing_plan_id":"free"},{"bike_id":"a23756aa-55f8-41b3-bf40-2a3666a80690","system_id":"levelo_inurba_marseille","lat":43.286181,"lon":5.350992,"is_reserved":false,"is_disabled":false,"rental_uris":{"android":"levelo://app?vid=a23756aa-55f8-41b3-bf40-2a3666a80690","ios":"levelo://app?vid=a23756aa-55f8-41b3-bf40-2a3666a80690"},"vehicle_type_id":"4","last_reported":1699715152,"current_range_meters":19200,"station_id":"ce4bh5p2rcd13ifvqe4g","pricing_plan_id":"free"},{"bike_id":"80fcc837-da59-44f4-b189-b47ba0ff7254","system_id":"levelo_inurba_marseille","lat":43.319179,"lon":5.407725,"is_reserved":false,"is_disabled":false,"rental_uris":{"android":"levelo://app?vid=80fcc837-da59-44f4-b189-b47ba0ff7254","ios":"levelo://app?vid=80fcc837-da59-44f4-b189-b47ba0ff7254"},"vehicle_type_id":"4","last_reported":1699715152,"current_range_meters":30400,"station_id":"ce4bhq12rcd13ifvqhig","pricing_plan_id":"free"},{"bike_id":"030625bd-f8ba-4389-9944-df2973894a22","system_id":"levelo_inurba_marseille","lat":43.325731,"lon":5.404186,"is_reserved":false,"is_disabled":false,"rental_uris":{"android":"levelo://app?vid=030625bd-f8ba-4389-9944-df2973894a22","ios":"levelo://app?vid=030625bd-f8ba-4389-9944-df2973894a22"},"vehicle_type_id":"4","last_reported":1699715152,"current_range_meters":3600,"station_id":"","pricing_plan_id":"free"},{"bike_id":"0b083c6d-d1d4-4abb-84f8-baa4bad07eff","system_id":"levelo_inurba_marseille","lat":43.28723,"lon":5.38918,"is_reserved":false,"is_disabled":false,"rental_uris":{"android":"levelo://app?vid=0b083c6d-d1d4-4abb-84f8-baa4bad07eff","ios":"levelo://app?vid=0b083c6d-d1d4-4abb-84f8-baa4bad07eff"},"vehicle_type_id":"4","last_reported":1699715152,"current_range_meters":3200,"station_id":"","pricing_plan_id":"free"},{"bike_id":"8f73f349-a272-4ad6-b8fd-7b017ee1ab31","system_id":"levelo_inurba_marseille","lat":43.337168,"lon":5.391825,"is_reserved":false,"is_disabled":false,"rental_uris":{"android":"levelo://app?vid=8f73f349-a272-4ad6-b8fd-7b017ee1ab31","ios":"levelo://app?vid=8f73f349-a272-4ad6-b8fd-7b017ee1ab31"},"vehicle_type_id":"4","last_reported":1699715152,"current_range_meters":29200,"station_id":"ce4bhr92rcd13ifvqhsg","pricing_plan_id":"free"},{"bike_id":"8ab11373-23ee-4b92-a50f-c18de88bd164","system_id":"levelo_inurba_marseille","lat":43.288497,"lon":5.393089,"is_reserved":false,"is_disabled":false,"rental_uris":{"android":"levelo://app?vid=8ab11373-23ee-4b92-a50f-c18de88bd164","ios":"levelo://app?vid=8ab11373-23ee-4b92-a50f-c18de88bd164"},"vehicle_type_id":"4","last_reported":1699715152,"current_range_meters":16400,"station_id":"ce4bh2p2rcd13ifvqdi0","pricing_plan_id":"free"},{"bike_id":"9a7e6bf4-7819-46e4-8d03-1ac81956d180","system_id":"levelo_inurba_marseille","lat":43.283494,"lon":5.380945,"is_reserved":false,"is_disabled":false,"rental_uris":{"android":"levelo://app?vid=9a7e6bf4-7819-46e4-8d03-1ac81956d180","ios":"levelo://app?vid=9a7e6bf4-7819-46e4-8d03-1ac81956d180"},"vehicle_type_id":"4","last_reported":1699715152,"current_range_meters":0,"station_id":"ce4bh412rcd13ifvqdr0","pricing_plan_id":"free"},{"bike_id":"743f7665-37b0-4e9e-8c5d-0e65f22f63b2","system_id":"levelo_inurba_marseille","lat":43.28424,"lon":5.34994,"is_reserved":false,"is_disabled":false,"rental_uris":{"android":"levelo://app?vid=743f7665-37b0-4e9e-8c5d-0e65f22f63b2","ios":"levelo://app?vid=743f7665-37b0-4e9e-8c5d-0e65f22f63b2"},"vehicle_type_id":"4","last_reported":1699715152,"current_range_meters":0,"station_id":"ce4bhbh2rcd13ifvqepg","pricing_plan_id":"free"},{"bike_id":"d656b165-6ed1-49cb-8309-8440c7e50f90","system_id":"levelo_inurba_marseille","lat":43.284219,"lon":5.3497,"is_reserved":false,"is_disabled":false,"rental_uris":{"android":"levelo://app?vid=d656b165-6ed1-49cb-8309-8440c7e50f90","ios":"levelo://app?vid=d656b165-6ed1-49cb-8309-8440c7e50f90"},"vehicle_type_id":"4","last_reported":1699715152,"current_range_meters":14400,"station_id":"ce4bhbh2rcd13ifvqepg","pricing_plan_id":"free"},{"bike_id":"1cd3e561-6dcd-4cb2-ac3e-b30a4b454baf","system_id":"levelo_inurba_marseille","lat":43.284138,"lon":5.384306,"is_reserved":false,"is_disabled":false,"rental_uris":{"android":"levelo://app?vid=1cd3e561-6dcd-4cb2-ac3e-b30a4b454baf","ios":"levelo://app?vid=1cd3e561-6dcd-4cb2-ac3e-b30a4b454baf"},"vehicle_type_id":"4","last_reported":1699715152,"current_range_meters":16800,"station_id":"","pricing_plan_id":"free"},{"bike_id":"694cc18d-6823-481a-9d09-67d990c2d197","system_id":"levelo_inurba_marseille","lat":43.324289,"lon":5.407562,"is_reserved":false,"is_disabled":false,"rental_uris":{"android":"levelo://app?vid=694cc18d-6823-481a-9d09-67d990c2d197","ios":"levelo://app?vid=694cc18d-6823-481a-9d09-67d990c2d197"},"vehicle_type_id":"4","last_reported":1699715152,"current_range_meters":0,"station_id":"","pricing_plan_id":"free"},{"bike_id":"e3e3e50e-6198-44b4-afbc-fcdff59eae20","system_id":"levelo_inurba_marseille","lat":43.2827,"lon":5.35077,"is_reserved":false,"is_disabled":false,"rental_uris":{"android":"levelo://app?vid=e3e3e50e-6198-44b4-afbc-fcdff59eae20","ios":"levelo://app?vid=e3e3e50e-6198-44b4-afbc-fcdff59eae20"},"vehicle_type_id":"4","last_reported":1699715152,"current_range_meters":0,"station_id":"ce4bhbp2rcd13ifvqerg","pricing_plan_id":"free"},{"bike_id":"b96b0351-5427-473b-a1c9-a499f1a3ddef","system_id":"levelo_inurba_marseille","lat":43.28268,"lon":5.35065,"is_reserved":false,"is_disabled":false,"rental_uris":{"android":"levelo://app?vid=b96b0351-5427-473b-a1c9-a499f1a3ddef","ios":"levelo://app?vid=b96b0351-5427-473b-a1c9-a499f1a3ddef"},"vehicle_type_id":"4","last_reported":1699715152,"current_range_meters":0,"station_id":"ce4bhbp2rcd13ifvqerg","pricing_plan_id":"free"},{"bike_id":"58f15b15-6731-4c8f-8155-ca82a4c506f2","system_id":"levelo_inurba_marseille","lat":43.28038,"lon":5.36935,"is_reserved":false,"is_disabled":false,"rental_uris":{"android":"levelo://app?vid=58f15b15-6731-4c8f-8155-ca82a4c506f2","ios":"levelo://app?vid=58f15b15-6731-4c8f-8155-ca82a4c506f2"},"vehicle_type_id":"4","last_reported":1699715152,"current_range_meters":0,"station_id":"ce4bha12rcd13ifvqef0","pricing_plan_id":"free"},{"bike_id":"3c9c78e9-149a-4836-b379-4609d575068d","system_id":"levelo_inurba_marseille","lat":43.28039,"lon":5.369297,"is_reserved":false,"is_disabled":false,"rental_uris":{"android":"levelo://app?vid=3c9c78e9-149a-4836-b379-4609d575068d","ios":"levelo://app?vid=3c9c78e9-149a-4836-b379-4609d575068d"},"vehicle_type_id":"4","last_reported":1699715152,"current_range_meters":0,"station_id":"ce4bha12rcd13ifvqef0","pricing_plan_id":"free"},{"bike_id":"1d9fa54a-d9a2-4831-bba7-5c699f24bf0c","system_id":"levelo_inurba_marseille","lat":43.290412,"lon":5.399633,"is_reserved":false,"is_disabled":false,"rental_uris":{"android":"levelo://app?vid=1d9fa54a-d9a2-4831-bba7-5c699f24bf0c","ios":"levelo://app?vid=1d9fa54a-d9a2-4831-bba7-5c699f24bf0c"},"vehicle_type_id":"4","last_reported":1699715152,"current_range_meters":20800,"station_id":"ce4bh392rcd13ifvqdm0","pricing_plan_id":"free"},{"bike_id":"753431fb-30e9-4e84-8f93-44662002ecbb","system_id":"levelo_inurba_marseille","lat":43.281044,"lon":5.378308,"is_reserved":false,"is_disabled":false,"rental_uris":{"android":"levelo://app?vid=753431fb-30e9-4e84-8f93-44662002ecbb","ios":"levelo://app?vid=753431fb-30e9-4e84-8f93-44662002ecbb"},"vehicle_type_id":"4","last_reported":1699715152,"current_range_meters":4800,"station_id":"ce4bha12rcd13ifvqee0","pricing_plan_id":"free"},{"bike_id":"f6069450-8071-4484-95c4-5a5b06961bbb","system_id":"levelo_inurba_marseille","lat":43.281044,"lon":5.378308,"is_reserved":false,"is_disabled":false,"rental_uris":{"android":"levelo://app?vid=f6069450-8071-4484-95c4-5a5b06961bbb","ios":"levelo://app?vid=f6069450-8071-4484-95c4-5a5b06961bbb"},"vehicle_type_id":"4","last_reported":1699715152,"current_range_meters":22000,"station_id":"ce4bha12rcd13ifvqee0","pricing_plan_id":"free"},{"bike_id":"3198b872-beec-4cac-bb61-25ffea9b60fd","system_id":"levelo_inurba_marseille","lat":43.281044,"lon":5.378308,"is_reserved":false,"is_disabled":false,"rental_uris":{"android":"levelo://app?vid=3198b872-beec-4cac-bb61-25ffea9b60fd","ios":"levelo://app?vid=3198b872-beec-4cac-bb61-25ffea9b60fd"},"vehicle_type_id":"4","last_reported":1699715152,"current_range_meters":9600,"station_id":"ce4bha12rcd13ifvqee0","pricing_plan_id":"free"},{"bike_id":"c5269fde-c094-4163-a2ac-a6350e774e3c","system_id":"levelo_inurba_marseille","lat":43.323447,"lon":5.41003,"is_reserved":false,"is_disabled":false,"rental_uris":{"android":"levelo://app?vid=c5269fde-c094-4163-a2ac-a6350e774e3c","ios":"levelo://app?vid=c5269fde-c094-4163-a2ac-a6350e774e3c"},"vehicle_type_id":"4","last_reported":1699715152,"current_range_meters":5200,"station_id":"","pricing_plan_id":"free"},{"bike_id":"a010dc03-3e1d-4133-974d-b62eb63fbb55","system_id":"levelo_inurba_marseille","lat":43.326605,"lon":5.409903,"is_reserved":false,"is_disabled":false,"rental_uris":{"android":"levelo://app?vid=a010dc03-3e1d-4133-974d-b62eb63fbb55","ios":"levelo://app?vid=a010dc03-3e1d-4133-974d-b62eb63fbb55"},"vehicle_type_id":"4","last_reported":1699715152,"current_range_meters":25200,"station_id":"ce4bhpp2rcd13ifvqhgg","pricing_plan_id":"free"},{"bike_id":"e9c84bef-61b1-46b1-a005-93cc81588e68","system_id":"levelo_inurba_marseille","lat":43.279087,"lon":5.380114,"is_reserved":false,"is_disabled":false,"rental_uris":{"android":"levelo://app?vid=e9c84bef-61b1-46b1-a005-93cc81588e68","ios":"levelo://app?vid=e9c84bef-61b1-46b1-a005-93cc81588e68"},"vehicle_type_id":"4","last_reported":1699715152,"current_range_meters":27600,"station_id":"ce4bhf92rcd13ifvqf50","pricing_plan_id":"free"},{"bike_id":"62c4109e-1522-4847-b8e9-9152e22a65a3","system_id":"levelo_inurba_marseille","lat":43.279087,"lon":5.380114,"is_reserved":false,"is_disabled":false,"rental_uris":{"android":"levelo://app?vid=62c4109e-1522-4847-b8e9-9152e22a65a3","ios":"levelo://app?vid=62c4109e-1522-4847-b8e9-9152e22a65a3"},"vehicle_type_id":"4","last_reported":1699715152,"current_range_meters":10800,"station_id":"ce4bhf92rcd13ifvqf50","pricing_plan_id":"free"},{"bike_id":"c23ac6b3-47a7-4c76-b67e-8a7e6ea69c46","system_id":"levelo_inurba_marseille","lat":43.279087,"lon":5.380114,"is_reserved":false,"is_disabled":false,"rental_uris":{"android":"levelo://app?vid=c23ac6b3-47a7-4c76-b67e-8a7e6ea69c46","ios":"levelo://app?vid=c23ac6b3-47a7-4c76-b67e-8a7e6ea69c46"},"vehicle_type_id":"4","last_reported":1699715152,"current_range_meters":6800,"station_id":"ce4bhf92rcd13ifvqf50","pricing_plan_id":"free"},{"bike_id":"a90b75df-67d0-467d-a237-0c1995fae46b","system_id":"levelo_inurba_marseille","lat":43.287154,"lon":5.399979,"is_reserved":false,"is_disabled":false,"rental_uris":{"android":"levelo://app?vid=a90b75df-67d0-467d-a237-0c1995fae46b","ios":"levelo://app?vid=a90b75df-67d0-467d-a237-0c1995fae46b"},"vehicle_type_id":"4","last_reported":1699715152,"current_range_meters":0,"station_id":"ce4bho92rcd13ifvqh3g","pricing_plan_id":"free"},{"bike_id":"feca28d2-7019-4e39-96be-d7938cc29597","system_id":"levelo_inurba_marseille","lat":43.32435,"lon":5.4137,"is_reserved":false,"is_disabled":false,"rental_uris":{"android":"levelo://app?vid=feca28d2-7019-4e39-96be-d7938cc29597","ios":"levelo://app?vid=feca28d2-7019-4e39-96be-d7938cc29597"},"vehicle_type_id":"4","last_reported":1699715152,"current_range_meters":21200,"station_id":"","pricing_plan_id":"free"},{"bike_id":"25e9bb7a-4e0b-4012-a951-db74a4381b95","system_id":"levelo_inurba_marseille","lat":43.299579,"lon":5.413255,"is_reserved":false,"is_disabled":false,"rental_uris":{"android":"levelo://app?vid=25e9bb7a-4e0b-4012-a951-db74a4381b95","ios":"levelo://app?vid=25e9bb7a-4e0b-4012-a951-db74a4381b95"},"vehicle_type_id":"4","last_reported":1699715152,"current_range_meters":28400,"station_id":"ce4bhp12rcd13ifvqh9g","pricing_plan_id":"free"},{"bike_id":"91335753-c683-4aeb-94a3-dfc8f74bde7f","system_id":"levelo_inurba_marseille","lat":43.320045,"lon":5.415048,"is_reserved":false,"is_disabled":false,"rental_uris":{"android":"levelo://app?vid=91335753-c683-4aeb-94a3-dfc8f74bde7f","ios":"levelo://app?vid=91335753-c683-4aeb-94a3-dfc8f74bde7f"},"vehicle_type_id":"4","last_reported":1699715152,"current_range_meters":27200,"station_id":"ce4bhq92rcd13ifvqhkg","pricing_plan_id":"free"},{"bike_id":"26170716-b2fd-41be-a02d-e935b7570d86","system_id":"levelo_inurba_marseille","lat":43.276179,"lon":5.361009,"is_reserved":false,"is_disabled":false,"rental_uris":{"android":"levelo://app?vid=26170716-b2fd-41be-a02d-e935b7570d86","ios":"levelo://app?vid=26170716-b2fd-41be-a02d-e935b7570d86"},"vehicle_type_id":"4","last_reported":1699715152,"current_range_meters":25200,"station_id":"ce4bgj92rcd13ifvqbe0","pricing_plan_id":"free"},{"bike_id":"3e75e756-f7a3-4bff-b00e-8686b1fd122d","system_id":"levelo_inurba_marseille","lat":43.279168,"lon":5.387832,"is_reserved":false,"is_disabled":false,"rental_uris":{"android":"levelo://app?vid=3e75e756-f7a3-4bff-b00e-8686b1fd122d","ios":"levelo://app?vid=3e75e756-f7a3-4bff-b00e-8686b1fd122d"},"vehicle_type_id":"4","last_reported":1699715152,"current_range_meters":0,"station_id":"","pricing_plan_id":"free"},{"bike_id":"c4a592bb-56bf-4706-809c-41444852a46f","system_id":"levelo_inurba_marseille","lat":43.280784,"lon":5.396622,"is_reserved":false,"is_disabled":false,"rental_uris":{"android":"levelo://app?vid=c4a592bb-56bf-4706-809c-41444852a46f","ios":"levelo://app?vid=c4a592bb-56bf-4706-809c-41444852a46f"},"vehicle_type_id":"4","last_reported":1699715152,"current_range_meters":23200,"station_id":"ce4bho12rcd13ifvqh2g","pricing_plan_id":"free"},{"bike_id":"c47cbb1c-252e-4fc7-beaa-c6f26cc586a6","system_id":"levelo_inurba_marseille","lat":43.280784,"lon":5.396622,"is_reserved":false,"is_disabled":false,"rental_uris":{"android":"levelo://app?vid=c47cbb1c-252e-4fc7-beaa-c6f26cc586a6","ios":"levelo://app?vid=c47cbb1c-252e-4fc7-beaa-c6f26cc586a6"},"vehicle_type_id":"4","last_reported":1699715152,"current_range_meters":400,"station_id":"ce4bho12rcd13ifvqh2g","pricing_plan_id":"free"},{"bike_id":"63ee3d83-f724-4dad-a23b-9ae7b54bbfd1","system_id":"levelo_inurba_marseille","lat":43.280784,"lon":5.396622,"is_reserved":false,"is_disabled":false,"rental_uris":{"android":"levelo://app?vid=63ee3d83-f724-4dad-a23b-9ae7b54bbfd1","ios":"levelo://app?vid=63ee3d83-f724-4dad-a23b-9ae7b54bbfd1"},"vehicle_type_id":"4","last_reported":1699715152,"current_range_meters":12400,"station_id":"ce4bho12rcd13ifvqh2g","pricing_plan_id":"free"},{"bike_id":"842201a2-d748-486c-ab89-aed61fd1b197","system_id":"levelo_inurba_marseille","lat":43.278399,"lon":5.392139,"is_reserved":false,"is_disabled":false,"rental_uris":{"android":"levelo://app?vid=842201a2-d748-486c-ab89-aed61fd1b197","ios":"levelo://app?vid=842201a2-d748-486c-ab89-aed61fd1b197"},"vehicle_type_id":"4","last_reported":1699715152,"current_range_meters":23600,"station_id":"ce4bhjp2rcd13ifvqga0","pricing_plan_id":"free"},{"bike_id":"52fe1bd7-23b0-4ac3-88d7-e8d4ce024702","system_id":"levelo_inurba_marseille","lat":43.273609,"lon":5.362708,"is_reserved":false,"is_disabled":false,"rental_uris":{"android":"levelo://app?vid=52fe1bd7-23b0-4ac3-88d7-e8d4ce024702","ios":"levelo://app?vid=52fe1bd7-23b0-4ac3-88d7-e8d4ce024702"},"vehicle_type_id":"4","last_reported":1699715152,"current_range_meters":0,"station_id":"ce4bhbh2rcd13ifvqeo0","pricing_plan_id":"free"},{"bike_id":"ab829a5e-fec0-4edf-b898-3d7dd72b764b","system_id":"levelo_inurba_marseille","lat":43.273609,"lon":5.362708,"is_reserved":false,"is_disabled":false,"rental_uris":{"android":"levelo://app?vid=ab829a5e-fec0-4edf-b898-3d7dd72b764b","ios":"levelo://app?vid=ab829a5e-fec0-4edf-b898-3d7dd72b764b"},"vehicle_type_id":"4","last_reported":1699715152,"current_range_meters":24000,"station_id":"ce4bhbh2rcd13ifvqeo0","pricing_plan_id":"free"},{"bike_id":"11c80a26-a2dc-4d1c-bd20-447eca531dc5","system_id":"levelo_inurba_marseille","lat":43.27371,"lon":5.36255,"is_reserved":false,"is_disabled":false,"rental_uris":{"android":"levelo://app?vid=11c80a26-a2dc-4d1c-bd20-447eca531dc5","ios":"levelo://app?vid=11c80a26-a2dc-4d1c-bd20-447eca531dc5"},"vehicle_type_id":"4","last_reported":1699715152,"current_range_meters":12400,"station_id":"ce4bhbh2rcd13ifvqeo0","pricing_plan_id":"free"},{"bike_id":"a6902202-e470-4487-aca9-9f57c52e621b","system_id":"levelo_inurba_marseille","lat":43.273609,"lon":5.362708,"is_reserved":false,"is_disabled":false,"rental_uris":{"android":"levelo://app?vid=a6902202-e470-4487-aca9-9f57c52e621b","ios":"levelo://app?vid=a6902202-e470-4487-aca9-9f57c52e621b"},"vehicle_type_id":"4","last_reported":1699715152,"current_range_meters":7600,"station_id":"ce4bhbh2rcd13ifvqeo0","pricing_plan_id":"free"},{"bike_id":"5c4179ff-4ca5-4b68-a146-9f6a917d3069","system_id":"levelo_inurba_marseille","lat":43.33612,"lon":5.410321,"is_reserved":false,"is_disabled":false,"rental_uris":{"android":"levelo://app?vid=5c4179ff-4ca5-4b68-a146-9f6a917d3069","ios":"levelo://app?vid=5c4179ff-4ca5-4b68-a146-9f6a917d3069"},"vehicle_type_id":"4","last_reported":1699715152,"current_range_meters":25600,"station_id":"ce4bhqh2rcd13ifvqhmg","pricing_plan_id":"free"},{"bike_id":"0de4cf52-b234-4d8f-a92e-ec097c998195","system_id":"levelo_inurba_marseille","lat":43.27365,"lon":5.36255,"is_reserved":false,"is_disabled":false,"rental_uris":{"android":"levelo://app?vid=0de4cf52-b234-4d8f-a92e-ec097c998195","ios":"levelo://app?vid=0de4cf52-b234-4d8f-a92e-ec097c998195"},"vehicle_type_id":"4","last_reported":1699715152,"current_range_meters":10400,"station_id":"ce4bhbh2rcd13ifvqeo0","pricing_plan_id":"free"},{"bike_id":"68ffca5c-f92e-4d2b-b812-3edfa190d5ea","system_id":"levelo_inurba_marseille","lat":43.278275,"lon":5.396505,"is_reserved":false,"is_disabled":false,"rental_uris":{"android":"levelo://app?vid=68ffca5c-f92e-4d2b-b812-3edfa190d5ea","ios":"levelo://app?vid=68ffca5c-f92e-4d2b-b812-3edfa190d5ea"},"vehicle_type_id":"4","last_reported":1699715152,"current_range_meters":8400,"station_id":"","pricing_plan_id":"free"},{"bike_id":"1fd6829c-7093-4d26-b1e6-cea784586f38","system_id":"levelo_inurba_marseille","lat":43.27997,"lon":5.40005,"is_reserved":false,"is_disabled":false,"rental_uris":{"android":"levelo://app?vid=1fd6829c-7093-4d26-b1e6-cea784586f38","ios":"levelo://app?vid=1fd6829c-7093-4d26-b1e6-cea784586f38"},"vehicle_type_id":"4","last_reported":1699715152,"current_range_meters":27200,"station_id":"ce4bho92rcd13ifvqh4g","pricing_plan_id":"free"},{"bike_id":"416ab644-c2be-4467-a882-6e0e1fc6b47a","system_id":"levelo_inurba_marseille","lat":43.27993,"lon":5.40009,"is_reserved":false,"is_disabled":false,"rental_uris":{"android":"levelo://app?vid=416ab644-c2be-4467-a882-6e0e1fc6b47a","ios":"levelo://app?vid=416ab644-c2be-4467-a882-6e0e1fc6b47a"},"vehicle_type_id":"4","last_reported":1699715152,"current_range_meters":7600,"station_id":"ce4bho92rcd13ifvqh4g","pricing_plan_id":"free"},{"bike_id":"a65a7f67-7c24-4c20-93bb-323926b438c2","system_id":"levelo_inurba_marseille","lat":43.310785,"lon":5.424305,"is_reserved":false,"is_disabled":false,"rental_uris":{"android":"levelo://app?vid=a65a7f67-7c24-4c20-93bb-323926b438c2","ios":"levelo://app?vid=a65a7f67-7c24-4c20-93bb-323926b438c2"},"vehicle_type_id":"4","last_reported":1699715152,"current_range_meters":29200,"station_id":"ce4bhp92rcd13ifvqhag","pricing_plan_id":"free"},{"bike_id":"1bfe5d8a-7a5a-4bba-a2a3-6e36635a0cd3","system_id":"levelo_inurba_marseille","lat":43.310785,"lon":5.424305,"is_reserved":false,"is_disabled":false,"rental_uris":{"android":"levelo://app?vid=1bfe5d8a-7a5a-4bba-a2a3-6e36635a0cd3","ios":"levelo://app?vid=1bfe5d8a-7a5a-4bba-a2a3-6e36635a0cd3"},"vehicle_type_id":"4","last_reported":1699715152,"current_range_meters":30000,"station_id":"ce4bhp92rcd13ifvqhag","pricing_plan_id":"free"},{"bike_id":"d77e3f76-8f0c-400d-8f60-e86f8f611f2d","system_id":"levelo_inurba_marseille","lat":43.31079,"lon":5.42431,"is_reserved":false,"is_disabled":false,"rental_uris":{"android":"levelo://app?vid=d77e3f76-8f0c-400d-8f60-e86f8f611f2d","ios":"levelo://app?vid=d77e3f76-8f0c-400d-8f60-e86f8f611f2d"},"vehicle_type_id":"4","last_reported":1699715152,"current_range_meters":14800,"station_id":"ce4bhp92rcd13ifvqhag","pricing_plan_id":"free"},{"bike_id":"fd537000-7b3f-43df-9a01-5bc26dd1b05a","system_id":"levelo_inurba_marseille","lat":43.304096,"lon":5.425385,"is_reserved":false,"is_disabled":false,"rental_uris":{"android":"levelo://app?vid=fd537000-7b3f-43df-9a01-5bc26dd1b05a","ios":"levelo://app?vid=fd537000-7b3f-43df-9a01-5bc26dd1b05a"},"vehicle_type_id":"4","last_reported":1699715152,"current_range_meters":25200,"station_id":"ce4bhoh2rcd13ifvqh6g","pricing_plan_id":"free"},{"bike_id":"3f0e4165-a7f1-4a77-b849-f052e1b96e5f","system_id":"levelo_inurba_marseille","lat":43.30415,"lon":5.42539,"is_reserved":false,"is_disabled":false,"rental_uris":{"android":"levelo://app?vid=3f0e4165-a7f1-4a77-b849-f052e1b96e5f","ios":"levelo://app?vid=3f0e4165-a7f1-4a77-b849-f052e1b96e5f"},"vehicle_type_id":"4","last_reported":1699715152,"current_range_meters":9600,"station_id":"ce4bhoh2rcd13ifvqh6g","pricing_plan_id":"free"},{"bike_id":"d4908982-fcd1-462a-9e00-c8c18e3630d6","system_id":"levelo_inurba_marseille","lat":43.30418,"lon":5.42541,"is_reserved":false,"is_disabled":false,"rental_uris":{"android":"levelo://app?vid=d4908982-fcd1-462a-9e00-c8c18e3630d6","ios":"levelo://app?vid=d4908982-fcd1-462a-9e00-c8c18e3630d6"},"vehicle_type_id":"4","last_reported":1699715152,"current_range_meters":26400,"station_id":"ce4bhoh2rcd13ifvqh6g","pricing_plan_id":"free"},{"bike_id":"7f7029a1-fbb1-49c4-a3b6-097f36482fc1","system_id":"levelo_inurba_marseille","lat":43.295523,"lon":5.422926,"is_reserved":false,"is_disabled":false,"rental_uris":{"android":"levelo://app?vid=7f7029a1-fbb1-49c4-a3b6-097f36482fc1","ios":"levelo://app?vid=7f7029a1-fbb1-49c4-a3b6-097f36482fc1"},"vehicle_type_id":"4","last_reported":1699715152,"current_range_meters":31200,"station_id":"ce4bhph2rcd13ifvqhdg","pricing_plan_id":"free"},{"bike_id":"c19994d0-f0ba-4e87-8166-5c3d1ea48abc","system_id":"levelo_inurba_marseille","lat":43.272116,"lon":5.391747,"is_reserved":false,"is_disabled":false,"rental_uris":{"android":"levelo://app?vid=c19994d0-f0ba-4e87-8166-5c3d1ea48abc","ios":"levelo://app?vid=c19994d0-f0ba-4e87-8166-5c3d1ea48abc"},"vehicle_type_id":"4","last_reported":1699715152,"current_range_meters":0,"station_id":"ce4bhhp2rcd13ifvqfm0","pricing_plan_id":"free"},{"bike_id":"9028eb6e-2825-4e1a-be67-deac9f2d0ac8","system_id":"levelo_inurba_marseille","lat":43.272124,"lon":5.391768,"is_reserved":false,"is_disabled":false,"rental_uris":{"android":"levelo://app?vid=9028eb6e-2825-4e1a-be67-deac9f2d0ac8","ios":"levelo://app?vid=9028eb6e-2825-4e1a-be67-deac9f2d0ac8"},"vehicle_type_id":"4","last_reported":1699715152,"current_range_meters":0,"station_id":"ce4bhhp2rcd13ifvqfm0","pricing_plan_id":"free"},{"bike_id":"622fc4f4-4ed5-4ca4-abb9-16f7389596a3","system_id":"levelo_inurba_marseille","lat":43.272194,"lon":5.392556,"is_reserved":false,"is_disabled":false,"rental_uris":{"android":"levelo://app?vid=622fc4f4-4ed5-4ca4-abb9-16f7389596a3","ios":"levelo://app?vid=622fc4f4-4ed5-4ca4-abb9-16f7389596a3"},"vehicle_type_id":"4","last_reported":1699715152,"current_range_meters":6000,"station_id":"ce4bh512rcd13ifvqe3g","pricing_plan_id":"free"},{"bike_id":"fea03e83-2672-4901-b739-2fbff174dd7e","system_id":"levelo_inurba_marseille","lat":43.27216,"lon":5.39252,"is_reserved":false,"is_disabled":false,"rental_uris":{"android":"levelo://app?vid=fea03e83-2672-4901-b739-2fbff174dd7e","ios":"levelo://app?vid=fea03e83-2672-4901-b739-2fbff174dd7e"},"vehicle_type_id":"4","last_reported":1699715152,"current_range_meters":5200,"station_id":"","pricing_plan_id":"free"},{"bike_id":"71e768a2-9b49-49d8-bb9b-827044bbb7f7","system_id":"levelo_inurba_marseille","lat":43.27203,"lon":5.39295,"is_reserved":false,"is_disabled":false,"rental_uris":{"android":"levelo://app?vid=71e768a2-9b49-49d8-bb9b-827044bbb7f7","ios":"levelo://app?vid=71e768a2-9b49-49d8-bb9b-827044bbb7f7"},"vehicle_type_id":"4","last_reported":1699715152,"current_range_meters":18800,"station_id":"","pricing_plan_id":"free"},{"bike_id":"ae04ca22-f06c-4771-ac62-587c012bd67f","system_id":"levelo_inurba_marseille","lat":43.278128,"lon":5.407195,"is_reserved":false,"is_disabled":false,"rental_uris":{"android":"levelo://app?vid=ae04ca22-f06c-4771-ac62-587c012bd67f","ios":"levelo://app?vid=ae04ca22-f06c-4771-ac62-587c012bd67f"},"vehicle_type_id":"4","last_reported":1699715152,"current_range_meters":28800,"station_id":"ce4bhnh2rcd13ifvqgtg","pricing_plan_id":"free"},{"bike_id":"a795fa4f-056d-4ad9-a419-37f50ae9e62c","system_id":"levelo_inurba_marseille","lat":43.27809,"lon":5.4071,"is_reserved":false,"is_disabled":false,"rental_uris":{"android":"levelo://app?vid=a795fa4f-056d-4ad9-a419-37f50ae9e62c","ios":"levelo://app?vid=a795fa4f-056d-4ad9-a419-37f50ae9e62c"},"vehicle_type_id":"4","last_reported":1699715152,"current_range_meters":0,"station_id":"ce4bhnh2rcd13ifvqgtg","pricing_plan_id":"free"},{"bike_id":"3d58cef0-0a3a-4e66-8e01-4dc3cd4d09e3","system_id":"levelo_inurba_marseille","lat":43.26681,"lon":5.382694,"is_reserved":false,"is_disabled":false,"rental_uris":{"android":"levelo://app?vid=3d58cef0-0a3a-4e66-8e01-4dc3cd4d09e3","ios":"levelo://app?vid=3d58cef0-0a3a-4e66-8e01-4dc3cd4d09e3"},"vehicle_type_id":"4","last_reported":1699715152,"current_range_meters":15600,"station_id":"ce4bhg92rcd13ifvqf90","pricing_plan_id":"free"},{"bike_id":"8cbf0221-7639-4ab9-b486-e44adcdb9c35","system_id":"levelo_inurba_marseille","lat":43.26681,"lon":5.382694,"is_reserved":false,"is_disabled":false,"rental_uris":{"android":"levelo://app?vid=8cbf0221-7639-4ab9-b486-e44adcdb9c35","ios":"levelo://app?vid=8cbf0221-7639-4ab9-b486-e44adcdb9c35"},"vehicle_type_id":"4","last_reported":1699715152,"current_range_meters":21200,"station_id":"ce4bhg92rcd13ifvqf90","pricing_plan_id":"free"},{"bike_id":"69703c51-ccf7-4388-a909-bf7e30fa7df1","system_id":"levelo_inurba_marseille","lat":43.26553,"lon":5.37283,"is_reserved":false,"is_disabled":false,"rental_uris":{"android":"levelo://app?vid=69703c51-ccf7-4388-a909-bf7e30fa7df1","ios":"levelo://app?vid=69703c51-ccf7-4388-a909-bf7e30fa7df1"},"vehicle_type_id":"4","last_reported":1699715152,"current_range_meters":30000,"station_id":"ce4bhg12rcd13ifvqf70","pricing_plan_id":"free"},{"bike_id":"3cb2abbb-4aac-4c77-9744-76b2aab4dea5","system_id":"levelo_inurba_marseille","lat":43.27999,"lon":5.41665,"is_reserved":false,"is_disabled":false,"rental_uris":{"android":"levelo://app?vid=3cb2abbb-4aac-4c77-9744-76b2aab4dea5","ios":"levelo://app?vid=3cb2abbb-4aac-4c77-9744-76b2aab4dea5"},"vehicle_type_id":"4","last_reported":1699715152,"current_range_meters":31200,"station_id":"ce4bho12rcd13ifvqh1g","pricing_plan_id":"free"},{"bike_id":"4221bc7f-880d-4817-8ec1-d51f5883c835","system_id":"levelo_inurba_marseille","lat":43.27987,"lon":5.41657,"is_reserved":false,"is_disabled":false,"rental_uris":{"android":"levelo://app?vid=4221bc7f-880d-4817-8ec1-d51f5883c835","ios":"levelo://app?vid=4221bc7f-880d-4817-8ec1-d51f5883c835"},"vehicle_type_id":"4","last_reported":1699715152,"current_range_meters":26400,"station_id":"ce4bho12rcd13ifvqh1g","pricing_plan_id":"free"},{"bike_id":"54977d38-948d-4d5d-bf17-2ac08a208c19","system_id":"levelo_inurba_marseille","lat":43.27995,"lon":5.41667,"is_reserved":false,"is_disabled":false,"rental_uris":{"android":"levelo://app?vid=54977d38-948d-4d5d-bf17-2ac08a208c19","ios":"levelo://app?vid=54977d38-948d-4d5d-bf17-2ac08a208c19"},"vehicle_type_id":"4","last_reported":1699715152,"current_range_meters":12400,"station_id":"ce4bho12rcd13ifvqh1g","pricing_plan_id":"free"},{"bike_id":"9b3232c5-9487-4e9a-a165-6f944c2b2286","system_id":"levelo_inurba_marseille","lat":43.27998,"lon":5.41671,"is_reserved":false,"is_disabled":false,"rental_uris":{"android":"levelo://app?vid=9b3232c5-9487-4e9a-a165-6f944c2b2286","ios":"levelo://app?vid=9b3232c5-9487-4e9a-a165-6f944c2b2286"},"vehicle_type_id":"4","last_reported":1699715152,"current_range_meters":20000,"station_id":"ce4bho12rcd13ifvqh1g","pricing_plan_id":"free"},{"bike_id":"a9278f48-1954-4691-8a42-357fab708116","system_id":"levelo_inurba_marseille","lat":43.2799,"lon":5.41663,"is_reserved":false,"is_disabled":false,"rental_uris":{"android":"levelo://app?vid=a9278f48-1954-4691-8a42-357fab708116","ios":"levelo://app?vid=a9278f48-1954-4691-8a42-357fab708116"},"vehicle_type_id":"4","last_reported":1699715152,"current_range_meters":31200,"station_id":"ce4bho12rcd13ifvqh1g","pricing_plan_id":"free"},{"bike_id":"f6f77813-0e6a-4eab-9f20-b1c8456f1163","system_id":"levelo_inurba_marseille","lat":43.267966,"lon":5.393976,"is_reserved":false,"is_disabled":false,"rental_uris":{"android":"levelo://app?vid=f6f77813-0e6a-4eab-9f20-b1c8456f1163","ios":"levelo://app?vid=f6f77813-0e6a-4eab-9f20-b1c8456f1163"},"vehicle_type_id":"4","last_reported":1699715152,"current_range_meters":9600,"station_id":"ce4bhh12rcd13ifvqfg0","pricing_plan_id":"free"},{"bike_id":"db201d1b-111d-44c5-86f2-bc8bb86a8c9c","system_id":"levelo_inurba_marseille","lat":43.265571,"lon":5.390032,"is_reserved":false,"is_disabled":false,"rental_uris":{"android":"levelo://app?vid=db201d1b-111d-44c5-86f2-bc8bb86a8c9c","ios":"levelo://app?vid=db201d1b-111d-44c5-86f2-bc8bb86a8c9c"},"vehicle_type_id":"4","last_reported":1699715152,"current_range_meters":7200,"station_id":"ce4bhe12rcd13ifvqf30","pricing_plan_id":"free"},{"bike_id":"7c765955-fcfa-48e9-b5ff-599a63f56ca4","system_id":"levelo_inurba_marseille","lat":43.26573,"lon":5.39012,"is_reserved":false,"is_disabled":false,"rental_uris":{"android":"levelo://app?vid=7c765955-fcfa-48e9-b5ff-599a63f56ca4","ios":"levelo://app?vid=7c765955-fcfa-48e9-b5ff-599a63f56ca4"},"vehicle_type_id":"4","last_reported":1699715152,"current_range_meters":19200,"station_id":"ce4bhe12rcd13ifvqf30","pricing_plan_id":"free"},{"bike_id":"f255e51e-ace1-4b25-b50e-11e1e776c8f5","system_id":"levelo_inurba_marseille","lat":43.26563,"lon":5.39005,"is_reserved":false,"is_disabled":false,"rental_uris":{"android":"levelo://app?vid=f255e51e-ace1-4b25-b50e-11e1e776c8f5","ios":"levelo://app?vid=f255e51e-ace1-4b25-b50e-11e1e776c8f5"},"vehicle_type_id":"4","last_reported":1699715152,"current_range_meters":31200,"station_id":"ce4bhe12rcd13ifvqf30","pricing_plan_id":"free"},{"bike_id":"97efca1c-3a73-4623-a39c-0bc63e72d19d","system_id":"levelo_inurba_marseille","lat":43.26563,"lon":5.39011,"is_reserved":false,"is_disabled":false,"rental_uris":{"android":"levelo://app?vid=97efca1c-3a73-4623-a39c-0bc63e72d19d","ios":"levelo://app?vid=97efca1c-3a73-4623-a39c-0bc63e72d19d"},"vehicle_type_id":"4","last_reported":1699715152,"current_range_meters":24800,"station_id":"ce4bhe12rcd13ifvqf30","pricing_plan_id":"free"},{"bike_id":"652c2a8a-7c13-45c0-a1f6-d1a5f0b85e49","system_id":"levelo_inurba_marseille","lat":43.2656,"lon":5.39008,"is_reserved":false,"is_disabled":false,"rental_uris":{"android":"levelo://app?vid=652c2a8a-7c13-45c0-a1f6-d1a5f0b85e49","ios":"levelo://app?vid=652c2a8a-7c13-45c0-a1f6-d1a5f0b85e49"},"vehicle_type_id":"4","last_reported":1699715152,"current_range_meters":11200,"station_id":"ce4bhe12rcd13ifvqf30","pricing_plan_id":"free"},{"bike_id":"69f33667-9624-4a55-ade4-31894a8dae01","system_id":"levelo_inurba_marseille","lat":43.26559,"lon":5.39013,"is_reserved":false,"is_disabled":false,"rental_uris":{"android":"levelo://app?vid=69f33667-9624-4a55-ade4-31894a8dae01","ios":"levelo://app?vid=69f33667-9624-4a55-ade4-31894a8dae01"},"vehicle_type_id":"4","last_reported":1699715152,"current_range_meters":16400,"station_id":"ce4bhe12rcd13ifvqf30","pricing_plan_id":"free"},{"bike_id":"ed6a91b1-50be-4111-bb22-0bc366cf7aa7","system_id":"levelo_inurba_marseille","lat":43.26557,"lon":5.39011,"is_reserved":false,"is_disabled":false,"rental_uris":{"android":"levelo://app?vid=ed6a91b1-50be-4111-bb22-0bc366cf7aa7","ios":"levelo://app?vid=ed6a91b1-50be-4111-bb22-0bc366cf7aa7"},"vehicle_type_id":"4","last_reported":1699715152,"current_range_meters":5200,"station_id":"ce4bhe12rcd13ifvqf30","pricing_plan_id":"free"},{"bike_id":"758a7d76-f1a9-4f2a-b35d-c28bd967697a","system_id":"levelo_inurba_marseille","lat":43.26949,"lon":5.40262,"is_reserved":false,"is_disabled":false,"rental_uris":{"android":"levelo://app?vid=758a7d76-f1a9-4f2a-b35d-c28bd967697a","ios":"levelo://app?vid=758a7d76-f1a9-4f2a-b35d-c28bd967697a"},"vehicle_type_id":"4","last_reported":1699715152,"current_range_meters":0,"station_id":"cjm6bp8fraef2m0cb0m0","pricing_plan_id":"free"},{"bike_id":"99d1910d-a84d-4eaf-bf7a-e5a15d325b53","system_id":"levelo_inurba_marseille","lat":43.331823,"lon":5.431664,"is_reserved":false,"is_disabled":false,"rental_uris":{"android":"levelo://app?vid=99d1910d-a84d-4eaf-bf7a-e5a15d325b53","ios":"levelo://app?vid=99d1910d-a84d-4eaf-bf7a-e5a15d325b53"},"vehicle_type_id":"4","last_reported":1699715152,"current_range_meters":0,"station_id":"","pricing_plan_id":"free"},{"bike_id":"b4c2278d-cee6-4215-bdc9-f3e6dd0d7950","system_id":"levelo_inurba_marseille","lat":43.261782,"lon":5.374515,"is_reserved":false,"is_disabled":false,"rental_uris":{"android":"levelo://app?vid=b4c2278d-cee6-4215-bdc9-f3e6dd0d7950","ios":"levelo://app?vid=b4c2278d-cee6-4215-bdc9-f3e6dd0d7950"},"vehicle_type_id":"4","last_reported":1699715152,"current_range_meters":6000,"station_id":"ce4bhgp2rcd13ifvqfc0","pricing_plan_id":"free"},{"bike_id":"95731d1b-1325-456a-8700-83d72dbaf979","system_id":"levelo_inurba_marseille","lat":43.31715,"lon":5.43692,"is_reserved":false,"is_disabled":false,"rental_uris":{"android":"levelo://app?vid=95731d1b-1325-456a-8700-83d72dbaf979","ios":"levelo://app?vid=95731d1b-1325-456a-8700-83d72dbaf979"},"vehicle_type_id":"4","last_reported":1699715152,"current_range_meters":24800,"station_id":"ce4bhp92rcd13ifvqhcg","pricing_plan_id":"free"},{"bike_id":"f42c1c9d-091e-49b5-afe1-48128cddff8c","system_id":"levelo_inurba_marseille","lat":43.261782,"lon":5.374515,"is_reserved":false,"is_disabled":false,"rental_uris":{"android":"levelo://app?vid=f42c1c9d-091e-49b5-afe1-48128cddff8c","ios":"levelo://app?vid=f42c1c9d-091e-49b5-afe1-48128cddff8c"},"vehicle_type_id":"4","last_reported":1699715152,"current_range_meters":9200,"station_id":"ce4bhgp2rcd13ifvqfc0","pricing_plan_id":"free"},{"bike_id":"25fa0bdc-ead4-4271-87e1-d70b6eb9d2a9","system_id":"levelo_inurba_marseille","lat":43.31711,"lon":5.43697,"is_reserved":false,"is_disabled":false,"rental_uris":{"android":"levelo://app?vid=25fa0bdc-ead4-4271-87e1-d70b6eb9d2a9","ios":"levelo://app?vid=25fa0bdc-ead4-4271-87e1-d70b6eb9d2a9"},"vehicle_type_id":"4","last_reported":1699715152,"current_range_meters":29600,"station_id":"ce4bhp92rcd13ifvqhcg","pricing_plan_id":"free"},{"bike_id":"16f17151-fe60-4a21-be1c-c787ed957961","system_id":"levelo_inurba_marseille","lat":43.31716,"lon":5.43703,"is_reserved":false,"is_disabled":false,"rental_uris":{"android":"levelo://app?vid=16f17151-fe60-4a21-be1c-c787ed957961","ios":"levelo://app?vid=16f17151-fe60-4a21-be1c-c787ed957961"},"vehicle_type_id":"4","last_reported":1699715152,"current_range_meters":0,"station_id":"ce4bhp92rcd13ifvqhcg","pricing_plan_id":"free"},{"bike_id":"aa1b7be3-e9d2-45d4-97fa-c782d92ed846","system_id":"levelo_inurba_marseille","lat":43.26202,"lon":5.379299,"is_reserved":false,"is_disabled":false,"rental_uris":{"android":"levelo://app?vid=aa1b7be3-e9d2-45d4-97fa-c782d92ed846","ios":"levelo://app?vid=aa1b7be3-e9d2-45d4-97fa-c782d92ed846"},"vehicle_type_id":"4","last_reported":1699715152,"current_range_meters":4000,"station_id":"ce4bhjp2rcd13ifvqg90","pricing_plan_id":"free"},{"bike_id":"b1944ed4-5f0c-4e0b-bb2f-81e29e4ea307","system_id":"levelo_inurba_marseille","lat":43.26202,"lon":5.379299,"is_reserved":false,"is_disabled":false,"rental_uris":{"android":"levelo://app?vid=b1944ed4-5f0c-4e0b-bb2f-81e29e4ea307","ios":"levelo://app?vid=b1944ed4-5f0c-4e0b-bb2f-81e29e4ea307"},"vehicle_type_id":"4","last_reported":1699715152,"current_range_meters":18800,"station_id":"ce4bhjp2rcd13ifvqg90","pricing_plan_id":"free"},{"bike_id":"5b2f28de-7458-4ce2-9272-7a2f611d2357","system_id":"levelo_inurba_marseille","lat":43.271368,"lon":5.40928,"is_reserved":false,"is_disabled":false,"rental_uris":{"android":"levelo://app?vid=5b2f28de-7458-4ce2-9272-7a2f611d2357","ios":"levelo://app?vid=5b2f28de-7458-4ce2-9272-7a2f611d2357"},"vehicle_type_id":"4","last_reported":1699715152,"current_range_meters":22400,"station_id":"ce4bhl12rcd13ifvqgf0","pricing_plan_id":"free"},{"bike_id":"7fc02f60-4dd1-49fd-b17f-897e8e9a3cc1","system_id":"levelo_inurba_marseille","lat":43.267959,"lon":5.402685,"is_reserved":false,"is_disabled":false,"rental_uris":{"android":"levelo://app?vid=7fc02f60-4dd1-49fd-b17f-897e8e9a3cc1","ios":"levelo://app?vid=7fc02f60-4dd1-49fd-b17f-897e8e9a3cc1"},"vehicle_type_id":"4","last_reported":1699715152,"current_range_meters":27200,"station_id":"ce501612rcd8frsf0b60","pricing_plan_id":"free"},{"bike_id":"5130d534-25dc-403c-b40e-6494decfc1e3","system_id":"levelo_inurba_marseille","lat":43.267959,"lon":5.402687,"is_reserved":false,"is_disabled":false,"rental_uris":{"android":"levelo://app?vid=5130d534-25dc-403c-b40e-6494decfc1e3","ios":"levelo://app?vid=5130d534-25dc-403c-b40e-6494decfc1e3"},"vehicle_type_id":"4","last_reported":1699715152,"current_range_meters":22800,"station_id":"ce501612rcd8frsf0b60","pricing_plan_id":"free"},{"bike_id":"1c3c1716-47ae-405a-a62c-21ce0db82e49","system_id":"levelo_inurba_marseille","lat":43.267959,"lon":5.402687,"is_reserved":false,"is_disabled":false,"rental_uris":{"android":"levelo://app?vid=1c3c1716-47ae-405a-a62c-21ce0db82e49","ios":"levelo://app?vid=1c3c1716-47ae-405a-a62c-21ce0db82e49"},"vehicle_type_id":"4","last_reported":1699715152,"current_range_meters":31200,"station_id":"ce501612rcd8frsf0b60","pricing_plan_id":"free"},{"bike_id":"8a4087ee-eb27-456c-aa78-99b81d1568ae","system_id":"levelo_inurba_marseille","lat":43.298961,"lon":5.436687,"is_reserved":false,"is_disabled":false,"rental_uris":{"android":"levelo://app?vid=8a4087ee-eb27-456c-aa78-99b81d1568ae","ios":"levelo://app?vid=8a4087ee-eb27-456c-aa78-99b81d1568ae"},"vehicle_type_id":"4","last_reported":1699715152,"current_range_meters":0,"station_id":"ce4bhpp2rcd13ifvqhfg","pricing_plan_id":"free"},{"bike_id":"c48c9371-7c30-4897-8647-06790164a180","system_id":"levelo_inurba_marseille","lat":43.26501,"lon":5.39732,"is_reserved":false,"is_disabled":false,"rental_uris":{"android":"levelo://app?vid=c48c9371-7c30-4897-8647-06790164a180","ios":"levelo://app?vid=c48c9371-7c30-4897-8647-06790164a180"},"vehicle_type_id":"4","last_reported":1699715152,"current_range_meters":0,"station_id":"","pricing_plan_id":"free"},{"bike_id":"3b5bfcfe-b7e3-4624-abf7-d21c0c861046","system_id":"levelo_inurba_marseille","lat":43.281822,"lon":5.425606,"is_reserved":false,"is_disabled":false,"rental_uris":{"android":"levelo://app?vid=3b5bfcfe-b7e3-4624-abf7-d21c0c861046","ios":"levelo://app?vid=3b5bfcfe-b7e3-4624-abf7-d21c0c861046"},"vehicle_type_id":"4","last_reported":1699715152,"current_range_meters":3600,"station_id":"","pricing_plan_id":"free"},{"bike_id":"4f6880f4-3164-4fc2-9cf7-3c1358040f10","system_id":"levelo_inurba_marseille","lat":43.290501,"lon":5.433305,"is_reserved":false,"is_disabled":false,"rental_uris":{"android":"levelo://app?vid=4f6880f4-3164-4fc2-9cf7-3c1358040f10","ios":"levelo://app?vid=4f6880f4-3164-4fc2-9cf7-3c1358040f10"},"vehicle_type_id":"4","last_reported":1699715152,"current_range_meters":19200,"station_id":"","pricing_plan_id":"free"},{"bike_id":"32e78574-28d9-4487-9f62-47d69a328992","system_id":"levelo_inurba_marseille","lat":43.281548,"lon":5.42643,"is_reserved":false,"is_disabled":false,"rental_uris":{"android":"levelo://app?vid=32e78574-28d9-4487-9f62-47d69a328992","ios":"levelo://app?vid=32e78574-28d9-4487-9f62-47d69a328992"},"vehicle_type_id":"4","last_reported":1699715152,"current_range_meters":20000,"station_id":"ce4bhnh2rcd13ifvqgug","pricing_plan_id":"free"},{"bike_id":"1ed73a19-67b5-4669-8526-685c80708e99","system_id":"levelo_inurba_marseille","lat":43.281548,"lon":5.42643,"is_reserved":false,"is_disabled":false,"rental_uris":{"android":"levelo://app?vid=1ed73a19-67b5-4669-8526-685c80708e99","ios":"levelo://app?vid=1ed73a19-67b5-4669-8526-685c80708e99"},"vehicle_type_id":"4","last_reported":1699715152,"current_range_meters":19200,"station_id":"ce4bhnh2rcd13ifvqgug","pricing_plan_id":"free"},{"bike_id":"dfc20bae-3099-44f5-89f0-e9d8c7f71c01","system_id":"levelo_inurba_marseille","lat":43.275028,"lon":5.424534,"is_reserved":false,"is_disabled":false,"rental_uris":{"android":"levelo://app?vid=dfc20bae-3099-44f5-89f0-e9d8c7f71c01","ios":"levelo://app?vid=dfc20bae-3099-44f5-89f0-e9d8c7f71c01"},"vehicle_type_id":"4","last_reported":1699715152,"current_range_meters":9200,"station_id":"ce4bhn92rcd13ifvqgrg","pricing_plan_id":"free"},{"bike_id":"0dcf0579-8400-45aa-bef0-3b5f8667cdd5","system_id":"levelo_inurba_marseille","lat":43.26094,"lon":5.39755,"is_reserved":false,"is_disabled":false,"rental_uris":{"android":"levelo://app?vid=0dcf0579-8400-45aa-bef0-3b5f8667cdd5","ios":"levelo://app?vid=0dcf0579-8400-45aa-bef0-3b5f8667cdd5"},"vehicle_type_id":"4","last_reported":1699715152,"current_range_meters":20800,"station_id":"ce4bhi12rcd13ifvqfq0","pricing_plan_id":"free"},{"bike_id":"7929fe62-478b-45ed-a32f-4cee63794674","system_id":"levelo_inurba_marseille","lat":43.275005,"lon":5.424511,"is_reserved":false,"is_disabled":false,"rental_uris":{"android":"levelo://app?vid=7929fe62-478b-45ed-a32f-4cee63794674","ios":"levelo://app?vid=7929fe62-478b-45ed-a32f-4cee63794674"},"vehicle_type_id":"4","last_reported":1699715152,"current_range_meters":17200,"station_id":"","pricing_plan_id":"free"},{"bike_id":"612db34d-f091-454c-8963-621c970a0d1a","system_id":"levelo_inurba_marseille","lat":43.275028,"lon":5.424534,"is_reserved":false,"is_disabled":false,"rental_uris":{"android":"levelo://app?vid=612db34d-f091-454c-8963-621c970a0d1a","ios":"levelo://app?vid=612db34d-f091-454c-8963-621c970a0d1a"},"vehicle_type_id":"4","last_reported":1699715152,"current_range_meters":12400,"station_id":"ce4bhn92rcd13ifvqgrg","pricing_plan_id":"free"},{"bike_id":"d5014823-3968-40af-ba19-6e1e44802278","system_id":"levelo_inurba_marseille","lat":43.275028,"lon":5.424534,"is_reserved":false,"is_disabled":false,"rental_uris":{"android":"levelo://app?vid=d5014823-3968-40af-ba19-6e1e44802278","ios":"levelo://app?vid=d5014823-3968-40af-ba19-6e1e44802278"},"vehicle_type_id":"4","last_reported":1699715152,"current_range_meters":22000,"station_id":"ce4bhn92rcd13ifvqgrg","pricing_plan_id":"free"},{"bike_id":"08516e65-842d-4838-8aa5-a2a9ed2b8bf0","system_id":"levelo_inurba_marseille","lat":43.26091,"lon":5.39761,"is_reserved":false,"is_disabled":false,"rental_uris":{"android":"levelo://app?vid=08516e65-842d-4838-8aa5-a2a9ed2b8bf0","ios":"levelo://app?vid=08516e65-842d-4838-8aa5-a2a9ed2b8bf0"},"vehicle_type_id":"4","last_reported":1699715152,"current_range_meters":22000,"station_id":"ce4bhi12rcd13ifvqfq0","pricing_plan_id":"free"},{"bike_id":"eaf50d44-2493-494b-9c1a-116aa1538e7e","system_id":"levelo_inurba_marseille","lat":43.275028,"lon":5.424534,"is_reserved":false,"is_disabled":false,"rental_uris":{"android":"levelo://app?vid=eaf50d44-2493-494b-9c1a-116aa1538e7e","ios":"levelo://app?vid=eaf50d44-2493-494b-9c1a-116aa1538e7e"},"vehicle_type_id":"4","last_reported":1699715152,"current_range_meters":24400,"station_id":"ce4bhn92rcd13ifvqgrg","pricing_plan_id":"free"},{"bike_id":"4bdae950-8532-4380-b75c-eee58727078a","system_id":"levelo_inurba_marseille","lat":43.25595,"lon":5.38228,"is_reserved":false,"is_disabled":false,"rental_uris":{"android":"levelo://app?vid=4bdae950-8532-4380-b75c-eee58727078a","ios":"levelo://app?vid=4bdae950-8532-4380-b75c-eee58727078a"},"vehicle_type_id":"4","last_reported":1699715152,"current_range_meters":2000,"station_id":"ce4bhih2rcd13ifvqfs0","pricing_plan_id":"free"},{"bike_id":"b297cf7d-d920-418c-9f4a-259d91b756f0","system_id":"levelo_inurba_marseille","lat":43.255811,"lon":5.382244,"is_reserved":false,"is_disabled":false,"rental_uris":{"android":"levelo://app?vid=b297cf7d-d920-418c-9f4a-259d91b756f0","ios":"levelo://app?vid=b297cf7d-d920-418c-9f4a-259d91b756f0"},"vehicle_type_id":"4","last_reported":1699715152,"current_range_meters":17200,"station_id":"","pricing_plan_id":"free"},{"bike_id":"9129396c-854e-4bc0-8526-1d1608ad5fe0","system_id":"levelo_inurba_marseille","lat":43.2558,"lon":5.38225,"is_reserved":false,"is_disabled":false,"rental_uris":{"android":"levelo://app?vid=9129396c-854e-4bc0-8526-1d1608ad5fe0","ios":"levelo://app?vid=9129396c-854e-4bc0-8526-1d1608ad5fe0"},"vehicle_type_id":"4","last_reported":1699715152,"current_range_meters":22000,"station_id":"ce4bhih2rcd13ifvqfs0","pricing_plan_id":"free"},{"bike_id":"7c6605e8-248d-44b3-a40f-82d4d152b51e","system_id":"levelo_inurba_marseille","lat":43.255784,"lon":5.382344,"is_reserved":false,"is_disabled":false,"rental_uris":{"android":"levelo://app?vid=7c6605e8-248d-44b3-a40f-82d4d152b51e","ios":"levelo://app?vid=7c6605e8-248d-44b3-a40f-82d4d152b51e"},"vehicle_type_id":"4","last_reported":1699715152,"current_range_meters":28000,"station_id":"ce4bhih2rcd13ifvqfs0","pricing_plan_id":"free"},{"bike_id":"6733c60e-5a01-41f4-8cd2-3aa18ae7da79","system_id":"levelo_inurba_marseille","lat":43.25573,"lon":5.38239,"is_reserved":false,"is_disabled":false,"rental_uris":{"android":"levelo://app?vid=6733c60e-5a01-41f4-8cd2-3aa18ae7da79","ios":"levelo://app?vid=6733c60e-5a01-41f4-8cd2-3aa18ae7da79"},"vehicle_type_id":"4","last_reported":1699715152,"current_range_meters":20400,"station_id":"ce4bhih2rcd13ifvqfs0","pricing_plan_id":"free"},{"bike_id":"2aa6c4b1-a67d-43b7-9eb1-fe5b5bec91bf","system_id":"levelo_inurba_marseille","lat":43.333213,"lon":5.441705,"is_reserved":false,"is_disabled":false,"rental_uris":{"android":"levelo://app?vid=2aa6c4b1-a67d-43b7-9eb1-fe5b5bec91bf","ios":"levelo://app?vid=2aa6c4b1-a67d-43b7-9eb1-fe5b5bec91bf"},"vehicle_type_id":"4","last_reported":1699715152,"current_range_meters":9600,"station_id":"","pricing_plan_id":"free"},{"bike_id":"d1be4948-3db8-46c6-a0e9-4eb9877553a6","system_id":"levelo_inurba_marseille","lat":43.25497,"lon":5.3765,"is_reserved":false,"is_disabled":false,"rental_uris":{"android":"levelo://app?vid=d1be4948-3db8-46c6-a0e9-4eb9877553a6","ios":"levelo://app?vid=d1be4948-3db8-46c6-a0e9-4eb9877553a6"},"vehicle_type_id":"4","last_reported":1699715152,"current_range_meters":23600,"station_id":"ce4bhh12rcd13ifvqff0","pricing_plan_id":"free"},{"bike_id":"d8599002-1e4e-4a9f-9e22-da9f812e154c","system_id":"levelo_inurba_marseille","lat":43.25489,"lon":5.37646,"is_reserved":false,"is_disabled":false,"rental_uris":{"android":"levelo://app?vid=d8599002-1e4e-4a9f-9e22-da9f812e154c","ios":"levelo://app?vid=d8599002-1e4e-4a9f-9e22-da9f812e154c"},"vehicle_type_id":"4","last_reported":1699715152,"current_range_meters":15600,"station_id":"ce4bhh12rcd13ifvqff0","pricing_plan_id":"free"},{"bike_id":"7bc2c3c9-3ffb-495a-b9e4-cdbe3525ddd9","system_id":"levelo_inurba_marseille","lat":43.270721,"lon":5.422764,"is_reserved":false,"is_disabled":false,"rental_uris":{"android":"levelo://app?vid=7bc2c3c9-3ffb-495a-b9e4-cdbe3525ddd9","ios":"levelo://app?vid=7bc2c3c9-3ffb-495a-b9e4-cdbe3525ddd9"},"vehicle_type_id":"4","last_reported":1699715152,"current_range_meters":15600,"station_id":"ce4bhk92rcd13ifvqgb0","pricing_plan_id":"free"},{"bike_id":"ab7874a0-e460-4f49-b04e-e54d89849503","system_id":"levelo_inurba_marseille","lat":43.270721,"lon":5.422764,"is_reserved":false,"is_disabled":false,"rental_uris":{"android":"levelo://app?vid=ab7874a0-e460-4f49-b04e-e54d89849503","ios":"levelo://app?vid=ab7874a0-e460-4f49-b04e-e54d89849503"},"vehicle_type_id":"4","last_reported":1699715152,"current_range_meters":16000,"station_id":"ce4bhk92rcd13ifvqgb0","pricing_plan_id":"free"},{"bike_id":"44390b9c-67db-4d9d-b523-11efba851141","system_id":"levelo_inurba_marseille","lat":43.27067,"lon":5.42279,"is_reserved":false,"is_disabled":false,"rental_uris":{"android":"levelo://app?vid=44390b9c-67db-4d9d-b523-11efba851141","ios":"levelo://app?vid=44390b9c-67db-4d9d-b523-11efba851141"},"vehicle_type_id":"4","last_reported":1699715152,"current_range_meters":11600,"station_id":"ce4bhk92rcd13ifvqgb0","pricing_plan_id":"free"},{"bike_id":"0e66c79d-95d8-4269-bfc4-e7d90c3409c9","system_id":"levelo_inurba_marseille","lat":43.258658,"lon":5.398935,"is_reserved":false,"is_disabled":false,"rental_uris":{"android":"levelo://app?vid=0e66c79d-95d8-4269-bfc4-e7d90c3409c9","ios":"levelo://app?vid=0e66c79d-95d8-4269-bfc4-e7d90c3409c9"},"vehicle_type_id":"4","last_reported":1699715152,"current_range_meters":2000,"station_id":"ce4bhl92rcd13ifvqghg","pricing_plan_id":"free"},{"bike_id":"2a5a6ed1-d7a6-47e8-918e-990a6d1ee485","system_id":"levelo_inurba_marseille","lat":43.25929,"lon":5.40906,"is_reserved":false,"is_disabled":false,"rental_uris":{"android":"levelo://app?vid=2a5a6ed1-d7a6-47e8-918e-990a6d1ee485","ios":"levelo://app?vid=2a5a6ed1-d7a6-47e8-918e-990a6d1ee485"},"vehicle_type_id":"4","last_reported":1699715152,"current_range_meters":0,"station_id":"ce4bhm92rcd13ifvqglg","pricing_plan_id":"free"},{"bike_id":"32f164ca-0f8d-47b4-b141-3b01d043da1d","system_id":"levelo_inurba_marseille","lat":43.257079,"lon":5.411051,"is_reserved":false,"is_disabled":false,"rental_uris":{"android":"levelo://app?vid=32f164ca-0f8d-47b4-b141-3b01d043da1d","ios":"levelo://app?vid=32f164ca-0f8d-47b4-b141-3b01d043da1d"},"vehicle_type_id":"4","last_reported":1699715152,"current_range_meters":23200,"station_id":"ce4bhkp2rcd13ifvqgd0","pricing_plan_id":"free"},{"bike_id":"849750d5-6d4c-402d-b64a-694cf2f51515","system_id":"levelo_inurba_marseille","lat":43.25003,"lon":5.38911,"is_reserved":false,"is_disabled":false,"rental_uris":{"android":"levelo://app?vid=849750d5-6d4c-402d-b64a-694cf2f51515","ios":"levelo://app?vid=849750d5-6d4c-402d-b64a-694cf2f51515"},"vehicle_type_id":"4","last_reported":1699715152,"current_range_meters":0,"station_id":"ce4bhgp2rcd13ifvqfd0","pricing_plan_id":"free"},{"bike_id":"4c495466-e9cf-4455-9ae6-80f612cba431","system_id":"levelo_inurba_marseille","lat":43.250009,"lon":5.389195,"is_reserved":false,"is_disabled":false,"rental_uris":{"android":"levelo://app?vid=4c495466-e9cf-4455-9ae6-80f612cba431","ios":"levelo://app?vid=4c495466-e9cf-4455-9ae6-80f612cba431"},"vehicle_type_id":"4","last_reported":1699715152,"current_range_meters":29200,"station_id":"ce4bhgp2rcd13ifvqfd0","pricing_plan_id":"free"},{"bike_id":"bea1e0d8-1de2-4210-addd-c009cad976ad","system_id":"levelo_inurba_marseille","lat":43.250009,"lon":5.389195,"is_reserved":false,"is_disabled":false,"rental_uris":{"android":"levelo://app?vid=bea1e0d8-1de2-4210-addd-c009cad976ad","ios":"levelo://app?vid=bea1e0d8-1de2-4210-addd-c009cad976ad"},"vehicle_type_id":"4","last_reported":1699715152,"current_range_meters":0,"station_id":"ce4bhgp2rcd13ifvqfd0","pricing_plan_id":"free"},{"bike_id":"117f8247-c7a1-4bdc-82ec-a6885bad1e28","system_id":"levelo_inurba_marseille","lat":43.248129,"lon":5.374574,"is_reserved":false,"is_disabled":false,"rental_uris":{"android":"levelo://app?vid=117f8247-c7a1-4bdc-82ec-a6885bad1e28","ios":"levelo://app?vid=117f8247-c7a1-4bdc-82ec-a6885bad1e28"},"vehicle_type_id":"4","last_reported":1699715152,"current_range_meters":31200,"station_id":"ce4bhgh2rcd13ifvqfb0","pricing_plan_id":"free"},{"bike_id":"e87d01a5-bec1-417e-b6d0-0b9a60de459e","system_id":"levelo_inurba_marseille","lat":43.24812,"lon":5.37459,"is_reserved":false,"is_disabled":false,"rental_uris":{"android":"levelo://app?vid=e87d01a5-bec1-417e-b6d0-0b9a60de459e","ios":"levelo://app?vid=e87d01a5-bec1-417e-b6d0-0b9a60de459e"},"vehicle_type_id":"4","last_reported":1699715152,"current_range_meters":17200,"station_id":"ce4bhgh2rcd13ifvqfb0","pricing_plan_id":"free"},{"bike_id":"c70b55b3-86c9-4446-83d0-302c2ea2e52b","system_id":"levelo_inurba_marseille","lat":43.2479,"lon":5.374457,"is_reserved":false,"is_disabled":false,"rental_uris":{"android":"levelo://app?vid=c70b55b3-86c9-4446-83d0-302c2ea2e52b","ios":"levelo://app?vid=c70b55b3-86c9-4446-83d0-302c2ea2e52b"},"vehicle_type_id":"4","last_reported":1699715152,"current_range_meters":31200,"station_id":"ce4bhgh2rcd13ifvqfb0","pricing_plan_id":"free"},{"bike_id":"44d098db-0873-40e4-bf01-ef8bf32f4a83","system_id":"levelo_inurba_marseille","lat":43.2479,"lon":5.374457,"is_reserved":false,"is_disabled":false,"rental_uris":{"android":"levelo://app?vid=44d098db-0873-40e4-bf01-ef8bf32f4a83","ios":"levelo://app?vid=44d098db-0873-40e4-bf01-ef8bf32f4a83"},"vehicle_type_id":"4","last_reported":1699715152,"current_range_meters":24400,"station_id":"ce4bhgh2rcd13ifvqfb0","pricing_plan_id":"free"},{"bike_id":"923f121e-7e9f-43b1-9663-eedbc7cc8709","system_id":"levelo_inurba_marseille","lat":43.2479,"lon":5.374457,"is_reserved":false,"is_disabled":false,"rental_uris":{"android":"levelo://app?vid=923f121e-7e9f-43b1-9663-eedbc7cc8709","ios":"levelo://app?vid=923f121e-7e9f-43b1-9663-eedbc7cc8709"},"vehicle_type_id":"4","last_reported":1699715152,"current_range_meters":17600,"station_id":"ce4bhgh2rcd13ifvqfb0","pricing_plan_id":"free"},{"bike_id":"324a8568-ec5b-4102-8ac7-1566fe07a016","system_id":"levelo_inurba_marseille","lat":43.2479,"lon":5.374457,"is_reserved":false,"is_disabled":false,"rental_uris":{"android":"levelo://app?vid=324a8568-ec5b-4102-8ac7-1566fe07a016","ios":"levelo://app?vid=324a8568-ec5b-4102-8ac7-1566fe07a016"},"vehicle_type_id":"4","last_reported":1699715152,"current_range_meters":31200,"station_id":"ce4bhgh2rcd13ifvqfb0","pricing_plan_id":"free"},{"bike_id":"b596faad-9395-4aaf-9ced-38a211cbb048","system_id":"levelo_inurba_marseille","lat":43.2479,"lon":5.374457,"is_reserved":false,"is_disabled":false,"rental_uris":{"android":"levelo://app?vid=b596faad-9395-4aaf-9ced-38a211cbb048","ios":"levelo://app?vid=b596faad-9395-4aaf-9ced-38a211cbb048"},"vehicle_type_id":"4","last_reported":1699715152,"current_range_meters":31200,"station_id":"ce4bhgh2rcd13ifvqfb0","pricing_plan_id":"free"},{"bike_id":"d75ac4f4-040e-48ac-b77c-191e38f4a596","system_id":"levelo_inurba_marseille","lat":43.2479,"lon":5.374457,"is_reserved":false,"is_disabled":false,"rental_uris":{"android":"levelo://app?vid=d75ac4f4-040e-48ac-b77c-191e38f4a596","ios":"levelo://app?vid=d75ac4f4-040e-48ac-b77c-191e38f4a596"},"vehicle_type_id":"4","last_reported":1699715152,"current_range_meters":31600,"station_id":"ce4bhgh2rcd13ifvqfb0","pricing_plan_id":"free"},{"bike_id":"84439e3d-4e75-4119-8a53-e76e66bc1ba9","system_id":"levelo_inurba_marseille","lat":43.248063,"lon":5.374603,"is_reserved":false,"is_disabled":false,"rental_uris":{"android":"levelo://app?vid=84439e3d-4e75-4119-8a53-e76e66bc1ba9","ios":"levelo://app?vid=84439e3d-4e75-4119-8a53-e76e66bc1ba9"},"vehicle_type_id":"4","last_reported":1699715152,"current_range_meters":16000,"station_id":"ce4bhgh2rcd13ifvqfb0","pricing_plan_id":"free"},{"bike_id":"f38b713a-05c8-4a5d-b644-a978e17b813c","system_id":"levelo_inurba_marseille","lat":43.24804,"lon":5.37452,"is_reserved":false,"is_disabled":false,"rental_uris":{"android":"levelo://app?vid=f38b713a-05c8-4a5d-b644-a978e17b813c","ios":"levelo://app?vid=f38b713a-05c8-4a5d-b644-a978e17b813c"},"vehicle_type_id":"4","last_reported":1699715152,"current_range_meters":30800,"station_id":"ce4bhgh2rcd13ifvqfb0","pricing_plan_id":"free"},{"bike_id":"0756ab40-4db9-4790-8a5d-8a7ee0cbba63","system_id":"levelo_inurba_marseille","lat":43.24804,"lon":5.37453,"is_reserved":false,"is_disabled":false,"rental_uris":{"android":"levelo://app?vid=0756ab40-4db9-4790-8a5d-8a7ee0cbba63","ios":"levelo://app?vid=0756ab40-4db9-4790-8a5d-8a7ee0cbba63"},"vehicle_type_id":"4","last_reported":1699715152,"current_range_meters":14800,"station_id":"ce4bhgh2rcd13ifvqfb0","pricing_plan_id":"free"},{"bike_id":"83ebfe5b-226c-4040-be8e-65b67bda7cab","system_id":"levelo_inurba_marseille","lat":43.24804,"lon":5.37453,"is_reserved":false,"is_disabled":false,"rental_uris":{"android":"levelo://app?vid=83ebfe5b-226c-4040-be8e-65b67bda7cab","ios":"levelo://app?vid=83ebfe5b-226c-4040-be8e-65b67bda7cab"},"vehicle_type_id":"4","last_reported":1699715152,"current_range_meters":31200,"station_id":"ce4bhgh2rcd13ifvqfb0","pricing_plan_id":"free"},{"bike_id":"bc7fc931-ed5d-44d8-832c-2cffc9edf698","system_id":"levelo_inurba_marseille","lat":43.2479,"lon":5.374457,"is_reserved":false,"is_disabled":false,"rental_uris":{"android":"levelo://app?vid=bc7fc931-ed5d-44d8-832c-2cffc9edf698","ios":"levelo://app?vid=bc7fc931-ed5d-44d8-832c-2cffc9edf698"},"vehicle_type_id":"4","last_reported":1699715152,"current_range_meters":31600,"station_id":"ce4bhgh2rcd13ifvqfb0","pricing_plan_id":"free"},{"bike_id":"753af7ce-931f-49c9-9f4f-f22872e361af","system_id":"levelo_inurba_marseille","lat":43.24803,"lon":5.3745,"is_reserved":false,"is_disabled":false,"rental_uris":{"android":"levelo://app?vid=753af7ce-931f-49c9-9f4f-f22872e361af","ios":"levelo://app?vid=753af7ce-931f-49c9-9f4f-f22872e361af"},"vehicle_type_id":"4","last_reported":1699715152,"current_range_meters":22400,"station_id":"ce4bhgh2rcd13ifvqfb0","pricing_plan_id":"free"},{"bike_id":"ad08d5f5-8246-44a9-9f94-3eec505583be","system_id":"levelo_inurba_marseille","lat":43.24802,"lon":5.37451,"is_reserved":false,"is_disabled":false,"rental_uris":{"android":"levelo://app?vid=ad08d5f5-8246-44a9-9f94-3eec505583be","ios":"levelo://app?vid=ad08d5f5-8246-44a9-9f94-3eec505583be"},"vehicle_type_id":"4","last_reported":1699715152,"current_range_meters":29200,"station_id":"ce4bhgh2rcd13ifvqfb0","pricing_plan_id":"free"},{"bike_id":"cebea0d8-1a5d-4ad1-a965-1afa9e2399b5","system_id":"levelo_inurba_marseille","lat":43.24802,"lon":5.37452,"is_reserved":false,"is_disabled":false,"rental_uris":{"android":"levelo://app?vid=cebea0d8-1a5d-4ad1-a965-1afa9e2399b5","ios":"levelo://app?vid=cebea0d8-1a5d-4ad1-a965-1afa9e2399b5"},"vehicle_type_id":"4","last_reported":1699715152,"current_range_meters":15600,"station_id":"ce4bhgh2rcd13ifvqfb0","pricing_plan_id":"free"},{"bike_id":"5000350d-028e-4539-9961-17f0c02b0269","system_id":"levelo_inurba_marseille","lat":43.2479,"lon":5.374457,"is_reserved":false,"is_disabled":false,"rental_uris":{"android":"levelo://app?vid=5000350d-028e-4539-9961-17f0c02b0269","ios":"levelo://app?vid=5000350d-028e-4539-9961-17f0c02b0269"},"vehicle_type_id":"4","last_reported":1699715152,"current_range_meters":14000,"station_id":"ce4bhgh2rcd13ifvqfb0","pricing_plan_id":"free"},{"bike_id":"ff8360e5-874f-4a8d-a928-c20c3079e4ac","system_id":"levelo_inurba_marseille","lat":43.24693,"lon":5.382096,"is_reserved":false,"is_disabled":false,"rental_uris":{"android":"levelo://app?vid=ff8360e5-874f-4a8d-a928-c20c3079e4ac","ios":"levelo://app?vid=ff8360e5-874f-4a8d-a928-c20c3079e4ac"},"vehicle_type_id":"4","last_reported":1699715152,"current_range_meters":19200,"station_id":"ce4bhih2rcd13ifvqfr0","pricing_plan_id":"free"},{"bike_id":"8a9bf174-cb9f-4c60-8419-9be7a0684820","system_id":"levelo_inurba_marseille","lat":43.25102,"lon":5.403214,"is_reserved":false,"is_disabled":false,"rental_uris":{"android":"levelo://app?vid=8a9bf174-cb9f-4c60-8419-9be7a0684820","ios":"levelo://app?vid=8a9bf174-cb9f-4c60-8419-9be7a0684820"},"vehicle_type_id":"4","last_reported":1699715152,"current_range_meters":9600,"station_id":"ce4bhlh2rcd13ifvqgig","pricing_plan_id":"free"},{"bike_id":"753a29c9-b14d-4086-b06f-3c4cf573c769","system_id":"levelo_inurba_marseille","lat":43.25102,"lon":5.403214,"is_reserved":false,"is_disabled":false,"rental_uris":{"android":"levelo://app?vid=753a29c9-b14d-4086-b06f-3c4cf573c769","ios":"levelo://app?vid=753a29c9-b14d-4086-b06f-3c4cf573c769"},"vehicle_type_id":"4","last_reported":1699715152,"current_range_meters":16400,"station_id":"ce4bhlh2rcd13ifvqgig","pricing_plan_id":"free"},{"bike_id":"ecc9b1bb-9c9f-44da-8058-a2e92fcc2421","system_id":"levelo_inurba_marseille","lat":43.25099,"lon":5.40351,"is_reserved":false,"is_disabled":false,"rental_uris":{"android":"levelo://app?vid=ecc9b1bb-9c9f-44da-8058-a2e92fcc2421","ios":"levelo://app?vid=ecc9b1bb-9c9f-44da-8058-a2e92fcc2421"},"vehicle_type_id":"4","last_reported":1699715152,"current_range_meters":0,"station_id":"ce4bhlh2rcd13ifvqgig","pricing_plan_id":"free"},{"bike_id":"46fc51f2-2fc7-4080-bace-f7291923530c","system_id":"levelo_inurba_marseille","lat":43.24391,"lon":5.37062,"is_reserved":false,"is_disabled":false,"rental_uris":{"android":"levelo://app?vid=46fc51f2-2fc7-4080-bace-f7291923530c","ios":"levelo://app?vid=46fc51f2-2fc7-4080-bace-f7291923530c"},"vehicle_type_id":"4","last_reported":1699715152,"current_range_meters":16400,"station_id":"ce4bhhh2rcd13ifvqfk0","pricing_plan_id":"free"},{"bike_id":"c2e0cf5c-b515-4a2c-ac06-1f8fe671561c","system_id":"levelo_inurba_marseille","lat":43.24549,"lon":5.3952,"is_reserved":false,"is_disabled":false,"rental_uris":{"android":"levelo://app?vid=c2e0cf5c-b515-4a2c-ac06-1f8fe671561c","ios":"levelo://app?vid=c2e0cf5c-b515-4a2c-ac06-1f8fe671561c"},"vehicle_type_id":"4","last_reported":1699715152,"current_range_meters":13600,"station_id":"ce4bhlp2rcd13ifvqgjg","pricing_plan_id":"free"},{"bike_id":"936f0e89-b764-4830-83ca-a045e3f99751","system_id":"levelo_inurba_marseille","lat":43.245581,"lon":5.395069,"is_reserved":false,"is_disabled":false,"rental_uris":{"android":"levelo://app?vid=936f0e89-b764-4830-83ca-a045e3f99751","ios":"levelo://app?vid=936f0e89-b764-4830-83ca-a045e3f99751"},"vehicle_type_id":"4","last_reported":1699715152,"current_range_meters":24000,"station_id":"ce4bhlp2rcd13ifvqgjg","pricing_plan_id":"free"},{"bike_id":"5fb11f4a-bb79-488c-988a-24bbab3c9bdd","system_id":"levelo_inurba_marseille","lat":43.245581,"lon":5.395069,"is_reserved":false,"is_disabled":false,"rental_uris":{"android":"levelo://app?vid=5fb11f4a-bb79-488c-988a-24bbab3c9bdd","ios":"levelo://app?vid=5fb11f4a-bb79-488c-988a-24bbab3c9bdd"},"vehicle_type_id":"4","last_reported":1699715152,"current_range_meters":25200,"station_id":"ce4bhlp2rcd13ifvqgjg","pricing_plan_id":"free"},{"bike_id":"ff92a715-5fbb-4ac9-a157-23ea22833ee2","system_id":"levelo_inurba_marseille","lat":43.245581,"lon":5.395069,"is_reserved":false,"is_disabled":false,"rental_uris":{"android":"levelo://app?vid=ff92a715-5fbb-4ac9-a157-23ea22833ee2","ios":"levelo://app?vid=ff92a715-5fbb-4ac9-a157-23ea22833ee2"},"vehicle_type_id":"4","last_reported":1699715152,"current_range_meters":31200,"station_id":"ce4bhlp2rcd13ifvqgjg","pricing_plan_id":"free"},{"bike_id":"42a92fd4-a595-46ac-8683-395aa407caf3","system_id":"levelo_inurba_marseille","lat":43.245581,"lon":5.395069,"is_reserved":false,"is_disabled":false,"rental_uris":{"android":"levelo://app?vid=42a92fd4-a595-46ac-8683-395aa407caf3","ios":"levelo://app?vid=42a92fd4-a595-46ac-8683-395aa407caf3"},"vehicle_type_id":"4","last_reported":1699715152,"current_range_meters":14800,"station_id":"ce4bhlp2rcd13ifvqgjg","pricing_plan_id":"free"},{"bike_id":"c5b18fce-3f7e-4144-a211-17494900e564","system_id":"levelo_inurba_marseille","lat":43.239588,"lon":5.366238,"is_reserved":false,"is_disabled":false,"rental_uris":{"android":"levelo://app?vid=c5b18fce-3f7e-4144-a211-17494900e564","ios":"levelo://app?vid=c5b18fce-3f7e-4144-a211-17494900e564"},"vehicle_type_id":"4","last_reported":1699715152,"current_range_meters":17600,"station_id":"ce4bhi12rcd13ifvqfp0","pricing_plan_id":"free"},{"bike_id":"666c39da-4320-4e26-944b-cf89f3526c36","system_id":"levelo_inurba_marseille","lat":43.239588,"lon":5.366238,"is_reserved":false,"is_disabled":false,"rental_uris":{"android":"levelo://app?vid=666c39da-4320-4e26-944b-cf89f3526c36","ios":"levelo://app?vid=666c39da-4320-4e26-944b-cf89f3526c36"},"vehicle_type_id":"4","last_reported":1699715152,"current_range_meters":9600,"station_id":"ce4bhi12rcd13ifvqfp0","pricing_plan_id":"free"},{"bike_id":"f4281a65-1f1a-42bc-a34d-2f5207e9d6c1","system_id":"levelo_inurba_marseille","lat":43.241782,"lon":5.397261,"is_reserved":false,"is_disabled":false,"rental_uris":{"android":"levelo://app?vid=f4281a65-1f1a-42bc-a34d-2f5207e9d6c1","ios":"levelo://app?vid=f4281a65-1f1a-42bc-a34d-2f5207e9d6c1"},"vehicle_type_id":"4","last_reported":1699715152,"current_range_meters":29600,"station_id":"ce4bhn12rcd13ifvqgpg","pricing_plan_id":"free"},{"bike_id":"84a33dae-3cf9-4fe1-b687-89c3527a315d","system_id":"levelo_inurba_marseille","lat":43.241782,"lon":5.397261,"is_reserved":false,"is_disabled":false,"rental_uris":{"android":"levelo://app?vid=84a33dae-3cf9-4fe1-b687-89c3527a315d","ios":"levelo://app?vid=84a33dae-3cf9-4fe1-b687-89c3527a315d"},"vehicle_type_id":"4","last_reported":1699715152,"current_range_meters":9200,"station_id":"ce4bhn12rcd13ifvqgpg","pricing_plan_id":"free"},{"bike_id":"f6e9609a-a6b1-4b14-a6f9-2eb2a03b7272","system_id":"levelo_inurba_marseille","lat":43.241668,"lon":5.397366,"is_reserved":false,"is_disabled":false,"rental_uris":{"android":"levelo://app?vid=f6e9609a-a6b1-4b14-a6f9-2eb2a03b7272","ios":"levelo://app?vid=f6e9609a-a6b1-4b14-a6f9-2eb2a03b7272"},"vehicle_type_id":"4","last_reported":1699715152,"current_range_meters":0,"station_id":"","pricing_plan_id":"free"},{"bike_id":"160b920b-7d61-4adc-a6bf-5bb49b108205","system_id":"levelo_inurba_marseille","lat":43.231975,"lon":5.355448,"is_reserved":false,"is_disabled":false,"rental_uris":{"android":"levelo://app?vid=160b920b-7d61-4adc-a6bf-5bb49b108205","ios":"levelo://app?vid=160b920b-7d61-4adc-a6bf-5bb49b108205"},"vehicle_type_id":"4","last_reported":1699715152,"current_range_meters":30400,"station_id":"ce4bhu92rcd13ifvqi70","pricing_plan_id":"free"},{"bike_id":"ddc0b02e-2101-4017-83df-bc6857014566","system_id":"levelo_inurba_marseille","lat":43.231923,"lon":5.355545,"is_reserved":false,"is_disabled":false,"rental_uris":{"android":"levelo://app?vid=ddc0b02e-2101-4017-83df-bc6857014566","ios":"levelo://app?vid=ddc0b02e-2101-4017-83df-bc6857014566"},"vehicle_type_id":"4","last_reported":1699715152,"current_range_meters":30800,"station_id":"ce4bhu92rcd13ifvqi70","pricing_plan_id":"free"},{"bike_id":"5dfcf227-a512-4953-85c9-830919a4eeff","system_id":"levelo_inurba_marseille","lat":43.231923,"lon":5.355545,"is_reserved":false,"is_disabled":false,"rental_uris":{"android":"levelo://app?vid=5dfcf227-a512-4953-85c9-830919a4eeff","ios":"levelo://app?vid=5dfcf227-a512-4953-85c9-830919a4eeff"},"vehicle_type_id":"4","last_reported":1699715152,"current_range_meters":31200,"station_id":"ce4bhu92rcd13ifvqi70","pricing_plan_id":"free"},{"bike_id":"2dfe9963-98e0-48e7-9414-6d3af6b67365","system_id":"levelo_inurba_marseille","lat":43.231923,"lon":5.355545,"is_reserved":false,"is_disabled":false,"rental_uris":{"android":"levelo://app?vid=2dfe9963-98e0-48e7-9414-6d3af6b67365","ios":"levelo://app?vid=2dfe9963-98e0-48e7-9414-6d3af6b67365"},"vehicle_type_id":"4","last_reported":1699715152,"current_range_meters":28800,"station_id":"ce4bhu92rcd13ifvqi70","pricing_plan_id":"free"},{"bike_id":"0a82bae3-91d6-4921-853f-e663fc26f5ba","system_id":"levelo_inurba_marseille","lat":43.231923,"lon":5.355545,"is_reserved":false,"is_disabled":false,"rental_uris":{"android":"levelo://app?vid=0a82bae3-91d6-4921-853f-e663fc26f5ba","ios":"levelo://app?vid=0a82bae3-91d6-4921-853f-e663fc26f5ba"},"vehicle_type_id":"4","last_reported":1699715152,"current_range_meters":23200,"station_id":"ce4bhu92rcd13ifvqi70","pricing_plan_id":"free"},{"bike_id":"1c42f9d6-706e-4644-97a6-06954e7f340b","system_id":"levelo_inurba_marseille","lat":43.23194,"lon":5.35563,"is_reserved":false,"is_disabled":false,"rental_uris":{"android":"levelo://app?vid=1c42f9d6-706e-4644-97a6-06954e7f340b","ios":"levelo://app?vid=1c42f9d6-706e-4644-97a6-06954e7f340b"},"vehicle_type_id":"4","last_reported":1699715152,"current_range_meters":31200,"station_id":"ce4bhu92rcd13ifvqi70","pricing_plan_id":"free"},{"bike_id":"7613eb3a-79b1-407e-9b12-a6b139bae462","system_id":"levelo_inurba_marseille","lat":43.23194,"lon":5.35557,"is_reserved":false,"is_disabled":false,"rental_uris":{"android":"levelo://app?vid=7613eb3a-79b1-407e-9b12-a6b139bae462","ios":"levelo://app?vid=7613eb3a-79b1-407e-9b12-a6b139bae462"},"vehicle_type_id":"4","last_reported":1699715152,"current_range_meters":18000,"station_id":"ce4bhu92rcd13ifvqi70","pricing_plan_id":"free"},{"bike_id":"8666064d-11cc-4c98-9d40-49bb5fdf91f6","system_id":"levelo_inurba_marseille","lat":43.23194,"lon":5.35554,"is_reserved":false,"is_disabled":false,"rental_uris":{"android":"levelo://app?vid=8666064d-11cc-4c98-9d40-49bb5fdf91f6","ios":"levelo://app?vid=8666064d-11cc-4c98-9d40-49bb5fdf91f6"},"vehicle_type_id":"4","last_reported":1699715152,"current_range_meters":31200,"station_id":"ce4bhu92rcd13ifvqi70","pricing_plan_id":"free"},{"bike_id":"0859de7a-4e96-4994-915d-d196bedc1906","system_id":"levelo_inurba_marseille","lat":43.23194,"lon":5.35549,"is_reserved":false,"is_disabled":false,"rental_uris":{"android":"levelo://app?vid=0859de7a-4e96-4994-915d-d196bedc1906","ios":"levelo://app?vid=0859de7a-4e96-4994-915d-d196bedc1906"},"vehicle_type_id":"4","last_reported":1699715152,"current_range_meters":16000,"station_id":"ce4bhu92rcd13ifvqi70","pricing_plan_id":"free"},{"bike_id":"d57044a3-c38e-4499-9ff8-25f15b364b09","system_id":"levelo_inurba_marseille","lat":43.23193,"lon":5.3556,"is_reserved":false,"is_disabled":false,"rental_uris":{"android":"levelo://app?vid=d57044a3-c38e-4499-9ff8-25f15b364b09","ios":"levelo://app?vid=d57044a3-c38e-4499-9ff8-25f15b364b09"},"vehicle_type_id":"4","last_reported":1699715152,"current_range_meters":22400,"station_id":"ce4bhu92rcd13ifvqi70","pricing_plan_id":"free"},{"bike_id":"22bec22e-0886-4e33-ae85-c760d929c04a","system_id":"levelo_inurba_marseille","lat":43.231923,"lon":5.355545,"is_reserved":false,"is_disabled":false,"rental_uris":{"android":"levelo://app?vid=22bec22e-0886-4e33-ae85-c760d929c04a","ios":"levelo://app?vid=22bec22e-0886-4e33-ae85-c760d929c04a"},"vehicle_type_id":"4","last_reported":1699715152,"current_range_meters":31200,"station_id":"ce4bhu92rcd13ifvqi70","pricing_plan_id":"free"},{"bike_id":"b1463a7a-6510-486b-af90-6267ebe947b9","system_id":"levelo_inurba_marseille","lat":43.23193,"lon":5.35557,"is_reserved":false,"is_disabled":false,"rental_uris":{"android":"levelo://app?vid=b1463a7a-6510-486b-af90-6267ebe947b9","ios":"levelo://app?vid=b1463a7a-6510-486b-af90-6267ebe947b9"},"vehicle_type_id":"4","last_reported":1699715152,"current_range_meters":19200,"station_id":"ce4bhu92rcd13ifvqi70","pricing_plan_id":"free"},