{"last_updated":1735402190,"ttl":60,"version":"2.2","data":{"bikes":[{"bike_id":"a9b5fd0e-1baf-45fb-bc8f-7ad95357031b","system_id":"levelo_inurba_marseille","lat":43.29953,"lon":5.37489,"is_reserved":false,"is_disabled":false,"rental_uris":{"android":"levelo://app?vid=a9b5fd0e-1baf-45fb-bc8f-7ad95357031b","ios":"levelo://app?vid=a9b5fd0e-1baf-45fb-bc8f-7ad95357031b"},"vehicle_type_id":"4","last_reported":1735402191,"current_range_meters":38800,"station_id":"ce4bgjh2rcd13ifvqbg0","pricing_plan_id":"cebpf4jnsgd1na2vs0mg"},{"bike_id":"2ed45135-f72f-4f5f-8e15-52e1df76058d","system_id":"levelo_inurba_marseille","lat":43.28869,"lon":5.35855,"is_reserved":false,"is_disabled":false,"rental_uris":{"android":"levelo://app?vid=2ed45135-f72f-4f5f-8e15-52e1df76058d","ios":"levelo://app?vid=2ed45135-f72f-4f5f-8e15-52e1df76058d"},"vehicle_type_id":"4","last_reported":1735402191,"current_range_meters":26800,"station_id":"ce4bhb12rcd13ifvqem0","pricing_plan_id":"cebpf4jnsgd1na2vs0mg"},{"bike_id":"f1a64960-db87-444b-9907-19bde4f6bf64","system_id":"levelo_inurba_marseille","lat":43.2962,"lon":5.3771,"is_reserved":false,"is_disabled":false,"rental_uris":{"android":"levelo://app?vid=f1a64960-db87-444b-9907-19bde4f6bf64","ios":"levelo://app?vid=f1a64960-db87-444b-9907-19bde4f6bf64"},"vehicle_type_id":"4","last_reported":1735402191,"current_range_meters":17200,"station_id":"ce4bgi92rcd13ifvqb90","pricing_plan_id":"cebpf4jnsgd1na2vs0mg"},{"bike_id":"bfec3cab-cc66-4a38-ad02-7e335618d314","system_id":"levelo_inurba_marseille","lat":43.26211,"lon":5.37442,"is_reserved":false,"is_disabled":false,"rental_uris":{"android":"levelo://app?vid=bfec3cab-cc66-4a38-ad02-7e335618d314","ios":"levelo://app?vid=bfec3cab-cc66-4a38-ad02-7e335618d314"},"vehicle_type_id":"4","last_reported":1735402191,"current_range_meters":4800,"station_id":"ce4bhgp2rcd13ifvqfc0","pricing_plan_id":"cebpf4jnsgd1na2vs0mg"},{"bike_id":"17467958-a151-40f2-98e4-bb65ea00e49d","system_id":"levelo_inurba_marseille","lat":43.27959,"lon":5.41044,"is_reserved":false,"is_disabled":false,"rental_uris":{"android":"levelo://app?vid=17467958-a151-40f2-98e4-bb65ea00e49d","ios":"levelo://app?vid=17467958-a151-40f2-98e4-bb65ea00e49d"},"vehicle_type_id":"4","last_reported":1735402191,"current_range_meters":36800,"station_id":"ce4bhnp2rcd13ifvqh0g","pricing_plan_id":"cebpf4jnsgd1na2vs0mg"},{"bike_id":"730eeb2a-35e7-4e68-8763-18526dcb3fb2","system_id":"levelo_inurba_marseille","lat":43.28269,"lon":5.35058,"is_reserved":false,"is_disabled":false,"rental_uris":{"android":"levelo://app?vid=730eeb2a-35e7-4e68-8763-18526dcb3fb2","ios":"levelo://app?vid=730eeb2a-35e7-4e68-8763-18526dcb3fb2"},"vehicle_type_id":"4","last_reported":1735402191,"current_range_meters":37600,"station_id":"ce4bhbp2rcd13ifvqerg","pricing_plan_id":"cebpf4jnsgd1na2vs0mg"},{"bike_id":"3991aac2-ec7f-43c8-801f-23e11845f2d6","system_id":"levelo_inurba_marseille","lat":43.2816,"lon":5.42643,"is_reserved":false,"is_disabled":false,"rental_uris":{"android":"levelo://app?vid=3991aac2-ec7f-43c8-801f-23e11845f2d6","ios":"levelo://app?vid=3991aac2-ec7f-43c8-801f-23e11845f2d6"},"vehicle_type_id":"4","last_reported":1735402191,"current_range_meters":38800,"station_id":"ce4bhnh2rcd13ifvqgug","pricing_plan_id":"cebpf4jnsgd1na2vs0mg"},{"bike_id":"81f3eaa3-6001-4ef7-851e-c40f84fb3550","system_id":"levelo_inurba_marseille","lat":43.2669,"lon":5.38265,"is_reserved":false,"is_disabled":false,"rental_uris":{"android":"levelo://app?vid=81f3eaa3-6001-4ef7-851e-c40f84fb3550","ios":"levelo://app?vid=81f3eaa3-6001-4ef7-851e-c40f84fb3550"},"vehicle_type_id":"4","last_reported":1735402191,"current_range_meters":30400,"station_id":"ce4bhg92rcd13ifvqf90","pricing_plan_id":"cebpf4jnsgd1na2vs0mg"},{"bike_id":"aa910906-3ca2-4107-80e1-4fe46d1472a6","system_id":"levelo_inurba_marseille","lat":43.32101,"lon":5.41643,"is_reserved":false,"is_disabled":false,"rental_uris":{"android":"levelo://app?vid=aa910906-3ca2-4107-80e1-4fe46d1472a6","ios":"levelo://app?vid=aa910906-3ca2-4107-80e1-4fe46d1472a6"},"vehicle_type_id":"4","last_reported":1735402191,"current_range_meters":30000,"station_id":"","pricing_plan_id":"cebpf4jnsgd1na2vs0mg"},{"bike_id":"6ad1742e-8bff-4c51-a529-dfe59edb730a","system_id":"levelo_inurba_marseille","lat":43.299093,"lon":5.37469,"is_reserved":false,"is_disabled":false,"rental_uris":{"android":"levelo://app?vid=6ad1742e-8bff-4c51-a529-dfe59edb730a","ios":"levelo://app?vid=6ad1742e-8bff-4c51-a529-dfe59edb730a"},"vehicle_type_id":"4","last_reported":1735402191,"current_range_meters":32400,"station_id":"ce4bgjh2rcd13ifvqbg0","pricing_plan_id":"cebpf4jnsgd1na2vs0mg"},{"bike_id":"15dbc128-9fc6-4e82-9c2b-29267fff5efa","system_id":"levelo_inurba_marseille","lat":43.27375,"lon":5.36252,"is_reserved":false,"is_disabled":false,"rental_uris":{"android":"levelo://app?vid=15dbc128-9fc6-4e82-9c2b-29267fff5efa","ios":"levelo://app?vid=15dbc128-9fc6-4e82-9c2b-29267fff5efa"},"vehicle_type_id":"4","last_reported":1735402191,"current_range_meters":30000,"station_id":"ce4bhbh2rcd13ifvqeo0","pricing_plan_id":"cebpf4jnsgd1na2vs0mg"},{"bike_id":"4dfae491-9961-4f14-9884-a24863ed59ba","system_id":"levelo_inurba_marseille","lat":43.24818,"lon":5.37462,"is_reserved":false,"is_disabled":false,"rental_uris":{"android":"levelo://app?vid=4dfae491-9961-4f14-9884-a24863ed59ba","ios":"levelo://app?vid=4dfae491-9961-4f14-9884-a24863ed59ba"},"vehicle_type_id":"4","last_reported":1735402191,"current_range_meters":33200,"station_id":"ce4bhgh2rcd13ifvqfb0","pricing_plan_id":"cebpf4jnsgd1na2vs0mg"},{"bike_id":"7e9b58ee-83f7-4fc1-8cf2-cdc5ff9690a0","system_id":"levelo_inurba_marseille","lat":43.26936,"lon":5.40268,"is_reserved":false,"is_disabled":false,"rental_uris":{"android":"levelo://app?vid=7e9b58ee-83f7-4fc1-8cf2-cdc5ff9690a0","ios":"levelo://app?vid=7e9b58ee-83f7-4fc1-8cf2-cdc5ff9690a0"},"vehicle_type_id":"4","last_reported":1735402191,"current_range_meters":29600,"station_id":"cjm6bp8fraef2m0cb0m0","pricing_plan_id":"cebpf4jnsgd1na2vs0mg"},{"bike_id":"2a867018-6235-4a4a-9651-60933e0d5bd0","system_id":"levelo_inurba_marseille","lat":43.32856,"lon":5.39145,"is_reserved":false,"is_disabled":true,"rental_uris":{"android":"levelo://app?vid=2a867018-6235-4a4a-9651-60933e0d5bd0","ios":"levelo://app?vid=2a867018-6235-4a4a-9651-60933e0d5bd0"},"vehicle_type_id":"4","last_reported":1735402191,"current_range_meters":400,"station_id":"","pricing_plan_id":"cebpf4jnsgd1na2vs0mg"},{"bike_id":"2903011a-acb0-4f60-bac8-2b91d4e184a5","system_id":"levelo_inurba_marseille","lat":43.28283,"lon":5.35067,"is_reserved":false,"is_disabled":false,"rental_uris":{"android":"levelo://app?vid=2903011a-acb0-4f60-bac8-2b91d4e184a5","ios":"levelo://app?vid=2903011a-acb0-4f60-bac8-2b91d4e184a5"},"vehicle_type_id":"4","last_reported":1735402191,"current_range_meters":38800,"station_id":"ce4bhbp2rcd13ifvqerg","pricing_plan_id":"cebpf4jnsgd1na2vs0mg"},{"bike_id":"74ff8c72-6307-4530-b048-eb1d07ae5925","system_id":"levelo_inurba_marseille","lat":43.29911,"lon":5.38144,"is_reserved":false,"is_disabled":false,"rental_uris":{"android":"levelo://app?vid=74ff8c72-6307-4530-b048-eb1d07ae5925","ios":"levelo://app?vid=74ff8c72-6307-4530-b048-eb1d07ae5925"},"vehicle_type_id":"4","last_reported":1735402191,"current_range_meters":27200,"station_id":"ce4bgj12rcd13ifvqbc0","pricing_plan_id":"cebpf4jnsgd1na2vs0mg"},{"bike_id":"794cf6e4-d5ad-4fdd-81be-1d8413bde123","system_id":"levelo_inurba_marseille","lat":43.29929,"lon":5.36525,"is_reserved":false,"is_disabled":false,"rental_uris":{"android":"levelo://app?vid=794cf6e4-d5ad-4fdd-81be-1d8413bde123","ios":"levelo://app?vid=794cf6e4-d5ad-4fdd-81be-1d8413bde123"},"vehicle_type_id":"4","last_reported":1735402191,"current_range_meters":28000,"station_id":"ce4bgm92rcd13ifvqbr0","pricing_plan_id":"cebpf4jnsgd1na2vs0mg"},{"bike_id":"dde23100-284b-476d-b6ea-b936ad5ae2e8","system_id":"levelo_inurba_marseille","lat":43.29613,"lon":5.38108,"is_reserved":false,"is_disabled":false,"rental_uris":{"android":"levelo://app?vid=dde23100-284b-476d-b6ea-b936ad5ae2e8","ios":"levelo://app?vid=dde23100-284b-476d-b6ea-b936ad5ae2e8"},"vehicle_type_id":"4","last_reported":1735402191,"current_range_meters":17600,"station_id":"ce4bgl12rcd13ifvqbo0","pricing_plan_id":"cebpf4jnsgd1na2vs0mg"},{"bike_id":"857344dd-6be1-4d34-90e7-6f62afbbef2e","system_id":"levelo_inurba_marseille","lat":43.32104,"lon":5.36776,"is_reserved":false,"is_disabled":false,"rental_uris":{"android":"levelo://app?vid=857344dd-6be1-4d34-90e7-6f62afbbef2e","ios":"levelo://app?vid=857344dd-6be1-4d34-90e7-6f62afbbef2e"},"vehicle_type_id":"4","last_reported":1735402191,"current_range_meters":32400,"station_id":"ce4bhrh2rcd13ifvqhug","pricing_plan_id":"cebpf4jnsgd1na2vs0mg"},{"bike_id":"5f274304-181f-4ecb-bafa-081b2df36f0d","system_id":"levelo_inurba_marseille","lat":43.28632,"lon":5.35104,"is_reserved":false,"is_disabled":false,"rental_uris":{"android":"levelo://app?vid=5f274304-181f-4ecb-bafa-081b2df36f0d","ios":"levelo://app?vid=5f274304-181f-4ecb-bafa-081b2df36f0d"},"vehicle_type_id":"4","last_reported":1735402191,"current_range_meters":11600,"station_id":"ce4bhch2rcd13ifvqeug","pricing_plan_id":"cebpf4jnsgd1na2vs0mg"},{"bike_id":"6f3ae57c-be3d-4195-906d-36eda90d6eb6","system_id":"levelo_inurba_marseille","lat":43.29259,"lon":5.36046,"is_reserved":false,"is_disabled":false,"rental_uris":{"android":"levelo://app?vid=6f3ae57c-be3d-4195-906d-36eda90d6eb6","ios":"levelo://app?vid=6f3ae57c-be3d-4195-906d-36eda90d6eb6"},"vehicle_type_id":"4","last_reported":1735402191,"current_range_meters":24000,"station_id":"ce4bhbh2rcd13ifvqeqg","pricing_plan_id":"cebpf4jnsgd1na2vs0mg"},{"bike_id":"595b770a-6283-4c5a-81d3-40f82231fc59","system_id":"levelo_inurba_marseille","lat":43.28476,"lon":5.38431,"is_reserved":false,"is_disabled":false,"rental_uris":{"android":"levelo://app?vid=595b770a-6283-4c5a-81d3-40f82231fc59","ios":"levelo://app?vid=595b770a-6283-4c5a-81d3-40f82231fc59"},"vehicle_type_id":"4","last_reported":1735402191,"current_range_meters":27600,"station_id":"ce4bh512rcd13ifvqe3g","pricing_plan_id":"cebpf4jnsgd1na2vs0mg"},{"bike_id":"3c2a68c2-ee7f-47cb-a403-8a77dc24c831","system_id":"levelo_inurba_marseille","lat":43.27497,"lon":5.42452,"is_reserved":false,"is_disabled":false,"rental_uris":{"android":"levelo://app?vid=3c2a68c2-ee7f-47cb-a403-8a77dc24c831","ios":"levelo://app?vid=3c2a68c2-ee7f-47cb-a403-8a77dc24c831"},"vehicle_type_id":"4","last_reported":1735402191,"current_range_meters":8400,"station_id":"ce4bhn92rcd13ifvqgrg","pricing_plan_id":"cebpf4jnsgd1na2vs0mg"},{"bike_id":"ad66ce9d-e2b2-4064-ae7f-fe87403c632b","system_id":"levelo_inurba_marseille","lat":43.230664,"lon":5.354923,"is_reserved":false,"is_disabled":false,"rental_uris":{"android":"levelo://app?vid=ad66ce9d-e2b2-4064-ae7f-fe87403c632b","ios":"levelo://app?vid=ad66ce9d-e2b2-4064-ae7f-fe87403c632b"},"vehicle_type_id":"4","last_reported":1735402191,"current_range_meters":20800,"station_id":"cpo3342slgdg3j2ifvpg","pricing_plan_id":"cebpf4jnsgd1na2vs0mg"},{"bike_id":"b42f5780-68a4-48e7-a620-0010229d40b6","system_id":"levelo_inurba_marseille","lat":43.28709,"lon":5.39995,"is_reserved":false,"is_disabled":false,"rental_uris":{"android":"levelo://app?vid=b42f5780-68a4-48e7-a620-0010229d40b6","ios":"levelo://app?vid=b42f5780-68a4-48e7-a620-0010229d40b6"},"vehicle_type_id":"4","last_reported":1735402191,"current_range_meters":36400,"station_id":"ce4bho92rcd13ifvqh3g","pricing_plan_id":"cebpf4jnsgd1na2vs0mg"},{"bike_id":"02e993a1-6586-41e4-806c-1db83f13eda1","system_id":"levelo_inurba_marseille","lat":43.25086,"lon":5.39519,"is_reserved":false,"is_disabled":false,"rental_uris":{"android":"levelo://app?vid=02e993a1-6586-41e4-806c-1db83f13eda1","ios":"levelo://app?vid=02e993a1-6586-41e4-806c-1db83f13eda1"},"vehicle_type_id":"4","last_reported":1735402191,"current_range_meters":30400,"station_id":"ce4bhm12rcd13ifvqgkg","pricing_plan_id":"cebpf4jnsgd1na2vs0mg"},{"bike_id":"aa524046-cbee-4f2f-afd6-e01e8b1ed6f4","system_id":"levelo_inurba_marseille","lat":43.29029,"lon":5.35916,"is_reserved":false,"is_disabled":false,"rental_uris":{"android":"levelo://app?vid=aa524046-cbee-4f2f-afd6-e01e8b1ed6f4","ios":"levelo://app?vid=aa524046-cbee-4f2f-afd6-e01e8b1ed6f4"},"vehicle_type_id":"4","last_reported":1735402191,"current_range_meters":39200,"station_id":"ce4bha92rcd13ifvqeg0","pricing_plan_id":"cebpf4jnsgd1na2vs0mg"},{"bike_id":"753fe1a2-6ec1-4d51-9513-13144401ea46","system_id":"levelo_inurba_marseille","lat":43.29164,"lon":5.37146,"is_reserved":false,"is_disabled":false,"rental_uris":{"android":"levelo://app?vid=753fe1a2-6ec1-4d51-9513-13144401ea46","ios":"levelo://app?vid=753fe1a2-6ec1-4d51-9513-13144401ea46"},"vehicle_type_id":"4","last_reported":1735402191,"current_range_meters":35600,"station_id":"ce4bha92rcd13ifvqeh0","pricing_plan_id":"cebpf4jnsgd1na2vs0mg"},{"bike_id":"d0533ccb-11ce-46dc-9cca-daa9f7a4985a","system_id":"levelo_inurba_marseille","lat":43.29561,"lon":5.42291,"is_reserved":false,"is_disabled":false,"rental_uris":{"android":"levelo://app?vid=d0533ccb-11ce-46dc-9cca-daa9f7a4985a","ios":"levelo://app?vid=d0533ccb-11ce-46dc-9cca-daa9f7a4985a"},"vehicle_type_id":"4","last_reported":1735402191,"current_range_meters":38400,"station_id":"ce4bhph2rcd13ifvqhdg","pricing_plan_id":"cebpf4jnsgd1na2vs0mg"},{"bike_id":"daef0f94-988f-4230-b125-62ce3474d24c","system_id":"levelo_inurba_marseille","lat":43.27646,"lon":5.38902,"is_reserved":false,"is_disabled":false,"rental_uris":{"android":"levelo://app?vid=daef0f94-988f-4230-b125-62ce3474d24c","ios":"levelo://app?vid=daef0f94-988f-4230-b125-62ce3474d24c"},"vehicle_type_id":"4","last_reported":1735402191,"current_range_meters":36800,"station_id":"ce4bhi12rcd13ifvqfo0","pricing_plan_id":"cebpf4jnsgd1na2vs0mg"},{"bike_id":"a69d1136-5aef-4753-aff3-1201a568ad37","system_id":"levelo_inurba_marseille","lat":43.28274,"lon":5.35066,"is_reserved":false,"is_disabled":false,"rental_uris":{"android":"levelo://app?vid=a69d1136-5aef-4753-aff3-1201a568ad37","ios":"levelo://app?vid=a69d1136-5aef-4753-aff3-1201a568ad37"},"vehicle_type_id":"4","last_reported":1735402191,"current_range_meters":38800,"station_id":"ce4bhbp2rcd13ifvqerg","pricing_plan_id":"cebpf4jnsgd1na2vs0mg"},{"bike_id":"fbe33567-40cb-4184-a603-cfb64e03f8ed","system_id":"levelo_inurba_marseille","lat":43.31769,"lon":5.40574,"is_reserved":false,"is_disabled":false,"rental_uris":{"android":"levelo://app?vid=fbe33567-40cb-4184-a603-cfb64e03f8ed","ios":"levelo://app?vid=fbe33567-40cb-4184-a603-cfb64e03f8ed"},"vehicle_type_id":"4","last_reported":1735402191,"current_range_meters":24800,"station_id":"","pricing_plan_id":"cebpf4jnsgd1na2vs0mg"},{"bike_id":"df505920-b7e1-4f0a-8645-ba4405f002e4","system_id":"levelo_inurba_marseille","lat":43.29734,"lon":5.37699,"is_reserved":false,"is_disabled":false,"rental_uris":{"android":"levelo://app?vid=df505920-b7e1-4f0a-8645-ba4405f002e4","ios":"levelo://app?vid=df505920-b7e1-4f0a-8645-ba4405f002e4"},"vehicle_type_id":"4","last_reported":1735402191,"current_range_meters":20000,"station_id":"ce4bgkh2rcd13ifvqbl0","pricing_plan_id":"cebpf4jnsgd1na2vs0mg"},{"bike_id":"879d8d2d-aea4-4c68-8405-16edb1cace8d","system_id":"levelo_inurba_marseille","lat":43.28265,"lon":5.35095,"is_reserved":false,"is_disabled":false,"rental_uris":{"android":"levelo://app?vid=879d8d2d-aea4-4c68-8405-16edb1cace8d","ios":"levelo://app?vid=879d8d2d-aea4-4c68-8405-16edb1cace8d"},"vehicle_type_id":"4","last_reported":1735402191,"current_range_meters":38800,"station_id":"ce4bhbp2rcd13ifvqerg","pricing_plan_id":"cebpf4jnsgd1na2vs0mg"},{"bike_id":"caab34a4-5264-4b72-a12f-e55159fe93b6","system_id":"levelo_inurba_marseille","lat":43.27087,"lon":5.42282,"is_reserved":false,"is_disabled":false,"rental_uris":{"android":"levelo://app?vid=caab34a4-5264-4b72-a12f-e55159fe93b6","ios":"levelo://app?vid=caab34a4-5264-4b72-a12f-e55159fe93b6"},"vehicle_type_id":"4","last_reported":1735402191,"current_range_meters":28800,"station_id":"ce4bhk92rcd13ifvqgb0","pricing_plan_id":"cebpf4jnsgd1na2vs0mg"},{"bike_id":"e5582f1b-2fc8-434e-aeb6-8b809add67ca","system_id":"levelo_inurba_marseille","lat":43.27988,"lon":5.41658,"is_reserved":false,"is_disabled":false,"rental_uris":{"android":"levelo://app?vid=e5582f1b-2fc8-434e-aeb6-8b809add67ca","ios":"levelo://app?vid=e5582f1b-2fc8-434e-aeb6-8b809add67ca"},"vehicle_type_id":"4","last_reported":1735402191,"current_range_meters":36800,"station_id":"ce4bho12rcd13ifvqh1g","pricing_plan_id":"cebpf4jnsgd1na2vs0mg"},{"bike_id":"c7d7daa2-0e0c-4e75-9a05-717b0fbbf1fb","system_id":"levelo_inurba_marseille","lat":43.31158,"lon":5.38716,"is_reserved":false,"is_disabled":false,"rental_uris":{"android":"levelo://app?vid=c7d7daa2-0e0c-4e75-9a05-717b0fbbf1fb","ios":"levelo://app?vid=c7d7daa2-0e0c-4e75-9a05-717b0fbbf1fb"},"vehicle_type_id":"4","last_reported":1735402191,"current_range_meters":19200,"station_id":"ce4bgv12rcd13ifvqcp0","pricing_plan_id":"cebpf4jnsgd1na2vs0mg"},{"bike_id":"efdc8661-a0f3-4d19-90da-c58f06d18d3a","system_id":"levelo_inurba_marseille","lat":43.30596,"lon":5.37219,"is_reserved":false,"is_disabled":false,"rental_uris":{"android":"levelo://app?vid=efdc8661-a0f3-4d19-90da-c58f06d18d3a","ios":"levelo://app?vid=efdc8661-a0f3-4d19-90da-c58f06d18d3a"},"vehicle_type_id":"4","last_reported":1735402191,"current_range_meters":16400,"station_id":"ce4bgqh2rcd13ifvqc4g","pricing_plan_id":"cebpf4jnsgd1na2vs0mg"},{"bike_id":"9655dc3a-66ca-44f8-847a-41d3914ba63b","system_id":"levelo_inurba_marseille","lat":43.3415,"lon":5.40906,"is_reserved":false,"is_disabled":false,"rental_uris":{"android":"levelo://app?vid=9655dc3a-66ca-44f8-847a-41d3914ba63b","ios":"levelo://app?vid=9655dc3a-66ca-44f8-847a-41d3914ba63b"},"vehicle_type_id":"4","last_reported":1735402191,"current_range_meters":24800,"station_id":"ce4bhqh2rcd13ifvqhlg","pricing_plan_id":"cebpf4jnsgd1na2vs0mg"},{"bike_id":"a2e3c5cd-9638-424a-b821-b17c4a12fb46","system_id":"levelo_inurba_marseille","lat":43.27183,"lon":5.36265,"is_reserved":false,"is_disabled":false,"rental_uris":{"android":"levelo://app?vid=a2e3c5cd-9638-424a-b821-b17c4a12fb46","ios":"levelo://app?vid=a2e3c5cd-9638-424a-b821-b17c4a12fb46"},"vehicle_type_id":"4","last_reported":1735402191,"current_range_meters":12800,"station_id":"ce4bhbp2rcd13ifvqerg","pricing_plan_id":"cebpf4jnsgd1na2vs0mg"},{"bike_id":"33e4c278-497a-4992-9269-3f4bd7a2ca60","system_id":"levelo_inurba_marseille","lat":43.29941,"lon":5.37475,"is_reserved":false,"is_disabled":false,"rental_uris":{"android":"levelo://app?vid=33e4c278-497a-4992-9269-3f4bd7a2ca60","ios":"levelo://app?vid=33e4c278-497a-4992-9269-3f4bd7a2ca60"},"vehicle_type_id":"4","last_reported":1735402191,"current_range_meters":38400,"station_id":"ce4bgjh2rcd13ifvqbg0","pricing_plan_id":"cebpf4jnsgd1na2vs0mg"},{"bike_id":"d07ac0e3-849c-44fe-ab38-0273add2ad10","system_id":"levelo_inurba_marseille","lat":43.3088,"lon":5.3719,"is_reserved":false,"is_disabled":false,"rental_uris":{"android":"levelo://app?vid=d07ac0e3-849c-44fe-ab38-0273add2ad10","ios":"levelo://app?vid=d07ac0e3-849c-44fe-ab38-0273add2ad10"},"vehicle_type_id":"4","last_reported":1735402191,"current_range_meters":16000,"station_id":"ce4bguh2rcd13ifvqckg","pricing_plan_id":"cebpf4jnsgd1na2vs0mg"},{"bike_id":"967c5d92-4246-41c2-bf0b-e31f4c3d74dd","system_id":"levelo_inurba_marseille","lat":43.29528,"lon":5.38557,"is_reserved":false,"is_disabled":false,"rental_uris":{"android":"levelo://app?vid=967c5d92-4246-41c2-bf0b-e31f4c3d74dd","ios":"levelo://app?vid=967c5d92-4246-41c2-bf0b-e31f4c3d74dd"},"vehicle_type_id":"4","last_reported":1735402191,"current_range_meters":32800,"station_id":"ce4bgih2rcd13ifvqba0","pricing_plan_id":"cebpf4jnsgd1na2vs0mg"},{"bike_id":"b8310779-a1ed-43b8-93c2-4d2a1cabb080","system_id":"levelo_inurba_marseille","lat":43.26477,"lon":5.3955,"is_reserved":false,"is_disabled":true,"rental_uris":{"android":"levelo://app?vid=b8310779-a1ed-43b8-93c2-4d2a1cabb080","ios":"levelo://app?vid=b8310779-a1ed-43b8-93c2-4d2a1cabb080"},"vehicle_type_id":"4","last_reported":1735402191,"current_range_meters":0,"station_id":"ce4bhi12rcd13ifvqfq0","pricing_plan_id":"cebpf4jnsgd1na2vs0mg"},{"bike_id":"c0c3e5c6-edc3-41c4-8feb-85aaa21b750a","system_id":"levelo_inurba_marseille","lat":43.32031,"lon":5.41584,"is_reserved":false,"is_disabled":false,"rental_uris":{"android":"levelo://app?vid=c0c3e5c6-edc3-41c4-8feb-85aaa21b750a","ios":"levelo://app?vid=c0c3e5c6-edc3-41c4-8feb-85aaa21b750a"},"vehicle_type_id":"4","last_reported":1735402191,"current_range_meters":36000,"station_id":"ce4bhq92rcd13ifvqhkg","pricing_plan_id":"cebpf4jnsgd1na2vs0mg"},{"bike_id":"1614b641-51e8-4939-86a4-49d02c2889c7","system_id":"levelo_inurba_marseille","lat":43.27381,"lon":5.36247,"is_reserved":false,"is_disabled":false,"rental_uris":{"android":"levelo://app?vid=1614b641-51e8-4939-86a4-49d02c2889c7","ios":"levelo://app?vid=1614b641-51e8-4939-86a4-49d02c2889c7"},"vehicle_type_id":"4","last_reported":1735402191,"current_range_meters":8400,"station_id":"ce4bhbh2rcd13ifvqeo0","pricing_plan_id":"cebpf4jnsgd1na2vs0mg"},{"bike_id":"aaaad95a-3362-4c9b-8d93-33b4c6435e21","system_id":"levelo_inurba_marseille","lat":43.29529,"lon":5.38541,"is_reserved":false,"is_disabled":false,"rental_uris":{"android":"levelo://app?vid=aaaad95a-3362-4c9b-8d93-33b4c6435e21","ios":"levelo://app?vid=aaaad95a-3362-4c9b-8d93-33b4c6435e21"},"vehicle_type_id":"4","last_reported":1735402191,"current_range_meters":22800,"station_id":"ce4bgih2rcd13ifvqba0","pricing_plan_id":"cebpf4jnsgd1na2vs0mg"},{"bike_id":"23a7b182-0062-4770-acaf-16367a2d6280","system_id":"levelo_inurba_marseille","lat":43.27957,"lon":5.38762,"is_reserved":false,"is_disabled":false,"rental_uris":{"android":"levelo://app?vid=23a7b182-0062-4770-acaf-16367a2d6280","ios":"levelo://app?vid=23a7b182-0062-4770-acaf-16367a2d6280"},"vehicle_type_id":"4","last_reported":1735402191,"current_range_meters":4800,"station_id":"ce4bhhh2rcd13ifvqfl0","pricing_plan_id":"cebpf4jnsgd1na2vs0mg"},{"bike_id":"e69ab0c5-1695-45ca-8016-82896093badb","system_id":"levelo_inurba_marseille","lat":43.29729,"lon":5.37683,"is_reserved":false,"is_disabled":false,"rental_uris":{"android":"levelo://app?vid=e69ab0c5-1695-45ca-8016-82896093badb","ios":"levelo://app?vid=e69ab0c5-1695-45ca-8016-82896093badb"},"vehicle_type_id":"4","last_reported":1735402191,"current_range_meters":29600,"station_id":"ce4bgkh2rcd13ifvqbl0","pricing_plan_id":"cebpf4jnsgd1na2vs0mg"},{"bike_id":"9005487f-c039-4a76-9663-3b7b2b48e558","system_id":"levelo_inurba_marseille","lat":43.30559,"lon":5.38422,"is_reserved":false,"is_disabled":false,"rental_uris":{"android":"levelo://app?vid=9005487f-c039-4a76-9663-3b7b2b48e558","ios":"levelo://app?vid=9005487f-c039-4a76-9663-3b7b2b48e558"},"vehicle_type_id":"4","last_reported":1735402191,"current_range_meters":32000,"station_id":"ce4bgg92rcd13ifvqb30","pricing_plan_id":"cebpf4jnsgd1na2vs0mg"},{"bike_id":"05fb7452-2e75-415b-85e8-66f72f2a1cf5","system_id":"levelo_inurba_marseille","lat":43.31428,"lon":5.39357,"is_reserved":false,"is_disabled":false,"rental_uris":{"android":"levelo://app?vid=05fb7452-2e75-415b-85e8-66f72f2a1cf5","ios":"levelo://app?vid=05fb7452-2e75-415b-85e8-66f72f2a1cf5"},"vehicle_type_id":"4","last_reported":1735402191,"current_range_meters":22800,"station_id":"","pricing_plan_id":"cebpf4jnsgd1na2vs0mg"},{"bike_id":"414d5a27-9d60-42ed-9942-5f82cd4d23db","system_id":"levelo_inurba_marseille","lat":43.27499,"lon":5.42452,"is_reserved":false,"is_disabled":false,"rental_uris":{"android":"levelo://app?vid=414d5a27-9d60-42ed-9942-5f82cd4d23db","ios":"levelo://app?vid=414d5a27-9d60-42ed-9942-5f82cd4d23db"},"vehicle_type_id":"4","last_reported":1735402191,"current_range_meters":21600,"station_id":"ce4bhn92rcd13ifvqgrg","pricing_plan_id":"cebpf4jnsgd1na2vs0mg"},{"bike_id":"d6144803-d96b-4980-90a1-d59f6d11564c","system_id":"levelo_inurba_marseille","lat":43.28153,"lon":5.42646,"is_reserved":false,"is_disabled":false,"rental_uris":{"android":"levelo://app?vid=d6144803-d96b-4980-90a1-d59f6d11564c","ios":"levelo://app?vid=d6144803-d96b-4980-90a1-d59f6d11564c"},"vehicle_type_id":"4","last_reported":1735402191,"current_range_meters":10800,"station_id":"ce4bhnh2rcd13ifvqgug","pricing_plan_id":"cebpf4jnsgd1na2vs0mg"},{"bike_id":"125766fb-bb9e-4063-abf4-d8649b751513","system_id":"levelo_inurba_marseille","lat":43.30963,"lon":5.3904,"is_reserved":false,"is_disabled":false,"rental_uris":{"android":"levelo://app?vid=125766fb-bb9e-4063-abf4-d8649b751513","ios":"levelo://app?vid=125766fb-bb9e-4063-abf4-d8649b751513"},"vehicle_type_id":"4","last_reported":1735402191,"current_range_meters":27600,"station_id":"ce4bgup2rcd13ifvqco0","pricing_plan_id":"cebpf4jnsgd1na2vs0mg"},{"bike_id":"8ed5a1f5-589e-42ed-8f11-2d154ce6b9eb","system_id":"levelo_inurba_marseille","lat":43.23963,"lon":5.36629,"is_reserved":false,"is_disabled":false,"rental_uris":{"android":"levelo://app?vid=8ed5a1f5-589e-42ed-8f11-2d154ce6b9eb","ios":"levelo://app?vid=8ed5a1f5-589e-42ed-8f11-2d154ce6b9eb"},"vehicle_type_id":"4","last_reported":1735402191,"current_range_meters":6800,"station_id":"ce4bhi12rcd13ifvqfp0","pricing_plan_id":"cebpf4jnsgd1na2vs0mg"},{"bike_id":"c8744f19-6689-4dbf-9ea7-0a2c69d2add2","system_id":"levelo_inurba_marseille","lat":43.31507,"lon":5.37297,"is_reserved":false,"is_disabled":false,"rental_uris":{"android":"levelo://app?vid=c8744f19-6689-4dbf-9ea7-0a2c69d2add2","ios":"levelo://app?vid=c8744f19-6689-4dbf-9ea7-0a2c69d2add2"},"vehicle_type_id":"4","last_reported":1735402191,"current_range_meters":25600,"station_id":"ce4bgt12rcd13ifvqcd0","pricing_plan_id":"cebpf4jnsgd1na2vs0mg"},{"bike_id":"e3926cc8-0a6f-4a82-b015-c861db41e739","system_id":"levelo_inurba_marseille","lat":43.29994,"lon":5.37175,"is_reserved":false,"is_disabled":false,"rental_uris":{"android":"levelo://app?vid=e3926cc8-0a6f-4a82-b015-c861db41e739","ios":"levelo://app?vid=e3926cc8-0a6f-4a82-b015-c861db41e739"},"vehicle_type_id":"4","last_reported":1735402191,"current_range_meters":35600,"station_id":"ce4bgr92rcd13ifvqc7g","pricing_plan_id":"cebpf4jnsgd1na2vs0mg"},{"bike_id":"a818f93d-22ad-482b-a6a1-cb891a3bc650","system_id":"levelo_inurba_marseille","lat":43.29265,"lon":5.40917,"is_reserved":false,"is_disabled":false,"rental_uris":{"android":"levelo://app?vid=a818f93d-22ad-482b-a6a1-cb891a3bc650","ios":"levelo://app?vid=a818f93d-22ad-482b-a6a1-cb891a3bc650"},"vehicle_type_id":"4","last_reported":1735402191,"current_range_meters":33200,"station_id":"ce4bh192rcd13ifvqdc0","pricing_plan_id":"cebpf4jnsgd1na2vs0mg"},{"bike_id":"ae8f8cdf-d1f9-4519-9c49-1aed0fe5c5ba","system_id":"levelo_inurba_marseille","lat":43.3055,"lon":5.36693,"is_reserved":false,"is_disabled":false,"rental_uris":{"android":"levelo://app?vid=ae8f8cdf-d1f9-4519-9c49-1aed0fe5c5ba","ios":"levelo://app?vid=ae8f8cdf-d1f9-4519-9c49-1aed0fe5c5ba"},"vehicle_type_id":"4","last_reported":1735402191,"current_range_meters":38400,"station_id":"ce4bgrp2rcd13ifvqc9g","pricing_plan_id":"cebpf4jnsgd1na2vs0mg"},{"bike_id":"09898dd2-84ad-4911-a21d-d1f0823964b3","system_id":"levelo_inurba_marseille","lat":43.296144,"lon":5.3774,"is_reserved":false,"is_disabled":false,"rental_uris":{"android":"levelo://app?vid=09898dd2-84ad-4911-a21d-d1f0823964b3","ios":"levelo://app?vid=09898dd2-84ad-4911-a21d-d1f0823964b3"},"vehicle_type_id":"4","last_reported":1735402191,"current_range_meters":39200,"station_id":"ce4bgi92rcd13ifvqb90","pricing_plan_id":"cebpf4jnsgd1na2vs0mg"},{"bike_id":"2f4d88ff-6678-4ca5-ae90-a5a14ea5e14c","system_id":"levelo_inurba_marseille","lat":43.28284,"lon":5.35072,"is_reserved":false,"is_disabled":false,"rental_uris":{"android":"levelo://app?vid=2f4d88ff-6678-4ca5-ae90-a5a14ea5e14c","ios":"levelo://app?vid=2f4d88ff-6678-4ca5-ae90-a5a14ea5e14c"},"vehicle_type_id":"4","last_reported":1735402191,"current_range_meters":34000,"station_id":"ce4bhbp2rcd13ifvqerg","pricing_plan_id":"cebpf4jnsgd1na2vs0mg"},{"bike_id":"ade8f6ef-b3ee-4321-b0e3-fa2122109c5d","system_id":"levelo_inurba_marseille","lat":43.25027,"lon":5.38934,"is_reserved":false,"is_disabled":false,"rental_uris":{"android":"levelo://app?vid=ade8f6ef-b3ee-4321-b0e3-fa2122109c5d","ios":"levelo://app?vid=ade8f6ef-b3ee-4321-b0e3-fa2122109c5d"},"vehicle_type_id":"4","last_reported":1735402191,"current_range_meters":24400,"station_id":"ce4bhgp2rcd13ifvqfd0","pricing_plan_id":"cebpf4jnsgd1na2vs0mg"},{"bike_id":"22fd7190-4a48-4311-a205-02e98d2bbea1","system_id":"levelo_inurba_marseille","lat":43.337265,"lon":5.391868,"is_reserved":false,"is_disabled":false,"rental_uris":{"android":"levelo://app?vid=22fd7190-4a48-4311-a205-02e98d2bbea1","ios":"levelo://app?vid=22fd7190-4a48-4311-a205-02e98d2bbea1"},"vehicle_type_id":"4","last_reported":1735402191,"current_range_meters":11600,"station_id":"ce4bhr92rcd13ifvqhsg","pricing_plan_id":"cebpf4jnsgd1na2vs0mg"},{"bike_id":"5be3d17a-9c8c-40c8-a7f5-11e9744dd0b7","system_id":"levelo_inurba_marseille","lat":43.284688,"lon":5.384199,"is_reserved":false,"is_disabled":false,"rental_uris":{"android":"levelo://app?vid=5be3d17a-9c8c-40c8-a7f5-11e9744dd0b7","ios":"levelo://app?vid=5be3d17a-9c8c-40c8-a7f5-11e9744dd0b7"},"vehicle_type_id":"4","last_reported":1735402191,"current_range_meters":39200,"station_id":"ce4bh512rcd13ifvqe3g","pricing_plan_id":"cebpf4jnsgd1na2vs0mg"},{"bike_id":"12b1618d-0fb4-456a-85c6-525a9c9a4a79","system_id":"levelo_inurba_marseille","lat":43.2454,"lon":5.39497,"is_reserved":false,"is_disabled":false,"rental_uris":{"android":"levelo://app?vid=12b1618d-0fb4-456a-85c6-525a9c9a4a79","ios":"levelo://app?vid=12b1618d-0fb4-456a-85c6-525a9c9a4a79"},"vehicle_type_id":"4","last_reported":1735402191,"current_range_meters":33600,"station_id":"ce4bhlp2rcd13ifvqgjg","pricing_plan_id":"cebpf4jnsgd1na2vs0mg"},{"bike_id":"e73e6057-e6e9-407b-a17e-f4e119a96aba","system_id":"levelo_inurba_marseille","lat":43.32111,"lon":5.36769,"is_reserved":false,"is_disabled":false,"rental_uris":{"android":"levelo://app?vid=e73e6057-e6e9-407b-a17e-f4e119a96aba","ios":"levelo://app?vid=e73e6057-e6e9-407b-a17e-f4e119a96aba"},"vehicle_type_id":"4","last_reported":1735402191,"current_range_meters":15200,"station_id":"ce4bhrh2rcd13ifvqhug","pricing_plan_id":"cebpf4jnsgd1na2vs0mg"},{"bike_id":"031dc0ac-f253-4e89-9f68-a0bf92006f1d","system_id":"levelo_inurba_marseille","lat":43.31272,"lon":5.401659,"is_reserved":false,"is_disabled":false,"rental_uris":{"android":"levelo://app?vid=031dc0ac-f253-4e89-9f68-a0bf92006f1d","ios":"levelo://app?vid=031dc0ac-f253-4e89-9f68-a0bf92006f1d"},"vehicle_type_id":"4","last_reported":1735402191,"current_range_meters":5600,"station_id":"ce4bh092rcd13ifvqd30","pricing_plan_id":"cebpf4jnsgd1na2vs0mg"},{"bike_id":"8c91810d-a0be-44d5-9187-c976025769a5","system_id":"levelo_inurba_marseille","lat":43.279917,"lon":5.40035,"is_reserved":false,"is_disabled":false,"rental_uris":{"android":"levelo://app?vid=8c91810d-a0be-44d5-9187-c976025769a5","ios":"levelo://app?vid=8c91810d-a0be-44d5-9187-c976025769a5"},"vehicle_type_id":"4","last_reported":1735402191,"current_range_meters":26800,"station_id":"ce4bho92rcd13ifvqh4g","pricing_plan_id":"cebpf4jnsgd1na2vs0mg"},{"bike_id":"9e6d9495-e6fc-46af-bf3a-7dc282e2ba92","system_id":"levelo_inurba_marseille","lat":43.27074,"lon":5.4228,"is_reserved":false,"is_disabled":false,"rental_uris":{"android":"levelo://app?vid=9e6d9495-e6fc-46af-bf3a-7dc282e2ba92","ios":"levelo://app?vid=9e6d9495-e6fc-46af-bf3a-7dc282e2ba92"},"vehicle_type_id":"4","last_reported":1735402191,"current_range_meters":36800,"station_id":"ce4bhk92rcd13ifvqgb0","pricing_plan_id":"cebpf4jnsgd1na2vs0mg"},{"bike_id":"57103b12-06fc-494b-9a1a-1903f8f245d5","system_id":"levelo_inurba_marseille","lat":43.28008,"lon":5.41666,"is_reserved":false,"is_disabled":false,"rental_uris":{"android":"levelo://app?vid=57103b12-06fc-494b-9a1a-1903f8f245d5","ios":"levelo://app?vid=57103b12-06fc-494b-9a1a-1903f8f245d5"},"vehicle_type_id":"4","last_reported":1735402191,"current_range_meters":22400,"station_id":"ce4bho12rcd13ifvqh1g","pricing_plan_id":"cebpf4jnsgd1na2vs0mg"},{"bike_id":"8c3f3418-4e20-40dc-b1df-7a1cf6f8a3b7","system_id":"levelo_inurba_marseille","lat":43.27375,"lon":5.36251,"is_reserved":false,"is_disabled":false,"rental_uris":{"android":"levelo://app?vid=8c3f3418-4e20-40dc-b1df-7a1cf6f8a3b7","ios":"levelo://app?vid=8c3f3418-4e20-40dc-b1df-7a1cf6f8a3b7"},"vehicle_type_id":"4","last_reported":1735402191,"current_range_meters":38800,"station_id":"ce4bhbh2rcd13ifvqeo0","pricing_plan_id":"cebpf4jnsgd1na2vs0mg"},{"bike_id":"20f4e438-1366-4a84-bf7d-a2e481186e28","system_id":"levelo_inurba_marseille","lat":43.284738,"lon":5.384107,"is_reserved":false,"is_disabled":false,"rental_uris":{"android":"levelo://app?vid=20f4e438-1366-4a84-bf7d-a2e481186e28","ios":"levelo://app?vid=20f4e438-1366-4a84-bf7d-a2e481186e28"},"vehicle_type_id":"4","last_reported":1735402191,"current_range_meters":39200,"station_id":"ce4bh512rcd13ifvqe3g","pricing_plan_id":"cebpf4jnsgd1na2vs0mg"},{"bike_id":"d9d97985-8792-47a3-ab8c-09980f6a9900","system_id":"levelo_inurba_marseille","lat":43.29525,"lon":5.37496,"is_reserved":false,"is_disabled":true,"rental_uris":{"android":"levelo://app?vid=d9d97985-8792-47a3-ab8c-09980f6a9900","ios":"levelo://app?vid=d9d97985-8792-47a3-ab8c-09980f6a9900"},"vehicle_type_id":"4","last_reported":1735402191,"current_range_meters":10000,"station_id":"ce4bgkp2rcd13ifvqbmg","pricing_plan_id":"cebpf4jnsgd1na2vs0mg"},{"bike_id":"e1e242d1-2cf6-4a1f-8622-55d7b81af7d8","system_id":"levelo_inurba_marseille","lat":43.27817,"lon":5.40707,"is_reserved":false,"is_disabled":false,"rental_uris":{"android":"levelo://app?vid=e1e242d1-2cf6-4a1f-8622-55d7b81af7d8","ios":"levelo://app?vid=e1e242d1-2cf6-4a1f-8622-55d7b81af7d8"},"vehicle_type_id":"4","last_reported":1735402191,"current_range_meters":36000,"station_id":"ce4bhnh2rcd13ifvqgtg","pricing_plan_id":"cebpf4jnsgd1na2vs0mg"},{"bike_id":"74efadb3-6150-400e-a7ae-4b006e40a1fd","system_id":"levelo_inurba_marseille","lat":43.28478,"lon":5.38408,"is_reserved":false,"is_disabled":false,"rental_uris":{"android":"levelo://app?vid=74efadb3-6150-400e-a7ae-4b006e40a1fd","ios":"levelo://app?vid=74efadb3-6150-400e-a7ae-4b006e40a1fd"},"vehicle_type_id":"4","last_reported":1735402191,"current_range_meters":35200,"station_id":"ce4bh512rcd13ifvqe3g","pricing_plan_id":"cebpf4jnsgd1na2vs0mg"},{"bike_id":"482b0b80-c53d-4d05-aa82-218b22575b6c","system_id":"levelo_inurba_marseille","lat":43.23159,"lon":5.43698,"is_reserved":false,"is_disabled":true,"rental_uris":{"android":"levelo://app?vid=482b0b80-c53d-4d05-aa82-218b22575b6c","ios":"levelo://app?vid=482b0b80-c53d-4d05-aa82-218b22575b6c"},"vehicle_type_id":"4","last_reported":1735402191,"current_range_meters":9600,"station_id":"ce4bhmp2rcd13ifvqgog","pricing_plan_id":"cebpf4jnsgd1na2vs0mg"},{"bike_id":"375d5811-de8b-418c-91ed-82d921ddce21","system_id":"levelo_inurba_marseille","lat":43.29705,"lon":5.36591,"is_reserved":false,"is_disabled":false,"rental_uris":{"android":"levelo://app?vid=375d5811-de8b-418c-91ed-82d921ddce21","ios":"levelo://app?vid=375d5811-de8b-418c-91ed-82d921ddce21"},"vehicle_type_id":"4","last_reported":1735402191,"current_range_meters":38800,"station_id":"ce4bgn12rcd13ifvqbt0","pricing_plan_id":"cebpf4jnsgd1na2vs0mg"},{"bike_id":"5caf2166-d02b-45ae-a99e-85227a96dc49","system_id":"levelo_inurba_marseille","lat":43.27677,"lon":5.38898,"is_reserved":false,"is_disabled":false,"rental_uris":{"android":"levelo://app?vid=5caf2166-d02b-45ae-a99e-85227a96dc49","ios":"levelo://app?vid=5caf2166-d02b-45ae-a99e-85227a96dc49"},"vehicle_type_id":"4","last_reported":1735402191,"current_range_meters":28800,"station_id":"ce4bhi12rcd13ifvqfo0","pricing_plan_id":"cebpf4jnsgd1na2vs0mg"},{"bike_id":"b55683c1-3164-4e8c-98bf-e56e94fb8d33","system_id":"levelo_inurba_marseille","lat":43.27616,"lon":5.36112,"is_reserved":false,"is_disabled":false,"rental_uris":{"android":"levelo://app?vid=b55683c1-3164-4e8c-98bf-e56e94fb8d33","ios":"levelo://app?vid=b55683c1-3164-4e8c-98bf-e56e94fb8d33"},"vehicle_type_id":"4","last_reported":1735402191,"current_range_meters":32800,"station_id":"ce4bgj92rcd13ifvqbe0","pricing_plan_id":"cebpf4jnsgd1na2vs0mg"},{"bike_id":"db2c549d-e98a-4769-95fa-52946ad4fb3d","system_id":"levelo_inurba_marseille","lat":43.2985,"lon":5.36283,"is_reserved":false,"is_disabled":false,"rental_uris":{"android":"levelo://app?vid=db2c549d-e98a-4769-95fa-52946ad4fb3d","ios":"levelo://app?vid=db2c549d-e98a-4769-95fa-52946ad4fb3d"},"vehicle_type_id":"4","last_reported":1735402191,"current_range_meters":36400,"station_id":"ce4bgpp2rcd13ifvqc3g","pricing_plan_id":"cebpf4jnsgd1na2vs0mg"},{"bike_id":"06cb9db3-5173-4e30-b394-f221ce1c8457","system_id":"levelo_inurba_marseille","lat":43.30141,"lon":5.39873,"is_reserved":false,"is_disabled":false,"rental_uris":{"android":"levelo://app?vid=06cb9db3-5173-4e30-b394-f221ce1c8457","ios":"levelo://app?vid=06cb9db3-5173-4e30-b394-f221ce1c8457"},"vehicle_type_id":"4","last_reported":1735402191,"current_range_meters":38000,"station_id":"ce4bh0h2rcd13ifvqd40","pricing_plan_id":"cebpf4jnsgd1na2vs0mg"},{"bike_id":"84d66323-c910-43de-88f4-328ecf4d27e4","system_id":"levelo_inurba_marseille","lat":43.27998,"lon":5.41661,"is_reserved":false,"is_disabled":false,"rental_uris":{"android":"levelo://app?vid=84d66323-c910-43de-88f4-328ecf4d27e4","ios":"levelo://app?vid=84d66323-c910-43de-88f4-328ecf4d27e4"},"vehicle_type_id":"4","last_reported":1735402191,"current_range_meters":34000,"station_id":"ce4bho12rcd13ifvqh1g","pricing_plan_id":"cebpf4jnsgd1na2vs0mg"},{"bike_id":"223dd20f-b934-4101-90b0-f4f286646534","system_id":"levelo_inurba_marseille","lat":43.29433,"lon":5.38631,"is_reserved":false,"is_disabled":false,"rental_uris":{"android":"levelo://app?vid=223dd20f-b934-4101-90b0-f4f286646534","ios":"levelo://app?vid=223dd20f-b934-4101-90b0-f4f286646534"},"vehicle_type_id":"4","last_reported":1735402191,"current_range_meters":36800,"station_id":"ce4bh2h2rcd13ifvqdh0","pricing_plan_id":"cebpf4jnsgd1na2vs0mg"},{"bike_id":"a3b5e29c-4425-483d-9fe4-2d25fea7803f","system_id":"levelo_inurba_marseille","lat":43.25022,"lon":5.38915,"is_reserved":false,"is_disabled":false,"rental_uris":{"android":"levelo://app?vid=a3b5e29c-4425-483d-9fe4-2d25fea7803f","ios":"levelo://app?vid=a3b5e29c-4425-483d-9fe4-2d25fea7803f"},"vehicle_type_id":"4","last_reported":1735402191,"current_range_meters":27600,"station_id":"ce4bhgp2rcd13ifvqfd0","pricing_plan_id":"cebpf4jnsgd1na2vs0mg"},{"bike_id":"89bd1e03-d2e1-4927-8b6b-64f0f297535a","system_id":"levelo_inurba_marseille","lat":43.26213,"lon":5.37443,"is_reserved":false,"is_disabled":false,"rental_uris":{"android":"levelo://app?vid=89bd1e03-d2e1-4927-8b6b-64f0f297535a","ios":"levelo://app?vid=89bd1e03-d2e1-4927-8b6b-64f0f297535a"},"vehicle_type_id":"4","last_reported":1735402191,"current_range_meters":16000,"station_id":"ce4bhgp2rcd13ifvqfc0","pricing_plan_id":"cebpf4jnsgd1na2vs0mg"},{"bike_id":"530ffafe-c038-478f-8778-340bc37d70fd","system_id":"levelo_inurba_marseille","lat":43.24169,"lon":5.36401,"is_reserved":false,"is_disabled":false,"rental_uris":{"android":"levelo://app?vid=530ffafe-c038-478f-8778-340bc37d70fd","ios":"levelo://app?vid=530ffafe-c038-478f-8778-340bc37d70fd"},"vehicle_type_id":"4","last_reported":1735402191,"current_range_meters":16400,"station_id":"cpo36qri1sfpv3e86is0","pricing_plan_id":"cebpf4jnsgd1na2vs0mg"},{"bike_id":"f6a398ba-af8e-4fe3-a6c0-f28cb0077f88","system_id":"levelo_inurba_marseille","lat":43.28141,"lon":5.42639,"is_reserved":false,"is_disabled":false,"rental_uris":{"android":"levelo://app?vid=f6a398ba-af8e-4fe3-a6c0-f28cb0077f88","ios":"levelo://app?vid=f6a398ba-af8e-4fe3-a6c0-f28cb0077f88"},"vehicle_type_id":"4","last_reported":1735402191,"current_range_meters":24800,"station_id":"ce4bhnh2rcd13ifvqgug","pricing_plan_id":"cebpf4jnsgd1na2vs0mg"},{"bike_id":"2a8090a5-258a-42f6-bdf5-1bde1ba8db3e","system_id":"levelo_inurba_marseille","lat":43.24814,"lon":5.37418,"is_reserved":false,"is_disabled":false,"rental_uris":{"android":"levelo://app?vid=2a8090a5-258a-42f6-bdf5-1bde1ba8db3e","ios":"levelo://app?vid=2a8090a5-258a-42f6-bdf5-1bde1ba8db3e"},"vehicle_type_id":"4","last_reported":1735402191,"current_range_meters":8800,"station_id":"ce4bhgh2rcd13ifvqfb0","pricing_plan_id":"cebpf4jnsgd1na2vs0mg"},{"bike_id":"7bd44d09-e872-4291-b548-1cbe40f16cac","system_id":"levelo_inurba_marseille","lat":43.281481,"lon":5.4265,"is_reserved":false,"is_disabled":false,"rental_uris":{"android":"levelo://app?vid=7bd44d09-e872-4291-b548-1cbe40f16cac","ios":"levelo://app?vid=7bd44d09-e872-4291-b548-1cbe40f16cac"},"vehicle_type_id":"4","last_reported":1735402191,"current_range_meters":27600,"station_id":"ce4bhnh2rcd13ifvqgug","pricing_plan_id":"cebpf4jnsgd1na2vs0mg"},{"bike_id":"4bde70b4-880f-46a7-b6ba-f1dc3206342d","system_id":"levelo_inurba_marseille","lat":43.28988,"lon":5.37821,"is_reserved":false,"is_disabled":false,"rental_uris":{"android":"levelo://app?vid=4bde70b4-880f-46a7-b6ba-f1dc3206342d","ios":"levelo://app?vid=4bde70b4-880f-46a7-b6ba-f1dc3206342d"},"vehicle_type_id":"4","last_reported":1735402191,"current_range_meters":20800,"station_id":"ce4bh9p2rcd13ifvqed0","pricing_plan_id":"cebpf4jnsgd1na2vs0mg"},{"bike_id":"84c56a7d-e64a-42e9-a2e6-9cc18ae79555","system_id":"levelo_inurba_marseille","lat":43.28427,"lon":5.34994,"is_reserved":false,"is_disabled":false,"rental_uris":{"android":"levelo://app?vid=84c56a7d-e64a-42e9-a2e6-9cc18ae79555","ios":"levelo://app?vid=84c56a7d-e64a-42e9-a2e6-9cc18ae79555"},"vehicle_type_id":"4","last_reported":1735402191,"current_range_meters":18000,"station_id":"ce4bhbh2rcd13ifvqepg","pricing_plan_id":"cebpf4jnsgd1na2vs0mg"},{"bike_id":"359ddae0-5d3f-4b29-8d32-daa2bb9138da","system_id":"levelo_inurba_marseille","lat":43.297248,"lon":5.376892,"is_reserved":false,"is_disabled":false,"rental_uris":{"android":"levelo://app?vid=359ddae0-5d3f-4b29-8d32-daa2bb9138da","ios":"levelo://app?vid=359ddae0-5d3f-4b29-8d32-daa2bb9138da"},"vehicle_type_id":"4","last_reported":1735402191,"current_range_meters":34800,"station_id":"ce4bgkh2rcd13ifvqbl0","pricing_plan_id":"cebpf4jnsgd1na2vs0mg"},{"bike_id":"1107b56a-98a5-4a01-8449-9eba086fee5a","system_id":"levelo_inurba_marseille","lat":43.29073,"lon":5.39883,"is_reserved":false,"is_disabled":true,"rental_uris":{"android":"levelo://app?vid=1107b56a-98a5-4a01-8449-9eba086fee5a","ios":"levelo://app?vid=1107b56a-98a5-4a01-8449-9eba086fee5a"},"vehicle_type_id":"4","last_reported":1735402191,"current_range_meters":20000,"station_id":"","pricing_plan_id":"cebpf4jnsgd1na2vs0mg"},{"bike_id":"3936594b-3011-4b9e-99f9-fc8ff4ddd24f","system_id":"levelo_inurba_marseille","lat":43.29568,"lon":5.37516,"is_reserved":false,"is_disabled":false,"rental_uris":{"android":"levelo://app?vid=3936594b-3011-4b9e-99f9-fc8ff4ddd24f","ios":"levelo://app?vid=3936594b-3011-4b9e-99f9-fc8ff4ddd24f"},"vehicle_type_id":"4","last_reported":1735402191,"current_range_meters":37600,"station_id":"ce4bgh92rcd13ifvqb50","pricing_plan_id":"cebpf4jnsgd1na2vs0mg"},{"bike_id":"786e5098-28fd-4b11-9f88-6b6b8a5a52af","system_id":"levelo_inurba_marseille","lat":43.28704,"lon":5.37372,"is_reserved":false,"is_disabled":false,"rental_uris":{"android":"levelo://app?vid=786e5098-28fd-4b11-9f88-6b6b8a5a52af","ios":"levelo://app?vid=786e5098-28fd-4b11-9f88-6b6b8a5a52af"},"vehicle_type_id":"4","last_reported":1735402191,"current_range_meters":28000,"station_id":"ce4bh3p2rcd13ifvqdq0","pricing_plan_id":"cebpf4jnsgd1na2vs0mg"},{"bike_id":"c9b97fb7-b709-4c26-ae01-dabf637bc152","system_id":"levelo_inurba_marseille","lat":43.27814,"lon":5.40722,"is_reserved":false,"is_disabled":false,"rental_uris":{"android":"levelo://app?vid=c9b97fb7-b709-4c26-ae01-dabf637bc152","ios":"levelo://app?vid=c9b97fb7-b709-4c26-ae01-dabf637bc152"},"vehicle_type_id":"4","last_reported":1735402191,"current_range_meters":27600,"station_id":"ce4bhnh2rcd13ifvqgtg","pricing_plan_id":"cebpf4jnsgd1na2vs0mg"},{"bike_id":"cff1bff7-a993-46ce-960d-d708f185c552","system_id":"levelo_inurba_marseille","lat":43.30576,"lon":5.36724,"is_reserved":false,"is_disabled":false,"rental_uris":{"android":"levelo://app?vid=cff1bff7-a993-46ce-960d-d708f185c552","ios":"levelo://app?vid=cff1bff7-a993-46ce-960d-d708f185c552"},"vehicle_type_id":"4","last_reported":1735402191,"current_range_meters":24800,"station_id":"ce4bgrp2rcd13ifvqc9g","pricing_plan_id":"cebpf4jnsgd1na2vs0mg"},{"bike_id":"a3da2083-e19b-47b1-82f4-65fabbd436c4","system_id":"levelo_inurba_marseille","lat":43.31327,"lon":5.39695,"is_reserved":false,"is_disabled":false,"rental_uris":{"android":"levelo://app?vid=a3da2083-e19b-47b1-82f4-65fabbd436c4","ios":"levelo://app?vid=a3da2083-e19b-47b1-82f4-65fabbd436c4"},"vehicle_type_id":"4","last_reported":1735402191,"current_range_meters":21600,"station_id":"ce4bgvp2rcd13ifvqcu0","pricing_plan_id":"cebpf4jnsgd1na2vs0mg"},{"bike_id":"fd9dccc3-920a-4f08-931a-e49fee0b5433","system_id":"levelo_inurba_marseille","lat":43.29257,"lon":5.40906,"is_reserved":false,"is_disabled":false,"rental_uris":{"android":"levelo://app?vid=fd9dccc3-920a-4f08-931a-e49fee0b5433","ios":"levelo://app?vid=fd9dccc3-920a-4f08-931a-e49fee0b5433"},"vehicle_type_id":"4","last_reported":1735402191,"current_range_meters":4800,"station_id":"ce4bh192rcd13ifvqdc0","pricing_plan_id":"cebpf4jnsgd1na2vs0mg"},{"bike_id":"41e441a8-4ad2-4bf0-81ba-96c35feaf6d8","system_id":"levelo_inurba_marseille","lat":43.28153,"lon":5.42636,"is_reserved":false,"is_disabled":false,"rental_uris":{"android":"levelo://app?vid=41e441a8-4ad2-4bf0-81ba-96c35feaf6d8","ios":"levelo://app?vid=41e441a8-4ad2-4bf0-81ba-96c35feaf6d8"},"vehicle_type_id":"4","last_reported":1735402191,"current_range_meters":33600,"station_id":"ce4bhnh2rcd13ifvqgug","pricing_plan_id":"cebpf4jnsgd1na2vs0mg"},{"bike_id":"31777107-a2e5-453c-ac2f-23b216a03d1d","system_id":"levelo_inurba_marseille","lat":43.29802,"lon":5.37105,"is_reserved":false,"is_disabled":false,"rental_uris":{"android":"levelo://app?vid=31777107-a2e5-453c-ac2f-23b216a03d1d","ios":"levelo://app?vid=31777107-a2e5-453c-ac2f-23b216a03d1d"},"vehicle_type_id":"4","last_reported":1735402191,"current_range_meters":38800,"station_id":"ce4bgop2rcd13ifvqc1g","pricing_plan_id":"cebpf4jnsgd1na2vs0mg"},{"bike_id":"ad954c5e-731b-466c-b7a3-d28bedadb5f9","system_id":"levelo_inurba_marseille","lat":43.27373,"lon":5.36249,"is_reserved":false,"is_disabled":false,"rental_uris":{"android":"levelo://app?vid=ad954c5e-731b-466c-b7a3-d28bedadb5f9","ios":"levelo://app?vid=ad954c5e-731b-466c-b7a3-d28bedadb5f9"},"vehicle_type_id":"4","last_reported":1735402191,"current_range_meters":32800,"station_id":"ce4bhbh2rcd13ifvqeo0","pricing_plan_id":"cebpf4jnsgd1na2vs0mg"},{"bike_id":"0040c17c-e92e-44b5-a6fb-3621bcac561f","system_id":"levelo_inurba_marseille","lat":43.27076,"lon":5.42277,"is_reserved":false,"is_disabled":false,"rental_uris":{"android":"levelo://app?vid=0040c17c-e92e-44b5-a6fb-3621bcac561f","ios":"levelo://app?vid=0040c17c-e92e-44b5-a6fb-3621bcac561f"},"vehicle_type_id":"4","last_reported":1735402191,"current_range_meters":25600,"station_id":"ce4bhk92rcd13ifvqgb0","pricing_plan_id":"cebpf4jnsgd1na2vs0mg"},{"bike_id":"1a18bfda-4db7-441f-899e-8c2cf1accb71","system_id":"levelo_inurba_marseille","lat":43.30537,"lon":5.36541,"is_reserved":false,"is_disabled":false,"rental_uris":{"android":"levelo://app?vid=1a18bfda-4db7-441f-899e-8c2cf1accb71","ios":"levelo://app?vid=1a18bfda-4db7-441f-899e-8c2cf1accb71"},"vehicle_type_id":"4","last_reported":1735402191,"current_range_meters":38800,"station_id":"ce4bgs12rcd13ifvqcag","pricing_plan_id":"cebpf4jnsgd1na2vs0mg"},{"bike_id":"35fc5b67-c72d-4da3-a027-d2783031d6a4","system_id":"levelo_inurba_marseille","lat":43.29575,"lon":5.37526,"is_reserved":false,"is_disabled":false,"rental_uris":{"android":"levelo://app?vid=35fc5b67-c72d-4da3-a027-d2783031d6a4","ios":"levelo://app?vid=35fc5b67-c72d-4da3-a027-d2783031d6a4"},"vehicle_type_id":"4","last_reported":1735402191,"current_range_meters":37600,"station_id":"ce4bgh92rcd13ifvqb50","pricing_plan_id":"cebpf4jnsgd1na2vs0mg"},{"bike_id":"9330c3d3-b201-436f-aa9e-355e010ee145","system_id":"levelo_inurba_marseille","lat":43.28476,"lon":5.38395,"is_reserved":false,"is_disabled":false,"rental_uris":{"android":"levelo://app?vid=9330c3d3-b201-436f-aa9e-355e010ee145","ios":"levelo://app?vid=9330c3d3-b201-436f-aa9e-355e010ee145"},"vehicle_type_id":"4","last_reported":1735402191,"current_range_meters":30000,"station_id":"ce4bh512rcd13ifvqe3g","pricing_plan_id":"cebpf4jnsgd1na2vs0mg"},{"bike_id":"78b26bf4-85d0-4dfc-9358-591e3d4f61bc","system_id":"levelo_inurba_marseille","lat":43.29914,"lon":5.38152,"is_reserved":false,"is_disabled":false,"rental_uris":{"android":"levelo://app?vid=78b26bf4-85d0-4dfc-9358-591e3d4f61bc","ios":"levelo://app?vid=78b26bf4-85d0-4dfc-9358-591e3d4f61bc"},"vehicle_type_id":"4","last_reported":1735402191,"current_range_meters":7200,"station_id":"ce4bgj12rcd13ifvqbc0","pricing_plan_id":"cebpf4jnsgd1na2vs0mg"},{"bike_id":"92e5199a-11b1-40ef-a476-dfdcbdf67ef6","system_id":"levelo_inurba_marseille","lat":43.30643,"lon":5.37248,"is_reserved":false,"is_disabled":false,"rental_uris":{"android":"levelo://app?vid=92e5199a-11b1-40ef-a476-dfdcbdf67ef6","ios":"levelo://app?vid=92e5199a-11b1-40ef-a476-dfdcbdf67ef6"},"vehicle_type_id":"4","last_reported":1735402191,"current_range_meters":18000,"station_id":"ce4bgqh2rcd13ifvqc4g","pricing_plan_id":"cebpf4jnsgd1na2vs0mg"},{"bike_id":"9f86ef52-d199-4754-8567-f49dda6d9a4e","system_id":"levelo_inurba_marseille","lat":43.23185,"lon":5.39992,"is_reserved":false,"is_disabled":true,"rental_uris":{"android":"levelo://app?vid=9f86ef52-d199-4754-8567-f49dda6d9a4e","ios":"levelo://app?vid=9f86ef52-d199-4754-8567-f49dda6d9a4e"},"vehicle_type_id":"4","last_reported":1735402191,"current_range_meters":1600,"station_id":"ce4bhn12rcd13ifvqgqg","pricing_plan_id":"cebpf4jnsgd1na2vs0mg"},{"bike_id":"356fd92d-e963-40e6-b40e-58fc72ac9553","system_id":"levelo_inurba_marseille","lat":43.321068,"lon":5.367797,"is_reserved":false,"is_disabled":false,"rental_uris":{"android":"levelo://app?vid=356fd92d-e963-40e6-b40e-58fc72ac9553","ios":"levelo://app?vid=356fd92d-e963-40e6-b40e-58fc72ac9553"},"vehicle_type_id":"4","last_reported":1735402191,"current_range_meters":13600,"station_id":"ce4bhrh2rcd13ifvqhug","pricing_plan_id":"cebpf4jnsgd1na2vs0mg"},{"bike_id":"b9946797-e770-48ac-9bc5-6937e6a4e5a7","system_id":"levelo_inurba_marseille","lat":43.25508,"lon":5.37661,"is_reserved":false,"is_disabled":false,"rental_uris":{"android":"levelo://app?vid=b9946797-e770-48ac-9bc5-6937e6a4e5a7","ios":"levelo://app?vid=b9946797-e770-48ac-9bc5-6937e6a4e5a7"},"vehicle_type_id":"4","last_reported":1735402191,"current_range_meters":39200,"station_id":"ce4bhh12rcd13ifvqff0","pricing_plan_id":"cebpf4jnsgd1na2vs0mg"},{"bike_id":"275b3da6-774f-4761-a7dc-249dd30f5245","system_id":"levelo_inurba_marseille","lat":43.25729,"lon":5.41122,"is_reserved":false,"is_disabled":false,"rental_uris":{"android":"levelo://app?vid=275b3da6-774f-4761-a7dc-249dd30f5245","ios":"levelo://app?vid=275b3da6-774f-4761-a7dc-249dd30f5245"},"vehicle_type_id":"4","last_reported":1735402191,"current_range_meters":38000,"station_id":"ce4bhkp2rcd13ifvqgd0","pricing_plan_id":"cebpf4jnsgd1na2vs0mg"},{"bike_id":"fcff3d88-10d0-4b7f-b631-1984a7e75209","system_id":"levelo_inurba_marseille","lat":43.25089,"lon":5.39509,"is_reserved":false,"is_disabled":false,"rental_uris":{"android":"levelo://app?vid=fcff3d88-10d0-4b7f-b631-1984a7e75209","ios":"levelo://app?vid=fcff3d88-10d0-4b7f-b631-1984a7e75209"},"vehicle_type_id":"4","last_reported":1735402191,"current_range_meters":33600,"station_id":"ce4bhm12rcd13ifvqgkg","pricing_plan_id":"cebpf4jnsgd1na2vs0mg"},{"bike_id":"c1eadca5-ee36-4651-974c-0565e239a8e8","system_id":"levelo_inurba_marseille","lat":43.31334,"lon":5.39684,"is_reserved":false,"is_disabled":false,"rental_uris":{"android":"levelo://app?vid=c1eadca5-ee36-4651-974c-0565e239a8e8","ios":"levelo://app?vid=c1eadca5-ee36-4651-974c-0565e239a8e8"},"vehicle_type_id":"4","last_reported":1735402191,"current_range_meters":28000,"station_id":"ce4bgvp2rcd13ifvqcu0","pricing_plan_id":"cebpf4jnsgd1na2vs0mg"},{"bike_id":"0e8ddb04-2704-47bf-9b07-101e2ba656ba","system_id":"levelo_inurba_marseille","lat":43.30276,"lon":5.40042,"is_reserved":false,"is_disabled":false,"rental_uris":{"android":"levelo://app?vid=0e8ddb04-2704-47bf-9b07-101e2ba656ba","ios":"levelo://app?vid=0e8ddb04-2704-47bf-9b07-101e2ba656ba"},"vehicle_type_id":"4","last_reported":1735402191,"current_range_meters":38800,"station_id":"ce4bgvh2rcd13ifvqcs0","pricing_plan_id":"cebpf4jnsgd1na2vs0mg"},{"bike_id":"9fa57387-8cab-4068-bbfc-f71cf5d92d2d","system_id":"levelo_inurba_marseille","lat":43.29531,"lon":5.3749,"is_reserved":false,"is_disabled":false,"rental_uris":{"android":"levelo://app?vid=9fa57387-8cab-4068-bbfc-f71cf5d92d2d","ios":"levelo://app?vid=9fa57387-8cab-4068-bbfc-f71cf5d92d2d"},"vehicle_type_id":"4","last_reported":1735402191,"current_range_meters":35200,"station_id":"ce4bgkp2rcd13ifvqbmg","pricing_plan_id":"cebpf4jnsgd1na2vs0mg"},{"bike_id":"aad4b48e-bf7d-45fe-88e8-842ac76065da","system_id":"levelo_inurba_marseille","lat":43.27206,"lon":5.3918,"is_reserved":false,"is_disabled":false,"rental_uris":{"android":"levelo://app?vid=aad4b48e-bf7d-45fe-88e8-842ac76065da","ios":"levelo://app?vid=aad4b48e-bf7d-45fe-88e8-842ac76065da"},"vehicle_type_id":"4","last_reported":1735402191,"current_range_meters":35200,"station_id":"ce4bhhp2rcd13ifvqfm0","pricing_plan_id":"cebpf4jnsgd1na2vs0mg"},{"bike_id":"673ed0fe-3027-4e1f-9efc-2804b0e32190","system_id":"levelo_inurba_marseille","lat":43.26688,"lon":5.38272,"is_reserved":false,"is_disabled":false,"rental_uris":{"android":"levelo://app?vid=673ed0fe-3027-4e1f-9efc-2804b0e32190","ios":"levelo://app?vid=673ed0fe-3027-4e1f-9efc-2804b0e32190"},"vehicle_type_id":"4","last_reported":1735402191,"current_range_meters":11600,"station_id":"ce4bhg92rcd13ifvqf90","pricing_plan_id":"cebpf4jnsgd1na2vs0mg"},{"bike_id":"722f2af5-ac54-4dbb-9bc6-5279600072af","system_id":"levelo_inurba_marseille","lat":43.29188,"lon":5.35808,"is_reserved":false,"is_disabled":false,"rental_uris":{"android":"levelo://app?vid=722f2af5-ac54-4dbb-9bc6-5279600072af","ios":"levelo://app?vid=722f2af5-ac54-4dbb-9bc6-5279600072af"},"vehicle_type_id":"4","last_reported":1735402191,"current_range_meters":38000,"station_id":"ce4bhb12rcd13ifvqel0","pricing_plan_id":"cebpf4jnsgd1na2vs0mg"},{"bike_id":"da20b405-e768-46f8-9c8d-732516229a86","system_id":"levelo_inurba_marseille","lat":43.31124,"lon":5.37767,"is_reserved":false,"is_disabled":false,"rental_uris":{"android":"levelo://app?vid=da20b405-e768-46f8-9c8d-732516229a86","ios":"levelo://app?vid=da20b405-e768-46f8-9c8d-732516229a86"},"vehicle_type_id":"4","last_reported":1735402191,"current_range_meters":36800,"station_id":"ce4bgt92rcd13ifvqcg0","pricing_plan_id":"cebpf4jnsgd1na2vs0mg"},{"bike_id":"17281b94-d9ee-4de2-b86b-bf8a41fceb2b","system_id":"levelo_inurba_marseille","lat":43.25007,"lon":5.3891,"is_reserved":false,"is_disabled":false,"rental_uris":{"android":"levelo://app?vid=17281b94-d9ee-4de2-b86b-bf8a41fceb2b","ios":"levelo://app?vid=17281b94-d9ee-4de2-b86b-bf8a41fceb2b"},"vehicle_type_id":"4","last_reported":1735402191,"current_range_meters":24800,"station_id":"ce4bhgp2rcd13ifvqfd0","pricing_plan_id":"cebpf4jnsgd1na2vs0mg"},{"bike_id":"4edf1a42-d1cb-4e42-a8d9-af12f276347c","system_id":"levelo_inurba_marseille","lat":43.26937,"lon":5.40265,"is_reserved":false,"is_disabled":false,"rental_uris":{"android":"levelo://app?vid=4edf1a42-d1cb-4e42-a8d9-af12f276347c","ios":"levelo://app?vid=4edf1a42-d1cb-4e42-a8d9-af12f276347c"},"vehicle_type_id":"4","last_reported":1735402191,"current_range_meters":38800,"station_id":"cjm6bp8fraef2m0cb0m0","pricing_plan_id":"cebpf4jnsgd1na2vs0mg"},{"bike_id":"df081108-0797-45b3-8e4d-a719278958b7","system_id":"levelo_inurba_marseille","lat":43.30445,"lon":5.39754,"is_reserved":false,"is_disabled":false,"rental_uris":{"android":"levelo://app?vid=df081108-0797-45b3-8e4d-a719278958b7","ios":"levelo://app?vid=df081108-0797-45b3-8e4d-a719278958b7"},"vehicle_type_id":"4","last_reported":1735402191,"current_range_meters":25200,"station_id":"ce4bh092rcd13ifvqd20","pricing_plan_id":"cebpf4jnsgd1na2vs0mg"},{"bike_id":"e20f4beb-3f10-40bd-9c79-8765ffed8b21","system_id":"levelo_inurba_marseille","lat":43.288482,"lon":5.393001,"is_reserved":false,"is_disabled":false,"rental_uris":{"android":"levelo://app?vid=e20f4beb-3f10-40bd-9c79-8765ffed8b21","ios":"levelo://app?vid=e20f4beb-3f10-40bd-9c79-8765ffed8b21"},"vehicle_type_id":"4","last_reported":1735402191,"current_range_meters":37600,"station_id":"ce4bh2p2rcd13ifvqdi0","pricing_plan_id":"cebpf4jnsgd1na2vs0mg"},{"bike_id":"182697cb-2219-4e08-8291-846687f91a97","system_id":"levelo_inurba_marseille","lat":43.28161,"lon":5.42642,"is_reserved":false,"is_disabled":false,"rental_uris":{"android":"levelo://app?vid=182697cb-2219-4e08-8291-846687f91a97","ios":"levelo://app?vid=182697cb-2219-4e08-8291-846687f91a97"},"vehicle_type_id":"4","last_reported":1735402191,"current_range_meters":4000,"station_id":"ce4bhnh2rcd13ifvqgug","pricing_plan_id":"cebpf4jnsgd1na2vs0mg"},{"bike_id":"c2b8fd79-5397-4588-8610-964aa11ebe4c","system_id":"levelo_inurba_marseille","lat":43.29068,"lon":5.37643,"is_reserved":false,"is_disabled":false,"rental_uris":{"android":"levelo://app?vid=c2b8fd79-5397-4588-8610-964aa11ebe4c","ios":"levelo://app?vid=c2b8fd79-5397-4588-8610-964aa11ebe4c"},"vehicle_type_id":"4","last_reported":1735402191,"current_range_meters":31200,"station_id":"","pricing_plan_id":"cebpf4jnsgd1na2vs0mg"},{"bike_id":"e07f17cb-27ad-4f87-ba7c-7a4bd3b83819","system_id":"levelo_inurba_marseille","lat":43.3249,"lon":5.36561,"is_reserved":false,"is_disabled":false,"rental_uris":{"android":"levelo://app?vid=e07f17cb-27ad-4f87-ba7c-7a4bd3b83819","ios":"levelo://app?vid=e07f17cb-27ad-4f87-ba7c-7a4bd3b83819"},"vehicle_type_id":"4","last_reported":1735402191,"current_range_meters":39200,"station_id":"ce4bhs12rcd13ifvqhvg","pricing_plan_id":"cebpf4jnsgd1na2vs0mg"},{"bike_id":"622825f4-100c-4370-a3e7-a2ac977f5898","system_id":"levelo_inurba_marseille","lat":43.29921,"lon":5.38166,"is_reserved":false,"is_disabled":false,"rental_uris":{"android":"levelo://app?vid=622825f4-100c-4370-a3e7-a2ac977f5898","ios":"levelo://app?vid=622825f4-100c-4370-a3e7-a2ac977f5898"},"vehicle_type_id":"4","last_reported":1735402191,"current_range_meters":38800,"station_id":"ce4bgj12rcd13ifvqbc0","pricing_plan_id":"cebpf4jnsgd1na2vs0mg"},{"bike_id":"c59703cf-502f-4be2-ab56-c907e22fcac2","system_id":"levelo_inurba_marseille","lat":43.27321,"lon":5.39085,"is_reserved":false,"is_disabled":false,"rental_uris":{"android":"levelo://app?vid=c59703cf-502f-4be2-ab56-c907e22fcac2","ios":"levelo://app?vid=c59703cf-502f-4be2-ab56-c907e22fcac2"},"vehicle_type_id":"4","last_reported":1735402191,"current_range_meters":38800,"station_id":"ce4bhgp2rcd13ifvqfe0","pricing_plan_id":"cebpf4jnsgd1na2vs0mg"},{"bike_id":"49b1bf6a-278f-46e7-8f36-0d39eae56b7d","system_id":"levelo_inurba_marseille","lat":43.26201,"lon":5.3744,"is_reserved":false,"is_disabled":false,"rental_uris":{"android":"levelo://app?vid=49b1bf6a-278f-46e7-8f36-0d39eae56b7d","ios":"levelo://app?vid=49b1bf6a-278f-46e7-8f36-0d39eae56b7d"},"vehicle_type_id":"4","last_reported":1735402191,"current_range_meters":26800,"station_id":"ce4bhgp2rcd13ifvqfc0","pricing_plan_id":"cebpf4jnsgd1na2vs0mg"},{"bike_id":"8b2caef2-7af0-44d2-8f46-cb4ab8b932ab","system_id":"levelo_inurba_marseille","lat":43.2606,"lon":5.39396,"is_reserved":false,"is_disabled":false,"rental_uris":{"android":"levelo://app?vid=8b2caef2-7af0-44d2-8f46-cb4ab8b932ab","ios":"levelo://app?vid=8b2caef2-7af0-44d2-8f46-cb4ab8b932ab"},"vehicle_type_id":"4","last_reported":1735402191,"current_range_meters":37600,"station_id":"ce4bhh92rcd13ifvqfj0","pricing_plan_id":"cebpf4jnsgd1na2vs0mg"},{"bike_id":"02d1a785-568f-4790-a926-13accf20c75a","system_id":"levelo_inurba_marseille","lat":43.27991,"lon":5.41651,"is_reserved":false,"is_disabled":false,"rental_uris":{"android":"levelo://app?vid=02d1a785-568f-4790-a926-13accf20c75a","ios":"levelo://app?vid=02d1a785-568f-4790-a926-13accf20c75a"},"vehicle_type_id":"4","last_reported":1735402191,"current_range_meters":22400,"station_id":"ce4bho12rcd13ifvqh1g","pricing_plan_id":"cebpf4jnsgd1na2vs0mg"},{"bike_id":"309a9554-13e3-4a27-8da4-4d931614d914","system_id":"levelo_inurba_marseille","lat":43.29026,"lon":5.38111,"is_reserved":false,"is_disabled":true,"rental_uris":{"android":"levelo://app?vid=309a9554-13e3-4a27-8da4-4d931614d914","ios":"levelo://app?vid=309a9554-13e3-4a27-8da4-4d931614d914"},"vehicle_type_id":"4","last_reported":1735402191,"current_range_meters":7200,"station_id":"ce4bh4p2rcd13ifvqe1g","pricing_plan_id":"cebpf4jnsgd1na2vs0mg"},{"bike_id":"d5ddbfd8-c695-45c7-8f75-3f1b7776c13d","system_id":"levelo_inurba_marseille","lat":43.22934,"lon":5.35373,"is_reserved":false,"is_disabled":false,"rental_uris":{"android":"levelo://app?vid=d5ddbfd8-c695-45c7-8f75-3f1b7776c13d","ios":"levelo://app?vid=d5ddbfd8-c695-45c7-8f75-3f1b7776c13d"},"vehicle_type_id":"4","last_reported":1735402191,"current_range_meters":38800,"station_id":"cpo3532slgdg3j2ikp40","pricing_plan_id":"cebpf4jnsgd1na2vs0mg"},{"bike_id":"eeb0d433-3c14-490c-a1c3-e6268649a012","system_id":"levelo_inurba_marseille","lat":43.27081,"lon":5.42295,"is_reserved":false,"is_disabled":false,"rental_uris":{"android":"levelo://app?vid=eeb0d433-3c14-490c-a1c3-e6268649a012","ios":"levelo://app?vid=eeb0d433-3c14-490c-a1c3-e6268649a012"},"vehicle_type_id":"4","last_reported":1735402191,"current_range_meters":36400,"station_id":"ce4bhk92rcd13ifvqgb0","pricing_plan_id":"cebpf4jnsgd1na2vs0mg"},{"bike_id":"2d76d9f4-5ac3-420c-b7d3-8710df44025b","system_id":"levelo_inurba_marseille","lat":43.2955,"lon":5.4228,"is_reserved":false,"is_disabled":false,"rental_uris":{"android":"levelo://app?vid=2d76d9f4-5ac3-420c-b7d3-8710df44025b","ios":"levelo://app?vid=2d76d9f4-5ac3-420c-b7d3-8710df44025b"},"vehicle_type_id":"4","last_reported":1735402191,"current_range_meters":14400,"station_id":"ce4bhph2rcd13ifvqhdg","pricing_plan_id":"cebpf4jnsgd1na2vs0mg"},{"bike_id":"5477d212-35e2-4622-b27a-bfe5ff434d03","system_id":"levelo_inurba_marseille","lat":43.337603,"lon":5.374424,"is_reserved":false,"is_disabled":false,"rental_uris":{"android":"levelo://app?vid=5477d212-35e2-4622-b27a-bfe5ff434d03","ios":"levelo://app?vid=5477d212-35e2-4622-b27a-bfe5ff434d03"},"vehicle_type_id":"4","last_reported":1735402191,"current_range_meters":24800,"station_id":"","pricing_plan_id":"cebpf4jnsgd1na2vs0mg"},{"bike_id":"254571ce-4bff-437b-8e26-03b746d4984d","system_id":"levelo_inurba_marseille","lat":43.31376,"lon":5.38495,"is_reserved":false,"is_disabled":false,"rental_uris":{"android":"levelo://app?vid=254571ce-4bff-437b-8e26-03b746d4984d","ios":"levelo://app?vid=254571ce-4bff-437b-8e26-03b746d4984d"},"vehicle_type_id":"4","last_reported":1735402191,"current_range_meters":36800,"station_id":"ce4bgt92rcd13ifvqcf0","pricing_plan_id":"cebpf4jnsgd1na2vs0mg"},{"bike_id":"cb457dd1-7538-4593-b5f4-16205d7648a2","system_id":"levelo_inurba_marseille","lat":43.2827,"lon":5.35066,"is_reserved":false,"is_disabled":false,"rental_uris":{"android":"levelo://app?vid=cb457dd1-7538-4593-b5f4-16205d7648a2","ios":"levelo://app?vid=cb457dd1-7538-4593-b5f4-16205d7648a2"},"vehicle_type_id":"4","last_reported":1735402191,"current_range_meters":38000,"station_id":"ce4bhbp2rcd13ifvqerg","pricing_plan_id":"cebpf4jnsgd1na2vs0mg"},{"bike_id":"e3b22104-7d7e-4581-a114-1ae53774489e","system_id":"levelo_inurba_marseille","lat":43.29587,"lon":5.37508,"is_reserved":false,"is_disabled":false,"rental_uris":{"android":"levelo://app?vid=e3b22104-7d7e-4581-a114-1ae53774489e","ios":"levelo://app?vid=e3b22104-7d7e-4581-a114-1ae53774489e"},"vehicle_type_id":"4","last_reported":1735402191,"current_range_meters":32400,"station_id":"ce4bgh92rcd13ifvqb50","pricing_plan_id":"cebpf4jnsgd1na2vs0mg"},{"bike_id":"88b5984c-6754-4288-b0c2-ab7044a16ba7","system_id":"levelo_inurba_marseille","lat":43.29791,"lon":5.39345,"is_reserved":false,"is_disabled":false,"rental_uris":{"android":"levelo://app?vid=88b5984c-6754-4288-b0c2-ab7044a16ba7","ios":"levelo://app?vid=88b5984c-6754-4288-b0c2-ab7044a16ba7"},"vehicle_type_id":"4","last_reported":1735402191,"current_range_meters":22800,"station_id":"chh1huq6cuj3fo74tm60","pricing_plan_id":"cebpf4jnsgd1na2vs0mg"},{"bike_id":"8a8a6110-4142-4f6f-8b0d-c20b173f30bc","system_id":"levelo_inurba_marseille","lat":43.30794,"lon":5.38155,"is_reserved":false,"is_disabled":false,"rental_uris":{"android":"levelo://app?vid=8a8a6110-4142-4f6f-8b0d-c20b173f30bc","ios":"levelo://app?vid=8a8a6110-4142-4f6f-8b0d-c20b173f30bc"},"vehicle_type_id":"4","last_reported":1735402191,"current_range_meters":33200,"station_id":"ce4bgt12rcd13ifvqce0","pricing_plan_id":"cebpf4jnsgd1na2vs0mg"},{"bike_id":"87b4cbab-5fd2-4ea2-84be-85caf0812f57","system_id":"levelo_inurba_marseille","lat":43.30423,"lon":5.4128,"is_reserved":false,"is_disabled":false,"rental_uris":{"android":"levelo://app?vid=87b4cbab-5fd2-4ea2-84be-85caf0812f57","ios":"levelo://app?vid=87b4cbab-5fd2-4ea2-84be-85caf0812f57"},"vehicle_type_id":"4","last_reported":1735402191,"current_range_meters":16000,"station_id":"ce4bhop2rcd13ifvqh8g","pricing_plan_id":"cebpf4jnsgd1na2vs0mg"},{"bike_id":"101eb229-77de-467a-b7b7-a664add5ddae","system_id":"levelo_inurba_marseille","lat":43.2621,"lon":5.37442,"is_reserved":false,"is_disabled":false,"rental_uris":{"android":"levelo://app?vid=101eb229-77de-467a-b7b7-a664add5ddae","ios":"levelo://app?vid=101eb229-77de-467a-b7b7-a664add5ddae"},"vehicle_type_id":"4","last_reported":1735402191,"current_range_meters":31200,"station_id":"ce4bhgp2rcd13ifvqfc0","pricing_plan_id":"cebpf4jnsgd1na2vs0mg"},{"bike_id":"cedf33c7-0c6e-44d0-b641-3d4f75e24128","system_id":"levelo_inurba_marseille","lat":43.30561,"lon":5.36521,"is_reserved":false,"is_disabled":false,"rental_uris":{"android":"levelo://app?vid=cedf33c7-0c6e-44d0-b641-3d4f75e24128","ios":"levelo://app?vid=cedf33c7-0c6e-44d0-b641-3d4f75e24128"},"vehicle_type_id":"4","last_reported":1735402191,"current_range_meters":33200,"station_id":"ce4bgs12rcd13ifvqcag","pricing_plan_id":"cebpf4jnsgd1na2vs0mg"},{"bike_id":"ce391c99-c1d6-4555-9b26-f5b7a5fa066d","system_id":"levelo_inurba_marseille","lat":43.283581,"lon":5.380944,"is_reserved":false,"is_disabled":false,"rental_uris":{"android":"levelo://app?vid=ce391c99-c1d6-4555-9b26-f5b7a5fa066d","ios":"levelo://app?vid=ce391c99-c1d6-4555-9b26-f5b7a5fa066d"},"vehicle_type_id":"4","last_reported":1735402191,"current_range_meters":38800,"station_id":"ce4bh412rcd13ifvqdr0","pricing_plan_id":"cebpf4jnsgd1na2vs0mg"},{"bike_id":"e82fa968-8cc5-4e9d-9e64-93cbca02a3c9","system_id":"levelo_inurba_marseille","lat":43.29521,"lon":5.37517,"is_reserved":false,"is_disabled":false,"rental_uris":{"android":"levelo://app?vid=e82fa968-8cc5-4e9d-9e64-93cbca02a3c9","ios":"levelo://app?vid=e82fa968-8cc5-4e9d-9e64-93cbca02a3c9"},"vehicle_type_id":"4","last_reported":1735402191,"current_range_meters":11200,"station_id":"ce4bgkp2rcd13ifvqbmg","pricing_plan_id":"cebpf4jnsgd1na2vs0mg"},{"bike_id":"6bd48d81-28e7-45d3-91bb-c861a5a2eba5","system_id":"levelo_inurba_marseille","lat":43.26896,"lon":5.4028,"is_reserved":false,"is_disabled":false,"rental_uris":{"android":"levelo://app?vid=6bd48d81-28e7-45d3-91bb-c861a5a2eba5","ios":"levelo://app?vid=6bd48d81-28e7-45d3-91bb-c861a5a2eba5"},"vehicle_type_id":"4","last_reported":1735402191,"current_range_meters":38400,"station_id":"","pricing_plan_id":"cebpf4jnsgd1na2vs0mg"},{"bike_id":"18f320a9-6607-4d36-8c6f-1652222157dc","system_id":"levelo_inurba_marseille","lat":43.24077,"lon":5.37749,"is_reserved":false,"is_disabled":false,"rental_uris":{"android":"levelo://app?vid=18f320a9-6607-4d36-8c6f-1652222157dc","ios":"levelo://app?vid=18f320a9-6607-4d36-8c6f-1652222157dc"},"vehicle_type_id":"4","last_reported":1735402191,"current_range_meters":24000,"station_id":"ce4bhnp2rcd13ifvqgvg","pricing_plan_id":"cebpf4jnsgd1na2vs0mg"},{"bike_id":"972b9a27-7cc1-4331-8624-d49c6777962a","system_id":"levelo_inurba_marseille","lat":43.2953,"lon":5.39042,"is_reserved":false,"is_disabled":false,"rental_uris":{"android":"levelo://app?vid=972b9a27-7cc1-4331-8624-d49c6777962a","ios":"levelo://app?vid=972b9a27-7cc1-4331-8624-d49c6777962a"},"vehicle_type_id":"4","last_reported":1735402191,"current_range_meters":16800,"station_id":"ce4bh3p2rcd13ifvqdp0","pricing_plan_id":"cebpf4jnsgd1na2vs0mg"},{"bike_id":"27001726-4b0a-4ba0-8261-5a303bdee373","system_id":"levelo_inurba_marseille","lat":43.27535,"lon":5.38435,"is_reserved":false,"is_disabled":false,"rental_uris":{"android":"levelo://app?vid=27001726-4b0a-4ba0-8261-5a303bdee373","ios":"levelo://app?vid=27001726-4b0a-4ba0-8261-5a303bdee373"},"vehicle_type_id":"4","last_reported":1735402191,"current_range_meters":39200,"station_id":"ce4bhh92rcd13ifvqfi0","pricing_plan_id":"cebpf4jnsgd1na2vs0mg"},{"bike_id":"421c6551-132c-4015-aab8-f2eccc5315e9","system_id":"levelo_inurba_marseille","lat":43.3288,"lon":5.39954,"is_reserved":false,"is_disabled":false,"rental_uris":{"android":"levelo://app?vid=421c6551-132c-4015-aab8-f2eccc5315e9","ios":"levelo://app?vid=421c6551-132c-4015-aab8-f2eccc5315e9"},"vehicle_type_id":"4","last_reported":1735402191,"current_range_meters":16400,"station_id":"ce4bhr92rcd13ifvqhrg","pricing_plan_id":"cebpf4jnsgd1na2vs0mg"},{"bike_id":"a3cec059-5ab4-431f-9f41-bc9386b79e42","system_id":"levelo_inurba_marseille","lat":43.2973,"lon":5.37688,"is_reserved":false,"is_disabled":false,"rental_uris":{"android":"levelo://app?vid=a3cec059-5ab4-431f-9f41-bc9386b79e42","ios":"levelo://app?vid=a3cec059-5ab4-431f-9f41-bc9386b79e42"},"vehicle_type_id":"4","last_reported":1735402191,"current_range_meters":38800,"station_id":"ce4bgkh2rcd13ifvqbl0","pricing_plan_id":"cebpf4jnsgd1na2vs0mg"},{"bike_id":"16eb736d-6bbb-49c0-b5c4-ac0ac23d3352","system_id":"levelo_inurba_marseille","lat":43.29256,"lon":5.40902,"is_reserved":false,"is_disabled":true,"rental_uris":{"android":"levelo://app?vid=16eb736d-6bbb-49c0-b5c4-ac0ac23d3352","ios":"levelo://app?vid=16eb736d-6bbb-49c0-b5c4-ac0ac23d3352"},"vehicle_type_id":"4","last_reported":1735402191,"current_range_meters":2000,"station_id":"ce4bh192rcd13ifvqdc0","pricing_plan_id":"cebpf4jnsgd1na2vs0mg"},{"bike_id":"d7294cd5-2623-434f-b244-c391219a24d9","system_id":"levelo_inurba_marseille","lat":43.30535,"lon":5.36694,"is_reserved":false,"is_disabled":false,"rental_uris":{"android":"levelo://app?vid=d7294cd5-2623-434f-b244-c391219a24d9","ios":"levelo://app?vid=d7294cd5-2623-434f-b244-c391219a24d9"},"vehicle_type_id":"4","last_reported":1735402191,"current_range_meters":27200,"station_id":"ce4bgrp2rcd13ifvqc9g","pricing_plan_id":"cebpf4jnsgd1na2vs0mg"},{"bike_id":"87a48cd1-ce9b-4509-ad0f-3bd3aa23cbe9","system_id":"levelo_inurba_marseille","lat":43.3054,"lon":5.36698,"is_reserved":false,"is_disabled":false,"rental_uris":{"android":"levelo://app?vid=87a48cd1-ce9b-4509-ad0f-3bd3aa23cbe9","ios":"levelo://app?vid=87a48cd1-ce9b-4509-ad0f-3bd3aa23cbe9"},"vehicle_type_id":"4","last_reported":1735402191,"current_range_meters":38800,"station_id":"ce4bgrp2rcd13ifvqc9g","pricing_plan_id":"cebpf4jnsgd1na2vs0mg"},{"bike_id":"f9481e9f-9df5-424a-bb0d-4faeb65d1454","system_id":"levelo_inurba_marseille","lat":43.287215,"lon":5.360807,"is_reserved":false,"is_disabled":false,"rental_uris":{"android":"levelo://app?vid=f9481e9f-9df5-424a-bb0d-4faeb65d1454","ios":"levelo://app?vid=f9481e9f-9df5-424a-bb0d-4faeb65d1454"},"vehicle_type_id":"4","last_reported":1735402191,"current_range_meters":24000,"station_id":"cki0cbj6b192h4jlfktg","pricing_plan_id":"cebpf4jnsgd1na2vs0mg"},{"bike_id":"1560d899-203a-414b-9dd8-6d05efff7eee","system_id":"levelo_inurba_marseille","lat":43.27673,"lon":5.38863,"is_reserved":false,"is_disabled":false,"rental_uris":{"android":"levelo://app?vid=1560d899-203a-414b-9dd8-6d05efff7eee","ios":"levelo://app?vid=1560d899-203a-414b-9dd8-6d05efff7eee"},"vehicle_type_id":"4","last_reported":1735402191,"current_range_meters":9200,"station_id":"ce4bhi12rcd13ifvqfo0","pricing_plan_id":"cebpf4jnsgd1na2vs0mg"},{"bike_id":"afee58e8-e5dc-41cd-8a2c-0f44f17ea9f0","system_id":"levelo_inurba_marseille","lat":43.28603,"lon":5.37048,"is_reserved":false,"is_disabled":false,"rental_uris":{"android":"levelo://app?vid=afee58e8-e5dc-41cd-8a2c-0f44f17ea9f0","ios":"levelo://app?vid=afee58e8-e5dc-41cd-8a2c-0f44f17ea9f0"},"vehicle_type_id":"4","last_reported":1735402191,"current_range_meters":11600,"station_id":"ce4bht12rcd13ifvqi60","pricing_plan_id":"cebpf4jnsgd1na2vs0mg"},{"bike_id":"c9e5d6c6-5601-4769-be5c-20fef93ca121","system_id":"levelo_inurba_marseille","lat":43.24163,"lon":5.36395,"is_reserved":false,"is_disabled":false,"rental_uris":{"android":"levelo://app?vid=c9e5d6c6-5601-4769-be5c-20fef93ca121","ios":"levelo://app?vid=c9e5d6c6-5601-4769-be5c-20fef93ca121"},"vehicle_type_id":"4","last_reported":1735402191,"current_range_meters":16800,"station_id":"cpo36qri1sfpv3e86is0","pricing_plan_id":"cebpf4jnsgd1na2vs0mg"},{"bike_id":"e23a7d55-7ce1-4f20-a71a-26c06c907d82","system_id":"levelo_inurba_marseille","lat":43.27945,"lon":5.41043,"is_reserved":false,"is_disabled":false,"rental_uris":{"android":"levelo://app?vid=e23a7d55-7ce1-4f20-a71a-26c06c907d82","ios":"levelo://app?vid=e23a7d55-7ce1-4f20-a71a-26c06c907d82"},"vehicle_type_id":"4","last_reported":1735402191,"current_range_meters":38000,"station_id":"ce4bhnp2rcd13ifvqh0g","pricing_plan_id":"cebpf4jnsgd1na2vs0mg"},{"bike_id":"48265646-40e3-46ad-941d-8112dd2d5a0f","system_id":"levelo_inurba_marseille","lat":43.32474,"lon":5.36567,"is_reserved":false,"is_disabled":false,"rental_uris":{"android":"levelo://app?vid=48265646-40e3-46ad-941d-8112dd2d5a0f","ios":"levelo://app?vid=48265646-40e3-46ad-941d-8112dd2d5a0f"},"vehicle_type_id":"4","last_reported":1735402191,"current_range_meters":38800,"station_id":"ce4bhs12rcd13ifvqhvg","pricing_plan_id":"cebpf4jnsgd1na2vs0mg"},{"bike_id":"5367a292-5564-4681-91cd-97babb89fc00","system_id":"levelo_inurba_marseille","lat":43.2292,"lon":5.35383,"is_reserved":false,"is_disabled":false,"rental_uris":{"android":"levelo://app?vid=5367a292-5564-4681-91cd-97babb89fc00","ios":"levelo://app?vid=5367a292-5564-4681-91cd-97babb89fc00"},"vehicle_type_id":"4","last_reported":1735402191,"current_range_meters":38800,"station_id":"cpo3532slgdg3j2ikp40","pricing_plan_id":"cebpf4jnsgd1na2vs0mg"},{"bike_id":"b63b9eb6-fafc-4c7c-ad91-57273b105b52","system_id":"levelo_inurba_marseille","lat":43.29904,"lon":5.38156,"is_reserved":false,"is_disabled":false,"rental_uris":{"android":"levelo://app?vid=b63b9eb6-fafc-4c7c-ad91-57273b105b52","ios":"levelo://app?vid=b63b9eb6-fafc-4c7c-ad91-57273b105b52"},"vehicle_type_id":"4","last_reported":1735402191,"current_range_meters":38800,"station_id":"ce4bgj12rcd13ifvqbc0","pricing_plan_id":"cebpf4jnsgd1na2vs0mg"},{"bike_id":"1c54d444-e79d-47be-9d93-011f670361a9","system_id":"levelo_inurba_marseille","lat":43.30425,"lon":5.39744,"is_reserved":false,"is_disabled":false,"rental_uris":{"android":"levelo://app?vid=1c54d444-e79d-47be-9d93-011f670361a9","ios":"levelo://app?vid=1c54d444-e79d-47be-9d93-011f670361a9"},"vehicle_type_id":"4","last_reported":1735402191,"current_range_meters":36400,"station_id":"ce4bh092rcd13ifvqd20","pricing_plan_id":"cebpf4jnsgd1na2vs0mg"},{"bike_id":"f4e5ce5f-0d34-4d8f-bf8f-ddfe0d855270","system_id":"levelo_inurba_marseille","lat":43.28468,"lon":5.35899,"is_reserved":false,"is_disabled":false,"rental_uris":{"android":"levelo://app?vid=f4e5ce5f-0d34-4d8f-bf8f-ddfe0d855270","ios":"levelo://app?vid=f4e5ce5f-0d34-4d8f-bf8f-ddfe0d855270"},"vehicle_type_id":"4","last_reported":1735402191,"current_range_meters":8400,"station_id":"ce4bhah2rcd13ifvqei0","pricing_plan_id":"cebpf4jnsgd1na2vs0mg"},{"bike_id":"eba10033-af5b-4512-940f-5dddc3323335","system_id":"levelo_inurba_marseille","lat":43.30148,"lon":5.38074,"is_reserved":false,"is_disabled":false,"rental_uris":{"android":"levelo://app?vid=eba10033-af5b-4512-940f-5dddc3323335","ios":"levelo://app?vid=eba10033-af5b-4512-940f-5dddc3323335"},"vehicle_type_id":"4","last_reported":1735402191,"current_range_meters":34800,"station_id":"ce4bgjp2rcd13ifvqbh0","pricing_plan_id":"cebpf4jnsgd1na2vs0mg"},{"bike_id":"44218c42-0da2-4290-87a6-e3739ae8503f","system_id":"levelo_inurba_marseille","lat":43.27208,"lon":5.39182,"is_reserved":false,"is_disabled":false,"rental_uris":{"android":"levelo://app?vid=44218c42-0da2-4290-87a6-e3739ae8503f","ios":"levelo://app?vid=44218c42-0da2-4290-87a6-e3739ae8503f"},"vehicle_type_id":"4","last_reported":1735402191,"current_range_meters":30400,"station_id":"ce4bhhp2rcd13ifvqfm0","pricing_plan_id":"cebpf4jnsgd1na2vs0mg"},{"bike_id":"a00c5e20-068e-446c-872e-260fe1c04f85","system_id":"levelo_inurba_marseille","lat":43.29367,"lon":5.37824,"is_reserved":false,"is_disabled":false,"rental_uris":{"android":"levelo://app?vid=a00c5e20-068e-446c-872e-260fe1c04f85","ios":"levelo://app?vid=a00c5e20-068e-446c-872e-260fe1c04f85"},"vehicle_type_id":"4","last_reported":1735402191,"current_range_meters":38800,"station_id":"ce4bgjh2rcd13ifvqbf0","pricing_plan_id":"cebpf4jnsgd1na2vs0mg"},{"bike_id":"d1bbd01c-0034-46c4-bf37-3205fa085f62","system_id":"levelo_inurba_marseille","lat":43.2973,"lon":5.37686,"is_reserved":false,"is_disabled":false,"rental_uris":{"android":"levelo://app?vid=d1bbd01c-0034-46c4-bf37-3205fa085f62","ios":"levelo://app?vid=d1bbd01c-0034-46c4-bf37-3205fa085f62"},"vehicle_type_id":"4","last_reported":1735402191,"current_range_meters":38800,"station_id":"ce4bgkh2rcd13ifvqbl0","pricing_plan_id":"cebpf4jnsgd1na2vs0mg"},{"bike_id":"deb74dd6-caed-4958-9dd1-d5f6f39c849d","system_id":"levelo_inurba_marseille","lat":43.29849,"lon":5.36281,"is_reserved":false,"is_disabled":false,"rental_uris":{"android":"levelo://app?vid=deb74dd6-caed-4958-9dd1-d5f6f39c849d","ios":"levelo://app?vid=deb74dd6-caed-4958-9dd1-d5f6f39c849d"},"vehicle_type_id":"4","last_reported":1735402191,"current_range_meters":24800,"station_id":"ce4bgpp2rcd13ifvqc3g","pricing_plan_id":"cebpf4jnsgd1na2vs0mg"},{"bike_id":"15c2670d-f807-47f7-9fbe-1c14fcb46679","system_id":"levelo_inurba_marseille","lat":43.28477,"lon":5.38411,"is_reserved":false,"is_disabled":false,"rental_uris":{"android":"levelo://app?vid=15c2670d-f807-47f7-9fbe-1c14fcb46679","ios":"levelo://app?vid=15c2670d-f807-47f7-9fbe-1c14fcb46679"},"vehicle_type_id":"4","last_reported":1735402191,"current_range_meters":21600,"station_id":"ce4bh512rcd13ifvqe3g","pricing_plan_id":"cebpf4jnsgd1na2vs0mg"},{"bike_id":"7fea2f91-cddd-4d25-8f38-f9b435da14de","system_id":"levelo_inurba_marseille","lat":43.29941,"lon":5.36544,"is_reserved":false,"is_disabled":false,"rental_uris":{"android":"levelo://app?vid=7fea2f91-cddd-4d25-8f38-f9b435da14de","ios":"levelo://app?vid=7fea2f91-cddd-4d25-8f38-f9b435da14de"},"vehicle_type_id":"4","last_reported":1735402191,"current_range_meters":25200,"station_id":"ce4bgm92rcd13ifvqbr0","pricing_plan_id":"cebpf4jnsgd1na2vs0mg"},{"bike_id":"56af5837-42c5-4220-b1e0-8dea103acccc","system_id":"levelo_inurba_marseille","lat":43.28614,"lon":5.35107,"is_reserved":false,"is_disabled":false,"rental_uris":{"android":"levelo://app?vid=56af5837-42c5-4220-b1e0-8dea103acccc","ios":"levelo://app?vid=56af5837-42c5-4220-b1e0-8dea103acccc"},"vehicle_type_id":"4","last_reported":1735402191,"current_range_meters":32800,"station_id":"ce4bhch2rcd13ifvqeug","pricing_plan_id":"cebpf4jnsgd1na2vs0mg"},{"bike_id":"985abd85-7eb9-440d-af2e-54064c6071cf","system_id":"levelo_inurba_marseille","lat":43.28853,"lon":5.35866,"is_reserved":false,"is_disabled":false,"rental_uris":{"android":"levelo://app?vid=985abd85-7eb9-440d-af2e-54064c6071cf","ios":"levelo://app?vid=985abd85-7eb9-440d-af2e-54064c6071cf"},"vehicle_type_id":"4","last_reported":1735402191,"current_range_meters":27600,"station_id":"ce4bhb12rcd13ifvqem0","pricing_plan_id":"cebpf4jnsgd1na2vs0mg"},{"bike_id":"b23c0590-ef54-41cd-8583-62a444448403","system_id":"levelo_inurba_marseille","lat":43.2987,"lon":5.36269,"is_reserved":false,"is_disabled":false,"rental_uris":{"android":"levelo://app?vid=b23c0590-ef54-41cd-8583-62a444448403","ios":"levelo://app?vid=b23c0590-ef54-41cd-8583-62a444448403"},"vehicle_type_id":"4","last_reported":1735402191,"current_range_meters":35200,"station_id":"ce4bgpp2rcd13ifvqc3g","pricing_plan_id":"cebpf4jnsgd1na2vs0mg"},{"bike_id":"dac94ecf-3203-4c89-acc0-21c14e979588","system_id":"levelo_inurba_marseille","lat":43.26701,"lon":5.3827,"is_reserved":false,"is_disabled":false,"rental_uris":{"android":"levelo://app?vid=dac94ecf-3203-4c89-acc0-21c14e979588","ios":"levelo://app?vid=dac94ecf-3203-4c89-acc0-21c14e979588"},"vehicle_type_id":"4","last_reported":1735402191,"current_range_meters":31200,"station_id":"ce4bhg92rcd13ifvqf90","pricing_plan_id":"cebpf4jnsgd1na2vs0mg"},{"bike_id":"934c7866-7257-4731-a061-f9434d78c1f1","system_id":"levelo_inurba_marseille","lat":43.29613,"lon":5.37735,"is_reserved":false,"is_disabled":false,"rental_uris":{"android":"levelo://app?vid=934c7866-7257-4731-a061-f9434d78c1f1","ios":"levelo://app?vid=934c7866-7257-4731-a061-f9434d78c1f1"},"vehicle_type_id":"4","last_reported":1735402191,"current_range_meters":30400,"station_id":"ce4bgi92rcd13ifvqb90","pricing_plan_id":"cebpf4jnsgd1na2vs0mg"},{"bike_id":"d787e330-e288-4e1c-926a-5bcb7a236ca2","system_id":"levelo_inurba_marseille","lat":43.2816,"lon":5.42663,"is_reserved":false,"is_disabled":false,"rental_uris":{"android":"levelo://app?vid=d787e330-e288-4e1c-926a-5bcb7a236ca2","ios":"levelo://app?vid=d787e330-e288-4e1c-926a-5bcb7a236ca2"},"vehicle_type_id":"4","last_reported":1735402191,"current_range_meters":27600,"station_id":"ce4bhnh2rcd13ifvqgug","pricing_plan_id":"cebpf4jnsgd1na2vs0mg"},{"bike_id":"77ffde41-d4a3-4d04-ae52-9de9246db462","system_id":"levelo_inurba_marseille","lat":43.26558,"lon":5.38997,"is_reserved":false,"is_disabled":false,"rental_uris":{"android":"levelo://app?vid=77ffde41-d4a3-4d04-ae52-9de9246db462","ios":"levelo://app?vid=77ffde41-d4a3-4d04-ae52-9de9246db462"},"vehicle_type_id":"4","last_reported":1735402191,"current_range_meters":36800,"station_id":"ce4bhe12rcd13ifvqf30","pricing_plan_id":"cebpf4jnsgd1na2vs0mg"},{"bike_id":"f0fe7061-c68a-4663-8770-e8563c12238f","system_id":"levelo_inurba_marseille","lat":43.29783,"lon":5.37104,"is_reserved":false,"is_disabled":false,"rental_uris":{"android":"levelo://app?vid=f0fe7061-c68a-4663-8770-e8563c12238f","ios":"levelo://app?vid=f0fe7061-c68a-4663-8770-e8563c12238f"},"vehicle_type_id":"4","last_reported":1735402191,"current_range_meters":25600,"station_id":"ce4bgop2rcd13ifvqc1g","pricing_plan_id":"cebpf4jnsgd1na2vs0mg"},{"bike_id":"d3d96e1f-8dee-4f62-bf41-3d97f119ba4c","system_id":"levelo_inurba_marseille","lat":43.2976,"lon":5.37106,"is_reserved":false,"is_disabled":false,"rental_uris":{"android":"levelo://app?vid=d3d96e1f-8dee-4f62-bf41-3d97f119ba4c","ios":"levelo://app?vid=d3d96e1f-8dee-4f62-bf41-3d97f119ba4c"},"vehicle_type_id":"4","last_reported":1735402191,"current_range_meters":36800,"station_id":"ce4bgop2rcd13ifvqc1g","pricing_plan_id":"cebpf4jnsgd1na2vs0mg"},{"bike_id":"3b4909f5-d4f4-482b-be00-88be0de94366","system_id":"levelo_inurba_marseille","lat":43.27369,"lon":5.36231,"is_reserved":false,"is_disabled":false,"rental_uris":{"android":"levelo://app?vid=3b4909f5-d4f4-482b-be00-88be0de94366","ios":"levelo://app?vid=3b4909f5-d4f4-482b-be00-88be0de94366"},"vehicle_type_id":"4","last_reported":1735402191,"current_range_meters":19600,"station_id":"ce4bhbh2rcd13ifvqeo0","pricing_plan_id":"cebpf4jnsgd1na2vs0mg"},{"bike_id":"6b579508-5354-439e-a4e0-4261173e8d8b","system_id":"levelo_inurba_marseille","lat":43.299123,"lon":5.37476,"is_reserved":false,"is_disabled":false,"rental_uris":{"android":"levelo://app?vid=6b579508-5354-439e-a4e0-4261173e8d8b","ios":"levelo://app?vid=6b579508-5354-439e-a4e0-4261173e8d8b"},"vehicle_type_id":"4","last_reported":1735402191,"current_range_meters":38400,"station_id":"ce4bgjh2rcd13ifvqbg0","pricing_plan_id":"cebpf4jnsgd1na2vs0mg"},{"bike_id":"c47d30ca-1698-4fa3-8a83-7740cd7328ba","system_id":"levelo_inurba_marseille","lat":43.28612,"lon":5.37069,"is_reserved":false,"is_disabled":false,"rental_uris":{"android":"levelo://app?vid=c47d30ca-1698-4fa3-8a83-7740cd7328ba","ios":"levelo://app?vid=c47d30ca-1698-4fa3-8a83-7740cd7328ba"},"vehicle_type_id":"4","last_reported":1735402191,"current_range_meters":8000,"station_id":"ce4bht12rcd13ifvqi60","pricing_plan_id":"cebpf4jnsgd1na2vs0mg"},{"bike_id":"fc55ee07-cb79-4880-8466-c9fe9e754cca","system_id":"levelo_inurba_marseille","lat":43.323621,"lon":5.367538,"is_reserved":false,"is_disabled":false,"rental_uris":{"android":"levelo://app?vid=fc55ee07-cb79-4880-8466-c9fe9e754cca","ios":"levelo://app?vid=fc55ee07-cb79-4880-8466-c9fe9e754cca"},"vehicle_type_id":"4","last_reported":1735402191,"current_range_meters":22800,"station_id":"ce4bhsh2rcd13ifvqi2g","pricing_plan_id":"cebpf4jnsgd1na2vs0mg"},{"bike_id":"ffc2d679-3a4c-45e9-9a44-5ce4c4db5ea0","system_id":"levelo_inurba_marseille","lat":43.31755,"lon":5.39016,"is_reserved":false,"is_disabled":false,"rental_uris":{"android":"levelo://app?vid=ffc2d679-3a4c-45e9-9a44-5ce4c4db5ea0","ios":"levelo://app?vid=ffc2d679-3a4c-45e9-9a44-5ce4c4db5ea0"},"vehicle_type_id":"4","last_reported":1735402191,"current_range_meters":25600,"station_id":"ce4bhqp2rcd13ifvqhng","pricing_plan_id":"cebpf4jnsgd1na2vs0mg"},{"bike_id":"e66bfa74-9d11-484a-82a0-ee03e52a4906","system_id":"levelo_inurba_marseille","lat":43.2974,"lon":5.37718,"is_reserved":false,"is_disabled":false,"rental_uris":{"android":"levelo://app?vid=e66bfa74-9d11-484a-82a0-ee03e52a4906","ios":"levelo://app?vid=e66bfa74-9d11-484a-82a0-ee03e52a4906"},"vehicle_type_id":"4","last_reported":1735402191,"current_range_meters":37600,"station_id":"ce4bgkh2rcd13ifvqbl0","pricing_plan_id":"cebpf4jnsgd1na2vs0mg"},{"bike_id":"fd5bffcc-934d-4a5b-abe1-37ba321ae7af","system_id":"levelo_inurba_marseille","lat":43.23044,"lon":5.35495,"is_reserved":false,"is_disabled":false,"rental_uris":{"android":"levelo://app?vid=fd5bffcc-934d-4a5b-abe1-37ba321ae7af","ios":"levelo://app?vid=fd5bffcc-934d-4a5b-abe1-37ba321ae7af"},"vehicle_type_id":"4","last_reported":1735402191,"current_range_meters":38800,"station_id":"cpo3342slgdg3j2ifvpg","pricing_plan_id":"cebpf4jnsgd1na2vs0mg"},{"bike_id":"ead7e6f0-63bf-4675-9ad3-dca8734b0577","system_id":"levelo_inurba_marseille","lat":43.30163,"lon":5.3741,"is_reserved":false,"is_disabled":false,"rental_uris":{"android":"levelo://app?vid=ead7e6f0-63bf-4675-9ad3-dca8734b0577","ios":"levelo://app?vid=ead7e6f0-63bf-4675-9ad3-dca8734b0577"},"vehicle_type_id":"4","last_reported":1735402191,"current_range_meters":15200,"station_id":"ce4bgs92rcd13ifvqcc0","pricing_plan_id":"cebpf4jnsgd1na2vs0mg"},{"bike_id":"0f0f4d1e-900e-4a95-b43f-1fbe361bc122","system_id":"levelo_inurba_marseille","lat":43.2957,"lon":5.36742,"is_reserved":false,"is_disabled":false,"rental_uris":{"android":"levelo://app?vid=0f0f4d1e-900e-4a95-b43f-1fbe361bc122","ios":"levelo://app?vid=0f0f4d1e-900e-4a95-b43f-1fbe361bc122"},"vehicle_type_id":"4","last_reported":1735402191,"current_range_meters":30000,"station_id":"ce4bgph2rcd13ifvqc2g","pricing_plan_id":"cebpf4jnsgd1na2vs0mg"},{"bike_id":"c66208ba-96b2-4911-89d7-93272cf97217","system_id":"levelo_inurba_marseille","lat":43.27972,"lon":5.3874,"is_reserved":false,"is_disabled":false,"rental_uris":{"android":"levelo://app?vid=c66208ba-96b2-4911-89d7-93272cf97217","ios":"levelo://app?vid=c66208ba-96b2-4911-89d7-93272cf97217"},"vehicle_type_id":"4","last_reported":1735402191,"current_range_meters":24400,"station_id":"ce4bhg12rcd13ifvqf80","pricing_plan_id":"cebpf4jnsgd1na2vs0mg"},{"bike_id":"59f1c6a2-3c4f-421e-9c8c-fd318c40873b","system_id":"levelo_inurba_marseille","lat":43.24655,"lon":5.38935,"is_reserved":false,"is_disabled":false,"rental_uris":{"android":"levelo://app?vid=59f1c6a2-3c4f-421e-9c8c-fd318c40873b","ios":"levelo://app?vid=59f1c6a2-3c4f-421e-9c8c-fd318c40873b"},"vehicle_type_id":"4","last_reported":1735402191,"current_range_meters":32000,"station_id":"ce4bhg12rcd13ifvqf60","pricing_plan_id":"cebpf4jnsgd1na2vs0mg"},{"bike_id":"5ce09b6a-1afd-4730-8faf-5776038e710b","system_id":"levelo_inurba_marseille","lat":43.2621,"lon":5.37433,"is_reserved":false,"is_disabled":false,"rental_uris":{"android":"levelo://app?vid=5ce09b6a-1afd-4730-8faf-5776038e710b","ios":"levelo://app?vid=5ce09b6a-1afd-4730-8faf-5776038e710b"},"vehicle_type_id":"4","last_reported":1735402191,"current_range_meters":6800,"station_id":"ce4bhgp2rcd13ifvqfc0","pricing_plan_id":"cebpf4jnsgd1na2vs0mg"},{"bike_id":"efb7f8e3-c35c-4fb3-a3c0-f8da43a86730","system_id":"levelo_inurba_marseille","lat":43.2999,"lon":5.37189,"is_reserved":false,"is_disabled":false,"rental_uris":{"android":"levelo://app?vid=efb7f8e3-c35c-4fb3-a3c0-f8da43a86730","ios":"levelo://app?vid=efb7f8e3-c35c-4fb3-a3c0-f8da43a86730"},"vehicle_type_id":"4","last_reported":1735402191,"current_range_meters":38800,"station_id":"ce4bgr92rcd13ifvqc7g","pricing_plan_id":"cebpf4jnsgd1na2vs0mg"},{"bike_id":"c5c583c1-edc5-47da-973e-7c006c27a551","system_id":"levelo_inurba_marseille","lat":43.29267,"lon":5.40923,"is_reserved":false,"is_disabled":false,"rental_uris":{"android":"levelo://app?vid=c5c583c1-edc5-47da-973e-7c006c27a551","ios":"levelo://app?vid=c5c583c1-edc5-47da-973e-7c006c27a551"},"vehicle_type_id":"4","last_reported":1735402191,"current_range_meters":33600,"station_id":"ce4bh192rcd13ifvqdc0","pricing_plan_id":"cebpf4jnsgd1na2vs0mg"},{"bike_id":"83830a46-f3a4-4506-b996-32d3c1a80099","system_id":"levelo_inurba_marseille","lat":43.28004,"lon":5.40007,"is_reserved":false,"is_disabled":false,"rental_uris":{"android":"levelo://app?vid=83830a46-f3a4-4506-b996-32d3c1a80099","ios":"levelo://app?vid=83830a46-f3a4-4506-b996-32d3c1a80099"},"vehicle_type_id":"4","last_reported":1735402191,"current_range_meters":22000,"station_id":"ce4bho92rcd13ifvqh4g","pricing_plan_id":"cebpf4jnsgd1na2vs0mg"},{"bike_id":"8f36291e-4a2c-4c38-a04a-788c7448be0f","system_id":"levelo_inurba_marseille","lat":43.3372,"lon":5.39174,"is_reserved":false,"is_disabled":false,"rental_uris":{"android":"levelo://app?vid=8f36291e-4a2c-4c38-a04a-788c7448be0f","ios":"levelo://app?vid=8f36291e-4a2c-4c38-a04a-788c7448be0f"},"vehicle_type_id":"4","last_reported":1735402191,"current_range_meters":29600,"station_id":"ce4bhr92rcd13ifvqhsg","pricing_plan_id":"cebpf4jnsgd1na2vs0mg"},{"bike_id":"71472b59-3a52-4b90-81ac-b5ccb3920d76","system_id":"levelo_inurba_marseille","lat":43.29274,"lon":5.4091,"is_reserved":false,"is_disabled":false,"rental_uris":{"android":"levelo://app?vid=71472b59-3a52-4b90-81ac-b5ccb3920d76","ios":"levelo://app?vid=71472b59-3a52-4b90-81ac-b5ccb3920d76"},"vehicle_type_id":"4","last_reported":1735402191,"current_range_meters":39200,"station_id":"ce4bh192rcd13ifvqdc0","pricing_plan_id":"cebpf4jnsgd1na2vs0mg"},{"bike_id":"01dbbb80-29a0-4df3-bbd8-9be1a586ae47","system_id":"levelo_inurba_marseille","lat":43.24082,"lon":5.37745,"is_reserved":false,"is_disabled":false,"rental_uris":{"android":"levelo://app?vid=01dbbb80-29a0-4df3-bbd8-9be1a586ae47","ios":"levelo://app?vid=01dbbb80-29a0-4df3-bbd8-9be1a586ae47"},"vehicle_type_id":"4","last_reported":1735402191,"current_range_meters":27600,"station_id":"ce4bhnp2rcd13ifvqgvg","pricing_plan_id":"cebpf4jnsgd1na2vs0mg"},{"bike_id":"c7a5463a-9ebf-404c-ad9f-633fcf8f0863","system_id":"levelo_inurba_marseille","lat":43.2732,"lon":5.39095,"is_reserved":false,"is_disabled":false,"rental_uris":{"android":"levelo://app?vid=c7a5463a-9ebf-404c-ad9f-633fcf8f0863","ios":"levelo://app?vid=c7a5463a-9ebf-404c-ad9f-633fcf8f0863"},"vehicle_type_id":"4","last_reported":1735402191,"current_range_meters":30400,"station_id":"ce4bhgp2rcd13ifvqfe0","pricing_plan_id":"cebpf4jnsgd1na2vs0mg"},{"bike_id":"28c039f0-0fc3-4b78-ac93-62877efef832","system_id":"levelo_inurba_marseille","lat":43.29749,"lon":5.3769,"is_reserved":false,"is_disabled":false,"rental_uris":{"android":"levelo://app?vid=28c039f0-0fc3-4b78-ac93-62877efef832","ios":"levelo://app?vid=28c039f0-0fc3-4b78-ac93-62877efef832"},"vehicle_type_id":"4","last_reported":1735402191,"current_range_meters":39200,"station_id":"ce4bgkh2rcd13ifvqbl0","pricing_plan_id":"cebpf4jnsgd1na2vs0mg"},{"bike_id":"20b702aa-3626-48a1-97f9-356e9ae45714","system_id":"levelo_inurba_marseille","lat":43.3249,"lon":5.36572,"is_reserved":false,"is_disabled":false,"rental_uris":{"android":"levelo://app?vid=20b702aa-3626-48a1-97f9-356e9ae45714","ios":"levelo://app?vid=20b702aa-3626-48a1-97f9-356e9ae45714"},"vehicle_type_id":"4","last_reported":1735402191,"current_range_meters":36400,"station_id":"ce4bhs12rcd13ifvqhvg","pricing_plan_id":"cebpf4jnsgd1na2vs0mg"},{"bike_id":"21fe5fd5-9200-4f9b-a422-9d79a8670880","system_id":"levelo_inurba_marseille","lat":43.27967,"lon":5.38715,"is_reserved":false,"is_disabled":false,"rental_uris":{"android":"levelo://app?vid=21fe5fd5-9200-4f9b-a422-9d79a8670880","ios":"levelo://app?vid=21fe5fd5-9200-4f9b-a422-9d79a8670880"},"vehicle_type_id":"4","last_reported":1735402191,"current_range_meters":29600,"station_id":"ce4bhg12rcd13ifvqf80","pricing_plan_id":"cebpf4jnsgd1na2vs0mg"},{"bike_id":"c4fa8b26-bff7-4443-9f60-4eb78ee47219","system_id":"levelo_inurba_marseille","lat":43.337444,"lon":5.374475,"is_reserved":false,"is_disabled":false,"rental_uris":{"android":"levelo://app?vid=c4fa8b26-bff7-4443-9f60-4eb78ee47219","ios":"levelo://app?vid=c4fa8b26-bff7-4443-9f60-4eb78ee47219"},"vehicle_type_id":"4","last_reported":1735402191,"current_range_meters":36400,"station_id":"","pricing_plan_id":"cebpf4jnsgd1na2vs0mg"},{"bike_id":"9f5fe2a8-b175-4d87-8e17-d01f769cf25b","system_id":"levelo_inurba_marseille","lat":43.2572,"lon":5.41106,"is_reserved":false,"is_disabled":false,"rental_uris":{"android":"levelo://app?vid=9f5fe2a8-b175-4d87-8e17-d01f769cf25b","ios":"levelo://app?vid=9f5fe2a8-b175-4d87-8e17-d01f769cf25b"},"vehicle_type_id":"4","last_reported":1735402191,"current_range_meters":8400,"station_id":"ce4bhkp2rcd13ifvqgd0","pricing_plan_id":"cebpf4jnsgd1na2vs0mg"},{"bike_id":"dca9078b-0ef8-4c73-afb5-b9033d4091ab","system_id":"levelo_inurba_marseille","lat":43.29221,"lon":5.36064,"is_reserved":false,"is_disabled":false,"rental_uris":{"android":"levelo://app?vid=dca9078b-0ef8-4c73-afb5-b9033d4091ab","ios":"levelo://app?vid=dca9078b-0ef8-4c73-afb5-b9033d4091ab"},"vehicle_type_id":"4","last_reported":1735402191,"current_range_meters":32000,"station_id":"ce4bhbh2rcd13ifvqeqg","pricing_plan_id":"cebpf4jnsgd1na2vs0mg"},{"bike_id":"3df88d6f-d46e-4ac4-8a63-b76b8f86eb6f","system_id":"levelo_inurba_marseille","lat":43.29973,"lon":5.38491,"is_reserved":false,"is_disabled":false,"rental_uris":{"android":"levelo://app?vid=3df88d6f-d46e-4ac4-8a63-b76b8f86eb6f","ios":"levelo://app?vid=3df88d6f-d46e-4ac4-8a63-b76b8f86eb6f"},"vehicle_type_id":"4","last_reported":1735402191,"current_range_meters":39200,"station_id":"ce4bgj92rcd13ifvqbd0","pricing_plan_id":"cebpf4jnsgd1na2vs0mg"},{"bike_id":"8772cf26-6f23-4510-a4f8-f0b8db8a9b17","system_id":"levelo_inurba_marseille","lat":43.31718,"lon":5.43704,"is_reserved":false,"is_disabled":false,"rental_uris":{"android":"levelo://app?vid=8772cf26-6f23-4510-a4f8-f0b8db8a9b17","ios":"levelo://app?vid=8772cf26-6f23-4510-a4f8-f0b8db8a9b17"},"vehicle_type_id":"4","last_reported":1735402191,"current_range_meters":24800,"station_id":"ce4bhp92rcd13ifvqhcg","pricing_plan_id":"cebpf4jnsgd1na2vs0mg"},{"bike_id":"7e71574d-44f2-4bd9-810b-223335d347e2","system_id":"levelo_inurba_marseille","lat":43.28422,"lon":5.34987,"is_reserved":false,"is_disabled":false,"rental_uris":{"android":"levelo://app?vid=7e71574d-44f2-4bd9-810b-223335d347e2","ios":"levelo://app?vid=7e71574d-44f2-4bd9-810b-223335d347e2"},"vehicle_type_id":"4","last_reported":1735402191,"current_range_meters":25200,"station_id":"ce4bhbh2rcd13ifvqepg","pricing_plan_id":"cebpf4jnsgd1na2vs0mg"},{"bike_id":"fc2ff444-5848-464d-af32-81d463415521","system_id":"levelo_inurba_marseille","lat":43.29944,"lon":5.37484,"is_reserved":false,"is_disabled":false,"rental_uris":{"android":"levelo://app?vid=fc2ff444-5848-464d-af32-81d463415521","ios":"levelo://app?vid=fc2ff444-5848-464d-af32-81d463415521"},"vehicle_type_id":"4","last_reported":1735402191,"current_range_meters":38400,"station_id":"ce4bgjh2rcd13ifvqbg0","pricing_plan_id":"cebpf4jnsgd1na2vs0mg"},{"bike_id":"7b079417-064f-4fcc-b518-126a625acf28","system_id":"levelo_inurba_marseille","lat":43.30943,"lon":5.40148,"is_reserved":false,"is_disabled":false,"rental_uris":{"android":"levelo://app?vid=7b079417-064f-4fcc-b518-126a625acf28","ios":"levelo://app?vid=7b079417-064f-4fcc-b518-126a625acf28"},"vehicle_type_id":"4","last_reported":1735402191,"current_range_meters":8000,"station_id":"ce4bgvp2rcd13ifvqct0","pricing_plan_id":"cebpf4jnsgd1na2vs0mg"},{"bike_id":"73964e96-b062-49d4-93a6-803ee072593e","system_id":"levelo_inurba_marseille","lat":43.27379,"lon":5.36238,"is_reserved":false,"is_disabled":true,"rental_uris":{"android":"levelo://app?vid=73964e96-b062-49d4-93a6-803ee072593e","ios":"levelo://app?vid=73964e96-b062-49d4-93a6-803ee072593e"},"vehicle_type_id":"4","last_reported":1735402191,"current_range_meters":38800,"station_id":"ce4bhbh2rcd13ifvqeo0","pricing_plan_id":"cebpf4jnsgd1na2vs0mg"},{"bike_id":"e64f849a-5704-4c86-b1ad-df3e107ec9a1","system_id":"levelo_inurba_marseille","lat":43.308,"lon":5.38139,"is_reserved":false,"is_disabled":false,"rental_uris":{"android":"levelo://app?vid=e64f849a-5704-4c86-b1ad-df3e107ec9a1","ios":"levelo://app?vid=e64f849a-5704-4c86-b1ad-df3e107ec9a1"},"vehicle_type_id":"4","last_reported":1735402191,"current_range_meters":37600,"station_id":"ce4bgt12rcd13ifvqce0","pricing_plan_id":"cebpf4jnsgd1na2vs0mg"},{"bike_id":"60270bd8-12da-4a87-b301-9ecae9e8fe1a","system_id":"levelo_inurba_marseille","lat":43.30969,"lon":5.39047,"is_reserved":false,"is_disabled":false,"rental_uris":{"android":"levelo://app?vid=60270bd8-12da-4a87-b301-9ecae9e8fe1a","ios":"levelo://app?vid=60270bd8-12da-4a87-b301-9ecae9e8fe1a"},"vehicle_type_id":"4","last_reported":1735402191,"current_range_meters":7200,"station_id":"ce4bgup2rcd13ifvqco0","pricing_plan_id":"cebpf4jnsgd1na2vs0mg"},{"bike_id":"5b552d45-d568-49fa-b815-71bddf6564e8","system_id":"levelo_inurba_marseille","lat":43.29275,"lon":5.36846,"is_reserved":false,"is_disabled":false,"rental_uris":{"android":"levelo://app?vid=5b552d45-d568-49fa-b815-71bddf6564e8","ios":"levelo://app?vid=5b552d45-d568-49fa-b815-71bddf6564e8"},"vehicle_type_id":"4","last_reported":1735402191,"current_range_meters":38800,"station_id":"ce4bhbp2rcd13ifvqesg","pricing_plan_id":"cebpf4jnsgd1na2vs0mg"},{"bike_id":"976abf1b-2fd1-4294-ac06-3c1193b2d559","system_id":"levelo_inurba_marseille","lat":43.23196,"lon":5.35551,"is_reserved":false,"is_disabled":false,"rental_uris":{"android":"levelo://app?vid=976abf1b-2fd1-4294-ac06-3c1193b2d559","ios":"levelo://app?vid=976abf1b-2fd1-4294-ac06-3c1193b2d559"},"vehicle_type_id":"4","last_reported":1735402191,"current_range_meters":38800,"station_id":"ce4bhu92rcd13ifvqi70","pricing_plan_id":"cebpf4jnsgd1na2vs0mg"},{"bike_id":"1e61b1a5-6167-4717-937d-b34aba24b8ce","system_id":"levelo_inurba_marseille","lat":43.27997,"lon":5.40018,"is_reserved":false,"is_disabled":false,"rental_uris":{"android":"levelo://app?vid=1e61b1a5-6167-4717-937d-b34aba24b8ce","ios":"levelo://app?vid=1e61b1a5-6167-4717-937d-b34aba24b8ce"},"vehicle_type_id":"4","last_reported":1735402191,"current_range_meters":33600,"station_id":"ce4bho92rcd13ifvqh4g","pricing_plan_id":"cebpf4jnsgd1na2vs0mg"},{"bike_id":"8ec57111-3db1-4985-bfe3-3195e7c3ec09","system_id":"levelo_inurba_marseille","lat":43.31888,"lon":5.40739,"is_reserved":false,"is_disabled":false,"rental_uris":{"android":"levelo://app?vid=8ec57111-3db1-4985-bfe3-3195e7c3ec09","ios":"levelo://app?vid=8ec57111-3db1-4985-bfe3-3195e7c3ec09"},"vehicle_type_id":"4","last_reported":1735402191,"current_range_meters":36400,"station_id":"ce4bhq12rcd13ifvqhig","pricing_plan_id":"cebpf4jnsgd1na2vs0mg"},