{"last_updated":1774447848,"ttl":60,"version":"2.2","data":{"bikes":[{"bike_id":"0e2f4137-e82a-401c-945f-6a1c7c098239","system_id":"levelo_inurba_marseille","lat":43.29618,"lon":5.37142,"is_reserved":false,"is_disabled":true,"rental_uris":{"android":"levelo://app?vid=0e2f4137-e82a-401c-945f-6a1c7c098239","ios":"levelo://app?vid=0e2f4137-e82a-401c-945f-6a1c7c098239"},"vehicle_type_id":"4","last_reported":1774447849,"current_range_meters":2800,"station_id":"ce4bgnh2rcd13ifvqc0g","pricing_plan_id":"cebpf4jnsgd1na2vs0mg"},{"bike_id":"f910acab-e234-4475-91c9-ec3fea6d1bf3","system_id":"levelo_inurba_marseille","lat":43.2994,"lon":5.43674,"is_reserved":false,"is_disabled":false,"rental_uris":{"android":"levelo://app?vid=f910acab-e234-4475-91c9-ec3fea6d1bf3","ios":"levelo://app?vid=f910acab-e234-4475-91c9-ec3fea6d1bf3"},"vehicle_type_id":"4","last_reported":1774447849,"current_range_meters":2800,"station_id":"ce4bhpp2rcd13ifvqhfg","pricing_plan_id":"cebpf4jnsgd1na2vs0mg"},{"bike_id":"8e331d09-f777-47e4-a327-164db2e188a9","system_id":"levelo_inurba_marseille","lat":43.26565,"lon":5.40322,"is_reserved":false,"is_disabled":true,"rental_uris":{"android":"levelo://app?vid=8e331d09-f777-47e4-a327-164db2e188a9","ios":"levelo://app?vid=8e331d09-f777-47e4-a327-164db2e188a9"},"vehicle_type_id":"4","last_reported":1774447849,"current_range_meters":2800,"station_id":"ce4bhmp2rcd13ifvqgng","pricing_plan_id":"cebpf4jnsgd1na2vs0mg"},{"bike_id":"5a13ff06-47c5-48f2-99ab-b375156754c4","system_id":"levelo_inurba_marseille","lat":43.31526,"lon":5.37309,"is_reserved":false,"is_disabled":false,"rental_uris":{"android":"levelo://app?vid=5a13ff06-47c5-48f2-99ab-b375156754c4","ios":"levelo://app?vid=5a13ff06-47c5-48f2-99ab-b375156754c4"},"vehicle_type_id":"4","last_reported":1774447849,"current_range_meters":2800,"station_id":"ce4bgt12rcd13ifvqcd0","pricing_plan_id":"cebpf4jnsgd1na2vs0mg"},{"bike_id":"1a8af75b-8ae8-4c53-8767-ea71c476ad8c","system_id":"levelo_inurba_marseille","lat":43.26227,"lon":5.40448,"is_reserved":false,"is_disabled":false,"rental_uris":{"android":"levelo://app?vid=1a8af75b-8ae8-4c53-8767-ea71c476ad8c","ios":"levelo://app?vid=1a8af75b-8ae8-4c53-8767-ea71c476ad8c"},"vehicle_type_id":"4","last_reported":1774447849,"current_range_meters":2800,"station_id":"ce4bhmh2rcd13ifvqgmg","pricing_plan_id":"cebpf4jnsgd1na2vs0mg"},{"bike_id":"f35a9644-f102-427c-8b00-579a35988db3","system_id":"levelo_inurba_marseille","lat":43.21198,"lon":5.35079,"is_reserved":false,"is_disabled":false,"rental_uris":{"android":"levelo://app?vid=f35a9644-f102-427c-8b00-579a35988db3","ios":"levelo://app?vid=f35a9644-f102-427c-8b00-579a35988db3"},"vehicle_type_id":"4","last_reported":1774447849,"current_range_meters":2800,"station_id":"st_cvj6sg6p6f1abm77japg","pricing_plan_id":"cebpf4jnsgd1na2vs0mg"},{"bike_id":"24cfaff9-4742-4315-a3e6-7951458530cc","system_id":"levelo_inurba_marseille","lat":43.30098,"lon":5.39073,"is_reserved":false,"is_disabled":false,"rental_uris":{"android":"levelo://app?vid=24cfaff9-4742-4315-a3e6-7951458530cc","ios":"levelo://app?vid=24cfaff9-4742-4315-a3e6-7951458530cc"},"vehicle_type_id":"4","last_reported":1774447849,"current_range_meters":2800,"station_id":"ce4bh192rcd13ifvqdb0","pricing_plan_id":"cebpf4jnsgd1na2vs0mg"},{"bike_id":"72df705c-a70e-404f-b93d-6222d7154a4c","system_id":"levelo_inurba_marseille","lat":43.25583,"lon":5.38226,"is_reserved":false,"is_disabled":false,"rental_uris":{"android":"levelo://app?vid=72df705c-a70e-404f-b93d-6222d7154a4c","ios":"levelo://app?vid=72df705c-a70e-404f-b93d-6222d7154a4c"},"vehicle_type_id":"4","last_reported":1774447849,"current_range_meters":2800,"station_id":"ce4bhih2rcd13ifvqfs0","pricing_plan_id":"cebpf4jnsgd1na2vs0mg"},{"bike_id":"2e200cc5-6af9-4bd1-8120-892c64515206","system_id":"levelo_inurba_marseille","lat":43.28939,"lon":5.39621,"is_reserved":false,"is_disabled":false,"rental_uris":{"android":"levelo://app?vid=2e200cc5-6af9-4bd1-8120-892c64515206","ios":"levelo://app?vid=2e200cc5-6af9-4bd1-8120-892c64515206"},"vehicle_type_id":"4","last_reported":1774447849,"current_range_meters":2800,"station_id":"ce4bh3h2rcd13ifvqdn0","pricing_plan_id":"cebpf4jnsgd1na2vs0mg"},{"bike_id":"b1ceaa1d-f7d5-4f1b-b74b-3e9a13f9efeb","system_id":"levelo_inurba_marseille","lat":43.23964,"lon":5.36615,"is_reserved":false,"is_disabled":false,"rental_uris":{"android":"levelo://app?vid=b1ceaa1d-f7d5-4f1b-b74b-3e9a13f9efeb","ios":"levelo://app?vid=b1ceaa1d-f7d5-4f1b-b74b-3e9a13f9efeb"},"vehicle_type_id":"4","last_reported":1774447849,"current_range_meters":2800,"station_id":"ce4bhi12rcd13ifvqfp0","pricing_plan_id":"cebpf4jnsgd1na2vs0mg"},{"bike_id":"56e5c6a0-303f-4a08-bfe7-6b97afc28d6d","system_id":"levelo_inurba_marseille","lat":43.28423,"lon":5.34987,"is_reserved":false,"is_disabled":false,"rental_uris":{"android":"levelo://app?vid=56e5c6a0-303f-4a08-bfe7-6b97afc28d6d","ios":"levelo://app?vid=56e5c6a0-303f-4a08-bfe7-6b97afc28d6d"},"vehicle_type_id":"4","last_reported":1774447849,"current_range_meters":3200,"station_id":"ce4bhbh2rcd13ifvqepg","pricing_plan_id":"cebpf4jnsgd1na2vs0mg"},{"bike_id":"066cfe81-714d-4a28-ba8d-e13baf5bbb1b","system_id":"levelo_inurba_marseille","lat":43.27266,"lon":5.41147,"is_reserved":false,"is_disabled":false,"rental_uris":{"android":"levelo://app?vid=066cfe81-714d-4a28-ba8d-e13baf5bbb1b","ios":"levelo://app?vid=066cfe81-714d-4a28-ba8d-e13baf5bbb1b"},"vehicle_type_id":"4","last_reported":1774447849,"current_range_meters":3200,"station_id":"","pricing_plan_id":"cebpf4jnsgd1na2vs0mg"},{"bike_id":"d23d3cfb-104c-45fb-a823-7e84977a715b","system_id":"levelo_inurba_marseille","lat":43.21184,"lon":5.35074,"is_reserved":false,"is_disabled":false,"rental_uris":{"android":"levelo://app?vid=d23d3cfb-104c-45fb-a823-7e84977a715b","ios":"levelo://app?vid=d23d3cfb-104c-45fb-a823-7e84977a715b"},"vehicle_type_id":"4","last_reported":1774447849,"current_range_meters":3200,"station_id":"st_cvj6sg6p6f1abm77japg","pricing_plan_id":"cebpf4jnsgd1na2vs0mg"},{"bike_id":"40c920b0-3115-4e08-b984-151d6f1c7702","system_id":"levelo_inurba_marseille","lat":43.24151,"lon":5.39714,"is_reserved":false,"is_disabled":false,"rental_uris":{"android":"levelo://app?vid=40c920b0-3115-4e08-b984-151d6f1c7702","ios":"levelo://app?vid=40c920b0-3115-4e08-b984-151d6f1c7702"},"vehicle_type_id":"4","last_reported":1774447849,"current_range_meters":3200,"station_id":"ce4bhn12rcd13ifvqgpg","pricing_plan_id":"cebpf4jnsgd1na2vs0mg"},{"bike_id":"590046eb-f831-4358-a18d-8ec9658e1b53","system_id":"levelo_inurba_marseille","lat":43.246586,"lon":5.381595,"is_reserved":false,"is_disabled":false,"rental_uris":{"android":"levelo://app?vid=590046eb-f831-4358-a18d-8ec9658e1b53","ios":"levelo://app?vid=590046eb-f831-4358-a18d-8ec9658e1b53"},"vehicle_type_id":"4","last_reported":1774447849,"current_range_meters":3200,"station_id":"ce4bhih2rcd13ifvqfr0","pricing_plan_id":"cebpf4jnsgd1na2vs0mg"},{"bike_id":"825450ee-7d64-45c2-99cd-2c562a1ac22c","system_id":"levelo_inurba_marseille","lat":43.29604,"lon":5.38111,"is_reserved":false,"is_disabled":true,"rental_uris":{"android":"levelo://app?vid=825450ee-7d64-45c2-99cd-2c562a1ac22c","ios":"levelo://app?vid=825450ee-7d64-45c2-99cd-2c562a1ac22c"},"vehicle_type_id":"4","last_reported":1774447849,"current_range_meters":3600,"station_id":"ce4bgl12rcd13ifvqbo0","pricing_plan_id":"cebpf4jnsgd1na2vs0mg"},{"bike_id":"b445bd2a-c2a1-4809-8216-f5a22f567d55","system_id":"levelo_inurba_marseille","lat":43.25101,"lon":5.40326,"is_reserved":false,"is_disabled":false,"rental_uris":{"android":"levelo://app?vid=b445bd2a-c2a1-4809-8216-f5a22f567d55","ios":"levelo://app?vid=b445bd2a-c2a1-4809-8216-f5a22f567d55"},"vehicle_type_id":"4","last_reported":1774447849,"current_range_meters":3600,"station_id":"ce4bhlh2rcd13ifvqgig","pricing_plan_id":"cebpf4jnsgd1na2vs0mg"},{"bike_id":"fb4ec991-9d76-4e41-ad50-4c06fec4a6b5","system_id":"levelo_inurba_marseille","lat":43.31364,"lon":5.36704,"is_reserved":false,"is_disabled":false,"rental_uris":{"android":"levelo://app?vid=fb4ec991-9d76-4e41-ad50-4c06fec4a6b5","ios":"levelo://app?vid=fb4ec991-9d76-4e41-ad50-4c06fec4a6b5"},"vehicle_type_id":"4","last_reported":1774447849,"current_range_meters":3600,"station_id":"ce4bgr92rcd13ifvqc6g","pricing_plan_id":"cebpf4jnsgd1na2vs0mg"},{"bike_id":"e51f3b8f-2277-4636-88c7-d4fed1c89dba","system_id":"levelo_inurba_marseille","lat":43.29857,"lon":5.40935,"is_reserved":false,"is_disabled":false,"rental_uris":{"android":"levelo://app?vid=e51f3b8f-2277-4636-88c7-d4fed1c89dba","ios":"levelo://app?vid=e51f3b8f-2277-4636-88c7-d4fed1c89dba"},"vehicle_type_id":"4","last_reported":1774447849,"current_range_meters":3600,"station_id":"","pricing_plan_id":"cebpf4jnsgd1na2vs0mg"},{"bike_id":"097ca7c5-a8a8-4ab5-8beb-e98c021eabd2","system_id":"levelo_inurba_marseille","lat":43.34132,"lon":5.40904,"is_reserved":false,"is_disabled":false,"rental_uris":{"android":"levelo://app?vid=097ca7c5-a8a8-4ab5-8beb-e98c021eabd2","ios":"levelo://app?vid=097ca7c5-a8a8-4ab5-8beb-e98c021eabd2"},"vehicle_type_id":"4","last_reported":1774447849,"current_range_meters":3600,"station_id":"ce4bhqh2rcd13ifvqhlg","pricing_plan_id":"cebpf4jnsgd1na2vs0mg"},{"bike_id":"a801ec74-9a55-400a-9499-21556be0a624","system_id":"levelo_inurba_marseille","lat":43.31235,"lon":5.36841,"is_reserved":false,"is_disabled":false,"rental_uris":{"android":"levelo://app?vid=a801ec74-9a55-400a-9499-21556be0a624","ios":"levelo://app?vid=a801ec74-9a55-400a-9499-21556be0a624"},"vehicle_type_id":"4","last_reported":1774447849,"current_range_meters":3600,"station_id":"ce4bgl92rcd13ifvqbq0","pricing_plan_id":"cebpf4jnsgd1na2vs0mg"},{"bike_id":"fe6e2e62-a209-4f62-bf77-551038869489","system_id":"levelo_inurba_marseille","lat":43.27668,"lon":5.38898,"is_reserved":false,"is_disabled":false,"rental_uris":{"android":"levelo://app?vid=fe6e2e62-a209-4f62-bf77-551038869489","ios":"levelo://app?vid=fe6e2e62-a209-4f62-bf77-551038869489"},"vehicle_type_id":"4","last_reported":1774447849,"current_range_meters":3600,"station_id":"ce4bhi12rcd13ifvqfo0","pricing_plan_id":"cebpf4jnsgd1na2vs0mg"},{"bike_id":"dbdf5f49-a039-4f1c-bfd0-8d46b89a0118","system_id":"levelo_inurba_marseille","lat":43.2378,"lon":5.3663,"is_reserved":false,"is_disabled":false,"rental_uris":{"android":"levelo://app?vid=dbdf5f49-a039-4f1c-bfd0-8d46b89a0118","ios":"levelo://app?vid=dbdf5f49-a039-4f1c-bfd0-8d46b89a0118"},"vehicle_type_id":"4","last_reported":1774447849,"current_range_meters":3600,"station_id":"st_d3nk18o9ro0c73en2l3g","pricing_plan_id":"cebpf4jnsgd1na2vs0mg"},{"bike_id":"6768572b-31f1-44c8-ad1e-850548cfd06e","system_id":"levelo_inurba_marseille","lat":43.308892,"lon":5.39652,"is_reserved":false,"is_disabled":true,"rental_uris":{"android":"levelo://app?vid=6768572b-31f1-44c8-ad1e-850548cfd06e","ios":"levelo://app?vid=6768572b-31f1-44c8-ad1e-850548cfd06e"},"vehicle_type_id":"4","last_reported":1774447849,"current_range_meters":3600,"station_id":"","pricing_plan_id":"cebpf4jnsgd1na2vs0mg"},{"bike_id":"a4236124-71e4-451d-8a7f-2b82b66bd8a1","system_id":"levelo_inurba_marseille","lat":43.29194,"lon":5.39307,"is_reserved":false,"is_disabled":false,"rental_uris":{"android":"levelo://app?vid=a4236124-71e4-451d-8a7f-2b82b66bd8a1","ios":"levelo://app?vid=a4236124-71e4-451d-8a7f-2b82b66bd8a1"},"vehicle_type_id":"4","last_reported":1774447849,"current_range_meters":3600,"station_id":"ce4bh192rcd13ifvqdd0","pricing_plan_id":"cebpf4jnsgd1na2vs0mg"},{"bike_id":"0c905920-39a3-4df9-a2cd-efad93fa0b7e","system_id":"levelo_inurba_marseille","lat":43.28704,"lon":5.46688,"is_reserved":false,"is_disabled":false,"rental_uris":{"android":"levelo://app?vid=0c905920-39a3-4df9-a2cd-efad93fa0b7e","ios":"levelo://app?vid=0c905920-39a3-4df9-a2cd-efad93fa0b7e"},"vehicle_type_id":"4","last_reported":1774447849,"current_range_meters":3600,"station_id":"st_d6tc3vkotcvc738tfjhg","pricing_plan_id":"cebpf4jnsgd1na2vs0mg"},{"bike_id":"f2522a16-8fa2-4104-b60c-00156d54dbd6","system_id":"levelo_inurba_marseille","lat":43.23799,"lon":5.36616,"is_reserved":false,"is_disabled":false,"rental_uris":{"android":"levelo://app?vid=f2522a16-8fa2-4104-b60c-00156d54dbd6","ios":"levelo://app?vid=f2522a16-8fa2-4104-b60c-00156d54dbd6"},"vehicle_type_id":"4","last_reported":1774447849,"current_range_meters":4000,"station_id":"st_d3nk18o9ro0c73en2l3g","pricing_plan_id":"cebpf4jnsgd1na2vs0mg"},{"bike_id":"f7e664bc-8cfe-465d-9dbe-128ca982aa9c","system_id":"levelo_inurba_marseille","lat":43.24994,"lon":5.38949,"is_reserved":false,"is_disabled":false,"rental_uris":{"android":"levelo://app?vid=f7e664bc-8cfe-465d-9dbe-128ca982aa9c","ios":"levelo://app?vid=f7e664bc-8cfe-465d-9dbe-128ca982aa9c"},"vehicle_type_id":"4","last_reported":1774447849,"current_range_meters":4000,"station_id":"ce4bhgp2rcd13ifvqfd0","pricing_plan_id":"cebpf4jnsgd1na2vs0mg"},{"bike_id":"83732a6c-ebed-473c-9b13-eb7d63194259","system_id":"levelo_inurba_marseille","lat":43.2119,"lon":5.3506,"is_reserved":false,"is_disabled":false,"rental_uris":{"android":"levelo://app?vid=83732a6c-ebed-473c-9b13-eb7d63194259","ios":"levelo://app?vid=83732a6c-ebed-473c-9b13-eb7d63194259"},"vehicle_type_id":"4","last_reported":1774447849,"current_range_meters":4000,"station_id":"st_cvj6sg6p6f1abm77japg","pricing_plan_id":"cebpf4jnsgd1na2vs0mg"},{"bike_id":"a700f075-f197-457a-8b10-044d47960975","system_id":"levelo_inurba_marseille","lat":43.24656,"lon":5.38158,"is_reserved":false,"is_disabled":false,"rental_uris":{"android":"levelo://app?vid=a700f075-f197-457a-8b10-044d47960975","ios":"levelo://app?vid=a700f075-f197-457a-8b10-044d47960975"},"vehicle_type_id":"4","last_reported":1774447849,"current_range_meters":4000,"station_id":"ce4bhih2rcd13ifvqfr0","pricing_plan_id":"cebpf4jnsgd1na2vs0mg"},{"bike_id":"a21ce08b-748e-41eb-aca5-e1a217e075d0","system_id":"levelo_inurba_marseille","lat":43.23132,"lon":5.43706,"is_reserved":false,"is_disabled":false,"rental_uris":{"android":"levelo://app?vid=a21ce08b-748e-41eb-aca5-e1a217e075d0","ios":"levelo://app?vid=a21ce08b-748e-41eb-aca5-e1a217e075d0"},"vehicle_type_id":"4","last_reported":1774447849,"current_range_meters":4000,"station_id":"ce4bhmp2rcd13ifvqgog","pricing_plan_id":"cebpf4jnsgd1na2vs0mg"},{"bike_id":"5436ae21-40b7-42d7-b176-db2ddf8cc4ab","system_id":"levelo_inurba_marseille","lat":43.23154,"lon":5.43709,"is_reserved":false,"is_disabled":false,"rental_uris":{"android":"levelo://app?vid=5436ae21-40b7-42d7-b176-db2ddf8cc4ab","ios":"levelo://app?vid=5436ae21-40b7-42d7-b176-db2ddf8cc4ab"},"vehicle_type_id":"4","last_reported":1774447849,"current_range_meters":4000,"station_id":"ce4bhmp2rcd13ifvqgog","pricing_plan_id":"cebpf4jnsgd1na2vs0mg"},{"bike_id":"b5b7d44f-1f81-483b-9db2-a49ebf17a02c","system_id":"levelo_inurba_marseille","lat":43.2862,"lon":5.3511,"is_reserved":false,"is_disabled":false,"rental_uris":{"android":"levelo://app?vid=b5b7d44f-1f81-483b-9db2-a49ebf17a02c","ios":"levelo://app?vid=b5b7d44f-1f81-483b-9db2-a49ebf17a02c"},"vehicle_type_id":"4","last_reported":1774447849,"current_range_meters":4000,"station_id":"ce4bhch2rcd13ifvqeug","pricing_plan_id":"cebpf4jnsgd1na2vs0mg"},{"bike_id":"e94d83da-a52c-4009-83db-8b37093608a6","system_id":"levelo_inurba_marseille","lat":43.22532,"lon":5.41675,"is_reserved":false,"is_disabled":false,"rental_uris":{"android":"levelo://app?vid=e94d83da-a52c-4009-83db-8b37093608a6","ios":"levelo://app?vid=e94d83da-a52c-4009-83db-8b37093608a6"},"vehicle_type_id":"4","last_reported":1774447849,"current_range_meters":4000,"station_id":"","pricing_plan_id":"cebpf4jnsgd1na2vs0mg"},{"bike_id":"70214f46-b448-478a-8e3a-0a5578a95784","system_id":"levelo_inurba_marseille","lat":43.31624,"lon":5.39355,"is_reserved":false,"is_disabled":false,"rental_uris":{"android":"levelo://app?vid=70214f46-b448-478a-8e3a-0a5578a95784","ios":"levelo://app?vid=70214f46-b448-478a-8e3a-0a5578a95784"},"vehicle_type_id":"4","last_reported":1774447849,"current_range_meters":4000,"station_id":"","pricing_plan_id":"cebpf4jnsgd1na2vs0mg"},{"bike_id":"ba1e580e-2080-4d73-a63b-c42fbb3f0b26","system_id":"levelo_inurba_marseille","lat":43.23172,"lon":5.43671,"is_reserved":false,"is_disabled":false,"rental_uris":{"android":"levelo://app?vid=ba1e580e-2080-4d73-a63b-c42fbb3f0b26","ios":"levelo://app?vid=ba1e580e-2080-4d73-a63b-c42fbb3f0b26"},"vehicle_type_id":"4","last_reported":1774447849,"current_range_meters":4000,"station_id":"ce4bhmp2rcd13ifvqgog","pricing_plan_id":"cebpf4jnsgd1na2vs0mg"},{"bike_id":"78d492c7-0332-4158-9cc8-b7569746a322","system_id":"levelo_inurba_marseille","lat":43.27581,"lon":5.38452,"is_reserved":false,"is_disabled":false,"rental_uris":{"android":"levelo://app?vid=78d492c7-0332-4158-9cc8-b7569746a322","ios":"levelo://app?vid=78d492c7-0332-4158-9cc8-b7569746a322"},"vehicle_type_id":"4","last_reported":1774447849,"current_range_meters":4000,"station_id":"ce4bhh92rcd13ifvqfi0","pricing_plan_id":"cebpf4jnsgd1na2vs0mg"},{"bike_id":"69c7dedb-e831-42c1-9502-923d17edb3d6","system_id":"levelo_inurba_marseille","lat":43.31046,"lon":5.37173,"is_reserved":false,"is_disabled":false,"rental_uris":{"android":"levelo://app?vid=69c7dedb-e831-42c1-9502-923d17edb3d6","ios":"levelo://app?vid=69c7dedb-e831-42c1-9502-923d17edb3d6"},"vehicle_type_id":"4","last_reported":1774447849,"current_range_meters":4400,"station_id":"st_d4kl2rp97mjs73e7tdfg","pricing_plan_id":"cebpf4jnsgd1na2vs0mg"},{"bike_id":"445a363e-6635-4c6f-9d9b-6ed1d223c4e8","system_id":"levelo_inurba_marseille","lat":43.29555,"lon":5.43885,"is_reserved":false,"is_disabled":false,"rental_uris":{"android":"levelo://app?vid=445a363e-6635-4c6f-9d9b-6ed1d223c4e8","ios":"levelo://app?vid=445a363e-6635-4c6f-9d9b-6ed1d223c4e8"},"vehicle_type_id":"4","last_reported":1774447849,"current_range_meters":4400,"station_id":"","pricing_plan_id":"cebpf4jnsgd1na2vs0mg"},{"bike_id":"c0b689e5-350b-4835-a209-95a8604ec264","system_id":"levelo_inurba_marseille","lat":43.27384,"lon":5.39397,"is_reserved":false,"is_disabled":true,"rental_uris":{"android":"levelo://app?vid=c0b689e5-350b-4835-a209-95a8604ec264","ios":"levelo://app?vid=c0b689e5-350b-4835-a209-95a8604ec264"},"vehicle_type_id":"4","last_reported":1774447849,"current_range_meters":4400,"station_id":"ce4bhdp2rcd13ifvqf20","pricing_plan_id":"cebpf4jnsgd1na2vs0mg"},{"bike_id":"2b7cc348-511e-4302-a44b-2f42cea45db8","system_id":"levelo_inurba_marseille","lat":43.2315,"lon":5.43703,"is_reserved":false,"is_disabled":false,"rental_uris":{"android":"levelo://app?vid=2b7cc348-511e-4302-a44b-2f42cea45db8","ios":"levelo://app?vid=2b7cc348-511e-4302-a44b-2f42cea45db8"},"vehicle_type_id":"4","last_reported":1774447849,"current_range_meters":4400,"station_id":"ce4bhmp2rcd13ifvqgog","pricing_plan_id":"cebpf4jnsgd1na2vs0mg"},{"bike_id":"13246d42-dfa9-4ae8-a810-27d7f22f60a2","system_id":"levelo_inurba_marseille","lat":43.26572,"lon":5.40298,"is_reserved":false,"is_disabled":false,"rental_uris":{"android":"levelo://app?vid=13246d42-dfa9-4ae8-a810-27d7f22f60a2","ios":"levelo://app?vid=13246d42-dfa9-4ae8-a810-27d7f22f60a2"},"vehicle_type_id":"4","last_reported":1774447849,"current_range_meters":4400,"station_id":"ce4bhmp2rcd13ifvqgng","pricing_plan_id":"cebpf4jnsgd1na2vs0mg"},{"bike_id":"1ad28428-ded2-418c-94b4-9221ffe973b0","system_id":"levelo_inurba_marseille","lat":43.29346,"lon":5.41185,"is_reserved":false,"is_disabled":false,"rental_uris":{"android":"levelo://app?vid=1ad28428-ded2-418c-94b4-9221ffe973b0","ios":"levelo://app?vid=1ad28428-ded2-418c-94b4-9221ffe973b0"},"vehicle_type_id":"4","last_reported":1774447849,"current_range_meters":4400,"station_id":"","pricing_plan_id":"cebpf4jnsgd1na2vs0mg"},{"bike_id":"182ad1c0-e0bb-4ac6-a078-c60cc6263c0d","system_id":"levelo_inurba_marseille","lat":43.30206,"lon":5.39474,"is_reserved":false,"is_disabled":false,"rental_uris":{"android":"levelo://app?vid=182ad1c0-e0bb-4ac6-a078-c60cc6263c0d","ios":"levelo://app?vid=182ad1c0-e0bb-4ac6-a078-c60cc6263c0d"},"vehicle_type_id":"4","last_reported":1774447849,"current_range_meters":4400,"station_id":"ce4bh0p2rcd13ifvqd70","pricing_plan_id":"cebpf4jnsgd1na2vs0mg"},{"bike_id":"31d0e8d1-41ca-49bc-b101-6f54248861c2","system_id":"levelo_inurba_marseille","lat":43.21201,"lon":5.35067,"is_reserved":false,"is_disabled":false,"rental_uris":{"android":"levelo://app?vid=31d0e8d1-41ca-49bc-b101-6f54248861c2","ios":"levelo://app?vid=31d0e8d1-41ca-49bc-b101-6f54248861c2"},"vehicle_type_id":"4","last_reported":1774447849,"current_range_meters":4400,"station_id":"st_cvj6sg6p6f1abm77japg","pricing_plan_id":"cebpf4jnsgd1na2vs0mg"},{"bike_id":"6711ca2b-9a4e-46b1-892e-1007cc2a656e","system_id":"levelo_inurba_marseille","lat":43.28542,"lon":5.44121,"is_reserved":false,"is_disabled":false,"rental_uris":{"android":"levelo://app?vid=6711ca2b-9a4e-46b1-892e-1007cc2a656e","ios":"levelo://app?vid=6711ca2b-9a4e-46b1-892e-1007cc2a656e"},"vehicle_type_id":"4","last_reported":1774447849,"current_range_meters":4400,"station_id":"st_d3j3df2ikq2c7380ej80","pricing_plan_id":"cebpf4jnsgd1na2vs0mg"},{"bike_id":"5f75fc59-ca0f-4412-acdb-852e0b310194","system_id":"levelo_inurba_marseille","lat":43.23141,"lon":5.43724,"is_reserved":false,"is_disabled":false,"rental_uris":{"android":"levelo://app?vid=5f75fc59-ca0f-4412-acdb-852e0b310194","ios":"levelo://app?vid=5f75fc59-ca0f-4412-acdb-852e0b310194"},"vehicle_type_id":"4","last_reported":1774447849,"current_range_meters":4400,"station_id":"ce4bhmp2rcd13ifvqgog","pricing_plan_id":"cebpf4jnsgd1na2vs0mg"},{"bike_id":"cbe143e8-3e8d-46c8-8239-3389a4661d28","system_id":"levelo_inurba_marseille","lat":43.30311,"lon":5.36929,"is_reserved":false,"is_disabled":false,"rental_uris":{"android":"levelo://app?vid=cbe143e8-3e8d-46c8-8239-3389a4661d28","ios":"levelo://app?vid=cbe143e8-3e8d-46c8-8239-3389a4661d28"},"vehicle_type_id":"4","last_reported":1774447849,"current_range_meters":4400,"station_id":"ce4bgqh2rcd13ifvqc5g","pricing_plan_id":"cebpf4jnsgd1na2vs0mg"},{"bike_id":"1bfe3958-2503-48b6-bc3f-6b6785e2e225","system_id":"levelo_inurba_marseille","lat":43.296454,"lon":5.375145,"is_reserved":false,"is_disabled":true,"rental_uris":{"android":"levelo://app?vid=1bfe3958-2503-48b6-bc3f-6b6785e2e225","ios":"levelo://app?vid=1bfe3958-2503-48b6-bc3f-6b6785e2e225"},"vehicle_type_id":"4","last_reported":1774447849,"current_range_meters":4400,"station_id":"ce4bhap2rcd13ifvqek0","pricing_plan_id":"cebpf4jnsgd1na2vs0mg"},{"bike_id":"13639e07-2b1d-4da9-8f46-07bec979ccd4","system_id":"levelo_inurba_marseille","lat":43.25337,"lon":5.4217,"is_reserved":false,"is_disabled":false,"rental_uris":{"android":"levelo://app?vid=13639e07-2b1d-4da9-8f46-07bec979ccd4","ios":"levelo://app?vid=13639e07-2b1d-4da9-8f46-07bec979ccd4"},"vehicle_type_id":"4","last_reported":1774447849,"current_range_meters":4400,"station_id":"st_d2m65c5bi1j21697t3ng","pricing_plan_id":"cebpf4jnsgd1na2vs0mg"},{"bike_id":"45ab52a8-b5ab-4bf8-9a53-ef8397967b81","system_id":"levelo_inurba_marseille","lat":43.28229,"lon":5.38274,"is_reserved":false,"is_disabled":false,"rental_uris":{"android":"levelo://app?vid=45ab52a8-b5ab-4bf8-9a53-ef8397967b81","ios":"levelo://app?vid=45ab52a8-b5ab-4bf8-9a53-ef8397967b81"},"vehicle_type_id":"4","last_reported":1774447849,"current_range_meters":4800,"station_id":"","pricing_plan_id":"cebpf4jnsgd1na2vs0mg"},{"bike_id":"18d24ddc-4495-4198-b605-5da8a3cce99c","system_id":"levelo_inurba_marseille","lat":43.297756,"lon":5.371517,"is_reserved":false,"is_disabled":false,"rental_uris":{"android":"levelo://app?vid=18d24ddc-4495-4198-b605-5da8a3cce99c","ios":"levelo://app?vid=18d24ddc-4495-4198-b605-5da8a3cce99c"},"vehicle_type_id":"4","last_reported":1774447849,"current_range_meters":4800,"station_id":"ce4bgnh2rcd13ifvqc0g","pricing_plan_id":"cebpf4jnsgd1na2vs0mg"},{"bike_id":"3d0236ca-aef4-4966-9dcb-08a2cba2f7d7","system_id":"levelo_inurba_marseille","lat":43.28423,"lon":5.34979,"is_reserved":false,"is_disabled":false,"rental_uris":{"android":"levelo://app?vid=3d0236ca-aef4-4966-9dcb-08a2cba2f7d7","ios":"levelo://app?vid=3d0236ca-aef4-4966-9dcb-08a2cba2f7d7"},"vehicle_type_id":"4","last_reported":1774447849,"current_range_meters":4800,"station_id":"ce4bhbh2rcd13ifvqepg","pricing_plan_id":"cebpf4jnsgd1na2vs0mg"},{"bike_id":"34d17ae1-9016-4873-89d8-39e8193d5893","system_id":"levelo_inurba_marseille","lat":43.2844,"lon":5.39199,"is_reserved":false,"is_disabled":true,"rental_uris":{"android":"levelo://app?vid=34d17ae1-9016-4873-89d8-39e8193d5893","ios":"levelo://app?vid=34d17ae1-9016-4873-89d8-39e8193d5893"},"vehicle_type_id":"4","last_reported":1774447849,"current_range_meters":4800,"station_id":"ce4bhoh2rcd13ifvqh5g","pricing_plan_id":"cebpf4jnsgd1na2vs0mg"},{"bike_id":"8ba21890-7d18-4d86-9267-31e7661dcb9b","system_id":"levelo_inurba_marseille","lat":43.27086,"lon":5.42259,"is_reserved":false,"is_disabled":false,"rental_uris":{"android":"levelo://app?vid=8ba21890-7d18-4d86-9267-31e7661dcb9b","ios":"levelo://app?vid=8ba21890-7d18-4d86-9267-31e7661dcb9b"},"vehicle_type_id":"4","last_reported":1774447849,"current_range_meters":4800,"station_id":"ce4bhk92rcd13ifvqgb0","pricing_plan_id":"cebpf4jnsgd1na2vs0mg"},{"bike_id":"624f0d04-8cf5-45c3-b388-2281266bc1ca","system_id":"levelo_inurba_marseille","lat":43.29038,"lon":5.39962,"is_reserved":false,"is_disabled":false,"rental_uris":{"android":"levelo://app?vid=624f0d04-8cf5-45c3-b388-2281266bc1ca","ios":"levelo://app?vid=624f0d04-8cf5-45c3-b388-2281266bc1ca"},"vehicle_type_id":"4","last_reported":1774447849,"current_range_meters":4800,"station_id":"ce4bh392rcd13ifvqdm0","pricing_plan_id":"cebpf4jnsgd1na2vs0mg"},{"bike_id":"d6cedfd7-f851-4154-be58-5e7ef2f2c136","system_id":"levelo_inurba_marseille","lat":43.24941,"lon":5.40499,"is_reserved":false,"is_disabled":false,"rental_uris":{"android":"levelo://app?vid=d6cedfd7-f851-4154-be58-5e7ef2f2c136","ios":"levelo://app?vid=d6cedfd7-f851-4154-be58-5e7ef2f2c136"},"vehicle_type_id":"4","last_reported":1774447849,"current_range_meters":4800,"station_id":"st_d2ngiaodas8pm72gd1h0","pricing_plan_id":"cebpf4jnsgd1na2vs0mg"},{"bike_id":"2009f7f8-e4c9-41a2-baf5-41e99c1461be","system_id":"levelo_inurba_marseille","lat":43.27347,"lon":5.36261,"is_reserved":false,"is_disabled":false,"rental_uris":{"android":"levelo://app?vid=2009f7f8-e4c9-41a2-baf5-41e99c1461be","ios":"levelo://app?vid=2009f7f8-e4c9-41a2-baf5-41e99c1461be"},"vehicle_type_id":"4","last_reported":1774447849,"current_range_meters":4800,"station_id":"ce4bhbh2rcd13ifvqeo0","pricing_plan_id":"cebpf4jnsgd1na2vs0mg"},{"bike_id":"ffe02c94-e3d4-401f-a073-33f21a5e93b1","system_id":"levelo_inurba_marseille","lat":43.245237,"lon":5.425913,"is_reserved":false,"is_disabled":false,"rental_uris":{"android":"levelo://app?vid=ffe02c94-e3d4-401f-a073-33f21a5e93b1","ios":"levelo://app?vid=ffe02c94-e3d4-401f-a073-33f21a5e93b1"},"vehicle_type_id":"4","last_reported":1774447849,"current_range_meters":4800,"station_id":"st_d4a3vfp97mjs738cd8kg","pricing_plan_id":"cebpf4jnsgd1na2vs0mg"},{"bike_id":"8f09b5be-2286-4347-96e0-afa2b3241114","system_id":"levelo_inurba_marseille","lat":43.23156,"lon":5.43701,"is_reserved":false,"is_disabled":false,"rental_uris":{"android":"levelo://app?vid=8f09b5be-2286-4347-96e0-afa2b3241114","ios":"levelo://app?vid=8f09b5be-2286-4347-96e0-afa2b3241114"},"vehicle_type_id":"4","last_reported":1774447849,"current_range_meters":5600,"station_id":"ce4bhmp2rcd13ifvqgog","pricing_plan_id":"cebpf4jnsgd1na2vs0mg"},{"bike_id":"816f9e5b-f769-4997-9738-77f30d069e7a","system_id":"levelo_inurba_marseille","lat":43.290021,"lon":5.356151,"is_reserved":false,"is_disabled":false,"rental_uris":{"android":"levelo://app?vid=816f9e5b-f769-4997-9738-77f30d069e7a","ios":"levelo://app?vid=816f9e5b-f769-4997-9738-77f30d069e7a"},"vehicle_type_id":"4","last_reported":1774447849,"current_range_meters":5600,"station_id":"ce4bhb92rcd13ifvqen0","pricing_plan_id":"cebpf4jnsgd1na2vs0mg"},{"bike_id":"22a24422-8367-44e3-afc2-fd1672c2c7f5","system_id":"levelo_inurba_marseille","lat":43.2847,"lon":5.48408,"is_reserved":false,"is_disabled":false,"rental_uris":{"android":"levelo://app?vid=22a24422-8367-44e3-afc2-fd1672c2c7f5","ios":"levelo://app?vid=22a24422-8367-44e3-afc2-fd1672c2c7f5"},"vehicle_type_id":"4","last_reported":1774447849,"current_range_meters":5600,"station_id":"","pricing_plan_id":"cebpf4jnsgd1na2vs0mg"},{"bike_id":"ec2667bb-2fd4-4e55-8285-022d6599befa","system_id":"levelo_inurba_marseille","lat":43.296119,"lon":5.377633,"is_reserved":false,"is_disabled":false,"rental_uris":{"android":"levelo://app?vid=ec2667bb-2fd4-4e55-8285-022d6599befa","ios":"levelo://app?vid=ec2667bb-2fd4-4e55-8285-022d6599befa"},"vehicle_type_id":"4","last_reported":1774447849,"current_range_meters":5600,"station_id":"ce4bgi92rcd13ifvqb90","pricing_plan_id":"cebpf4jnsgd1na2vs0mg"},{"bike_id":"8c31f052-9a00-43a1-8244-3f7ffe5b3626","system_id":"levelo_inurba_marseille","lat":43.26221,"lon":5.40452,"is_reserved":false,"is_disabled":true,"rental_uris":{"android":"levelo://app?vid=8c31f052-9a00-43a1-8244-3f7ffe5b3626","ios":"levelo://app?vid=8c31f052-9a00-43a1-8244-3f7ffe5b3626"},"vehicle_type_id":"4","last_reported":1774447849,"current_range_meters":5600,"station_id":"","pricing_plan_id":"cebpf4jnsgd1na2vs0mg"},{"bike_id":"f6ec653d-1def-460d-aa5f-a4d49fa33be5","system_id":"levelo_inurba_marseille","lat":43.29004,"lon":5.3811,"is_reserved":false,"is_disabled":false,"rental_uris":{"android":"levelo://app?vid=f6ec653d-1def-460d-aa5f-a4d49fa33be5","ios":"levelo://app?vid=f6ec653d-1def-460d-aa5f-a4d49fa33be5"},"vehicle_type_id":"4","last_reported":1774447849,"current_range_meters":5600,"station_id":"ce4bh4p2rcd13ifvqe1g","pricing_plan_id":"cebpf4jnsgd1na2vs0mg"},{"bike_id":"e54d1231-3bfe-4900-a236-5c89e4db540f","system_id":"levelo_inurba_marseille","lat":43.2842,"lon":5.34988,"is_reserved":false,"is_disabled":false,"rental_uris":{"android":"levelo://app?vid=e54d1231-3bfe-4900-a236-5c89e4db540f","ios":"levelo://app?vid=e54d1231-3bfe-4900-a236-5c89e4db540f"},"vehicle_type_id":"4","last_reported":1774447849,"current_range_meters":5600,"station_id":"ce4bhbh2rcd13ifvqepg","pricing_plan_id":"cebpf4jnsgd1na2vs0mg"},{"bike_id":"9ca4b1da-0df4-426d-b237-eed2d4351450","system_id":"levelo_inurba_marseille","lat":43.23177,"lon":5.39984,"is_reserved":false,"is_disabled":false,"rental_uris":{"android":"levelo://app?vid=9ca4b1da-0df4-426d-b237-eed2d4351450","ios":"levelo://app?vid=9ca4b1da-0df4-426d-b237-eed2d4351450"},"vehicle_type_id":"4","last_reported":1774447849,"current_range_meters":5600,"station_id":"ce4bhn12rcd13ifvqgqg","pricing_plan_id":"cebpf4jnsgd1na2vs0mg"},{"bike_id":"1a19ccf1-ef90-4fac-8cc0-a16bd40ab935","system_id":"levelo_inurba_marseille","lat":43.27613,"lon":5.36109,"is_reserved":false,"is_disabled":false,"rental_uris":{"android":"levelo://app?vid=1a19ccf1-ef90-4fac-8cc0-a16bd40ab935","ios":"levelo://app?vid=1a19ccf1-ef90-4fac-8cc0-a16bd40ab935"},"vehicle_type_id":"4","last_reported":1774447849,"current_range_meters":5600,"station_id":"ce4bgj92rcd13ifvqbe0","pricing_plan_id":"cebpf4jnsgd1na2vs0mg"},{"bike_id":"685467f8-616d-44ae-ad6c-008c7d4d3ea7","system_id":"levelo_inurba_marseille","lat":43.24954,"lon":5.40508,"is_reserved":false,"is_disabled":false,"rental_uris":{"android":"levelo://app?vid=685467f8-616d-44ae-ad6c-008c7d4d3ea7","ios":"levelo://app?vid=685467f8-616d-44ae-ad6c-008c7d4d3ea7"},"vehicle_type_id":"4","last_reported":1774447849,"current_range_meters":5600,"station_id":"st_d2ngiaodas8pm72gd1h0","pricing_plan_id":"cebpf4jnsgd1na2vs0mg"},{"bike_id":"43ae41ff-509f-477c-87aa-a6f2333b7925","system_id":"levelo_inurba_marseille","lat":43.29895,"lon":5.37441,"is_reserved":false,"is_disabled":true,"rental_uris":{"android":"levelo://app?vid=43ae41ff-509f-477c-87aa-a6f2333b7925","ios":"levelo://app?vid=43ae41ff-509f-477c-87aa-a6f2333b7925"},"vehicle_type_id":"4","last_reported":1774447849,"current_range_meters":6000,"station_id":"ce4bgjh2rcd13ifvqbg0","pricing_plan_id":"cebpf4jnsgd1na2vs0mg"},{"bike_id":"f4e12de3-12ee-449c-bb7b-82b4b799a0fa","system_id":"levelo_inurba_marseille","lat":43.246511,"lon":5.388933,"is_reserved":false,"is_disabled":true,"rental_uris":{"android":"levelo://app?vid=f4e12de3-12ee-449c-bb7b-82b4b799a0fa","ios":"levelo://app?vid=f4e12de3-12ee-449c-bb7b-82b4b799a0fa"},"vehicle_type_id":"4","last_reported":1774447849,"current_range_meters":6000,"station_id":"ce4bgg92rcd13ifvqb30","pricing_plan_id":"cebpf4jnsgd1na2vs0mg"},{"bike_id":"eb066547-bfa0-411c-a0d2-e4752b8d93d2","system_id":"levelo_inurba_marseille","lat":43.23151,"lon":5.43717,"is_reserved":false,"is_disabled":false,"rental_uris":{"android":"levelo://app?vid=eb066547-bfa0-411c-a0d2-e4752b8d93d2","ios":"levelo://app?vid=eb066547-bfa0-411c-a0d2-e4752b8d93d2"},"vehicle_type_id":"4","last_reported":1774447849,"current_range_meters":6000,"station_id":"ce4bhmp2rcd13ifvqgog","pricing_plan_id":"cebpf4jnsgd1na2vs0mg"},{"bike_id":"eb7f051c-07f1-41d2-9450-33cd5a984ca1","system_id":"levelo_inurba_marseille","lat":43.23054,"lon":5.35501,"is_reserved":false,"is_disabled":false,"rental_uris":{"android":"levelo://app?vid=eb7f051c-07f1-41d2-9450-33cd5a984ca1","ios":"levelo://app?vid=eb7f051c-07f1-41d2-9450-33cd5a984ca1"},"vehicle_type_id":"4","last_reported":1774447849,"current_range_meters":6000,"station_id":"cpo3342slgdg3j2ifvpg","pricing_plan_id":"cebpf4jnsgd1na2vs0mg"},{"bike_id":"3891e9fa-ce7d-4dd0-b7da-8c45ad7bb804","system_id":"levelo_inurba_marseille","lat":43.2718,"lon":5.40994,"is_reserved":false,"is_disabled":false,"rental_uris":{"android":"levelo://app?vid=3891e9fa-ce7d-4dd0-b7da-8c45ad7bb804","ios":"levelo://app?vid=3891e9fa-ce7d-4dd0-b7da-8c45ad7bb804"},"vehicle_type_id":"4","last_reported":1774447849,"current_range_meters":6000,"station_id":"ce4bhl12rcd13ifvqgf0","pricing_plan_id":"cebpf4jnsgd1na2vs0mg"},{"bike_id":"21a45244-c1c4-423b-9d37-4deb92a4a9b7","system_id":"levelo_inurba_marseille","lat":43.31037,"lon":5.37177,"is_reserved":false,"is_disabled":false,"rental_uris":{"android":"levelo://app?vid=21a45244-c1c4-423b-9d37-4deb92a4a9b7","ios":"levelo://app?vid=21a45244-c1c4-423b-9d37-4deb92a4a9b7"},"vehicle_type_id":"4","last_reported":1774447849,"current_range_meters":6000,"station_id":"st_d4kl2rp97mjs73e7tdfg","pricing_plan_id":"cebpf4jnsgd1na2vs0mg"},{"bike_id":"bafeac1c-7b19-449b-ad64-d43de5aa3710","system_id":"levelo_inurba_marseille","lat":43.28284,"lon":5.35072,"is_reserved":false,"is_disabled":false,"rental_uris":{"android":"levelo://app?vid=bafeac1c-7b19-449b-ad64-d43de5aa3710","ios":"levelo://app?vid=bafeac1c-7b19-449b-ad64-d43de5aa3710"},"vehicle_type_id":"4","last_reported":1774447849,"current_range_meters":6000,"station_id":"ce4bhbp2rcd13ifvqerg","pricing_plan_id":"cebpf4jnsgd1na2vs0mg"},{"bike_id":"494c1205-bc3f-4bb2-8325-0a9784b1ff3c","system_id":"levelo_inurba_marseille","lat":43.33716,"lon":5.39183,"is_reserved":false,"is_disabled":false,"rental_uris":{"android":"levelo://app?vid=494c1205-bc3f-4bb2-8325-0a9784b1ff3c","ios":"levelo://app?vid=494c1205-bc3f-4bb2-8325-0a9784b1ff3c"},"vehicle_type_id":"4","last_reported":1774447849,"current_range_meters":6000,"station_id":"ce4bhr92rcd13ifvqhsg","pricing_plan_id":"cebpf4jnsgd1na2vs0mg"},{"bike_id":"41765925-c912-4b9e-8534-d733626e14d3","system_id":"levelo_inurba_marseille","lat":43.29302,"lon":5.3804,"is_reserved":false,"is_disabled":false,"rental_uris":{"android":"levelo://app?vid=41765925-c912-4b9e-8534-d733626e14d3","ios":"levelo://app?vid=41765925-c912-4b9e-8534-d733626e14d3"},"vehicle_type_id":"4","last_reported":1774447849,"current_range_meters":6000,"station_id":"","pricing_plan_id":"cebpf4jnsgd1na2vs0mg"},{"bike_id":"715aaeb5-0d16-47e0-ba84-f56328a24f5b","system_id":"levelo_inurba_marseille","lat":43.29886,"lon":5.43674,"is_reserved":false,"is_disabled":false,"rental_uris":{"android":"levelo://app?vid=715aaeb5-0d16-47e0-ba84-f56328a24f5b","ios":"levelo://app?vid=715aaeb5-0d16-47e0-ba84-f56328a24f5b"},"vehicle_type_id":"4","last_reported":1774447849,"current_range_meters":6400,"station_id":"ce4bhpp2rcd13ifvqhfg","pricing_plan_id":"cebpf4jnsgd1na2vs0mg"},{"bike_id":"13f9f031-67ea-407a-a66e-c4b749576cd4","system_id":"levelo_inurba_marseille","lat":43.23947,"lon":5.36631,"is_reserved":false,"is_disabled":false,"rental_uris":{"android":"levelo://app?vid=13f9f031-67ea-407a-a66e-c4b749576cd4","ios":"levelo://app?vid=13f9f031-67ea-407a-a66e-c4b749576cd4"},"vehicle_type_id":"4","last_reported":1774447849,"current_range_meters":6400,"station_id":"ce4bhi12rcd13ifvqfp0","pricing_plan_id":"cebpf4jnsgd1na2vs0mg"},{"bike_id":"7212c6ba-6dfd-4545-9588-72b468573d82","system_id":"levelo_inurba_marseille","lat":43.24951,"lon":5.40494,"is_reserved":false,"is_disabled":false,"rental_uris":{"android":"levelo://app?vid=7212c6ba-6dfd-4545-9588-72b468573d82","ios":"levelo://app?vid=7212c6ba-6dfd-4545-9588-72b468573d82"},"vehicle_type_id":"4","last_reported":1774447849,"current_range_meters":6400,"station_id":"st_d2ngiaodas8pm72gd1h0","pricing_plan_id":"cebpf4jnsgd1na2vs0mg"},{"bike_id":"c26e2a49-390a-4852-aeea-993ad1a06398","system_id":"levelo_inurba_marseille","lat":43.31892,"lon":5.36805,"is_reserved":false,"is_disabled":false,"rental_uris":{"android":"levelo://app?vid=c26e2a49-390a-4852-aeea-993ad1a06398","ios":"levelo://app?vid=c26e2a49-390a-4852-aeea-993ad1a06398"},"vehicle_type_id":"4","last_reported":1774447849,"current_range_meters":6400,"station_id":"st_d6o2h0d0559c73evc1b0","pricing_plan_id":"cebpf4jnsgd1na2vs0mg"},{"bike_id":"5487f2c1-c4a8-4daf-8490-88d7b84744cf","system_id":"levelo_inurba_marseille","lat":43.30302,"lon":5.36914,"is_reserved":false,"is_disabled":false,"rental_uris":{"android":"levelo://app?vid=5487f2c1-c4a8-4daf-8490-88d7b84744cf","ios":"levelo://app?vid=5487f2c1-c4a8-4daf-8490-88d7b84744cf"},"vehicle_type_id":"4","last_reported":1774447849,"current_range_meters":6400,"station_id":"ce4bgqh2rcd13ifvqc5g","pricing_plan_id":"cebpf4jnsgd1na2vs0mg"},{"bike_id":"5be5c06e-17ed-4c05-88a6-6a397d7320dd","system_id":"levelo_inurba_marseille","lat":43.25332,"lon":5.42163,"is_reserved":false,"is_disabled":false,"rental_uris":{"android":"levelo://app?vid=5be5c06e-17ed-4c05-88a6-6a397d7320dd","ios":"levelo://app?vid=5be5c06e-17ed-4c05-88a6-6a397d7320dd"},"vehicle_type_id":"4","last_reported":1774447849,"current_range_meters":6400,"station_id":"st_d2m65c5bi1j21697t3ng","pricing_plan_id":"cebpf4jnsgd1na2vs0mg"},{"bike_id":"d7ed10fb-253a-44b0-a7ea-35dffda4d2a0","system_id":"levelo_inurba_marseille","lat":43.24799,"lon":5.37451,"is_reserved":false,"is_disabled":false,"rental_uris":{"android":"levelo://app?vid=d7ed10fb-253a-44b0-a7ea-35dffda4d2a0","ios":"levelo://app?vid=d7ed10fb-253a-44b0-a7ea-35dffda4d2a0"},"vehicle_type_id":"4","last_reported":1774447849,"current_range_meters":6400,"station_id":"ce4bhgh2rcd13ifvqfb0","pricing_plan_id":"cebpf4jnsgd1na2vs0mg"},{"bike_id":"aae792bd-1c8a-454d-ba57-45007311d229","system_id":"levelo_inurba_marseille","lat":43.22561,"lon":5.41622,"is_reserved":false,"is_disabled":false,"rental_uris":{"android":"levelo://app?vid=aae792bd-1c8a-454d-ba57-45007311d229","ios":"levelo://app?vid=aae792bd-1c8a-454d-ba57-45007311d229"},"vehicle_type_id":"4","last_reported":1774447849,"current_range_meters":6400,"station_id":"st_d2o4gvlbi1j2169b742g","pricing_plan_id":"cebpf4jnsgd1na2vs0mg"},{"bike_id":"7aa99506-82a2-4c6e-81bd-8732d915a806","system_id":"levelo_inurba_marseille","lat":43.29198,"lon":5.3931,"is_reserved":false,"is_disabled":false,"rental_uris":{"android":"levelo://app?vid=7aa99506-82a2-4c6e-81bd-8732d915a806","ios":"levelo://app?vid=7aa99506-82a2-4c6e-81bd-8732d915a806"},"vehicle_type_id":"4","last_reported":1774447849,"current_range_meters":6400,"station_id":"ce4bh192rcd13ifvqdd0","pricing_plan_id":"cebpf4jnsgd1na2vs0mg"},{"bike_id":"befeb0ad-8b7b-476c-af21-2263cf541f67","system_id":"levelo_inurba_marseille","lat":43.24821,"lon":5.37444,"is_reserved":false,"is_disabled":false,"rental_uris":{"android":"levelo://app?vid=befeb0ad-8b7b-476c-af21-2263cf541f67","ios":"levelo://app?vid=befeb0ad-8b7b-476c-af21-2263cf541f67"},"vehicle_type_id":"4","last_reported":1774447849,"current_range_meters":6400,"station_id":"ce4bhgh2rcd13ifvqfb0","pricing_plan_id":"cebpf4jnsgd1na2vs0mg"},{"bike_id":"d94403d2-81d8-46d6-83a6-8f39ee0de1b2","system_id":"levelo_inurba_marseille","lat":43.29914,"lon":5.37462,"is_reserved":false,"is_disabled":false,"rental_uris":{"android":"levelo://app?vid=d94403d2-81d8-46d6-83a6-8f39ee0de1b2","ios":"levelo://app?vid=d94403d2-81d8-46d6-83a6-8f39ee0de1b2"},"vehicle_type_id":"4","last_reported":1774447849,"current_range_meters":6400,"station_id":"ce4bgjh2rcd13ifvqbg0","pricing_plan_id":"cebpf4jnsgd1na2vs0mg"},{"bike_id":"99a3d036-6363-4a53-9fcc-641203eced07","system_id":"levelo_inurba_marseille","lat":43.27993,"lon":5.40013,"is_reserved":false,"is_disabled":false,"rental_uris":{"android":"levelo://app?vid=99a3d036-6363-4a53-9fcc-641203eced07","ios":"levelo://app?vid=99a3d036-6363-4a53-9fcc-641203eced07"},"vehicle_type_id":"4","last_reported":1774447849,"current_range_meters":6800,"station_id":"ce4bho92rcd13ifvqh4g","pricing_plan_id":"cebpf4jnsgd1na2vs0mg"},{"bike_id":"eb1b0867-fe2e-4f1e-81fc-450ae299d3b9","system_id":"levelo_inurba_marseille","lat":43.29836,"lon":5.44038,"is_reserved":false,"is_disabled":false,"rental_uris":{"android":"levelo://app?vid=eb1b0867-fe2e-4f1e-81fc-450ae299d3b9","ios":"levelo://app?vid=eb1b0867-fe2e-4f1e-81fc-450ae299d3b9"},"vehicle_type_id":"4","last_reported":1774447849,"current_range_meters":6800,"station_id":"st_d3jp68qikq2c7381ktn0","pricing_plan_id":"cebpf4jnsgd1na2vs0mg"},{"bike_id":"fbe5bfea-dbdd-42c2-908b-8c935a9fcf5e","system_id":"levelo_inurba_marseille","lat":43.22562,"lon":5.41618,"is_reserved":false,"is_disabled":false,"rental_uris":{"android":"levelo://app?vid=fbe5bfea-dbdd-42c2-908b-8c935a9fcf5e","ios":"levelo://app?vid=fbe5bfea-dbdd-42c2-908b-8c935a9fcf5e"},"vehicle_type_id":"4","last_reported":1774447849,"current_range_meters":6800,"station_id":"st_d2o4gvlbi1j2169b742g","pricing_plan_id":"cebpf4jnsgd1na2vs0mg"},{"bike_id":"ad41ef34-27d0-4664-b28a-5999a0d5e1c4","system_id":"levelo_inurba_marseille","lat":43.29236,"lon":5.36854,"is_reserved":false,"is_disabled":false,"rental_uris":{"android":"levelo://app?vid=ad41ef34-27d0-4664-b28a-5999a0d5e1c4","ios":"levelo://app?vid=ad41ef34-27d0-4664-b28a-5999a0d5e1c4"},"vehicle_type_id":"4","last_reported":1774447849,"current_range_meters":6800,"station_id":"ce4bhbp2rcd13ifvqesg","pricing_plan_id":"cebpf4jnsgd1na2vs0mg"},{"bike_id":"5d6d66cd-1b1b-41a6-8bbd-6f9457331a9d","system_id":"levelo_inurba_marseille","lat":43.30807,"lon":5.38149,"is_reserved":false,"is_disabled":false,"rental_uris":{"android":"levelo://app?vid=5d6d66cd-1b1b-41a6-8bbd-6f9457331a9d","ios":"levelo://app?vid=5d6d66cd-1b1b-41a6-8bbd-6f9457331a9d"},"vehicle_type_id":"4","last_reported":1774447849,"current_range_meters":6800,"station_id":"ce4bgt12rcd13ifvqce0","pricing_plan_id":"cebpf4jnsgd1na2vs0mg"},{"bike_id":"61d5109e-e9d2-457a-bf42-8fd667b83cd3","system_id":"levelo_inurba_marseille","lat":43.3038,"lon":5.42494,"is_reserved":false,"is_disabled":false,"rental_uris":{"android":"levelo://app?vid=61d5109e-e9d2-457a-bf42-8fd667b83cd3","ios":"levelo://app?vid=61d5109e-e9d2-457a-bf42-8fd667b83cd3"},"vehicle_type_id":"4","last_reported":1774447849,"current_range_meters":6800,"station_id":"ce4bhoh2rcd13ifvqh6g","pricing_plan_id":"cebpf4jnsgd1na2vs0mg"},{"bike_id":"e8ba5069-6ba5-4607-ba76-37a602e090e0","system_id":"levelo_inurba_marseille","lat":43.26361,"lon":5.41093,"is_reserved":false,"is_disabled":false,"rental_uris":{"android":"levelo://app?vid=e8ba5069-6ba5-4607-ba76-37a602e090e0","ios":"levelo://app?vid=e8ba5069-6ba5-4607-ba76-37a602e090e0"},"vehicle_type_id":"4","last_reported":1774447849,"current_range_meters":6800,"station_id":"st_d4e5ca6na9uc73bfl5fg","pricing_plan_id":"cebpf4jnsgd1na2vs0mg"},{"bike_id":"342b423d-9543-482e-9697-867bc1888b7d","system_id":"levelo_inurba_marseille","lat":43.29928,"lon":5.36546,"is_reserved":false,"is_disabled":false,"rental_uris":{"android":"levelo://app?vid=342b423d-9543-482e-9697-867bc1888b7d","ios":"levelo://app?vid=342b423d-9543-482e-9697-867bc1888b7d"},"vehicle_type_id":"4","last_reported":1774447849,"current_range_meters":6800,"station_id":"ce4bgm92rcd13ifvqbr0","pricing_plan_id":"cebpf4jnsgd1na2vs0mg"},{"bike_id":"05f2e3f0-a4b3-4470-817a-2790bf76d4b0","system_id":"levelo_inurba_marseille","lat":43.241485,"lon":5.363936,"is_reserved":false,"is_disabled":false,"rental_uris":{"android":"levelo://app?vid=05f2e3f0-a4b3-4470-817a-2790bf76d4b0","ios":"levelo://app?vid=05f2e3f0-a4b3-4470-817a-2790bf76d4b0"},"vehicle_type_id":"4","last_reported":1774447849,"current_range_meters":6800,"station_id":"cpo36qri1sfpv3e86is0","pricing_plan_id":"cebpf4jnsgd1na2vs0mg"},{"bike_id":"e41460f1-99c5-4c80-8227-74ded5780d58","system_id":"levelo_inurba_marseille","lat":43.29168,"lon":5.37167,"is_reserved":false,"is_disabled":false,"rental_uris":{"android":"levelo://app?vid=e41460f1-99c5-4c80-8227-74ded5780d58","ios":"levelo://app?vid=e41460f1-99c5-4c80-8227-74ded5780d58"},"vehicle_type_id":"4","last_reported":1774447849,"current_range_meters":6800,"station_id":"ce4bha92rcd13ifvqeh0","pricing_plan_id":"cebpf4jnsgd1na2vs0mg"},{"bike_id":"5ece89f7-1d14-49b1-bf0b-557411e0fe9a","system_id":"levelo_inurba_marseille","lat":43.31043,"lon":5.37158,"is_reserved":false,"is_disabled":false,"rental_uris":{"android":"levelo://app?vid=5ece89f7-1d14-49b1-bf0b-557411e0fe9a","ios":"levelo://app?vid=5ece89f7-1d14-49b1-bf0b-557411e0fe9a"},"vehicle_type_id":"4","last_reported":1774447849,"current_range_meters":6800,"station_id":"st_d4kl2rp97mjs73e7tdfg","pricing_plan_id":"cebpf4jnsgd1na2vs0mg"},{"bike_id":"4d5023af-fe24-4799-9f11-c3b9097e35c6","system_id":"levelo_inurba_marseille","lat":43.32046,"lon":5.41542,"is_reserved":false,"is_disabled":false,"rental_uris":{"android":"levelo://app?vid=4d5023af-fe24-4799-9f11-c3b9097e35c6","ios":"levelo://app?vid=4d5023af-fe24-4799-9f11-c3b9097e35c6"},"vehicle_type_id":"4","last_reported":1774447849,"current_range_meters":6800,"station_id":"ce4bhq92rcd13ifvqhkg","pricing_plan_id":"cebpf4jnsgd1na2vs0mg"},{"bike_id":"c4fc09ce-165a-4d20-8909-298bad321824","system_id":"levelo_inurba_marseille","lat":43.28614,"lon":5.35106,"is_reserved":false,"is_disabled":false,"rental_uris":{"android":"levelo://app?vid=c4fc09ce-165a-4d20-8909-298bad321824","ios":"levelo://app?vid=c4fc09ce-165a-4d20-8909-298bad321824"},"vehicle_type_id":"4","last_reported":1774447849,"current_range_meters":6800,"station_id":"ce4bhch2rcd13ifvqeug","pricing_plan_id":"cebpf4jnsgd1na2vs0mg"},{"bike_id":"89673b48-b93e-49b1-91bc-4a5460ed425e","system_id":"levelo_inurba_marseille","lat":43.29894,"lon":5.43662,"is_reserved":false,"is_disabled":false,"rental_uris":{"android":"levelo://app?vid=89673b48-b93e-49b1-91bc-4a5460ed425e","ios":"levelo://app?vid=89673b48-b93e-49b1-91bc-4a5460ed425e"},"vehicle_type_id":"4","last_reported":1774447849,"current_range_meters":7200,"station_id":"ce4bhpp2rcd13ifvqhfg","pricing_plan_id":"cebpf4jnsgd1na2vs0mg"},{"bike_id":"52ecfc24-e37f-47f1-976a-95a7af5cf1aa","system_id":"levelo_inurba_marseille","lat":43.2862,"lon":5.35101,"is_reserved":false,"is_disabled":false,"rental_uris":{"android":"levelo://app?vid=52ecfc24-e37f-47f1-976a-95a7af5cf1aa","ios":"levelo://app?vid=52ecfc24-e37f-47f1-976a-95a7af5cf1aa"},"vehicle_type_id":"4","last_reported":1774447849,"current_range_meters":7200,"station_id":"ce4bhch2rcd13ifvqeug","pricing_plan_id":"cebpf4jnsgd1na2vs0mg"},{"bike_id":"caf99c90-512b-4068-ace7-e50485e87cdf","system_id":"levelo_inurba_marseille","lat":43.29231,"lon":5.36853,"is_reserved":false,"is_disabled":false,"rental_uris":{"android":"levelo://app?vid=caf99c90-512b-4068-ace7-e50485e87cdf","ios":"levelo://app?vid=caf99c90-512b-4068-ace7-e50485e87cdf"},"vehicle_type_id":"4","last_reported":1774447849,"current_range_meters":7200,"station_id":"ce4bhbp2rcd13ifvqesg","pricing_plan_id":"cebpf4jnsgd1na2vs0mg"},{"bike_id":"e73aa5c4-587d-43ed-8ac6-1108384813a2","system_id":"levelo_inurba_marseille","lat":43.27916,"lon":5.39576,"is_reserved":false,"is_disabled":true,"rental_uris":{"android":"levelo://app?vid=e73aa5c4-587d-43ed-8ac6-1108384813a2","ios":"levelo://app?vid=e73aa5c4-587d-43ed-8ac6-1108384813a2"},"vehicle_type_id":"4","last_reported":1774447849,"current_range_meters":7200,"station_id":"ce4bhf92rcd13ifvqf40","pricing_plan_id":"cebpf4jnsgd1na2vs0mg"},{"bike_id":"08f3c701-efdb-46d9-b610-9d4c22d6d3d1","system_id":"levelo_inurba_marseille","lat":43.2463,"lon":5.43162,"is_reserved":false,"is_disabled":false,"rental_uris":{"android":"levelo://app?vid=08f3c701-efdb-46d9-b610-9d4c22d6d3d1","ios":"levelo://app?vid=08f3c701-efdb-46d9-b610-9d4c22d6d3d1"},"vehicle_type_id":"4","last_reported":1774447849,"current_range_meters":7200,"station_id":"","pricing_plan_id":"cebpf4jnsgd1na2vs0mg"},{"bike_id":"f5b03ec9-f04a-455a-96b8-562b5e810ed5","system_id":"levelo_inurba_marseille","lat":43.28209,"lon":5.39044,"is_reserved":false,"is_disabled":false,"rental_uris":{"android":"levelo://app?vid=f5b03ec9-f04a-455a-96b8-562b5e810ed5","ios":"levelo://app?vid=f5b03ec9-f04a-455a-96b8-562b5e810ed5"},"vehicle_type_id":"4","last_reported":1774447849,"current_range_meters":7200,"station_id":"ce4bhn92rcd13ifvqgsg","pricing_plan_id":"cebpf4jnsgd1na2vs0mg"},{"bike_id":"5c39f7cf-c7f7-4747-b217-e778a50c0011","system_id":"levelo_inurba_marseille","lat":43.29966,"lon":5.37592,"is_reserved":false,"is_disabled":false,"rental_uris":{"android":"levelo://app?vid=5c39f7cf-c7f7-4747-b217-e778a50c0011","ios":"levelo://app?vid=5c39f7cf-c7f7-4747-b217-e778a50c0011"},"vehicle_type_id":"4","last_reported":1774447849,"current_range_meters":7200,"station_id":"","pricing_plan_id":"cebpf4jnsgd1na2vs0mg"},{"bike_id":"c1e92c70-aede-452c-8e8c-6914c0324e0c","system_id":"levelo_inurba_marseille","lat":43.29038,"lon":5.35925,"is_reserved":false,"is_disabled":false,"rental_uris":{"android":"levelo://app?vid=c1e92c70-aede-452c-8e8c-6914c0324e0c","ios":"levelo://app?vid=c1e92c70-aede-452c-8e8c-6914c0324e0c"},"vehicle_type_id":"4","last_reported":1774447849,"current_range_meters":7200,"station_id":"ce4bha92rcd13ifvqeg0","pricing_plan_id":"cebpf4jnsgd1na2vs0mg"},{"bike_id":"2f430c62-15bb-430c-969c-56b5339d66a3","system_id":"levelo_inurba_marseille","lat":43.28546,"lon":5.44103,"is_reserved":false,"is_disabled":false,"rental_uris":{"android":"levelo://app?vid=2f430c62-15bb-430c-969c-56b5339d66a3","ios":"levelo://app?vid=2f430c62-15bb-430c-969c-56b5339d66a3"},"vehicle_type_id":"4","last_reported":1774447849,"current_range_meters":7200,"station_id":"st_d3j3df2ikq2c7380ej80","pricing_plan_id":"cebpf4jnsgd1na2vs0mg"},{"bike_id":"d594e935-ec7a-4a10-af1c-e7aeb3a4a3cc","system_id":"levelo_inurba_marseille","lat":43.25325,"lon":5.42149,"is_reserved":false,"is_disabled":false,"rental_uris":{"android":"levelo://app?vid=d594e935-ec7a-4a10-af1c-e7aeb3a4a3cc","ios":"levelo://app?vid=d594e935-ec7a-4a10-af1c-e7aeb3a4a3cc"},"vehicle_type_id":"4","last_reported":1774447849,"current_range_meters":7200,"station_id":"st_d2m65c5bi1j21697t3ng","pricing_plan_id":"cebpf4jnsgd1na2vs0mg"},{"bike_id":"bf24de65-d4b8-4de3-8970-bb832fcbf64f","system_id":"levelo_inurba_marseille","lat":43.24675,"lon":5.3811,"is_reserved":false,"is_disabled":false,"rental_uris":{"android":"levelo://app?vid=bf24de65-d4b8-4de3-8970-bb832fcbf64f","ios":"levelo://app?vid=bf24de65-d4b8-4de3-8970-bb832fcbf64f"},"vehicle_type_id":"4","last_reported":1774447849,"current_range_meters":7200,"station_id":"","pricing_plan_id":"cebpf4jnsgd1na2vs0mg"},{"bike_id":"0df6d16f-36d4-42c1-8335-b8a697e6bb13","system_id":"levelo_inurba_marseille","lat":43.29563,"lon":5.3753,"is_reserved":false,"is_disabled":false,"rental_uris":{"android":"levelo://app?vid=0df6d16f-36d4-42c1-8335-b8a697e6bb13","ios":"levelo://app?vid=0df6d16f-36d4-42c1-8335-b8a697e6bb13"},"vehicle_type_id":"4","last_reported":1774447849,"current_range_meters":8000,"station_id":"ce4bgh92rcd13ifvqb50","pricing_plan_id":"cebpf4jnsgd1na2vs0mg"},{"bike_id":"7bd56366-368c-4244-8c16-7c2a34fab141","system_id":"levelo_inurba_marseille","lat":43.26199,"lon":5.37442,"is_reserved":false,"is_disabled":false,"rental_uris":{"android":"levelo://app?vid=7bd56366-368c-4244-8c16-7c2a34fab141","ios":"levelo://app?vid=7bd56366-368c-4244-8c16-7c2a34fab141"},"vehicle_type_id":"4","last_reported":1774447849,"current_range_meters":8000,"station_id":"ce4bhgp2rcd13ifvqfc0","pricing_plan_id":"cebpf4jnsgd1na2vs0mg"},{"bike_id":"a81b868b-fd5e-4db0-b144-7cfb1db36926","system_id":"levelo_inurba_marseille","lat":43.28129,"lon":5.42647,"is_reserved":false,"is_disabled":false,"rental_uris":{"android":"levelo://app?vid=a81b868b-fd5e-4db0-b144-7cfb1db36926","ios":"levelo://app?vid=a81b868b-fd5e-4db0-b144-7cfb1db36926"},"vehicle_type_id":"4","last_reported":1774447849,"current_range_meters":8000,"station_id":"ce4bhnh2rcd13ifvqgug","pricing_plan_id":"cebpf4jnsgd1na2vs0mg"},{"bike_id":"db8e1c36-1d9c-44d2-bc2d-f91041c6fca2","system_id":"levelo_inurba_marseille","lat":43.28442,"lon":5.45783,"is_reserved":false,"is_disabled":false,"rental_uris":{"android":"levelo://app?vid=db8e1c36-1d9c-44d2-bc2d-f91041c6fca2","ios":"levelo://app?vid=db8e1c36-1d9c-44d2-bc2d-f91041c6fca2"},"vehicle_type_id":"4","last_reported":1774447849,"current_range_meters":8000,"station_id":"","pricing_plan_id":"cebpf4jnsgd1na2vs0mg"},{"bike_id":"aa929685-e4dd-4a31-a1c6-979463fa81a3","system_id":"levelo_inurba_marseille","lat":43.28482,"lon":5.48393,"is_reserved":false,"is_disabled":false,"rental_uris":{"android":"levelo://app?vid=aa929685-e4dd-4a31-a1c6-979463fa81a3","ios":"levelo://app?vid=aa929685-e4dd-4a31-a1c6-979463fa81a3"},"vehicle_type_id":"4","last_reported":1774447849,"current_range_meters":8000,"station_id":"st_d3svhcjqgbts73a3dn0g","pricing_plan_id":"cebpf4jnsgd1na2vs0mg"},{"bike_id":"76874935-a550-4b44-90a3-28eb485c749a","system_id":"levelo_inurba_marseille","lat":43.2964,"lon":5.37141,"is_reserved":false,"is_disabled":true,"rental_uris":{"android":"levelo://app?vid=76874935-a550-4b44-90a3-28eb485c749a","ios":"levelo://app?vid=76874935-a550-4b44-90a3-28eb485c749a"},"vehicle_type_id":"4","last_reported":1774447849,"current_range_meters":8000,"station_id":"ce4bgnh2rcd13ifvqc0g","pricing_plan_id":"cebpf4jnsgd1na2vs0mg"},{"bike_id":"942ff02c-31c2-4c51-8842-9c7d3c411c98","system_id":"levelo_inurba_marseille","lat":43.26587,"lon":5.37303,"is_reserved":false,"is_disabled":true,"rental_uris":{"android":"levelo://app?vid=942ff02c-31c2-4c51-8842-9c7d3c411c98","ios":"levelo://app?vid=942ff02c-31c2-4c51-8842-9c7d3c411c98"},"vehicle_type_id":"4","last_reported":1774447849,"current_range_meters":8000,"station_id":"ce4bhg12rcd13ifvqf70","pricing_plan_id":"cebpf4jnsgd1na2vs0mg"},{"bike_id":"7d696d83-90f4-4587-9db0-36234620c7a4","system_id":"levelo_inurba_marseille","lat":43.29314,"lon":5.37174,"is_reserved":false,"is_disabled":false,"rental_uris":{"android":"levelo://app?vid=7d696d83-90f4-4587-9db0-36234620c7a4","ios":"levelo://app?vid=7d696d83-90f4-4587-9db0-36234620c7a4"},"vehicle_type_id":"4","last_reported":1774447849,"current_range_meters":8000,"station_id":"ce4bgh92rcd13ifvqb40","pricing_plan_id":"cebpf4jnsgd1na2vs0mg"},{"bike_id":"4d0f13ff-9e4f-4588-8dac-238cbd3df610","system_id":"levelo_inurba_marseille","lat":43.30169,"lon":5.36614,"is_reserved":false,"is_disabled":false,"rental_uris":{"android":"levelo://app?vid=4d0f13ff-9e4f-4588-8dac-238cbd3df610","ios":"levelo://app?vid=4d0f13ff-9e4f-4588-8dac-238cbd3df610"},"vehicle_type_id":"4","last_reported":1774447849,"current_range_meters":8000,"station_id":"ce4bgrh2rcd13ifvqc8g","pricing_plan_id":"cebpf4jnsgd1na2vs0mg"},{"bike_id":"18adfd8d-4070-4d1a-8a22-a62bbb566b9b","system_id":"levelo_inurba_marseille","lat":43.30944,"lon":5.39028,"is_reserved":false,"is_disabled":false,"rental_uris":{"android":"levelo://app?vid=18adfd8d-4070-4d1a-8a22-a62bbb566b9b","ios":"levelo://app?vid=18adfd8d-4070-4d1a-8a22-a62bbb566b9b"},"vehicle_type_id":"4","last_reported":1774447849,"current_range_meters":8000,"station_id":"ce4bgup2rcd13ifvqco0","pricing_plan_id":"cebpf4jnsgd1na2vs0mg"},{"bike_id":"55f38c8e-1f2a-4c56-a950-839284d0263b","system_id":"levelo_inurba_marseille","lat":43.266809,"lon":5.38271,"is_reserved":false,"is_disabled":false,"rental_uris":{"android":"levelo://app?vid=55f38c8e-1f2a-4c56-a950-839284d0263b","ios":"levelo://app?vid=55f38c8e-1f2a-4c56-a950-839284d0263b"},"vehicle_type_id":"4","last_reported":1774447849,"current_range_meters":8000,"station_id":"ce4bhg92rcd13ifvqf90","pricing_plan_id":"cebpf4jnsgd1na2vs0mg"},{"bike_id":"f738fa6d-3f14-4745-866d-a294d2cca19f","system_id":"levelo_inurba_marseille","lat":43.25495,"lon":5.37649,"is_reserved":false,"is_disabled":false,"rental_uris":{"android":"levelo://app?vid=f738fa6d-3f14-4745-866d-a294d2cca19f","ios":"levelo://app?vid=f738fa6d-3f14-4745-866d-a294d2cca19f"},"vehicle_type_id":"4","last_reported":1774447849,"current_range_meters":8000,"station_id":"ce4bhh12rcd13ifvqff0","pricing_plan_id":"cebpf4jnsgd1na2vs0mg"},{"bike_id":"451e822b-d17c-41b3-aa86-e9da4e66ded2","system_id":"levelo_inurba_marseille","lat":43.23959,"lon":5.36644,"is_reserved":false,"is_disabled":false,"rental_uris":{"android":"levelo://app?vid=451e822b-d17c-41b3-aa86-e9da4e66ded2","ios":"levelo://app?vid=451e822b-d17c-41b3-aa86-e9da4e66ded2"},"vehicle_type_id":"4","last_reported":1774447849,"current_range_meters":8000,"station_id":"ce4bhi12rcd13ifvqfp0","pricing_plan_id":"cebpf4jnsgd1na2vs0mg"},{"bike_id":"a262f43d-85a2-4a30-93dd-8651921757f5","system_id":"levelo_inurba_marseille","lat":43.2316,"lon":5.43717,"is_reserved":false,"is_disabled":false,"rental_uris":{"android":"levelo://app?vid=a262f43d-85a2-4a30-93dd-8651921757f5","ios":"levelo://app?vid=a262f43d-85a2-4a30-93dd-8651921757f5"},"vehicle_type_id":"4","last_reported":1774447849,"current_range_meters":8000,"station_id":"ce4bhmp2rcd13ifvqgog","pricing_plan_id":"cebpf4jnsgd1na2vs0mg"},{"bike_id":"b236ba0f-68b9-4f75-96e1-de33848f6431","system_id":"levelo_inurba_marseille","lat":43.30886,"lon":5.36842,"is_reserved":false,"is_disabled":false,"rental_uris":{"android":"levelo://app?vid=b236ba0f-68b9-4f75-96e1-de33848f6431","ios":"levelo://app?vid=b236ba0f-68b9-4f75-96e1-de33848f6431"},"vehicle_type_id":"4","last_reported":1774447849,"current_range_meters":8000,"station_id":"ce4bgn92rcd13ifvqbvg","pricing_plan_id":"cebpf4jnsgd1na2vs0mg"},{"bike_id":"8ada4a2d-b287-4d09-8f06-78a71293779a","system_id":"levelo_inurba_marseille","lat":43.274241,"lon":5.394212,"is_reserved":false,"is_disabled":false,"rental_uris":{"android":"levelo://app?vid=8ada4a2d-b287-4d09-8f06-78a71293779a","ios":"levelo://app?vid=8ada4a2d-b287-4d09-8f06-78a71293779a"},"vehicle_type_id":"4","last_reported":1774447849,"current_range_meters":8000,"station_id":"ce4bhdp2rcd13ifvqf20","pricing_plan_id":"cebpf4jnsgd1na2vs0mg"},{"bike_id":"f42e7bbd-d38d-459f-adad-3eac312aa5ce","system_id":"levelo_inurba_marseille","lat":43.26552,"lon":5.37283,"is_reserved":false,"is_disabled":false,"rental_uris":{"android":"levelo://app?vid=f42e7bbd-d38d-459f-adad-3eac312aa5ce","ios":"levelo://app?vid=f42e7bbd-d38d-459f-adad-3eac312aa5ce"},"vehicle_type_id":"4","last_reported":1774447849,"current_range_meters":8400,"station_id":"ce4bhg12rcd13ifvqf70","pricing_plan_id":"cebpf4jnsgd1na2vs0mg"},{"bike_id":"2238f30d-c2e0-4d80-a7e7-ce4f2dc94228","system_id":"levelo_inurba_marseille","lat":43.2315,"lon":5.43709,"is_reserved":false,"is_disabled":false,"rental_uris":{"android":"levelo://app?vid=2238f30d-c2e0-4d80-a7e7-ce4f2dc94228","ios":"levelo://app?vid=2238f30d-c2e0-4d80-a7e7-ce4f2dc94228"},"vehicle_type_id":"4","last_reported":1774447849,"current_range_meters":8400,"station_id":"ce4bhmp2rcd13ifvqgog","pricing_plan_id":"cebpf4jnsgd1na2vs0mg"},{"bike_id":"da6972b3-b161-480b-8ef0-1ff556fc7299","system_id":"levelo_inurba_marseille","lat":43.23794,"lon":5.3663,"is_reserved":false,"is_disabled":false,"rental_uris":{"android":"levelo://app?vid=da6972b3-b161-480b-8ef0-1ff556fc7299","ios":"levelo://app?vid=da6972b3-b161-480b-8ef0-1ff556fc7299"},"vehicle_type_id":"4","last_reported":1774447849,"current_range_meters":8400,"station_id":"st_d3nk18o9ro0c73en2l3g","pricing_plan_id":"cebpf4jnsgd1na2vs0mg"},{"bike_id":"5fea4591-9536-478c-9dd1-1abddc74092a","system_id":"levelo_inurba_marseille","lat":43.284071,"lon":5.375206,"is_reserved":false,"is_disabled":false,"rental_uris":{"android":"levelo://app?vid=5fea4591-9536-478c-9dd1-1abddc74092a","ios":"levelo://app?vid=5fea4591-9536-478c-9dd1-1abddc74092a"},"vehicle_type_id":"4","last_reported":1774447849,"current_range_meters":8400,"station_id":"ce4bh412rcd13ifvqds0","pricing_plan_id":"cebpf4jnsgd1na2vs0mg"},{"bike_id":"d64c94f3-e268-41de-bac3-5a218887d9b5","system_id":"levelo_inurba_marseille","lat":43.28473,"lon":5.48395,"is_reserved":false,"is_disabled":false,"rental_uris":{"android":"levelo://app?vid=d64c94f3-e268-41de-bac3-5a218887d9b5","ios":"levelo://app?vid=d64c94f3-e268-41de-bac3-5a218887d9b5"},"vehicle_type_id":"4","last_reported":1774447849,"current_range_meters":8400,"station_id":"","pricing_plan_id":"cebpf4jnsgd1na2vs0mg"},{"bike_id":"dcc2c9db-79ba-4341-8d0e-f6ca29cae3f3","system_id":"levelo_inurba_marseille","lat":43.28277,"lon":5.35062,"is_reserved":false,"is_disabled":false,"rental_uris":{"android":"levelo://app?vid=dcc2c9db-79ba-4341-8d0e-f6ca29cae3f3","ios":"levelo://app?vid=dcc2c9db-79ba-4341-8d0e-f6ca29cae3f3"},"vehicle_type_id":"4","last_reported":1774447849,"current_range_meters":8400,"station_id":"ce4bhbp2rcd13ifvqerg","pricing_plan_id":"cebpf4jnsgd1na2vs0mg"},{"bike_id":"fdd8bf84-b2fe-4508-9572-06ea662fa5ac","system_id":"levelo_inurba_marseille","lat":43.2848,"lon":5.48402,"is_reserved":false,"is_disabled":false,"rental_uris":{"android":"levelo://app?vid=fdd8bf84-b2fe-4508-9572-06ea662fa5ac","ios":"levelo://app?vid=fdd8bf84-b2fe-4508-9572-06ea662fa5ac"},"vehicle_type_id":"4","last_reported":1774447849,"current_range_meters":8400,"station_id":"","pricing_plan_id":"cebpf4jnsgd1na2vs0mg"},{"bike_id":"9b8ef9d9-2b69-4832-b2af-dff113d7bac1","system_id":"levelo_inurba_marseille","lat":43.27334,"lon":5.39062,"is_reserved":false,"is_disabled":true,"rental_uris":{"android":"levelo://app?vid=9b8ef9d9-2b69-4832-b2af-dff113d7bac1","ios":"levelo://app?vid=9b8ef9d9-2b69-4832-b2af-dff113d7bac1"},"vehicle_type_id":"4","last_reported":1774447849,"current_range_meters":8400,"station_id":"ce4bhgp2rcd13ifvqfe0","pricing_plan_id":"cebpf4jnsgd1na2vs0mg"},{"bike_id":"317d0fae-7d4a-4bfc-a3ad-9d347e3e5200","system_id":"levelo_inurba_marseille","lat":43.27376,"lon":5.3624,"is_reserved":false,"is_disabled":false,"rental_uris":{"android":"levelo://app?vid=317d0fae-7d4a-4bfc-a3ad-9d347e3e5200","ios":"levelo://app?vid=317d0fae-7d4a-4bfc-a3ad-9d347e3e5200"},"vehicle_type_id":"4","last_reported":1774447849,"current_range_meters":8400,"station_id":"ce4bhbh2rcd13ifvqeo0","pricing_plan_id":"cebpf4jnsgd1na2vs0mg"},{"bike_id":"b023052a-08b1-4e30-987f-eae510c848d2","system_id":"levelo_inurba_marseille","lat":43.32493,"lon":5.36566,"is_reserved":false,"is_disabled":false,"rental_uris":{"android":"levelo://app?vid=b023052a-08b1-4e30-987f-eae510c848d2","ios":"levelo://app?vid=b023052a-08b1-4e30-987f-eae510c848d2"},"vehicle_type_id":"4","last_reported":1774447849,"current_range_meters":8400,"station_id":"ce4bhs12rcd13ifvqhvg","pricing_plan_id":"cebpf4jnsgd1na2vs0mg"},{"bike_id":"25c18403-51c7-4525-a478-e688a6140950","system_id":"levelo_inurba_marseille","lat":43.24176,"lon":5.39716,"is_reserved":false,"is_disabled":false,"rental_uris":{"android":"levelo://app?vid=25c18403-51c7-4525-a478-e688a6140950","ios":"levelo://app?vid=25c18403-51c7-4525-a478-e688a6140950"},"vehicle_type_id":"4","last_reported":1774447849,"current_range_meters":8400,"station_id":"ce4bhn12rcd13ifvqgpg","pricing_plan_id":"cebpf4jnsgd1na2vs0mg"},{"bike_id":"2bd50955-a4fa-4ce5-bd40-d60021f9cb68","system_id":"levelo_inurba_marseille","lat":43.22558,"lon":5.41604,"is_reserved":false,"is_disabled":false,"rental_uris":{"android":"levelo://app?vid=2bd50955-a4fa-4ce5-bd40-d60021f9cb68","ios":"levelo://app?vid=2bd50955-a4fa-4ce5-bd40-d60021f9cb68"},"vehicle_type_id":"4","last_reported":1774447849,"current_range_meters":8400,"station_id":"st_d2o4gvlbi1j2169b742g","pricing_plan_id":"cebpf4jnsgd1na2vs0mg"},{"bike_id":"b9a275c9-d51f-4f11-a776-e728aae18c62","system_id":"levelo_inurba_marseille","lat":43.25394,"lon":5.42101,"is_reserved":false,"is_disabled":false,"rental_uris":{"android":"levelo://app?vid=b9a275c9-d51f-4f11-a776-e728aae18c62","ios":"levelo://app?vid=b9a275c9-d51f-4f11-a776-e728aae18c62"},"vehicle_type_id":"4","last_reported":1774447849,"current_range_meters":8400,"station_id":"","pricing_plan_id":"cebpf4jnsgd1na2vs0mg"},{"bike_id":"2b3c1364-3121-4d93-8317-232c218f2dec","system_id":"levelo_inurba_marseille","lat":43.28635,"lon":5.35084,"is_reserved":false,"is_disabled":false,"rental_uris":{"android":"levelo://app?vid=2b3c1364-3121-4d93-8317-232c218f2dec","ios":"levelo://app?vid=2b3c1364-3121-4d93-8317-232c218f2dec"},"vehicle_type_id":"4","last_reported":1774447849,"current_range_meters":8400,"station_id":"ce4bhch2rcd13ifvqeug","pricing_plan_id":"cebpf4jnsgd1na2vs0mg"},{"bike_id":"e58da262-73bb-476d-a3cd-348095f82af6","system_id":"levelo_inurba_marseille","lat":43.28279,"lon":5.35071,"is_reserved":false,"is_disabled":false,"rental_uris":{"android":"levelo://app?vid=e58da262-73bb-476d-a3cd-348095f82af6","ios":"levelo://app?vid=e58da262-73bb-476d-a3cd-348095f82af6"},"vehicle_type_id":"4","last_reported":1774447849,"current_range_meters":8400,"station_id":"ce4bhbp2rcd13ifvqerg","pricing_plan_id":"cebpf4jnsgd1na2vs0mg"},{"bike_id":"2726efb4-ce06-4f2f-8065-e4ac3aedc676","system_id":"levelo_inurba_marseille","lat":43.29656,"lon":5.38181,"is_reserved":false,"is_disabled":false,"rental_uris":{"android":"levelo://app?vid=2726efb4-ce06-4f2f-8065-e4ac3aedc676","ios":"levelo://app?vid=2726efb4-ce06-4f2f-8065-e4ac3aedc676"},"vehicle_type_id":"4","last_reported":1774447849,"current_range_meters":8400,"station_id":"","pricing_plan_id":"cebpf4jnsgd1na2vs0mg"},{"bike_id":"6bd55496-2715-49af-884d-8bbe42aca6ec","system_id":"levelo_inurba_marseille","lat":43.295605,"lon":5.422955,"is_reserved":false,"is_disabled":false,"rental_uris":{"android":"levelo://app?vid=6bd55496-2715-49af-884d-8bbe42aca6ec","ios":"levelo://app?vid=6bd55496-2715-49af-884d-8bbe42aca6ec"},"vehicle_type_id":"4","last_reported":1774447849,"current_range_meters":8400,"station_id":"ce4bhph2rcd13ifvqhdg","pricing_plan_id":"cebpf4jnsgd1na2vs0mg"},{"bike_id":"b8e36708-9a62-495f-bdb5-2e0d4509c806","system_id":"levelo_inurba_marseille","lat":43.30183,"lon":5.36602,"is_reserved":false,"is_disabled":false,"rental_uris":{"android":"levelo://app?vid=b8e36708-9a62-495f-bdb5-2e0d4509c806","ios":"levelo://app?vid=b8e36708-9a62-495f-bdb5-2e0d4509c806"},"vehicle_type_id":"4","last_reported":1774447849,"current_range_meters":8400,"station_id":"ce4bgrh2rcd13ifvqc8g","pricing_plan_id":"cebpf4jnsgd1na2vs0mg"},{"bike_id":"5840b2c5-76c6-4609-b272-f4b1c1663b3b","system_id":"levelo_inurba_marseille","lat":43.29939,"lon":5.38828,"is_reserved":false,"is_disabled":false,"rental_uris":{"android":"levelo://app?vid=5840b2c5-76c6-4609-b272-f4b1c1663b3b","ios":"levelo://app?vid=5840b2c5-76c6-4609-b272-f4b1c1663b3b"},"vehicle_type_id":"4","last_reported":1774447849,"current_range_meters":8400,"station_id":"","pricing_plan_id":"cebpf4jnsgd1na2vs0mg"},{"bike_id":"e5307e49-aa0c-43b7-8304-fca5c4ed23dd","system_id":"levelo_inurba_marseille","lat":43.27565,"lon":5.3841,"is_reserved":false,"is_disabled":false,"rental_uris":{"android":"levelo://app?vid=e5307e49-aa0c-43b7-8304-fca5c4ed23dd","ios":"levelo://app?vid=e5307e49-aa0c-43b7-8304-fca5c4ed23dd"},"vehicle_type_id":"4","last_reported":1774447849,"current_range_meters":8400,"station_id":"ce4bhh92rcd13ifvqfi0","pricing_plan_id":"cebpf4jnsgd1na2vs0mg"},{"bike_id":"6e39b0c4-42c8-4914-8d34-51e68dc37a80","system_id":"levelo_inurba_marseille","lat":43.266815,"lon":5.382715,"is_reserved":false,"is_disabled":false,"rental_uris":{"android":"levelo://app?vid=6e39b0c4-42c8-4914-8d34-51e68dc37a80","ios":"levelo://app?vid=6e39b0c4-42c8-4914-8d34-51e68dc37a80"},"vehicle_type_id":"4","last_reported":1774447849,"current_range_meters":8400,"station_id":"ce4bhg92rcd13ifvqf90","pricing_plan_id":"cebpf4jnsgd1na2vs0mg"},{"bike_id":"93898619-ec06-4199-91fd-e195b738998f","system_id":"levelo_inurba_marseille","lat":43.24176,"lon":5.36395,"is_reserved":false,"is_disabled":false,"rental_uris":{"android":"levelo://app?vid=93898619-ec06-4199-91fd-e195b738998f","ios":"levelo://app?vid=93898619-ec06-4199-91fd-e195b738998f"},"vehicle_type_id":"4","last_reported":1774447849,"current_range_meters":8400,"station_id":"cpo36qri1sfpv3e86is0","pricing_plan_id":"cebpf4jnsgd1na2vs0mg"},{"bike_id":"29a9597c-4485-4e3e-a002-8905a0247a1d","system_id":"levelo_inurba_marseille","lat":43.26549,"lon":5.37275,"is_reserved":false,"is_disabled":false,"rental_uris":{"android":"levelo://app?vid=29a9597c-4485-4e3e-a002-8905a0247a1d","ios":"levelo://app?vid=29a9597c-4485-4e3e-a002-8905a0247a1d"},"vehicle_type_id":"4","last_reported":1774447849,"current_range_meters":8400,"station_id":"ce4bhg12rcd13ifvqf70","pricing_plan_id":"cebpf4jnsgd1na2vs0mg"},{"bike_id":"b9d157e4-adb0-4d64-b93d-349f42c39fcf","system_id":"levelo_inurba_marseille","lat":43.31907,"lon":5.36778,"is_reserved":false,"is_disabled":false,"rental_uris":{"android":"levelo://app?vid=b9d157e4-adb0-4d64-b93d-349f42c39fcf","ios":"levelo://app?vid=b9d157e4-adb0-4d64-b93d-349f42c39fcf"},"vehicle_type_id":"4","last_reported":1774447849,"current_range_meters":8400,"station_id":"st_d6o2h0d0559c73evc1b0","pricing_plan_id":"cebpf4jnsgd1na2vs0mg"},{"bike_id":"b492a63d-4a67-405d-9305-0d8d7bf8a5e5","system_id":"levelo_inurba_marseille","lat":43.21185,"lon":5.3507,"is_reserved":false,"is_disabled":false,"rental_uris":{"android":"levelo://app?vid=b492a63d-4a67-405d-9305-0d8d7bf8a5e5","ios":"levelo://app?vid=b492a63d-4a67-405d-9305-0d8d7bf8a5e5"},"vehicle_type_id":"4","last_reported":1774447849,"current_range_meters":8400,"station_id":"st_cvj6sg6p6f1abm77japg","pricing_plan_id":"cebpf4jnsgd1na2vs0mg"},{"bike_id":"282b425a-1212-40f1-a144-c14e9b7839b0","system_id":"levelo_inurba_marseille","lat":43.30154,"lon":5.38076,"is_reserved":false,"is_disabled":false,"rental_uris":{"android":"levelo://app?vid=282b425a-1212-40f1-a144-c14e9b7839b0","ios":"levelo://app?vid=282b425a-1212-40f1-a144-c14e9b7839b0"},"vehicle_type_id":"4","last_reported":1774447849,"current_range_meters":8800,"station_id":"ce4bgjp2rcd13ifvqbh0","pricing_plan_id":"cebpf4jnsgd1na2vs0mg"},{"bike_id":"5ec79b4e-9893-4c40-8854-29e1fdef2ce2","system_id":"levelo_inurba_marseille","lat":43.3188,"lon":5.36808,"is_reserved":false,"is_disabled":false,"rental_uris":{"android":"levelo://app?vid=5ec79b4e-9893-4c40-8854-29e1fdef2ce2","ios":"levelo://app?vid=5ec79b4e-9893-4c40-8854-29e1fdef2ce2"},"vehicle_type_id":"4","last_reported":1774447849,"current_range_meters":8800,"station_id":"st_d6o2h0d0559c73evc1b0","pricing_plan_id":"cebpf4jnsgd1na2vs0mg"},{"bike_id":"bc7370d4-acab-4330-b95d-56ba0a70ec18","system_id":"levelo_inurba_marseille","lat":43.24668,"lon":5.3815,"is_reserved":false,"is_disabled":false,"rental_uris":{"android":"levelo://app?vid=bc7370d4-acab-4330-b95d-56ba0a70ec18","ios":"levelo://app?vid=bc7370d4-acab-4330-b95d-56ba0a70ec18"},"vehicle_type_id":"4","last_reported":1774447849,"current_range_meters":8800,"station_id":"ce4bhih2rcd13ifvqfr0","pricing_plan_id":"cebpf4jnsgd1na2vs0mg"},{"bike_id":"6317d1ff-9560-4cff-bff3-c9064c865413","system_id":"levelo_inurba_marseille","lat":43.27814,"lon":5.40699,"is_reserved":false,"is_disabled":false,"rental_uris":{"android":"levelo://app?vid=6317d1ff-9560-4cff-bff3-c9064c865413","ios":"levelo://app?vid=6317d1ff-9560-4cff-bff3-c9064c865413"},"vehicle_type_id":"4","last_reported":1774447849,"current_range_meters":8800,"station_id":"ce4bhnh2rcd13ifvqgtg","pricing_plan_id":"cebpf4jnsgd1na2vs0mg"},{"bike_id":"218342cb-e0a0-46c2-9c63-087d0ffa9744","system_id":"levelo_inurba_marseille","lat":43.26365,"lon":5.41077,"is_reserved":false,"is_disabled":false,"rental_uris":{"android":"levelo://app?vid=218342cb-e0a0-46c2-9c63-087d0ffa9744","ios":"levelo://app?vid=218342cb-e0a0-46c2-9c63-087d0ffa9744"},"vehicle_type_id":"4","last_reported":1774447849,"current_range_meters":8800,"station_id":"st_d4e5ca6na9uc73bfl5fg","pricing_plan_id":"cebpf4jnsgd1na2vs0mg"},{"bike_id":"a20bca81-a392-424e-a85c-bf79f4eb1a7b","system_id":"levelo_inurba_marseille","lat":43.23777,"lon":5.36633,"is_reserved":false,"is_disabled":false,"rental_uris":{"android":"levelo://app?vid=a20bca81-a392-424e-a85c-bf79f4eb1a7b","ios":"levelo://app?vid=a20bca81-a392-424e-a85c-bf79f4eb1a7b"},"vehicle_type_id":"4","last_reported":1774447849,"current_range_meters":8800,"station_id":"st_d3nk18o9ro0c73en2l3g","pricing_plan_id":"cebpf4jnsgd1na2vs0mg"},{"bike_id":"01382b8e-6077-4776-a410-b6df05bc3804","system_id":"levelo_inurba_marseille","lat":43.27324,"lon":5.39063,"is_reserved":false,"is_disabled":true,"rental_uris":{"android":"levelo://app?vid=01382b8e-6077-4776-a410-b6df05bc3804","ios":"levelo://app?vid=01382b8e-6077-4776-a410-b6df05bc3804"},"vehicle_type_id":"4","last_reported":1774447849,"current_range_meters":8800,"station_id":"ce4bhgp2rcd13ifvqfe0","pricing_plan_id":"cebpf4jnsgd1na2vs0mg"},{"bike_id":"9aa5c4cd-1e18-467c-891f-07f75dc5bc0c","system_id":"levelo_inurba_marseille","lat":43.30506,"lon":5.3654,"is_reserved":false,"is_disabled":false,"rental_uris":{"android":"levelo://app?vid=9aa5c4cd-1e18-467c-891f-07f75dc5bc0c","ios":"levelo://app?vid=9aa5c4cd-1e18-467c-891f-07f75dc5bc0c"},"vehicle_type_id":"4","last_reported":1774447849,"current_range_meters":8800,"station_id":"ce4bgs12rcd13ifvqcag","pricing_plan_id":"cebpf4jnsgd1na2vs0mg"},{"bike_id":"9a8960b3-d25e-4551-8e28-b39f62740562","system_id":"levelo_inurba_marseille","lat":43.33556,"lon":5.37449,"is_reserved":false,"is_disabled":false,"rental_uris":{"android":"levelo://app?vid=9a8960b3-d25e-4551-8e28-b39f62740562","ios":"levelo://app?vid=9a8960b3-d25e-4551-8e28-b39f62740562"},"vehicle_type_id":"4","last_reported":1774447849,"current_range_meters":8800,"station_id":"st_d46tts09ee8s73dlu43g","pricing_plan_id":"cebpf4jnsgd1na2vs0mg"},{"bike_id":"2d82e00d-2416-4df6-ac06-d3c32abe1da9","system_id":"levelo_inurba_marseille","lat":43.26197,"lon":5.37934,"is_reserved":false,"is_disabled":false,"rental_uris":{"android":"levelo://app?vid=2d82e00d-2416-4df6-ac06-d3c32abe1da9","ios":"levelo://app?vid=2d82e00d-2416-4df6-ac06-d3c32abe1da9"},"vehicle_type_id":"4","last_reported":1774447849,"current_range_meters":8800,"station_id":"ce4bhjp2rcd13ifvqg90","pricing_plan_id":"cebpf4jnsgd1na2vs0mg"},{"bike_id":"872c2a3e-f902-4424-975b-d797696b281b","system_id":"levelo_inurba_marseille","lat":43.26772,"lon":5.39418,"is_reserved":false,"is_disabled":false,"rental_uris":{"android":"levelo://app?vid=872c2a3e-f902-4424-975b-d797696b281b","ios":"levelo://app?vid=872c2a3e-f902-4424-975b-d797696b281b"},"vehicle_type_id":"4","last_reported":1774447849,"current_range_meters":8800,"station_id":"ce4bhh12rcd13ifvqfg0","pricing_plan_id":"cebpf4jnsgd1na2vs0mg"},{"bike_id":"47dd47d3-069b-44b7-9b23-4d51871ff836","system_id":"levelo_inurba_marseille","lat":43.25489,"lon":5.37771,"is_reserved":false,"is_disabled":false,"rental_uris":{"android":"levelo://app?vid=47dd47d3-069b-44b7-9b23-4d51871ff836","ios":"levelo://app?vid=47dd47d3-069b-44b7-9b23-4d51871ff836"},"vehicle_type_id":"4","last_reported":1774447849,"current_range_meters":8800,"station_id":"","pricing_plan_id":"cebpf4jnsgd1na2vs0mg"},{"bike_id":"265c1a7e-ea64-47f3-959e-c623f30cf0fd","system_id":"levelo_inurba_marseille","lat":43.211932,"lon":5.350764,"is_reserved":false,"is_disabled":false,"rental_uris":{"android":"levelo://app?vid=265c1a7e-ea64-47f3-959e-c623f30cf0fd","ios":"levelo://app?vid=265c1a7e-ea64-47f3-959e-c623f30cf0fd"},"vehicle_type_id":"4","last_reported":1774447849,"current_range_meters":8800,"station_id":"st_cvj6sg6p6f1abm77japg","pricing_plan_id":"cebpf4jnsgd1na2vs0mg"},{"bike_id":"3a2d7079-a53a-4207-8597-4b5271971c69","system_id":"levelo_inurba_marseille","lat":43.2593,"lon":5.40897,"is_reserved":false,"is_disabled":false,"rental_uris":{"android":"levelo://app?vid=3a2d7079-a53a-4207-8597-4b5271971c69","ios":"levelo://app?vid=3a2d7079-a53a-4207-8597-4b5271971c69"},"vehicle_type_id":"4","last_reported":1774447849,"current_range_meters":8800,"station_id":"ce4bhm92rcd13ifvqglg","pricing_plan_id":"cebpf4jnsgd1na2vs0mg"},{"bike_id":"1b627dd7-d071-4a06-8f09-aadb194ffd03","system_id":"levelo_inurba_marseille","lat":43.30195,"lon":5.3804,"is_reserved":false,"is_disabled":false,"rental_uris":{"android":"levelo://app?vid=1b627dd7-d071-4a06-8f09-aadb194ffd03","ios":"levelo://app?vid=1b627dd7-d071-4a06-8f09-aadb194ffd03"},"vehicle_type_id":"4","last_reported":1774447849,"current_range_meters":8800,"station_id":"","pricing_plan_id":"cebpf4jnsgd1na2vs0mg"},{"bike_id":"7478743c-2bbe-40ae-96f4-fbb0859d0ef1","system_id":"levelo_inurba_marseille","lat":43.32466,"lon":5.36563,"is_reserved":false,"is_disabled":false,"rental_uris":{"android":"levelo://app?vid=7478743c-2bbe-40ae-96f4-fbb0859d0ef1","ios":"levelo://app?vid=7478743c-2bbe-40ae-96f4-fbb0859d0ef1"},"vehicle_type_id":"4","last_reported":1774447849,"current_range_meters":8800,"station_id":"ce4bhs12rcd13ifvqhvg","pricing_plan_id":"cebpf4jnsgd1na2vs0mg"},{"bike_id":"46120e68-7222-4af8-b27a-b3a0722d09c6","system_id":"levelo_inurba_marseille","lat":43.28656,"lon":5.36349,"is_reserved":false,"is_disabled":true,"rental_uris":{"android":"levelo://app?vid=46120e68-7222-4af8-b27a-b3a0722d09c6","ios":"levelo://app?vid=46120e68-7222-4af8-b27a-b3a0722d09c6"},"vehicle_type_id":"4","last_reported":1774447849,"current_range_meters":8800,"station_id":"ce4bhah2rcd13ifvqej0","pricing_plan_id":"cebpf4jnsgd1na2vs0mg"},{"bike_id":"23df3e5a-7ead-49a3-8ada-d88d3437a8db","system_id":"levelo_inurba_marseille","lat":43.31303,"lon":5.40283,"is_reserved":false,"is_disabled":false,"rental_uris":{"android":"levelo://app?vid=23df3e5a-7ead-49a3-8ada-d88d3437a8db","ios":"levelo://app?vid=23df3e5a-7ead-49a3-8ada-d88d3437a8db"},"vehicle_type_id":"4","last_reported":1774447849,"current_range_meters":8800,"station_id":"","pricing_plan_id":"cebpf4jnsgd1na2vs0mg"},{"bike_id":"944ccb07-d804-4fc6-a8e4-922126b7215b","system_id":"levelo_inurba_marseille","lat":43.29947,"lon":5.371,"is_reserved":false,"is_disabled":false,"rental_uris":{"android":"levelo://app?vid=944ccb07-d804-4fc6-a8e4-922126b7215b","ios":"levelo://app?vid=944ccb07-d804-4fc6-a8e4-922126b7215b"},"vehicle_type_id":"4","last_reported":1774447849,"current_range_meters":8800,"station_id":"","pricing_plan_id":"cebpf4jnsgd1na2vs0mg"},{"bike_id":"0d1752c9-3429-40ed-a487-bb9cb7d22fbc","system_id":"levelo_inurba_marseille","lat":43.212,"lon":5.35064,"is_reserved":false,"is_disabled":false,"rental_uris":{"android":"levelo://app?vid=0d1752c9-3429-40ed-a487-bb9cb7d22fbc","ios":"levelo://app?vid=0d1752c9-3429-40ed-a487-bb9cb7d22fbc"},"vehicle_type_id":"4","last_reported":1774447849,"current_range_meters":8800,"station_id":"","pricing_plan_id":"cebpf4jnsgd1na2vs0mg"},{"bike_id":"84aa80cd-58bb-494c-ae1e-b9b2f2564c94","system_id":"levelo_inurba_marseille","lat":43.21207,"lon":5.35051,"is_reserved":false,"is_disabled":false,"rental_uris":{"android":"levelo://app?vid=84aa80cd-58bb-494c-ae1e-b9b2f2564c94","ios":"levelo://app?vid=84aa80cd-58bb-494c-ae1e-b9b2f2564c94"},"vehicle_type_id":"4","last_reported":1774447849,"current_range_meters":8800,"station_id":"","pricing_plan_id":"cebpf4jnsgd1na2vs0mg"},{"bike_id":"50fdac31-5e33-4366-8748-02cde82901e6","system_id":"levelo_inurba_marseille","lat":43.23128,"lon":5.43696,"is_reserved":false,"is_disabled":false,"rental_uris":{"android":"levelo://app?vid=50fdac31-5e33-4366-8748-02cde82901e6","ios":"levelo://app?vid=50fdac31-5e33-4366-8748-02cde82901e6"},"vehicle_type_id":"4","last_reported":1774447849,"current_range_meters":8800,"station_id":"ce4bhmp2rcd13ifvqgog","pricing_plan_id":"cebpf4jnsgd1na2vs0mg"},{"bike_id":"7c31a5b6-a1b9-41e2-a9e3-78b489e35943","system_id":"levelo_inurba_marseille","lat":43.21195,"lon":5.35077,"is_reserved":false,"is_disabled":false,"rental_uris":{"android":"levelo://app?vid=7c31a5b6-a1b9-41e2-a9e3-78b489e35943","ios":"levelo://app?vid=7c31a5b6-a1b9-41e2-a9e3-78b489e35943"},"vehicle_type_id":"4","last_reported":1774447849,"current_range_meters":8800,"station_id":"st_cvj6sg6p6f1abm77japg","pricing_plan_id":"cebpf4jnsgd1na2vs0mg"},{"bike_id":"68574f64-abe4-4afb-a280-27fa21ebd0d5","system_id":"levelo_inurba_marseille","lat":43.25931,"lon":5.40906,"is_reserved":false,"is_disabled":false,"rental_uris":{"android":"levelo://app?vid=68574f64-abe4-4afb-a280-27fa21ebd0d5","ios":"levelo://app?vid=68574f64-abe4-4afb-a280-27fa21ebd0d5"},"vehicle_type_id":"4","last_reported":1774447849,"current_range_meters":9200,"station_id":"ce4bhm92rcd13ifvqglg","pricing_plan_id":"cebpf4jnsgd1na2vs0mg"},{"bike_id":"742ca053-a063-4e48-baca-0cee52277e18","system_id":"levelo_inurba_marseille","lat":43.27057,"lon":5.38271,"is_reserved":false,"is_disabled":true,"rental_uris":{"android":"levelo://app?vid=742ca053-a063-4e48-baca-0cee52277e18","ios":"levelo://app?vid=742ca053-a063-4e48-baca-0cee52277e18"},"vehicle_type_id":"4","last_reported":1774447849,"current_range_meters":9200,"station_id":"st_d3n2fo6cfp8s73cte1j0","pricing_plan_id":"cebpf4jnsgd1na2vs0mg"},{"bike_id":"65da9330-c19a-498b-9f24-e99ba36e921a","system_id":"levelo_inurba_marseille","lat":43.30539,"lon":5.36511,"is_reserved":false,"is_disabled":false,"rental_uris":{"android":"levelo://app?vid=65da9330-c19a-498b-9f24-e99ba36e921a","ios":"levelo://app?vid=65da9330-c19a-498b-9f24-e99ba36e921a"},"vehicle_type_id":"4","last_reported":1774447849,"current_range_meters":9200,"station_id":"ce4bgs12rcd13ifvqcag","pricing_plan_id":"cebpf4jnsgd1na2vs0mg"},{"bike_id":"e1353c27-9dbc-409c-b44a-76842076b63d","system_id":"levelo_inurba_marseille","lat":43.28871,"lon":5.42526,"is_reserved":false,"is_disabled":false,"rental_uris":{"android":"levelo://app?vid=e1353c27-9dbc-409c-b44a-76842076b63d","ios":"levelo://app?vid=e1353c27-9dbc-409c-b44a-76842076b63d"},"vehicle_type_id":"4","last_reported":1774447849,"current_range_meters":9200,"station_id":"st_d3b462108ojc7389ooeg","pricing_plan_id":"cebpf4jnsgd1na2vs0mg"},{"bike_id":"be0d328d-5560-4744-9601-5542473973cf","system_id":"levelo_inurba_marseille","lat":43.2466,"lon":5.38882,"is_reserved":false,"is_disabled":false,"rental_uris":{"android":"levelo://app?vid=be0d328d-5560-4744-9601-5542473973cf","ios":"levelo://app?vid=be0d328d-5560-4744-9601-5542473973cf"},"vehicle_type_id":"4","last_reported":1774447849,"current_range_meters":9200,"station_id":"ce4bhg12rcd13ifvqf60","pricing_plan_id":"cebpf4jnsgd1na2vs0mg"},{"bike_id":"fcbe203d-af19-4d83-b7b4-28e64123e75a","system_id":"levelo_inurba_marseille","lat":43.29278,"lon":5.36864,"is_reserved":false,"is_disabled":false,"rental_uris":{"android":"levelo://app?vid=fcbe203d-af19-4d83-b7b4-28e64123e75a","ios":"levelo://app?vid=fcbe203d-af19-4d83-b7b4-28e64123e75a"},"vehicle_type_id":"4","last_reported":1774447849,"current_range_meters":9200,"station_id":"ce4bhbp2rcd13ifvqesg","pricing_plan_id":"cebpf4jnsgd1na2vs0mg"},{"bike_id":"049c95b2-a549-483c-9a27-32c81e859843","system_id":"levelo_inurba_marseille","lat":43.31481,"lon":5.37306,"is_reserved":false,"is_disabled":false,"rental_uris":{"android":"levelo://app?vid=049c95b2-a549-483c-9a27-32c81e859843","ios":"levelo://app?vid=049c95b2-a549-483c-9a27-32c81e859843"},"vehicle_type_id":"4","last_reported":1774447849,"current_range_meters":9200,"station_id":"ce4bgt12rcd13ifvqcd0","pricing_plan_id":"cebpf4jnsgd1na2vs0mg"},{"bike_id":"de387f06-430d-4a21-b0d3-0639cb2d1ba5","system_id":"levelo_inurba_marseille","lat":43.28463,"lon":5.35879,"is_reserved":false,"is_disabled":false,"rental_uris":{"android":"levelo://app?vid=de387f06-430d-4a21-b0d3-0639cb2d1ba5","ios":"levelo://app?vid=de387f06-430d-4a21-b0d3-0639cb2d1ba5"},"vehicle_type_id":"4","last_reported":1774447849,"current_range_meters":9200,"station_id":"ce4bhah2rcd13ifvqei0","pricing_plan_id":"cebpf4jnsgd1na2vs0mg"},{"bike_id":"48a42ab9-4f90-4b86-8ff4-3430deb5618d","system_id":"levelo_inurba_marseille","lat":43.32472,"lon":5.36565,"is_reserved":false,"is_disabled":false,"rental_uris":{"android":"levelo://app?vid=48a42ab9-4f90-4b86-8ff4-3430deb5618d","ios":"levelo://app?vid=48a42ab9-4f90-4b86-8ff4-3430deb5618d"},"vehicle_type_id":"4","last_reported":1774447849,"current_range_meters":9200,"station_id":"ce4bhs12rcd13ifvqhvg","pricing_plan_id":"cebpf4jnsgd1na2vs0mg"},{"bike_id":"7c367541-87a0-44b6-b518-c9f712651281","system_id":"levelo_inurba_marseille","lat":43.28397,"lon":5.34999,"is_reserved":false,"is_disabled":false,"rental_uris":{"android":"levelo://app?vid=7c367541-87a0-44b6-b518-c9f712651281","ios":"levelo://app?vid=7c367541-87a0-44b6-b518-c9f712651281"},"vehicle_type_id":"4","last_reported":1774447849,"current_range_meters":9200,"station_id":"ce4bhbh2rcd13ifvqepg","pricing_plan_id":"cebpf4jnsgd1na2vs0mg"},{"bike_id":"6f1933b6-62e3-4fe3-a71b-d8b1f30812ee","system_id":"levelo_inurba_marseille","lat":43.23126,"lon":5.43691,"is_reserved":false,"is_disabled":false,"rental_uris":{"android":"levelo://app?vid=6f1933b6-62e3-4fe3-a71b-d8b1f30812ee","ios":"levelo://app?vid=6f1933b6-62e3-4fe3-a71b-d8b1f30812ee"},"vehicle_type_id":"4","last_reported":1774447849,"current_range_meters":9200,"station_id":"ce4bhmp2rcd13ifvqgog","pricing_plan_id":"cebpf4jnsgd1na2vs0mg"},{"bike_id":"535818a7-1b0b-418d-9895-d57ed89f9151","system_id":"levelo_inurba_marseille","lat":43.28719,"lon":5.37941,"is_reserved":false,"is_disabled":false,"rental_uris":{"android":"levelo://app?vid=535818a7-1b0b-418d-9895-d57ed89f9151","ios":"levelo://app?vid=535818a7-1b0b-418d-9895-d57ed89f9151"},"vehicle_type_id":"4","last_reported":1774447849,"current_range_meters":9600,"station_id":"ce4bh9p2rcd13ifvqec0","pricing_plan_id":"cebpf4jnsgd1na2vs0mg"},{"bike_id":"3c506157-f1c2-47cf-891f-e540401fcf63","system_id":"levelo_inurba_marseille","lat":43.33535,"lon":5.37453,"is_reserved":false,"is_disabled":false,"rental_uris":{"android":"levelo://app?vid=3c506157-f1c2-47cf-891f-e540401fcf63","ios":"levelo://app?vid=3c506157-f1c2-47cf-891f-e540401fcf63"},"vehicle_type_id":"4","last_reported":1774447849,"current_range_meters":9600,"station_id":"st_d46tts09ee8s73dlu43g","pricing_plan_id":"cebpf4jnsgd1na2vs0mg"},{"bike_id":"d896d699-3ac7-4823-b169-2267a272f07c","system_id":"levelo_inurba_marseille","lat":43.258236,"lon":5.394396,"is_reserved":false,"is_disabled":false,"rental_uris":{"android":"levelo://app?vid=d896d699-3ac7-4823-b169-2267a272f07c","ios":"levelo://app?vid=d896d699-3ac7-4823-b169-2267a272f07c"},"vehicle_type_id":"4","last_reported":1774447849,"current_range_meters":9600,"station_id":"ce4bhip2rcd13ifvqft0","pricing_plan_id":"cebpf4jnsgd1na2vs0mg"},{"bike_id":"33a8bfd1-905b-442f-b4a3-c09834460501","system_id":"levelo_inurba_marseille","lat":43.25115,"lon":5.40281,"is_reserved":false,"is_disabled":false,"rental_uris":{"android":"levelo://app?vid=33a8bfd1-905b-442f-b4a3-c09834460501","ios":"levelo://app?vid=33a8bfd1-905b-442f-b4a3-c09834460501"},"vehicle_type_id":"4","last_reported":1774447849,"current_range_meters":9600,"station_id":"ce4bhlh2rcd13ifvqgig","pricing_plan_id":"cebpf4jnsgd1na2vs0mg"},{"bike_id":"7b14eb8d-a6da-4113-9388-98f8c778334b","system_id":"levelo_inurba_marseille","lat":43.2551,"lon":5.37632,"is_reserved":false,"is_disabled":false,"rental_uris":{"android":"levelo://app?vid=7b14eb8d-a6da-4113-9388-98f8c778334b","ios":"levelo://app?vid=7b14eb8d-a6da-4113-9388-98f8c778334b"},"vehicle_type_id":"4","last_reported":1774447849,"current_range_meters":9600,"station_id":"ce4bhh12rcd13ifvqff0","pricing_plan_id":"cebpf4jnsgd1na2vs0mg"},{"bike_id":"5bc43f30-6963-4453-8ac4-db55ae357976","system_id":"levelo_inurba_marseille","lat":43.321905,"lon":5.367678,"is_reserved":false,"is_disabled":false,"rental_uris":{"android":"levelo://app?vid=5bc43f30-6963-4453-8ac4-db55ae357976","ios":"levelo://app?vid=5bc43f30-6963-4453-8ac4-db55ae357976"},"vehicle_type_id":"4","last_reported":1774447849,"current_range_meters":9600,"station_id":"ce4bhs12rcd13ifvqhvg","pricing_plan_id":"cebpf4jnsgd1na2vs0mg"},{"bike_id":"a9ed9ea7-fea0-45aa-9529-734693a98cf2","system_id":"levelo_inurba_marseille","lat":43.23783,"lon":5.36636,"is_reserved":false,"is_disabled":false,"rental_uris":{"android":"levelo://app?vid=a9ed9ea7-fea0-45aa-9529-734693a98cf2","ios":"levelo://app?vid=a9ed9ea7-fea0-45aa-9529-734693a98cf2"},"vehicle_type_id":"4","last_reported":1774447849,"current_range_meters":9600,"station_id":"st_d3nk18o9ro0c73en2l3g","pricing_plan_id":"cebpf4jnsgd1na2vs0mg"},{"bike_id":"4eebdffa-846b-42bf-aa89-be20c25ce345","system_id":"levelo_inurba_marseille","lat":43.28463,"lon":5.359,"is_reserved":false,"is_disabled":true,"rental_uris":{"android":"levelo://app?vid=4eebdffa-846b-42bf-aa89-be20c25ce345","ios":"levelo://app?vid=4eebdffa-846b-42bf-aa89-be20c25ce345"},"vehicle_type_id":"4","last_reported":1774447849,"current_range_meters":9600,"station_id":"ce4bhah2rcd13ifvqei0","pricing_plan_id":"cebpf4jnsgd1na2vs0mg"},{"bike_id":"44cc2c8d-76ca-44f4-a82f-aefe90c07d8b","system_id":"levelo_inurba_marseille","lat":43.33598,"lon":5.41031,"is_reserved":false,"is_disabled":false,"rental_uris":{"android":"levelo://app?vid=44cc2c8d-76ca-44f4-a82f-aefe90c07d8b","ios":"levelo://app?vid=44cc2c8d-76ca-44f4-a82f-aefe90c07d8b"},"vehicle_type_id":"4","last_reported":1774447849,"current_range_meters":9600,"station_id":"ce4bhqh2rcd13ifvqhmg","pricing_plan_id":"cebpf4jnsgd1na2vs0mg"},{"bike_id":"9a1b7562-5c14-4853-ad31-a4b1e826c8d0","system_id":"levelo_inurba_marseille","lat":43.22548,"lon":5.41616,"is_reserved":false,"is_disabled":false,"rental_uris":{"android":"levelo://app?vid=9a1b7562-5c14-4853-ad31-a4b1e826c8d0","ios":"levelo://app?vid=9a1b7562-5c14-4853-ad31-a4b1e826c8d0"},"vehicle_type_id":"4","last_reported":1774447849,"current_range_meters":9600,"station_id":"st_d2o4gvlbi1j2169b742g","pricing_plan_id":"cebpf4jnsgd1na2vs0mg"},{"bike_id":"40f94c7f-cd43-4484-8ceb-33d26d6a8519","system_id":"levelo_inurba_marseille","lat":43.29296,"lon":5.37176,"is_reserved":false,"is_disabled":false,"rental_uris":{"android":"levelo://app?vid=40f94c7f-cd43-4484-8ceb-33d26d6a8519","ios":"levelo://app?vid=40f94c7f-cd43-4484-8ceb-33d26d6a8519"},"vehicle_type_id":"4","last_reported":1774447849,"current_range_meters":9600,"station_id":"ce4bgh92rcd13ifvqb40","pricing_plan_id":"cebpf4jnsgd1na2vs0mg"},{"bike_id":"6dec5835-0db9-4985-9199-19da0c021f21","system_id":"levelo_inurba_marseille","lat":43.30678,"lon":5.37059,"is_reserved":false,"is_disabled":false,"rental_uris":{"android":"levelo://app?vid=6dec5835-0db9-4985-9199-19da0c021f21","ios":"levelo://app?vid=6dec5835-0db9-4985-9199-19da0c021f21"},"vehicle_type_id":"4","last_reported":1774447849,"current_range_meters":9600,"station_id":"","pricing_plan_id":"cebpf4jnsgd1na2vs0mg"},{"bike_id":"effad8c5-355c-47e4-befd-14c78f79379a","system_id":"levelo_inurba_marseille","lat":43.31262,"lon":5.36823,"is_reserved":false,"is_disabled":false,"rental_uris":{"android":"levelo://app?vid=effad8c5-355c-47e4-befd-14c78f79379a","ios":"levelo://app?vid=effad8c5-355c-47e4-befd-14c78f79379a"},"vehicle_type_id":"4","last_reported":1774447849,"current_range_meters":9600,"station_id":"ce4bgl92rcd13ifvqbq0","pricing_plan_id":"cebpf4jnsgd1na2vs0mg"},{"bike_id":"2dff1b50-0ad4-4bf0-b506-0d0736c3c696","system_id":"levelo_inurba_marseille","lat":43.30652,"lon":5.37705,"is_reserved":false,"is_disabled":false,"rental_uris":{"android":"levelo://app?vid=2dff1b50-0ad4-4bf0-b506-0d0736c3c696","ios":"levelo://app?vid=2dff1b50-0ad4-4bf0-b506-0d0736c3c696"},"vehicle_type_id":"4","last_reported":1774447849,"current_range_meters":9600,"station_id":"","pricing_plan_id":"cebpf4jnsgd1na2vs0mg"},{"bike_id":"52a2b77d-b5b1-4c9d-8945-8dc44e6464ba","system_id":"levelo_inurba_marseille","lat":43.25351,"lon":5.42587,"is_reserved":false,"is_disabled":false,"rental_uris":{"android":"levelo://app?vid=52a2b77d-b5b1-4c9d-8945-8dc44e6464ba","ios":"levelo://app?vid=52a2b77d-b5b1-4c9d-8945-8dc44e6464ba"},"vehicle_type_id":"4","last_reported":1774447849,"current_range_meters":9600,"station_id":"","pricing_plan_id":"cebpf4jnsgd1na2vs0mg"},{"bike_id":"c2b5e0d1-236b-4545-9c7c-f1be2e7cd745","system_id":"levelo_inurba_marseille","lat":43.28365,"lon":5.38815,"is_reserved":false,"is_disabled":false,"rental_uris":{"android":"levelo://app?vid=c2b5e0d1-236b-4545-9c7c-f1be2e7cd745","ios":"levelo://app?vid=c2b5e0d1-236b-4545-9c7c-f1be2e7cd745"},"vehicle_type_id":"4","last_reported":1774447849,"current_range_meters":10000,"station_id":"","pricing_plan_id":"cebpf4jnsgd1na2vs0mg"},{"bike_id":"4fd7a21b-8222-458b-90c8-521c0766d345","system_id":"levelo_inurba_marseille","lat":43.32656,"lon":5.40995,"is_reserved":false,"is_disabled":false,"rental_uris":{"android":"levelo://app?vid=4fd7a21b-8222-458b-90c8-521c0766d345","ios":"levelo://app?vid=4fd7a21b-8222-458b-90c8-521c0766d345"},"vehicle_type_id":"4","last_reported":1774447849,"current_range_meters":10000,"station_id":"ce4bhpp2rcd13ifvqhgg","pricing_plan_id":"cebpf4jnsgd1na2vs0mg"},{"bike_id":"a4dcf628-2c33-4464-82ad-f178ae637008","system_id":"levelo_inurba_marseille","lat":43.29814,"lon":5.4406,"is_reserved":false,"is_disabled":false,"rental_uris":{"android":"levelo://app?vid=a4dcf628-2c33-4464-82ad-f178ae637008","ios":"levelo://app?vid=a4dcf628-2c33-4464-82ad-f178ae637008"},"vehicle_type_id":"4","last_reported":1774447849,"current_range_meters":10000,"station_id":"st_d3jp68qikq2c7381ktn0","pricing_plan_id":"cebpf4jnsgd1na2vs0mg"},{"bike_id":"a99716b7-1611-453a-b855-322e6a5a0ea3","system_id":"levelo_inurba_marseille","lat":43.23976,"lon":5.36621,"is_reserved":false,"is_disabled":false,"rental_uris":{"android":"levelo://app?vid=a99716b7-1611-453a-b855-322e6a5a0ea3","ios":"levelo://app?vid=a99716b7-1611-453a-b855-322e6a5a0ea3"},"vehicle_type_id":"4","last_reported":1774447849,"current_range_meters":10000,"station_id":"ce4bhi12rcd13ifvqfp0","pricing_plan_id":"cebpf4jnsgd1na2vs0mg"},{"bike_id":"fd14c4cc-fd20-4465-9b78-114c2fa3cf56","system_id":"levelo_inurba_marseille","lat":43.28663,"lon":5.38653,"is_reserved":false,"is_disabled":false,"rental_uris":{"android":"levelo://app?vid=fd14c4cc-fd20-4465-9b78-114c2fa3cf56","ios":"levelo://app?vid=fd14c4cc-fd20-4465-9b78-114c2fa3cf56"},"vehicle_type_id":"4","last_reported":1774447849,"current_range_meters":10000,"station_id":"ce4bh492rcd13ifvqdug","pricing_plan_id":"cebpf4jnsgd1na2vs0mg"},{"bike_id":"5cb40693-f331-4f63-8992-48e2acd8d7c8","system_id":"levelo_inurba_marseille","lat":43.21753,"lon":5.34603,"is_reserved":false,"is_disabled":false,"rental_uris":{"android":"levelo://app?vid=5cb40693-f331-4f63-8992-48e2acd8d7c8","ios":"levelo://app?vid=5cb40693-f331-4f63-8992-48e2acd8d7c8"},"vehicle_type_id":"4","last_reported":1774447849,"current_range_meters":10000,"station_id":"st_cvj6r9ubvosntc0bgbag","pricing_plan_id":"cebpf4jnsgd1na2vs0mg"},{"bike_id":"d1d4a8c3-fbe0-4faf-87c9-bd48a4bf726f","system_id":"levelo_inurba_marseille","lat":43.30941,"lon":5.39033,"is_reserved":false,"is_disabled":false,"rental_uris":{"android":"levelo://app?vid=d1d4a8c3-fbe0-4faf-87c9-bd48a4bf726f","ios":"levelo://app?vid=d1d4a8c3-fbe0-4faf-87c9-bd48a4bf726f"},"vehicle_type_id":"4","last_reported":1774447849,"current_range_meters":10000,"station_id":"ce4bgup2rcd13ifvqco0","pricing_plan_id":"cebpf4jnsgd1na2vs0mg"},{"bike_id":"5ff9dc00-a792-4bdf-9aad-51b76b22be00","system_id":"levelo_inurba_marseille","lat":43.22562,"lon":5.41607,"is_reserved":false,"is_disabled":false,"rental_uris":{"android":"levelo://app?vid=5ff9dc00-a792-4bdf-9aad-51b76b22be00","ios":"levelo://app?vid=5ff9dc00-a792-4bdf-9aad-51b76b22be00"},"vehicle_type_id":"4","last_reported":1774447849,"current_range_meters":10000,"station_id":"st_d2o4gvlbi1j2169b742g","pricing_plan_id":"cebpf4jnsgd1na2vs0mg"},{"bike_id":"ede1a755-51bd-41d1-9c68-b4a080e0f5f1","system_id":"levelo_inurba_marseille","lat":43.29172,"lon":5.37164,"is_reserved":false,"is_disabled":false,"rental_uris":{"android":"levelo://app?vid=ede1a755-51bd-41d1-9c68-b4a080e0f5f1","ios":"levelo://app?vid=ede1a755-51bd-41d1-9c68-b4a080e0f5f1"},"vehicle_type_id":"4","last_reported":1774447849,"current_range_meters":10000,"station_id":"ce4bha92rcd13ifvqeh0","pricing_plan_id":"cebpf4jnsgd1na2vs0mg"},{"bike_id":"e48929a3-fb48-4e1c-b87c-e8c83ff0162c","system_id":"levelo_inurba_marseille","lat":43.2845,"lon":5.392,"is_reserved":false,"is_disabled":false,"rental_uris":{"android":"levelo://app?vid=e48929a3-fb48-4e1c-b87c-e8c83ff0162c","ios":"levelo://app?vid=e48929a3-fb48-4e1c-b87c-e8c83ff0162c"},"vehicle_type_id":"4","last_reported":1774447849,"current_range_meters":10000,"station_id":"ce4bhoh2rcd13ifvqh5g","pricing_plan_id":"cebpf4jnsgd1na2vs0mg"},{"bike_id":"40424783-1c7e-48f9-a72b-49017c8063b7","system_id":"levelo_inurba_marseille","lat":43.23146,"lon":5.4371,"is_reserved":false,"is_disabled":false,"rental_uris":{"android":"levelo://app?vid=40424783-1c7e-48f9-a72b-49017c8063b7","ios":"levelo://app?vid=40424783-1c7e-48f9-a72b-49017c8063b7"},"vehicle_type_id":"4","last_reported":1774447849,"current_range_meters":10000,"station_id":"ce4bhmp2rcd13ifvqgog","pricing_plan_id":"cebpf4jnsgd1na2vs0mg"},{"bike_id":"62aa2bc0-24dd-47f1-a96e-4ceaa9f69c24","system_id":"levelo_inurba_marseille","lat":43.25726,"lon":5.41114,"is_reserved":false,"is_disabled":false,"rental_uris":{"android":"levelo://app?vid=62aa2bc0-24dd-47f1-a96e-4ceaa9f69c24","ios":"levelo://app?vid=62aa2bc0-24dd-47f1-a96e-4ceaa9f69c24"},"vehicle_type_id":"4","last_reported":1774447849,"current_range_meters":10000,"station_id":"ce4bhkp2rcd13ifvqgd0","pricing_plan_id":"cebpf4jnsgd1na2vs0mg"},{"bike_id":"8cc83fff-6641-4b28-9444-fc572f4dd3c3","system_id":"levelo_inurba_marseille","lat":43.28476,"lon":5.48384,"is_reserved":false,"is_disabled":false,"rental_uris":{"android":"levelo://app?vid=8cc83fff-6641-4b28-9444-fc572f4dd3c3","ios":"levelo://app?vid=8cc83fff-6641-4b28-9444-fc572f4dd3c3"},"vehicle_type_id":"4","last_reported":1774447849,"current_range_meters":10000,"station_id":"","pricing_plan_id":"cebpf4jnsgd1na2vs0mg"},{"bike_id":"7d0ecbb1-98cc-41e3-8930-083ec0a8d5d1","system_id":"levelo_inurba_marseille","lat":43.2722,"lon":5.39168,"is_reserved":false,"is_disabled":false,"rental_uris":{"android":"levelo://app?vid=7d0ecbb1-98cc-41e3-8930-083ec0a8d5d1","ios":"levelo://app?vid=7d0ecbb1-98cc-41e3-8930-083ec0a8d5d1"},"vehicle_type_id":"4","last_reported":1774447849,"current_range_meters":10000,"station_id":"ce4bhhp2rcd13ifvqfm0","pricing_plan_id":"cebpf4jnsgd1na2vs0mg"},{"bike_id":"8855fc01-d15e-456e-820e-2a468839c9d8","system_id":"levelo_inurba_marseille","lat":43.31538,"lon":5.45366,"is_reserved":false,"is_disabled":true,"rental_uris":{"android":"levelo://app?vid=8855fc01-d15e-456e-820e-2a468839c9d8","ios":"levelo://app?vid=8855fc01-d15e-456e-820e-2a468839c9d8"},"vehicle_type_id":"4","last_reported":1774447849,"current_range_meters":10000,"station_id":"","pricing_plan_id":"cebpf4jnsgd1na2vs0mg"},{"bike_id":"6eaf8eff-41f5-4c36-9343-37f58c7a5cdc","system_id":"levelo_inurba_marseille","lat":43.24952,"lon":5.40486,"is_reserved":false,"is_disabled":false,"rental_uris":{"android":"levelo://app?vid=6eaf8eff-41f5-4c36-9343-37f58c7a5cdc","ios":"levelo://app?vid=6eaf8eff-41f5-4c36-9343-37f58c7a5cdc"},"vehicle_type_id":"4","last_reported":1774447849,"current_range_meters":10000,"station_id":"st_d2ngiaodas8pm72gd1h0","pricing_plan_id":"cebpf4jnsgd1na2vs0mg"},{"bike_id":"d2ad2d4f-cd36-4437-8917-234dd2373123","system_id":"levelo_inurba_marseille","lat":43.29208,"lon":5.35797,"is_reserved":false,"is_disabled":false,"rental_uris":{"android":"levelo://app?vid=d2ad2d4f-cd36-4437-8917-234dd2373123","ios":"levelo://app?vid=d2ad2d4f-cd36-4437-8917-234dd2373123"},"vehicle_type_id":"4","last_reported":1774447849,"current_range_meters":10000,"station_id":"ce4bhb12rcd13ifvqel0","pricing_plan_id":"cebpf4jnsgd1na2vs0mg"},