{"last_updated":1778638109,"ttl":60,"version":"2.2","data":{"bikes":[{"bike_id":"daa7168a-7e89-4c13-9120-19d3be838e10","system_id":"levelo_inurba_marseille","lat":43.28701,"lon":5.46685,"is_reserved":false,"is_disabled":false,"rental_uris":{"android":"levelo://app?vid=daa7168a-7e89-4c13-9120-19d3be838e10","ios":"levelo://app?vid=daa7168a-7e89-4c13-9120-19d3be838e10"},"vehicle_type_id":"4","last_reported":1778638109,"current_range_meters":2800,"station_id":"st_d6tc3vkotcvc738tfjhg","pricing_plan_id":"cebpf4jnsgd1na2vs0mg"},{"bike_id":"ace5f4d9-0e5e-4930-8fac-4a59d54dd29a","system_id":"levelo_inurba_marseille","lat":43.28867,"lon":5.35894,"is_reserved":false,"is_disabled":false,"rental_uris":{"android":"levelo://app?vid=ace5f4d9-0e5e-4930-8fac-4a59d54dd29a","ios":"levelo://app?vid=ace5f4d9-0e5e-4930-8fac-4a59d54dd29a"},"vehicle_type_id":"4","last_reported":1778638109,"current_range_meters":2800,"station_id":"ce4bhb12rcd13ifvqem0","pricing_plan_id":"cebpf4jnsgd1na2vs0mg"},{"bike_id":"dd5feadb-b554-4cfe-9b1d-0b0d811a7c97","system_id":"levelo_inurba_marseille","lat":43.31169,"lon":5.38717,"is_reserved":false,"is_disabled":false,"rental_uris":{"android":"levelo://app?vid=dd5feadb-b554-4cfe-9b1d-0b0d811a7c97","ios":"levelo://app?vid=dd5feadb-b554-4cfe-9b1d-0b0d811a7c97"},"vehicle_type_id":"4","last_reported":1778638109,"current_range_meters":2800,"station_id":"ce4bgv12rcd13ifvqcp0","pricing_plan_id":"cebpf4jnsgd1na2vs0mg"},{"bike_id":"62c56e7d-9a1f-4eaa-ba6e-06eb5b3ac23a","system_id":"levelo_inurba_marseille","lat":43.31164,"lon":5.3871,"is_reserved":false,"is_disabled":false,"rental_uris":{"android":"levelo://app?vid=62c56e7d-9a1f-4eaa-ba6e-06eb5b3ac23a","ios":"levelo://app?vid=62c56e7d-9a1f-4eaa-ba6e-06eb5b3ac23a"},"vehicle_type_id":"4","last_reported":1778638109,"current_range_meters":2800,"station_id":"ce4bgv12rcd13ifvqcp0","pricing_plan_id":"cebpf4jnsgd1na2vs0mg"},{"bike_id":"218d13da-7671-4767-92e4-04d15fc69aaa","system_id":"levelo_inurba_marseille","lat":43.29804,"lon":5.40561,"is_reserved":false,"is_disabled":false,"rental_uris":{"android":"levelo://app?vid=218d13da-7671-4767-92e4-04d15fc69aaa","ios":"levelo://app?vid=218d13da-7671-4767-92e4-04d15fc69aaa"},"vehicle_type_id":"4","last_reported":1778638109,"current_range_meters":2800,"station_id":"","pricing_plan_id":"cebpf4jnsgd1na2vs0mg"},{"bike_id":"e68832d8-e795-43cb-a8e8-ce75813e3ce2","system_id":"levelo_inurba_marseille","lat":43.28623,"lon":5.35105,"is_reserved":false,"is_disabled":false,"rental_uris":{"android":"levelo://app?vid=e68832d8-e795-43cb-a8e8-ce75813e3ce2","ios":"levelo://app?vid=e68832d8-e795-43cb-a8e8-ce75813e3ce2"},"vehicle_type_id":"4","last_reported":1778638109,"current_range_meters":2800,"station_id":"ce4bhch2rcd13ifvqeug","pricing_plan_id":"cebpf4jnsgd1na2vs0mg"},{"bike_id":"54d91a13-5899-47f6-bec9-71223c378664","system_id":"levelo_inurba_marseille","lat":43.28474,"lon":5.48389,"is_reserved":false,"is_disabled":false,"rental_uris":{"android":"levelo://app?vid=54d91a13-5899-47f6-bec9-71223c378664","ios":"levelo://app?vid=54d91a13-5899-47f6-bec9-71223c378664"},"vehicle_type_id":"4","last_reported":1778638109,"current_range_meters":2800,"station_id":"","pricing_plan_id":"cebpf4jnsgd1na2vs0mg"},{"bike_id":"06ac39d4-2bb2-4e2e-8edb-ba4d1f24ca3b","system_id":"levelo_inurba_marseille","lat":43.25015,"lon":5.37621,"is_reserved":false,"is_disabled":false,"rental_uris":{"android":"levelo://app?vid=06ac39d4-2bb2-4e2e-8edb-ba4d1f24ca3b","ios":"levelo://app?vid=06ac39d4-2bb2-4e2e-8edb-ba4d1f24ca3b"},"vehicle_type_id":"4","last_reported":1778638109,"current_range_meters":2800,"station_id":"","pricing_plan_id":"cebpf4jnsgd1na2vs0mg"},{"bike_id":"dc0a6e21-47dd-44a5-9f73-3b0019341943","system_id":"levelo_inurba_marseille","lat":43.30505,"lon":5.45989,"is_reserved":false,"is_disabled":false,"rental_uris":{"android":"levelo://app?vid=dc0a6e21-47dd-44a5-9f73-3b0019341943","ios":"levelo://app?vid=dc0a6e21-47dd-44a5-9f73-3b0019341943"},"vehicle_type_id":"4","last_reported":1778638109,"current_range_meters":3200,"station_id":"","pricing_plan_id":"cebpf4jnsgd1na2vs0mg"},{"bike_id":"819a3868-e86b-4761-85f7-cd647e1f51b3","system_id":"levelo_inurba_marseille","lat":43.21191,"lon":5.35091,"is_reserved":false,"is_disabled":false,"rental_uris":{"android":"levelo://app?vid=819a3868-e86b-4761-85f7-cd647e1f51b3","ios":"levelo://app?vid=819a3868-e86b-4761-85f7-cd647e1f51b3"},"vehicle_type_id":"4","last_reported":1778638109,"current_range_meters":3200,"station_id":"st_cvj6sg6p6f1abm77japg","pricing_plan_id":"cebpf4jnsgd1na2vs0mg"},{"bike_id":"dcf39c7f-7bb4-42d5-a834-c105effe387b","system_id":"levelo_inurba_marseille","lat":43.30131,"lon":5.38773,"is_reserved":false,"is_disabled":false,"rental_uris":{"android":"levelo://app?vid=dcf39c7f-7bb4-42d5-a834-c105effe387b","ios":"levelo://app?vid=dcf39c7f-7bb4-42d5-a834-c105effe387b"},"vehicle_type_id":"4","last_reported":1778638109,"current_range_meters":3200,"station_id":"ce4bghh2rcd13ifvqb60","pricing_plan_id":"cebpf4jnsgd1na2vs0mg"},{"bike_id":"0f749ae9-2e7d-44c0-911f-7e5d37b59ba6","system_id":"levelo_inurba_marseille","lat":43.2781,"lon":5.39216,"is_reserved":false,"is_disabled":false,"rental_uris":{"android":"levelo://app?vid=0f749ae9-2e7d-44c0-911f-7e5d37b59ba6","ios":"levelo://app?vid=0f749ae9-2e7d-44c0-911f-7e5d37b59ba6"},"vehicle_type_id":"4","last_reported":1778638109,"current_range_meters":3200,"station_id":"ce4bhjp2rcd13ifvqga0","pricing_plan_id":"cebpf4jnsgd1na2vs0mg"},{"bike_id":"cae26834-e4a2-4a93-bd9d-4b814d7fec01","system_id":"levelo_inurba_marseille","lat":43.33051,"lon":5.36564,"is_reserved":false,"is_disabled":false,"rental_uris":{"android":"levelo://app?vid=cae26834-e4a2-4a93-bd9d-4b814d7fec01","ios":"levelo://app?vid=cae26834-e4a2-4a93-bd9d-4b814d7fec01"},"vehicle_type_id":"4","last_reported":1778638109,"current_range_meters":3200,"station_id":"","pricing_plan_id":"cebpf4jnsgd1na2vs0mg"},{"bike_id":"bd506247-2f6a-40a7-8d36-48669b7e64ee","system_id":"levelo_inurba_marseille","lat":43.29954,"lon":5.37159,"is_reserved":false,"is_disabled":false,"rental_uris":{"android":"levelo://app?vid=bd506247-2f6a-40a7-8d36-48669b7e64ee","ios":"levelo://app?vid=bd506247-2f6a-40a7-8d36-48669b7e64ee"},"vehicle_type_id":"4","last_reported":1778638109,"current_range_meters":3600,"station_id":"ce4bgr92rcd13ifvqc7g","pricing_plan_id":"cebpf4jnsgd1na2vs0mg"},{"bike_id":"37675d96-e2ec-44ec-8ab3-485f0bd8765e","system_id":"levelo_inurba_marseille","lat":43.27957,"lon":5.38744,"is_reserved":false,"is_disabled":false,"rental_uris":{"android":"levelo://app?vid=37675d96-e2ec-44ec-8ab3-485f0bd8765e","ios":"levelo://app?vid=37675d96-e2ec-44ec-8ab3-485f0bd8765e"},"vehicle_type_id":"4","last_reported":1778638109,"current_range_meters":3600,"station_id":"ce4bhg12rcd13ifvqf80","pricing_plan_id":"cebpf4jnsgd1na2vs0mg"},{"bike_id":"a309724a-584e-48ab-bfea-99e1efd0c4b3","system_id":"levelo_inurba_marseille","lat":43.31999,"lon":5.38166,"is_reserved":false,"is_disabled":false,"rental_uris":{"android":"levelo://app?vid=a309724a-584e-48ab-bfea-99e1efd0c4b3","ios":"levelo://app?vid=a309724a-584e-48ab-bfea-99e1efd0c4b3"},"vehicle_type_id":"4","last_reported":1778638109,"current_range_meters":3600,"station_id":"ce4bhr12rcd13ifvqhpg","pricing_plan_id":"cebpf4jnsgd1na2vs0mg"},{"bike_id":"46672c75-8380-4d67-8e7d-e6b7b40ef82c","system_id":"levelo_inurba_marseille","lat":43.30769,"lon":5.37639,"is_reserved":false,"is_disabled":false,"rental_uris":{"android":"levelo://app?vid=46672c75-8380-4d67-8e7d-e6b7b40ef82c","ios":"levelo://app?vid=46672c75-8380-4d67-8e7d-e6b7b40ef82c"},"vehicle_type_id":"4","last_reported":1778638109,"current_range_meters":3600,"station_id":"ce4bgv92rcd13ifvqcq0","pricing_plan_id":"cebpf4jnsgd1na2vs0mg"},{"bike_id":"7e3307b6-4556-4701-98e3-b6f55c7f586e","system_id":"levelo_inurba_marseille","lat":43.31195,"lon":5.38672,"is_reserved":false,"is_disabled":false,"rental_uris":{"android":"levelo://app?vid=7e3307b6-4556-4701-98e3-b6f55c7f586e","ios":"levelo://app?vid=7e3307b6-4556-4701-98e3-b6f55c7f586e"},"vehicle_type_id":"4","last_reported":1778638109,"current_range_meters":3600,"station_id":"ce4bgv12rcd13ifvqcp0","pricing_plan_id":"cebpf4jnsgd1na2vs0mg"},{"bike_id":"d103bdeb-0322-4061-817a-17ab53c3baf8","system_id":"levelo_inurba_marseille","lat":43.25571,"lon":5.38228,"is_reserved":false,"is_disabled":false,"rental_uris":{"android":"levelo://app?vid=d103bdeb-0322-4061-817a-17ab53c3baf8","ios":"levelo://app?vid=d103bdeb-0322-4061-817a-17ab53c3baf8"},"vehicle_type_id":"4","last_reported":1778638109,"current_range_meters":3600,"station_id":"ce4bhih2rcd13ifvqfs0","pricing_plan_id":"cebpf4jnsgd1na2vs0mg"},{"bike_id":"6683e877-84a0-402f-8772-3c1edabd8e63","system_id":"levelo_inurba_marseille","lat":43.23157,"lon":5.43724,"is_reserved":false,"is_disabled":false,"rental_uris":{"android":"levelo://app?vid=6683e877-84a0-402f-8772-3c1edabd8e63","ios":"levelo://app?vid=6683e877-84a0-402f-8772-3c1edabd8e63"},"vehicle_type_id":"4","last_reported":1778638109,"current_range_meters":3600,"station_id":"ce4bhmp2rcd13ifvqgog","pricing_plan_id":"cebpf4jnsgd1na2vs0mg"},{"bike_id":"bb883d36-d526-4613-874f-fbf82a7a374b","system_id":"levelo_inurba_marseille","lat":43.29675,"lon":5.37043,"is_reserved":false,"is_disabled":false,"rental_uris":{"android":"levelo://app?vid=bb883d36-d526-4613-874f-fbf82a7a374b","ios":"levelo://app?vid=bb883d36-d526-4613-874f-fbf82a7a374b"},"vehicle_type_id":"4","last_reported":1778638109,"current_range_meters":4000,"station_id":"","pricing_plan_id":"cebpf4jnsgd1na2vs0mg"},{"bike_id":"38ae2b0f-3623-4776-8f73-02a2bd5cb856","system_id":"levelo_inurba_marseille","lat":43.31163,"lon":5.38741,"is_reserved":false,"is_disabled":false,"rental_uris":{"android":"levelo://app?vid=38ae2b0f-3623-4776-8f73-02a2bd5cb856","ios":"levelo://app?vid=38ae2b0f-3623-4776-8f73-02a2bd5cb856"},"vehicle_type_id":"4","last_reported":1778638109,"current_range_meters":4000,"station_id":"ce4bgv12rcd13ifvqcp0","pricing_plan_id":"cebpf4jnsgd1na2vs0mg"},{"bike_id":"c2e976b4-7573-4ea6-97e0-eb4dbbe39a6b","system_id":"levelo_inurba_marseille","lat":43.27591,"lon":5.39657,"is_reserved":false,"is_disabled":false,"rental_uris":{"android":"levelo://app?vid=c2e976b4-7573-4ea6-97e0-eb4dbbe39a6b","ios":"levelo://app?vid=c2e976b4-7573-4ea6-97e0-eb4dbbe39a6b"},"vehicle_type_id":"4","last_reported":1778638109,"current_range_meters":4000,"station_id":"","pricing_plan_id":"cebpf4jnsgd1na2vs0mg"},{"bike_id":"5b2b3f46-5aac-4a36-9f68-4263262ea6fb","system_id":"levelo_inurba_marseille","lat":43.27898,"lon":5.39595,"is_reserved":false,"is_disabled":false,"rental_uris":{"android":"levelo://app?vid=5b2b3f46-5aac-4a36-9f68-4263262ea6fb","ios":"levelo://app?vid=5b2b3f46-5aac-4a36-9f68-4263262ea6fb"},"vehicle_type_id":"4","last_reported":1778638109,"current_range_meters":4000,"station_id":"ce4bhf92rcd13ifvqf40","pricing_plan_id":"cebpf4jnsgd1na2vs0mg"},{"bike_id":"23b6dc26-1392-4fa8-9cc5-0f40ceb1f1c5","system_id":"levelo_inurba_marseille","lat":43.28688,"lon":5.46684,"is_reserved":false,"is_disabled":false,"rental_uris":{"android":"levelo://app?vid=23b6dc26-1392-4fa8-9cc5-0f40ceb1f1c5","ios":"levelo://app?vid=23b6dc26-1392-4fa8-9cc5-0f40ceb1f1c5"},"vehicle_type_id":"4","last_reported":1778638109,"current_range_meters":4000,"station_id":"st_d6tc3vkotcvc738tfjhg","pricing_plan_id":"cebpf4jnsgd1na2vs0mg"},{"bike_id":"14059eb2-1b3f-4461-b0ee-158772daa7a1","system_id":"levelo_inurba_marseille","lat":43.31256,"lon":5.40175,"is_reserved":false,"is_disabled":true,"rental_uris":{"android":"levelo://app?vid=14059eb2-1b3f-4461-b0ee-158772daa7a1","ios":"levelo://app?vid=14059eb2-1b3f-4461-b0ee-158772daa7a1"},"vehicle_type_id":"4","last_reported":1778638109,"current_range_meters":4000,"station_id":"ce4bh092rcd13ifvqd30","pricing_plan_id":"cebpf4jnsgd1na2vs0mg"},{"bike_id":"062930f4-256c-4994-aaa4-dcf3f07affd4","system_id":"levelo_inurba_marseille","lat":43.28677,"lon":5.36316,"is_reserved":false,"is_disabled":false,"rental_uris":{"android":"levelo://app?vid=062930f4-256c-4994-aaa4-dcf3f07affd4","ios":"levelo://app?vid=062930f4-256c-4994-aaa4-dcf3f07affd4"},"vehicle_type_id":"4","last_reported":1778638109,"current_range_meters":4000,"station_id":"ce4bhah2rcd13ifvqej0","pricing_plan_id":"cebpf4jnsgd1na2vs0mg"},{"bike_id":"0fb18bc3-4ab3-4ab7-8bcc-6b0f3a425dc7","system_id":"levelo_inurba_marseille","lat":43.2479,"lon":5.37461,"is_reserved":false,"is_disabled":false,"rental_uris":{"android":"levelo://app?vid=0fb18bc3-4ab3-4ab7-8bcc-6b0f3a425dc7","ios":"levelo://app?vid=0fb18bc3-4ab3-4ab7-8bcc-6b0f3a425dc7"},"vehicle_type_id":"4","last_reported":1778638109,"current_range_meters":4000,"station_id":"ce4bhgh2rcd13ifvqfb0","pricing_plan_id":"cebpf4jnsgd1na2vs0mg"},{"bike_id":"4e9e9f19-6747-44e6-895b-68838dd6a1c5","system_id":"levelo_inurba_marseille","lat":43.32324,"lon":5.36798,"is_reserved":false,"is_disabled":false,"rental_uris":{"android":"levelo://app?vid=4e9e9f19-6747-44e6-895b-68838dd6a1c5","ios":"levelo://app?vid=4e9e9f19-6747-44e6-895b-68838dd6a1c5"},"vehicle_type_id":"4","last_reported":1778638109,"current_range_meters":4000,"station_id":"ce4bhsh2rcd13ifvqi2g","pricing_plan_id":"cebpf4jnsgd1na2vs0mg"},{"bike_id":"06ace5d7-3d4b-48bb-9ba8-5a2e1fabdaaf","system_id":"levelo_inurba_marseille","lat":43.337518,"lon":5.374433,"is_reserved":false,"is_disabled":false,"rental_uris":{"android":"levelo://app?vid=06ace5d7-3d4b-48bb-9ba8-5a2e1fabdaaf","ios":"levelo://app?vid=06ace5d7-3d4b-48bb-9ba8-5a2e1fabdaaf"},"vehicle_type_id":"4","last_reported":1778638109,"current_range_meters":4000,"station_id":"","pricing_plan_id":"cebpf4jnsgd1na2vs0mg"},{"bike_id":"8e43356a-6894-4729-8a36-e254d80b24c0","system_id":"levelo_inurba_marseille","lat":43.29134,"lon":5.43262,"is_reserved":false,"is_disabled":false,"rental_uris":{"android":"levelo://app?vid=8e43356a-6894-4729-8a36-e254d80b24c0","ios":"levelo://app?vid=8e43356a-6894-4729-8a36-e254d80b24c0"},"vehicle_type_id":"4","last_reported":1778638109,"current_range_meters":4000,"station_id":"","pricing_plan_id":"cebpf4jnsgd1na2vs0mg"},{"bike_id":"08b0c056-213f-48c2-9d6d-2ae4cf315af9","system_id":"levelo_inurba_marseille","lat":43.25309,"lon":5.42153,"is_reserved":false,"is_disabled":false,"rental_uris":{"android":"levelo://app?vid=08b0c056-213f-48c2-9d6d-2ae4cf315af9","ios":"levelo://app?vid=08b0c056-213f-48c2-9d6d-2ae4cf315af9"},"vehicle_type_id":"4","last_reported":1778638109,"current_range_meters":4000,"station_id":"st_d2m65c5bi1j21697t3ng","pricing_plan_id":"cebpf4jnsgd1na2vs0mg"},{"bike_id":"c4a39941-4b69-4697-a3ce-af3df8a6d218","system_id":"levelo_inurba_marseille","lat":43.27636,"lon":5.36265,"is_reserved":false,"is_disabled":false,"rental_uris":{"android":"levelo://app?vid=c4a39941-4b69-4697-a3ce-af3df8a6d218","ios":"levelo://app?vid=c4a39941-4b69-4697-a3ce-af3df8a6d218"},"vehicle_type_id":"4","last_reported":1778638109,"current_range_meters":4000,"station_id":"","pricing_plan_id":"cebpf4jnsgd1na2vs0mg"},{"bike_id":"22eeee5a-41db-400c-9bdd-eed0ffb962e0","system_id":"levelo_inurba_marseille","lat":43.24061,"lon":5.37768,"is_reserved":false,"is_disabled":false,"rental_uris":{"android":"levelo://app?vid=22eeee5a-41db-400c-9bdd-eed0ffb962e0","ios":"levelo://app?vid=22eeee5a-41db-400c-9bdd-eed0ffb962e0"},"vehicle_type_id":"4","last_reported":1778638109,"current_range_meters":4000,"station_id":"ce4bhnp2rcd13ifvqgvg","pricing_plan_id":"cebpf4jnsgd1na2vs0mg"},{"bike_id":"61195f8c-df5f-4867-8563-8cdbcf8d80ea","system_id":"levelo_inurba_marseille","lat":43.2586,"lon":5.39926,"is_reserved":false,"is_disabled":true,"rental_uris":{"android":"levelo://app?vid=61195f8c-df5f-4867-8563-8cdbcf8d80ea","ios":"levelo://app?vid=61195f8c-df5f-4867-8563-8cdbcf8d80ea"},"vehicle_type_id":"4","last_reported":1778638109,"current_range_meters":4400,"station_id":"ce4bhl92rcd13ifvqghg","pricing_plan_id":"cebpf4jnsgd1na2vs0mg"},{"bike_id":"d903db2b-3c4f-4ebd-adb5-e9d51955ecf8","system_id":"levelo_inurba_marseille","lat":43.27538,"lon":5.35912,"is_reserved":false,"is_disabled":false,"rental_uris":{"android":"levelo://app?vid=d903db2b-3c4f-4ebd-adb5-e9d51955ecf8","ios":"levelo://app?vid=d903db2b-3c4f-4ebd-adb5-e9d51955ecf8"},"vehicle_type_id":"4","last_reported":1778638109,"current_range_meters":4400,"station_id":"","pricing_plan_id":"cebpf4jnsgd1na2vs0mg"},{"bike_id":"9f9cc4d4-6448-4fe0-9bba-35816aedf1fe","system_id":"levelo_inurba_marseille","lat":43.24558,"lon":5.39531,"is_reserved":false,"is_disabled":false,"rental_uris":{"android":"levelo://app?vid=9f9cc4d4-6448-4fe0-9bba-35816aedf1fe","ios":"levelo://app?vid=9f9cc4d4-6448-4fe0-9bba-35816aedf1fe"},"vehicle_type_id":"4","last_reported":1778638109,"current_range_meters":4400,"station_id":"ce4bhlp2rcd13ifvqgjg","pricing_plan_id":"cebpf4jnsgd1na2vs0mg"},{"bike_id":"995a2d1d-9360-4eea-964f-729947ed4581","system_id":"levelo_inurba_marseille","lat":43.29821,"lon":5.39678,"is_reserved":false,"is_disabled":false,"rental_uris":{"android":"levelo://app?vid=995a2d1d-9360-4eea-964f-729947ed4581","ios":"levelo://app?vid=995a2d1d-9360-4eea-964f-729947ed4581"},"vehicle_type_id":"4","last_reported":1778638109,"current_range_meters":4400,"station_id":"","pricing_plan_id":"cebpf4jnsgd1na2vs0mg"},{"bike_id":"f75200eb-c556-489f-9d74-42038266db2e","system_id":"levelo_inurba_marseille","lat":43.29205,"lon":5.39929,"is_reserved":false,"is_disabled":false,"rental_uris":{"android":"levelo://app?vid=f75200eb-c556-489f-9d74-42038266db2e","ios":"levelo://app?vid=f75200eb-c556-489f-9d74-42038266db2e"},"vehicle_type_id":"4","last_reported":1778638109,"current_range_meters":4400,"station_id":"ce4bh312rcd13ifvqdk0","pricing_plan_id":"cebpf4jnsgd1na2vs0mg"},{"bike_id":"cc08138b-40fc-4068-b5f2-bde9c76a7e40","system_id":"levelo_inurba_marseille","lat":43.34144,"lon":5.40913,"is_reserved":false,"is_disabled":true,"rental_uris":{"android":"levelo://app?vid=cc08138b-40fc-4068-b5f2-bde9c76a7e40","ios":"levelo://app?vid=cc08138b-40fc-4068-b5f2-bde9c76a7e40"},"vehicle_type_id":"4","last_reported":1778638109,"current_range_meters":4400,"station_id":"ce4bhqh2rcd13ifvqhlg","pricing_plan_id":"cebpf4jnsgd1na2vs0mg"},{"bike_id":"043c41b6-b0d6-4773-b46c-7219e1bac307","system_id":"levelo_inurba_marseille","lat":43.28717,"lon":5.37944,"is_reserved":false,"is_disabled":false,"rental_uris":{"android":"levelo://app?vid=043c41b6-b0d6-4773-b46c-7219e1bac307","ios":"levelo://app?vid=043c41b6-b0d6-4773-b46c-7219e1bac307"},"vehicle_type_id":"4","last_reported":1778638109,"current_range_meters":4400,"station_id":"ce4bh9p2rcd13ifvqec0","pricing_plan_id":"cebpf4jnsgd1na2vs0mg"},{"bike_id":"946d3395-a1fc-4c85-99ee-e555a66a34c8","system_id":"levelo_inurba_marseille","lat":43.28466,"lon":5.35885,"is_reserved":false,"is_disabled":false,"rental_uris":{"android":"levelo://app?vid=946d3395-a1fc-4c85-99ee-e555a66a34c8","ios":"levelo://app?vid=946d3395-a1fc-4c85-99ee-e555a66a34c8"},"vehicle_type_id":"4","last_reported":1778638109,"current_range_meters":4400,"station_id":"ce4bhah2rcd13ifvqei0","pricing_plan_id":"cebpf4jnsgd1na2vs0mg"},{"bike_id":"e6db684c-41c8-41d3-8748-cdf012b08e85","system_id":"levelo_inurba_marseille","lat":43.28684,"lon":5.37942,"is_reserved":false,"is_disabled":false,"rental_uris":{"android":"levelo://app?vid=e6db684c-41c8-41d3-8748-cdf012b08e85","ios":"levelo://app?vid=e6db684c-41c8-41d3-8748-cdf012b08e85"},"vehicle_type_id":"4","last_reported":1778638109,"current_range_meters":4400,"station_id":"ce4bh9p2rcd13ifvqec0","pricing_plan_id":"cebpf4jnsgd1na2vs0mg"},{"bike_id":"a6073d1e-2a9d-46ee-9d4d-fa8ecd0193c4","system_id":"levelo_inurba_marseille","lat":43.30934,"lon":5.4015,"is_reserved":false,"is_disabled":false,"rental_uris":{"android":"levelo://app?vid=a6073d1e-2a9d-46ee-9d4d-fa8ecd0193c4","ios":"levelo://app?vid=a6073d1e-2a9d-46ee-9d4d-fa8ecd0193c4"},"vehicle_type_id":"4","last_reported":1778638109,"current_range_meters":4400,"station_id":"ce4bgvp2rcd13ifvqct0","pricing_plan_id":"cebpf4jnsgd1na2vs0mg"},{"bike_id":"e4d1d3ae-d2ef-44bd-abeb-266368a40bd9","system_id":"levelo_inurba_marseille","lat":43.30332,"lon":5.40432,"is_reserved":false,"is_disabled":false,"rental_uris":{"android":"levelo://app?vid=e4d1d3ae-d2ef-44bd-abeb-266368a40bd9","ios":"levelo://app?vid=e4d1d3ae-d2ef-44bd-abeb-266368a40bd9"},"vehicle_type_id":"4","last_reported":1778638109,"current_range_meters":4400,"station_id":"ce4bh012rcd13ifvqd10","pricing_plan_id":"cebpf4jnsgd1na2vs0mg"},{"bike_id":"e6838ae8-7115-4aed-b331-3b663ddf858f","system_id":"levelo_inurba_marseille","lat":43.31211,"lon":5.38655,"is_reserved":false,"is_disabled":false,"rental_uris":{"android":"levelo://app?vid=e6838ae8-7115-4aed-b331-3b663ddf858f","ios":"levelo://app?vid=e6838ae8-7115-4aed-b331-3b663ddf858f"},"vehicle_type_id":"4","last_reported":1778638109,"current_range_meters":4400,"station_id":"","pricing_plan_id":"cebpf4jnsgd1na2vs0mg"},{"bike_id":"e47e753a-058b-444f-94c7-09def8951ab4","system_id":"levelo_inurba_marseille","lat":43.29168,"lon":5.39308,"is_reserved":false,"is_disabled":false,"rental_uris":{"android":"levelo://app?vid=e47e753a-058b-444f-94c7-09def8951ab4","ios":"levelo://app?vid=e47e753a-058b-444f-94c7-09def8951ab4"},"vehicle_type_id":"4","last_reported":1778638109,"current_range_meters":4400,"station_id":"ce4bh192rcd13ifvqdd0","pricing_plan_id":"cebpf4jnsgd1na2vs0mg"},{"bike_id":"d09de62e-41a5-42ea-858c-959049b04ecd","system_id":"levelo_inurba_marseille","lat":43.3133,"lon":5.39701,"is_reserved":false,"is_disabled":false,"rental_uris":{"android":"levelo://app?vid=d09de62e-41a5-42ea-858c-959049b04ecd","ios":"levelo://app?vid=d09de62e-41a5-42ea-858c-959049b04ecd"},"vehicle_type_id":"4","last_reported":1778638109,"current_range_meters":4400,"station_id":"ce4bgvp2rcd13ifvqcu0","pricing_plan_id":"cebpf4jnsgd1na2vs0mg"},{"bike_id":"7a6aa0c3-c929-4dee-83f0-644cf66683c5","system_id":"levelo_inurba_marseille","lat":43.24457,"lon":5.42544,"is_reserved":false,"is_disabled":false,"rental_uris":{"android":"levelo://app?vid=7a6aa0c3-c929-4dee-83f0-644cf66683c5","ios":"levelo://app?vid=7a6aa0c3-c929-4dee-83f0-644cf66683c5"},"vehicle_type_id":"4","last_reported":1778638109,"current_range_meters":4400,"station_id":"st_d4a3vfp97mjs738cd8kg","pricing_plan_id":"cebpf4jnsgd1na2vs0mg"},{"bike_id":"40118873-8835-4ceb-bd64-fd7d091307f9","system_id":"levelo_inurba_marseille","lat":43.31181,"lon":5.38686,"is_reserved":false,"is_disabled":false,"rental_uris":{"android":"levelo://app?vid=40118873-8835-4ceb-bd64-fd7d091307f9","ios":"levelo://app?vid=40118873-8835-4ceb-bd64-fd7d091307f9"},"vehicle_type_id":"4","last_reported":1778638109,"current_range_meters":4400,"station_id":"ce4bgv12rcd13ifvqcp0","pricing_plan_id":"cebpf4jnsgd1na2vs0mg"},{"bike_id":"2cf57b33-8812-4e13-8999-4c16ef72cfa0","system_id":"levelo_inurba_marseille","lat":43.2315,"lon":5.43717,"is_reserved":false,"is_disabled":false,"rental_uris":{"android":"levelo://app?vid=2cf57b33-8812-4e13-8999-4c16ef72cfa0","ios":"levelo://app?vid=2cf57b33-8812-4e13-8999-4c16ef72cfa0"},"vehicle_type_id":"4","last_reported":1778638109,"current_range_meters":4400,"station_id":"ce4bhmp2rcd13ifvqgog","pricing_plan_id":"cebpf4jnsgd1na2vs0mg"},{"bike_id":"07a9b671-4f11-4201-95b6-67d884bae6f1","system_id":"levelo_inurba_marseille","lat":43.2527,"lon":5.40263,"is_reserved":false,"is_disabled":false,"rental_uris":{"android":"levelo://app?vid=07a9b671-4f11-4201-95b6-67d884bae6f1","ios":"levelo://app?vid=07a9b671-4f11-4201-95b6-67d884bae6f1"},"vehicle_type_id":"4","last_reported":1778638109,"current_range_meters":4400,"station_id":"","pricing_plan_id":"cebpf4jnsgd1na2vs0mg"},{"bike_id":"7eeaae49-e5ae-480b-aac7-0267ac4b47fd","system_id":"levelo_inurba_marseille","lat":43.25571,"lon":5.38261,"is_reserved":false,"is_disabled":false,"rental_uris":{"android":"levelo://app?vid=7eeaae49-e5ae-480b-aac7-0267ac4b47fd","ios":"levelo://app?vid=7eeaae49-e5ae-480b-aac7-0267ac4b47fd"},"vehicle_type_id":"4","last_reported":1778638109,"current_range_meters":4800,"station_id":"ce4bhih2rcd13ifvqfs0","pricing_plan_id":"cebpf4jnsgd1na2vs0mg"},{"bike_id":"a3931dae-05f0-4e1d-8b68-01fdd7d05951","system_id":"levelo_inurba_marseille","lat":43.27498,"lon":5.41606,"is_reserved":false,"is_disabled":true,"rental_uris":{"android":"levelo://app?vid=a3931dae-05f0-4e1d-8b68-01fdd7d05951","ios":"levelo://app?vid=a3931dae-05f0-4e1d-8b68-01fdd7d05951"},"vehicle_type_id":"4","last_reported":1778638109,"current_range_meters":4800,"station_id":"st_d6im8g6chgec73a5pndg","pricing_plan_id":"cebpf4jnsgd1na2vs0mg"},{"bike_id":"1b2c8958-e91f-45f0-b73e-ce7ed72a04f7","system_id":"levelo_inurba_marseille","lat":43.295743,"lon":5.397636,"is_reserved":false,"is_disabled":true,"rental_uris":{"android":"levelo://app?vid=1b2c8958-e91f-45f0-b73e-ce7ed72a04f7","ios":"levelo://app?vid=1b2c8958-e91f-45f0-b73e-ce7ed72a04f7"},"vehicle_type_id":"4","last_reported":1778638109,"current_range_meters":4800,"station_id":"","pricing_plan_id":"cebpf4jnsgd1na2vs0mg"},{"bike_id":"62557ba2-fd37-41d9-b8ba-d0969ce56cc9","system_id":"levelo_inurba_marseille","lat":43.22558,"lon":5.41618,"is_reserved":false,"is_disabled":false,"rental_uris":{"android":"levelo://app?vid=62557ba2-fd37-41d9-b8ba-d0969ce56cc9","ios":"levelo://app?vid=62557ba2-fd37-41d9-b8ba-d0969ce56cc9"},"vehicle_type_id":"4","last_reported":1778638109,"current_range_meters":4800,"station_id":"st_d2o4gvlbi1j2169b742g","pricing_plan_id":"cebpf4jnsgd1na2vs0mg"},{"bike_id":"8f556e0e-50e3-415d-bc0b-bd20df8dcc3e","system_id":"levelo_inurba_marseille","lat":43.22558,"lon":5.41636,"is_reserved":false,"is_disabled":false,"rental_uris":{"android":"levelo://app?vid=8f556e0e-50e3-415d-bc0b-bd20df8dcc3e","ios":"levelo://app?vid=8f556e0e-50e3-415d-bc0b-bd20df8dcc3e"},"vehicle_type_id":"4","last_reported":1778638109,"current_range_meters":4800,"station_id":"st_d2o4gvlbi1j2169b742g","pricing_plan_id":"cebpf4jnsgd1na2vs0mg"},{"bike_id":"6bf8e413-e0e6-4b25-b525-a592fcaee470","system_id":"levelo_inurba_marseille","lat":43.30138,"lon":5.38112,"is_reserved":false,"is_disabled":true,"rental_uris":{"android":"levelo://app?vid=6bf8e413-e0e6-4b25-b525-a592fcaee470","ios":"levelo://app?vid=6bf8e413-e0e6-4b25-b525-a592fcaee470"},"vehicle_type_id":"4","last_reported":1778638109,"current_range_meters":4800,"station_id":"ce4bgjp2rcd13ifvqbh0","pricing_plan_id":"cebpf4jnsgd1na2vs0mg"},{"bike_id":"e3e6a269-338b-482e-8c7f-7dca167d167b","system_id":"levelo_inurba_marseille","lat":43.27478,"lon":5.41627,"is_reserved":false,"is_disabled":true,"rental_uris":{"android":"levelo://app?vid=e3e6a269-338b-482e-8c7f-7dca167d167b","ios":"levelo://app?vid=e3e6a269-338b-482e-8c7f-7dca167d167b"},"vehicle_type_id":"4","last_reported":1778638109,"current_range_meters":4800,"station_id":"","pricing_plan_id":"cebpf4jnsgd1na2vs0mg"},{"bike_id":"56aa3777-5c73-49cb-b27f-d7e4ca259c3e","system_id":"levelo_inurba_marseille","lat":43.25085,"lon":5.39523,"is_reserved":false,"is_disabled":false,"rental_uris":{"android":"levelo://app?vid=56aa3777-5c73-49cb-b27f-d7e4ca259c3e","ios":"levelo://app?vid=56aa3777-5c73-49cb-b27f-d7e4ca259c3e"},"vehicle_type_id":"4","last_reported":1778638109,"current_range_meters":4800,"station_id":"ce4bhm12rcd13ifvqgkg","pricing_plan_id":"cebpf4jnsgd1na2vs0mg"},{"bike_id":"89ba3e6a-2631-497f-8d75-3508f5d4fd19","system_id":"levelo_inurba_marseille","lat":43.24633,"lon":5.38182,"is_reserved":false,"is_disabled":false,"rental_uris":{"android":"levelo://app?vid=89ba3e6a-2631-497f-8d75-3508f5d4fd19","ios":"levelo://app?vid=89ba3e6a-2631-497f-8d75-3508f5d4fd19"},"vehicle_type_id":"4","last_reported":1778638109,"current_range_meters":4800,"station_id":"ce4bhih2rcd13ifvqfr0","pricing_plan_id":"cebpf4jnsgd1na2vs0mg"},{"bike_id":"93a22529-c67b-4c75-b2d8-922da7651d60","system_id":"levelo_inurba_marseille","lat":43.29785,"lon":5.38057,"is_reserved":false,"is_disabled":true,"rental_uris":{"android":"levelo://app?vid=93a22529-c67b-4c75-b2d8-922da7651d60","ios":"levelo://app?vid=93a22529-c67b-4c75-b2d8-922da7651d60"},"vehicle_type_id":"4","last_reported":1778638109,"current_range_meters":4800,"station_id":"ce4bgip2rcd13ifvqbb0","pricing_plan_id":"cebpf4jnsgd1na2vs0mg"},{"bike_id":"d5567eef-68c5-4ee5-895a-b2f3b2a5fbe3","system_id":"levelo_inurba_marseille","lat":43.31276,"lon":5.40171,"is_reserved":false,"is_disabled":false,"rental_uris":{"android":"levelo://app?vid=d5567eef-68c5-4ee5-895a-b2f3b2a5fbe3","ios":"levelo://app?vid=d5567eef-68c5-4ee5-895a-b2f3b2a5fbe3"},"vehicle_type_id":"4","last_reported":1778638109,"current_range_meters":5600,"station_id":"ce4bh092rcd13ifvqd30","pricing_plan_id":"cebpf4jnsgd1na2vs0mg"},{"bike_id":"1fb136bb-3cc6-48f7-af4f-974b5baf2852","system_id":"levelo_inurba_marseille","lat":43.23962,"lon":5.36637,"is_reserved":false,"is_disabled":true,"rental_uris":{"android":"levelo://app?vid=1fb136bb-3cc6-48f7-af4f-974b5baf2852","ios":"levelo://app?vid=1fb136bb-3cc6-48f7-af4f-974b5baf2852"},"vehicle_type_id":"4","last_reported":1778638109,"current_range_meters":5600,"station_id":"ce4bhi12rcd13ifvqfp0","pricing_plan_id":"cebpf4jnsgd1na2vs0mg"},{"bike_id":"0d5a6d54-dad4-453d-9b1a-d94782ee22c6","system_id":"levelo_inurba_marseille","lat":43.32345,"lon":5.36544,"is_reserved":false,"is_disabled":false,"rental_uris":{"android":"levelo://app?vid=0d5a6d54-dad4-453d-9b1a-d94782ee22c6","ios":"levelo://app?vid=0d5a6d54-dad4-453d-9b1a-d94782ee22c6"},"vehicle_type_id":"4","last_reported":1778638109,"current_range_meters":5600,"station_id":"","pricing_plan_id":"cebpf4jnsgd1na2vs0mg"},{"bike_id":"d1e625f4-f7a3-447e-9d9b-d52dfc59b3ee","system_id":"levelo_inurba_marseille","lat":43.29044,"lon":5.39948,"is_reserved":false,"is_disabled":false,"rental_uris":{"android":"levelo://app?vid=d1e625f4-f7a3-447e-9d9b-d52dfc59b3ee","ios":"levelo://app?vid=d1e625f4-f7a3-447e-9d9b-d52dfc59b3ee"},"vehicle_type_id":"4","last_reported":1778638109,"current_range_meters":5600,"station_id":"ce4bh392rcd13ifvqdm0","pricing_plan_id":"cebpf4jnsgd1na2vs0mg"},{"bike_id":"f1199c7e-7903-4188-bbb9-ee8e51dbcbaf","system_id":"levelo_inurba_marseille","lat":43.24635,"lon":5.38198,"is_reserved":false,"is_disabled":false,"rental_uris":{"android":"levelo://app?vid=f1199c7e-7903-4188-bbb9-ee8e51dbcbaf","ios":"levelo://app?vid=f1199c7e-7903-4188-bbb9-ee8e51dbcbaf"},"vehicle_type_id":"4","last_reported":1778638109,"current_range_meters":5600,"station_id":"ce4bhih2rcd13ifvqfr0","pricing_plan_id":"cebpf4jnsgd1na2vs0mg"},{"bike_id":"95552473-a32b-49e5-a6c9-92815a2ac96e","system_id":"levelo_inurba_marseille","lat":43.32827,"lon":5.42617,"is_reserved":false,"is_disabled":false,"rental_uris":{"android":"levelo://app?vid=95552473-a32b-49e5-a6c9-92815a2ac96e","ios":"levelo://app?vid=95552473-a32b-49e5-a6c9-92815a2ac96e"},"vehicle_type_id":"4","last_reported":1778638109,"current_range_meters":5600,"station_id":"","pricing_plan_id":"cebpf4jnsgd1na2vs0mg"},{"bike_id":"46010e51-ffcf-494e-8734-a0917c32a663","system_id":"levelo_inurba_marseille","lat":43.23222,"lon":5.35504,"is_reserved":false,"is_disabled":false,"rental_uris":{"android":"levelo://app?vid=46010e51-ffcf-494e-8734-a0917c32a663","ios":"levelo://app?vid=46010e51-ffcf-494e-8734-a0917c32a663"},"vehicle_type_id":"4","last_reported":1778638109,"current_range_meters":5600,"station_id":"","pricing_plan_id":"cebpf4jnsgd1na2vs0mg"},{"bike_id":"86660d9c-47a1-454c-bf17-c1141faf0fe4","system_id":"levelo_inurba_marseille","lat":43.24796,"lon":5.37479,"is_reserved":false,"is_disabled":false,"rental_uris":{"android":"levelo://app?vid=86660d9c-47a1-454c-bf17-c1141faf0fe4","ios":"levelo://app?vid=86660d9c-47a1-454c-bf17-c1141faf0fe4"},"vehicle_type_id":"4","last_reported":1778638109,"current_range_meters":6000,"station_id":"ce4bhgh2rcd13ifvqfb0","pricing_plan_id":"cebpf4jnsgd1na2vs0mg"},{"bike_id":"0f1807cc-9d93-4021-8b9a-9457f4117b8b","system_id":"levelo_inurba_marseille","lat":43.32063,"lon":5.36817,"is_reserved":false,"is_disabled":false,"rental_uris":{"android":"levelo://app?vid=0f1807cc-9d93-4021-8b9a-9457f4117b8b","ios":"levelo://app?vid=0f1807cc-9d93-4021-8b9a-9457f4117b8b"},"vehicle_type_id":"4","last_reported":1778638109,"current_range_meters":6000,"station_id":"ce4bhrh2rcd13ifvqhug","pricing_plan_id":"cebpf4jnsgd1na2vs0mg"},{"bike_id":"f623a486-de2d-4b12-b7f1-6eb2f82d9bc9","system_id":"levelo_inurba_marseille","lat":43.30419,"lon":5.38887,"is_reserved":false,"is_disabled":false,"rental_uris":{"android":"levelo://app?vid=f623a486-de2d-4b12-b7f1-6eb2f82d9bc9","ios":"levelo://app?vid=f623a486-de2d-4b12-b7f1-6eb2f82d9bc9"},"vehicle_type_id":"4","last_reported":1778638109,"current_range_meters":6000,"station_id":"ce4bgk12rcd13ifvqbi0","pricing_plan_id":"cebpf4jnsgd1na2vs0mg"},{"bike_id":"b0351153-fdea-4d61-9458-346bc5cdc270","system_id":"levelo_inurba_marseille","lat":43.24799,"lon":5.37466,"is_reserved":false,"is_disabled":false,"rental_uris":{"android":"levelo://app?vid=b0351153-fdea-4d61-9458-346bc5cdc270","ios":"levelo://app?vid=b0351153-fdea-4d61-9458-346bc5cdc270"},"vehicle_type_id":"4","last_reported":1778638109,"current_range_meters":6000,"station_id":"ce4bhgh2rcd13ifvqfb0","pricing_plan_id":"cebpf4jnsgd1na2vs0mg"},{"bike_id":"b87625e6-20c4-422c-a599-f4aefb592551","system_id":"levelo_inurba_marseille","lat":43.27905,"lon":5.39586,"is_reserved":false,"is_disabled":false,"rental_uris":{"android":"levelo://app?vid=b87625e6-20c4-422c-a599-f4aefb592551","ios":"levelo://app?vid=b87625e6-20c4-422c-a599-f4aefb592551"},"vehicle_type_id":"4","last_reported":1778638109,"current_range_meters":6000,"station_id":"ce4bhf92rcd13ifvqf40","pricing_plan_id":"cebpf4jnsgd1na2vs0mg"},{"bike_id":"6bf5a739-c134-4744-be04-d26bd6e563cd","system_id":"levelo_inurba_marseille","lat":43.28397,"lon":5.34995,"is_reserved":false,"is_disabled":false,"rental_uris":{"android":"levelo://app?vid=6bf5a739-c134-4744-be04-d26bd6e563cd","ios":"levelo://app?vid=6bf5a739-c134-4744-be04-d26bd6e563cd"},"vehicle_type_id":"4","last_reported":1778638109,"current_range_meters":6000,"station_id":"ce4bhbh2rcd13ifvqepg","pricing_plan_id":"cebpf4jnsgd1na2vs0mg"},{"bike_id":"ab5c661d-c28c-488b-be15-a455466677ca","system_id":"levelo_inurba_marseille","lat":43.26803,"lon":5.40281,"is_reserved":false,"is_disabled":false,"rental_uris":{"android":"levelo://app?vid=ab5c661d-c28c-488b-be15-a455466677ca","ios":"levelo://app?vid=ab5c661d-c28c-488b-be15-a455466677ca"},"vehicle_type_id":"4","last_reported":1778638109,"current_range_meters":6000,"station_id":"ce501612rcd8frsf0b60","pricing_plan_id":"cebpf4jnsgd1na2vs0mg"},{"bike_id":"c48a1d31-f2e1-489f-a73e-62464ff2c07c","system_id":"levelo_inurba_marseille","lat":43.29797,"lon":5.39344,"is_reserved":false,"is_disabled":false,"rental_uris":{"android":"levelo://app?vid=c48a1d31-f2e1-489f-a73e-62464ff2c07c","ios":"levelo://app?vid=c48a1d31-f2e1-489f-a73e-62464ff2c07c"},"vehicle_type_id":"4","last_reported":1778638109,"current_range_meters":6000,"station_id":"chh1huq6cuj3fo74tm60","pricing_plan_id":"cebpf4jnsgd1na2vs0mg"},{"bike_id":"6049f75f-f08d-4c4c-8e6c-aa999316afb6","system_id":"levelo_inurba_marseille","lat":43.28417,"lon":5.34985,"is_reserved":false,"is_disabled":false,"rental_uris":{"android":"levelo://app?vid=6049f75f-f08d-4c4c-8e6c-aa999316afb6","ios":"levelo://app?vid=6049f75f-f08d-4c4c-8e6c-aa999316afb6"},"vehicle_type_id":"4","last_reported":1778638109,"current_range_meters":6000,"station_id":"ce4bhbh2rcd13ifvqepg","pricing_plan_id":"cebpf4jnsgd1na2vs0mg"},{"bike_id":"cfed0df2-be15-4135-9661-5cac57a11ae3","system_id":"levelo_inurba_marseille","lat":43.26872,"lon":5.40295,"is_reserved":false,"is_disabled":false,"rental_uris":{"android":"levelo://app?vid=cfed0df2-be15-4135-9661-5cac57a11ae3","ios":"levelo://app?vid=cfed0df2-be15-4135-9661-5cac57a11ae3"},"vehicle_type_id":"4","last_reported":1778638109,"current_range_meters":6400,"station_id":"","pricing_plan_id":"cebpf4jnsgd1na2vs0mg"},{"bike_id":"0e6d4b56-486f-4728-b003-09b611c4e69e","system_id":"levelo_inurba_marseille","lat":43.2887,"lon":5.35834,"is_reserved":false,"is_disabled":false,"rental_uris":{"android":"levelo://app?vid=0e6d4b56-486f-4728-b003-09b611c4e69e","ios":"levelo://app?vid=0e6d4b56-486f-4728-b003-09b611c4e69e"},"vehicle_type_id":"4","last_reported":1778638109,"current_range_meters":6400,"station_id":"ce4bhb12rcd13ifvqem0","pricing_plan_id":"cebpf4jnsgd1na2vs0mg"},{"bike_id":"4128c085-91aa-48ea-963c-55c07880f562","system_id":"levelo_inurba_marseille","lat":43.2319,"lon":5.35548,"is_reserved":false,"is_disabled":false,"rental_uris":{"android":"levelo://app?vid=4128c085-91aa-48ea-963c-55c07880f562","ios":"levelo://app?vid=4128c085-91aa-48ea-963c-55c07880f562"},"vehicle_type_id":"4","last_reported":1778638109,"current_range_meters":6400,"station_id":"ce4bhu92rcd13ifvqi70","pricing_plan_id":"cebpf4jnsgd1na2vs0mg"},{"bike_id":"a574ab55-d4b6-4739-bb71-86a8375e1e9c","system_id":"levelo_inurba_marseille","lat":43.27801,"lon":5.40731,"is_reserved":false,"is_disabled":false,"rental_uris":{"android":"levelo://app?vid=a574ab55-d4b6-4739-bb71-86a8375e1e9c","ios":"levelo://app?vid=a574ab55-d4b6-4739-bb71-86a8375e1e9c"},"vehicle_type_id":"4","last_reported":1778638109,"current_range_meters":6400,"station_id":"ce4bhnh2rcd13ifvqgtg","pricing_plan_id":"cebpf4jnsgd1na2vs0mg"},{"bike_id":"d666b6e4-c020-4750-ab4b-7f45b9b83e83","system_id":"levelo_inurba_marseille","lat":43.3093,"lon":5.40161,"is_reserved":false,"is_disabled":false,"rental_uris":{"android":"levelo://app?vid=d666b6e4-c020-4750-ab4b-7f45b9b83e83","ios":"levelo://app?vid=d666b6e4-c020-4750-ab4b-7f45b9b83e83"},"vehicle_type_id":"4","last_reported":1778638109,"current_range_meters":6400,"station_id":"ce4bgvp2rcd13ifvqct0","pricing_plan_id":"cebpf4jnsgd1na2vs0mg"},{"bike_id":"e29bab83-08a2-4a91-9da6-9b4710314e4c","system_id":"levelo_inurba_marseille","lat":43.31332,"lon":5.39708,"is_reserved":false,"is_disabled":false,"rental_uris":{"android":"levelo://app?vid=e29bab83-08a2-4a91-9da6-9b4710314e4c","ios":"levelo://app?vid=e29bab83-08a2-4a91-9da6-9b4710314e4c"},"vehicle_type_id":"4","last_reported":1778638109,"current_range_meters":6400,"station_id":"ce4bgvp2rcd13ifvqcu0","pricing_plan_id":"cebpf4jnsgd1na2vs0mg"},{"bike_id":"f9b67939-8171-44dc-8ed9-d082587fc1d4","system_id":"levelo_inurba_marseille","lat":43.27933,"lon":5.39594,"is_reserved":false,"is_disabled":false,"rental_uris":{"android":"levelo://app?vid=f9b67939-8171-44dc-8ed9-d082587fc1d4","ios":"levelo://app?vid=f9b67939-8171-44dc-8ed9-d082587fc1d4"},"vehicle_type_id":"4","last_reported":1778638109,"current_range_meters":6400,"station_id":"ce4bhf92rcd13ifvqf40","pricing_plan_id":"cebpf4jnsgd1na2vs0mg"},{"bike_id":"95aeb85c-cda5-4c76-841d-5978f9d16c4b","system_id":"levelo_inurba_marseille","lat":43.25563,"lon":5.38223,"is_reserved":false,"is_disabled":false,"rental_uris":{"android":"levelo://app?vid=95aeb85c-cda5-4c76-841d-5978f9d16c4b","ios":"levelo://app?vid=95aeb85c-cda5-4c76-841d-5978f9d16c4b"},"vehicle_type_id":"4","last_reported":1778638109,"current_range_meters":6400,"station_id":"ce4bhih2rcd13ifvqfs0","pricing_plan_id":"cebpf4jnsgd1na2vs0mg"},{"bike_id":"e807073f-5b22-404b-bfa7-b2c01e81fb88","system_id":"levelo_inurba_marseille","lat":43.32307,"lon":5.38237,"is_reserved":false,"is_disabled":false,"rental_uris":{"android":"levelo://app?vid=e807073f-5b22-404b-bfa7-b2c01e81fb88","ios":"levelo://app?vid=e807073f-5b22-404b-bfa7-b2c01e81fb88"},"vehicle_type_id":"4","last_reported":1778638109,"current_range_meters":6400,"station_id":"ce4bhr12rcd13ifvqhqg","pricing_plan_id":"cebpf4jnsgd1na2vs0mg"},{"bike_id":"4886c252-2728-4a7b-8055-7bc754291d67","system_id":"levelo_inurba_marseille","lat":43.26188,"lon":5.40414,"is_reserved":false,"is_disabled":false,"rental_uris":{"android":"levelo://app?vid=4886c252-2728-4a7b-8055-7bc754291d67","ios":"levelo://app?vid=4886c252-2728-4a7b-8055-7bc754291d67"},"vehicle_type_id":"4","last_reported":1778638109,"current_range_meters":6800,"station_id":"ce4bhmh2rcd13ifvqgmg","pricing_plan_id":"cebpf4jnsgd1na2vs0mg"},{"bike_id":"4be255e9-cd6d-4c75-affc-d9ecab43a512","system_id":"levelo_inurba_marseille","lat":43.28408,"lon":5.34996,"is_reserved":false,"is_disabled":false,"rental_uris":{"android":"levelo://app?vid=4be255e9-cd6d-4c75-affc-d9ecab43a512","ios":"levelo://app?vid=4be255e9-cd6d-4c75-affc-d9ecab43a512"},"vehicle_type_id":"4","last_reported":1778638109,"current_range_meters":6800,"station_id":"ce4bhbh2rcd13ifvqepg","pricing_plan_id":"cebpf4jnsgd1na2vs0mg"},{"bike_id":"59a6e24a-9db4-402e-8b5e-049f3595c118","system_id":"levelo_inurba_marseille","lat":43.295674,"lon":5.39968,"is_reserved":false,"is_disabled":true,"rental_uris":{"android":"levelo://app?vid=59a6e24a-9db4-402e-8b5e-049f3595c118","ios":"levelo://app?vid=59a6e24a-9db4-402e-8b5e-049f3595c118"},"vehicle_type_id":"4","last_reported":1778638109,"current_range_meters":6800,"station_id":"ce4bh312rcd13ifvqdj0","pricing_plan_id":"cebpf4jnsgd1na2vs0mg"},{"bike_id":"2282ecfd-c628-45ec-8328-685141867870","system_id":"levelo_inurba_marseille","lat":43.28937,"lon":5.3663,"is_reserved":false,"is_disabled":false,"rental_uris":{"android":"levelo://app?vid=2282ecfd-c628-45ec-8328-685141867870","ios":"levelo://app?vid=2282ecfd-c628-45ec-8328-685141867870"},"vehicle_type_id":"4","last_reported":1778638109,"current_range_meters":6800,"station_id":"ce4bhap2rcd13ifvqek0","pricing_plan_id":"cebpf4jnsgd1na2vs0mg"},{"bike_id":"8f977c3b-162f-41ba-a59e-68f228fee342","system_id":"levelo_inurba_marseille","lat":43.2839,"lon":5.38614,"is_reserved":false,"is_disabled":false,"rental_uris":{"android":"levelo://app?vid=8f977c3b-162f-41ba-a59e-68f228fee342","ios":"levelo://app?vid=8f977c3b-162f-41ba-a59e-68f228fee342"},"vehicle_type_id":"4","last_reported":1778638109,"current_range_meters":6800,"station_id":"","pricing_plan_id":"cebpf4jnsgd1na2vs0mg"},{"bike_id":"d257960a-edb4-4348-90b0-b5fd8baf1634","system_id":"levelo_inurba_marseille","lat":43.31694,"lon":5.37771,"is_reserved":false,"is_disabled":true,"rental_uris":{"android":"levelo://app?vid=d257960a-edb4-4348-90b0-b5fd8baf1634","ios":"levelo://app?vid=d257960a-edb4-4348-90b0-b5fd8baf1634"},"vehicle_type_id":"4","last_reported":1778638109,"current_range_meters":6800,"station_id":"ce4bgth2rcd13ifvqch0","pricing_plan_id":"cebpf4jnsgd1na2vs0mg"},{"bike_id":"4b0a5ded-48b7-4222-b877-b102fbc0a64d","system_id":"levelo_inurba_marseille","lat":43.29789,"lon":5.38083,"is_reserved":false,"is_disabled":false,"rental_uris":{"android":"levelo://app?vid=4b0a5ded-48b7-4222-b877-b102fbc0a64d","ios":"levelo://app?vid=4b0a5ded-48b7-4222-b877-b102fbc0a64d"},"vehicle_type_id":"4","last_reported":1778638109,"current_range_meters":6800,"station_id":"ce4bgip2rcd13ifvqbb0","pricing_plan_id":"cebpf4jnsgd1na2vs0mg"},{"bike_id":"4aad697a-91b2-4fed-aee3-9939aca7631b","system_id":"levelo_inurba_marseille","lat":43.3134,"lon":5.37918,"is_reserved":false,"is_disabled":false,"rental_uris":{"android":"levelo://app?vid=4aad697a-91b2-4fed-aee3-9939aca7631b","ios":"levelo://app?vid=4aad697a-91b2-4fed-aee3-9939aca7631b"},"vehicle_type_id":"4","last_reported":1778638109,"current_range_meters":6800,"station_id":"","pricing_plan_id":"cebpf4jnsgd1na2vs0mg"},{"bike_id":"c57b9d8b-726c-424e-a5d4-cee105e1ed0e","system_id":"levelo_inurba_marseille","lat":43.26186,"lon":5.37947,"is_reserved":false,"is_disabled":false,"rental_uris":{"android":"levelo://app?vid=c57b9d8b-726c-424e-a5d4-cee105e1ed0e","ios":"levelo://app?vid=c57b9d8b-726c-424e-a5d4-cee105e1ed0e"},"vehicle_type_id":"4","last_reported":1778638109,"current_range_meters":6800,"station_id":"ce4bhjp2rcd13ifvqg90","pricing_plan_id":"cebpf4jnsgd1na2vs0mg"},{"bike_id":"f4a9f1cb-0b8b-40b5-9761-bed01b208aa9","system_id":"levelo_inurba_marseille","lat":43.27548,"lon":5.38426,"is_reserved":false,"is_disabled":true,"rental_uris":{"android":"levelo://app?vid=f4a9f1cb-0b8b-40b5-9761-bed01b208aa9","ios":"levelo://app?vid=f4a9f1cb-0b8b-40b5-9761-bed01b208aa9"},"vehicle_type_id":"4","last_reported":1778638109,"current_range_meters":6800,"station_id":"ce4bhh92rcd13ifvqfi0","pricing_plan_id":"cebpf4jnsgd1na2vs0mg"},{"bike_id":"211cea86-71fd-43ef-9b6e-844e35d10a69","system_id":"levelo_inurba_marseille","lat":43.26184,"lon":5.375,"is_reserved":false,"is_disabled":true,"rental_uris":{"android":"levelo://app?vid=211cea86-71fd-43ef-9b6e-844e35d10a69","ios":"levelo://app?vid=211cea86-71fd-43ef-9b6e-844e35d10a69"},"vehicle_type_id":"4","last_reported":1778638109,"current_range_meters":6800,"station_id":"ce4bhgp2rcd13ifvqfc0","pricing_plan_id":"cebpf4jnsgd1na2vs0mg"},{"bike_id":"00f9e8e9-a796-4063-972a-6a13a52bcfd2","system_id":"levelo_inurba_marseille","lat":43.28661,"lon":5.36257,"is_reserved":false,"is_disabled":false,"rental_uris":{"android":"levelo://app?vid=00f9e8e9-a796-4063-972a-6a13a52bcfd2","ios":"levelo://app?vid=00f9e8e9-a796-4063-972a-6a13a52bcfd2"},"vehicle_type_id":"4","last_reported":1778638109,"current_range_meters":6800,"station_id":"","pricing_plan_id":"cebpf4jnsgd1na2vs0mg"},{"bike_id":"3882a180-349e-41b4-a998-618d45401296","system_id":"levelo_inurba_marseille","lat":43.31991,"lon":5.38144,"is_reserved":false,"is_disabled":false,"rental_uris":{"android":"levelo://app?vid=3882a180-349e-41b4-a998-618d45401296","ios":"levelo://app?vid=3882a180-349e-41b4-a998-618d45401296"},"vehicle_type_id":"4","last_reported":1778638109,"current_range_meters":6800,"station_id":"ce4bhr12rcd13ifvqhpg","pricing_plan_id":"cebpf4jnsgd1na2vs0mg"},{"bike_id":"2349ea46-0be2-4783-9cc1-d4256fdedf0c","system_id":"levelo_inurba_marseille","lat":43.31275,"lon":5.40166,"is_reserved":false,"is_disabled":false,"rental_uris":{"android":"levelo://app?vid=2349ea46-0be2-4783-9cc1-d4256fdedf0c","ios":"levelo://app?vid=2349ea46-0be2-4783-9cc1-d4256fdedf0c"},"vehicle_type_id":"4","last_reported":1778638109,"current_range_meters":6800,"station_id":"ce4bh092rcd13ifvqd30","pricing_plan_id":"cebpf4jnsgd1na2vs0mg"},{"bike_id":"a6cb16de-a047-4a34-8320-dcf91eb1b0d6","system_id":"levelo_inurba_marseille","lat":43.31368,"lon":5.39699,"is_reserved":false,"is_disabled":false,"rental_uris":{"android":"levelo://app?vid=a6cb16de-a047-4a34-8320-dcf91eb1b0d6","ios":"levelo://app?vid=a6cb16de-a047-4a34-8320-dcf91eb1b0d6"},"vehicle_type_id":"4","last_reported":1778638109,"current_range_meters":6800,"station_id":"ce4bgvp2rcd13ifvqcu0","pricing_plan_id":"cebpf4jnsgd1na2vs0mg"},{"bike_id":"d81f348a-5a0d-4a29-b6c6-358f9d732682","system_id":"levelo_inurba_marseille","lat":43.26032,"lon":5.37553,"is_reserved":false,"is_disabled":false,"rental_uris":{"android":"levelo://app?vid=d81f348a-5a0d-4a29-b6c6-358f9d732682","ios":"levelo://app?vid=d81f348a-5a0d-4a29-b6c6-358f9d732682"},"vehicle_type_id":"4","last_reported":1778638109,"current_range_meters":7200,"station_id":"ce4bhgh2rcd13ifvqfa0","pricing_plan_id":"cebpf4jnsgd1na2vs0mg"},{"bike_id":"9adf12da-a066-47bc-88ed-df17ebb4f248","system_id":"levelo_inurba_marseille","lat":43.28489,"lon":5.38416,"is_reserved":false,"is_disabled":false,"rental_uris":{"android":"levelo://app?vid=9adf12da-a066-47bc-88ed-df17ebb4f248","ios":"levelo://app?vid=9adf12da-a066-47bc-88ed-df17ebb4f248"},"vehicle_type_id":"4","last_reported":1778638109,"current_range_meters":7200,"station_id":"ce4bh512rcd13ifvqe3g","pricing_plan_id":"cebpf4jnsgd1na2vs0mg"},{"bike_id":"b0e95f01-637c-48ac-b86a-470d9ecdac30","system_id":"levelo_inurba_marseille","lat":43.31168,"lon":5.38716,"is_reserved":false,"is_disabled":false,"rental_uris":{"android":"levelo://app?vid=b0e95f01-637c-48ac-b86a-470d9ecdac30","ios":"levelo://app?vid=b0e95f01-637c-48ac-b86a-470d9ecdac30"},"vehicle_type_id":"4","last_reported":1778638109,"current_range_meters":7200,"station_id":"ce4bgv12rcd13ifvqcp0","pricing_plan_id":"cebpf4jnsgd1na2vs0mg"},{"bike_id":"e04ab780-4b81-4dfe-8702-69cd383d493e","system_id":"levelo_inurba_marseille","lat":43.24493,"lon":5.42145,"is_reserved":false,"is_disabled":false,"rental_uris":{"android":"levelo://app?vid=e04ab780-4b81-4dfe-8702-69cd383d493e","ios":"levelo://app?vid=e04ab780-4b81-4dfe-8702-69cd383d493e"},"vehicle_type_id":"4","last_reported":1778638109,"current_range_meters":7200,"station_id":"","pricing_plan_id":"cebpf4jnsgd1na2vs0mg"},{"bike_id":"f96c72da-1adc-427e-a4c0-30afefc40d90","system_id":"levelo_inurba_marseille","lat":43.28521,"lon":5.4409,"is_reserved":false,"is_disabled":true,"rental_uris":{"android":"levelo://app?vid=f96c72da-1adc-427e-a4c0-30afefc40d90","ios":"levelo://app?vid=f96c72da-1adc-427e-a4c0-30afefc40d90"},"vehicle_type_id":"4","last_reported":1778638109,"current_range_meters":7200,"station_id":"st_d3j3df2ikq2c7380ej80","pricing_plan_id":"cebpf4jnsgd1na2vs0mg"},{"bike_id":"53c3731c-6f39-49cc-9bdc-d53bb71201eb","system_id":"levelo_inurba_marseille","lat":43.30677,"lon":5.40057,"is_reserved":false,"is_disabled":false,"rental_uris":{"android":"levelo://app?vid=53c3731c-6f39-49cc-9bdc-d53bb71201eb","ios":"levelo://app?vid=53c3731c-6f39-49cc-9bdc-d53bb71201eb"},"vehicle_type_id":"4","last_reported":1778638109,"current_range_meters":7200,"station_id":"","pricing_plan_id":"cebpf4jnsgd1na2vs0mg"},{"bike_id":"31747b77-362c-454f-b967-04fec5720f77","system_id":"levelo_inurba_marseille","lat":43.25083,"lon":5.39541,"is_reserved":false,"is_disabled":false,"rental_uris":{"android":"levelo://app?vid=31747b77-362c-454f-b967-04fec5720f77","ios":"levelo://app?vid=31747b77-362c-454f-b967-04fec5720f77"},"vehicle_type_id":"4","last_reported":1778638109,"current_range_meters":7200,"station_id":"ce4bhm12rcd13ifvqgkg","pricing_plan_id":"cebpf4jnsgd1na2vs0mg"},{"bike_id":"2e172c73-8fd7-4fc9-a807-804ce0f5a8bb","system_id":"levelo_inurba_marseille","lat":43.31435,"lon":5.38514,"is_reserved":false,"is_disabled":false,"rental_uris":{"android":"levelo://app?vid=2e172c73-8fd7-4fc9-a807-804ce0f5a8bb","ios":"levelo://app?vid=2e172c73-8fd7-4fc9-a807-804ce0f5a8bb"},"vehicle_type_id":"4","last_reported":1778638109,"current_range_meters":7200,"station_id":"","pricing_plan_id":"cebpf4jnsgd1na2vs0mg"},{"bike_id":"c86bf7d9-bb52-4428-92d4-6f1bbf9ab470","system_id":"levelo_inurba_marseille","lat":43.23189,"lon":5.39974,"is_reserved":false,"is_disabled":false,"rental_uris":{"android":"levelo://app?vid=c86bf7d9-bb52-4428-92d4-6f1bbf9ab470","ios":"levelo://app?vid=c86bf7d9-bb52-4428-92d4-6f1bbf9ab470"},"vehicle_type_id":"4","last_reported":1778638109,"current_range_meters":7200,"station_id":"ce4bhn12rcd13ifvqgqg","pricing_plan_id":"cebpf4jnsgd1na2vs0mg"},{"bike_id":"7d495a91-4757-4bd7-b72f-ad237a9371f1","system_id":"levelo_inurba_marseille","lat":43.2115,"lon":5.35021,"is_reserved":false,"is_disabled":false,"rental_uris":{"android":"levelo://app?vid=7d495a91-4757-4bd7-b72f-ad237a9371f1","ios":"levelo://app?vid=7d495a91-4757-4bd7-b72f-ad237a9371f1"},"vehicle_type_id":"4","last_reported":1778638109,"current_range_meters":7200,"station_id":"","pricing_plan_id":"cebpf4jnsgd1na2vs0mg"},{"bike_id":"fe05840d-fbf6-4459-a552-860cb30bbc2e","system_id":"levelo_inurba_marseille","lat":43.28447,"lon":5.35885,"is_reserved":false,"is_disabled":false,"rental_uris":{"android":"levelo://app?vid=fe05840d-fbf6-4459-a552-860cb30bbc2e","ios":"levelo://app?vid=fe05840d-fbf6-4459-a552-860cb30bbc2e"},"vehicle_type_id":"4","last_reported":1778638109,"current_range_meters":7200,"station_id":"ce4bhah2rcd13ifvqei0","pricing_plan_id":"cebpf4jnsgd1na2vs0mg"},{"bike_id":"73f702fb-dd5a-471c-90cc-142501c193f7","system_id":"levelo_inurba_marseille","lat":43.28695,"lon":5.46693,"is_reserved":false,"is_disabled":false,"rental_uris":{"android":"levelo://app?vid=73f702fb-dd5a-471c-90cc-142501c193f7","ios":"levelo://app?vid=73f702fb-dd5a-471c-90cc-142501c193f7"},"vehicle_type_id":"4","last_reported":1778638109,"current_range_meters":7200,"station_id":"st_d6tc3vkotcvc738tfjhg","pricing_plan_id":"cebpf4jnsgd1na2vs0mg"},{"bike_id":"acdc7f9f-c208-4d71-8aab-07abf62efdc3","system_id":"levelo_inurba_marseille","lat":43.33761,"lon":5.37453,"is_reserved":false,"is_disabled":false,"rental_uris":{"android":"levelo://app?vid=acdc7f9f-c208-4d71-8aab-07abf62efdc3","ios":"levelo://app?vid=acdc7f9f-c208-4d71-8aab-07abf62efdc3"},"vehicle_type_id":"4","last_reported":1778638109,"current_range_meters":8000,"station_id":"","pricing_plan_id":"cebpf4jnsgd1na2vs0mg"},{"bike_id":"19e877fd-e015-4a86-8008-1a0d333eea65","system_id":"levelo_inurba_marseille","lat":43.33527,"lon":5.37504,"is_reserved":false,"is_disabled":false,"rental_uris":{"android":"levelo://app?vid=19e877fd-e015-4a86-8008-1a0d333eea65","ios":"levelo://app?vid=19e877fd-e015-4a86-8008-1a0d333eea65"},"vehicle_type_id":"4","last_reported":1778638109,"current_range_meters":8000,"station_id":"st_d46tts09ee8s73dlu43g","pricing_plan_id":"cebpf4jnsgd1na2vs0mg"},{"bike_id":"be516926-fe12-4374-9b96-0a5d95fc4532","system_id":"levelo_inurba_marseille","lat":43.225323,"lon":5.348352,"is_reserved":false,"is_disabled":false,"rental_uris":{"android":"levelo://app?vid=be516926-fe12-4374-9b96-0a5d95fc4532","ios":"levelo://app?vid=be516926-fe12-4374-9b96-0a5d95fc4532"},"vehicle_type_id":"4","last_reported":1778638109,"current_range_meters":8000,"station_id":"st_cvj5dfep6f1abm77gieg","pricing_plan_id":"cebpf4jnsgd1na2vs0mg"},{"bike_id":"6f2df2e0-dc24-43cf-90ac-8860d7034f33","system_id":"levelo_inurba_marseille","lat":43.24683,"lon":5.38142,"is_reserved":false,"is_disabled":false,"rental_uris":{"android":"levelo://app?vid=6f2df2e0-dc24-43cf-90ac-8860d7034f33","ios":"levelo://app?vid=6f2df2e0-dc24-43cf-90ac-8860d7034f33"},"vehicle_type_id":"4","last_reported":1778638109,"current_range_meters":8000,"station_id":"ce4bhih2rcd13ifvqfr0","pricing_plan_id":"cebpf4jnsgd1na2vs0mg"},{"bike_id":"12831884-053b-433a-b0e0-7a11953437fd","system_id":"levelo_inurba_marseille","lat":43.28408,"lon":5.34981,"is_reserved":false,"is_disabled":false,"rental_uris":{"android":"levelo://app?vid=12831884-053b-433a-b0e0-7a11953437fd","ios":"levelo://app?vid=12831884-053b-433a-b0e0-7a11953437fd"},"vehicle_type_id":"4","last_reported":1778638109,"current_range_meters":8000,"station_id":"ce4bhbh2rcd13ifvqepg","pricing_plan_id":"cebpf4jnsgd1na2vs0mg"},{"bike_id":"2aaf8d3d-dddc-4659-85e7-34b3b97fa5bc","system_id":"levelo_inurba_marseille","lat":43.21194,"lon":5.35077,"is_reserved":false,"is_disabled":false,"rental_uris":{"android":"levelo://app?vid=2aaf8d3d-dddc-4659-85e7-34b3b97fa5bc","ios":"levelo://app?vid=2aaf8d3d-dddc-4659-85e7-34b3b97fa5bc"},"vehicle_type_id":"4","last_reported":1778638109,"current_range_meters":8000,"station_id":"st_cvj6sg6p6f1abm77japg","pricing_plan_id":"cebpf4jnsgd1na2vs0mg"},{"bike_id":"f915b850-cfc7-49b5-8ad0-d9207a829577","system_id":"levelo_inurba_marseille","lat":43.28613,"lon":5.36234,"is_reserved":false,"is_disabled":false,"rental_uris":{"android":"levelo://app?vid=f915b850-cfc7-49b5-8ad0-d9207a829577","ios":"levelo://app?vid=f915b850-cfc7-49b5-8ad0-d9207a829577"},"vehicle_type_id":"4","last_reported":1778638109,"current_range_meters":8000,"station_id":"","pricing_plan_id":"cebpf4jnsgd1na2vs0mg"},{"bike_id":"4196c41d-8bac-4f59-809d-20c5bacf0921","system_id":"levelo_inurba_marseille","lat":43.2871,"lon":5.4668,"is_reserved":false,"is_disabled":false,"rental_uris":{"android":"levelo://app?vid=4196c41d-8bac-4f59-809d-20c5bacf0921","ios":"levelo://app?vid=4196c41d-8bac-4f59-809d-20c5bacf0921"},"vehicle_type_id":"4","last_reported":1778638109,"current_range_meters":8000,"station_id":"st_d6tc3vkotcvc738tfjhg","pricing_plan_id":"cebpf4jnsgd1na2vs0mg"},{"bike_id":"98007b5a-d7c7-4083-a2cd-d8263d5e7418","system_id":"levelo_inurba_marseille","lat":43.29931,"lon":5.37468,"is_reserved":false,"is_disabled":false,"rental_uris":{"android":"levelo://app?vid=98007b5a-d7c7-4083-a2cd-d8263d5e7418","ios":"levelo://app?vid=98007b5a-d7c7-4083-a2cd-d8263d5e7418"},"vehicle_type_id":"4","last_reported":1778638109,"current_range_meters":8000,"station_id":"ce4bgjh2rcd13ifvqbg0","pricing_plan_id":"cebpf4jnsgd1na2vs0mg"},{"bike_id":"2a6fe7fe-2451-4ede-8fc6-0da3ab1a70a9","system_id":"levelo_inurba_marseille","lat":43.23188,"lon":5.35564,"is_reserved":false,"is_disabled":false,"rental_uris":{"android":"levelo://app?vid=2a6fe7fe-2451-4ede-8fc6-0da3ab1a70a9","ios":"levelo://app?vid=2a6fe7fe-2451-4ede-8fc6-0da3ab1a70a9"},"vehicle_type_id":"4","last_reported":1778638109,"current_range_meters":8000,"station_id":"ce4bhu92rcd13ifvqi70","pricing_plan_id":"cebpf4jnsgd1na2vs0mg"},{"bike_id":"924c7b02-e21c-4947-adb6-7efece53a228","system_id":"levelo_inurba_marseille","lat":43.23149,"lon":5.43724,"is_reserved":false,"is_disabled":false,"rental_uris":{"android":"levelo://app?vid=924c7b02-e21c-4947-adb6-7efece53a228","ios":"levelo://app?vid=924c7b02-e21c-4947-adb6-7efece53a228"},"vehicle_type_id":"4","last_reported":1778638109,"current_range_meters":8000,"station_id":"ce4bhmp2rcd13ifvqgog","pricing_plan_id":"cebpf4jnsgd1na2vs0mg"},{"bike_id":"28b56359-407e-4fcf-acbd-463d51f163a6","system_id":"levelo_inurba_marseille","lat":43.25107,"lon":5.40331,"is_reserved":false,"is_disabled":false,"rental_uris":{"android":"levelo://app?vid=28b56359-407e-4fcf-acbd-463d51f163a6","ios":"levelo://app?vid=28b56359-407e-4fcf-acbd-463d51f163a6"},"vehicle_type_id":"4","last_reported":1778638109,"current_range_meters":8000,"station_id":"ce4bhlh2rcd13ifvqgig","pricing_plan_id":"cebpf4jnsgd1na2vs0mg"},{"bike_id":"3fd47180-2cb2-4558-99f2-cf2753ea82b4","system_id":"levelo_inurba_marseille","lat":43.29531,"lon":5.39028,"is_reserved":false,"is_disabled":true,"rental_uris":{"android":"levelo://app?vid=3fd47180-2cb2-4558-99f2-cf2753ea82b4","ios":"levelo://app?vid=3fd47180-2cb2-4558-99f2-cf2753ea82b4"},"vehicle_type_id":"4","last_reported":1778638109,"current_range_meters":8000,"station_id":"ce4bh3p2rcd13ifvqdp0","pricing_plan_id":"cebpf4jnsgd1na2vs0mg"},{"bike_id":"0fcc3a6f-f9c3-49e9-a413-6cba21396f90","system_id":"levelo_inurba_marseille","lat":43.28715,"lon":5.37374,"is_reserved":false,"is_disabled":false,"rental_uris":{"android":"levelo://app?vid=0fcc3a6f-f9c3-49e9-a413-6cba21396f90","ios":"levelo://app?vid=0fcc3a6f-f9c3-49e9-a413-6cba21396f90"},"vehicle_type_id":"4","last_reported":1778638109,"current_range_meters":8000,"station_id":"ce4bh3p2rcd13ifvqdq0","pricing_plan_id":"cebpf4jnsgd1na2vs0mg"},{"bike_id":"e1b6af69-766f-48bb-9170-495af6b9740c","system_id":"levelo_inurba_marseille","lat":43.29038,"lon":5.39951,"is_reserved":false,"is_disabled":false,"rental_uris":{"android":"levelo://app?vid=e1b6af69-766f-48bb-9170-495af6b9740c","ios":"levelo://app?vid=e1b6af69-766f-48bb-9170-495af6b9740c"},"vehicle_type_id":"4","last_reported":1778638109,"current_range_meters":8000,"station_id":"ce4bh392rcd13ifvqdm0","pricing_plan_id":"cebpf4jnsgd1na2vs0mg"},{"bike_id":"1da6257b-f1af-4a48-8996-6c5a6ab19545","system_id":"levelo_inurba_marseille","lat":43.2466,"lon":5.38179,"is_reserved":false,"is_disabled":false,"rental_uris":{"android":"levelo://app?vid=1da6257b-f1af-4a48-8996-6c5a6ab19545","ios":"levelo://app?vid=1da6257b-f1af-4a48-8996-6c5a6ab19545"},"vehicle_type_id":"4","last_reported":1778638109,"current_range_meters":8000,"station_id":"ce4bhih2rcd13ifvqfr0","pricing_plan_id":"cebpf4jnsgd1na2vs0mg"},{"bike_id":"6ce9189e-3bcd-44c8-90a0-8435ca9bae4a","system_id":"levelo_inurba_marseille","lat":43.28012,"lon":5.39322,"is_reserved":false,"is_disabled":false,"rental_uris":{"android":"levelo://app?vid=6ce9189e-3bcd-44c8-90a0-8435ca9bae4a","ios":"levelo://app?vid=6ce9189e-3bcd-44c8-90a0-8435ca9bae4a"},"vehicle_type_id":"4","last_reported":1778638109,"current_range_meters":8000,"station_id":"","pricing_plan_id":"cebpf4jnsgd1na2vs0mg"},{"bike_id":"f89dc7a0-fe47-41cb-ba00-70c80de88b25","system_id":"levelo_inurba_marseille","lat":43.24694,"lon":5.38132,"is_reserved":false,"is_disabled":false,"rental_uris":{"android":"levelo://app?vid=f89dc7a0-fe47-41cb-ba00-70c80de88b25","ios":"levelo://app?vid=f89dc7a0-fe47-41cb-ba00-70c80de88b25"},"vehicle_type_id":"4","last_reported":1778638109,"current_range_meters":8400,"station_id":"ce4bhih2rcd13ifvqfr0","pricing_plan_id":"cebpf4jnsgd1na2vs0mg"},{"bike_id":"2aad52d5-6a56-4a4d-b89e-2cdd466252cd","system_id":"levelo_inurba_marseille","lat":43.26196,"lon":5.40419,"is_reserved":false,"is_disabled":true,"rental_uris":{"android":"levelo://app?vid=2aad52d5-6a56-4a4d-b89e-2cdd466252cd","ios":"levelo://app?vid=2aad52d5-6a56-4a4d-b89e-2cdd466252cd"},"vehicle_type_id":"4","last_reported":1778638109,"current_range_meters":8400,"station_id":"ce4bhmh2rcd13ifvqgmg","pricing_plan_id":"cebpf4jnsgd1na2vs0mg"},{"bike_id":"c71e059e-2c2a-4884-bb62-cfa9f38e88c7","system_id":"levelo_inurba_marseille","lat":43.25584,"lon":5.3821,"is_reserved":false,"is_disabled":false,"rental_uris":{"android":"levelo://app?vid=c71e059e-2c2a-4884-bb62-cfa9f38e88c7","ios":"levelo://app?vid=c71e059e-2c2a-4884-bb62-cfa9f38e88c7"},"vehicle_type_id":"4","last_reported":1778638109,"current_range_meters":8400,"station_id":"ce4bhih2rcd13ifvqfs0","pricing_plan_id":"cebpf4jnsgd1na2vs0mg"},{"bike_id":"cc35d2bb-6d25-489d-94f5-d5160311de4c","system_id":"levelo_inurba_marseille","lat":43.288594,"lon":5.425146,"is_reserved":false,"is_disabled":true,"rental_uris":{"android":"levelo://app?vid=cc35d2bb-6d25-489d-94f5-d5160311de4c","ios":"levelo://app?vid=cc35d2bb-6d25-489d-94f5-d5160311de4c"},"vehicle_type_id":"4","last_reported":1778638109,"current_range_meters":8400,"station_id":"","pricing_plan_id":"cebpf4jnsgd1na2vs0mg"},{"bike_id":"f2a38a5b-b7fa-4592-b5b3-6940a16ec4ef","system_id":"levelo_inurba_marseille","lat":43.28432,"lon":5.34999,"is_reserved":false,"is_disabled":false,"rental_uris":{"android":"levelo://app?vid=f2a38a5b-b7fa-4592-b5b3-6940a16ec4ef","ios":"levelo://app?vid=f2a38a5b-b7fa-4592-b5b3-6940a16ec4ef"},"vehicle_type_id":"4","last_reported":1778638109,"current_range_meters":8400,"station_id":"ce4bhbh2rcd13ifvqepg","pricing_plan_id":"cebpf4jnsgd1na2vs0mg"},{"bike_id":"8c3176fb-911f-46c7-9bb6-9f2fd9293ea6","system_id":"levelo_inurba_marseille","lat":43.25349,"lon":5.42179,"is_reserved":false,"is_disabled":false,"rental_uris":{"android":"levelo://app?vid=8c3176fb-911f-46c7-9bb6-9f2fd9293ea6","ios":"levelo://app?vid=8c3176fb-911f-46c7-9bb6-9f2fd9293ea6"},"vehicle_type_id":"4","last_reported":1778638109,"current_range_meters":8400,"station_id":"st_d2m65c5bi1j21697t3ng","pricing_plan_id":"cebpf4jnsgd1na2vs0mg"},{"bike_id":"68bbdbe7-9f72-4642-9f37-9ae265a9daa7","system_id":"levelo_inurba_marseille","lat":43.24459,"lon":5.42551,"is_reserved":false,"is_disabled":false,"rental_uris":{"android":"levelo://app?vid=68bbdbe7-9f72-4642-9f37-9ae265a9daa7","ios":"levelo://app?vid=68bbdbe7-9f72-4642-9f37-9ae265a9daa7"},"vehicle_type_id":"4","last_reported":1778638109,"current_range_meters":8400,"station_id":"st_d4a3vfp97mjs738cd8kg","pricing_plan_id":"cebpf4jnsgd1na2vs0mg"},{"bike_id":"88721549-cd88-4d1d-8f8a-61e1680e37ae","system_id":"levelo_inurba_marseille","lat":43.27908,"lon":5.39581,"is_reserved":false,"is_disabled":false,"rental_uris":{"android":"levelo://app?vid=88721549-cd88-4d1d-8f8a-61e1680e37ae","ios":"levelo://app?vid=88721549-cd88-4d1d-8f8a-61e1680e37ae"},"vehicle_type_id":"4","last_reported":1778638109,"current_range_meters":8400,"station_id":"ce4bhf92rcd13ifvqf40","pricing_plan_id":"cebpf4jnsgd1na2vs0mg"},{"bike_id":"8124d941-3105-4cbf-a823-508970bbb225","system_id":"levelo_inurba_marseille","lat":43.2841,"lon":5.35913,"is_reserved":false,"is_disabled":false,"rental_uris":{"android":"levelo://app?vid=8124d941-3105-4cbf-a823-508970bbb225","ios":"levelo://app?vid=8124d941-3105-4cbf-a823-508970bbb225"},"vehicle_type_id":"4","last_reported":1778638109,"current_range_meters":8400,"station_id":"","pricing_plan_id":"cebpf4jnsgd1na2vs0mg"},{"bike_id":"9abf0e07-6af0-4096-9767-49724c8658ba","system_id":"levelo_inurba_marseille","lat":43.30642,"lon":5.40071,"is_reserved":false,"is_disabled":false,"rental_uris":{"android":"levelo://app?vid=9abf0e07-6af0-4096-9767-49724c8658ba","ios":"levelo://app?vid=9abf0e07-6af0-4096-9767-49724c8658ba"},"vehicle_type_id":"4","last_reported":1778638109,"current_range_meters":8400,"station_id":"ce4bh112rcd13ifvqda0","pricing_plan_id":"cebpf4jnsgd1na2vs0mg"},{"bike_id":"811afb00-d1e9-4049-a765-f0abcbc08677","system_id":"levelo_inurba_marseille","lat":43.3127,"lon":5.4016,"is_reserved":false,"is_disabled":false,"rental_uris":{"android":"levelo://app?vid=811afb00-d1e9-4049-a765-f0abcbc08677","ios":"levelo://app?vid=811afb00-d1e9-4049-a765-f0abcbc08677"},"vehicle_type_id":"4","last_reported":1778638109,"current_range_meters":8400,"station_id":"ce4bh092rcd13ifvqd30","pricing_plan_id":"cebpf4jnsgd1na2vs0mg"},{"bike_id":"0ad9f56c-0cb1-4ddd-bfff-c7b211f4a077","system_id":"levelo_inurba_marseille","lat":43.23461,"lon":5.37219,"is_reserved":false,"is_disabled":false,"rental_uris":{"android":"levelo://app?vid=0ad9f56c-0cb1-4ddd-bfff-c7b211f4a077","ios":"levelo://app?vid=0ad9f56c-0cb1-4ddd-bfff-c7b211f4a077"},"vehicle_type_id":"4","last_reported":1778638109,"current_range_meters":8400,"station_id":"","pricing_plan_id":"cebpf4jnsgd1na2vs0mg"},{"bike_id":"6f8b0d63-4a27-4c64-8991-130a8e2c7266","system_id":"levelo_inurba_marseille","lat":43.33157,"lon":5.37708,"is_reserved":false,"is_disabled":false,"rental_uris":{"android":"levelo://app?vid=6f8b0d63-4a27-4c64-8991-130a8e2c7266","ios":"levelo://app?vid=6f8b0d63-4a27-4c64-8991-130a8e2c7266"},"vehicle_type_id":"4","last_reported":1778638109,"current_range_meters":8400,"station_id":"st_d46cu089ee8s73dldbu0","pricing_plan_id":"cebpf4jnsgd1na2vs0mg"},{"bike_id":"3f83eb6e-a4d0-48ab-97bf-0de19e6aa5a2","system_id":"levelo_inurba_marseille","lat":43.23208,"lon":5.35543,"is_reserved":false,"is_disabled":false,"rental_uris":{"android":"levelo://app?vid=3f83eb6e-a4d0-48ab-97bf-0de19e6aa5a2","ios":"levelo://app?vid=3f83eb6e-a4d0-48ab-97bf-0de19e6aa5a2"},"vehicle_type_id":"4","last_reported":1778638109,"current_range_meters":8400,"station_id":"ce4bhu92rcd13ifvqi70","pricing_plan_id":"cebpf4jnsgd1na2vs0mg"},{"bike_id":"e267adc5-5f11-46b6-a0f3-78f119b246da","system_id":"levelo_inurba_marseille","lat":43.23194,"lon":5.39981,"is_reserved":false,"is_disabled":false,"rental_uris":{"android":"levelo://app?vid=e267adc5-5f11-46b6-a0f3-78f119b246da","ios":"levelo://app?vid=e267adc5-5f11-46b6-a0f3-78f119b246da"},"vehicle_type_id":"4","last_reported":1778638109,"current_range_meters":8400,"station_id":"ce4bhn12rcd13ifvqgqg","pricing_plan_id":"cebpf4jnsgd1na2vs0mg"},{"bike_id":"daef2f3d-2ff9-4500-bd35-38c513de9ce8","system_id":"levelo_inurba_marseille","lat":43.2904,"lon":5.38612,"is_reserved":false,"is_disabled":false,"rental_uris":{"android":"levelo://app?vid=daef2f3d-2ff9-4500-bd35-38c513de9ce8","ios":"levelo://app?vid=daef2f3d-2ff9-4500-bd35-38c513de9ce8"},"vehicle_type_id":"4","last_reported":1778638109,"current_range_meters":8400,"station_id":"ce4bh4p2rcd13ifvqe0g","pricing_plan_id":"cebpf4jnsgd1na2vs0mg"},{"bike_id":"dd4919bf-f8b7-492c-8d47-076362757035","system_id":"levelo_inurba_marseille","lat":43.30963,"lon":5.39066,"is_reserved":false,"is_disabled":false,"rental_uris":{"android":"levelo://app?vid=dd4919bf-f8b7-492c-8d47-076362757035","ios":"levelo://app?vid=dd4919bf-f8b7-492c-8d47-076362757035"},"vehicle_type_id":"4","last_reported":1778638109,"current_range_meters":8800,"station_id":"ce4bgup2rcd13ifvqco0","pricing_plan_id":"cebpf4jnsgd1na2vs0mg"},{"bike_id":"36e3a8e3-2e71-44bc-bd7c-83db99a2b6ca","system_id":"levelo_inurba_marseille","lat":43.25871,"lon":5.39905,"is_reserved":false,"is_disabled":false,"rental_uris":{"android":"levelo://app?vid=36e3a8e3-2e71-44bc-bd7c-83db99a2b6ca","ios":"levelo://app?vid=36e3a8e3-2e71-44bc-bd7c-83db99a2b6ca"},"vehicle_type_id":"4","last_reported":1778638109,"current_range_meters":8800,"station_id":"ce4bhl92rcd13ifvqghg","pricing_plan_id":"cebpf4jnsgd1na2vs0mg"},{"bike_id":"3e31714a-c8a2-4aab-9798-b2a4bd0e5358","system_id":"levelo_inurba_marseille","lat":43.31163,"lon":5.38725,"is_reserved":false,"is_disabled":false,"rental_uris":{"android":"levelo://app?vid=3e31714a-c8a2-4aab-9798-b2a4bd0e5358","ios":"levelo://app?vid=3e31714a-c8a2-4aab-9798-b2a4bd0e5358"},"vehicle_type_id":"4","last_reported":1778638109,"current_range_meters":8800,"station_id":"ce4bgv12rcd13ifvqcp0","pricing_plan_id":"cebpf4jnsgd1na2vs0mg"},{"bike_id":"dd9124d2-eae5-4f60-ad7a-7ef70e61f6d7","system_id":"levelo_inurba_marseille","lat":43.33551,"lon":5.37456,"is_reserved":false,"is_disabled":false,"rental_uris":{"android":"levelo://app?vid=dd9124d2-eae5-4f60-ad7a-7ef70e61f6d7","ios":"levelo://app?vid=dd9124d2-eae5-4f60-ad7a-7ef70e61f6d7"},"vehicle_type_id":"4","last_reported":1778638109,"current_range_meters":8800,"station_id":"st_d46tts09ee8s73dlu43g","pricing_plan_id":"cebpf4jnsgd1na2vs0mg"},{"bike_id":"4305922b-886a-4e10-98c5-9db56042926a","system_id":"levelo_inurba_marseille","lat":43.29759,"lon":5.37961,"is_reserved":false,"is_disabled":false,"rental_uris":{"android":"levelo://app?vid=4305922b-886a-4e10-98c5-9db56042926a","ios":"levelo://app?vid=4305922b-886a-4e10-98c5-9db56042926a"},"vehicle_type_id":"4","last_reported":1778638109,"current_range_meters":8800,"station_id":"","pricing_plan_id":"cebpf4jnsgd1na2vs0mg"},{"bike_id":"44769a63-2434-4160-917d-9d5801eaf9ed","system_id":"levelo_inurba_marseille","lat":43.23972,"lon":5.36619,"is_reserved":false,"is_disabled":false,"rental_uris":{"android":"levelo://app?vid=44769a63-2434-4160-917d-9d5801eaf9ed","ios":"levelo://app?vid=44769a63-2434-4160-917d-9d5801eaf9ed"},"vehicle_type_id":"4","last_reported":1778638109,"current_range_meters":8800,"station_id":"ce4bhi12rcd13ifvqfp0","pricing_plan_id":"cebpf4jnsgd1na2vs0mg"},{"bike_id":"9b99215c-c222-4e4c-809c-fc012e76423b","system_id":"levelo_inurba_marseille","lat":43.30429,"lon":5.38909,"is_reserved":false,"is_disabled":false,"rental_uris":{"android":"levelo://app?vid=9b99215c-c222-4e4c-809c-fc012e76423b","ios":"levelo://app?vid=9b99215c-c222-4e4c-809c-fc012e76423b"},"vehicle_type_id":"4","last_reported":1778638109,"current_range_meters":8800,"station_id":"ce4bgk12rcd13ifvqbi0","pricing_plan_id":"cebpf4jnsgd1na2vs0mg"},{"bike_id":"f2cb0a19-1030-4a33-8e5a-97914f8f04d7","system_id":"levelo_inurba_marseille","lat":43.30088,"lon":5.39086,"is_reserved":false,"is_disabled":false,"rental_uris":{"android":"levelo://app?vid=f2cb0a19-1030-4a33-8e5a-97914f8f04d7","ios":"levelo://app?vid=f2cb0a19-1030-4a33-8e5a-97914f8f04d7"},"vehicle_type_id":"4","last_reported":1778638109,"current_range_meters":8800,"station_id":"ce4bh192rcd13ifvqdb0","pricing_plan_id":"cebpf4jnsgd1na2vs0mg"},{"bike_id":"711fdbce-5afc-4a96-878c-4081f52af28f","system_id":"levelo_inurba_marseille","lat":43.28848,"lon":5.39316,"is_reserved":false,"is_disabled":false,"rental_uris":{"android":"levelo://app?vid=711fdbce-5afc-4a96-878c-4081f52af28f","ios":"levelo://app?vid=711fdbce-5afc-4a96-878c-4081f52af28f"},"vehicle_type_id":"4","last_reported":1778638109,"current_range_meters":8800,"station_id":"ce4bh2p2rcd13ifvqdi0","pricing_plan_id":"cebpf4jnsgd1na2vs0mg"},{"bike_id":"a073844e-70ad-469b-9486-00db4f8e69dc","system_id":"levelo_inurba_marseille","lat":43.3144,"lon":5.37392,"is_reserved":false,"is_disabled":false,"rental_uris":{"android":"levelo://app?vid=a073844e-70ad-469b-9486-00db4f8e69dc","ios":"levelo://app?vid=a073844e-70ad-469b-9486-00db4f8e69dc"},"vehicle_type_id":"4","last_reported":1778638109,"current_range_meters":8800,"station_id":"","pricing_plan_id":"cebpf4jnsgd1na2vs0mg"},{"bike_id":"83fa7db2-04cd-4fd4-90ba-2f214eec54af","system_id":"levelo_inurba_marseille","lat":43.31209,"lon":5.36918,"is_reserved":false,"is_disabled":false,"rental_uris":{"android":"levelo://app?vid=83fa7db2-04cd-4fd4-90ba-2f214eec54af","ios":"levelo://app?vid=83fa7db2-04cd-4fd4-90ba-2f214eec54af"},"vehicle_type_id":"4","last_reported":1778638109,"current_range_meters":8800,"station_id":"","pricing_plan_id":"cebpf4jnsgd1na2vs0mg"},{"bike_id":"b0fa62c4-8e6e-443d-b874-58065c9ec11d","system_id":"levelo_inurba_marseille","lat":43.29271,"lon":5.36838,"is_reserved":false,"is_disabled":true,"rental_uris":{"android":"levelo://app?vid=b0fa62c4-8e6e-443d-b874-58065c9ec11d","ios":"levelo://app?vid=b0fa62c4-8e6e-443d-b874-58065c9ec11d"},"vehicle_type_id":"4","last_reported":1778638109,"current_range_meters":8800,"station_id":"ce4bhbp2rcd13ifvqesg","pricing_plan_id":"cebpf4jnsgd1na2vs0mg"},{"bike_id":"e633d23f-b04b-4d56-afeb-43ba816549ac","system_id":"levelo_inurba_marseille","lat":43.30775,"lon":5.38174,"is_reserved":false,"is_disabled":false,"rental_uris":{"android":"levelo://app?vid=e633d23f-b04b-4d56-afeb-43ba816549ac","ios":"levelo://app?vid=e633d23f-b04b-4d56-afeb-43ba816549ac"},"vehicle_type_id":"4","last_reported":1778638109,"current_range_meters":8800,"station_id":"ce4bgt12rcd13ifvqce0","pricing_plan_id":"cebpf4jnsgd1na2vs0mg"},{"bike_id":"638f0fd9-8092-4d8b-9b9b-e7a2a736b653","system_id":"levelo_inurba_marseille","lat":43.27475,"lon":5.41583,"is_reserved":false,"is_disabled":true,"rental_uris":{"android":"levelo://app?vid=638f0fd9-8092-4d8b-9b9b-e7a2a736b653","ios":"levelo://app?vid=638f0fd9-8092-4d8b-9b9b-e7a2a736b653"},"vehicle_type_id":"4","last_reported":1778638109,"current_range_meters":8800,"station_id":"st_d6im8g6chgec73a5pndg","pricing_plan_id":"cebpf4jnsgd1na2vs0mg"},{"bike_id":"dd9d2dfb-afdd-4bed-aa38-8b17dff351c8","system_id":"levelo_inurba_marseille","lat":43.2702,"lon":5.4028,"is_reserved":false,"is_disabled":true,"rental_uris":{"android":"levelo://app?vid=dd9d2dfb-afdd-4bed-aa38-8b17dff351c8","ios":"levelo://app?vid=dd9d2dfb-afdd-4bed-aa38-8b17dff351c8"},"vehicle_type_id":"4","last_reported":1778638109,"current_range_meters":8800,"station_id":"ce4bhk92rcd13ifvqgc0","pricing_plan_id":"cebpf4jnsgd1na2vs0mg"},{"bike_id":"d58bef21-a4b3-4591-9f54-513bd590d665","system_id":"levelo_inurba_marseille","lat":43.31447,"lon":5.37362,"is_reserved":false,"is_disabled":false,"rental_uris":{"android":"levelo://app?vid=d58bef21-a4b3-4591-9f54-513bd590d665","ios":"levelo://app?vid=d58bef21-a4b3-4591-9f54-513bd590d665"},"vehicle_type_id":"4","last_reported":1778638109,"current_range_meters":8800,"station_id":"","pricing_plan_id":"cebpf4jnsgd1na2vs0mg"},{"bike_id":"cd3bf1fa-127b-48f3-b4b1-cec37ebb83c9","system_id":"levelo_inurba_marseille","lat":43.23785,"lon":5.36634,"is_reserved":false,"is_disabled":false,"rental_uris":{"android":"levelo://app?vid=cd3bf1fa-127b-48f3-b4b1-cec37ebb83c9","ios":"levelo://app?vid=cd3bf1fa-127b-48f3-b4b1-cec37ebb83c9"},"vehicle_type_id":"4","last_reported":1778638109,"current_range_meters":8800,"station_id":"st_d3nk18o9ro0c73en2l3g","pricing_plan_id":"cebpf4jnsgd1na2vs0mg"},{"bike_id":"9077c230-1a5d-4d38-94dc-fad0bf598fbc","system_id":"levelo_inurba_marseille","lat":43.31373,"lon":5.38498,"is_reserved":false,"is_disabled":false,"rental_uris":{"android":"levelo://app?vid=9077c230-1a5d-4d38-94dc-fad0bf598fbc","ios":"levelo://app?vid=9077c230-1a5d-4d38-94dc-fad0bf598fbc"},"vehicle_type_id":"4","last_reported":1778638109,"current_range_meters":8800,"station_id":"ce4bgt92rcd13ifvqcf0","pricing_plan_id":"cebpf4jnsgd1na2vs0mg"},{"bike_id":"0190f8d2-01b2-4ee2-9e86-e1660dcf0b09","system_id":"levelo_inurba_marseille","lat":43.28401,"lon":5.34985,"is_reserved":false,"is_disabled":false,"rental_uris":{"android":"levelo://app?vid=0190f8d2-01b2-4ee2-9e86-e1660dcf0b09","ios":"levelo://app?vid=0190f8d2-01b2-4ee2-9e86-e1660dcf0b09"},"vehicle_type_id":"4","last_reported":1778638109,"current_range_meters":8800,"station_id":"ce4bhbh2rcd13ifvqepg","pricing_plan_id":"cebpf4jnsgd1na2vs0mg"},{"bike_id":"94ad0b25-5e51-427b-975e-dbf854287092","system_id":"levelo_inurba_marseille","lat":43.273,"lon":5.3912,"is_reserved":false,"is_disabled":true,"rental_uris":{"android":"levelo://app?vid=94ad0b25-5e51-427b-975e-dbf854287092","ios":"levelo://app?vid=94ad0b25-5e51-427b-975e-dbf854287092"},"vehicle_type_id":"4","last_reported":1778638109,"current_range_meters":8800,"station_id":"ce4bhgp2rcd13ifvqfe0","pricing_plan_id":"cebpf4jnsgd1na2vs0mg"},{"bike_id":"5322637f-a461-443a-a2a9-baa8e4350025","system_id":"levelo_inurba_marseille","lat":43.28654,"lon":5.36332,"is_reserved":false,"is_disabled":false,"rental_uris":{"android":"levelo://app?vid=5322637f-a461-443a-a2a9-baa8e4350025","ios":"levelo://app?vid=5322637f-a461-443a-a2a9-baa8e4350025"},"vehicle_type_id":"4","last_reported":1778638109,"current_range_meters":8800,"station_id":"ce4bhah2rcd13ifvqej0","pricing_plan_id":"cebpf4jnsgd1na2vs0mg"},{"bike_id":"83bf6ff6-004d-42fd-86ae-3a44ccdd11f7","system_id":"levelo_inurba_marseille","lat":43.22918,"lon":5.35387,"is_reserved":false,"is_disabled":true,"rental_uris":{"android":"levelo://app?vid=83bf6ff6-004d-42fd-86ae-3a44ccdd11f7","ios":"levelo://app?vid=83bf6ff6-004d-42fd-86ae-3a44ccdd11f7"},"vehicle_type_id":"4","last_reported":1778638109,"current_range_meters":8800,"station_id":"cpo3532slgdg3j2ikp40","pricing_plan_id":"cebpf4jnsgd1na2vs0mg"},{"bike_id":"30f8e6d4-83a6-4a92-a859-a35a296eed10","system_id":"levelo_inurba_marseille","lat":43.24079,"lon":5.37734,"is_reserved":false,"is_disabled":false,"rental_uris":{"android":"levelo://app?vid=30f8e6d4-83a6-4a92-a859-a35a296eed10","ios":"levelo://app?vid=30f8e6d4-83a6-4a92-a859-a35a296eed10"},"vehicle_type_id":"4","last_reported":1778638109,"current_range_meters":8800,"station_id":"ce4bhnp2rcd13ifvqgvg","pricing_plan_id":"cebpf4jnsgd1na2vs0mg"},{"bike_id":"d1907652-6ca2-4440-a1ea-6d56ba76f62e","system_id":"levelo_inurba_marseille","lat":43.28154,"lon":5.42641,"is_reserved":false,"is_disabled":false,"rental_uris":{"android":"levelo://app?vid=d1907652-6ca2-4440-a1ea-6d56ba76f62e","ios":"levelo://app?vid=d1907652-6ca2-4440-a1ea-6d56ba76f62e"},"vehicle_type_id":"4","last_reported":1778638109,"current_range_meters":8800,"station_id":"ce4bhnh2rcd13ifvqgug","pricing_plan_id":"cebpf4jnsgd1na2vs0mg"},{"bike_id":"190e1df1-9ae7-4b10-8f66-3bf16b4ae39c","system_id":"levelo_inurba_marseille","lat":43.24813,"lon":5.37438,"is_reserved":false,"is_disabled":false,"rental_uris":{"android":"levelo://app?vid=190e1df1-9ae7-4b10-8f66-3bf16b4ae39c","ios":"levelo://app?vid=190e1df1-9ae7-4b10-8f66-3bf16b4ae39c"},"vehicle_type_id":"4","last_reported":1778638109,"current_range_meters":8800,"station_id":"ce4bhgh2rcd13ifvqfb0","pricing_plan_id":"cebpf4jnsgd1na2vs0mg"},{"bike_id":"78f52f56-ce15-4e9b-b104-4fff16726b0b","system_id":"levelo_inurba_marseille","lat":43.30439,"lon":5.389,"is_reserved":false,"is_disabled":true,"rental_uris":{"android":"levelo://app?vid=78f52f56-ce15-4e9b-b104-4fff16726b0b","ios":"levelo://app?vid=78f52f56-ce15-4e9b-b104-4fff16726b0b"},"vehicle_type_id":"4","last_reported":1778638109,"current_range_meters":8800,"station_id":"ce4bgk12rcd13ifvqbi0","pricing_plan_id":"cebpf4jnsgd1na2vs0mg"},{"bike_id":"2db0ffab-6bdd-4726-8016-a3a2ddff536d","system_id":"levelo_inurba_marseille","lat":43.22576,"lon":5.41593,"is_reserved":false,"is_disabled":false,"rental_uris":{"android":"levelo://app?vid=2db0ffab-6bdd-4726-8016-a3a2ddff536d","ios":"levelo://app?vid=2db0ffab-6bdd-4726-8016-a3a2ddff536d"},"vehicle_type_id":"4","last_reported":1778638109,"current_range_meters":8800,"station_id":"st_d2o4gvlbi1j2169b742g","pricing_plan_id":"cebpf4jnsgd1na2vs0mg"},{"bike_id":"a931716f-f8af-4b5c-9dee-9a6ca36a076c","system_id":"levelo_inurba_marseille","lat":43.30127,"lon":5.43113,"is_reserved":false,"is_disabled":false,"rental_uris":{"android":"levelo://app?vid=a931716f-f8af-4b5c-9dee-9a6ca36a076c","ios":"levelo://app?vid=a931716f-f8af-4b5c-9dee-9a6ca36a076c"},"vehicle_type_id":"4","last_reported":1778638109,"current_range_meters":8800,"station_id":"st_d3js3co5814s73ftftug","pricing_plan_id":"cebpf4jnsgd1na2vs0mg"},{"bike_id":"fd120c8e-b042-4872-a431-5878bd1d4208","system_id":"levelo_inurba_marseille","lat":43.28663,"lon":5.36335,"is_reserved":false,"is_disabled":false,"rental_uris":{"android":"levelo://app?vid=fd120c8e-b042-4872-a431-5878bd1d4208","ios":"levelo://app?vid=fd120c8e-b042-4872-a431-5878bd1d4208"},"vehicle_type_id":"4","last_reported":1778638109,"current_range_meters":8800,"station_id":"ce4bhah2rcd13ifvqej0","pricing_plan_id":"cebpf4jnsgd1na2vs0mg"},{"bike_id":"3704172a-bc93-4e25-9d47-6e34d32ba369","system_id":"levelo_inurba_marseille","lat":43.28612,"lon":5.36426,"is_reserved":false,"is_disabled":false,"rental_uris":{"android":"levelo://app?vid=3704172a-bc93-4e25-9d47-6e34d32ba369","ios":"levelo://app?vid=3704172a-bc93-4e25-9d47-6e34d32ba369"},"vehicle_type_id":"4","last_reported":1778638109,"current_range_meters":8800,"station_id":"","pricing_plan_id":"cebpf4jnsgd1na2vs0mg"},{"bike_id":"4a0d7eca-a7cb-4d26-a8d1-60275daff293","system_id":"levelo_inurba_marseille","lat":43.2319,"lon":5.39984,"is_reserved":false,"is_disabled":false,"rental_uris":{"android":"levelo://app?vid=4a0d7eca-a7cb-4d26-a8d1-60275daff293","ios":"levelo://app?vid=4a0d7eca-a7cb-4d26-a8d1-60275daff293"},"vehicle_type_id":"4","last_reported":1778638109,"current_range_meters":8800,"station_id":"ce4bhn12rcd13ifvqgqg","pricing_plan_id":"cebpf4jnsgd1na2vs0mg"},{"bike_id":"addd53b9-5bfd-4c82-ad90-0a6f9e020b2f","system_id":"levelo_inurba_marseille","lat":43.29195,"lon":5.39315,"is_reserved":false,"is_disabled":false,"rental_uris":{"android":"levelo://app?vid=addd53b9-5bfd-4c82-ad90-0a6f9e020b2f","ios":"levelo://app?vid=addd53b9-5bfd-4c82-ad90-0a6f9e020b2f"},"vehicle_type_id":"4","last_reported":1778638109,"current_range_meters":9200,"station_id":"ce4bh192rcd13ifvqdd0","pricing_plan_id":"cebpf4jnsgd1na2vs0mg"},{"bike_id":"0d4108f6-0c96-4efa-83bb-779a347167c3","system_id":"levelo_inurba_marseille","lat":43.28335,"lon":5.38624,"is_reserved":false,"is_disabled":false,"rental_uris":{"android":"levelo://app?vid=0d4108f6-0c96-4efa-83bb-779a347167c3","ios":"levelo://app?vid=0d4108f6-0c96-4efa-83bb-779a347167c3"},"vehicle_type_id":"4","last_reported":1778638109,"current_range_meters":9200,"station_id":"ce4bh492rcd13ifvqdvg","pricing_plan_id":"cebpf4jnsgd1na2vs0mg"},{"bike_id":"0f7e6b61-2009-4fec-a083-16fc45a75068","system_id":"levelo_inurba_marseille","lat":43.27033,"lon":5.42329,"is_reserved":false,"is_disabled":false,"rental_uris":{"android":"levelo://app?vid=0f7e6b61-2009-4fec-a083-16fc45a75068","ios":"levelo://app?vid=0f7e6b61-2009-4fec-a083-16fc45a75068"},"vehicle_type_id":"4","last_reported":1778638109,"current_range_meters":9200,"station_id":"","pricing_plan_id":"cebpf4jnsgd1na2vs0mg"},{"bike_id":"b477be1e-64c7-4e90-bc42-6fe97cda14a2","system_id":"levelo_inurba_marseille","lat":43.29816,"lon":5.42126,"is_reserved":false,"is_disabled":false,"rental_uris":{"android":"levelo://app?vid=b477be1e-64c7-4e90-bc42-6fe97cda14a2","ios":"levelo://app?vid=b477be1e-64c7-4e90-bc42-6fe97cda14a2"},"vehicle_type_id":"4","last_reported":1778638109,"current_range_meters":9200,"station_id":"","pricing_plan_id":"cebpf4jnsgd1na2vs0mg"},{"bike_id":"01b224ee-4c63-40d9-b70d-9fb6c651d396","system_id":"levelo_inurba_marseille","lat":43.29264,"lon":5.40915,"is_reserved":false,"is_disabled":true,"rental_uris":{"android":"levelo://app?vid=01b224ee-4c63-40d9-b70d-9fb6c651d396","ios":"levelo://app?vid=01b224ee-4c63-40d9-b70d-9fb6c651d396"},"vehicle_type_id":"4","last_reported":1778638109,"current_range_meters":9200,"station_id":"ce4bh192rcd13ifvqdc0","pricing_plan_id":"cebpf4jnsgd1na2vs0mg"},{"bike_id":"c835fd90-a60f-4c5f-80e1-644bc17fdd31","system_id":"levelo_inurba_marseille","lat":43.31328,"lon":5.39707,"is_reserved":false,"is_disabled":true,"rental_uris":{"android":"levelo://app?vid=c835fd90-a60f-4c5f-80e1-644bc17fdd31","ios":"levelo://app?vid=c835fd90-a60f-4c5f-80e1-644bc17fdd31"},"vehicle_type_id":"4","last_reported":1778638109,"current_range_meters":9200,"station_id":"ce4bgvp2rcd13ifvqcu0","pricing_plan_id":"cebpf4jnsgd1na2vs0mg"},{"bike_id":"86bf91ab-dda6-4259-8421-fcc138548a66","system_id":"levelo_inurba_marseille","lat":43.26548,"lon":5.37288,"is_reserved":false,"is_disabled":false,"rental_uris":{"android":"levelo://app?vid=86bf91ab-dda6-4259-8421-fcc138548a66","ios":"levelo://app?vid=86bf91ab-dda6-4259-8421-fcc138548a66"},"vehicle_type_id":"4","last_reported":1778638109,"current_range_meters":9200,"station_id":"ce4bhg12rcd13ifvqf70","pricing_plan_id":"cebpf4jnsgd1na2vs0mg"},{"bike_id":"9efa362d-c494-4db9-9a08-175bd2d5550d","system_id":"levelo_inurba_marseille","lat":43.30789,"lon":5.37654,"is_reserved":false,"is_disabled":false,"rental_uris":{"android":"levelo://app?vid=9efa362d-c494-4db9-9a08-175bd2d5550d","ios":"levelo://app?vid=9efa362d-c494-4db9-9a08-175bd2d5550d"},"vehicle_type_id":"4","last_reported":1778638109,"current_range_meters":9200,"station_id":"ce4bgv92rcd13ifvqcq0","pricing_plan_id":"cebpf4jnsgd1na2vs0mg"},{"bike_id":"31abb592-14a8-40e9-9f25-0686c844fefe","system_id":"levelo_inurba_marseille","lat":43.28272,"lon":5.35067,"is_reserved":false,"is_disabled":false,"rental_uris":{"android":"levelo://app?vid=31abb592-14a8-40e9-9f25-0686c844fefe","ios":"levelo://app?vid=31abb592-14a8-40e9-9f25-0686c844fefe"},"vehicle_type_id":"4","last_reported":1778638109,"current_range_meters":9200,"station_id":"ce4bhbp2rcd13ifvqerg","pricing_plan_id":"cebpf4jnsgd1na2vs0mg"},{"bike_id":"3506286c-7dd6-4125-bb3f-687c1b81cf5c","system_id":"levelo_inurba_marseille","lat":43.23186,"lon":5.39978,"is_reserved":false,"is_disabled":false,"rental_uris":{"android":"levelo://app?vid=3506286c-7dd6-4125-bb3f-687c1b81cf5c","ios":"levelo://app?vid=3506286c-7dd6-4125-bb3f-687c1b81cf5c"},"vehicle_type_id":"4","last_reported":1778638109,"current_range_meters":9200,"station_id":"ce4bhn12rcd13ifvqgqg","pricing_plan_id":"cebpf4jnsgd1na2vs0mg"},{"bike_id":"2306f877-b842-402c-843a-66cdaddd94ad","system_id":"levelo_inurba_marseille","lat":43.30656,"lon":5.40074,"is_reserved":false,"is_disabled":false,"rental_uris":{"android":"levelo://app?vid=2306f877-b842-402c-843a-66cdaddd94ad","ios":"levelo://app?vid=2306f877-b842-402c-843a-66cdaddd94ad"},"vehicle_type_id":"4","last_reported":1778638109,"current_range_meters":9200,"station_id":"ce4bh112rcd13ifvqda0","pricing_plan_id":"cebpf4jnsgd1na2vs0mg"},{"bike_id":"91d5ec01-2658-4e1f-af1a-245fb7ea3595","system_id":"levelo_inurba_marseille","lat":43.28695,"lon":5.46687,"is_reserved":false,"is_disabled":false,"rental_uris":{"android":"levelo://app?vid=91d5ec01-2658-4e1f-af1a-245fb7ea3595","ios":"levelo://app?vid=91d5ec01-2658-4e1f-af1a-245fb7ea3595"},"vehicle_type_id":"4","last_reported":1778638109,"current_range_meters":9200,"station_id":"st_d6tc3vkotcvc738tfjhg","pricing_plan_id":"cebpf4jnsgd1na2vs0mg"},{"bike_id":"99d8e637-81d7-47a3-a7e7-1e6e5a8fe0b9","system_id":"levelo_inurba_marseille","lat":43.29944,"lon":5.37126,"is_reserved":false,"is_disabled":false,"rental_uris":{"android":"levelo://app?vid=99d8e637-81d7-47a3-a7e7-1e6e5a8fe0b9","ios":"levelo://app?vid=99d8e637-81d7-47a3-a7e7-1e6e5a8fe0b9"},"vehicle_type_id":"4","last_reported":1778638109,"current_range_meters":9200,"station_id":"","pricing_plan_id":"cebpf4jnsgd1na2vs0mg"},{"bike_id":"64b62b18-b814-4dc3-8090-c8c0105a73f8","system_id":"levelo_inurba_marseille","lat":43.299713,"lon":5.37188,"is_reserved":false,"is_disabled":false,"rental_uris":{"android":"levelo://app?vid=64b62b18-b814-4dc3-8090-c8c0105a73f8","ios":"levelo://app?vid=64b62b18-b814-4dc3-8090-c8c0105a73f8"},"vehicle_type_id":"4","last_reported":1778638109,"current_range_meters":9600,"station_id":"ce4bgr92rcd13ifvqc7g","pricing_plan_id":"cebpf4jnsgd1na2vs0mg"},{"bike_id":"4036d707-70c6-46e1-bb49-c96a8dbbe889","system_id":"levelo_inurba_marseille","lat":43.24166,"lon":5.39702,"is_reserved":false,"is_disabled":false,"rental_uris":{"android":"levelo://app?vid=4036d707-70c6-46e1-bb49-c96a8dbbe889","ios":"levelo://app?vid=4036d707-70c6-46e1-bb49-c96a8dbbe889"},"vehicle_type_id":"4","last_reported":1778638109,"current_range_meters":9600,"station_id":"ce4bhn12rcd13ifvqgpg","pricing_plan_id":"cebpf4jnsgd1na2vs0mg"},{"bike_id":"e3f063b0-bc68-4a05-b4bf-4a932bfdec2a","system_id":"levelo_inurba_marseille","lat":43.25299,"lon":5.42215,"is_reserved":false,"is_disabled":false,"rental_uris":{"android":"levelo://app?vid=e3f063b0-bc68-4a05-b4bf-4a932bfdec2a","ios":"levelo://app?vid=e3f063b0-bc68-4a05-b4bf-4a932bfdec2a"},"vehicle_type_id":"4","last_reported":1778638109,"current_range_meters":9600,"station_id":"","pricing_plan_id":"cebpf4jnsgd1na2vs0mg"},{"bike_id":"810a2d5b-55fc-4943-92ef-58d17ce91fbb","system_id":"levelo_inurba_marseille","lat":43.28354,"lon":5.38107,"is_reserved":false,"is_disabled":false,"rental_uris":{"android":"levelo://app?vid=810a2d5b-55fc-4943-92ef-58d17ce91fbb","ios":"levelo://app?vid=810a2d5b-55fc-4943-92ef-58d17ce91fbb"},"vehicle_type_id":"4","last_reported":1778638109,"current_range_meters":9600,"station_id":"ce4bh412rcd13ifvqdr0","pricing_plan_id":"cebpf4jnsgd1na2vs0mg"},{"bike_id":"2138a3f3-103f-4d3b-8182-d8f838630240","system_id":"levelo_inurba_marseille","lat":43.29584,"lon":5.37509,"is_reserved":false,"is_disabled":false,"rental_uris":{"android":"levelo://app?vid=2138a3f3-103f-4d3b-8182-d8f838630240","ios":"levelo://app?vid=2138a3f3-103f-4d3b-8182-d8f838630240"},"vehicle_type_id":"4","last_reported":1778638109,"current_range_meters":9600,"station_id":"ce4bgh92rcd13ifvqb50","pricing_plan_id":"cebpf4jnsgd1na2vs0mg"},{"bike_id":"4e528f4c-3558-4ea0-8fad-771eb4a0d8d7","system_id":"levelo_inurba_marseille","lat":43.27213,"lon":5.39282,"is_reserved":false,"is_disabled":false,"rental_uris":{"android":"levelo://app?vid=4e528f4c-3558-4ea0-8fad-771eb4a0d8d7","ios":"levelo://app?vid=4e528f4c-3558-4ea0-8fad-771eb4a0d8d7"},"vehicle_type_id":"4","last_reported":1778638109,"current_range_meters":9600,"station_id":"","pricing_plan_id":"cebpf4jnsgd1na2vs0mg"},{"bike_id":"c09926ef-6243-44a8-8f84-163c78b8face","system_id":"levelo_inurba_marseille","lat":43.2853,"lon":5.44104,"is_reserved":false,"is_disabled":false,"rental_uris":{"android":"levelo://app?vid=c09926ef-6243-44a8-8f84-163c78b8face","ios":"levelo://app?vid=c09926ef-6243-44a8-8f84-163c78b8face"},"vehicle_type_id":"4","last_reported":1778638109,"current_range_meters":9600,"station_id":"st_d3j3df2ikq2c7380ej80","pricing_plan_id":"cebpf4jnsgd1na2vs0mg"},{"bike_id":"a9602b8f-2229-41ab-a27d-639beba9bad1","system_id":"levelo_inurba_marseille","lat":43.2945,"lon":5.3975,"is_reserved":false,"is_disabled":false,"rental_uris":{"android":"levelo://app?vid=a9602b8f-2229-41ab-a27d-639beba9bad1","ios":"levelo://app?vid=a9602b8f-2229-41ab-a27d-639beba9bad1"},"vehicle_type_id":"4","last_reported":1778638109,"current_range_meters":9600,"station_id":"ce4bh3h2rcd13ifvqdo0","pricing_plan_id":"cebpf4jnsgd1na2vs0mg"},{"bike_id":"f5ef1d5d-a83a-4de6-a56d-3d414007232e","system_id":"levelo_inurba_marseille","lat":43.24799,"lon":5.37451,"is_reserved":false,"is_disabled":false,"rental_uris":{"android":"levelo://app?vid=f5ef1d5d-a83a-4de6-a56d-3d414007232e","ios":"levelo://app?vid=f5ef1d5d-a83a-4de6-a56d-3d414007232e"},"vehicle_type_id":"4","last_reported":1778638109,"current_range_meters":9600,"station_id":"ce4bhgh2rcd13ifvqfb0","pricing_plan_id":"cebpf4jnsgd1na2vs0mg"},{"bike_id":"bfd7b937-fb5a-4816-9fcc-96ef855df686","system_id":"levelo_inurba_marseille","lat":43.29375,"lon":5.37857,"is_reserved":false,"is_disabled":true,"rental_uris":{"android":"levelo://app?vid=bfd7b937-fb5a-4816-9fcc-96ef855df686","ios":"levelo://app?vid=bfd7b937-fb5a-4816-9fcc-96ef855df686"},"vehicle_type_id":"4","last_reported":1778638109,"current_range_meters":9600,"station_id":"ce4bgjh2rcd13ifvqbf0","pricing_plan_id":"cebpf4jnsgd1na2vs0mg"},{"bike_id":"bd20de56-1071-4bf5-8918-48e327f9b379","system_id":"levelo_inurba_marseille","lat":43.29439,"lon":5.39757,"is_reserved":false,"is_disabled":false,"rental_uris":{"android":"levelo://app?vid=bd20de56-1071-4bf5-8918-48e327f9b379","ios":"levelo://app?vid=bd20de56-1071-4bf5-8918-48e327f9b379"},"vehicle_type_id":"4","last_reported":1778638109,"current_range_meters":9600,"station_id":"ce4bh3h2rcd13ifvqdo0","pricing_plan_id":"cebpf4jnsgd1na2vs0mg"},{"bike_id":"6e6118e0-d7b8-42ba-a2c6-79786f3c704d","system_id":"levelo_inurba_marseille","lat":43.25106,"lon":5.40326,"is_reserved":false,"is_disabled":true,"rental_uris":{"android":"levelo://app?vid=6e6118e0-d7b8-42ba-a2c6-79786f3c704d","ios":"levelo://app?vid=6e6118e0-d7b8-42ba-a2c6-79786f3c704d"},"vehicle_type_id":"4","last_reported":1778638109,"current_range_meters":9600,"station_id":"ce4bhlh2rcd13ifvqgig","pricing_plan_id":"cebpf4jnsgd1na2vs0mg"},{"bike_id":"f49a1a58-d36e-4b1f-9af3-bbfe0c5e5257","system_id":"levelo_inurba_marseille","lat":43.30781,"lon":5.37633,"is_reserved":false,"is_disabled":false,"rental_uris":{"android":"levelo://app?vid=f49a1a58-d36e-4b1f-9af3-bbfe0c5e5257","ios":"levelo://app?vid=f49a1a58-d36e-4b1f-9af3-bbfe0c5e5257"},"vehicle_type_id":"4","last_reported":1778638109,"current_range_meters":9600,"station_id":"ce4bgv92rcd13ifvqcq0","pricing_plan_id":"cebpf4jnsgd1na2vs0mg"},{"bike_id":"c1d67d0a-dddb-4234-b94d-919114a326f6","system_id":"levelo_inurba_marseille","lat":43.30088,"lon":5.39078,"is_reserved":false,"is_disabled":false,"rental_uris":{"android":"levelo://app?vid=c1d67d0a-dddb-4234-b94d-919114a326f6","ios":"levelo://app?vid=c1d67d0a-dddb-4234-b94d-919114a326f6"},"vehicle_type_id":"4","last_reported":1778638109,"current_range_meters":9600,"station_id":"ce4bh192rcd13ifvqdb0","pricing_plan_id":"cebpf4jnsgd1na2vs0mg"},{"bike_id":"9b889e31-3787-4b80-b662-9f068791cf0b","system_id":"levelo_inurba_marseille","lat":43.31171,"lon":5.38716,"is_reserved":false,"is_disabled":false,"rental_uris":{"android":"levelo://app?vid=9b889e31-3787-4b80-b662-9f068791cf0b","ios":"levelo://app?vid=9b889e31-3787-4b80-b662-9f068791cf0b"},"vehicle_type_id":"4","last_reported":1778638109,"current_range_meters":9600,"station_id":"ce4bgv12rcd13ifvqcp0","pricing_plan_id":"cebpf4jnsgd1na2vs0mg"},{"bike_id":"60ee3618-ef1a-450d-951b-60656347ff52","system_id":"levelo_inurba_marseille","lat":43.29198,"lon":5.39314,"is_reserved":false,"is_disabled":false,"rental_uris":{"android":"levelo://app?vid=60ee3618-ef1a-450d-951b-60656347ff52","ios":"levelo://app?vid=60ee3618-ef1a-450d-951b-60656347ff52"},"vehicle_type_id":"4","last_reported":1778638109,"current_range_meters":9600,"station_id":"ce4bh192rcd13ifvqdd0","pricing_plan_id":"cebpf4jnsgd1na2vs0mg"},{"bike_id":"c434cd99-f855-4d05-b34d-cbc73ada5d5d","system_id":"levelo_inurba_marseille","lat":43.29801,"lon":5.39341,"is_reserved":false,"is_disabled":false,"rental_uris":{"android":"levelo://app?vid=c434cd99-f855-4d05-b34d-cbc73ada5d5d","ios":"levelo://app?vid=c434cd99-f855-4d05-b34d-cbc73ada5d5d"},"vehicle_type_id":"4","last_reported":1778638109,"current_range_meters":9600,"station_id":"chh1huq6cuj3fo74tm60","pricing_plan_id":"cebpf4jnsgd1na2vs0mg"},{"bike_id":"f866b4ae-c870-49cf-9a8c-f7f6622d7dab","system_id":"levelo_inurba_marseille","lat":43.28505,"lon":5.48368,"is_reserved":false,"is_disabled":false,"rental_uris":{"android":"levelo://app?vid=f866b4ae-c870-49cf-9a8c-f7f6622d7dab","ios":"levelo://app?vid=f866b4ae-c870-49cf-9a8c-f7f6622d7dab"},"vehicle_type_id":"4","last_reported":1778638109,"current_range_meters":9600,"station_id":"","pricing_plan_id":"cebpf4jnsgd1na2vs0mg"},{"bike_id":"4ed34391-f5d4-4f34-9e81-72d6a65ff383","system_id":"levelo_inurba_marseille","lat":43.27921,"lon":5.39583,"is_reserved":false,"is_disabled":true,"rental_uris":{"android":"levelo://app?vid=4ed34391-f5d4-4f34-9e81-72d6a65ff383","ios":"levelo://app?vid=4ed34391-f5d4-4f34-9e81-72d6a65ff383"},"vehicle_type_id":"4","last_reported":1778638109,"current_range_meters":9600,"station_id":"ce4bhf92rcd13ifvqf40","pricing_plan_id":"cebpf4jnsgd1na2vs0mg"},{"bike_id":"985e4bde-d65e-4572-9610-9f0146b74e17","system_id":"levelo_inurba_marseille","lat":43.28272,"lon":5.35075,"is_reserved":false,"is_disabled":false,"rental_uris":{"android":"levelo://app?vid=985e4bde-d65e-4572-9610-9f0146b74e17","ios":"levelo://app?vid=985e4bde-d65e-4572-9610-9f0146b74e17"},"vehicle_type_id":"4","last_reported":1778638109,"current_range_meters":9600,"station_id":"ce4bhbp2rcd13ifvqerg","pricing_plan_id":"cebpf4jnsgd1na2vs0mg"},{"bike_id":"b8ea0eb0-1d26-433d-980a-c0b52756d2dc","system_id":"levelo_inurba_marseille","lat":43.30532,"lon":5.38438,"is_reserved":false,"is_disabled":false,"rental_uris":{"android":"levelo://app?vid=b8ea0eb0-1d26-433d-980a-c0b52756d2dc","ios":"levelo://app?vid=b8ea0eb0-1d26-433d-980a-c0b52756d2dc"},"vehicle_type_id":"4","last_reported":1778638109,"current_range_meters":9600,"station_id":"ce4bgg92rcd13ifvqb30","pricing_plan_id":"cebpf4jnsgd1na2vs0mg"},{"bike_id":"c0362586-16d8-4849-aae1-deb7e2bfb9f1","system_id":"levelo_inurba_marseille","lat":43.33493,"lon":5.37484,"is_reserved":false,"is_disabled":false,"rental_uris":{"android":"levelo://app?vid=c0362586-16d8-4849-aae1-deb7e2bfb9f1","ios":"levelo://app?vid=c0362586-16d8-4849-aae1-deb7e2bfb9f1"},"vehicle_type_id":"4","last_reported":1778638109,"current_range_meters":9600,"station_id":"","pricing_plan_id":"cebpf4jnsgd1na2vs0mg"},{"bike_id":"d61fc6ba-d0a2-4093-9142-1e8ebbdc5d6d","system_id":"levelo_inurba_marseille","lat":43.31359,"lon":5.38491,"is_reserved":false,"is_disabled":false,"rental_uris":{"android":"levelo://app?vid=d61fc6ba-d0a2-4093-9142-1e8ebbdc5d6d","ios":"levelo://app?vid=d61fc6ba-d0a2-4093-9142-1e8ebbdc5d6d"},"vehicle_type_id":"4","last_reported":1778638109,"current_range_meters":9600,"station_id":"ce4bgt92rcd13ifvqcf0","pricing_plan_id":"cebpf4jnsgd1na2vs0mg"},{"bike_id":"3fc67ff4-1be9-4da4-be8f-9ec5bd95e554","system_id":"levelo_inurba_marseille","lat":43.33541,"lon":5.37441,"is_reserved":false,"is_disabled":false,"rental_uris":{"android":"levelo://app?vid=3fc67ff4-1be9-4da4-be8f-9ec5bd95e554","ios":"levelo://app?vid=3fc67ff4-1be9-4da4-be8f-9ec5bd95e554"},"vehicle_type_id":"4","last_reported":1778638109,"current_range_meters":9600,"station_id":"st_d46tts09ee8s73dlu43g","pricing_plan_id":"cebpf4jnsgd1na2vs0mg"},{"bike_id":"5b12be1e-bdbc-4e63-ae0d-d06675505d81","system_id":"levelo_inurba_marseille","lat":43.30539,"lon":5.38446,"is_reserved":false,"is_disabled":false,"rental_uris":{"android":"levelo://app?vid=5b12be1e-bdbc-4e63-ae0d-d06675505d81","ios":"levelo://app?vid=5b12be1e-bdbc-4e63-ae0d-d06675505d81"},"vehicle_type_id":"4","last_reported":1778638109,"current_range_meters":9600,"station_id":"ce4bgg92rcd13ifvqb30","pricing_plan_id":"cebpf4jnsgd1na2vs0mg"},{"bike_id":"ae7c0203-7c88-435f-8fff-72c52defbdc7","system_id":"levelo_inurba_marseille","lat":43.2869,"lon":5.37388,"is_reserved":false,"is_disabled":false,"rental_uris":{"android":"levelo://app?vid=ae7c0203-7c88-435f-8fff-72c52defbdc7","ios":"levelo://app?vid=ae7c0203-7c88-435f-8fff-72c52defbdc7"},"vehicle_type_id":"4","last_reported":1778638109,"current_range_meters":9600,"station_id":"ce4bh3p2rcd13ifvqdq0","pricing_plan_id":"cebpf4jnsgd1na2vs0mg"},{"bike_id":"61990b55-9e76-408e-ae0c-f93c4ce5b7cb","system_id":"levelo_inurba_marseille","lat":43.29797,"lon":5.39338,"is_reserved":false,"is_disabled":false,"rental_uris":{"android":"levelo://app?vid=61990b55-9e76-408e-ae0c-f93c4ce5b7cb","ios":"levelo://app?vid=61990b55-9e76-408e-ae0c-f93c4ce5b7cb"},"vehicle_type_id":"4","last_reported":1778638109,"current_range_meters":9600,"station_id":"chh1huq6cuj3fo74tm60","pricing_plan_id":"cebpf4jnsgd1na2vs0mg"},{"bike_id":"a1751cce-a99f-4352-a478-1678f0a5c5e3","system_id":"levelo_inurba_marseille","lat":43.23185,"lon":5.39984,"is_reserved":false,"is_disabled":false,"rental_uris":{"android":"levelo://app?vid=a1751cce-a99f-4352-a478-1678f0a5c5e3","ios":"levelo://app?vid=a1751cce-a99f-4352-a478-1678f0a5c5e3"},"vehicle_type_id":"4","last_reported":1778638109,"current_range_meters":9600,"station_id":"ce4bhn12rcd13ifvqgqg","pricing_plan_id":"cebpf4jnsgd1na2vs0mg"},{"bike_id":"93460660-a08d-4465-a810-b09911eafb8e","system_id":"levelo_inurba_marseille","lat":43.23181,"lon":5.39991,"is_reserved":false,"is_disabled":false,"rental_uris":{"android":"levelo://app?vid=93460660-a08d-4465-a810-b09911eafb8e","ios":"levelo://app?vid=93460660-a08d-4465-a810-b09911eafb8e"},"vehicle_type_id":"4","last_reported":1778638109,"current_range_meters":9600,"station_id":"ce4bhn12rcd13ifvqgqg","pricing_plan_id":"cebpf4jnsgd1na2vs0mg"},{"bike_id":"015bfd6b-736a-4e44-a42d-948980700872","system_id":"levelo_inurba_marseille","lat":43.24634,"lon":5.38995,"is_reserved":false,"is_disabled":false,"rental_uris":{"android":"levelo://app?vid=015bfd6b-736a-4e44-a42d-948980700872","ios":"levelo://app?vid=015bfd6b-736a-4e44-a42d-948980700872"},"vehicle_type_id":"4","last_reported":1778638109,"current_range_meters":9600,"station_id":"","pricing_plan_id":"cebpf4jnsgd1na2vs0mg"},