{"last_updated":1753827085,"ttl":60,"version":"2.2","data":{"bikes":[{"bike_id":"b4e8af3c-c937-4b7c-8c2d-b395715d0ea3","system_id":"levelo_inurba_marseille","lat":43.31351,"lon":5.385,"is_reserved":false,"is_disabled":false,"rental_uris":{"android":"levelo://app?vid=b4e8af3c-c937-4b7c-8c2d-b395715d0ea3","ios":"levelo://app?vid=b4e8af3c-c937-4b7c-8c2d-b395715d0ea3"},"vehicle_type_id":"4","last_reported":1753827085,"current_range_meters":2800,"station_id":"ce4bgt92rcd13ifvqcf0","pricing_plan_id":"cebpf4jnsgd1na2vs0mg"},{"bike_id":"ede0cdf0-2195-4268-9e55-cafe94d3a25a","system_id":"levelo_inurba_marseille","lat":43.27513,"lon":5.38466,"is_reserved":false,"is_disabled":true,"rental_uris":{"android":"levelo://app?vid=ede0cdf0-2195-4268-9e55-cafe94d3a25a","ios":"levelo://app?vid=ede0cdf0-2195-4268-9e55-cafe94d3a25a"},"vehicle_type_id":"4","last_reported":1753827085,"current_range_meters":3200,"station_id":"ce4bhh92rcd13ifvqfi0","pricing_plan_id":"cebpf4jnsgd1na2vs0mg"},{"bike_id":"da0dea9a-07a2-4249-aa7c-2489e28d40de","system_id":"levelo_inurba_marseille","lat":43.29683,"lon":5.36239,"is_reserved":false,"is_disabled":false,"rental_uris":{"android":"levelo://app?vid=da0dea9a-07a2-4249-aa7c-2489e28d40de","ios":"levelo://app?vid=da0dea9a-07a2-4249-aa7c-2489e28d40de"},"vehicle_type_id":"4","last_reported":1753827085,"current_range_meters":3600,"station_id":"","pricing_plan_id":"cebpf4jnsgd1na2vs0mg"},{"bike_id":"6fe4f646-b75b-4e51-99c9-25f3c1f3f3ab","system_id":"levelo_inurba_marseille","lat":43.273755,"lon":5.362553,"is_reserved":false,"is_disabled":true,"rental_uris":{"android":"levelo://app?vid=6fe4f646-b75b-4e51-99c9-25f3c1f3f3ab","ios":"levelo://app?vid=6fe4f646-b75b-4e51-99c9-25f3c1f3f3ab"},"vehicle_type_id":"4","last_reported":1753827085,"current_range_meters":3600,"station_id":"ce4bhbh2rcd13ifvqeo0","pricing_plan_id":"cebpf4jnsgd1na2vs0mg"},{"bike_id":"85fb984e-824a-4b37-b654-4fc80a764dbe","system_id":"levelo_inurba_marseille","lat":43.30595,"lon":5.39354,"is_reserved":false,"is_disabled":false,"rental_uris":{"android":"levelo://app?vid=85fb984e-824a-4b37-b654-4fc80a764dbe","ios":"levelo://app?vid=85fb984e-824a-4b37-b654-4fc80a764dbe"},"vehicle_type_id":"4","last_reported":1753827085,"current_range_meters":3200,"station_id":"ce4bh0p2rcd13ifvqd80","pricing_plan_id":"cebpf4jnsgd1na2vs0mg"},{"bike_id":"d26365d2-3cd7-4e3c-808d-3362d6bbfb56","system_id":"levelo_inurba_marseille","lat":43.33781,"lon":5.37534,"is_reserved":false,"is_disabled":false,"rental_uris":{"android":"levelo://app?vid=d26365d2-3cd7-4e3c-808d-3362d6bbfb56","ios":"levelo://app?vid=d26365d2-3cd7-4e3c-808d-3362d6bbfb56"},"vehicle_type_id":"4","last_reported":1753827085,"current_range_meters":3600,"station_id":"","pricing_plan_id":"cebpf4jnsgd1na2vs0mg"},{"bike_id":"e05b0e3d-0d35-431e-b071-de7a270dbdcd","system_id":"levelo_inurba_marseille","lat":43.29058,"lon":5.37175,"is_reserved":false,"is_disabled":false,"rental_uris":{"android":"levelo://app?vid=e05b0e3d-0d35-431e-b071-de7a270dbdcd","ios":"levelo://app?vid=e05b0e3d-0d35-431e-b071-de7a270dbdcd"},"vehicle_type_id":"4","last_reported":1753827085,"current_range_meters":3200,"station_id":"ce4bh5p2rcd13ifvqe4g","pricing_plan_id":"cebpf4jnsgd1na2vs0mg"},{"bike_id":"6cb11f4f-f451-4a1b-a7c5-61054d6b97f6","system_id":"levelo_inurba_marseille","lat":43.23626,"lon":5.41003,"is_reserved":false,"is_disabled":false,"rental_uris":{"android":"levelo://app?vid=6cb11f4f-f451-4a1b-a7c5-61054d6b97f6","ios":"levelo://app?vid=6cb11f4f-f451-4a1b-a7c5-61054d6b97f6"},"vehicle_type_id":"4","last_reported":1753827085,"current_range_meters":3600,"station_id":"","pricing_plan_id":"cebpf4jnsgd1na2vs0mg"},{"bike_id":"b9b447f4-afe9-4e23-aaf0-b35a30289b9a","system_id":"levelo_inurba_marseille","lat":43.274928,"lon":5.424522,"is_reserved":false,"is_disabled":false,"rental_uris":{"android":"levelo://app?vid=b9b447f4-afe9-4e23-aaf0-b35a30289b9a","ios":"levelo://app?vid=b9b447f4-afe9-4e23-aaf0-b35a30289b9a"},"vehicle_type_id":"4","last_reported":1753827085,"current_range_meters":3600,"station_id":"ce4bhn92rcd13ifvqgrg","pricing_plan_id":"cebpf4jnsgd1na2vs0mg"},{"bike_id":"5a67886b-2f40-46df-b0be-1179491cb0a7","system_id":"levelo_inurba_marseille","lat":43.299683,"lon":5.386239,"is_reserved":false,"is_disabled":false,"rental_uris":{"android":"levelo://app?vid=5a67886b-2f40-46df-b0be-1179491cb0a7","ios":"levelo://app?vid=5a67886b-2f40-46df-b0be-1179491cb0a7"},"vehicle_type_id":"4","last_reported":1753827085,"current_range_meters":4000,"station_id":"","pricing_plan_id":"cebpf4jnsgd1na2vs0mg"},{"bike_id":"fb45cff3-08fa-4cc9-bf53-0d8295f6b8d1","system_id":"levelo_inurba_marseille","lat":43.27874,"lon":5.42821,"is_reserved":false,"is_disabled":false,"rental_uris":{"android":"levelo://app?vid=fb45cff3-08fa-4cc9-bf53-0d8295f6b8d1","ios":"levelo://app?vid=fb45cff3-08fa-4cc9-bf53-0d8295f6b8d1"},"vehicle_type_id":"4","last_reported":1753827085,"current_range_meters":4400,"station_id":"","pricing_plan_id":"cebpf4jnsgd1na2vs0mg"},{"bike_id":"a5ffa286-ffb1-4f55-bfbe-7821ace3a066","system_id":"levelo_inurba_marseille","lat":43.21181,"lon":5.35094,"is_reserved":false,"is_disabled":false,"rental_uris":{"android":"levelo://app?vid=a5ffa286-ffb1-4f55-bfbe-7821ace3a066","ios":"levelo://app?vid=a5ffa286-ffb1-4f55-bfbe-7821ace3a066"},"vehicle_type_id":"4","last_reported":1753827085,"current_range_meters":4400,"station_id":"st_cvj6sg6p6f1abm77japg","pricing_plan_id":"cebpf4jnsgd1na2vs0mg"},{"bike_id":"dfeef013-405d-4d83-bff9-fe3d4f9e6756","system_id":"levelo_inurba_marseille","lat":43.31696,"lon":5.4048,"is_reserved":false,"is_disabled":true,"rental_uris":{"android":"levelo://app?vid=dfeef013-405d-4d83-bff9-fe3d4f9e6756","ios":"levelo://app?vid=dfeef013-405d-4d83-bff9-fe3d4f9e6756"},"vehicle_type_id":"4","last_reported":1753827085,"current_range_meters":4400,"station_id":"ce4bh012rcd13ifvqd00","pricing_plan_id":"cebpf4jnsgd1na2vs0mg"},{"bike_id":"3152576e-d602-4c3f-980e-717f41aed773","system_id":"levelo_inurba_marseille","lat":43.33737,"lon":5.37465,"is_reserved":false,"is_disabled":false,"rental_uris":{"android":"levelo://app?vid=3152576e-d602-4c3f-980e-717f41aed773","ios":"levelo://app?vid=3152576e-d602-4c3f-980e-717f41aed773"},"vehicle_type_id":"4","last_reported":1753827085,"current_range_meters":4400,"station_id":"","pricing_plan_id":"cebpf4jnsgd1na2vs0mg"},{"bike_id":"83fdb9f2-ef9d-4a70-8333-65f103ec90ae","system_id":"levelo_inurba_marseille","lat":43.27355,"lon":5.36251,"is_reserved":false,"is_disabled":true,"rental_uris":{"android":"levelo://app?vid=83fdb9f2-ef9d-4a70-8333-65f103ec90ae","ios":"levelo://app?vid=83fdb9f2-ef9d-4a70-8333-65f103ec90ae"},"vehicle_type_id":"4","last_reported":1753827085,"current_range_meters":5600,"station_id":"ce4bhbh2rcd13ifvqeo0","pricing_plan_id":"cebpf4jnsgd1na2vs0mg"},{"bike_id":"18dd2069-b55d-4bae-afd1-64f3b6fc4250","system_id":"levelo_inurba_marseille","lat":43.28156,"lon":5.42633,"is_reserved":false,"is_disabled":false,"rental_uris":{"android":"levelo://app?vid=18dd2069-b55d-4bae-afd1-64f3b6fc4250","ios":"levelo://app?vid=18dd2069-b55d-4bae-afd1-64f3b6fc4250"},"vehicle_type_id":"4","last_reported":1753827085,"current_range_meters":5600,"station_id":"ce4bhnh2rcd13ifvqgug","pricing_plan_id":"cebpf4jnsgd1na2vs0mg"},{"bike_id":"90c620e2-31bc-4ce6-b07d-06a814b731f2","system_id":"levelo_inurba_marseille","lat":43.229277,"lon":5.353765,"is_reserved":false,"is_disabled":false,"rental_uris":{"android":"levelo://app?vid=90c620e2-31bc-4ce6-b07d-06a814b731f2","ios":"levelo://app?vid=90c620e2-31bc-4ce6-b07d-06a814b731f2"},"vehicle_type_id":"4","last_reported":1753827085,"current_range_meters":6400,"station_id":"cpo3532slgdg3j2ikp40","pricing_plan_id":"cebpf4jnsgd1na2vs0mg"},{"bike_id":"370ae9b0-a2a5-4171-8a99-35a3daa5d2ab","system_id":"levelo_inurba_marseille","lat":43.28429,"lon":5.34993,"is_reserved":false,"is_disabled":true,"rental_uris":{"android":"levelo://app?vid=370ae9b0-a2a5-4171-8a99-35a3daa5d2ab","ios":"levelo://app?vid=370ae9b0-a2a5-4171-8a99-35a3daa5d2ab"},"vehicle_type_id":"4","last_reported":1753827085,"current_range_meters":6400,"station_id":"ce4bhbh2rcd13ifvqepg","pricing_plan_id":"cebpf4jnsgd1na2vs0mg"},{"bike_id":"d99716cc-03d7-4ec6-9afb-f243b2d67578","system_id":"levelo_inurba_marseille","lat":43.33765,"lon":5.3751,"is_reserved":false,"is_disabled":false,"rental_uris":{"android":"levelo://app?vid=d99716cc-03d7-4ec6-9afb-f243b2d67578","ios":"levelo://app?vid=d99716cc-03d7-4ec6-9afb-f243b2d67578"},"vehicle_type_id":"4","last_reported":1753827085,"current_range_meters":6400,"station_id":"","pricing_plan_id":"cebpf4jnsgd1na2vs0mg"},{"bike_id":"64f258c6-1e92-4dd0-a4f6-11b336a5b138","system_id":"levelo_inurba_marseille","lat":43.22498,"lon":5.34819,"is_reserved":false,"is_disabled":false,"rental_uris":{"android":"levelo://app?vid=64f258c6-1e92-4dd0-a4f6-11b336a5b138","ios":"levelo://app?vid=64f258c6-1e92-4dd0-a4f6-11b336a5b138"},"vehicle_type_id":"4","last_reported":1753827085,"current_range_meters":6400,"station_id":"st_cvj5dfep6f1abm77gieg","pricing_plan_id":"cebpf4jnsgd1na2vs0mg"},{"bike_id":"5915c484-bd7c-435f-bca1-185e1e80dfcf","system_id":"levelo_inurba_marseille","lat":43.2305,"lon":5.43904,"is_reserved":false,"is_disabled":false,"rental_uris":{"android":"levelo://app?vid=5915c484-bd7c-435f-bca1-185e1e80dfcf","ios":"levelo://app?vid=5915c484-bd7c-435f-bca1-185e1e80dfcf"},"vehicle_type_id":"4","last_reported":1753827085,"current_range_meters":6800,"station_id":"","pricing_plan_id":"cebpf4jnsgd1na2vs0mg"},{"bike_id":"8e37ef79-bd01-46c2-9d9e-3d3f7741a07a","system_id":"levelo_inurba_marseille","lat":43.297302,"lon":5.374166,"is_reserved":false,"is_disabled":false,"rental_uris":{"android":"levelo://app?vid=8e37ef79-bd01-46c2-9d9e-3d3f7741a07a","ios":"levelo://app?vid=8e37ef79-bd01-46c2-9d9e-3d3f7741a07a"},"vehicle_type_id":"4","last_reported":1753827085,"current_range_meters":6800,"station_id":"","pricing_plan_id":"cebpf4jnsgd1na2vs0mg"},{"bike_id":"95dd70e4-879c-49e7-b318-a6c71b22a43e","system_id":"levelo_inurba_marseille","lat":43.2703,"lon":5.39295,"is_reserved":false,"is_disabled":false,"rental_uris":{"android":"levelo://app?vid=95dd70e4-879c-49e7-b318-a6c71b22a43e","ios":"levelo://app?vid=95dd70e4-879c-49e7-b318-a6c71b22a43e"},"vehicle_type_id":"4","last_reported":1753827085,"current_range_meters":6800,"station_id":"","pricing_plan_id":"cebpf4jnsgd1na2vs0mg"},{"bike_id":"209c73e6-1f69-4d13-9fed-77cb46eecd05","system_id":"levelo_inurba_marseille","lat":43.34681,"lon":5.38065,"is_reserved":false,"is_disabled":false,"rental_uris":{"android":"levelo://app?vid=209c73e6-1f69-4d13-9fed-77cb46eecd05","ios":"levelo://app?vid=209c73e6-1f69-4d13-9fed-77cb46eecd05"},"vehicle_type_id":"4","last_reported":1753827085,"current_range_meters":6800,"station_id":"","pricing_plan_id":"cebpf4jnsgd1na2vs0mg"},{"bike_id":"3b513104-0304-493c-9215-438a9d2db08a","system_id":"levelo_inurba_marseille","lat":43.29532,"lon":5.39268,"is_reserved":false,"is_disabled":false,"rental_uris":{"android":"levelo://app?vid=3b513104-0304-493c-9215-438a9d2db08a","ios":"levelo://app?vid=3b513104-0304-493c-9215-438a9d2db08a"},"vehicle_type_id":"4","last_reported":1753827085,"current_range_meters":7200,"station_id":"","pricing_plan_id":"cebpf4jnsgd1na2vs0mg"},{"bike_id":"80915a30-ef88-4d81-b5d1-969d1c17a42d","system_id":"levelo_inurba_marseille","lat":43.30411,"lon":5.40835,"is_reserved":false,"is_disabled":false,"rental_uris":{"android":"levelo://app?vid=80915a30-ef88-4d81-b5d1-969d1c17a42d","ios":"levelo://app?vid=80915a30-ef88-4d81-b5d1-969d1c17a42d"},"vehicle_type_id":"4","last_reported":1753827085,"current_range_meters":7200,"station_id":"","pricing_plan_id":"cebpf4jnsgd1na2vs0mg"},{"bike_id":"65e3db07-f188-422b-b687-3d06cfe2bcf8","system_id":"levelo_inurba_marseille","lat":43.28047,"lon":5.35003,"is_reserved":false,"is_disabled":false,"rental_uris":{"android":"levelo://app?vid=65e3db07-f188-422b-b687-3d06cfe2bcf8","ios":"levelo://app?vid=65e3db07-f188-422b-b687-3d06cfe2bcf8"},"vehicle_type_id":"4","last_reported":1753827085,"current_range_meters":7200,"station_id":"","pricing_plan_id":"cebpf4jnsgd1na2vs0mg"},{"bike_id":"3c1a6a31-f23a-40b2-b944-a5783fa6fa93","system_id":"levelo_inurba_marseille","lat":43.27957,"lon":5.41017,"is_reserved":false,"is_disabled":true,"rental_uris":{"android":"levelo://app?vid=3c1a6a31-f23a-40b2-b944-a5783fa6fa93","ios":"levelo://app?vid=3c1a6a31-f23a-40b2-b944-a5783fa6fa93"},"vehicle_type_id":"4","last_reported":1753827085,"current_range_meters":7200,"station_id":"ce4bhnp2rcd13ifvqh0g","pricing_plan_id":"cebpf4jnsgd1na2vs0mg"},{"bike_id":"2df3f21c-76b0-48ea-b087-29f8b935f571","system_id":"levelo_inurba_marseille","lat":43.28599,"lon":5.40703,"is_reserved":false,"is_disabled":false,"rental_uris":{"android":"levelo://app?vid=2df3f21c-76b0-48ea-b087-29f8b935f571","ios":"levelo://app?vid=2df3f21c-76b0-48ea-b087-29f8b935f571"},"vehicle_type_id":"4","last_reported":1753827085,"current_range_meters":7200,"station_id":"","pricing_plan_id":"cebpf4jnsgd1na2vs0mg"},{"bike_id":"63c0baa2-16a1-4377-a1c3-c59cf270a640","system_id":"levelo_inurba_marseille","lat":43.27948,"lon":5.41042,"is_reserved":false,"is_disabled":false,"rental_uris":{"android":"levelo://app?vid=63c0baa2-16a1-4377-a1c3-c59cf270a640","ios":"levelo://app?vid=63c0baa2-16a1-4377-a1c3-c59cf270a640"},"vehicle_type_id":"4","last_reported":1753827085,"current_range_meters":7200,"station_id":"ce4bhnp2rcd13ifvqh0g","pricing_plan_id":"cebpf4jnsgd1na2vs0mg"},{"bike_id":"37fcf059-83b8-4b6e-bc28-0c83f77e3c05","system_id":"levelo_inurba_marseille","lat":43.22501,"lon":5.3479,"is_reserved":false,"is_disabled":false,"rental_uris":{"android":"levelo://app?vid=37fcf059-83b8-4b6e-bc28-0c83f77e3c05","ios":"levelo://app?vid=37fcf059-83b8-4b6e-bc28-0c83f77e3c05"},"vehicle_type_id":"4","last_reported":1753827085,"current_range_meters":8000,"station_id":"st_cvj5dfep6f1abm77gieg","pricing_plan_id":"cebpf4jnsgd1na2vs0mg"},{"bike_id":"3377d6b9-003a-4a11-884f-743e15ed547d","system_id":"levelo_inurba_marseille","lat":43.312548,"lon":5.414778,"is_reserved":false,"is_disabled":false,"rental_uris":{"android":"levelo://app?vid=3377d6b9-003a-4a11-884f-743e15ed547d","ios":"levelo://app?vid=3377d6b9-003a-4a11-884f-743e15ed547d"},"vehicle_type_id":"4","last_reported":1753827085,"current_range_meters":8000,"station_id":"ce4bhp92rcd13ifvqhag","pricing_plan_id":"cebpf4jnsgd1na2vs0mg"},{"bike_id":"6fdfdb8a-9f9e-4a21-8068-b9b4d99f980c","system_id":"levelo_inurba_marseille","lat":43.31064,"lon":5.383448,"is_reserved":false,"is_disabled":false,"rental_uris":{"android":"levelo://app?vid=6fdfdb8a-9f9e-4a21-8068-b9b4d99f980c","ios":"levelo://app?vid=6fdfdb8a-9f9e-4a21-8068-b9b4d99f980c"},"vehicle_type_id":"4","last_reported":1753827085,"current_range_meters":8000,"station_id":"ce4bgv92rcd13ifvqcr0","pricing_plan_id":"cebpf4jnsgd1na2vs0mg"},{"bike_id":"5c4808cb-eabc-4062-81f9-53939cb1d87d","system_id":"levelo_inurba_marseille","lat":43.30892,"lon":5.3962,"is_reserved":false,"is_disabled":false,"rental_uris":{"android":"levelo://app?vid=5c4808cb-eabc-4062-81f9-53939cb1d87d","ios":"levelo://app?vid=5c4808cb-eabc-4062-81f9-53939cb1d87d"},"vehicle_type_id":"4","last_reported":1753827085,"current_range_meters":8000,"station_id":"ce4bh012rcd13ifvqcv0","pricing_plan_id":"cebpf4jnsgd1na2vs0mg"},{"bike_id":"e08cf533-dea6-4377-94ad-ade16931b0f2","system_id":"levelo_inurba_marseille","lat":43.279167,"lon":5.395873,"is_reserved":false,"is_disabled":false,"rental_uris":{"android":"levelo://app?vid=e08cf533-dea6-4377-94ad-ade16931b0f2","ios":"levelo://app?vid=e08cf533-dea6-4377-94ad-ade16931b0f2"},"vehicle_type_id":"4","last_reported":1753827085,"current_range_meters":8000,"station_id":"ce4bhf92rcd13ifvqf40","pricing_plan_id":"cebpf4jnsgd1na2vs0mg"},{"bike_id":"60b6f28b-372c-496b-be84-e0de07919b6b","system_id":"levelo_inurba_marseille","lat":43.28922,"lon":5.38387,"is_reserved":false,"is_disabled":false,"rental_uris":{"android":"levelo://app?vid=60b6f28b-372c-496b-be84-e0de07919b6b","ios":"levelo://app?vid=60b6f28b-372c-496b-be84-e0de07919b6b"},"vehicle_type_id":"4","last_reported":1753827085,"current_range_meters":8400,"station_id":"ce4bh612rcd13ifvqe6g","pricing_plan_id":"cebpf4jnsgd1na2vs0mg"},{"bike_id":"a738d821-aeb2-4de2-ba56-0507bc6dc2ec","system_id":"levelo_inurba_marseille","lat":43.31891,"lon":5.40737,"is_reserved":false,"is_disabled":false,"rental_uris":{"android":"levelo://app?vid=a738d821-aeb2-4de2-ba56-0507bc6dc2ec","ios":"levelo://app?vid=a738d821-aeb2-4de2-ba56-0507bc6dc2ec"},"vehicle_type_id":"4","last_reported":1753827085,"current_range_meters":8400,"station_id":"ce4bhq12rcd13ifvqhig","pricing_plan_id":"cebpf4jnsgd1na2vs0mg"},{"bike_id":"d0be68a9-29c9-47cf-b558-acf2c8798ccf","system_id":"levelo_inurba_marseille","lat":43.305317,"lon":5.384373,"is_reserved":false,"is_disabled":false,"rental_uris":{"android":"levelo://app?vid=d0be68a9-29c9-47cf-b558-acf2c8798ccf","ios":"levelo://app?vid=d0be68a9-29c9-47cf-b558-acf2c8798ccf"},"vehicle_type_id":"4","last_reported":1753827085,"current_range_meters":8400,"station_id":"ce4bgg92rcd13ifvqb30","pricing_plan_id":"cebpf4jnsgd1na2vs0mg"},{"bike_id":"149fbe11-3bce-47a0-b584-c7c7bd6bb12f","system_id":"levelo_inurba_marseille","lat":43.21611,"lon":5.34463,"is_reserved":false,"is_disabled":false,"rental_uris":{"android":"levelo://app?vid=149fbe11-3bce-47a0-b584-c7c7bd6bb12f","ios":"levelo://app?vid=149fbe11-3bce-47a0-b584-c7c7bd6bb12f"},"vehicle_type_id":"4","last_reported":1753827085,"current_range_meters":8400,"station_id":"","pricing_plan_id":"cebpf4jnsgd1na2vs0mg"},{"bike_id":"e0ce0053-71c4-4b07-8b9e-379e7ce2bf22","system_id":"levelo_inurba_marseille","lat":43.30283,"lon":5.39809,"is_reserved":false,"is_disabled":false,"rental_uris":{"android":"levelo://app?vid=e0ce0053-71c4-4b07-8b9e-379e7ce2bf22","ios":"levelo://app?vid=e0ce0053-71c4-4b07-8b9e-379e7ce2bf22"},"vehicle_type_id":"4","last_reported":1753827085,"current_range_meters":8400,"station_id":"","pricing_plan_id":"cebpf4jnsgd1na2vs0mg"},{"bike_id":"fa4e0e2e-0be2-44bb-a9da-d8a8fff38aff","system_id":"levelo_inurba_marseille","lat":43.31164,"lon":5.38715,"is_reserved":false,"is_disabled":false,"rental_uris":{"android":"levelo://app?vid=fa4e0e2e-0be2-44bb-a9da-d8a8fff38aff","ios":"levelo://app?vid=fa4e0e2e-0be2-44bb-a9da-d8a8fff38aff"},"vehicle_type_id":"4","last_reported":1753827085,"current_range_meters":8800,"station_id":"ce4bgv12rcd13ifvqcp0","pricing_plan_id":"cebpf4jnsgd1na2vs0mg"},{"bike_id":"882bdff1-651a-41c1-9ab0-596f43205cf1","system_id":"levelo_inurba_marseille","lat":43.337444,"lon":5.374475,"is_reserved":false,"is_disabled":false,"rental_uris":{"android":"levelo://app?vid=882bdff1-651a-41c1-9ab0-596f43205cf1","ios":"levelo://app?vid=882bdff1-651a-41c1-9ab0-596f43205cf1"},"vehicle_type_id":"4","last_reported":1753827085,"current_range_meters":8800,"station_id":"ce4bgkp2rcd13ifvqbmg","pricing_plan_id":"cebpf4jnsgd1na2vs0mg"},{"bike_id":"7d40d032-e96b-460a-a0dc-0f3363a72e50","system_id":"levelo_inurba_marseille","lat":43.26235,"lon":5.37591,"is_reserved":false,"is_disabled":false,"rental_uris":{"android":"levelo://app?vid=7d40d032-e96b-460a-a0dc-0f3363a72e50","ios":"levelo://app?vid=7d40d032-e96b-460a-a0dc-0f3363a72e50"},"vehicle_type_id":"4","last_reported":1753827085,"current_range_meters":8800,"station_id":"","pricing_plan_id":"cebpf4jnsgd1na2vs0mg"},{"bike_id":"7ebcc3f5-5031-4be1-8d42-04a8fe6871c2","system_id":"levelo_inurba_marseille","lat":43.28018,"lon":5.38509,"is_reserved":false,"is_disabled":false,"rental_uris":{"android":"levelo://app?vid=7ebcc3f5-5031-4be1-8d42-04a8fe6871c2","ios":"levelo://app?vid=7ebcc3f5-5031-4be1-8d42-04a8fe6871c2"},"vehicle_type_id":"4","last_reported":1753827085,"current_range_meters":8800,"station_id":"ce4bhg12rcd13ifvqf80","pricing_plan_id":"cebpf4jnsgd1na2vs0mg"},{"bike_id":"507a663f-7760-4481-9e38-ffaffb4c3069","system_id":"levelo_inurba_marseille","lat":43.31693,"lon":5.40481,"is_reserved":false,"is_disabled":false,"rental_uris":{"android":"levelo://app?vid=507a663f-7760-4481-9e38-ffaffb4c3069","ios":"levelo://app?vid=507a663f-7760-4481-9e38-ffaffb4c3069"},"vehicle_type_id":"4","last_reported":1753827085,"current_range_meters":8800,"station_id":"ce4bh012rcd13ifvqd00","pricing_plan_id":"cebpf4jnsgd1na2vs0mg"},{"bike_id":"513ae390-18d6-49d0-9077-083392f2fb75","system_id":"levelo_inurba_marseille","lat":43.25113,"lon":5.4032,"is_reserved":false,"is_disabled":false,"rental_uris":{"android":"levelo://app?vid=513ae390-18d6-49d0-9077-083392f2fb75","ios":"levelo://app?vid=513ae390-18d6-49d0-9077-083392f2fb75"},"vehicle_type_id":"4","last_reported":1753827085,"current_range_meters":8800,"station_id":"ce4bhlh2rcd13ifvqgig","pricing_plan_id":"cebpf4jnsgd1na2vs0mg"},{"bike_id":"2a3a9f20-00d1-4c95-a093-ba8e28724bc0","system_id":"levelo_inurba_marseille","lat":43.30661,"lon":5.37551,"is_reserved":false,"is_disabled":false,"rental_uris":{"android":"levelo://app?vid=2a3a9f20-00d1-4c95-a093-ba8e28724bc0","ios":"levelo://app?vid=2a3a9f20-00d1-4c95-a093-ba8e28724bc0"},"vehicle_type_id":"4","last_reported":1753827085,"current_range_meters":8800,"station_id":"","pricing_plan_id":"cebpf4jnsgd1na2vs0mg"},{"bike_id":"da913aa8-3d8c-4ab2-b48f-187998fd2a99","system_id":"levelo_inurba_marseille","lat":43.33771,"lon":5.37502,"is_reserved":false,"is_disabled":false,"rental_uris":{"android":"levelo://app?vid=da913aa8-3d8c-4ab2-b48f-187998fd2a99","ios":"levelo://app?vid=da913aa8-3d8c-4ab2-b48f-187998fd2a99"},"vehicle_type_id":"4","last_reported":1753827085,"current_range_meters":9200,"station_id":"","pricing_plan_id":"cebpf4jnsgd1na2vs0mg"},{"bike_id":"c13ce413-660f-4ff8-9547-d17d0704485e","system_id":"levelo_inurba_marseille","lat":43.21188,"lon":5.35075,"is_reserved":false,"is_disabled":false,"rental_uris":{"android":"levelo://app?vid=c13ce413-660f-4ff8-9547-d17d0704485e","ios":"levelo://app?vid=c13ce413-660f-4ff8-9547-d17d0704485e"},"vehicle_type_id":"4","last_reported":1753827085,"current_range_meters":9200,"station_id":"","pricing_plan_id":"cebpf4jnsgd1na2vs0mg"},{"bike_id":"3b08c7fe-da62-4fb4-8da1-3e8b0064e2d8","system_id":"levelo_inurba_marseille","lat":43.308822,"lon":5.396418,"is_reserved":false,"is_disabled":true,"rental_uris":{"android":"levelo://app?vid=3b08c7fe-da62-4fb4-8da1-3e8b0064e2d8","ios":"levelo://app?vid=3b08c7fe-da62-4fb4-8da1-3e8b0064e2d8"},"vehicle_type_id":"4","last_reported":1753827085,"current_range_meters":9200,"station_id":"","pricing_plan_id":"cebpf4jnsgd1na2vs0mg"},{"bike_id":"eb4a60a5-c578-4a3e-9153-275c4b996557","system_id":"levelo_inurba_marseille","lat":43.27998,"lon":5.4001,"is_reserved":false,"is_disabled":false,"rental_uris":{"android":"levelo://app?vid=eb4a60a5-c578-4a3e-9153-275c4b996557","ios":"levelo://app?vid=eb4a60a5-c578-4a3e-9153-275c4b996557"},"vehicle_type_id":"4","last_reported":1753827085,"current_range_meters":9200,"station_id":"ce4bho92rcd13ifvqh4g","pricing_plan_id":"cebpf4jnsgd1na2vs0mg"},{"bike_id":"d8e6094c-0de7-412e-bab8-3969f4a35524","system_id":"levelo_inurba_marseille","lat":43.29905,"lon":5.3761,"is_reserved":false,"is_disabled":false,"rental_uris":{"android":"levelo://app?vid=d8e6094c-0de7-412e-bab8-3969f4a35524","ios":"levelo://app?vid=d8e6094c-0de7-412e-bab8-3969f4a35524"},"vehicle_type_id":"4","last_reported":1753827085,"current_range_meters":9200,"station_id":"","pricing_plan_id":"cebpf4jnsgd1na2vs0mg"},{"bike_id":"2e358bb3-306c-4041-992e-844d8eeae3bc","system_id":"levelo_inurba_marseille","lat":43.30735,"lon":5.42449,"is_reserved":false,"is_disabled":false,"rental_uris":{"android":"levelo://app?vid=2e358bb3-306c-4041-992e-844d8eeae3bc","ios":"levelo://app?vid=2e358bb3-306c-4041-992e-844d8eeae3bc"},"vehicle_type_id":"4","last_reported":1753827085,"current_range_meters":9600,"station_id":"st_cvj6ca6bvosntc0bfgr0","pricing_plan_id":"cebpf4jnsgd1na2vs0mg"},{"bike_id":"3b816f38-f3dd-40b5-bcb4-81265a3c6ea9","system_id":"levelo_inurba_marseille","lat":43.29186,"lon":5.35812,"is_reserved":false,"is_disabled":false,"rental_uris":{"android":"levelo://app?vid=3b816f38-f3dd-40b5-bcb4-81265a3c6ea9","ios":"levelo://app?vid=3b816f38-f3dd-40b5-bcb4-81265a3c6ea9"},"vehicle_type_id":"4","last_reported":1753827085,"current_range_meters":9600,"station_id":"ce4bhb12rcd13ifvqel0","pricing_plan_id":"cebpf4jnsgd1na2vs0mg"},{"bike_id":"d4b0442d-37e3-4887-8827-87b59f4e9086","system_id":"levelo_inurba_marseille","lat":43.2977,"lon":5.38108,"is_reserved":false,"is_disabled":false,"rental_uris":{"android":"levelo://app?vid=d4b0442d-37e3-4887-8827-87b59f4e9086","ios":"levelo://app?vid=d4b0442d-37e3-4887-8827-87b59f4e9086"},"vehicle_type_id":"4","last_reported":1753827085,"current_range_meters":9600,"station_id":"","pricing_plan_id":"cebpf4jnsgd1na2vs0mg"},{"bike_id":"73b19fe3-22b0-4d3d-a4c3-37787bc9eeac","system_id":"levelo_inurba_marseille","lat":43.28061,"lon":5.39641,"is_reserved":false,"is_disabled":false,"rental_uris":{"android":"levelo://app?vid=73b19fe3-22b0-4d3d-a4c3-37787bc9eeac","ios":"levelo://app?vid=73b19fe3-22b0-4d3d-a4c3-37787bc9eeac"},"vehicle_type_id":"4","last_reported":1753827085,"current_range_meters":9600,"station_id":"ce4bho12rcd13ifvqh2g","pricing_plan_id":"cebpf4jnsgd1na2vs0mg"},{"bike_id":"ef81b8d6-2473-41ea-8712-90f66c525df8","system_id":"levelo_inurba_marseille","lat":43.26213,"lon":5.40439,"is_reserved":false,"is_disabled":false,"rental_uris":{"android":"levelo://app?vid=ef81b8d6-2473-41ea-8712-90f66c525df8","ios":"levelo://app?vid=ef81b8d6-2473-41ea-8712-90f66c525df8"},"vehicle_type_id":"4","last_reported":1753827085,"current_range_meters":9600,"station_id":"ce4bhmh2rcd13ifvqgmg","pricing_plan_id":"cebpf4jnsgd1na2vs0mg"},{"bike_id":"d3d9adde-29eb-4050-802f-d3912c92ecf0","system_id":"levelo_inurba_marseille","lat":43.30298,"lon":5.36869,"is_reserved":false,"is_disabled":false,"rental_uris":{"android":"levelo://app?vid=d3d9adde-29eb-4050-802f-d3912c92ecf0","ios":"levelo://app?vid=d3d9adde-29eb-4050-802f-d3912c92ecf0"},"vehicle_type_id":"4","last_reported":1753827085,"current_range_meters":10000,"station_id":"ce4bgqh2rcd13ifvqc5g","pricing_plan_id":"cebpf4jnsgd1na2vs0mg"},{"bike_id":"7e9aeb8e-f66f-43c2-a59d-c0e42783ddbc","system_id":"levelo_inurba_marseille","lat":43.25403,"lon":5.41892,"is_reserved":false,"is_disabled":false,"rental_uris":{"android":"levelo://app?vid=7e9aeb8e-f66f-43c2-a59d-c0e42783ddbc","ios":"levelo://app?vid=7e9aeb8e-f66f-43c2-a59d-c0e42783ddbc"},"vehicle_type_id":"4","last_reported":1753827085,"current_range_meters":10000,"station_id":"","pricing_plan_id":"cebpf4jnsgd1na2vs0mg"},{"bike_id":"9a9f7ee4-cd30-4503-882e-9e36249bea47","system_id":"levelo_inurba_marseille","lat":43.2953,"lon":5.39018,"is_reserved":false,"is_disabled":true,"rental_uris":{"android":"levelo://app?vid=9a9f7ee4-cd30-4503-882e-9e36249bea47","ios":"levelo://app?vid=9a9f7ee4-cd30-4503-882e-9e36249bea47"},"vehicle_type_id":"4","last_reported":1753827085,"current_range_meters":10000,"station_id":"ce4bh3p2rcd13ifvqdp0","pricing_plan_id":"cebpf4jnsgd1na2vs0mg"},{"bike_id":"d72421b8-3411-486c-a49e-680c846f73bc","system_id":"levelo_inurba_marseille","lat":43.30735,"lon":5.42449,"is_reserved":false,"is_disabled":false,"rental_uris":{"android":"levelo://app?vid=d72421b8-3411-486c-a49e-680c846f73bc","ios":"levelo://app?vid=d72421b8-3411-486c-a49e-680c846f73bc"},"vehicle_type_id":"4","last_reported":1753827085,"current_range_meters":10000,"station_id":"st_cvj6ca6bvosntc0bfgr0","pricing_plan_id":"cebpf4jnsgd1na2vs0mg"},{"bike_id":"7279efb2-baa4-48eb-8b27-c4ab3207904d","system_id":"levelo_inurba_marseille","lat":43.3079,"lon":5.37659,"is_reserved":false,"is_disabled":false,"rental_uris":{"android":"levelo://app?vid=7279efb2-baa4-48eb-8b27-c4ab3207904d","ios":"levelo://app?vid=7279efb2-baa4-48eb-8b27-c4ab3207904d"},"vehicle_type_id":"4","last_reported":1753827085,"current_range_meters":10000,"station_id":"ce4bgv92rcd13ifvqcq0","pricing_plan_id":"cebpf4jnsgd1na2vs0mg"},{"bike_id":"b91eea8e-5bfd-4015-80e3-c6a73f1ee420","system_id":"levelo_inurba_marseille","lat":43.32107,"lon":5.36765,"is_reserved":false,"is_disabled":false,"rental_uris":{"android":"levelo://app?vid=b91eea8e-5bfd-4015-80e3-c6a73f1ee420","ios":"levelo://app?vid=b91eea8e-5bfd-4015-80e3-c6a73f1ee420"},"vehicle_type_id":"4","last_reported":1753827085,"current_range_meters":10000,"station_id":"ce4bhrh2rcd13ifvqhug","pricing_plan_id":"cebpf4jnsgd1na2vs0mg"},{"bike_id":"190b63e1-d80b-47e1-898c-0c120aaa9723","system_id":"levelo_inurba_marseille","lat":43.306463,"lon":5.401073,"is_reserved":false,"is_disabled":false,"rental_uris":{"android":"levelo://app?vid=190b63e1-d80b-47e1-898c-0c120aaa9723","ios":"levelo://app?vid=190b63e1-d80b-47e1-898c-0c120aaa9723"},"vehicle_type_id":"4","last_reported":1753827085,"current_range_meters":10000,"station_id":"ce4bh112rcd13ifvqda0","pricing_plan_id":"cebpf4jnsgd1na2vs0mg"},{"bike_id":"b6c1096b-d915-4a56-9f0a-4188874faa14","system_id":"levelo_inurba_marseille","lat":43.29912,"lon":5.37472,"is_reserved":false,"is_disabled":false,"rental_uris":{"android":"levelo://app?vid=b6c1096b-d915-4a56-9f0a-4188874faa14","ios":"levelo://app?vid=b6c1096b-d915-4a56-9f0a-4188874faa14"},"vehicle_type_id":"4","last_reported":1753827085,"current_range_meters":10800,"station_id":"ce4bgjh2rcd13ifvqbg0","pricing_plan_id":"cebpf4jnsgd1na2vs0mg"},{"bike_id":"8f51eef3-a67f-4f71-b87a-86271c38b3b3","system_id":"levelo_inurba_marseille","lat":43.3117,"lon":5.38725,"is_reserved":false,"is_disabled":false,"rental_uris":{"android":"levelo://app?vid=8f51eef3-a67f-4f71-b87a-86271c38b3b3","ios":"levelo://app?vid=8f51eef3-a67f-4f71-b87a-86271c38b3b3"},"vehicle_type_id":"4","last_reported":1753827085,"current_range_meters":10000,"station_id":"ce4bgv12rcd13ifvqcp0","pricing_plan_id":"cebpf4jnsgd1na2vs0mg"},{"bike_id":"c919fe33-8ed3-4cef-af91-da8f802c7459","system_id":"levelo_inurba_marseille","lat":43.24006,"lon":5.37762,"is_reserved":false,"is_disabled":false,"rental_uris":{"android":"levelo://app?vid=c919fe33-8ed3-4cef-af91-da8f802c7459","ios":"levelo://app?vid=c919fe33-8ed3-4cef-af91-da8f802c7459"},"vehicle_type_id":"4","last_reported":1753827085,"current_range_meters":10800,"station_id":"ce4bhnp2rcd13ifvqgvg","pricing_plan_id":"cebpf4jnsgd1na2vs0mg"},{"bike_id":"fc0d563c-dc38-47b5-898e-bba26192646f","system_id":"levelo_inurba_marseille","lat":43.29958,"lon":5.41322,"is_reserved":false,"is_disabled":false,"rental_uris":{"android":"levelo://app?vid=fc0d563c-dc38-47b5-898e-bba26192646f","ios":"levelo://app?vid=fc0d563c-dc38-47b5-898e-bba26192646f"},"vehicle_type_id":"4","last_reported":1753827085,"current_range_meters":10800,"station_id":"ce4bhp12rcd13ifvqh9g","pricing_plan_id":"cebpf4jnsgd1na2vs0mg"},{"bike_id":"a217552c-ef27-4154-b353-1362fb553f35","system_id":"levelo_inurba_marseille","lat":43.3014,"lon":5.37423,"is_reserved":false,"is_disabled":false,"rental_uris":{"android":"levelo://app?vid=a217552c-ef27-4154-b353-1362fb553f35","ios":"levelo://app?vid=a217552c-ef27-4154-b353-1362fb553f35"},"vehicle_type_id":"4","last_reported":1753827085,"current_range_meters":10800,"station_id":"ce4bgs92rcd13ifvqcc0","pricing_plan_id":"cebpf4jnsgd1na2vs0mg"},{"bike_id":"55201a9e-328f-452a-8b58-b76f0e5a4511","system_id":"levelo_inurba_marseille","lat":43.23181,"lon":5.400041,"is_reserved":false,"is_disabled":true,"rental_uris":{"android":"levelo://app?vid=55201a9e-328f-452a-8b58-b76f0e5a4511","ios":"levelo://app?vid=55201a9e-328f-452a-8b58-b76f0e5a4511"},"vehicle_type_id":"4","last_reported":1753827085,"current_range_meters":10800,"station_id":"ce4bhn12rcd13ifvqgqg","pricing_plan_id":"cebpf4jnsgd1na2vs0mg"},{"bike_id":"f8d449e5-4154-47f9-bfbc-9bf3b52ae9a7","system_id":"levelo_inurba_marseille","lat":43.28657,"lon":5.36357,"is_reserved":false,"is_disabled":false,"rental_uris":{"android":"levelo://app?vid=f8d449e5-4154-47f9-bfbc-9bf3b52ae9a7","ios":"levelo://app?vid=f8d449e5-4154-47f9-bfbc-9bf3b52ae9a7"},"vehicle_type_id":"4","last_reported":1753827085,"current_range_meters":11200,"station_id":"ce4bhah2rcd13ifvqej0","pricing_plan_id":"cebpf4jnsgd1na2vs0mg"},{"bike_id":"50427cb4-f7c5-45fa-9402-39ede650aa5c","system_id":"levelo_inurba_marseille","lat":43.31259,"lon":5.4018,"is_reserved":false,"is_disabled":true,"rental_uris":{"android":"levelo://app?vid=50427cb4-f7c5-45fa-9402-39ede650aa5c","ios":"levelo://app?vid=50427cb4-f7c5-45fa-9402-39ede650aa5c"},"vehicle_type_id":"4","last_reported":1753827085,"current_range_meters":11200,"station_id":"ce4bh092rcd13ifvqd30","pricing_plan_id":"cebpf4jnsgd1na2vs0mg"},{"bike_id":"43348ea9-7f7d-45e7-9344-a5a742188c65","system_id":"levelo_inurba_marseille","lat":43.28714,"lon":5.37371,"is_reserved":false,"is_disabled":true,"rental_uris":{"android":"levelo://app?vid=43348ea9-7f7d-45e7-9344-a5a742188c65","ios":"levelo://app?vid=43348ea9-7f7d-45e7-9344-a5a742188c65"},"vehicle_type_id":"4","last_reported":1753827085,"current_range_meters":11200,"station_id":"ce4bh3p2rcd13ifvqdq0","pricing_plan_id":"cebpf4jnsgd1na2vs0mg"},{"bike_id":"01dc87be-1997-4bc9-9766-41483133a4ce","system_id":"levelo_inurba_marseille","lat":43.30927,"lon":5.40155,"is_reserved":false,"is_disabled":false,"rental_uris":{"android":"levelo://app?vid=01dc87be-1997-4bc9-9766-41483133a4ce","ios":"levelo://app?vid=01dc87be-1997-4bc9-9766-41483133a4ce"},"vehicle_type_id":"4","last_reported":1753827085,"current_range_meters":11200,"station_id":"ce4bgvp2rcd13ifvqct0","pricing_plan_id":"cebpf4jnsgd1na2vs0mg"},{"bike_id":"73e8eb33-c62d-4c29-9dce-7a8acfea8403","system_id":"levelo_inurba_marseille","lat":43.3153,"lon":5.38033,"is_reserved":false,"is_disabled":false,"rental_uris":{"android":"levelo://app?vid=73e8eb33-c62d-4c29-9dce-7a8acfea8403","ios":"levelo://app?vid=73e8eb33-c62d-4c29-9dce-7a8acfea8403"},"vehicle_type_id":"4","last_reported":1753827085,"current_range_meters":11200,"station_id":"ce4bhsp2rcd13ifvqi50","pricing_plan_id":"cebpf4jnsgd1na2vs0mg"},{"bike_id":"419359cb-404b-49f0-a54b-30db1a401a63","system_id":"levelo_inurba_marseille","lat":43.29176,"lon":5.35819,"is_reserved":false,"is_disabled":true,"rental_uris":{"android":"levelo://app?vid=419359cb-404b-49f0-a54b-30db1a401a63","ios":"levelo://app?vid=419359cb-404b-49f0-a54b-30db1a401a63"},"vehicle_type_id":"4","last_reported":1753827085,"current_range_meters":11200,"station_id":"ce4bhb12rcd13ifvqel0","pricing_plan_id":"cebpf4jnsgd1na2vs0mg"},{"bike_id":"b0f2b2c1-b378-4164-a22b-6eceaa434acc","system_id":"levelo_inurba_marseille","lat":43.29229,"lon":5.42677,"is_reserved":false,"is_disabled":false,"rental_uris":{"android":"levelo://app?vid=b0f2b2c1-b378-4164-a22b-6eceaa434acc","ios":"levelo://app?vid=b0f2b2c1-b378-4164-a22b-6eceaa434acc"},"vehicle_type_id":"4","last_reported":1753827085,"current_range_meters":11200,"station_id":"","pricing_plan_id":"cebpf4jnsgd1na2vs0mg"},{"bike_id":"b907c6b0-1ead-4598-8218-49f79a83ed45","system_id":"levelo_inurba_marseille","lat":43.3015,"lon":5.36666,"is_reserved":false,"is_disabled":false,"rental_uris":{"android":"levelo://app?vid=b907c6b0-1ead-4598-8218-49f79a83ed45","ios":"levelo://app?vid=b907c6b0-1ead-4598-8218-49f79a83ed45"},"vehicle_type_id":"4","last_reported":1753827085,"current_range_meters":11200,"station_id":"","pricing_plan_id":"cebpf4jnsgd1na2vs0mg"},{"bike_id":"293fc8a7-4090-4002-ad3b-4e8d67fcba1e","system_id":"levelo_inurba_marseille","lat":43.28996,"lon":5.38604,"is_reserved":false,"is_disabled":false,"rental_uris":{"android":"levelo://app?vid=293fc8a7-4090-4002-ad3b-4e8d67fcba1e","ios":"levelo://app?vid=293fc8a7-4090-4002-ad3b-4e8d67fcba1e"},"vehicle_type_id":"4","last_reported":1753827085,"current_range_meters":11200,"station_id":"","pricing_plan_id":"cebpf4jnsgd1na2vs0mg"},{"bike_id":"036b9385-ac6e-4636-91bb-e02909e77d53","system_id":"levelo_inurba_marseille","lat":43.32159,"lon":5.36799,"is_reserved":false,"is_disabled":false,"rental_uris":{"android":"levelo://app?vid=036b9385-ac6e-4636-91bb-e02909e77d53","ios":"levelo://app?vid=036b9385-ac6e-4636-91bb-e02909e77d53"},"vehicle_type_id":"4","last_reported":1753827085,"current_range_meters":11200,"station_id":"ce4bhrh2rcd13ifvqhug","pricing_plan_id":"cebpf4jnsgd1na2vs0mg"},{"bike_id":"914c7eb0-5683-4c81-a101-38fd70dc785f","system_id":"levelo_inurba_marseille","lat":43.29519,"lon":5.38538,"is_reserved":false,"is_disabled":false,"rental_uris":{"android":"levelo://app?vid=914c7eb0-5683-4c81-a101-38fd70dc785f","ios":"levelo://app?vid=914c7eb0-5683-4c81-a101-38fd70dc785f"},"vehicle_type_id":"4","last_reported":1753827085,"current_range_meters":11200,"station_id":"ce4bgih2rcd13ifvqba0","pricing_plan_id":"cebpf4jnsgd1na2vs0mg"},{"bike_id":"1c2cee29-6d27-4bdf-b97c-eecf71616341","system_id":"levelo_inurba_marseille","lat":43.23178,"lon":5.35575,"is_reserved":false,"is_disabled":false,"rental_uris":{"android":"levelo://app?vid=1c2cee29-6d27-4bdf-b97c-eecf71616341","ios":"levelo://app?vid=1c2cee29-6d27-4bdf-b97c-eecf71616341"},"vehicle_type_id":"4","last_reported":1753827085,"current_range_meters":11600,"station_id":"ce4bhu92rcd13ifvqi70","pricing_plan_id":"cebpf4jnsgd1na2vs0mg"},{"bike_id":"5139116d-9424-4cef-93b3-b66d7928b57c","system_id":"levelo_inurba_marseille","lat":43.29245,"lon":5.40175,"is_reserved":false,"is_disabled":true,"rental_uris":{"android":"levelo://app?vid=5139116d-9424-4cef-93b3-b66d7928b57c","ios":"levelo://app?vid=5139116d-9424-4cef-93b3-b66d7928b57c"},"vehicle_type_id":"4","last_reported":1753827085,"current_range_meters":11600,"station_id":"ce4bh312rcd13ifvqdk0","pricing_plan_id":"cebpf4jnsgd1na2vs0mg"},{"bike_id":"f73f8966-8b7e-457a-8b9d-c5b89ce65a5c","system_id":"levelo_inurba_marseille","lat":43.28435,"lon":5.34994,"is_reserved":false,"is_disabled":true,"rental_uris":{"android":"levelo://app?vid=f73f8966-8b7e-457a-8b9d-c5b89ce65a5c","ios":"levelo://app?vid=f73f8966-8b7e-457a-8b9d-c5b89ce65a5c"},"vehicle_type_id":"4","last_reported":1753827085,"current_range_meters":11600,"station_id":"ce4bhbh2rcd13ifvqepg","pricing_plan_id":"cebpf4jnsgd1na2vs0mg"},{"bike_id":"7b438956-ff79-4fbf-ab1f-0ba90390aa3b","system_id":"levelo_inurba_marseille","lat":43.24606,"lon":5.38987,"is_reserved":false,"is_disabled":false,"rental_uris":{"android":"levelo://app?vid=7b438956-ff79-4fbf-ab1f-0ba90390aa3b","ios":"levelo://app?vid=7b438956-ff79-4fbf-ab1f-0ba90390aa3b"},"vehicle_type_id":"4","last_reported":1753827085,"current_range_meters":11600,"station_id":"","pricing_plan_id":"cebpf4jnsgd1na2vs0mg"},{"bike_id":"fc633948-18c0-44f7-a2f7-c9620d3acea8","system_id":"levelo_inurba_marseille","lat":43.30297,"lon":5.36869,"is_reserved":false,"is_disabled":false,"rental_uris":{"android":"levelo://app?vid=fc633948-18c0-44f7-a2f7-c9620d3acea8","ios":"levelo://app?vid=fc633948-18c0-44f7-a2f7-c9620d3acea8"},"vehicle_type_id":"4","last_reported":1753827085,"current_range_meters":11600,"station_id":"ce4bgqh2rcd13ifvqc5g","pricing_plan_id":"cebpf4jnsgd1na2vs0mg"},{"bike_id":"5e5998bf-cceb-43f9-82ba-8abad7b416c1","system_id":"levelo_inurba_marseille","lat":43.295299,"lon":5.393983,"is_reserved":false,"is_disabled":false,"rental_uris":{"android":"levelo://app?vid=5e5998bf-cceb-43f9-82ba-8abad7b416c1","ios":"levelo://app?vid=5e5998bf-cceb-43f9-82ba-8abad7b416c1"},"vehicle_type_id":"4","last_reported":1753827085,"current_range_meters":11600,"station_id":"ce4bh292rcd13ifvqdf0","pricing_plan_id":"cebpf4jnsgd1na2vs0mg"},{"bike_id":"913a9f6d-20be-461b-9b43-0e59b72b03d6","system_id":"levelo_inurba_marseille","lat":43.34142,"lon":5.40889,"is_reserved":false,"is_disabled":false,"rental_uris":{"android":"levelo://app?vid=913a9f6d-20be-461b-9b43-0e59b72b03d6","ios":"levelo://app?vid=913a9f6d-20be-461b-9b43-0e59b72b03d6"},"vehicle_type_id":"4","last_reported":1753827085,"current_range_meters":11600,"station_id":"ce4bhqh2rcd13ifvqhlg","pricing_plan_id":"cebpf4jnsgd1na2vs0mg"},{"bike_id":"73c28b44-fb9a-4083-b9eb-e60de241e4cb","system_id":"levelo_inurba_marseille","lat":43.32366,"lon":5.38888,"is_reserved":false,"is_disabled":false,"rental_uris":{"android":"levelo://app?vid=73c28b44-fb9a-4083-b9eb-e60de241e4cb","ios":"levelo://app?vid=73c28b44-fb9a-4083-b9eb-e60de241e4cb"},"vehicle_type_id":"4","last_reported":1753827085,"current_range_meters":12000,"station_id":"ce4bhqp2rcd13ifvqhog","pricing_plan_id":"cebpf4jnsgd1na2vs0mg"},{"bike_id":"38228362-ec1b-46e2-a29d-38221a3a9a77","system_id":"levelo_inurba_marseille","lat":43.28563,"lon":5.39499,"is_reserved":false,"is_disabled":false,"rental_uris":{"android":"levelo://app?vid=38228362-ec1b-46e2-a29d-38221a3a9a77","ios":"levelo://app?vid=38228362-ec1b-46e2-a29d-38221a3a9a77"},"vehicle_type_id":"4","last_reported":1753827085,"current_range_meters":12000,"station_id":"ce4bh292rcd13ifvqdg0","pricing_plan_id":"cebpf4jnsgd1na2vs0mg"},{"bike_id":"2f5a766e-3ece-4a36-9442-eef7b36a8a22","system_id":"levelo_inurba_marseille","lat":43.248162,"lon":5.374668,"is_reserved":false,"is_disabled":false,"rental_uris":{"android":"levelo://app?vid=2f5a766e-3ece-4a36-9442-eef7b36a8a22","ios":"levelo://app?vid=2f5a766e-3ece-4a36-9442-eef7b36a8a22"},"vehicle_type_id":"4","last_reported":1753827085,"current_range_meters":12400,"station_id":"ce4bhgh2rcd13ifvqfb0","pricing_plan_id":"cebpf4jnsgd1na2vs0mg"},{"bike_id":"84aafa29-819a-4c13-b11f-1f4e655bdc98","system_id":"levelo_inurba_marseille","lat":43.29599,"lon":5.3811,"is_reserved":false,"is_disabled":true,"rental_uris":{"android":"levelo://app?vid=84aafa29-819a-4c13-b11f-1f4e655bdc98","ios":"levelo://app?vid=84aafa29-819a-4c13-b11f-1f4e655bdc98"},"vehicle_type_id":"4","last_reported":1753827085,"current_range_meters":12000,"station_id":"ce4bgl12rcd13ifvqbo0","pricing_plan_id":"cebpf4jnsgd1na2vs0mg"},{"bike_id":"5b01b555-5066-49e8-94d6-3788846aedf3","system_id":"levelo_inurba_marseille","lat":43.2886,"lon":5.35852,"is_reserved":false,"is_disabled":false,"rental_uris":{"android":"levelo://app?vid=5b01b555-5066-49e8-94d6-3788846aedf3","ios":"levelo://app?vid=5b01b555-5066-49e8-94d6-3788846aedf3"},"vehicle_type_id":"4","last_reported":1753827085,"current_range_meters":11600,"station_id":"ce4bhb12rcd13ifvqem0","pricing_plan_id":"cebpf4jnsgd1na2vs0mg"},{"bike_id":"bcf4de34-2c38-4ed7-93cc-b57b7799e34a","system_id":"levelo_inurba_marseille","lat":43.32378,"lon":5.38885,"is_reserved":false,"is_disabled":false,"rental_uris":{"android":"levelo://app?vid=bcf4de34-2c38-4ed7-93cc-b57b7799e34a","ios":"levelo://app?vid=bcf4de34-2c38-4ed7-93cc-b57b7799e34a"},"vehicle_type_id":"4","last_reported":1753827085,"current_range_meters":12000,"station_id":"ce4bhqp2rcd13ifvqhog","pricing_plan_id":"cebpf4jnsgd1na2vs0mg"},{"bike_id":"39687413-41bf-4779-8a6c-0b7f613290bd","system_id":"levelo_inurba_marseille","lat":43.29258,"lon":5.384322,"is_reserved":false,"is_disabled":false,"rental_uris":{"android":"levelo://app?vid=39687413-41bf-4779-8a6c-0b7f613290bd","ios":"levelo://app?vid=39687413-41bf-4779-8a6c-0b7f613290bd"},"vehicle_type_id":"4","last_reported":1753827085,"current_range_meters":12000,"station_id":"ce4bh692rcd13ifvqea0","pricing_plan_id":"cebpf4jnsgd1na2vs0mg"},{"bike_id":"a5d21f19-a2f8-4c79-9341-84f97b97beb0","system_id":"levelo_inurba_marseille","lat":43.3339,"lon":5.40079,"is_reserved":false,"is_disabled":false,"rental_uris":{"android":"levelo://app?vid=a5d21f19-a2f8-4c79-9341-84f97b97beb0","ios":"levelo://app?vid=a5d21f19-a2f8-4c79-9341-84f97b97beb0"},"vehicle_type_id":"4","last_reported":1753827085,"current_range_meters":12000,"station_id":"","pricing_plan_id":"cebpf4jnsgd1na2vs0mg"},{"bike_id":"e137dc03-26cf-440c-b3ea-1ea522645199","system_id":"levelo_inurba_marseille","lat":43.280815,"lon":5.396626,"is_reserved":false,"is_disabled":false,"rental_uris":{"android":"levelo://app?vid=e137dc03-26cf-440c-b3ea-1ea522645199","ios":"levelo://app?vid=e137dc03-26cf-440c-b3ea-1ea522645199"},"vehicle_type_id":"4","last_reported":1753827085,"current_range_meters":12000,"station_id":"","pricing_plan_id":"cebpf4jnsgd1na2vs0mg"},{"bike_id":"372cc281-1277-44e7-b2b4-070055061ede","system_id":"levelo_inurba_marseille","lat":43.274716,"lon":5.424727,"is_reserved":false,"is_disabled":false,"rental_uris":{"android":"levelo://app?vid=372cc281-1277-44e7-b2b4-070055061ede","ios":"levelo://app?vid=372cc281-1277-44e7-b2b4-070055061ede"},"vehicle_type_id":"4","last_reported":1753827085,"current_range_meters":12400,"station_id":"ce4bhn92rcd13ifvqgrg","pricing_plan_id":"cebpf4jnsgd1na2vs0mg"},{"bike_id":"0dc99cab-1546-4588-8ef9-e9c6ae8e0a6f","system_id":"levelo_inurba_marseille","lat":43.23063,"lon":5.3549,"is_reserved":false,"is_disabled":false,"rental_uris":{"android":"levelo://app?vid=0dc99cab-1546-4588-8ef9-e9c6ae8e0a6f","ios":"levelo://app?vid=0dc99cab-1546-4588-8ef9-e9c6ae8e0a6f"},"vehicle_type_id":"4","last_reported":1753827085,"current_range_meters":12000,"station_id":"cpo3342slgdg3j2ifvpg","pricing_plan_id":"cebpf4jnsgd1na2vs0mg"},{"bike_id":"e9624a09-b572-4bcb-944b-ef4683557984","system_id":"levelo_inurba_marseille","lat":43.23069,"lon":5.35498,"is_reserved":false,"is_disabled":false,"rental_uris":{"android":"levelo://app?vid=e9624a09-b572-4bcb-944b-ef4683557984","ios":"levelo://app?vid=e9624a09-b572-4bcb-944b-ef4683557984"},"vehicle_type_id":"4","last_reported":1753827085,"current_range_meters":12000,"station_id":"cpo3342slgdg3j2ifvpg","pricing_plan_id":"cebpf4jnsgd1na2vs0mg"},{"bike_id":"63cb52bd-5539-4bdd-a943-0c152aa27823","system_id":"levelo_inurba_marseille","lat":43.290245,"lon":5.38662,"is_reserved":false,"is_disabled":false,"rental_uris":{"android":"levelo://app?vid=63cb52bd-5539-4bdd-a943-0c152aa27823","ios":"levelo://app?vid=63cb52bd-5539-4bdd-a943-0c152aa27823"},"vehicle_type_id":"4","last_reported":1753827085,"current_range_meters":12000,"station_id":"ce4bh4p2rcd13ifvqe0g","pricing_plan_id":"cebpf4jnsgd1na2vs0mg"},{"bike_id":"baf4a808-edf1-448c-a2e5-2bd9b0ce44eb","system_id":"levelo_inurba_marseille","lat":43.30881,"lon":5.39633,"is_reserved":false,"is_disabled":false,"rental_uris":{"android":"levelo://app?vid=baf4a808-edf1-448c-a2e5-2bd9b0ce44eb","ios":"levelo://app?vid=baf4a808-edf1-448c-a2e5-2bd9b0ce44eb"},"vehicle_type_id":"4","last_reported":1753827085,"current_range_meters":12400,"station_id":"ce4bh012rcd13ifvqcv0","pricing_plan_id":"cebpf4jnsgd1na2vs0mg"},{"bike_id":"b7234136-bf62-4ef1-9964-a9c43529d354","system_id":"levelo_inurba_marseille","lat":43.31834,"lon":5.39413,"is_reserved":false,"is_disabled":false,"rental_uris":{"android":"levelo://app?vid=b7234136-bf62-4ef1-9964-a9c43529d354","ios":"levelo://app?vid=b7234136-bf62-4ef1-9964-a9c43529d354"},"vehicle_type_id":"4","last_reported":1753827085,"current_range_meters":12400,"station_id":"","pricing_plan_id":"cebpf4jnsgd1na2vs0mg"},{"bike_id":"413a38a6-da08-40e1-81c5-505fab518daf","system_id":"levelo_inurba_marseille","lat":43.2953,"lon":5.38538,"is_reserved":false,"is_disabled":false,"rental_uris":{"android":"levelo://app?vid=413a38a6-da08-40e1-81c5-505fab518daf","ios":"levelo://app?vid=413a38a6-da08-40e1-81c5-505fab518daf"},"vehicle_type_id":"4","last_reported":1753827085,"current_range_meters":12400,"station_id":"ce4bgih2rcd13ifvqba0","pricing_plan_id":"cebpf4jnsgd1na2vs0mg"},{"bike_id":"b93ce78a-91c6-4fce-9307-3a583d277b06","system_id":"levelo_inurba_marseille","lat":43.287044,"lon":5.379571,"is_reserved":false,"is_disabled":true,"rental_uris":{"android":"levelo://app?vid=b93ce78a-91c6-4fce-9307-3a583d277b06","ios":"levelo://app?vid=b93ce78a-91c6-4fce-9307-3a583d277b06"},"vehicle_type_id":"4","last_reported":1753827085,"current_range_meters":12400,"station_id":"ce4bh9p2rcd13ifvqec0","pricing_plan_id":"cebpf4jnsgd1na2vs0mg"},{"bike_id":"996fe539-42e6-4511-a382-9c507d4c6b32","system_id":"levelo_inurba_marseille","lat":43.29554,"lon":5.38528,"is_reserved":false,"is_disabled":false,"rental_uris":{"android":"levelo://app?vid=996fe539-42e6-4511-a382-9c507d4c6b32","ios":"levelo://app?vid=996fe539-42e6-4511-a382-9c507d4c6b32"},"vehicle_type_id":"4","last_reported":1753827085,"current_range_meters":12400,"station_id":"ce4bgih2rcd13ifvqba0","pricing_plan_id":"cebpf4jnsgd1na2vs0mg"},{"bike_id":"1ae5d7eb-1e99-401d-bdff-f20d11a3625e","system_id":"levelo_inurba_marseille","lat":43.30319,"lon":5.40445,"is_reserved":false,"is_disabled":true,"rental_uris":{"android":"levelo://app?vid=1ae5d7eb-1e99-401d-bdff-f20d11a3625e","ios":"levelo://app?vid=1ae5d7eb-1e99-401d-bdff-f20d11a3625e"},"vehicle_type_id":"4","last_reported":1753827085,"current_range_meters":12400,"station_id":"ce4bh012rcd13ifvqd10","pricing_plan_id":"cebpf4jnsgd1na2vs0mg"},{"bike_id":"d29b62cf-4142-4fac-87d5-e64841551607","system_id":"levelo_inurba_marseille","lat":43.25086,"lon":5.39522,"is_reserved":false,"is_disabled":false,"rental_uris":{"android":"levelo://app?vid=d29b62cf-4142-4fac-87d5-e64841551607","ios":"levelo://app?vid=d29b62cf-4142-4fac-87d5-e64841551607"},"vehicle_type_id":"4","last_reported":1753827085,"current_range_meters":14400,"station_id":"ce4bhm12rcd13ifvqgkg","pricing_plan_id":"cebpf4jnsgd1na2vs0mg"},{"bike_id":"938c16e4-dc7a-407a-b088-a048160d8de5","system_id":"levelo_inurba_marseille","lat":43.21196,"lon":5.3507,"is_reserved":false,"is_disabled":false,"rental_uris":{"android":"levelo://app?vid=938c16e4-dc7a-407a-b088-a048160d8de5","ios":"levelo://app?vid=938c16e4-dc7a-407a-b088-a048160d8de5"},"vehicle_type_id":"4","last_reported":1753827085,"current_range_meters":12800,"station_id":"st_cvj6sg6p6f1abm77japg","pricing_plan_id":"cebpf4jnsgd1na2vs0mg"},{"bike_id":"6f9e6bbb-593d-4070-9a34-8bc5260eae69","system_id":"levelo_inurba_marseille","lat":43.30317,"lon":5.40444,"is_reserved":false,"is_disabled":false,"rental_uris":{"android":"levelo://app?vid=6f9e6bbb-593d-4070-9a34-8bc5260eae69","ios":"levelo://app?vid=6f9e6bbb-593d-4070-9a34-8bc5260eae69"},"vehicle_type_id":"4","last_reported":1753827085,"current_range_meters":12800,"station_id":"ce4bh012rcd13ifvqd10","pricing_plan_id":"cebpf4jnsgd1na2vs0mg"},{"bike_id":"a027973f-c8c9-4811-a512-806c935b4c27","system_id":"levelo_inurba_marseille","lat":43.211933,"lon":5.350895,"is_reserved":false,"is_disabled":true,"rental_uris":{"android":"levelo://app?vid=a027973f-c8c9-4811-a512-806c935b4c27","ios":"levelo://app?vid=a027973f-c8c9-4811-a512-806c935b4c27"},"vehicle_type_id":"4","last_reported":1753827085,"current_range_meters":12800,"station_id":"st_cvj6sg6p6f1abm77japg","pricing_plan_id":"cebpf4jnsgd1na2vs0mg"},{"bike_id":"4c9becfb-b223-42b2-8f64-37550aec8781","system_id":"levelo_inurba_marseille","lat":43.32656,"lon":5.40996,"is_reserved":false,"is_disabled":false,"rental_uris":{"android":"levelo://app?vid=4c9becfb-b223-42b2-8f64-37550aec8781","ios":"levelo://app?vid=4c9becfb-b223-42b2-8f64-37550aec8781"},"vehicle_type_id":"4","last_reported":1753827085,"current_range_meters":12800,"station_id":"ce4bhpp2rcd13ifvqhgg","pricing_plan_id":"cebpf4jnsgd1na2vs0mg"},{"bike_id":"bea7acdd-22d2-4ef0-9a6a-941026c0a365","system_id":"levelo_inurba_marseille","lat":43.30882,"lon":5.39643,"is_reserved":false,"is_disabled":false,"rental_uris":{"android":"levelo://app?vid=bea7acdd-22d2-4ef0-9a6a-941026c0a365","ios":"levelo://app?vid=bea7acdd-22d2-4ef0-9a6a-941026c0a365"},"vehicle_type_id":"4","last_reported":1753827085,"current_range_meters":12800,"station_id":"ce4bh012rcd13ifvqcv0","pricing_plan_id":"cebpf4jnsgd1na2vs0mg"},{"bike_id":"cb9dbe4d-145c-4c9d-bcbe-9033b4ccfde7","system_id":"levelo_inurba_marseille","lat":43.28177,"lon":5.42574,"is_reserved":false,"is_disabled":false,"rental_uris":{"android":"levelo://app?vid=cb9dbe4d-145c-4c9d-bcbe-9033b4ccfde7","ios":"levelo://app?vid=cb9dbe4d-145c-4c9d-bcbe-9033b4ccfde7"},"vehicle_type_id":"4","last_reported":1753827085,"current_range_meters":12800,"station_id":"ce4bhnh2rcd13ifvqgug","pricing_plan_id":"cebpf4jnsgd1na2vs0mg"},{"bike_id":"a36bd7ba-074a-442d-8f4e-bb3cc65a52a2","system_id":"levelo_inurba_marseille","lat":43.29216,"lon":5.3954,"is_reserved":false,"is_disabled":false,"rental_uris":{"android":"levelo://app?vid=a36bd7ba-074a-442d-8f4e-bb3cc65a52a2","ios":"levelo://app?vid=a36bd7ba-074a-442d-8f4e-bb3cc65a52a2"},"vehicle_type_id":"4","last_reported":1753827085,"current_range_meters":12800,"station_id":"","pricing_plan_id":"cebpf4jnsgd1na2vs0mg"},{"bike_id":"904ff37a-bf45-4a91-859e-5c28c84620f8","system_id":"levelo_inurba_marseille","lat":43.23186,"lon":5.39997,"is_reserved":false,"is_disabled":false,"rental_uris":{"android":"levelo://app?vid=904ff37a-bf45-4a91-859e-5c28c84620f8","ios":"levelo://app?vid=904ff37a-bf45-4a91-859e-5c28c84620f8"},"vehicle_type_id":"4","last_reported":1753827085,"current_range_meters":12800,"station_id":"ce4bhn12rcd13ifvqgqg","pricing_plan_id":"cebpf4jnsgd1na2vs0mg"},{"bike_id":"d05a9557-3441-4c37-8059-8a6ec4ee236a","system_id":"levelo_inurba_marseille","lat":43.28935,"lon":5.36393,"is_reserved":false,"is_disabled":false,"rental_uris":{"android":"levelo://app?vid=d05a9557-3441-4c37-8059-8a6ec4ee236a","ios":"levelo://app?vid=d05a9557-3441-4c37-8059-8a6ec4ee236a"},"vehicle_type_id":"4","last_reported":1753827085,"current_range_meters":12800,"station_id":"ce4bhc92rcd13ifvqetg","pricing_plan_id":"cebpf4jnsgd1na2vs0mg"},{"bike_id":"908f6091-1a29-47c9-9e85-77904ffd6c1c","system_id":"levelo_inurba_marseille","lat":43.250707,"lon":5.403331,"is_reserved":false,"is_disabled":false,"rental_uris":{"android":"levelo://app?vid=908f6091-1a29-47c9-9e85-77904ffd6c1c","ios":"levelo://app?vid=908f6091-1a29-47c9-9e85-77904ffd6c1c"},"vehicle_type_id":"4","last_reported":1753827085,"current_range_meters":12800,"station_id":"ce4bhlh2rcd13ifvqgig","pricing_plan_id":"cebpf4jnsgd1na2vs0mg"},{"bike_id":"21cda18a-6622-4197-befa-7523a69dcfaf","system_id":"levelo_inurba_marseille","lat":43.28141,"lon":5.44197,"is_reserved":false,"is_disabled":false,"rental_uris":{"android":"levelo://app?vid=21cda18a-6622-4197-befa-7523a69dcfaf","ios":"levelo://app?vid=21cda18a-6622-4197-befa-7523a69dcfaf"},"vehicle_type_id":"4","last_reported":1753827085,"current_range_meters":13600,"station_id":"","pricing_plan_id":"cebpf4jnsgd1na2vs0mg"},{"bike_id":"56212727-d769-4eff-8226-129bc0c23c3b","system_id":"levelo_inurba_marseille","lat":43.29707,"lon":5.36601,"is_reserved":false,"is_disabled":false,"rental_uris":{"android":"levelo://app?vid=56212727-d769-4eff-8226-129bc0c23c3b","ios":"levelo://app?vid=56212727-d769-4eff-8226-129bc0c23c3b"},"vehicle_type_id":"4","last_reported":1753827085,"current_range_meters":15200,"station_id":"ce4bgn12rcd13ifvqbt0","pricing_plan_id":"cebpf4jnsgd1na2vs0mg"},{"bike_id":"ae12c686-88f6-4df0-b3ff-64d085512fe7","system_id":"levelo_inurba_marseille","lat":43.295363,"lon":5.374797,"is_reserved":false,"is_disabled":false,"rental_uris":{"android":"levelo://app?vid=ae12c686-88f6-4df0-b3ff-64d085512fe7","ios":"levelo://app?vid=ae12c686-88f6-4df0-b3ff-64d085512fe7"},"vehicle_type_id":"4","last_reported":1753827085,"current_range_meters":13600,"station_id":"chh1huq6cuj3fo74tm60","pricing_plan_id":"cebpf4jnsgd1na2vs0mg"},{"bike_id":"620f409e-381c-4d36-a97b-a5623700e615","system_id":"levelo_inurba_marseille","lat":43.29886,"lon":5.43663,"is_reserved":false,"is_disabled":false,"rental_uris":{"android":"levelo://app?vid=620f409e-381c-4d36-a97b-a5623700e615","ios":"levelo://app?vid=620f409e-381c-4d36-a97b-a5623700e615"},"vehicle_type_id":"4","last_reported":1753827085,"current_range_meters":13600,"station_id":"ce4bhpp2rcd13ifvqhfg","pricing_plan_id":"cebpf4jnsgd1na2vs0mg"},{"bike_id":"df12338b-d013-4f63-ab4c-a73a6173c766","system_id":"levelo_inurba_marseille","lat":43.28983,"lon":5.37839,"is_reserved":false,"is_disabled":false,"rental_uris":{"android":"levelo://app?vid=df12338b-d013-4f63-ab4c-a73a6173c766","ios":"levelo://app?vid=df12338b-d013-4f63-ab4c-a73a6173c766"},"vehicle_type_id":"4","last_reported":1753827085,"current_range_meters":13600,"station_id":"ce4bh9p2rcd13ifvqed0","pricing_plan_id":"cebpf4jnsgd1na2vs0mg"},{"bike_id":"e8a0c05d-7272-4138-a1f4-e9de17058e9b","system_id":"levelo_inurba_marseille","lat":43.28253,"lon":5.35047,"is_reserved":false,"is_disabled":true,"rental_uris":{"android":"levelo://app?vid=e8a0c05d-7272-4138-a1f4-e9de17058e9b","ios":"levelo://app?vid=e8a0c05d-7272-4138-a1f4-e9de17058e9b"},"vehicle_type_id":"4","last_reported":1753827085,"current_range_meters":13600,"station_id":"ce4bhbp2rcd13ifvqerg","pricing_plan_id":"cebpf4jnsgd1na2vs0mg"},{"bike_id":"6398971e-100a-4e1e-8faf-880411134a7a","system_id":"levelo_inurba_marseille","lat":43.29525,"lon":5.39402,"is_reserved":false,"is_disabled":false,"rental_uris":{"android":"levelo://app?vid=6398971e-100a-4e1e-8faf-880411134a7a","ios":"levelo://app?vid=6398971e-100a-4e1e-8faf-880411134a7a"},"vehicle_type_id":"4","last_reported":1753827085,"current_range_meters":13600,"station_id":"ce4bh292rcd13ifvqdf0","pricing_plan_id":"cebpf4jnsgd1na2vs0mg"},{"bike_id":"da5d3923-6dbb-403f-97df-6ae8963f47df","system_id":"levelo_inurba_marseille","lat":43.21208,"lon":5.35085,"is_reserved":false,"is_disabled":false,"rental_uris":{"android":"levelo://app?vid=da5d3923-6dbb-403f-97df-6ae8963f47df","ios":"levelo://app?vid=da5d3923-6dbb-403f-97df-6ae8963f47df"},"vehicle_type_id":"4","last_reported":1753827085,"current_range_meters":14000,"station_id":"st_cvj6sg6p6f1abm77japg","pricing_plan_id":"cebpf4jnsgd1na2vs0mg"},{"bike_id":"ed2653a8-cef8-419b-b19a-e1a7f6058aa9","system_id":"levelo_inurba_marseille","lat":43.23186,"lon":5.35592,"is_reserved":false,"is_disabled":false,"rental_uris":{"android":"levelo://app?vid=ed2653a8-cef8-419b-b19a-e1a7f6058aa9","ios":"levelo://app?vid=ed2653a8-cef8-419b-b19a-e1a7f6058aa9"},"vehicle_type_id":"4","last_reported":1753827085,"current_range_meters":14000,"station_id":"ce4bhu92rcd13ifvqi70","pricing_plan_id":"cebpf4jnsgd1na2vs0mg"},{"bike_id":"671701a9-7243-46ba-9df9-fa49b6935265","system_id":"levelo_inurba_marseille","lat":43.25984,"lon":5.3725,"is_reserved":false,"is_disabled":false,"rental_uris":{"android":"levelo://app?vid=671701a9-7243-46ba-9df9-fa49b6935265","ios":"levelo://app?vid=671701a9-7243-46ba-9df9-fa49b6935265"},"vehicle_type_id":"4","last_reported":1753827085,"current_range_meters":14000,"station_id":"","pricing_plan_id":"cebpf4jnsgd1na2vs0mg"},{"bike_id":"7f3262f8-b9db-4ce0-9f33-68bc0d73023a","system_id":"levelo_inurba_marseille","lat":43.29211,"lon":5.36067,"is_reserved":false,"is_disabled":false,"rental_uris":{"android":"levelo://app?vid=7f3262f8-b9db-4ce0-9f33-68bc0d73023a","ios":"levelo://app?vid=7f3262f8-b9db-4ce0-9f33-68bc0d73023a"},"vehicle_type_id":"4","last_reported":1753827085,"current_range_meters":14000,"station_id":"ce4bhbh2rcd13ifvqeqg","pricing_plan_id":"cebpf4jnsgd1na2vs0mg"},{"bike_id":"3e632e67-e785-475b-93e1-b0a668624c02","system_id":"levelo_inurba_marseille","lat":43.28157,"lon":5.42638,"is_reserved":false,"is_disabled":false,"rental_uris":{"android":"levelo://app?vid=3e632e67-e785-475b-93e1-b0a668624c02","ios":"levelo://app?vid=3e632e67-e785-475b-93e1-b0a668624c02"},"vehicle_type_id":"4","last_reported":1753827085,"current_range_meters":14000,"station_id":"ce4bhnh2rcd13ifvqgug","pricing_plan_id":"cebpf4jnsgd1na2vs0mg"},{"bike_id":"ef65f066-de96-432a-a3bf-b1b3ad0e62a1","system_id":"levelo_inurba_marseille","lat":43.321,"lon":5.36766,"is_reserved":false,"is_disabled":false,"rental_uris":{"android":"levelo://app?vid=ef65f066-de96-432a-a3bf-b1b3ad0e62a1","ios":"levelo://app?vid=ef65f066-de96-432a-a3bf-b1b3ad0e62a1"},"vehicle_type_id":"4","last_reported":1753827085,"current_range_meters":14000,"station_id":"ce4bhrh2rcd13ifvqhug","pricing_plan_id":"cebpf4jnsgd1na2vs0mg"},{"bike_id":"5c3166d3-bb48-464f-bb5f-7482f67145be","system_id":"levelo_inurba_marseille","lat":43.2893,"lon":5.36412,"is_reserved":false,"is_disabled":false,"rental_uris":{"android":"levelo://app?vid=5c3166d3-bb48-464f-bb5f-7482f67145be","ios":"levelo://app?vid=5c3166d3-bb48-464f-bb5f-7482f67145be"},"vehicle_type_id":"4","last_reported":1753827085,"current_range_meters":14000,"station_id":"ce4bhc92rcd13ifvqetg","pricing_plan_id":"cebpf4jnsgd1na2vs0mg"},{"bike_id":"d15eee6d-5b6a-47dc-b9c9-9139a31cc920","system_id":"levelo_inurba_marseille","lat":43.28167,"lon":5.42642,"is_reserved":false,"is_disabled":false,"rental_uris":{"android":"levelo://app?vid=d15eee6d-5b6a-47dc-b9c9-9139a31cc920","ios":"levelo://app?vid=d15eee6d-5b6a-47dc-b9c9-9139a31cc920"},"vehicle_type_id":"4","last_reported":1753827085,"current_range_meters":14400,"station_id":"ce4bhnh2rcd13ifvqgug","pricing_plan_id":"cebpf4jnsgd1na2vs0mg"},{"bike_id":"ab666d87-3e70-4814-9ff2-9c4c5eb8d522","system_id":"levelo_inurba_marseille","lat":43.32091,"lon":5.3677,"is_reserved":false,"is_disabled":false,"rental_uris":{"android":"levelo://app?vid=ab666d87-3e70-4814-9ff2-9c4c5eb8d522","ios":"levelo://app?vid=ab666d87-3e70-4814-9ff2-9c4c5eb8d522"},"vehicle_type_id":"4","last_reported":1753827085,"current_range_meters":14400,"station_id":"ce4bhrh2rcd13ifvqhug","pricing_plan_id":"cebpf4jnsgd1na2vs0mg"},{"bike_id":"a16d408b-87b7-4ea5-b6d0-ce9b4fba403c","system_id":"levelo_inurba_marseille","lat":43.28606,"lon":5.3708,"is_reserved":false,"is_disabled":false,"rental_uris":{"android":"levelo://app?vid=a16d408b-87b7-4ea5-b6d0-ce9b4fba403c","ios":"levelo://app?vid=a16d408b-87b7-4ea5-b6d0-ce9b4fba403c"},"vehicle_type_id":"4","last_reported":1753827085,"current_range_meters":14400,"station_id":"ce4bht12rcd13ifvqi60","pricing_plan_id":"cebpf4jnsgd1na2vs0mg"},{"bike_id":"b48f5dd0-6dba-4454-bab2-8fe0e77c0439","system_id":"levelo_inurba_marseille","lat":43.24157,"lon":5.36398,"is_reserved":false,"is_disabled":false,"rental_uris":{"android":"levelo://app?vid=b48f5dd0-6dba-4454-bab2-8fe0e77c0439","ios":"levelo://app?vid=b48f5dd0-6dba-4454-bab2-8fe0e77c0439"},"vehicle_type_id":"4","last_reported":1753827085,"current_range_meters":14400,"station_id":"cpo36qri1sfpv3e86is0","pricing_plan_id":"cebpf4jnsgd1na2vs0mg"},{"bike_id":"58d60ef7-501e-48a0-a97f-c0e09ff3aab0","system_id":"levelo_inurba_marseille","lat":43.222792,"lon":5.345958,"is_reserved":false,"is_disabled":false,"rental_uris":{"android":"levelo://app?vid=58d60ef7-501e-48a0-a97f-c0e09ff3aab0","ios":"levelo://app?vid=58d60ef7-501e-48a0-a97f-c0e09ff3aab0"},"vehicle_type_id":"4","last_reported":1753827085,"current_range_meters":14400,"station_id":"ce4bhp92rcd13ifvqhag","pricing_plan_id":"cebpf4jnsgd1na2vs0mg"},{"bike_id":"91e673d4-c8d9-4e81-a0e8-9221155bd169","system_id":"levelo_inurba_marseille","lat":43.29297,"lon":5.40128,"is_reserved":false,"is_disabled":false,"rental_uris":{"android":"levelo://app?vid=91e673d4-c8d9-4e81-a0e8-9221155bd169","ios":"levelo://app?vid=91e673d4-c8d9-4e81-a0e8-9221155bd169"},"vehicle_type_id":"4","last_reported":1753827085,"current_range_meters":14400,"station_id":"ce4bh312rcd13ifvqdk0","pricing_plan_id":"cebpf4jnsgd1na2vs0mg"},{"bike_id":"ab9c577b-9cc3-4d9b-9e71-2ee231744295","system_id":"levelo_inurba_marseille","lat":43.28111,"lon":5.3835,"is_reserved":false,"is_disabled":false,"rental_uris":{"android":"levelo://app?vid=ab9c577b-9cc3-4d9b-9e71-2ee231744295","ios":"levelo://app?vid=ab9c577b-9cc3-4d9b-9e71-2ee231744295"},"vehicle_type_id":"4","last_reported":1753827085,"current_range_meters":14800,"station_id":"","pricing_plan_id":"cebpf4jnsgd1na2vs0mg"},{"bike_id":"7ae9a301-af81-4c61-b264-f97fbac78c92","system_id":"levelo_inurba_marseille","lat":43.24812,"lon":5.37425,"is_reserved":false,"is_disabled":false,"rental_uris":{"android":"levelo://app?vid=7ae9a301-af81-4c61-b264-f97fbac78c92","ios":"levelo://app?vid=7ae9a301-af81-4c61-b264-f97fbac78c92"},"vehicle_type_id":"4","last_reported":1753827085,"current_range_meters":14800,"station_id":"ce4bhgh2rcd13ifvqfb0","pricing_plan_id":"cebpf4jnsgd1na2vs0mg"},{"bike_id":"3c65e3a4-d98b-4db2-8d36-951b9612ba65","system_id":"levelo_inurba_marseille","lat":43.231907,"lon":5.355617,"is_reserved":false,"is_disabled":false,"rental_uris":{"android":"levelo://app?vid=3c65e3a4-d98b-4db2-8d36-951b9612ba65","ios":"levelo://app?vid=3c65e3a4-d98b-4db2-8d36-951b9612ba65"},"vehicle_type_id":"4","last_reported":1753827085,"current_range_meters":14800,"station_id":"ce4bhu92rcd13ifvqi70","pricing_plan_id":"cebpf4jnsgd1na2vs0mg"},{"bike_id":"7affa337-61a5-473f-b69b-b897050ac690","system_id":"levelo_inurba_marseille","lat":43.287214,"lon":5.360893,"is_reserved":false,"is_disabled":false,"rental_uris":{"android":"levelo://app?vid=7affa337-61a5-473f-b69b-b897050ac690","ios":"levelo://app?vid=7affa337-61a5-473f-b69b-b897050ac690"},"vehicle_type_id":"4","last_reported":1753827085,"current_range_meters":14800,"station_id":"cki0cbj6b192h4jlfktg","pricing_plan_id":"cebpf4jnsgd1na2vs0mg"},{"bike_id":"74a75414-a993-47e8-9f4a-1404e33b13ef","system_id":"levelo_inurba_marseille","lat":43.24073,"lon":5.3775,"is_reserved":false,"is_disabled":false,"rental_uris":{"android":"levelo://app?vid=74a75414-a993-47e8-9f4a-1404e33b13ef","ios":"levelo://app?vid=74a75414-a993-47e8-9f4a-1404e33b13ef"},"vehicle_type_id":"4","last_reported":1753827085,"current_range_meters":14800,"station_id":"ce4bhnp2rcd13ifvqgvg","pricing_plan_id":"cebpf4jnsgd1na2vs0mg"},{"bike_id":"00de3457-bb26-4f86-be97-d29604933a4d","system_id":"levelo_inurba_marseille","lat":43.28645,"lon":5.37168,"is_reserved":false,"is_disabled":false,"rental_uris":{"android":"levelo://app?vid=00de3457-bb26-4f86-be97-d29604933a4d","ios":"levelo://app?vid=00de3457-bb26-4f86-be97-d29604933a4d"},"vehicle_type_id":"4","last_reported":1753827085,"current_range_meters":14800,"station_id":"","pricing_plan_id":"cebpf4jnsgd1na2vs0mg"},{"bike_id":"8e636ccc-6fcd-4bdc-8a89-ed20c26deba9","system_id":"levelo_inurba_marseille","lat":43.23202,"lon":5.35533,"is_reserved":false,"is_disabled":false,"rental_uris":{"android":"levelo://app?vid=8e636ccc-6fcd-4bdc-8a89-ed20c26deba9","ios":"levelo://app?vid=8e636ccc-6fcd-4bdc-8a89-ed20c26deba9"},"vehicle_type_id":"4","last_reported":1753827085,"current_range_meters":14800,"station_id":"ce4bhu92rcd13ifvqi70","pricing_plan_id":"cebpf4jnsgd1na2vs0mg"},{"bike_id":"6e3a33cf-6db8-41ba-afc9-c1d2b182f000","system_id":"levelo_inurba_marseille","lat":43.28639,"lon":5.40108,"is_reserved":false,"is_disabled":false,"rental_uris":{"android":"levelo://app?vid=6e3a33cf-6db8-41ba-afc9-c1d2b182f000","ios":"levelo://app?vid=6e3a33cf-6db8-41ba-afc9-c1d2b182f000"},"vehicle_type_id":"4","last_reported":1753827085,"current_range_meters":15200,"station_id":"","pricing_plan_id":"cebpf4jnsgd1na2vs0mg"},{"bike_id":"5c5c6f4f-0558-4733-91d4-2a52b7053f12","system_id":"levelo_inurba_marseille","lat":43.26225,"lon":5.404508,"is_reserved":false,"is_disabled":false,"rental_uris":{"android":"levelo://app?vid=5c5c6f4f-0558-4733-91d4-2a52b7053f12","ios":"levelo://app?vid=5c5c6f4f-0558-4733-91d4-2a52b7053f12"},"vehicle_type_id":"4","last_reported":1753827085,"current_range_meters":15200,"station_id":"ce4bhmh2rcd13ifvqgmg","pricing_plan_id":"cebpf4jnsgd1na2vs0mg"},{"bike_id":"a79e5d89-c0c7-419a-a0e7-044ecb54125e","system_id":"levelo_inurba_marseille","lat":43.295785,"lon":5.399742,"is_reserved":false,"is_disabled":false,"rental_uris":{"android":"levelo://app?vid=a79e5d89-c0c7-419a-a0e7-044ecb54125e","ios":"levelo://app?vid=a79e5d89-c0c7-419a-a0e7-044ecb54125e"},"vehicle_type_id":"4","last_reported":1753827085,"current_range_meters":15200,"station_id":"ce4bh312rcd13ifvqdj0","pricing_plan_id":"cebpf4jnsgd1na2vs0mg"},{"bike_id":"006989d0-e964-4aa4-ad1e-5b81a65c337e","system_id":"levelo_inurba_marseille","lat":43.30812,"lon":5.38159,"is_reserved":false,"is_disabled":true,"rental_uris":{"android":"levelo://app?vid=006989d0-e964-4aa4-ad1e-5b81a65c337e","ios":"levelo://app?vid=006989d0-e964-4aa4-ad1e-5b81a65c337e"},"vehicle_type_id":"4","last_reported":1753827085,"current_range_meters":15200,"station_id":"ce4bgt12rcd13ifvqce0","pricing_plan_id":"cebpf4jnsgd1na2vs0mg"},{"bike_id":"135ab1ea-fc9a-4785-9240-6bfa3adf7c7c","system_id":"levelo_inurba_marseille","lat":43.32353,"lon":5.36745,"is_reserved":false,"is_disabled":false,"rental_uris":{"android":"levelo://app?vid=135ab1ea-fc9a-4785-9240-6bfa3adf7c7c","ios":"levelo://app?vid=135ab1ea-fc9a-4785-9240-6bfa3adf7c7c"},"vehicle_type_id":"4","last_reported":1753827085,"current_range_meters":16000,"station_id":"ce4bhsh2rcd13ifvqi2g","pricing_plan_id":"cebpf4jnsgd1na2vs0mg"},{"bike_id":"6331c319-a027-4e92-a182-1b44edbfba4a","system_id":"levelo_inurba_marseille","lat":43.29252,"lon":5.38443,"is_reserved":false,"is_disabled":false,"rental_uris":{"android":"levelo://app?vid=6331c319-a027-4e92-a182-1b44edbfba4a","ios":"levelo://app?vid=6331c319-a027-4e92-a182-1b44edbfba4a"},"vehicle_type_id":"4","last_reported":1753827085,"current_range_meters":16000,"station_id":"ce4bh692rcd13ifvqea0","pricing_plan_id":"cebpf4jnsgd1na2vs0mg"},{"bike_id":"21a2ca79-b580-4d80-a98e-5e980927eb26","system_id":"levelo_inurba_marseille","lat":43.26226,"lon":5.40445,"is_reserved":false,"is_disabled":false,"rental_uris":{"android":"levelo://app?vid=21a2ca79-b580-4d80-a98e-5e980927eb26","ios":"levelo://app?vid=21a2ca79-b580-4d80-a98e-5e980927eb26"},"vehicle_type_id":"4","last_reported":1753827085,"current_range_meters":16000,"station_id":"ce4bhmh2rcd13ifvqgmg","pricing_plan_id":"cebpf4jnsgd1na2vs0mg"},{"bike_id":"2c96482c-7c37-44ec-b62d-de8f2cc1df2e","system_id":"levelo_inurba_marseille","lat":43.28709,"lon":5.3998,"is_reserved":false,"is_disabled":false,"rental_uris":{"android":"levelo://app?vid=2c96482c-7c37-44ec-b62d-de8f2cc1df2e","ios":"levelo://app?vid=2c96482c-7c37-44ec-b62d-de8f2cc1df2e"},"vehicle_type_id":"4","last_reported":1753827085,"current_range_meters":16000,"station_id":"ce4bho92rcd13ifvqh3g","pricing_plan_id":"cebpf4jnsgd1na2vs0mg"},{"bike_id":"22a76ee8-f553-454b-8e2c-89c9a43fef04","system_id":"levelo_inurba_marseille","lat":43.25816,"lon":5.39441,"is_reserved":false,"is_disabled":false,"rental_uris":{"android":"levelo://app?vid=22a76ee8-f553-454b-8e2c-89c9a43fef04","ios":"levelo://app?vid=22a76ee8-f553-454b-8e2c-89c9a43fef04"},"vehicle_type_id":"4","last_reported":1753827085,"current_range_meters":16000,"station_id":"ce4bhip2rcd13ifvqft0","pricing_plan_id":"cebpf4jnsgd1na2vs0mg"},{"bike_id":"373015f6-929b-49b7-83ad-819055551911","system_id":"levelo_inurba_marseille","lat":43.31709,"lon":5.37766,"is_reserved":false,"is_disabled":false,"rental_uris":{"android":"levelo://app?vid=373015f6-929b-49b7-83ad-819055551911","ios":"levelo://app?vid=373015f6-929b-49b7-83ad-819055551911"},"vehicle_type_id":"4","last_reported":1753827085,"current_range_meters":16000,"station_id":"ce4bgth2rcd13ifvqch0","pricing_plan_id":"cebpf4jnsgd1na2vs0mg"},{"bike_id":"e835e740-02a8-4b55-b83d-8f7e332e158e","system_id":"levelo_inurba_marseille","lat":43.23035,"lon":5.35541,"is_reserved":false,"is_disabled":false,"rental_uris":{"android":"levelo://app?vid=e835e740-02a8-4b55-b83d-8f7e332e158e","ios":"levelo://app?vid=e835e740-02a8-4b55-b83d-8f7e332e158e"},"vehicle_type_id":"4","last_reported":1753827085,"current_range_meters":16000,"station_id":"cpo3342slgdg3j2ifvpg","pricing_plan_id":"cebpf4jnsgd1na2vs0mg"},{"bike_id":"f129605f-c561-462b-9dd8-38b1fae764e6","system_id":"levelo_inurba_marseille","lat":43.32383,"lon":5.36569,"is_reserved":false,"is_disabled":false,"rental_uris":{"android":"levelo://app?vid=f129605f-c561-462b-9dd8-38b1fae764e6","ios":"levelo://app?vid=f129605f-c561-462b-9dd8-38b1fae764e6"},"vehicle_type_id":"4","last_reported":1753827085,"current_range_meters":16000,"station_id":"","pricing_plan_id":"cebpf4jnsgd1na2vs0mg"},{"bike_id":"24ddc855-9db1-447b-8cc7-fb33f85a47fb","system_id":"levelo_inurba_marseille","lat":43.30595,"lon":5.37213,"is_reserved":false,"is_disabled":false,"rental_uris":{"android":"levelo://app?vid=24ddc855-9db1-447b-8cc7-fb33f85a47fb","ios":"levelo://app?vid=24ddc855-9db1-447b-8cc7-fb33f85a47fb"},"vehicle_type_id":"4","last_reported":1753827085,"current_range_meters":16000,"station_id":"ce4bgqh2rcd13ifvqc4g","pricing_plan_id":"cebpf4jnsgd1na2vs0mg"},{"bike_id":"daabd21d-fe72-4bef-9caa-c5886e1b6fe4","system_id":"levelo_inurba_marseille","lat":43.31982,"lon":5.37453,"is_reserved":false,"is_disabled":false,"rental_uris":{"android":"levelo://app?vid=daabd21d-fe72-4bef-9caa-c5886e1b6fe4","ios":"levelo://app?vid=daabd21d-fe72-4bef-9caa-c5886e1b6fe4"},"vehicle_type_id":"4","last_reported":1753827085,"current_range_meters":16000,"station_id":"","pricing_plan_id":"cebpf4jnsgd1na2vs0mg"},{"bike_id":"bcba03fc-3275-4c0b-9227-f96dc3dc2c55","system_id":"levelo_inurba_marseille","lat":43.30587,"lon":5.39366,"is_reserved":false,"is_disabled":false,"rental_uris":{"android":"levelo://app?vid=bcba03fc-3275-4c0b-9227-f96dc3dc2c55","ios":"levelo://app?vid=bcba03fc-3275-4c0b-9227-f96dc3dc2c55"},"vehicle_type_id":"4","last_reported":1753827085,"current_range_meters":16000,"station_id":"ce4bh0p2rcd13ifvqd80","pricing_plan_id":"cebpf4jnsgd1na2vs0mg"},{"bike_id":"056e4f3d-4ab7-42da-9834-2ca05b8a0f52","system_id":"levelo_inurba_marseille","lat":43.31479,"lon":5.36865,"is_reserved":false,"is_disabled":false,"rental_uris":{"android":"levelo://app?vid=056e4f3d-4ab7-42da-9834-2ca05b8a0f52","ios":"levelo://app?vid=056e4f3d-4ab7-42da-9834-2ca05b8a0f52"},"vehicle_type_id":"4","last_reported":1753827085,"current_range_meters":16000,"station_id":"","pricing_plan_id":"cebpf4jnsgd1na2vs0mg"},{"bike_id":"de0d17df-be84-4879-a59f-baa4ec3324c5","system_id":"levelo_inurba_marseille","lat":43.30874,"lon":5.39656,"is_reserved":false,"is_disabled":false,"rental_uris":{"android":"levelo://app?vid=de0d17df-be84-4879-a59f-baa4ec3324c5","ios":"levelo://app?vid=de0d17df-be84-4879-a59f-baa4ec3324c5"},"vehicle_type_id":"4","last_reported":1753827085,"current_range_meters":16000,"station_id":"ce4bh012rcd13ifvqcv0","pricing_plan_id":"cebpf4jnsgd1na2vs0mg"},{"bike_id":"5b0363b4-6a15-4cb4-8f1d-2502051ca500","system_id":"levelo_inurba_marseille","lat":43.28154,"lon":5.42643,"is_reserved":false,"is_disabled":false,"rental_uris":{"android":"levelo://app?vid=5b0363b4-6a15-4cb4-8f1d-2502051ca500","ios":"levelo://app?vid=5b0363b4-6a15-4cb4-8f1d-2502051ca500"},"vehicle_type_id":"4","last_reported":1753827085,"current_range_meters":16400,"station_id":"ce4bhnh2rcd13ifvqgug","pricing_plan_id":"cebpf4jnsgd1na2vs0mg"},{"bike_id":"23cb5642-15b1-4dff-8751-77349dab4204","system_id":"levelo_inurba_marseille","lat":43.2293,"lon":5.35383,"is_reserved":false,"is_disabled":false,"rental_uris":{"android":"levelo://app?vid=23cb5642-15b1-4dff-8751-77349dab4204","ios":"levelo://app?vid=23cb5642-15b1-4dff-8751-77349dab4204"},"vehicle_type_id":"4","last_reported":1753827085,"current_range_meters":16400,"station_id":"cpo3532slgdg3j2ikp40","pricing_plan_id":"cebpf4jnsgd1na2vs0mg"},{"bike_id":"85d95a9a-bae1-4127-a50f-dff98ce29fd5","system_id":"levelo_inurba_marseille","lat":43.32263,"lon":5.38952,"is_reserved":false,"is_disabled":false,"rental_uris":{"android":"levelo://app?vid=85d95a9a-bae1-4127-a50f-dff98ce29fd5","ios":"levelo://app?vid=85d95a9a-bae1-4127-a50f-dff98ce29fd5"},"vehicle_type_id":"4","last_reported":1753827085,"current_range_meters":16400,"station_id":"","pricing_plan_id":"cebpf4jnsgd1na2vs0mg"},{"bike_id":"ec27b58e-b110-4f66-b505-e60d8fa1d862","system_id":"levelo_inurba_marseille","lat":43.29034,"lon":5.38641,"is_reserved":false,"is_disabled":false,"rental_uris":{"android":"levelo://app?vid=ec27b58e-b110-4f66-b505-e60d8fa1d862","ios":"levelo://app?vid=ec27b58e-b110-4f66-b505-e60d8fa1d862"},"vehicle_type_id":"4","last_reported":1753827085,"current_range_meters":18000,"station_id":"ce4bh4p2rcd13ifvqe0g","pricing_plan_id":"cebpf4jnsgd1na2vs0mg"},{"bike_id":"dad691be-fd3e-4d02-8c0f-f9e1b77bb50e","system_id":"levelo_inurba_marseille","lat":43.28408,"lon":5.37537,"is_reserved":false,"is_disabled":false,"rental_uris":{"android":"levelo://app?vid=dad691be-fd3e-4d02-8c0f-f9e1b77bb50e","ios":"levelo://app?vid=dad691be-fd3e-4d02-8c0f-f9e1b77bb50e"},"vehicle_type_id":"4","last_reported":1753827085,"current_range_meters":16400,"station_id":"ce4bh412rcd13ifvqds0","pricing_plan_id":"cebpf4jnsgd1na2vs0mg"},{"bike_id":"2002cc2c-a47c-4777-8dac-3a5e369cf994","system_id":"levelo_inurba_marseille","lat":43.24665,"lon":5.38158,"is_reserved":false,"is_disabled":false,"rental_uris":{"android":"levelo://app?vid=2002cc2c-a47c-4777-8dac-3a5e369cf994","ios":"levelo://app?vid=2002cc2c-a47c-4777-8dac-3a5e369cf994"},"vehicle_type_id":"4","last_reported":1753827085,"current_range_meters":16400,"station_id":"ce4bhih2rcd13ifvqfr0","pricing_plan_id":"cebpf4jnsgd1na2vs0mg"},{"bike_id":"a6a46ae2-d764-44ee-baf2-a76e49bd9084","system_id":"levelo_inurba_marseille","lat":43.26984,"lon":5.40307,"is_reserved":false,"is_disabled":false,"rental_uris":{"android":"levelo://app?vid=a6a46ae2-d764-44ee-baf2-a76e49bd9084","ios":"levelo://app?vid=a6a46ae2-d764-44ee-baf2-a76e49bd9084"},"vehicle_type_id":"4","last_reported":1753827085,"current_range_meters":16400,"station_id":"","pricing_plan_id":"cebpf4jnsgd1na2vs0mg"},{"bike_id":"c686771c-e4d6-4ee5-934b-f3ca190b833e","system_id":"levelo_inurba_marseille","lat":43.32765,"lon":5.39204,"is_reserved":false,"is_disabled":false,"rental_uris":{"android":"levelo://app?vid=c686771c-e4d6-4ee5-934b-f3ca190b833e","ios":"levelo://app?vid=c686771c-e4d6-4ee5-934b-f3ca190b833e"},"vehicle_type_id":"4","last_reported":1753827085,"current_range_meters":16400,"station_id":"","pricing_plan_id":"cebpf4jnsgd1na2vs0mg"},{"bike_id":"3a4f39ff-ecc9-415a-850b-b92a254a3b8b","system_id":"levelo_inurba_marseille","lat":43.29255,"lon":5.38436,"is_reserved":false,"is_disabled":false,"rental_uris":{"android":"levelo://app?vid=3a4f39ff-ecc9-415a-850b-b92a254a3b8b","ios":"levelo://app?vid=3a4f39ff-ecc9-415a-850b-b92a254a3b8b"},"vehicle_type_id":"4","last_reported":1753827085,"current_range_meters":16400,"station_id":"ce4bh692rcd13ifvqea0","pricing_plan_id":"cebpf4jnsgd1na2vs0mg"},{"bike_id":"61648033-d2da-4bc1-a847-0f79b8baf233","system_id":"levelo_inurba_marseille","lat":43.28377,"lon":5.38623,"is_reserved":false,"is_disabled":false,"rental_uris":{"android":"levelo://app?vid=61648033-d2da-4bc1-a847-0f79b8baf233","ios":"levelo://app?vid=61648033-d2da-4bc1-a847-0f79b8baf233"},"vehicle_type_id":"4","last_reported":1753827085,"current_range_meters":16400,"station_id":"ce4bh492rcd13ifvqdvg","pricing_plan_id":"cebpf4jnsgd1na2vs0mg"},{"bike_id":"3d54e97c-ec3a-42f4-bf86-812f072159e8","system_id":"levelo_inurba_marseille","lat":43.28149,"lon":5.42649,"is_reserved":false,"is_disabled":false,"rental_uris":{"android":"levelo://app?vid=3d54e97c-ec3a-42f4-bf86-812f072159e8","ios":"levelo://app?vid=3d54e97c-ec3a-42f4-bf86-812f072159e8"},"vehicle_type_id":"4","last_reported":1753827085,"current_range_meters":16400,"station_id":"ce4bhnh2rcd13ifvqgug","pricing_plan_id":"cebpf4jnsgd1na2vs0mg"},{"bike_id":"b184d23a-2599-4ef1-8cd4-ab6c44598682","system_id":"levelo_inurba_marseille","lat":43.24069,"lon":5.37749,"is_reserved":false,"is_disabled":false,"rental_uris":{"android":"levelo://app?vid=b184d23a-2599-4ef1-8cd4-ab6c44598682","ios":"levelo://app?vid=b184d23a-2599-4ef1-8cd4-ab6c44598682"},"vehicle_type_id":"4","last_reported":1753827085,"current_range_meters":16800,"station_id":"ce4bhnp2rcd13ifvqgvg","pricing_plan_id":"cebpf4jnsgd1na2vs0mg"},{"bike_id":"3d60e95a-8706-4e13-b31f-ac7a913f607a","system_id":"levelo_inurba_marseille","lat":43.2295,"lon":5.35384,"is_reserved":false,"is_disabled":false,"rental_uris":{"android":"levelo://app?vid=3d60e95a-8706-4e13-b31f-ac7a913f607a","ios":"levelo://app?vid=3d60e95a-8706-4e13-b31f-ac7a913f607a"},"vehicle_type_id":"4","last_reported":1753827085,"current_range_meters":16800,"station_id":"cpo3532slgdg3j2ikp40","pricing_plan_id":"cebpf4jnsgd1na2vs0mg"},{"bike_id":"27121016-03d3-4670-9ce6-a156435b86ae","system_id":"levelo_inurba_marseille","lat":43.323421,"lon":5.406284,"is_reserved":false,"is_disabled":true,"rental_uris":{"android":"levelo://app?vid=27121016-03d3-4670-9ce6-a156435b86ae","ios":"levelo://app?vid=27121016-03d3-4670-9ce6-a156435b86ae"},"vehicle_type_id":"4","last_reported":1753827085,"current_range_meters":16800,"station_id":"ce4bh012rcd13ifvqd00","pricing_plan_id":"cebpf4jnsgd1na2vs0mg"},{"bike_id":"2fad1b6f-d0b7-4211-9b9d-661d7c090096","system_id":"levelo_inurba_marseille","lat":43.29773,"lon":5.43252,"is_reserved":false,"is_disabled":false,"rental_uris":{"android":"levelo://app?vid=2fad1b6f-d0b7-4211-9b9d-661d7c090096","ios":"levelo://app?vid=2fad1b6f-d0b7-4211-9b9d-661d7c090096"},"vehicle_type_id":"4","last_reported":1753827085,"current_range_meters":16800,"station_id":"","pricing_plan_id":"cebpf4jnsgd1na2vs0mg"},{"bike_id":"ae6c8428-e39e-40be-9df7-f418521aa777","system_id":"levelo_inurba_marseille","lat":43.22927,"lon":5.35367,"is_reserved":false,"is_disabled":false,"rental_uris":{"android":"levelo://app?vid=ae6c8428-e39e-40be-9df7-f418521aa777","ios":"levelo://app?vid=ae6c8428-e39e-40be-9df7-f418521aa777"},"vehicle_type_id":"4","last_reported":1753827085,"current_range_meters":16800,"station_id":"cpo3532slgdg3j2ikp40","pricing_plan_id":"cebpf4jnsgd1na2vs0mg"},{"bike_id":"a10e5abf-4115-4186-9749-4479a1d33483","system_id":"levelo_inurba_marseille","lat":43.29528,"lon":5.38549,"is_reserved":false,"is_disabled":false,"rental_uris":{"android":"levelo://app?vid=a10e5abf-4115-4186-9749-4479a1d33483","ios":"levelo://app?vid=a10e5abf-4115-4186-9749-4479a1d33483"},"vehicle_type_id":"4","last_reported":1753827085,"current_range_meters":16800,"station_id":"ce4bgih2rcd13ifvqba0","pricing_plan_id":"cebpf4jnsgd1na2vs0mg"},{"bike_id":"7a2e82e0-8302-4549-adc9-89b5e6842920","system_id":"levelo_inurba_marseille","lat":43.32381,"lon":5.38873,"is_reserved":false,"is_disabled":false,"rental_uris":{"android":"levelo://app?vid=7a2e82e0-8302-4549-adc9-89b5e6842920","ios":"levelo://app?vid=7a2e82e0-8302-4549-adc9-89b5e6842920"},"vehicle_type_id":"4","last_reported":1753827085,"current_range_meters":16800,"station_id":"ce4bhqp2rcd13ifvqhog","pricing_plan_id":"cebpf4jnsgd1na2vs0mg"},{"bike_id":"915513aa-2ef0-4e1b-9aa3-73608a47efab","system_id":"levelo_inurba_marseille","lat":43.22502,"lon":5.3477,"is_reserved":false,"is_disabled":false,"rental_uris":{"android":"levelo://app?vid=915513aa-2ef0-4e1b-9aa3-73608a47efab","ios":"levelo://app?vid=915513aa-2ef0-4e1b-9aa3-73608a47efab"},"vehicle_type_id":"4","last_reported":1753827085,"current_range_meters":16800,"station_id":"st_cvj5dfep6f1abm77gieg","pricing_plan_id":"cebpf4jnsgd1na2vs0mg"},{"bike_id":"7f2bef7f-c0d2-4d1b-badd-a252caa1c823","system_id":"levelo_inurba_marseille","lat":43.29517,"lon":5.38525,"is_reserved":false,"is_disabled":false,"rental_uris":{"android":"levelo://app?vid=7f2bef7f-c0d2-4d1b-badd-a252caa1c823","ios":"levelo://app?vid=7f2bef7f-c0d2-4d1b-badd-a252caa1c823"},"vehicle_type_id":"4","last_reported":1753827085,"current_range_meters":16800,"station_id":"ce4bgih2rcd13ifvqba0","pricing_plan_id":"cebpf4jnsgd1na2vs0mg"},{"bike_id":"1efcf3d2-179b-4768-801a-e024c98d928b","system_id":"levelo_inurba_marseille","lat":43.29498,"lon":5.39051,"is_reserved":false,"is_disabled":false,"rental_uris":{"android":"levelo://app?vid=1efcf3d2-179b-4768-801a-e024c98d928b","ios":"levelo://app?vid=1efcf3d2-179b-4768-801a-e024c98d928b"},"vehicle_type_id":"4","last_reported":1753827085,"current_range_meters":16800,"station_id":"ce4bh3p2rcd13ifvqdp0","pricing_plan_id":"cebpf4jnsgd1na2vs0mg"},{"bike_id":"3b0fc468-0f53-43b2-bdc9-2accbf6297e5","system_id":"levelo_inurba_marseille","lat":43.2963,"lon":5.37934,"is_reserved":false,"is_disabled":false,"rental_uris":{"android":"levelo://app?vid=3b0fc468-0f53-43b2-bdc9-2accbf6297e5","ios":"levelo://app?vid=3b0fc468-0f53-43b2-bdc9-2accbf6297e5"},"vehicle_type_id":"4","last_reported":1753827085,"current_range_meters":17200,"station_id":"","pricing_plan_id":"cebpf4jnsgd1na2vs0mg"},{"bike_id":"0f896b7a-fa67-4b47-a76a-915d06724e6e","system_id":"levelo_inurba_marseille","lat":43.28666,"lon":5.36352,"is_reserved":false,"is_disabled":false,"rental_uris":{"android":"levelo://app?vid=0f896b7a-fa67-4b47-a76a-915d06724e6e","ios":"levelo://app?vid=0f896b7a-fa67-4b47-a76a-915d06724e6e"},"vehicle_type_id":"4","last_reported":1753827085,"current_range_meters":16800,"station_id":"ce4bhah2rcd13ifvqej0","pricing_plan_id":"cebpf4jnsgd1na2vs0mg"},{"bike_id":"7c2b776a-4cc8-47d7-84f6-0e2bc9dd972b","system_id":"levelo_inurba_marseille","lat":43.3133,"lon":5.39697,"is_reserved":false,"is_disabled":false,"rental_uris":{"android":"levelo://app?vid=7c2b776a-4cc8-47d7-84f6-0e2bc9dd972b","ios":"levelo://app?vid=7c2b776a-4cc8-47d7-84f6-0e2bc9dd972b"},"vehicle_type_id":"4","last_reported":1753827085,"current_range_meters":17200,"station_id":"ce4bgvp2rcd13ifvqcu0","pricing_plan_id":"cebpf4jnsgd1na2vs0mg"},{"bike_id":"b44d763b-4f92-4731-b76a-85ebcd91acd5","system_id":"levelo_inurba_marseille","lat":43.30182,"lon":5.3715,"is_reserved":false,"is_disabled":false,"rental_uris":{"android":"levelo://app?vid=b44d763b-4f92-4731-b76a-85ebcd91acd5","ios":"levelo://app?vid=b44d763b-4f92-4731-b76a-85ebcd91acd5"},"vehicle_type_id":"4","last_reported":1753827085,"current_range_meters":17200,"station_id":"","pricing_plan_id":"cebpf4jnsgd1na2vs0mg"},{"bike_id":"886bb3e8-befe-4194-bad0-5ad77f5653c8","system_id":"levelo_inurba_marseille","lat":43.24395,"lon":5.37058,"is_reserved":false,"is_disabled":true,"rental_uris":{"android":"levelo://app?vid=886bb3e8-befe-4194-bad0-5ad77f5653c8","ios":"levelo://app?vid=886bb3e8-befe-4194-bad0-5ad77f5653c8"},"vehicle_type_id":"4","last_reported":1753827085,"current_range_meters":17200,"station_id":"ce4bhhh2rcd13ifvqfk0","pricing_plan_id":"cebpf4jnsgd1na2vs0mg"},{"bike_id":"0aa3d069-0b2c-4ad8-afcb-33ace28f6be3","system_id":"levelo_inurba_marseille","lat":43.319994,"lon":5.38166,"is_reserved":false,"is_disabled":false,"rental_uris":{"android":"levelo://app?vid=0aa3d069-0b2c-4ad8-afcb-33ace28f6be3","ios":"levelo://app?vid=0aa3d069-0b2c-4ad8-afcb-33ace28f6be3"},"vehicle_type_id":"4","last_reported":1753827085,"current_range_meters":17200,"station_id":"ce4bhr12rcd13ifvqhpg","pricing_plan_id":"cebpf4jnsgd1na2vs0mg"},{"bike_id":"f37e675d-7b1d-4f1b-afa6-9ebed52c93e2","system_id":"levelo_inurba_marseille","lat":43.295373,"lon":5.38568,"is_reserved":false,"is_disabled":false,"rental_uris":{"android":"levelo://app?vid=f37e675d-7b1d-4f1b-afa6-9ebed52c93e2","ios":"levelo://app?vid=f37e675d-7b1d-4f1b-afa6-9ebed52c93e2"},"vehicle_type_id":"4","last_reported":1753827085,"current_range_meters":17200,"station_id":"ce4bgih2rcd13ifvqba0","pricing_plan_id":"cebpf4jnsgd1na2vs0mg"},{"bike_id":"c0a9077f-d60f-4b03-9bb9-f8d3872d13fb","system_id":"levelo_inurba_marseille","lat":43.29524,"lon":5.3854,"is_reserved":false,"is_disabled":false,"rental_uris":{"android":"levelo://app?vid=c0a9077f-d60f-4b03-9bb9-f8d3872d13fb","ios":"levelo://app?vid=c0a9077f-d60f-4b03-9bb9-f8d3872d13fb"},"vehicle_type_id":"4","last_reported":1753827085,"current_range_meters":17200,"station_id":"ce4bgih2rcd13ifvqba0","pricing_plan_id":"cebpf4jnsgd1na2vs0mg"},{"bike_id":"b28ad17b-d26a-458a-b690-9100105ac419","system_id":"levelo_inurba_marseille","lat":43.305466,"lon":5.38416,"is_reserved":false,"is_disabled":false,"rental_uris":{"android":"levelo://app?vid=b28ad17b-d26a-458a-b690-9100105ac419","ios":"levelo://app?vid=b28ad17b-d26a-458a-b690-9100105ac419"},"vehicle_type_id":"4","last_reported":1753827085,"current_range_meters":17200,"station_id":"ce4bgg92rcd13ifvqb30","pricing_plan_id":"cebpf4jnsgd1na2vs0mg"},{"bike_id":"96e3ef03-ebd1-4704-94c5-7f685f92d4dc","system_id":"levelo_inurba_marseille","lat":43.28424,"lon":5.37544,"is_reserved":false,"is_disabled":false,"rental_uris":{"android":"levelo://app?vid=96e3ef03-ebd1-4704-94c5-7f685f92d4dc","ios":"levelo://app?vid=96e3ef03-ebd1-4704-94c5-7f685f92d4dc"},"vehicle_type_id":"4","last_reported":1753827085,"current_range_meters":17200,"station_id":"ce4bh412rcd13ifvqds0","pricing_plan_id":"cebpf4jnsgd1na2vs0mg"},{"bike_id":"bba660a4-64e7-41bf-a51f-980ab0eacd81","system_id":"levelo_inurba_marseille","lat":43.28716,"lon":5.3738,"is_reserved":false,"is_disabled":true,"rental_uris":{"android":"levelo://app?vid=bba660a4-64e7-41bf-a51f-980ab0eacd81","ios":"levelo://app?vid=bba660a4-64e7-41bf-a51f-980ab0eacd81"},"vehicle_type_id":"4","last_reported":1753827085,"current_range_meters":17200,"station_id":"ce4bh3p2rcd13ifvqdq0","pricing_plan_id":"cebpf4jnsgd1na2vs0mg"},{"bike_id":"5ff7b424-be72-460e-9279-c80ac3b388ac","system_id":"levelo_inurba_marseille","lat":43.23184,"lon":5.39988,"is_reserved":false,"is_disabled":false,"rental_uris":{"android":"levelo://app?vid=5ff7b424-be72-460e-9279-c80ac3b388ac","ios":"levelo://app?vid=5ff7b424-be72-460e-9279-c80ac3b388ac"},"vehicle_type_id":"4","last_reported":1753827085,"current_range_meters":17200,"station_id":"ce4bhn12rcd13ifvqgqg","pricing_plan_id":"cebpf4jnsgd1na2vs0mg"},{"bike_id":"a5c4949a-9ef4-4776-a3f1-318fb7180b06","system_id":"levelo_inurba_marseille","lat":43.29786,"lon":5.39328,"is_reserved":false,"is_disabled":false,"rental_uris":{"android":"levelo://app?vid=a5c4949a-9ef4-4776-a3f1-318fb7180b06","ios":"levelo://app?vid=a5c4949a-9ef4-4776-a3f1-318fb7180b06"},"vehicle_type_id":"4","last_reported":1753827085,"current_range_meters":17200,"station_id":"chh1huq6cuj3fo74tm60","pricing_plan_id":"cebpf4jnsgd1na2vs0mg"},{"bike_id":"3a0263b2-dbe9-40cd-81c3-d9f1979704cb","system_id":"levelo_inurba_marseille","lat":43.25118,"lon":5.40322,"is_reserved":false,"is_disabled":false,"rental_uris":{"android":"levelo://app?vid=3a0263b2-dbe9-40cd-81c3-d9f1979704cb","ios":"levelo://app?vid=3a0263b2-dbe9-40cd-81c3-d9f1979704cb"},"vehicle_type_id":"4","last_reported":1753827085,"current_range_meters":17200,"station_id":"ce4bhlh2rcd13ifvqgig","pricing_plan_id":"cebpf4jnsgd1na2vs0mg"},{"bike_id":"9d009a5c-6f67-42c3-9e25-d85aa67efa67","system_id":"levelo_inurba_marseille","lat":43.23968,"lon":5.36631,"is_reserved":false,"is_disabled":false,"rental_uris":{"android":"levelo://app?vid=9d009a5c-6f67-42c3-9e25-d85aa67efa67","ios":"levelo://app?vid=9d009a5c-6f67-42c3-9e25-d85aa67efa67"},"vehicle_type_id":"4","last_reported":1753827085,"current_range_meters":17600,"station_id":"ce4bhi12rcd13ifvqfp0","pricing_plan_id":"cebpf4jnsgd1na2vs0mg"},{"bike_id":"6ffcd0a0-e504-4937-b218-ef9c1f9ca73c","system_id":"levelo_inurba_marseille","lat":43.2925,"lon":5.3845,"is_reserved":false,"is_disabled":false,"rental_uris":{"android":"levelo://app?vid=6ffcd0a0-e504-4937-b218-ef9c1f9ca73c","ios":"levelo://app?vid=6ffcd0a0-e504-4937-b218-ef9c1f9ca73c"},"vehicle_type_id":"4","last_reported":1753827085,"current_range_meters":17600,"station_id":"ce4bh692rcd13ifvqea0","pricing_plan_id":"cebpf4jnsgd1na2vs0mg"},{"bike_id":"05b79db3-f0fb-414e-9f53-32e4bb665b59","system_id":"levelo_inurba_marseille","lat":43.26551,"lon":5.38999,"is_reserved":false,"is_disabled":false,"rental_uris":{"android":"levelo://app?vid=05b79db3-f0fb-414e-9f53-32e4bb665b59","ios":"levelo://app?vid=05b79db3-f0fb-414e-9f53-32e4bb665b59"},"vehicle_type_id":"4","last_reported":1753827085,"current_range_meters":17600,"station_id":"ce4bhe12rcd13ifvqf30","pricing_plan_id":"cebpf4jnsgd1na2vs0mg"},{"bike_id":"5f72df66-2d68-4c6e-a917-44e1dcfede98","system_id":"levelo_inurba_marseille","lat":43.22936,"lon":5.35374,"is_reserved":false,"is_disabled":false,"rental_uris":{"android":"levelo://app?vid=5f72df66-2d68-4c6e-a917-44e1dcfede98","ios":"levelo://app?vid=5f72df66-2d68-4c6e-a917-44e1dcfede98"},"vehicle_type_id":"4","last_reported":1753827085,"current_range_meters":17600,"station_id":"cpo3532slgdg3j2ikp40","pricing_plan_id":"cebpf4jnsgd1na2vs0mg"},{"bike_id":"4e5481ac-1243-49a5-856a-338ae68099ae","system_id":"levelo_inurba_marseille","lat":43.30583,"lon":5.39377,"is_reserved":false,"is_disabled":false,"rental_uris":{"android":"levelo://app?vid=4e5481ac-1243-49a5-856a-338ae68099ae","ios":"levelo://app?vid=4e5481ac-1243-49a5-856a-338ae68099ae"},"vehicle_type_id":"4","last_reported":1753827085,"current_range_meters":17200,"station_id":"ce4bh0p2rcd13ifvqd80","pricing_plan_id":"cebpf4jnsgd1na2vs0mg"},{"bike_id":"6a664d4b-940c-4c07-9452-a9104589cf3a","system_id":"levelo_inurba_marseille","lat":43.2955,"lon":5.42281,"is_reserved":false,"is_disabled":true,"rental_uris":{"android":"levelo://app?vid=6a664d4b-940c-4c07-9452-a9104589cf3a","ios":"levelo://app?vid=6a664d4b-940c-4c07-9452-a9104589cf3a"},"vehicle_type_id":"4","last_reported":1753827085,"current_range_meters":17600,"station_id":"ce4bhph2rcd13ifvqhdg","pricing_plan_id":"cebpf4jnsgd1na2vs0mg"},{"bike_id":"dba62ffa-2fa6-4a76-88a7-3b432232809c","system_id":"levelo_inurba_marseille","lat":43.30798,"lon":5.38157,"is_reserved":false,"is_disabled":false,"rental_uris":{"android":"levelo://app?vid=dba62ffa-2fa6-4a76-88a7-3b432232809c","ios":"levelo://app?vid=dba62ffa-2fa6-4a76-88a7-3b432232809c"},"vehicle_type_id":"4","last_reported":1753827085,"current_range_meters":17600,"station_id":"ce4bgt12rcd13ifvqce0","pricing_plan_id":"cebpf4jnsgd1na2vs0mg"},{"bike_id":"2e1bdbd1-042c-4bf4-b623-908b6301c20d","system_id":"levelo_inurba_marseille","lat":43.28122,"lon":5.44204,"is_reserved":false,"is_disabled":false,"rental_uris":{"android":"levelo://app?vid=2e1bdbd1-042c-4bf4-b623-908b6301c20d","ios":"levelo://app?vid=2e1bdbd1-042c-4bf4-b623-908b6301c20d"},"vehicle_type_id":"4","last_reported":1753827085,"current_range_meters":17600,"station_id":"","pricing_plan_id":"cebpf4jnsgd1na2vs0mg"},{"bike_id":"07011de4-93e6-44b9-910b-3084325b7fe4","system_id":"levelo_inurba_marseille","lat":43.32682,"lon":5.39548,"is_reserved":false,"is_disabled":false,"rental_uris":{"android":"levelo://app?vid=07011de4-93e6-44b9-910b-3084325b7fe4","ios":"levelo://app?vid=07011de4-93e6-44b9-910b-3084325b7fe4"},"vehicle_type_id":"4","last_reported":1753827085,"current_range_meters":17600,"station_id":"","pricing_plan_id":"cebpf4jnsgd1na2vs0mg"},{"bike_id":"0642bec0-d5df-45d1-8f24-13fa0bd6adc2","system_id":"levelo_inurba_marseille","lat":43.2781,"lon":5.40711,"is_reserved":false,"is_disabled":false,"rental_uris":{"android":"levelo://app?vid=0642bec0-d5df-45d1-8f24-13fa0bd6adc2","ios":"levelo://app?vid=0642bec0-d5df-45d1-8f24-13fa0bd6adc2"},"vehicle_type_id":"4","last_reported":1753827085,"current_range_meters":17600,"station_id":"ce4bhnh2rcd13ifvqgtg","pricing_plan_id":"cebpf4jnsgd1na2vs0mg"},{"bike_id":"746c3209-aa97-4d6e-bb69-2a85cdd5ec72","system_id":"levelo_inurba_marseille","lat":43.22501,"lon":5.34796,"is_reserved":false,"is_disabled":false,"rental_uris":{"android":"levelo://app?vid=746c3209-aa97-4d6e-bb69-2a85cdd5ec72","ios":"levelo://app?vid=746c3209-aa97-4d6e-bb69-2a85cdd5ec72"},"vehicle_type_id":"4","last_reported":1753827085,"current_range_meters":17600,"station_id":"st_cvj5dfep6f1abm77gieg","pricing_plan_id":"cebpf4jnsgd1na2vs0mg"},{"bike_id":"2c639bc2-f81d-441f-97b4-28c3af2e23ab","system_id":"levelo_inurba_marseille","lat":43.24649,"lon":5.38912,"is_reserved":false,"is_disabled":false,"rental_uris":{"android":"levelo://app?vid=2c639bc2-f81d-441f-97b4-28c3af2e23ab","ios":"levelo://app?vid=2c639bc2-f81d-441f-97b4-28c3af2e23ab"},"vehicle_type_id":"4","last_reported":1753827085,"current_range_meters":17600,"station_id":"ce4bhg12rcd13ifvqf60","pricing_plan_id":"cebpf4jnsgd1na2vs0mg"},{"bike_id":"d7e59c89-3ae8-4db0-9902-07aedd2702f1","system_id":"levelo_inurba_marseille","lat":43.27988,"lon":5.41659,"is_reserved":false,"is_disabled":false,"rental_uris":{"android":"levelo://app?vid=d7e59c89-3ae8-4db0-9902-07aedd2702f1","ios":"levelo://app?vid=d7e59c89-3ae8-4db0-9902-07aedd2702f1"},"vehicle_type_id":"4","last_reported":1753827085,"current_range_meters":17600,"station_id":"ce4bho12rcd13ifvqh1g","pricing_plan_id":"cebpf4jnsgd1na2vs0mg"},{"bike_id":"48cc8468-c160-4e61-b081-29c69922da7e","system_id":"levelo_inurba_marseille","lat":43.29532,"lon":5.38524,"is_reserved":false,"is_disabled":false,"rental_uris":{"android":"levelo://app?vid=48cc8468-c160-4e61-b081-29c69922da7e","ios":"levelo://app?vid=48cc8468-c160-4e61-b081-29c69922da7e"},"vehicle_type_id":"4","last_reported":1753827085,"current_range_meters":18000,"station_id":"ce4bgih2rcd13ifvqba0","pricing_plan_id":"cebpf4jnsgd1na2vs0mg"},{"bike_id":"4a85ab03-afe8-4509-b5da-4ba0f7e36fe9","system_id":"levelo_inurba_marseille","lat":43.26646,"lon":5.38309,"is_reserved":false,"is_disabled":true,"rental_uris":{"android":"levelo://app?vid=4a85ab03-afe8-4509-b5da-4ba0f7e36fe9","ios":"levelo://app?vid=4a85ab03-afe8-4509-b5da-4ba0f7e36fe9"},"vehicle_type_id":"4","last_reported":1753827085,"current_range_meters":18000,"station_id":"","pricing_plan_id":"cebpf4jnsgd1na2vs0mg"},{"bike_id":"5aa14f50-4f32-42e0-b2ba-d87cd3b23d1f","system_id":"levelo_inurba_marseille","lat":43.30886,"lon":5.39637,"is_reserved":false,"is_disabled":false,"rental_uris":{"android":"levelo://app?vid=5aa14f50-4f32-42e0-b2ba-d87cd3b23d1f","ios":"levelo://app?vid=5aa14f50-4f32-42e0-b2ba-d87cd3b23d1f"},"vehicle_type_id":"4","last_reported":1753827085,"current_range_meters":18000,"station_id":"ce4bh012rcd13ifvqcv0","pricing_plan_id":"cebpf4jnsgd1na2vs0mg"},{"bike_id":"189ffb50-6abf-43b3-bc9c-489863d3d195","system_id":"levelo_inurba_marseille","lat":43.29872,"lon":5.38907,"is_reserved":false,"is_disabled":false,"rental_uris":{"android":"levelo://app?vid=189ffb50-6abf-43b3-bc9c-489863d3d195","ios":"levelo://app?vid=189ffb50-6abf-43b3-bc9c-489863d3d195"},"vehicle_type_id":"4","last_reported":1753827085,"current_range_meters":18000,"station_id":"ce4bh392rcd13ifvqdl0","pricing_plan_id":"cebpf4jnsgd1na2vs0mg"},{"bike_id":"19295018-235d-4f62-9c12-0203c908e699","system_id":"levelo_inurba_marseille","lat":43.22936,"lon":5.35379,"is_reserved":false,"is_disabled":false,"rental_uris":{"android":"levelo://app?vid=19295018-235d-4f62-9c12-0203c908e699","ios":"levelo://app?vid=19295018-235d-4f62-9c12-0203c908e699"},"vehicle_type_id":"4","last_reported":1753827085,"current_range_meters":18000,"station_id":"cpo3532slgdg3j2ikp40","pricing_plan_id":"cebpf4jnsgd1na2vs0mg"},{"bike_id":"cc13585f-f7f0-47dc-8db0-d401fc430042","system_id":"levelo_inurba_marseille","lat":43.31059,"lon":5.38353,"is_reserved":false,"is_disabled":false,"rental_uris":{"android":"levelo://app?vid=cc13585f-f7f0-47dc-8db0-d401fc430042","ios":"levelo://app?vid=cc13585f-f7f0-47dc-8db0-d401fc430042"},"vehicle_type_id":"4","last_reported":1753827085,"current_range_meters":18000,"station_id":"ce4bgv92rcd13ifvqcr0","pricing_plan_id":"cebpf4jnsgd1na2vs0mg"},{"bike_id":"6590494b-43e7-43e0-b312-c754fd5ea433","system_id":"levelo_inurba_marseille","lat":43.29042,"lon":5.43024,"is_reserved":false,"is_disabled":false,"rental_uris":{"android":"levelo://app?vid=6590494b-43e7-43e0-b312-c754fd5ea433","ios":"levelo://app?vid=6590494b-43e7-43e0-b312-c754fd5ea433"},"vehicle_type_id":"4","last_reported":1753827085,"current_range_meters":18000,"station_id":"","pricing_plan_id":"cebpf4jnsgd1na2vs0mg"},{"bike_id":"b1e61992-1436-4e72-82d0-0529c813fc3f","system_id":"levelo_inurba_marseille","lat":43.29883,"lon":5.38903,"is_reserved":false,"is_disabled":false,"rental_uris":{"android":"levelo://app?vid=b1e61992-1436-4e72-82d0-0529c813fc3f","ios":"levelo://app?vid=b1e61992-1436-4e72-82d0-0529c813fc3f"},"vehicle_type_id":"4","last_reported":1753827085,"current_range_meters":18000,"station_id":"ce4bh392rcd13ifvqdl0","pricing_plan_id":"cebpf4jnsgd1na2vs0mg"},{"bike_id":"6b5a8423-59e6-41e0-9800-c3f91ce1824a","system_id":"levelo_inurba_marseille","lat":43.24663,"lon":5.38169,"is_reserved":false,"is_disabled":true,"rental_uris":{"android":"levelo://app?vid=6b5a8423-59e6-41e0-9800-c3f91ce1824a","ios":"levelo://app?vid=6b5a8423-59e6-41e0-9800-c3f91ce1824a"},"vehicle_type_id":"4","last_reported":1753827085,"current_range_meters":18000,"station_id":"ce4bhih2rcd13ifvqfr0","pricing_plan_id":"cebpf4jnsgd1na2vs0mg"},{"bike_id":"830cbdbc-b851-4df3-8077-be83917a11db","system_id":"levelo_inurba_marseille","lat":43.30336,"lon":5.40424,"is_reserved":false,"is_disabled":false,"rental_uris":{"android":"levelo://app?vid=830cbdbc-b851-4df3-8077-be83917a11db","ios":"levelo://app?vid=830cbdbc-b851-4df3-8077-be83917a11db"},"vehicle_type_id":"4","last_reported":1753827085,"current_range_meters":18000,"station_id":"ce4bh012rcd13ifvqd10","pricing_plan_id":"cebpf4jnsgd1na2vs0mg"},{"bike_id":"8f2c2194-56a7-4a04-8742-1123e870981c","system_id":"levelo_inurba_marseille","lat":43.28417,"lon":5.37528,"is_reserved":false,"is_disabled":false,"rental_uris":{"android":"levelo://app?vid=8f2c2194-56a7-4a04-8742-1123e870981c","ios":"levelo://app?vid=8f2c2194-56a7-4a04-8742-1123e870981c"},