{"last_updated":1732777803,"ttl":60,"version":"2.2","data":{"bikes":[{"bike_id":"4b0fef84-4f9e-4636-a8c1-2e04af3b1f87","system_id":"levelo_inurba_marseille","lat":43.32482,"lon":5.40243,"is_reserved":false,"is_disabled":false,"rental_uris":{"android":"levelo://app?vid=4b0fef84-4f9e-4636-a8c1-2e04af3b1f87","ios":"levelo://app?vid=4b0fef84-4f9e-4636-a8c1-2e04af3b1f87"},"vehicle_type_id":"4","last_reported":1732777803,"current_range_meters":7200,"station_id":"ce4bhq92rcd13ifvqhjg","pricing_plan_id":"cebpf4jnsgd1na2vs0mg"},{"bike_id":"927924fc-8a74-47c2-8b69-b7e14b1090b9","system_id":"levelo_inurba_marseille","lat":43.278126,"lon":5.407157,"is_reserved":false,"is_disabled":true,"rental_uris":{"android":"levelo://app?vid=927924fc-8a74-47c2-8b69-b7e14b1090b9","ios":"levelo://app?vid=927924fc-8a74-47c2-8b69-b7e14b1090b9"},"vehicle_type_id":"4","last_reported":1732777803,"current_range_meters":10800,"station_id":"ce4bhnh2rcd13ifvqgtg","pricing_plan_id":"cebpf4jnsgd1na2vs0mg"},{"bike_id":"b856c8b4-412d-4c25-bdd4-e6b29aed04cb","system_id":"levelo_inurba_marseille","lat":43.22932,"lon":5.35379,"is_reserved":false,"is_disabled":false,"rental_uris":{"android":"levelo://app?vid=b856c8b4-412d-4c25-bdd4-e6b29aed04cb","ios":"levelo://app?vid=b856c8b4-412d-4c25-bdd4-e6b29aed04cb"},"vehicle_type_id":"4","last_reported":1732777803,"current_range_meters":38800,"station_id":"cpo3532slgdg3j2ikp40","pricing_plan_id":"cebpf4jnsgd1na2vs0mg"},{"bike_id":"863c9696-d78b-4e98-be5f-966913ade150","system_id":"levelo_inurba_marseille","lat":43.26951,"lon":5.38918,"is_reserved":false,"is_disabled":true,"rental_uris":{"android":"levelo://app?vid=863c9696-d78b-4e98-be5f-966913ade150","ios":"levelo://app?vid=863c9696-d78b-4e98-be5f-966913ade150"},"vehicle_type_id":"4","last_reported":1732777803,"current_range_meters":30400,"station_id":"ce4bhhh2rcd13ifvqfl0","pricing_plan_id":"cebpf4jnsgd1na2vs0mg"},{"bike_id":"dea3a423-b5cd-4518-8c14-557dd912bebc","system_id":"levelo_inurba_marseille","lat":43.31761,"lon":5.39019,"is_reserved":false,"is_disabled":false,"rental_uris":{"android":"levelo://app?vid=dea3a423-b5cd-4518-8c14-557dd912bebc","ios":"levelo://app?vid=dea3a423-b5cd-4518-8c14-557dd912bebc"},"vehicle_type_id":"4","last_reported":1732777803,"current_range_meters":38400,"station_id":"ce4bhqp2rcd13ifvqhng","pricing_plan_id":"cebpf4jnsgd1na2vs0mg"},{"bike_id":"fa2ab0aa-936a-4413-b089-be10aff2487b","system_id":"levelo_inurba_marseille","lat":43.2407,"lon":5.37773,"is_reserved":false,"is_disabled":false,"rental_uris":{"android":"levelo://app?vid=fa2ab0aa-936a-4413-b089-be10aff2487b","ios":"levelo://app?vid=fa2ab0aa-936a-4413-b089-be10aff2487b"},"vehicle_type_id":"4","last_reported":1732777803,"current_range_meters":38400,"station_id":"ce4bhnp2rcd13ifvqgvg","pricing_plan_id":"cebpf4jnsgd1na2vs0mg"},{"bike_id":"84f373d8-d897-4196-b12e-42dc141d229a","system_id":"levelo_inurba_marseille","lat":43.25664,"lon":5.38471,"is_reserved":false,"is_disabled":false,"rental_uris":{"android":"levelo://app?vid=84f373d8-d897-4196-b12e-42dc141d229a","ios":"levelo://app?vid=84f373d8-d897-4196-b12e-42dc141d229a"},"vehicle_type_id":"4","last_reported":1732777803,"current_range_meters":10800,"station_id":"","pricing_plan_id":"cebpf4jnsgd1na2vs0mg"},{"bike_id":"02c2fc50-47b9-4858-b775-a93c1f335a69","system_id":"levelo_inurba_marseille","lat":43.28343,"lon":5.381019,"is_reserved":false,"is_disabled":false,"rental_uris":{"android":"levelo://app?vid=02c2fc50-47b9-4858-b775-a93c1f335a69","ios":"levelo://app?vid=02c2fc50-47b9-4858-b775-a93c1f335a69"},"vehicle_type_id":"4","last_reported":1732777803,"current_range_meters":38800,"station_id":"ce4bh412rcd13ifvqdr0","pricing_plan_id":"cebpf4jnsgd1na2vs0mg"},{"bike_id":"d15faee4-61f5-4b8f-b74b-4dbf5a31a4d1","system_id":"levelo_inurba_marseille","lat":43.27993,"lon":5.41652,"is_reserved":false,"is_disabled":false,"rental_uris":{"android":"levelo://app?vid=d15faee4-61f5-4b8f-b74b-4dbf5a31a4d1","ios":"levelo://app?vid=d15faee4-61f5-4b8f-b74b-4dbf5a31a4d1"},"vehicle_type_id":"4","last_reported":1732777803,"current_range_meters":30400,"station_id":"ce4bho12rcd13ifvqh1g","pricing_plan_id":"cebpf4jnsgd1na2vs0mg"},{"bike_id":"fd333872-64e8-431b-b477-7ce63a3c1f71","system_id":"levelo_inurba_marseille","lat":43.28706,"lon":5.37391,"is_reserved":false,"is_disabled":true,"rental_uris":{"android":"levelo://app?vid=fd333872-64e8-431b-b477-7ce63a3c1f71","ios":"levelo://app?vid=fd333872-64e8-431b-b477-7ce63a3c1f71"},"vehicle_type_id":"4","last_reported":1732777803,"current_range_meters":1200,"station_id":"ce4bh3p2rcd13ifvqdq0","pricing_plan_id":"cebpf4jnsgd1na2vs0mg"},{"bike_id":"4fa11f6f-9e8e-4abb-ae14-4b41ecbf550b","system_id":"levelo_inurba_marseille","lat":43.307921,"lon":5.376573,"is_reserved":false,"is_disabled":false,"rental_uris":{"android":"levelo://app?vid=4fa11f6f-9e8e-4abb-ae14-4b41ecbf550b","ios":"levelo://app?vid=4fa11f6f-9e8e-4abb-ae14-4b41ecbf550b"},"vehicle_type_id":"4","last_reported":1732777803,"current_range_meters":38800,"station_id":"ce4bgv92rcd13ifvqcq0","pricing_plan_id":"cebpf4jnsgd1na2vs0mg"},{"bike_id":"41e53bad-9423-47c3-8583-825ffc9e72cd","system_id":"levelo_inurba_marseille","lat":43.27953,"lon":5.38698,"is_reserved":false,"is_disabled":true,"rental_uris":{"android":"levelo://app?vid=41e53bad-9423-47c3-8583-825ffc9e72cd","ios":"levelo://app?vid=41e53bad-9423-47c3-8583-825ffc9e72cd"},"vehicle_type_id":"4","last_reported":1732777803,"current_range_meters":34800,"station_id":"ce4bhg12rcd13ifvqf80","pricing_plan_id":"cebpf4jnsgd1na2vs0mg"},{"bike_id":"113ec61c-057a-4335-a2b2-22183d6987e0","system_id":"levelo_inurba_marseille","lat":43.27492,"lon":5.42452,"is_reserved":false,"is_disabled":false,"rental_uris":{"android":"levelo://app?vid=113ec61c-057a-4335-a2b2-22183d6987e0","ios":"levelo://app?vid=113ec61c-057a-4335-a2b2-22183d6987e0"},"vehicle_type_id":"4","last_reported":1732777803,"current_range_meters":12800,"station_id":"ce4bhn92rcd13ifvqgrg","pricing_plan_id":"cebpf4jnsgd1na2vs0mg"},{"bike_id":"e2fcd88a-5b50-4059-b110-891c7847ea5f","system_id":"levelo_inurba_marseille","lat":43.3066,"lon":5.36824,"is_reserved":false,"is_disabled":true,"rental_uris":{"android":"levelo://app?vid=e2fcd88a-5b50-4059-b110-891c7847ea5f","ios":"levelo://app?vid=e2fcd88a-5b50-4059-b110-891c7847ea5f"},"vehicle_type_id":"4","last_reported":1732777803,"current_range_meters":0,"station_id":"","pricing_plan_id":"cebpf4jnsgd1na2vs0mg"},{"bike_id":"c133deff-fddd-4a89-97a2-c2177babbaa7","system_id":"levelo_inurba_marseille","lat":43.28722,"lon":5.3609,"is_reserved":false,"is_disabled":false,"rental_uris":{"android":"levelo://app?vid=c133deff-fddd-4a89-97a2-c2177babbaa7","ios":"levelo://app?vid=c133deff-fddd-4a89-97a2-c2177babbaa7"},"vehicle_type_id":"4","last_reported":1732777803,"current_range_meters":38800,"station_id":"cki0cbj6b192h4jlfktg","pricing_plan_id":"cebpf4jnsgd1na2vs0mg"},{"bike_id":"f402a0ab-1e48-487d-9a63-492662563942","system_id":"levelo_inurba_marseille","lat":43.283437,"lon":5.381056,"is_reserved":false,"is_disabled":false,"rental_uris":{"android":"levelo://app?vid=f402a0ab-1e48-487d-9a63-492662563942","ios":"levelo://app?vid=f402a0ab-1e48-487d-9a63-492662563942"},"vehicle_type_id":"4","last_reported":1732777803,"current_range_meters":38800,"station_id":"","pricing_plan_id":"cebpf4jnsgd1na2vs0mg"},{"bike_id":"611999d5-2155-4f1f-8f49-ec7ab7ad0f76","system_id":"levelo_inurba_marseille","lat":43.29794,"lon":5.38114,"is_reserved":false,"is_disabled":false,"rental_uris":{"android":"levelo://app?vid=611999d5-2155-4f1f-8f49-ec7ab7ad0f76","ios":"levelo://app?vid=611999d5-2155-4f1f-8f49-ec7ab7ad0f76"},"vehicle_type_id":"4","last_reported":1732777803,"current_range_meters":32800,"station_id":"ce4bgip2rcd13ifvqbb0","pricing_plan_id":"cebpf4jnsgd1na2vs0mg"},{"bike_id":"ce15a521-8a1d-47b7-92c8-091ca367d00e","system_id":"levelo_inurba_marseille","lat":43.3368,"lon":5.37194,"is_reserved":false,"is_disabled":false,"rental_uris":{"android":"levelo://app?vid=ce15a521-8a1d-47b7-92c8-091ca367d00e","ios":"levelo://app?vid=ce15a521-8a1d-47b7-92c8-091ca367d00e"},"vehicle_type_id":"4","last_reported":1732777803,"current_range_meters":38800,"station_id":"","pricing_plan_id":"cebpf4jnsgd1na2vs0mg"},{"bike_id":"1916fa6d-d3b8-4a76-b3e9-3bd347c23b60","system_id":"levelo_inurba_marseille","lat":43.25824,"lon":5.39426,"is_reserved":false,"is_disabled":false,"rental_uris":{"android":"levelo://app?vid=1916fa6d-d3b8-4a76-b3e9-3bd347c23b60","ios":"levelo://app?vid=1916fa6d-d3b8-4a76-b3e9-3bd347c23b60"},"vehicle_type_id":"4","last_reported":1732777803,"current_range_meters":32000,"station_id":"ce4bhip2rcd13ifvqft0","pricing_plan_id":"cebpf4jnsgd1na2vs0mg"},{"bike_id":"ec09b0cc-3621-4afa-bff4-debce0b2cc37","system_id":"levelo_inurba_marseille","lat":43.271838,"lon":5.409974,"is_reserved":false,"is_disabled":true,"rental_uris":{"android":"levelo://app?vid=ec09b0cc-3621-4afa-bff4-debce0b2cc37","ios":"levelo://app?vid=ec09b0cc-3621-4afa-bff4-debce0b2cc37"},"vehicle_type_id":"4","last_reported":1732777803,"current_range_meters":20400,"station_id":"ce4bhl12rcd13ifvqgf0","pricing_plan_id":"cebpf4jnsgd1na2vs0mg"},{"bike_id":"1d746077-5610-4b94-96f4-2b8617602ffc","system_id":"levelo_inurba_marseille","lat":43.25003,"lon":5.38927,"is_reserved":false,"is_disabled":false,"rental_uris":{"android":"levelo://app?vid=1d746077-5610-4b94-96f4-2b8617602ffc","ios":"levelo://app?vid=1d746077-5610-4b94-96f4-2b8617602ffc"},"vehicle_type_id":"4","last_reported":1732777803,"current_range_meters":38800,"station_id":"ce4bhgp2rcd13ifvqfd0","pricing_plan_id":"cebpf4jnsgd1na2vs0mg"},{"bike_id":"49d93f30-3698-463f-a6ff-07f30736ddd5","system_id":"levelo_inurba_marseille","lat":43.29906,"lon":5.37468,"is_reserved":false,"is_disabled":true,"rental_uris":{"android":"levelo://app?vid=49d93f30-3698-463f-a6ff-07f30736ddd5","ios":"levelo://app?vid=49d93f30-3698-463f-a6ff-07f30736ddd5"},"vehicle_type_id":"4","last_reported":1732777803,"current_range_meters":38800,"station_id":"ce4bgjh2rcd13ifvqbg0","pricing_plan_id":"cebpf4jnsgd1na2vs0mg"},{"bike_id":"908a91b4-f74f-4175-9a94-be2178948b1b","system_id":"levelo_inurba_marseille","lat":43.25931,"lon":5.40911,"is_reserved":false,"is_disabled":true,"rental_uris":{"android":"levelo://app?vid=908a91b4-f74f-4175-9a94-be2178948b1b","ios":"levelo://app?vid=908a91b4-f74f-4175-9a94-be2178948b1b"},"vehicle_type_id":"4","last_reported":1732777803,"current_range_meters":800,"station_id":"ce4bhm92rcd13ifvqglg","pricing_plan_id":"cebpf4jnsgd1na2vs0mg"},{"bike_id":"159bac19-9cba-45ce-a9ad-1f0b29b7ead8","system_id":"levelo_inurba_marseille","lat":43.2799,"lon":5.41691,"is_reserved":false,"is_disabled":false,"rental_uris":{"android":"levelo://app?vid=159bac19-9cba-45ce-a9ad-1f0b29b7ead8","ios":"levelo://app?vid=159bac19-9cba-45ce-a9ad-1f0b29b7ead8"},"vehicle_type_id":"4","last_reported":1732777803,"current_range_meters":35600,"station_id":"ce4bho12rcd13ifvqh1g","pricing_plan_id":"cebpf4jnsgd1na2vs0mg"},{"bike_id":"e5ce2c66-c5e0-4d7d-85aa-d50ea58df2c3","system_id":"levelo_inurba_marseille","lat":43.2928,"lon":5.4014,"is_reserved":false,"is_disabled":false,"rental_uris":{"android":"levelo://app?vid=e5ce2c66-c5e0-4d7d-85aa-d50ea58df2c3","ios":"levelo://app?vid=e5ce2c66-c5e0-4d7d-85aa-d50ea58df2c3"},"vehicle_type_id":"4","last_reported":1732777803,"current_range_meters":6400,"station_id":"ce4bh312rcd13ifvqdk0","pricing_plan_id":"cebpf4jnsgd1na2vs0mg"},{"bike_id":"b9e5df70-bff5-4669-ab23-853589abb6e7","system_id":"levelo_inurba_marseille","lat":43.27995,"lon":5.41658,"is_reserved":false,"is_disabled":false,"rental_uris":{"android":"levelo://app?vid=b9e5df70-bff5-4669-ab23-853589abb6e7","ios":"levelo://app?vid=b9e5df70-bff5-4669-ab23-853589abb6e7"},"vehicle_type_id":"4","last_reported":1732777803,"current_range_meters":34000,"station_id":"ce4bho12rcd13ifvqh1g","pricing_plan_id":"cebpf4jnsgd1na2vs0mg"},{"bike_id":"cf95e0d2-25e6-4a6b-8cbc-44ced9e844d2","system_id":"levelo_inurba_marseille","lat":43.23185,"lon":5.39989,"is_reserved":false,"is_disabled":true,"rental_uris":{"android":"levelo://app?vid=cf95e0d2-25e6-4a6b-8cbc-44ced9e844d2","ios":"levelo://app?vid=cf95e0d2-25e6-4a6b-8cbc-44ced9e844d2"},"vehicle_type_id":"4","last_reported":1732777803,"current_range_meters":0,"station_id":"ce4bhn12rcd13ifvqgqg","pricing_plan_id":"cebpf4jnsgd1na2vs0mg"},{"bike_id":"6f7949e1-de87-4a49-8620-fec27e04447f","system_id":"levelo_inurba_marseille","lat":43.3373,"lon":5.39188,"is_reserved":false,"is_disabled":false,"rental_uris":{"android":"levelo://app?vid=6f7949e1-de87-4a49-8620-fec27e04447f","ios":"levelo://app?vid=6f7949e1-de87-4a49-8620-fec27e04447f"},"vehicle_type_id":"4","last_reported":1732777803,"current_range_meters":36000,"station_id":"ce4bhr92rcd13ifvqhsg","pricing_plan_id":"cebpf4jnsgd1na2vs0mg"},{"bike_id":"02243332-e249-4476-979a-6bbbdd85982e","system_id":"levelo_inurba_marseille","lat":43.3048,"lon":5.37911,"is_reserved":false,"is_disabled":false,"rental_uris":{"android":"levelo://app?vid=02243332-e249-4476-979a-6bbbdd85982e","ios":"levelo://app?vid=02243332-e249-4476-979a-6bbbdd85982e"},"vehicle_type_id":"4","last_reported":1732777803,"current_range_meters":38800,"station_id":"ce4bgup2rcd13ifvqcn0","pricing_plan_id":"cebpf4jnsgd1na2vs0mg"},{"bike_id":"5d8c9bb5-c06c-4725-9607-08fe58377a58","system_id":"levelo_inurba_marseille","lat":43.29797,"lon":5.38093,"is_reserved":false,"is_disabled":false,"rental_uris":{"android":"levelo://app?vid=5d8c9bb5-c06c-4725-9607-08fe58377a58","ios":"levelo://app?vid=5d8c9bb5-c06c-4725-9607-08fe58377a58"},"vehicle_type_id":"4","last_reported":1732777803,"current_range_meters":25200,"station_id":"ce4bgip2rcd13ifvqbb0","pricing_plan_id":"cebpf4jnsgd1na2vs0mg"},{"bike_id":"81e804c3-56c7-4c55-9c1b-1b3be27cc670","system_id":"levelo_inurba_marseille","lat":43.29569,"lon":5.37523,"is_reserved":false,"is_disabled":false,"rental_uris":{"android":"levelo://app?vid=81e804c3-56c7-4c55-9c1b-1b3be27cc670","ios":"levelo://app?vid=81e804c3-56c7-4c55-9c1b-1b3be27cc670"},"vehicle_type_id":"4","last_reported":1732777803,"current_range_meters":30800,"station_id":"ce4bgh92rcd13ifvqb50","pricing_plan_id":"cebpf4jnsgd1na2vs0mg"},{"bike_id":"2c03d03d-c935-47b4-b768-ceab57d1ddcf","system_id":"levelo_inurba_marseille","lat":43.24076,"lon":5.37763,"is_reserved":false,"is_disabled":false,"rental_uris":{"android":"levelo://app?vid=2c03d03d-c935-47b4-b768-ceab57d1ddcf","ios":"levelo://app?vid=2c03d03d-c935-47b4-b768-ceab57d1ddcf"},"vehicle_type_id":"4","last_reported":1732777803,"current_range_meters":16800,"station_id":"ce4bhnp2rcd13ifvqgvg","pricing_plan_id":"cebpf4jnsgd1na2vs0mg"},{"bike_id":"88c0a23c-decf-469d-95fc-e70f9cd8eb3b","system_id":"levelo_inurba_marseille","lat":43.33756,"lon":5.37446,"is_reserved":false,"is_disabled":false,"rental_uris":{"android":"levelo://app?vid=88c0a23c-decf-469d-95fc-e70f9cd8eb3b","ios":"levelo://app?vid=88c0a23c-decf-469d-95fc-e70f9cd8eb3b"},"vehicle_type_id":"4","last_reported":1732777803,"current_range_meters":32000,"station_id":"","pricing_plan_id":"cebpf4jnsgd1na2vs0mg"},{"bike_id":"415bbec0-93ed-441a-8d45-fc0e3e230dde","system_id":"levelo_inurba_marseille","lat":43.24075,"lon":5.37759,"is_reserved":false,"is_disabled":false,"rental_uris":{"android":"levelo://app?vid=415bbec0-93ed-441a-8d45-fc0e3e230dde","ios":"levelo://app?vid=415bbec0-93ed-441a-8d45-fc0e3e230dde"},"vehicle_type_id":"4","last_reported":1732777803,"current_range_meters":26000,"station_id":"ce4bhnp2rcd13ifvqgvg","pricing_plan_id":"cebpf4jnsgd1na2vs0mg"},{"bike_id":"56d86ab7-968f-4c20-9359-241791eb84a0","system_id":"levelo_inurba_marseille","lat":43.32545,"lon":5.41448,"is_reserved":false,"is_disabled":false,"rental_uris":{"android":"levelo://app?vid=56d86ab7-968f-4c20-9359-241791eb84a0","ios":"levelo://app?vid=56d86ab7-968f-4c20-9359-241791eb84a0"},"vehicle_type_id":"4","last_reported":1732777803,"current_range_meters":38400,"station_id":"ce4bhq12rcd13ifvqhhg","pricing_plan_id":"cebpf4jnsgd1na2vs0mg"},{"bike_id":"d208b70b-cfeb-47de-81b0-222dbd574cb7","system_id":"levelo_inurba_marseille","lat":43.23067,"lon":5.35494,"is_reserved":false,"is_disabled":false,"rental_uris":{"android":"levelo://app?vid=d208b70b-cfeb-47de-81b0-222dbd574cb7","ios":"levelo://app?vid=d208b70b-cfeb-47de-81b0-222dbd574cb7"},"vehicle_type_id":"4","last_reported":1732777803,"current_range_meters":37600,"station_id":"cpo3342slgdg3j2ifvpg","pricing_plan_id":"cebpf4jnsgd1na2vs0mg"},{"bike_id":"a0d7a5aa-9521-4c66-aa4d-d1882456e1bb","system_id":"levelo_inurba_marseille","lat":43.28939,"lon":5.36639,"is_reserved":false,"is_disabled":false,"rental_uris":{"android":"levelo://app?vid=a0d7a5aa-9521-4c66-aa4d-d1882456e1bb","ios":"levelo://app?vid=a0d7a5aa-9521-4c66-aa4d-d1882456e1bb"},"vehicle_type_id":"4","last_reported":1732777803,"current_range_meters":20400,"station_id":"ce4bhap2rcd13ifvqek0","pricing_plan_id":"cebpf4jnsgd1na2vs0mg"},{"bike_id":"5249c720-4ecf-407f-95ee-f4da1041dcb5","system_id":"levelo_inurba_marseille","lat":43.26687,"lon":5.38271,"is_reserved":false,"is_disabled":true,"rental_uris":{"android":"levelo://app?vid=5249c720-4ecf-407f-95ee-f4da1041dcb5","ios":"levelo://app?vid=5249c720-4ecf-407f-95ee-f4da1041dcb5"},"vehicle_type_id":"4","last_reported":1732777803,"current_range_meters":30400,"station_id":"ce4bhg92rcd13ifvqf90","pricing_plan_id":"cebpf4jnsgd1na2vs0mg"},{"bike_id":"4709c438-f4af-415a-a919-d27302b75dca","system_id":"levelo_inurba_marseille","lat":43.23196,"lon":5.35553,"is_reserved":false,"is_disabled":false,"rental_uris":{"android":"levelo://app?vid=4709c438-f4af-415a-a919-d27302b75dca","ios":"levelo://app?vid=4709c438-f4af-415a-a919-d27302b75dca"},"vehicle_type_id":"4","last_reported":1732777803,"current_range_meters":38800,"station_id":"ce4bhu92rcd13ifvqi70","pricing_plan_id":"cebpf4jnsgd1na2vs0mg"},{"bike_id":"2b921899-1359-49b6-a793-ffb9ef50e656","system_id":"levelo_inurba_marseille","lat":43.29605,"lon":5.37714,"is_reserved":false,"is_disabled":true,"rental_uris":{"android":"levelo://app?vid=2b921899-1359-49b6-a793-ffb9ef50e656","ios":"levelo://app?vid=2b921899-1359-49b6-a793-ffb9ef50e656"},"vehicle_type_id":"4","last_reported":1732777803,"current_range_meters":38000,"station_id":"ce4bgi92rcd13ifvqb90","pricing_plan_id":"cebpf4jnsgd1na2vs0mg"},{"bike_id":"181851fb-d5fd-4b64-a671-8ea8285234d7","system_id":"levelo_inurba_marseille","lat":43.32363,"lon":5.38884,"is_reserved":false,"is_disabled":false,"rental_uris":{"android":"levelo://app?vid=181851fb-d5fd-4b64-a671-8ea8285234d7","ios":"levelo://app?vid=181851fb-d5fd-4b64-a671-8ea8285234d7"},"vehicle_type_id":"4","last_reported":1732777803,"current_range_meters":11600,"station_id":"ce4bhqp2rcd13ifvqhog","pricing_plan_id":"cebpf4jnsgd1na2vs0mg"},{"bike_id":"a833b1a9-9114-4797-905e-009322efb201","system_id":"levelo_inurba_marseille","lat":43.31713,"lon":5.37741,"is_reserved":false,"is_disabled":false,"rental_uris":{"android":"levelo://app?vid=a833b1a9-9114-4797-905e-009322efb201","ios":"levelo://app?vid=a833b1a9-9114-4797-905e-009322efb201"},"vehicle_type_id":"4","last_reported":1732777803,"current_range_meters":24000,"station_id":"ce4bgth2rcd13ifvqch0","pricing_plan_id":"cebpf4jnsgd1na2vs0mg"},{"bike_id":"869146c7-107f-4a8d-a9de-076457eea766","system_id":"levelo_inurba_marseille","lat":43.21676,"lon":5.34639,"is_reserved":false,"is_disabled":false,"rental_uris":{"android":"levelo://app?vid=869146c7-107f-4a8d-a9de-076457eea766","ios":"levelo://app?vid=869146c7-107f-4a8d-a9de-076457eea766"},"vehicle_type_id":"4","last_reported":1732777803,"current_range_meters":11600,"station_id":"","pricing_plan_id":"cebpf4jnsgd1na2vs0mg"},{"bike_id":"20f4e064-7b3a-4e29-91a1-403971f26d5c","system_id":"levelo_inurba_marseille","lat":43.28353,"lon":5.38106,"is_reserved":false,"is_disabled":false,"rental_uris":{"android":"levelo://app?vid=20f4e064-7b3a-4e29-91a1-403971f26d5c","ios":"levelo://app?vid=20f4e064-7b3a-4e29-91a1-403971f26d5c"},"vehicle_type_id":"4","last_reported":1732777803,"current_range_meters":36400,"station_id":"ce4bh412rcd13ifvqdr0","pricing_plan_id":"cebpf4jnsgd1na2vs0mg"},{"bike_id":"72d6e1cd-95a6-4161-b11a-570ee8a1f3a8","system_id":"levelo_inurba_marseille","lat":43.29272,"lon":5.40119,"is_reserved":false,"is_disabled":false,"rental_uris":{"android":"levelo://app?vid=72d6e1cd-95a6-4161-b11a-570ee8a1f3a8","ios":"levelo://app?vid=72d6e1cd-95a6-4161-b11a-570ee8a1f3a8"},"vehicle_type_id":"4","last_reported":1732777803,"current_range_meters":37600,"station_id":"ce4bh312rcd13ifvqdk0","pricing_plan_id":"cebpf4jnsgd1na2vs0mg"},{"bike_id":"c283b5f8-3130-489e-b2be-8acbbe840512","system_id":"levelo_inurba_marseille","lat":43.29263,"lon":5.40114,"is_reserved":false,"is_disabled":true,"rental_uris":{"android":"levelo://app?vid=c283b5f8-3130-489e-b2be-8acbbe840512","ios":"levelo://app?vid=c283b5f8-3130-489e-b2be-8acbbe840512"},"vehicle_type_id":"4","last_reported":1732777803,"current_range_meters":20400,"station_id":"ce4bh312rcd13ifvqdk0","pricing_plan_id":"cebpf4jnsgd1na2vs0mg"},{"bike_id":"acedeef4-22d5-4278-bd13-90ecf97cdca8","system_id":"levelo_inurba_marseille","lat":43.30584,"lon":5.39348,"is_reserved":false,"is_disabled":false,"rental_uris":{"android":"levelo://app?vid=acedeef4-22d5-4278-bd13-90ecf97cdca8","ios":"levelo://app?vid=acedeef4-22d5-4278-bd13-90ecf97cdca8"},"vehicle_type_id":"4","last_reported":1732777803,"current_range_meters":28400,"station_id":"ce4bh0p2rcd13ifvqd80","pricing_plan_id":"cebpf4jnsgd1na2vs0mg"},{"bike_id":"b680d133-6bfe-4d6f-b648-fb41f754b22c","system_id":"levelo_inurba_marseille","lat":43.3152,"lon":5.3803,"is_reserved":false,"is_disabled":false,"rental_uris":{"android":"levelo://app?vid=b680d133-6bfe-4d6f-b648-fb41f754b22c","ios":"levelo://app?vid=b680d133-6bfe-4d6f-b648-fb41f754b22c"},"vehicle_type_id":"4","last_reported":1732777803,"current_range_meters":17200,"station_id":"ce4bhsp2rcd13ifvqi50","pricing_plan_id":"cebpf4jnsgd1na2vs0mg"},{"bike_id":"fb310b4c-873f-46cf-adff-1791f3cf78ff","system_id":"levelo_inurba_marseille","lat":43.29849,"lon":5.36285,"is_reserved":false,"is_disabled":false,"rental_uris":{"android":"levelo://app?vid=fb310b4c-873f-46cf-adff-1791f3cf78ff","ios":"levelo://app?vid=fb310b4c-873f-46cf-adff-1791f3cf78ff"},"vehicle_type_id":"4","last_reported":1732777803,"current_range_meters":20800,"station_id":"ce4bgpp2rcd13ifvqc3g","pricing_plan_id":"cebpf4jnsgd1na2vs0mg"},{"bike_id":"27c64910-abd4-46c7-b039-e96cf4f30b6b","system_id":"levelo_inurba_marseille","lat":43.28338,"lon":5.38095,"is_reserved":false,"is_disabled":false,"rental_uris":{"android":"levelo://app?vid=27c64910-abd4-46c7-b039-e96cf4f30b6b","ios":"levelo://app?vid=27c64910-abd4-46c7-b039-e96cf4f30b6b"},"vehicle_type_id":"4","last_reported":1732777803,"current_range_meters":11600,"station_id":"ce4bh412rcd13ifvqdr0","pricing_plan_id":"cebpf4jnsgd1na2vs0mg"},{"bike_id":"2095a277-b1b4-4e6f-a39d-16f0f4f7d616","system_id":"levelo_inurba_marseille","lat":43.24178,"lon":5.397258,"is_reserved":false,"is_disabled":false,"rental_uris":{"android":"levelo://app?vid=2095a277-b1b4-4e6f-a39d-16f0f4f7d616","ios":"levelo://app?vid=2095a277-b1b4-4e6f-a39d-16f0f4f7d616"},"vehicle_type_id":"4","last_reported":1732777803,"current_range_meters":28400,"station_id":"ce4bhn12rcd13ifvqgpg","pricing_plan_id":"cebpf4jnsgd1na2vs0mg"},{"bike_id":"775aba22-baf5-4ce5-b645-5941a20cb104","system_id":"levelo_inurba_marseille","lat":43.273809,"lon":5.362556,"is_reserved":false,"is_disabled":true,"rental_uris":{"android":"levelo://app?vid=775aba22-baf5-4ce5-b645-5941a20cb104","ios":"levelo://app?vid=775aba22-baf5-4ce5-b645-5941a20cb104"},"vehicle_type_id":"4","last_reported":1732777803,"current_range_meters":38000,"station_id":"ce4bhbh2rcd13ifvqeo0","pricing_plan_id":"cebpf4jnsgd1na2vs0mg"},{"bike_id":"95ae37b5-add4-404e-b606-18569c489f38","system_id":"levelo_inurba_marseille","lat":43.23151,"lon":5.43712,"is_reserved":false,"is_disabled":false,"rental_uris":{"android":"levelo://app?vid=95ae37b5-add4-404e-b606-18569c489f38","ios":"levelo://app?vid=95ae37b5-add4-404e-b606-18569c489f38"},"vehicle_type_id":"4","last_reported":1732777803,"current_range_meters":16000,"station_id":"ce4bhmp2rcd13ifvqgog","pricing_plan_id":"cebpf4jnsgd1na2vs0mg"},{"bike_id":"10515226-3d19-49b0-b8c2-7bbf5cbf72e4","system_id":"levelo_inurba_marseille","lat":43.28999,"lon":5.35613,"is_reserved":false,"is_disabled":true,"rental_uris":{"android":"levelo://app?vid=10515226-3d19-49b0-b8c2-7bbf5cbf72e4","ios":"levelo://app?vid=10515226-3d19-49b0-b8c2-7bbf5cbf72e4"},"vehicle_type_id":"4","last_reported":1732777803,"current_range_meters":800,"station_id":"ce4bhb92rcd13ifvqen0","pricing_plan_id":"cebpf4jnsgd1na2vs0mg"},{"bike_id":"1446bae8-3f07-4142-b9c8-6c974638d2db","system_id":"levelo_inurba_marseille","lat":43.32538,"lon":5.41441,"is_reserved":false,"is_disabled":false,"rental_uris":{"android":"levelo://app?vid=1446bae8-3f07-4142-b9c8-6c974638d2db","ios":"levelo://app?vid=1446bae8-3f07-4142-b9c8-6c974638d2db"},"vehicle_type_id":"4","last_reported":1732777803,"current_range_meters":34800,"station_id":"ce4bhq12rcd13ifvqhhg","pricing_plan_id":"cebpf4jnsgd1na2vs0mg"},{"bike_id":"4d4c884f-6933-49c0-8899-f9856d90f44d","system_id":"levelo_inurba_marseille","lat":43.29748,"lon":5.37971,"is_reserved":false,"is_disabled":true,"rental_uris":{"android":"levelo://app?vid=4d4c884f-6933-49c0-8899-f9856d90f44d","ios":"levelo://app?vid=4d4c884f-6933-49c0-8899-f9856d90f44d"},"vehicle_type_id":"4","last_reported":1732777803,"current_range_meters":0,"station_id":"","pricing_plan_id":"cebpf4jnsgd1na2vs0mg"},{"bike_id":"497503fe-5efc-49a3-b750-0eb1d7c8980e","system_id":"levelo_inurba_marseille","lat":43.23067,"lon":5.35495,"is_reserved":false,"is_disabled":false,"rental_uris":{"android":"levelo://app?vid=497503fe-5efc-49a3-b750-0eb1d7c8980e","ios":"levelo://app?vid=497503fe-5efc-49a3-b750-0eb1d7c8980e"},"vehicle_type_id":"4","last_reported":1732777803,"current_range_meters":26800,"station_id":"cpo3342slgdg3j2ifvpg","pricing_plan_id":"cebpf4jnsgd1na2vs0mg"},{"bike_id":"b8f4b177-99f2-45a6-b071-464999ad1a53","system_id":"levelo_inurba_marseille","lat":43.29004,"lon":5.38618,"is_reserved":false,"is_disabled":true,"rental_uris":{"android":"levelo://app?vid=b8f4b177-99f2-45a6-b071-464999ad1a53","ios":"levelo://app?vid=b8f4b177-99f2-45a6-b071-464999ad1a53"},"vehicle_type_id":"4","last_reported":1732777803,"current_range_meters":1200,"station_id":"ce4bh4p2rcd13ifvqe0g","pricing_plan_id":"cebpf4jnsgd1na2vs0mg"},{"bike_id":"9009be37-c6b1-406b-b0a8-fbab355f715e","system_id":"levelo_inurba_marseille","lat":43.33762,"lon":5.37493,"is_reserved":false,"is_disabled":false,"rental_uris":{"android":"levelo://app?vid=9009be37-c6b1-406b-b0a8-fbab355f715e","ios":"levelo://app?vid=9009be37-c6b1-406b-b0a8-fbab355f715e"},"vehicle_type_id":"4","last_reported":1732777803,"current_range_meters":38000,"station_id":"","pricing_plan_id":"cebpf4jnsgd1na2vs0mg"},{"bike_id":"698a4486-2082-4411-9bb5-26cb3d238d76","system_id":"levelo_inurba_marseille","lat":43.32535,"lon":5.41428,"is_reserved":false,"is_disabled":false,"rental_uris":{"android":"levelo://app?vid=698a4486-2082-4411-9bb5-26cb3d238d76","ios":"levelo://app?vid=698a4486-2082-4411-9bb5-26cb3d238d76"},"vehicle_type_id":"4","last_reported":1732777803,"current_range_meters":36000,"station_id":"ce4bhq12rcd13ifvqhhg","pricing_plan_id":"cebpf4jnsgd1na2vs0mg"},{"bike_id":"79e0b48c-a0ec-44c8-b7cc-20d7d7adc530","system_id":"levelo_inurba_marseille","lat":43.31994,"lon":5.38148,"is_reserved":false,"is_disabled":false,"rental_uris":{"android":"levelo://app?vid=79e0b48c-a0ec-44c8-b7cc-20d7d7adc530","ios":"levelo://app?vid=79e0b48c-a0ec-44c8-b7cc-20d7d7adc530"},"vehicle_type_id":"4","last_reported":1732777803,"current_range_meters":38800,"station_id":"ce4bhr12rcd13ifvqhpg","pricing_plan_id":"cebpf4jnsgd1na2vs0mg"},{"bike_id":"ceb58516-bc8c-40df-9da4-368ee1d8d8aa","system_id":"levelo_inurba_marseille","lat":43.24071,"lon":5.37768,"is_reserved":false,"is_disabled":false,"rental_uris":{"android":"levelo://app?vid=ceb58516-bc8c-40df-9da4-368ee1d8d8aa","ios":"levelo://app?vid=ceb58516-bc8c-40df-9da4-368ee1d8d8aa"},"vehicle_type_id":"4","last_reported":1732777803,"current_range_meters":38800,"station_id":"ce4bhnp2rcd13ifvqgvg","pricing_plan_id":"cebpf4jnsgd1na2vs0mg"},{"bike_id":"cc39417c-9fe6-4314-b916-d5d5360bfdd4","system_id":"levelo_inurba_marseille","lat":43.32548,"lon":5.41442,"is_reserved":false,"is_disabled":false,"rental_uris":{"android":"levelo://app?vid=cc39417c-9fe6-4314-b916-d5d5360bfdd4","ios":"levelo://app?vid=cc39417c-9fe6-4314-b916-d5d5360bfdd4"},"vehicle_type_id":"4","last_reported":1732777803,"current_range_meters":38800,"station_id":"ce4bhq12rcd13ifvqhhg","pricing_plan_id":"cebpf4jnsgd1na2vs0mg"},{"bike_id":"eaa3c0ba-d328-455e-9234-65294ece450b","system_id":"levelo_inurba_marseille","lat":43.27494,"lon":5.42456,"is_reserved":false,"is_disabled":false,"rental_uris":{"android":"levelo://app?vid=eaa3c0ba-d328-455e-9234-65294ece450b","ios":"levelo://app?vid=eaa3c0ba-d328-455e-9234-65294ece450b"},"vehicle_type_id":"4","last_reported":1732777803,"current_range_meters":36000,"station_id":"ce4bhn92rcd13ifvqgrg","pricing_plan_id":"cebpf4jnsgd1na2vs0mg"},{"bike_id":"299f58fd-6e29-4e06-a65a-1ba6949f2bdc","system_id":"levelo_inurba_marseille","lat":43.33792,"lon":5.37428,"is_reserved":false,"is_disabled":false,"rental_uris":{"android":"levelo://app?vid=299f58fd-6e29-4e06-a65a-1ba6949f2bdc","ios":"levelo://app?vid=299f58fd-6e29-4e06-a65a-1ba6949f2bdc"},"vehicle_type_id":"4","last_reported":1732777803,"current_range_meters":38400,"station_id":"","pricing_plan_id":"cebpf4jnsgd1na2vs0mg"},{"bike_id":"4d809776-4d2b-4bf5-8aa6-666b5b1fd18f","system_id":"levelo_inurba_marseille","lat":43.33724,"lon":5.39181,"is_reserved":false,"is_disabled":false,"rental_uris":{"android":"levelo://app?vid=4d809776-4d2b-4bf5-8aa6-666b5b1fd18f","ios":"levelo://app?vid=4d809776-4d2b-4bf5-8aa6-666b5b1fd18f"},"vehicle_type_id":"4","last_reported":1732777803,"current_range_meters":35200,"station_id":"ce4bhr92rcd13ifvqhsg","pricing_plan_id":"cebpf4jnsgd1na2vs0mg"},{"bike_id":"86453c24-6dbc-4dbd-a72a-2941f22d94a6","system_id":"levelo_inurba_marseille","lat":43.29073,"lon":5.37163,"is_reserved":false,"is_disabled":false,"rental_uris":{"android":"levelo://app?vid=86453c24-6dbc-4dbd-a72a-2941f22d94a6","ios":"levelo://app?vid=86453c24-6dbc-4dbd-a72a-2941f22d94a6"},"vehicle_type_id":"4","last_reported":1732777803,"current_range_meters":28400,"station_id":"ce4bh5p2rcd13ifvqe4g","pricing_plan_id":"cebpf4jnsgd1na2vs0mg"},{"bike_id":"edb4117f-41fd-4a2e-81d4-b5e52ee24c45","system_id":"levelo_inurba_marseille","lat":43.27494,"lon":5.42453,"is_reserved":false,"is_disabled":false,"rental_uris":{"android":"levelo://app?vid=edb4117f-41fd-4a2e-81d4-b5e52ee24c45","ios":"levelo://app?vid=edb4117f-41fd-4a2e-81d4-b5e52ee24c45"},"vehicle_type_id":"4","last_reported":1732777803,"current_range_meters":33600,"station_id":"ce4bhn92rcd13ifvqgrg","pricing_plan_id":"cebpf4jnsgd1na2vs0mg"},{"bike_id":"24b2d706-14f2-4a05-a5fd-2a7358cbae81","system_id":"levelo_inurba_marseille","lat":43.24645,"lon":5.38893,"is_reserved":false,"is_disabled":true,"rental_uris":{"android":"levelo://app?vid=24b2d706-14f2-4a05-a5fd-2a7358cbae81","ios":"levelo://app?vid=24b2d706-14f2-4a05-a5fd-2a7358cbae81"},"vehicle_type_id":"4","last_reported":1732777803,"current_range_meters":0,"station_id":"ce4bhg12rcd13ifvqf60","pricing_plan_id":"cebpf4jnsgd1na2vs0mg"},{"bike_id":"7dccca16-9c81-46ba-8ec7-8ac114550316","system_id":"levelo_inurba_marseille","lat":43.337444,"lon":5.374475,"is_reserved":false,"is_disabled":false,"rental_uris":{"android":"levelo://app?vid=7dccca16-9c81-46ba-8ec7-8ac114550316","ios":"levelo://app?vid=7dccca16-9c81-46ba-8ec7-8ac114550316"},"vehicle_type_id":"4","last_reported":1732777803,"current_range_meters":34000,"station_id":"","pricing_plan_id":"cebpf4jnsgd1na2vs0mg"},{"bike_id":"ca76a201-f66a-4daa-8658-bffa4fbb7afa","system_id":"levelo_inurba_marseille","lat":43.30946,"lon":5.372,"is_reserved":false,"is_disabled":true,"rental_uris":{"android":"levelo://app?vid=ca76a201-f66a-4daa-8658-bffa4fbb7afa","ios":"levelo://app?vid=ca76a201-f66a-4daa-8658-bffa4fbb7afa"},"vehicle_type_id":"4","last_reported":1732777803,"current_range_meters":38000,"station_id":"ce4bguh2rcd13ifvqckg","pricing_plan_id":"cebpf4jnsgd1na2vs0mg"},{"bike_id":"c5d2d69c-31d7-463b-9568-fc19bed23f6e","system_id":"levelo_inurba_marseille","lat":43.305819,"lon":5.393547,"is_reserved":false,"is_disabled":true,"rental_uris":{"android":"levelo://app?vid=c5d2d69c-31d7-463b-9568-fc19bed23f6e","ios":"levelo://app?vid=c5d2d69c-31d7-463b-9568-fc19bed23f6e"},"vehicle_type_id":"4","last_reported":1732777803,"current_range_meters":8400,"station_id":"ce4bh0p2rcd13ifvqd80","pricing_plan_id":"cebpf4jnsgd1na2vs0mg"},{"bike_id":"c6503f95-a2da-4b3b-82b1-0e08a76abfd0","system_id":"levelo_inurba_marseille","lat":43.25934,"lon":5.40911,"is_reserved":false,"is_disabled":false,"rental_uris":{"android":"levelo://app?vid=c6503f95-a2da-4b3b-82b1-0e08a76abfd0","ios":"levelo://app?vid=c6503f95-a2da-4b3b-82b1-0e08a76abfd0"},"vehicle_type_id":"4","last_reported":1732777803,"current_range_meters":36400,"station_id":"ce4bhm92rcd13ifvqglg","pricing_plan_id":"cebpf4jnsgd1na2vs0mg"},{"bike_id":"95c39abd-631b-4674-8877-bb71fdbca347","system_id":"levelo_inurba_marseille","lat":43.296164,"lon":5.377204,"is_reserved":false,"is_disabled":true,"rental_uris":{"android":"levelo://app?vid=95c39abd-631b-4674-8877-bb71fdbca347","ios":"levelo://app?vid=95c39abd-631b-4674-8877-bb71fdbca347"},"vehicle_type_id":"4","last_reported":1732777803,"current_range_meters":9600,"station_id":"ce4bgi92rcd13ifvqb90","pricing_plan_id":"cebpf4jnsgd1na2vs0mg"},{"bike_id":"c1b4fb7d-bab1-4d06-aab5-689eab906f63","system_id":"levelo_inurba_marseille","lat":43.27217,"lon":5.39168,"is_reserved":false,"is_disabled":false,"rental_uris":{"android":"levelo://app?vid=c1b4fb7d-bab1-4d06-aab5-689eab906f63","ios":"levelo://app?vid=c1b4fb7d-bab1-4d06-aab5-689eab906f63"},"vehicle_type_id":"4","last_reported":1732777803,"current_range_meters":28800,"station_id":"ce4bhhp2rcd13ifvqfm0","pricing_plan_id":"cebpf4jnsgd1na2vs0mg"},{"bike_id":"8429aac6-e205-4db7-b830-738d1a402a04","system_id":"levelo_inurba_marseille","lat":43.31093,"lon":5.37484,"is_reserved":false,"is_disabled":false,"rental_uris":{"android":"levelo://app?vid=8429aac6-e205-4db7-b830-738d1a402a04","ios":"levelo://app?vid=8429aac6-e205-4db7-b830-738d1a402a04"},"vehicle_type_id":"4","last_reported":1732777803,"current_range_meters":14400,"station_id":"","pricing_plan_id":"cebpf4jnsgd1na2vs0mg"},{"bike_id":"1dee5398-ece1-4217-b5b9-984f22c2ff59","system_id":"levelo_inurba_marseille","lat":43.29253,"lon":5.38436,"is_reserved":false,"is_disabled":true,"rental_uris":{"android":"levelo://app?vid=1dee5398-ece1-4217-b5b9-984f22c2ff59","ios":"levelo://app?vid=1dee5398-ece1-4217-b5b9-984f22c2ff59"},"vehicle_type_id":"4","last_reported":1732777803,"current_range_meters":0,"station_id":"ce4bh692rcd13ifvqea0","pricing_plan_id":"cebpf4jnsgd1na2vs0mg"},{"bike_id":"ae27d36e-a736-4bd0-9e1e-8d7ee12e2e51","system_id":"levelo_inurba_marseille","lat":43.29617,"lon":5.37723,"is_reserved":false,"is_disabled":true,"rental_uris":{"android":"levelo://app?vid=ae27d36e-a736-4bd0-9e1e-8d7ee12e2e51","ios":"levelo://app?vid=ae27d36e-a736-4bd0-9e1e-8d7ee12e2e51"},"vehicle_type_id":"4","last_reported":1732777803,"current_range_meters":0,"station_id":"ce4bgi92rcd13ifvqb90","pricing_plan_id":"cebpf4jnsgd1na2vs0mg"},{"bike_id":"6c66f87d-50b0-4234-962a-03ae43b76c15","system_id":"levelo_inurba_marseille","lat":43.28261,"lon":5.35057,"is_reserved":false,"is_disabled":false,"rental_uris":{"android":"levelo://app?vid=6c66f87d-50b0-4234-962a-03ae43b76c15","ios":"levelo://app?vid=6c66f87d-50b0-4234-962a-03ae43b76c15"},"vehicle_type_id":"4","last_reported":1732777803,"current_range_meters":16400,"station_id":"ce4bhbp2rcd13ifvqerg","pricing_plan_id":"cebpf4jnsgd1na2vs0mg"},{"bike_id":"ed7da3ff-0d65-469d-8678-d6877d10207b","system_id":"levelo_inurba_marseille","lat":43.28967,"lon":5.37837,"is_reserved":false,"is_disabled":false,"rental_uris":{"android":"levelo://app?vid=ed7da3ff-0d65-469d-8678-d6877d10207b","ios":"levelo://app?vid=ed7da3ff-0d65-469d-8678-d6877d10207b"},"vehicle_type_id":"4","last_reported":1732777803,"current_range_meters":36000,"station_id":"ce4bh9p2rcd13ifvqed0","pricing_plan_id":"cebpf4jnsgd1na2vs0mg"},{"bike_id":"d77bd1a9-3dbe-4806-8d0d-9ad10656f516","system_id":"levelo_inurba_marseille","lat":43.30483,"lon":5.3791,"is_reserved":false,"is_disabled":true,"rental_uris":{"android":"levelo://app?vid=d77bd1a9-3dbe-4806-8d0d-9ad10656f516","ios":"levelo://app?vid=d77bd1a9-3dbe-4806-8d0d-9ad10656f516"},"vehicle_type_id":"4","last_reported":1732777803,"current_range_meters":1200,"station_id":"ce4bgup2rcd13ifvqcn0","pricing_plan_id":"cebpf4jnsgd1na2vs0mg"},{"bike_id":"39b04c21-6a6a-40a7-a489-741c2b67c9bd","system_id":"levelo_inurba_marseille","lat":43.337267,"lon":5.391906,"is_reserved":false,"is_disabled":false,"rental_uris":{"android":"levelo://app?vid=39b04c21-6a6a-40a7-a489-741c2b67c9bd","ios":"levelo://app?vid=39b04c21-6a6a-40a7-a489-741c2b67c9bd"},"vehicle_type_id":"4","last_reported":1732777803,"current_range_meters":6800,"station_id":"ce4bhr92rcd13ifvqhsg","pricing_plan_id":"cebpf4jnsgd1na2vs0mg"},{"bike_id":"573f1a32-0100-4632-81f0-9f78c4587cd4","system_id":"levelo_inurba_marseille","lat":43.284118,"lon":5.375165,"is_reserved":false,"is_disabled":true,"rental_uris":{"android":"levelo://app?vid=573f1a32-0100-4632-81f0-9f78c4587cd4","ios":"levelo://app?vid=573f1a32-0100-4632-81f0-9f78c4587cd4"},"vehicle_type_id":"4","last_reported":1732777803,"current_range_meters":0,"station_id":"ce4bh412rcd13ifvqds0","pricing_plan_id":"cebpf4jnsgd1na2vs0mg"},{"bike_id":"b4098760-fadc-478e-8560-91752f964faf","system_id":"levelo_inurba_marseille","lat":43.27494,"lon":5.42453,"is_reserved":false,"is_disabled":false,"rental_uris":{"android":"levelo://app?vid=b4098760-fadc-478e-8560-91752f964faf","ios":"levelo://app?vid=b4098760-fadc-478e-8560-91752f964faf"},"vehicle_type_id":"4","last_reported":1732777803,"current_range_meters":36800,"station_id":"ce4bhn92rcd13ifvqgrg","pricing_plan_id":"cebpf4jnsgd1na2vs0mg"},{"bike_id":"59310c24-aada-47db-9c55-db87d9c8f60e","system_id":"levelo_inurba_marseille","lat":43.289807,"lon":5.37837,"is_reserved":false,"is_disabled":true,"rental_uris":{"android":"levelo://app?vid=59310c24-aada-47db-9c55-db87d9c8f60e","ios":"levelo://app?vid=59310c24-aada-47db-9c55-db87d9c8f60e"},"vehicle_type_id":"4","last_reported":1732777803,"current_range_meters":4400,"station_id":"ce4bh9p2rcd13ifvqed0","pricing_plan_id":"cebpf4jnsgd1na2vs0mg"},{"bike_id":"9a41ab40-241e-4f79-ad94-804edc8c73af","system_id":"levelo_inurba_marseille","lat":43.30889,"lon":5.39915,"is_reserved":false,"is_disabled":false,"rental_uris":{"android":"levelo://app?vid=9a41ab40-241e-4f79-ad94-804edc8c73af","ios":"levelo://app?vid=9a41ab40-241e-4f79-ad94-804edc8c73af"},"vehicle_type_id":"4","last_reported":1732777803,"current_range_meters":33600,"station_id":"","pricing_plan_id":"cebpf4jnsgd1na2vs0mg"},{"bike_id":"d00201b4-3045-42a6-baab-97b71694fceb","system_id":"levelo_inurba_marseille","lat":43.24079,"lon":5.37735,"is_reserved":false,"is_disabled":true,"rental_uris":{"android":"levelo://app?vid=d00201b4-3045-42a6-baab-97b71694fceb","ios":"levelo://app?vid=d00201b4-3045-42a6-baab-97b71694fceb"},"vehicle_type_id":"4","last_reported":1732777803,"current_range_meters":38400,"station_id":"ce4bhnp2rcd13ifvqgvg","pricing_plan_id":"cebpf4jnsgd1na2vs0mg"},{"bike_id":"6b4b8fe7-5b4f-485b-93bd-dbec0a3ccc42","system_id":"levelo_inurba_marseille","lat":43.290043,"lon":5.356131,"is_reserved":false,"is_disabled":true,"rental_uris":{"android":"levelo://app?vid=6b4b8fe7-5b4f-485b-93bd-dbec0a3ccc42","ios":"levelo://app?vid=6b4b8fe7-5b4f-485b-93bd-dbec0a3ccc42"},"vehicle_type_id":"4","last_reported":1732777803,"current_range_meters":0,"station_id":"ce4bhb92rcd13ifvqen0","pricing_plan_id":"cebpf4jnsgd1na2vs0mg"},{"bike_id":"e2aa56d9-70ff-4a87-b5d7-eee3dcd91418","system_id":"levelo_inurba_marseille","lat":43.24074,"lon":5.37769,"is_reserved":false,"is_disabled":false,"rental_uris":{"android":"levelo://app?vid=e2aa56d9-70ff-4a87-b5d7-eee3dcd91418","ios":"levelo://app?vid=e2aa56d9-70ff-4a87-b5d7-eee3dcd91418"},"vehicle_type_id":"4","last_reported":1732777803,"current_range_meters":14400,"station_id":"ce4bhnp2rcd13ifvqgvg","pricing_plan_id":"cebpf4jnsgd1na2vs0mg"},{"bike_id":"ba110873-15b4-4d3e-ad69-0f8a1ed917f4","system_id":"levelo_inurba_marseille","lat":43.24547,"lon":5.39524,"is_reserved":false,"is_disabled":false,"rental_uris":{"android":"levelo://app?vid=ba110873-15b4-4d3e-ad69-0f8a1ed917f4","ios":"levelo://app?vid=ba110873-15b4-4d3e-ad69-0f8a1ed917f4"},"vehicle_type_id":"4","last_reported":1732777803,"current_range_meters":14800,"station_id":"ce4bhlp2rcd13ifvqgjg","pricing_plan_id":"cebpf4jnsgd1na2vs0mg"},{"bike_id":"e163bcfa-3686-4530-b9d7-a14cbd1893ab","system_id":"levelo_inurba_marseille","lat":43.3254,"lon":5.4143,"is_reserved":false,"is_disabled":false,"rental_uris":{"android":"levelo://app?vid=e163bcfa-3686-4530-b9d7-a14cbd1893ab","ios":"levelo://app?vid=e163bcfa-3686-4530-b9d7-a14cbd1893ab"},"vehicle_type_id":"4","last_reported":1732777803,"current_range_meters":31200,"station_id":"ce4bhq12rcd13ifvqhhg","pricing_plan_id":"cebpf4jnsgd1na2vs0mg"},{"bike_id":"220ce8bf-6055-439a-932f-70112f24c52b","system_id":"levelo_inurba_marseille","lat":43.32106,"lon":5.367815,"is_reserved":false,"is_disabled":false,"rental_uris":{"android":"levelo://app?vid=220ce8bf-6055-439a-932f-70112f24c52b","ios":"levelo://app?vid=220ce8bf-6055-439a-932f-70112f24c52b"},"vehicle_type_id":"4","last_reported":1732777803,"current_range_meters":11200,"station_id":"ce4bhrh2rcd13ifvqhug","pricing_plan_id":"cebpf4jnsgd1na2vs0mg"},{"bike_id":"91dbe165-bb05-4081-82f5-8ffbdf3d2120","system_id":"levelo_inurba_marseille","lat":43.2834,"lon":5.38116,"is_reserved":false,"is_disabled":false,"rental_uris":{"android":"levelo://app?vid=91dbe165-bb05-4081-82f5-8ffbdf3d2120","ios":"levelo://app?vid=91dbe165-bb05-4081-82f5-8ffbdf3d2120"},"vehicle_type_id":"4","last_reported":1732777803,"current_range_meters":37600,"station_id":"ce4bh412rcd13ifvqdr0","pricing_plan_id":"cebpf4jnsgd1na2vs0mg"},{"bike_id":"24404b8c-92d5-4ffc-a704-f49736075a77","system_id":"levelo_inurba_marseille","lat":43.32359,"lon":5.38882,"is_reserved":false,"is_disabled":false,"rental_uris":{"android":"levelo://app?vid=24404b8c-92d5-4ffc-a704-f49736075a77","ios":"levelo://app?vid=24404b8c-92d5-4ffc-a704-f49736075a77"},"vehicle_type_id":"4","last_reported":1732777803,"current_range_meters":20000,"station_id":"ce4bhqp2rcd13ifvqhog","pricing_plan_id":"cebpf4jnsgd1na2vs0mg"},{"bike_id":"db508db4-5989-4d56-8ff3-52352e57ed7c","system_id":"levelo_inurba_marseille","lat":43.31889,"lon":5.40733,"is_reserved":false,"is_disabled":false,"rental_uris":{"android":"levelo://app?vid=db508db4-5989-4d56-8ff3-52352e57ed7c","ios":"levelo://app?vid=db508db4-5989-4d56-8ff3-52352e57ed7c"},"vehicle_type_id":"4","last_reported":1732777803,"current_range_meters":38800,"station_id":"ce4bhq12rcd13ifvqhig","pricing_plan_id":"cebpf4jnsgd1na2vs0mg"},{"bike_id":"3c91e789-4103-42e5-ab1e-8ffdaacd2678","system_id":"levelo_inurba_marseille","lat":43.29061,"lon":5.35907,"is_reserved":false,"is_disabled":false,"rental_uris":{"android":"levelo://app?vid=3c91e789-4103-42e5-ab1e-8ffdaacd2678","ios":"levelo://app?vid=3c91e789-4103-42e5-ab1e-8ffdaacd2678"},"vehicle_type_id":"4","last_reported":1732777803,"current_range_meters":17600,"station_id":"ce4bha92rcd13ifvqeg0","pricing_plan_id":"cebpf4jnsgd1na2vs0mg"},{"bike_id":"5e2d97fb-30eb-47f9-9fb3-b04ea853910f","system_id":"levelo_inurba_marseille","lat":43.30785,"lon":5.37654,"is_reserved":false,"is_disabled":false,"rental_uris":{"android":"levelo://app?vid=5e2d97fb-30eb-47f9-9fb3-b04ea853910f","ios":"levelo://app?vid=5e2d97fb-30eb-47f9-9fb3-b04ea853910f"},"vehicle_type_id":"4","last_reported":1732777803,"current_range_meters":32000,"station_id":"ce4bgv92rcd13ifvqcq0","pricing_plan_id":"cebpf4jnsgd1na2vs0mg"},{"bike_id":"1496720f-bb69-4a79-9257-8b2184f901d0","system_id":"levelo_inurba_marseille","lat":43.33759,"lon":5.37451,"is_reserved":false,"is_disabled":false,"rental_uris":{"android":"levelo://app?vid=1496720f-bb69-4a79-9257-8b2184f901d0","ios":"levelo://app?vid=1496720f-bb69-4a79-9257-8b2184f901d0"},"vehicle_type_id":"4","last_reported":1732777803,"current_range_meters":33600,"station_id":"","pricing_plan_id":"cebpf4jnsgd1na2vs0mg"},{"bike_id":"2f29f219-a05c-4a04-aa6a-a947ee87068c","system_id":"levelo_inurba_marseille","lat":43.28157,"lon":5.42649,"is_reserved":false,"is_disabled":false,"rental_uris":{"android":"levelo://app?vid=2f29f219-a05c-4a04-aa6a-a947ee87068c","ios":"levelo://app?vid=2f29f219-a05c-4a04-aa6a-a947ee87068c"},"vehicle_type_id":"4","last_reported":1732777803,"current_range_meters":28800,"station_id":"ce4bhnh2rcd13ifvqgug","pricing_plan_id":"cebpf4jnsgd1na2vs0mg"},{"bike_id":"befd70af-0170-4a22-9cf7-bc67e949484d","system_id":"levelo_inurba_marseille","lat":43.25823,"lon":5.39425,"is_reserved":false,"is_disabled":false,"rental_uris":{"android":"levelo://app?vid=befd70af-0170-4a22-9cf7-bc67e949484d","ios":"levelo://app?vid=befd70af-0170-4a22-9cf7-bc67e949484d"},"vehicle_type_id":"4","last_reported":1732777803,"current_range_meters":3200,"station_id":"ce4bhip2rcd13ifvqft0","pricing_plan_id":"cebpf4jnsgd1na2vs0mg"},{"bike_id":"d4f2b80e-deb0-4225-9b05-088e4ed4dd4b","system_id":"levelo_inurba_marseille","lat":43.30315,"lon":5.3691,"is_reserved":false,"is_disabled":true,"rental_uris":{"android":"levelo://app?vid=d4f2b80e-deb0-4225-9b05-088e4ed4dd4b","ios":"levelo://app?vid=d4f2b80e-deb0-4225-9b05-088e4ed4dd4b"},"vehicle_type_id":"4","last_reported":1732777803,"current_range_meters":0,"station_id":"ce4bgqh2rcd13ifvqc5g","pricing_plan_id":"cebpf4jnsgd1na2vs0mg"},{"bike_id":"bc1241e3-23c1-42d8-90b0-760c9661ffda","system_id":"levelo_inurba_marseille","lat":43.29607,"lon":5.38114,"is_reserved":false,"is_disabled":false,"rental_uris":{"android":"levelo://app?vid=bc1241e3-23c1-42d8-90b0-760c9661ffda","ios":"levelo://app?vid=bc1241e3-23c1-42d8-90b0-760c9661ffda"},"vehicle_type_id":"4","last_reported":1732777803,"current_range_meters":20000,"station_id":"ce4bgl12rcd13ifvqbo0","pricing_plan_id":"cebpf4jnsgd1na2vs0mg"},{"bike_id":"394222ca-330d-4796-8c52-f534acf24f05","system_id":"levelo_inurba_marseille","lat":43.276674,"lon":5.38915,"is_reserved":false,"is_disabled":true,"rental_uris":{"android":"levelo://app?vid=394222ca-330d-4796-8c52-f534acf24f05","ios":"levelo://app?vid=394222ca-330d-4796-8c52-f534acf24f05"},"vehicle_type_id":"4","last_reported":1732777803,"current_range_meters":37600,"station_id":"ce4bhi12rcd13ifvqfo0","pricing_plan_id":"cebpf4jnsgd1na2vs0mg"},{"bike_id":"1cd78e3c-eca2-430e-a00b-3450b52eb373","system_id":"levelo_inurba_marseille","lat":43.22931,"lon":5.35377,"is_reserved":false,"is_disabled":false,"rental_uris":{"android":"levelo://app?vid=1cd78e3c-eca2-430e-a00b-3450b52eb373","ios":"levelo://app?vid=1cd78e3c-eca2-430e-a00b-3450b52eb373"},"vehicle_type_id":"4","last_reported":1732777803,"current_range_meters":34000,"station_id":"cpo3532slgdg3j2ikp40","pricing_plan_id":"cebpf4jnsgd1na2vs0mg"},{"bike_id":"e8a8f6ce-56ed-4695-a217-49bcb5a1326f","system_id":"levelo_inurba_marseille","lat":43.31224,"lon":5.36863,"is_reserved":false,"is_disabled":false,"rental_uris":{"android":"levelo://app?vid=e8a8f6ce-56ed-4695-a217-49bcb5a1326f","ios":"levelo://app?vid=e8a8f6ce-56ed-4695-a217-49bcb5a1326f"},"vehicle_type_id":"4","last_reported":1732777803,"current_range_meters":21600,"station_id":"ce4bgl92rcd13ifvqbq0","pricing_plan_id":"cebpf4jnsgd1na2vs0mg"},{"bike_id":"681460a9-806c-471b-88e8-ce403c82f10b","system_id":"levelo_inurba_marseille","lat":43.30666,"lon":5.36862,"is_reserved":false,"is_disabled":true,"rental_uris":{"android":"levelo://app?vid=681460a9-806c-471b-88e8-ce403c82f10b","ios":"levelo://app?vid=681460a9-806c-471b-88e8-ce403c82f10b"},"vehicle_type_id":"4","last_reported":1732777803,"current_range_meters":0,"station_id":"","pricing_plan_id":"cebpf4jnsgd1na2vs0mg"},{"bike_id":"0f426cbd-962f-46b7-bb49-d5777658f32a","system_id":"levelo_inurba_marseille","lat":43.26059,"lon":5.39392,"is_reserved":false,"is_disabled":false,"rental_uris":{"android":"levelo://app?vid=0f426cbd-962f-46b7-bb49-d5777658f32a","ios":"levelo://app?vid=0f426cbd-962f-46b7-bb49-d5777658f32a"},"vehicle_type_id":"4","last_reported":1732777803,"current_range_meters":19200,"station_id":"ce4bhh92rcd13ifvqfj0","pricing_plan_id":"cebpf4jnsgd1na2vs0mg"},{"bike_id":"baa3c9af-c037-4b94-9f79-30b1ceb2f4ac","system_id":"levelo_inurba_marseille","lat":43.26814,"lon":5.39418,"is_reserved":false,"is_disabled":false,"rental_uris":{"android":"levelo://app?vid=baa3c9af-c037-4b94-9f79-30b1ceb2f4ac","ios":"levelo://app?vid=baa3c9af-c037-4b94-9f79-30b1ceb2f4ac"},"vehicle_type_id":"4","last_reported":1732777803,"current_range_meters":30000,"station_id":"ce4bhh12rcd13ifvqfg0","pricing_plan_id":"cebpf4jnsgd1na2vs0mg"},{"bike_id":"2f5927f7-79a8-4476-b1e2-092f397ae365","system_id":"levelo_inurba_marseille","lat":43.29791,"lon":5.38113,"is_reserved":false,"is_disabled":false,"rental_uris":{"android":"levelo://app?vid=2f5927f7-79a8-4476-b1e2-092f397ae365","ios":"levelo://app?vid=2f5927f7-79a8-4476-b1e2-092f397ae365"},"vehicle_type_id":"4","last_reported":1732777803,"current_range_meters":34800,"station_id":"ce4bgip2rcd13ifvqbb0","pricing_plan_id":"cebpf4jnsgd1na2vs0mg"},{"bike_id":"329328b9-28dc-4671-b522-b70b660bb15d","system_id":"levelo_inurba_marseille","lat":43.30466,"lon":5.37909,"is_reserved":false,"is_disabled":false,"rental_uris":{"android":"levelo://app?vid=329328b9-28dc-4671-b522-b70b660bb15d","ios":"levelo://app?vid=329328b9-28dc-4671-b522-b70b660bb15d"},"vehicle_type_id":"4","last_reported":1732777803,"current_range_meters":36800,"station_id":"ce4bgup2rcd13ifvqcn0","pricing_plan_id":"cebpf4jnsgd1na2vs0mg"},{"bike_id":"5af64eb5-3095-4105-9522-56132c5f754b","system_id":"levelo_inurba_marseille","lat":43.30167,"lon":5.38087,"is_reserved":false,"is_disabled":false,"rental_uris":{"android":"levelo://app?vid=5af64eb5-3095-4105-9522-56132c5f754b","ios":"levelo://app?vid=5af64eb5-3095-4105-9522-56132c5f754b"},"vehicle_type_id":"4","last_reported":1732777803,"current_range_meters":2800,"station_id":"ce4bgjp2rcd13ifvqbh0","pricing_plan_id":"cebpf4jnsgd1na2vs0mg"},{"bike_id":"146859be-050c-4fa7-9473-10d8176aeefd","system_id":"levelo_inurba_marseille","lat":43.25935,"lon":5.40898,"is_reserved":false,"is_disabled":false,"rental_uris":{"android":"levelo://app?vid=146859be-050c-4fa7-9473-10d8176aeefd","ios":"levelo://app?vid=146859be-050c-4fa7-9473-10d8176aeefd"},"vehicle_type_id":"4","last_reported":1732777803,"current_range_meters":28000,"station_id":"ce4bhm92rcd13ifvqglg","pricing_plan_id":"cebpf4jnsgd1na2vs0mg"},{"bike_id":"0dddc530-e70a-4819-8033-d86c08a2877a","system_id":"levelo_inurba_marseille","lat":43.29805,"lon":5.38098,"is_reserved":false,"is_disabled":false,"rental_uris":{"android":"levelo://app?vid=0dddc530-e70a-4819-8033-d86c08a2877a","ios":"levelo://app?vid=0dddc530-e70a-4819-8033-d86c08a2877a"},"vehicle_type_id":"4","last_reported":1732777803,"current_range_meters":38800,"station_id":"ce4bgip2rcd13ifvqbb0","pricing_plan_id":"cebpf4jnsgd1na2vs0mg"},{"bike_id":"ef7faf07-a670-4e15-b564-bded5c7ce834","system_id":"levelo_inurba_marseille","lat":43.3236,"lon":5.36758,"is_reserved":false,"is_disabled":false,"rental_uris":{"android":"levelo://app?vid=ef7faf07-a670-4e15-b564-bded5c7ce834","ios":"levelo://app?vid=ef7faf07-a670-4e15-b564-bded5c7ce834"},"vehicle_type_id":"4","last_reported":1732777803,"current_range_meters":37600,"station_id":"ce4bhsh2rcd13ifvqi2g","pricing_plan_id":"cebpf4jnsgd1na2vs0mg"},{"bike_id":"a4a44eea-7afa-4c63-a662-beba7965732a","system_id":"levelo_inurba_marseille","lat":43.29618,"lon":5.37147,"is_reserved":false,"is_disabled":true,"rental_uris":{"android":"levelo://app?vid=a4a44eea-7afa-4c63-a662-beba7965732a","ios":"levelo://app?vid=a4a44eea-7afa-4c63-a662-beba7965732a"},"vehicle_type_id":"4","last_reported":1732777803,"current_range_meters":800,"station_id":"ce4bgnh2rcd13ifvqc0g","pricing_plan_id":"cebpf4jnsgd1na2vs0mg"},{"bike_id":"3d09f206-225d-4ef6-835a-a8c04f4350e8","system_id":"levelo_inurba_marseille","lat":43.287513,"lon":5.376483,"is_reserved":false,"is_disabled":false,"rental_uris":{"android":"levelo://app?vid=3d09f206-225d-4ef6-835a-a8c04f4350e8","ios":"levelo://app?vid=3d09f206-225d-4ef6-835a-a8c04f4350e8"},"vehicle_type_id":"4","last_reported":1732777803,"current_range_meters":33200,"station_id":"","pricing_plan_id":"cebpf4jnsgd1na2vs0mg"},{"bike_id":"7acf64e6-102c-4b24-bfca-4cd2f2ab9f83","system_id":"levelo_inurba_marseille","lat":43.3056,"lon":5.36511,"is_reserved":false,"is_disabled":true,"rental_uris":{"android":"levelo://app?vid=7acf64e6-102c-4b24-bfca-4cd2f2ab9f83","ios":"levelo://app?vid=7acf64e6-102c-4b24-bfca-4cd2f2ab9f83"},"vehicle_type_id":"4","last_reported":1732777803,"current_range_meters":0,"station_id":"ce4bgs12rcd13ifvqcag","pricing_plan_id":"cebpf4jnsgd1na2vs0mg"},{"bike_id":"2e95a691-d7d8-426b-8dba-47b6b56c6a41","system_id":"levelo_inurba_marseille","lat":43.28151,"lon":5.42641,"is_reserved":false,"is_disabled":true,"rental_uris":{"android":"levelo://app?vid=2e95a691-d7d8-426b-8dba-47b6b56c6a41","ios":"levelo://app?vid=2e95a691-d7d8-426b-8dba-47b6b56c6a41"},"vehicle_type_id":"4","last_reported":1732777803,"current_range_meters":2800,"station_id":"ce4bhnh2rcd13ifvqgug","pricing_plan_id":"cebpf4jnsgd1na2vs0mg"},{"bike_id":"aa262170-281b-4556-817d-784dc19f9c9b","system_id":"levelo_inurba_marseille","lat":43.32468,"lon":5.36581,"is_reserved":false,"is_disabled":false,"rental_uris":{"android":"levelo://app?vid=aa262170-281b-4556-817d-784dc19f9c9b","ios":"levelo://app?vid=aa262170-281b-4556-817d-784dc19f9c9b"},"vehicle_type_id":"4","last_reported":1732777803,"current_range_meters":38800,"station_id":"ce4bhs12rcd13ifvqhvg","pricing_plan_id":"cebpf4jnsgd1na2vs0mg"},{"bike_id":"243cfea6-40a1-4cc0-acec-a4602a7df6e6","system_id":"levelo_inurba_marseille","lat":43.30595,"lon":5.3936,"is_reserved":false,"is_disabled":false,"rental_uris":{"android":"levelo://app?vid=243cfea6-40a1-4cc0-acec-a4602a7df6e6","ios":"levelo://app?vid=243cfea6-40a1-4cc0-acec-a4602a7df6e6"},"vehicle_type_id":"4","last_reported":1732777803,"current_range_meters":6400,"station_id":"ce4bh0p2rcd13ifvqd80","pricing_plan_id":"cebpf4jnsgd1na2vs0mg"},{"bike_id":"48a97e07-bd1e-4284-a0a9-41ce086ce527","system_id":"levelo_inurba_marseille","lat":43.23191,"lon":5.39978,"is_reserved":false,"is_disabled":false,"rental_uris":{"android":"levelo://app?vid=48a97e07-bd1e-4284-a0a9-41ce086ce527","ios":"levelo://app?vid=48a97e07-bd1e-4284-a0a9-41ce086ce527"},"vehicle_type_id":"4","last_reported":1732777803,"current_range_meters":38800,"station_id":"ce4bhn12rcd13ifvqgqg","pricing_plan_id":"cebpf4jnsgd1na2vs0mg"},{"bike_id":"c6a4723d-b548-4a1e-b6fb-0c1fedf5cf11","system_id":"levelo_inurba_marseille","lat":43.295105,"lon":5.394065,"is_reserved":false,"is_disabled":false,"rental_uris":{"android":"levelo://app?vid=c6a4723d-b548-4a1e-b6fb-0c1fedf5cf11","ios":"levelo://app?vid=c6a4723d-b548-4a1e-b6fb-0c1fedf5cf11"},"vehicle_type_id":"4","last_reported":1732777803,"current_range_meters":25200,"station_id":"ce4bh292rcd13ifvqdf0","pricing_plan_id":"cebpf4jnsgd1na2vs0mg"},{"bike_id":"8fafd22e-e92a-46d4-b6d4-05e1b926875e","system_id":"levelo_inurba_marseille","lat":43.30145,"lon":5.3808,"is_reserved":false,"is_disabled":true,"rental_uris":{"android":"levelo://app?vid=8fafd22e-e92a-46d4-b6d4-05e1b926875e","ios":"levelo://app?vid=8fafd22e-e92a-46d4-b6d4-05e1b926875e"},"vehicle_type_id":"4","last_reported":1732777803,"current_range_meters":1200,"station_id":"ce4bgjp2rcd13ifvqbh0","pricing_plan_id":"cebpf4jnsgd1na2vs0mg"},{"bike_id":"858b65e1-94fc-4151-a71e-8b168cb19dcb","system_id":"levelo_inurba_marseille","lat":43.32249,"lon":5.39241,"is_reserved":false,"is_disabled":true,"rental_uris":{"android":"levelo://app?vid=858b65e1-94fc-4151-a71e-8b168cb19dcb","ios":"levelo://app?vid=858b65e1-94fc-4151-a71e-8b168cb19dcb"},"vehicle_type_id":"4","last_reported":1732777803,"current_range_meters":0,"station_id":"","pricing_plan_id":"cebpf4jnsgd1na2vs0mg"},{"bike_id":"01b93923-340e-49e1-bd86-d2463565502f","system_id":"levelo_inurba_marseille","lat":43.293223,"lon":5.385669,"is_reserved":false,"is_disabled":true,"rental_uris":{"android":"levelo://app?vid=01b93923-340e-49e1-bd86-d2463565502f","ios":"levelo://app?vid=01b93923-340e-49e1-bd86-d2463565502f"},"vehicle_type_id":"4","last_reported":1732777803,"current_range_meters":0,"station_id":"","pricing_plan_id":"cebpf4jnsgd1na2vs0mg"},{"bike_id":"e51b2acb-d883-446b-9ce9-347608453ece","system_id":"levelo_inurba_marseille","lat":43.22928,"lon":5.35375,"is_reserved":false,"is_disabled":false,"rental_uris":{"android":"levelo://app?vid=e51b2acb-d883-446b-9ce9-347608453ece","ios":"levelo://app?vid=e51b2acb-d883-446b-9ce9-347608453ece"},"vehicle_type_id":"4","last_reported":1732777803,"current_range_meters":33200,"station_id":"cpo3532slgdg3j2ikp40","pricing_plan_id":"cebpf4jnsgd1na2vs0mg"},{"bike_id":"29a108d2-9f7c-4c19-997e-d2c124f3f93b","system_id":"levelo_inurba_marseille","lat":43.27508,"lon":5.42449,"is_reserved":false,"is_disabled":false,"rental_uris":{"android":"levelo://app?vid=29a108d2-9f7c-4c19-997e-d2c124f3f93b","ios":"levelo://app?vid=29a108d2-9f7c-4c19-997e-d2c124f3f93b"},"vehicle_type_id":"4","last_reported":1732777803,"current_range_meters":12000,"station_id":"ce4bhn92rcd13ifvqgrg","pricing_plan_id":"cebpf4jnsgd1na2vs0mg"},{"bike_id":"54d92e45-0c73-4cef-bfa3-0fc84870e3ef","system_id":"levelo_inurba_marseille","lat":43.259341,"lon":5.408984,"is_reserved":false,"is_disabled":false,"rental_uris":{"android":"levelo://app?vid=54d92e45-0c73-4cef-bfa3-0fc84870e3ef","ios":"levelo://app?vid=54d92e45-0c73-4cef-bfa3-0fc84870e3ef"},"vehicle_type_id":"4","last_reported":1732777803,"current_range_meters":14400,"station_id":"ce4bhm92rcd13ifvqglg","pricing_plan_id":"cebpf4jnsgd1na2vs0mg"},{"bike_id":"6a4001d6-d444-4013-81f0-795a143d0522","system_id":"levelo_inurba_marseille","lat":43.30188,"lon":5.38722,"is_reserved":false,"is_disabled":true,"rental_uris":{"android":"levelo://app?vid=6a4001d6-d444-4013-81f0-795a143d0522","ios":"levelo://app?vid=6a4001d6-d444-4013-81f0-795a143d0522"},"vehicle_type_id":"4","last_reported":1732777803,"current_range_meters":29600,"station_id":"","pricing_plan_id":"cebpf4jnsgd1na2vs0mg"},{"bike_id":"e373e300-3f80-495a-b61d-a82da3813b64","system_id":"levelo_inurba_marseille","lat":43.29908,"lon":5.38147,"is_reserved":false,"is_disabled":false,"rental_uris":{"android":"levelo://app?vid=e373e300-3f80-495a-b61d-a82da3813b64","ios":"levelo://app?vid=e373e300-3f80-495a-b61d-a82da3813b64"},"vehicle_type_id":"4","last_reported":1732777803,"current_range_meters":25600,"station_id":"ce4bgj12rcd13ifvqbc0","pricing_plan_id":"cebpf4jnsgd1na2vs0mg"},{"bike_id":"432e1d43-5d8a-4b04-a51e-e9a2066ccbb5","system_id":"levelo_inurba_marseille","lat":43.313262,"lon":5.39701,"is_reserved":false,"is_disabled":false,"rental_uris":{"android":"levelo://app?vid=432e1d43-5d8a-4b04-a51e-e9a2066ccbb5","ios":"levelo://app?vid=432e1d43-5d8a-4b04-a51e-e9a2066ccbb5"},"vehicle_type_id":"4","last_reported":1732777803,"current_range_meters":38800,"station_id":"ce4bgvp2rcd13ifvqcu0","pricing_plan_id":"cebpf4jnsgd1na2vs0mg"},{"bike_id":"f7f3756c-1ec7-4782-9c87-6273f87b6774","system_id":"levelo_inurba_marseille","lat":43.337444,"lon":5.374475,"is_reserved":false,"is_disabled":true,"rental_uris":{"android":"levelo://app?vid=f7f3756c-1ec7-4782-9c87-6273f87b6774","ios":"levelo://app?vid=f7f3756c-1ec7-4782-9c87-6273f87b6774"},"vehicle_type_id":"4","last_reported":1732777803,"current_range_meters":11600,"station_id":"","pricing_plan_id":"cebpf4jnsgd1na2vs0mg"},{"bike_id":"98e6547b-d826-4413-a8a5-f760ae410d11","system_id":"levelo_inurba_marseille","lat":43.273715,"lon":5.362587,"is_reserved":false,"is_disabled":false,"rental_uris":{"android":"levelo://app?vid=98e6547b-d826-4413-a8a5-f760ae410d11","ios":"levelo://app?vid=98e6547b-d826-4413-a8a5-f760ae410d11"},"vehicle_type_id":"4","last_reported":1732777803,"current_range_meters":36800,"station_id":"ce4bhbh2rcd13ifvqeo0","pricing_plan_id":"cebpf4jnsgd1na2vs0mg"},{"bike_id":"7a286568-8b4b-43af-9a5f-3006aa2225fe","system_id":"levelo_inurba_marseille","lat":43.31079,"lon":5.42429,"is_reserved":false,"is_disabled":false,"rental_uris":{"android":"levelo://app?vid=7a286568-8b4b-43af-9a5f-3006aa2225fe","ios":"levelo://app?vid=7a286568-8b4b-43af-9a5f-3006aa2225fe"},"vehicle_type_id":"4","last_reported":1732777803,"current_range_meters":33600,"station_id":"ce4bhp92rcd13ifvqhag","pricing_plan_id":"cebpf4jnsgd1na2vs0mg"},{"bike_id":"2013b140-55ac-44b0-a177-32290ca9c265","system_id":"levelo_inurba_marseille","lat":43.30209,"lon":5.39458,"is_reserved":false,"is_disabled":false,"rental_uris":{"android":"levelo://app?vid=2013b140-55ac-44b0-a177-32290ca9c265","ios":"levelo://app?vid=2013b140-55ac-44b0-a177-32290ca9c265"},"vehicle_type_id":"4","last_reported":1732777803,"current_range_meters":21600,"station_id":"ce4bh0p2rcd13ifvqd70","pricing_plan_id":"cebpf4jnsgd1na2vs0mg"},{"bike_id":"791bec6d-3c3b-4d18-8591-b9f656448fbd","system_id":"levelo_inurba_marseille","lat":43.32365,"lon":5.38878,"is_reserved":false,"is_disabled":false,"rental_uris":{"android":"levelo://app?vid=791bec6d-3c3b-4d18-8591-b9f656448fbd","ios":"levelo://app?vid=791bec6d-3c3b-4d18-8591-b9f656448fbd"},"vehicle_type_id":"4","last_reported":1732777803,"current_range_meters":24800,"station_id":"ce4bhqp2rcd13ifvqhog","pricing_plan_id":"cebpf4jnsgd1na2vs0mg"},{"bike_id":"95ff0f2c-8099-4345-aa70-5021365af9b9","system_id":"levelo_inurba_marseille","lat":43.3148,"lon":5.37304,"is_reserved":false,"is_disabled":false,"rental_uris":{"android":"levelo://app?vid=95ff0f2c-8099-4345-aa70-5021365af9b9","ios":"levelo://app?vid=95ff0f2c-8099-4345-aa70-5021365af9b9"},"vehicle_type_id":"4","last_reported":1732777803,"current_range_meters":14000,"station_id":"ce4bgt12rcd13ifvqcd0","pricing_plan_id":"cebpf4jnsgd1na2vs0mg"},{"bike_id":"51911d07-4e00-461e-927c-1e2f6553d26b","system_id":"levelo_inurba_marseille","lat":43.30475,"lon":5.37903,"is_reserved":false,"is_disabled":false,"rental_uris":{"android":"levelo://app?vid=51911d07-4e00-461e-927c-1e2f6553d26b","ios":"levelo://app?vid=51911d07-4e00-461e-927c-1e2f6553d26b"},"vehicle_type_id":"4","last_reported":1732777803,"current_range_meters":12000,"station_id":"ce4bgup2rcd13ifvqcn0","pricing_plan_id":"cebpf4jnsgd1na2vs0mg"},{"bike_id":"40153f7e-e943-44f9-9a5c-c9c0bbb9caee","system_id":"levelo_inurba_marseille","lat":43.27492,"lon":5.42453,"is_reserved":false,"is_disabled":false,"rental_uris":{"android":"levelo://app?vid=40153f7e-e943-44f9-9a5c-c9c0bbb9caee","ios":"levelo://app?vid=40153f7e-e943-44f9-9a5c-c9c0bbb9caee"},"vehicle_type_id":"4","last_reported":1732777803,"current_range_meters":19200,"station_id":"ce4bhn92rcd13ifvqgrg","pricing_plan_id":"cebpf4jnsgd1na2vs0mg"},{"bike_id":"0df074de-ff72-4331-8f1b-6a70795380ba","system_id":"levelo_inurba_marseille","lat":43.27831,"lon":5.3921,"is_reserved":false,"is_disabled":false,"rental_uris":{"android":"levelo://app?vid=0df074de-ff72-4331-8f1b-6a70795380ba","ios":"levelo://app?vid=0df074de-ff72-4331-8f1b-6a70795380ba"},"vehicle_type_id":"4","last_reported":1732777803,"current_range_meters":30000,"station_id":"ce4bhjp2rcd13ifvqga0","pricing_plan_id":"cebpf4jnsgd1na2vs0mg"},{"bike_id":"d81ff632-5c07-44b2-a105-65780652cef6","system_id":"levelo_inurba_marseille","lat":43.29035,"lon":5.39973,"is_reserved":false,"is_disabled":false,"rental_uris":{"android":"levelo://app?vid=d81ff632-5c07-44b2-a105-65780652cef6","ios":"levelo://app?vid=d81ff632-5c07-44b2-a105-65780652cef6"},"vehicle_type_id":"4","last_reported":1732777803,"current_range_meters":20400,"station_id":"ce4bh392rcd13ifvqdm0","pricing_plan_id":"cebpf4jnsgd1na2vs0mg"},{"bike_id":"a7d21e0b-9544-42dc-a0c6-5e884f578af9","system_id":"levelo_inurba_marseille","lat":43.24632,"lon":5.43504,"is_reserved":false,"is_disabled":true,"rental_uris":{"android":"levelo://app?vid=a7d21e0b-9544-42dc-a0c6-5e884f578af9","ios":"levelo://app?vid=a7d21e0b-9544-42dc-a0c6-5e884f578af9"},"vehicle_type_id":"4","last_reported":1732777803,"current_range_meters":0,"station_id":"","pricing_plan_id":"cebpf4jnsgd1na2vs0mg"},{"bike_id":"9ac766bd-5744-4402-b1ae-e2ac07e1ee27","system_id":"levelo_inurba_marseille","lat":43.290389,"lon":5.399539,"is_reserved":false,"is_disabled":false,"rental_uris":{"android":"levelo://app?vid=9ac766bd-5744-4402-b1ae-e2ac07e1ee27","ios":"levelo://app?vid=9ac766bd-5744-4402-b1ae-e2ac07e1ee27"},"vehicle_type_id":"4","last_reported":1732777803,"current_range_meters":38800,"station_id":"ce4bh392rcd13ifvqdm0","pricing_plan_id":"cebpf4jnsgd1na2vs0mg"},{"bike_id":"a5909545-3e09-4859-9fda-9ffe4e6e4883","system_id":"levelo_inurba_marseille","lat":43.23067,"lon":5.35489,"is_reserved":false,"is_disabled":false,"rental_uris":{"android":"levelo://app?vid=a5909545-3e09-4859-9fda-9ffe4e6e4883","ios":"levelo://app?vid=a5909545-3e09-4859-9fda-9ffe4e6e4883"},"vehicle_type_id":"4","last_reported":1732777803,"current_range_meters":24400,"station_id":"cpo3342slgdg3j2ifvpg","pricing_plan_id":"cebpf4jnsgd1na2vs0mg"},{"bike_id":"a3d6900d-bcd4-41c7-b57a-dd5f0e2f4e17","system_id":"levelo_inurba_marseille","lat":43.26566,"lon":5.39022,"is_reserved":false,"is_disabled":false,"rental_uris":{"android":"levelo://app?vid=a3d6900d-bcd4-41c7-b57a-dd5f0e2f4e17","ios":"levelo://app?vid=a3d6900d-bcd4-41c7-b57a-dd5f0e2f4e17"},"vehicle_type_id":"4","last_reported":1732777803,"current_range_meters":27200,"station_id":"ce4bhe12rcd13ifvqf30","pricing_plan_id":"cebpf4jnsgd1na2vs0mg"},{"bike_id":"c125dd6f-3ad5-427c-a31b-f983259d1b39","system_id":"levelo_inurba_marseille","lat":43.33721,"lon":5.39182,"is_reserved":false,"is_disabled":false,"rental_uris":{"android":"levelo://app?vid=c125dd6f-3ad5-427c-a31b-f983259d1b39","ios":"levelo://app?vid=c125dd6f-3ad5-427c-a31b-f983259d1b39"},"vehicle_type_id":"4","last_reported":1732777803,"current_range_meters":38800,"station_id":"ce4bhr92rcd13ifvqhsg","pricing_plan_id":"cebpf4jnsgd1na2vs0mg"},{"bike_id":"636c38c7-b57f-44ef-879f-37f296bc8e0a","system_id":"levelo_inurba_marseille","lat":43.320906,"lon":5.367795,"is_reserved":false,"is_disabled":false,"rental_uris":{"android":"levelo://app?vid=636c38c7-b57f-44ef-879f-37f296bc8e0a","ios":"levelo://app?vid=636c38c7-b57f-44ef-879f-37f296bc8e0a"},"vehicle_type_id":"4","last_reported":1732777803,"current_range_meters":20400,"station_id":"ce4bhrh2rcd13ifvqhug","pricing_plan_id":"cebpf4jnsgd1na2vs0mg"},{"bike_id":"fd5a7c51-c856-4f9f-8523-5a1da995905e","system_id":"levelo_inurba_marseille","lat":43.30466,"lon":5.37907,"is_reserved":false,"is_disabled":false,"rental_uris":{"android":"levelo://app?vid=fd5a7c51-c856-4f9f-8523-5a1da995905e","ios":"levelo://app?vid=fd5a7c51-c856-4f9f-8523-5a1da995905e"},"vehicle_type_id":"4","last_reported":1732777803,"current_range_meters":22800,"station_id":"ce4bgup2rcd13ifvqcn0","pricing_plan_id":"cebpf4jnsgd1na2vs0mg"},{"bike_id":"180fc64f-9e71-41d9-8429-bb3416744e00","system_id":"levelo_inurba_marseille","lat":43.23188,"lon":5.3998,"is_reserved":false,"is_disabled":false,"rental_uris":{"android":"levelo://app?vid=180fc64f-9e71-41d9-8429-bb3416744e00","ios":"levelo://app?vid=180fc64f-9e71-41d9-8429-bb3416744e00"},"vehicle_type_id":"4","last_reported":1732777803,"current_range_meters":9200,"station_id":"ce4bhn12rcd13ifvqgqg","pricing_plan_id":"cebpf4jnsgd1na2vs0mg"},{"bike_id":"ae934905-edbe-426a-b615-778d21c28ba5","system_id":"levelo_inurba_marseille","lat":43.31343,"lon":5.36725,"is_reserved":false,"is_disabled":false,"rental_uris":{"android":"levelo://app?vid=ae934905-edbe-426a-b615-778d21c28ba5","ios":"levelo://app?vid=ae934905-edbe-426a-b615-778d21c28ba5"},"vehicle_type_id":"4","last_reported":1732777803,"current_range_meters":32400,"station_id":"ce4bgr92rcd13ifvqc6g","pricing_plan_id":"cebpf4jnsgd1na2vs0mg"},{"bike_id":"e5951ee3-4a5a-4ebb-b469-096c5188dfa3","system_id":"levelo_inurba_marseille","lat":43.23214,"lon":5.35574,"is_reserved":false,"is_disabled":false,"rental_uris":{"android":"levelo://app?vid=e5951ee3-4a5a-4ebb-b469-096c5188dfa3","ios":"levelo://app?vid=e5951ee3-4a5a-4ebb-b469-096c5188dfa3"},"vehicle_type_id":"4","last_reported":1732777803,"current_range_meters":28400,"station_id":"ce4bhu92rcd13ifvqi70","pricing_plan_id":"cebpf4jnsgd1na2vs0mg"},{"bike_id":"551079ac-62f6-4029-9579-63ffc464325f","system_id":"levelo_inurba_marseille","lat":43.23225,"lon":5.35543,"is_reserved":false,"is_disabled":false,"rental_uris":{"android":"levelo://app?vid=551079ac-62f6-4029-9579-63ffc464325f","ios":"levelo://app?vid=551079ac-62f6-4029-9579-63ffc464325f"},"vehicle_type_id":"4","last_reported":1732777803,"current_range_meters":38800,"station_id":"ce4bhu92rcd13ifvqi70","pricing_plan_id":"cebpf4jnsgd1na2vs0mg"},{"bike_id":"4e18c4fb-3f9e-4b62-bbf8-dbda40a4052a","system_id":"levelo_inurba_marseille","lat":43.29019,"lon":5.38116,"is_reserved":false,"is_disabled":false,"rental_uris":{"android":"levelo://app?vid=4e18c4fb-3f9e-4b62-bbf8-dbda40a4052a","ios":"levelo://app?vid=4e18c4fb-3f9e-4b62-bbf8-dbda40a4052a"},"vehicle_type_id":"4","last_reported":1732777803,"current_range_meters":38800,"station_id":"ce4bh4p2rcd13ifvqe1g","pricing_plan_id":"cebpf4jnsgd1na2vs0mg"},{"bike_id":"6c948e9c-d5b3-4fe5-a918-1bd2f7c83b02","system_id":"levelo_inurba_marseille","lat":43.32111,"lon":5.36782,"is_reserved":false,"is_disabled":false,"rental_uris":{"android":"levelo://app?vid=6c948e9c-d5b3-4fe5-a918-1bd2f7c83b02","ios":"levelo://app?vid=6c948e9c-d5b3-4fe5-a918-1bd2f7c83b02"},"vehicle_type_id":"4","last_reported":1732777803,"current_range_meters":8800,"station_id":"ce4bhrh2rcd13ifvqhug","pricing_plan_id":"cebpf4jnsgd1na2vs0mg"},{"bike_id":"eb6d1fc3-1e4c-45f6-8da3-b997e84ded88","system_id":"levelo_inurba_marseille","lat":43.313568,"lon":5.385044,"is_reserved":false,"is_disabled":false,"rental_uris":{"android":"levelo://app?vid=eb6d1fc3-1e4c-45f6-8da3-b997e84ded88","ios":"levelo://app?vid=eb6d1fc3-1e4c-45f6-8da3-b997e84ded88"},"vehicle_type_id":"4","last_reported":1732777803,"current_range_meters":36800,"station_id":"ce4bgt92rcd13ifvqcf0","pricing_plan_id":"cebpf4jnsgd1na2vs0mg"},{"bike_id":"6b25304f-521e-415b-9d99-a6421be0cff8","system_id":"levelo_inurba_marseille","lat":43.27071,"lon":5.42279,"is_reserved":false,"is_disabled":false,"rental_uris":{"android":"levelo://app?vid=6b25304f-521e-415b-9d99-a6421be0cff8","ios":"levelo://app?vid=6b25304f-521e-415b-9d99-a6421be0cff8"},"vehicle_type_id":"4","last_reported":1732777803,"current_range_meters":8400,"station_id":"ce4bhk92rcd13ifvqgb0","pricing_plan_id":"cebpf4jnsgd1na2vs0mg"},{"bike_id":"a266235d-36a2-424d-b11a-6faa3aaa9904","system_id":"levelo_inurba_marseille","lat":43.25938,"lon":5.40905,"is_reserved":false,"is_disabled":false,"rental_uris":{"android":"levelo://app?vid=a266235d-36a2-424d-b11a-6faa3aaa9904","ios":"levelo://app?vid=a266235d-36a2-424d-b11a-6faa3aaa9904"},"vehicle_type_id":"4","last_reported":1732777803,"current_range_meters":20400,"station_id":"ce4bhm92rcd13ifvqglg","pricing_plan_id":"cebpf4jnsgd1na2vs0mg"},{"bike_id":"e5a2aa86-a214-44f1-a6db-bab7850d4c65","system_id":"levelo_inurba_marseille","lat":43.26082,"lon":5.39416,"is_reserved":false,"is_disabled":false,"rental_uris":{"android":"levelo://app?vid=e5a2aa86-a214-44f1-a6db-bab7850d4c65","ios":"levelo://app?vid=e5a2aa86-a214-44f1-a6db-bab7850d4c65"},"vehicle_type_id":"4","last_reported":1732777803,"current_range_meters":28000,"station_id":"ce4bhh92rcd13ifvqfj0","pricing_plan_id":"cebpf4jnsgd1na2vs0mg"},{"bike_id":"f2df84ff-c1e4-4225-917b-de999e293ce1","system_id":"levelo_inurba_marseille","lat":43.29737,"lon":5.371504,"is_reserved":false,"is_disabled":false,"rental_uris":{"android":"levelo://app?vid=f2df84ff-c1e4-4225-917b-de999e293ce1","ios":"levelo://app?vid=f2df84ff-c1e4-4225-917b-de999e293ce1"},"vehicle_type_id":"4","last_reported":1732777803,"current_range_meters":28000,"station_id":"ce4bgop2rcd13ifvqc1g","pricing_plan_id":"cebpf4jnsgd1na2vs0mg"},{"bike_id":"e7bccb47-6043-440b-a68c-c5a522415552","system_id":"levelo_inurba_marseille","lat":43.29025,"lon":5.38127,"is_reserved":false,"is_disabled":false,"rental_uris":{"android":"levelo://app?vid=e7bccb47-6043-440b-a68c-c5a522415552","ios":"levelo://app?vid=e7bccb47-6043-440b-a68c-c5a522415552"},"vehicle_type_id":"4","last_reported":1732777803,"current_range_meters":38000,"station_id":"ce4bh4p2rcd13ifvqe1g","pricing_plan_id":"cebpf4jnsgd1na2vs0mg"},{"bike_id":"bfa7c1a2-f54e-402a-a2db-4de6455ffddf","system_id":"levelo_inurba_marseille","lat":43.32483,"lon":5.36561,"is_reserved":false,"is_disabled":false,"rental_uris":{"android":"levelo://app?vid=bfa7c1a2-f54e-402a-a2db-4de6455ffddf","ios":"levelo://app?vid=bfa7c1a2-f54e-402a-a2db-4de6455ffddf"},"vehicle_type_id":"4","last_reported":1732777803,"current_range_meters":9200,"station_id":"ce4bhs12rcd13ifvqhvg","pricing_plan_id":"cebpf4jnsgd1na2vs0mg"},{"bike_id":"43624d19-123a-482a-b913-3e8d37a49b6e","system_id":"levelo_inurba_marseille","lat":43.269445,"lon":5.402672,"is_reserved":false,"is_disabled":true,"rental_uris":{"android":"levelo://app?vid=43624d19-123a-482a-b913-3e8d37a49b6e","ios":"levelo://app?vid=43624d19-123a-482a-b913-3e8d37a49b6e"},"vehicle_type_id":"4","last_reported":1732777803,"current_range_meters":0,"station_id":"","pricing_plan_id":"cebpf4jnsgd1na2vs0mg"},{"bike_id":"68537b1a-8c76-4d6a-85cc-8b06c35ed534","system_id":"levelo_inurba_marseille","lat":43.30254,"lon":5.40082,"is_reserved":false,"is_disabled":false,"rental_uris":{"android":"levelo://app?vid=68537b1a-8c76-4d6a-85cc-8b06c35ed534","ios":"levelo://app?vid=68537b1a-8c76-4d6a-85cc-8b06c35ed534"},"vehicle_type_id":"4","last_reported":1732777803,"current_range_meters":11600,"station_id":"","pricing_plan_id":"cebpf4jnsgd1na2vs0mg"},{"bike_id":"c32aafd8-8905-4559-a1d0-f74aa7efcf0e","system_id":"levelo_inurba_marseille","lat":43.338,"lon":5.37474,"is_reserved":false,"is_disabled":false,"rental_uris":{"android":"levelo://app?vid=c32aafd8-8905-4559-a1d0-f74aa7efcf0e","ios":"levelo://app?vid=c32aafd8-8905-4559-a1d0-f74aa7efcf0e"},"vehicle_type_id":"4","last_reported":1732777803,"current_range_meters":38800,"station_id":"","pricing_plan_id":"cebpf4jnsgd1na2vs0mg"},{"bike_id":"110511e7-d418-46d7-a5e9-c916da14f3dc","system_id":"levelo_inurba_marseille","lat":43.30879,"lon":5.37802,"is_reserved":false,"is_disabled":false,"rental_uris":{"android":"levelo://app?vid=110511e7-d418-46d7-a5e9-c916da14f3dc","ios":"levelo://app?vid=110511e7-d418-46d7-a5e9-c916da14f3dc"},"vehicle_type_id":"4","last_reported":1732777803,"current_range_meters":20400,"station_id":"","pricing_plan_id":"cebpf4jnsgd1na2vs0mg"},{"bike_id":"f1d4a92f-1be8-4b1d-9eae-4dd0769cd87e","system_id":"levelo_inurba_marseille","lat":43.28851,"lon":5.35853,"is_reserved":false,"is_disabled":false,"rental_uris":{"android":"levelo://app?vid=f1d4a92f-1be8-4b1d-9eae-4dd0769cd87e","ios":"levelo://app?vid=f1d4a92f-1be8-4b1d-9eae-4dd0769cd87e"},"vehicle_type_id":"4","last_reported":1732777803,"current_range_meters":38800,"station_id":"ce4bhb12rcd13ifvqem0","pricing_plan_id":"cebpf4jnsgd1na2vs0mg"},{"bike_id":"b0532d77-a652-43de-8ae1-079cd29bfc13","system_id":"levelo_inurba_marseille","lat":43.32362,"lon":5.38877,"is_reserved":false,"is_disabled":false,"rental_uris":{"android":"levelo://app?vid=b0532d77-a652-43de-8ae1-079cd29bfc13","ios":"levelo://app?vid=b0532d77-a652-43de-8ae1-079cd29bfc13"},"vehicle_type_id":"4","last_reported":1732777803,"current_range_meters":16000,"station_id":"ce4bhqp2rcd13ifvqhog","pricing_plan_id":"cebpf4jnsgd1na2vs0mg"},{"bike_id":"43746d86-8a13-4845-9faf-ae69b548d714","system_id":"levelo_inurba_marseille","lat":43.29459,"lon":5.37917,"is_reserved":false,"is_disabled":true,"rental_uris":{"android":"levelo://app?vid=43746d86-8a13-4845-9faf-ae69b548d714","ios":"levelo://app?vid=43746d86-8a13-4845-9faf-ae69b548d714"},"vehicle_type_id":"4","last_reported":1732777803,"current_range_meters":0,"station_id":"","pricing_plan_id":"cebpf4jnsgd1na2vs0mg"},{"bike_id":"0a20d759-3e9d-40a4-885e-1827fa98ede6","system_id":"levelo_inurba_marseille","lat":43.25121,"lon":5.4032,"is_reserved":false,"is_disabled":false,"rental_uris":{"android":"levelo://app?vid=0a20d759-3e9d-40a4-885e-1827fa98ede6","ios":"levelo://app?vid=0a20d759-3e9d-40a4-885e-1827fa98ede6"},"vehicle_type_id":"4","last_reported":1732777803,"current_range_meters":27200,"station_id":"ce4bhlh2rcd13ifvqgig","pricing_plan_id":"cebpf4jnsgd1na2vs0mg"},{"bike_id":"d4d3bf99-3d6b-4c0b-a6cc-c388edb0382f","system_id":"levelo_inurba_marseille","lat":43.27495,"lon":5.42453,"is_reserved":false,"is_disabled":false,"rental_uris":{"android":"levelo://app?vid=d4d3bf99-3d6b-4c0b-a6cc-c388edb0382f","ios":"levelo://app?vid=d4d3bf99-3d6b-4c0b-a6cc-c388edb0382f"},"vehicle_type_id":"4","last_reported":1732777803,"current_range_meters":20400,"station_id":"ce4bhn92rcd13ifvqgrg","pricing_plan_id":"cebpf4jnsgd1na2vs0mg"},{"bike_id":"df76b7bf-b879-4e94-9796-439ee296ef0a","system_id":"levelo_inurba_marseille","lat":43.2292,"lon":5.35366,"is_reserved":false,"is_disabled":false,"rental_uris":{"android":"levelo://app?vid=df76b7bf-b879-4e94-9796-439ee296ef0a","ios":"levelo://app?vid=df76b7bf-b879-4e94-9796-439ee296ef0a"},"vehicle_type_id":"4","last_reported":1732777803,"current_range_meters":33600,"station_id":"cpo3532slgdg3j2ikp40","pricing_plan_id":"cebpf4jnsgd1na2vs0mg"},{"bike_id":"206766ee-92c6-4c16-90ce-cc251e811fe8","system_id":"levelo_inurba_marseille","lat":43.24077,"lon":5.37757,"is_reserved":false,"is_disabled":false,"rental_uris":{"android":"levelo://app?vid=206766ee-92c6-4c16-90ce-cc251e811fe8","ios":"levelo://app?vid=206766ee-92c6-4c16-90ce-cc251e811fe8"},"vehicle_type_id":"4","last_reported":1732777803,"current_range_meters":25600,"station_id":"ce4bhnp2rcd13ifvqgvg","pricing_plan_id":"cebpf4jnsgd1na2vs0mg"},{"bike_id":"b7dcc646-cfc8-48df-80d3-593dce9d9038","system_id":"levelo_inurba_marseille","lat":43.32538,"lon":5.41428,"is_reserved":false,"is_disabled":false,"rental_uris":{"android":"levelo://app?vid=b7dcc646-cfc8-48df-80d3-593dce9d9038","ios":"levelo://app?vid=b7dcc646-cfc8-48df-80d3-593dce9d9038"},"vehicle_type_id":"4","last_reported":1732777803,"current_range_meters":28800,"station_id":"ce4bhq12rcd13ifvqhhg","pricing_plan_id":"cebpf4jnsgd1na2vs0mg"},{"bike_id":"e6166e0c-4eac-4df8-b666-1ab989a3a486","system_id":"levelo_inurba_marseille","lat":43.24545,"lon":5.39524,"is_reserved":false,"is_disabled":false,"rental_uris":{"android":"levelo://app?vid=e6166e0c-4eac-4df8-b666-1ab989a3a486","ios":"levelo://app?vid=e6166e0c-4eac-4df8-b666-1ab989a3a486"},"vehicle_type_id":"4","last_reported":1732777803,"current_range_meters":25200,"station_id":"ce4bhlp2rcd13ifvqgjg","pricing_plan_id":"cebpf4jnsgd1na2vs0mg"},{"bike_id":"ab23c5de-ac23-4b3f-8459-64b4cc367420","system_id":"levelo_inurba_marseille","lat":43.27375,"lon":5.36253,"is_reserved":false,"is_disabled":false,"rental_uris":{"android":"levelo://app?vid=ab23c5de-ac23-4b3f-8459-64b4cc367420","ios":"levelo://app?vid=ab23c5de-ac23-4b3f-8459-64b4cc367420"},"vehicle_type_id":"4","last_reported":1732777803,"current_range_meters":38800,"station_id":"ce4bhbh2rcd13ifvqeo0","pricing_plan_id":"cebpf4jnsgd1na2vs0mg"},{"bike_id":"7850b5a3-047b-4ac7-ba36-9800297e2ebc","system_id":"levelo_inurba_marseille","lat":43.27384,"lon":5.36257,"is_reserved":false,"is_disabled":false,"rental_uris":{"android":"levelo://app?vid=7850b5a3-047b-4ac7-ba36-9800297e2ebc","ios":"levelo://app?vid=7850b5a3-047b-4ac7-ba36-9800297e2ebc"},"vehicle_type_id":"4","last_reported":1732777803,"current_range_meters":27200,"station_id":"ce4bhbh2rcd13ifvqeo0","pricing_plan_id":"cebpf4jnsgd1na2vs0mg"},{"bike_id":"fd787e0e-ee68-4ea2-b587-7fa026d91719","system_id":"levelo_inurba_marseille","lat":43.26062,"lon":5.39396,"is_reserved":false,"is_disabled":false,"rental_uris":{"android":"levelo://app?vid=fd787e0e-ee68-4ea2-b587-7fa026d91719","ios":"levelo://app?vid=fd787e0e-ee68-4ea2-b587-7fa026d91719"},"vehicle_type_id":"4","last_reported":1732777803,"current_range_meters":7200,"station_id":"ce4bhh92rcd13ifvqfj0","pricing_plan_id":"cebpf4jnsgd1na2vs0mg"},{"bike_id":"c7c8eb9f-a72f-46cc-a7d7-36fb49eb8a83","system_id":"levelo_inurba_marseille","lat":43.337444,"lon":5.374475,"is_reserved":false,"is_disabled":true,"rental_uris":{"android":"levelo://app?vid=c7c8eb9f-a72f-46cc-a7d7-36fb49eb8a83","ios":"levelo://app?vid=c7c8eb9f-a72f-46cc-a7d7-36fb49eb8a83"},"vehicle_type_id":"4","last_reported":1732777803,"current_range_meters":0,"station_id":"","pricing_plan_id":"cebpf4jnsgd1na2vs0mg"},{"bike_id":"e9b3f265-24ac-4659-9639-4f1af07e0170","system_id":"levelo_inurba_marseille","lat":43.29605,"lon":5.38103,"is_reserved":false,"is_disabled":false,"rental_uris":{"android":"levelo://app?vid=e9b3f265-24ac-4659-9639-4f1af07e0170","ios":"levelo://app?vid=e9b3f265-24ac-4659-9639-4f1af07e0170"},"vehicle_type_id":"4","last_reported":1732777803,"current_range_meters":30000,"station_id":"ce4bgl12rcd13ifvqbo0","pricing_plan_id":"cebpf4jnsgd1na2vs0mg"},{"bike_id":"9b23f344-73bd-43ab-abe4-959978e3c65e","system_id":"levelo_inurba_marseille","lat":43.30156,"lon":5.38075,"is_reserved":false,"is_disabled":false,"rental_uris":{"android":"levelo://app?vid=9b23f344-73bd-43ab-abe4-959978e3c65e","ios":"levelo://app?vid=9b23f344-73bd-43ab-abe4-959978e3c65e"},"vehicle_type_id":"4","last_reported":1732777803,"current_range_meters":28400,"station_id":"ce4bgjp2rcd13ifvqbh0","pricing_plan_id":"cebpf4jnsgd1na2vs0mg"},{"bike_id":"438e7e1c-e3bd-4209-bd1b-594ba9359736","system_id":"levelo_inurba_marseille","lat":43.28374,"lon":5.38629,"is_reserved":false,"is_disabled":false,"rental_uris":{"android":"levelo://app?vid=438e7e1c-e3bd-4209-bd1b-594ba9359736","ios":"levelo://app?vid=438e7e1c-e3bd-4209-bd1b-594ba9359736"},"vehicle_type_id":"4","last_reported":1732777803,"current_range_meters":36000,"station_id":"ce4bh492rcd13ifvqdvg","pricing_plan_id":"cebpf4jnsgd1na2vs0mg"},{"bike_id":"7ec5c363-4e30-4fcb-a037-8419092f34af","system_id":"levelo_inurba_marseille","lat":43.27814,"lon":5.40712,"is_reserved":false,"is_disabled":false,"rental_uris":{"android":"levelo://app?vid=7ec5c363-4e30-4fcb-a037-8419092f34af","ios":"levelo://app?vid=7ec5c363-4e30-4fcb-a037-8419092f34af"},"vehicle_type_id":"4","last_reported":1732777803,"current_range_meters":12800,"station_id":"ce4bhnh2rcd13ifvqgtg","pricing_plan_id":"cebpf4jnsgd1na2vs0mg"},{"bike_id":"f63adcdc-7762-465d-90eb-d1a63676c13e","system_id":"levelo_inurba_marseille","lat":43.24077,"lon":5.37754,"is_reserved":false,"is_disabled":false,"rental_uris":{"android":"levelo://app?vid=f63adcdc-7762-465d-90eb-d1a63676c13e","ios":"levelo://app?vid=f63adcdc-7762-465d-90eb-d1a63676c13e"},"vehicle_type_id":"4","last_reported":1732777803,"current_range_meters":36800,"station_id":"ce4bhnp2rcd13ifvqgvg","pricing_plan_id":"cebpf4jnsgd1na2vs0mg"},{"bike_id":"fc4d15f5-6256-45a3-90d6-77bb4c676955","system_id":"levelo_inurba_marseille","lat":43.296284,"lon":5.377877,"is_reserved":false,"is_disabled":false,"rental_uris":{"android":"levelo://app?vid=fc4d15f5-6256-45a3-90d6-77bb4c676955","ios":"levelo://app?vid=fc4d15f5-6256-45a3-90d6-77bb4c676955"},"vehicle_type_id":"4","last_reported":1732777803,"current_range_meters":34800,"station_id":"","pricing_plan_id":"cebpf4jnsgd1na2vs0mg"},{"bike_id":"3bda0192-441f-448b-a44b-62afdb2df3e6","system_id":"levelo_inurba_marseille","lat":43.27813,"lon":5.40706,"is_reserved":false,"is_disabled":true,"rental_uris":{"android":"levelo://app?vid=3bda0192-441f-448b-a44b-62afdb2df3e6","ios":"levelo://app?vid=3bda0192-441f-448b-a44b-62afdb2df3e6"},"vehicle_type_id":"4","last_reported":1732777803,"current_range_meters":38800,"station_id":"ce4bhnh2rcd13ifvqgtg","pricing_plan_id":"cebpf4jnsgd1na2vs0mg"},{"bike_id":"c88f8730-1176-4717-97e2-17c27b15274f","system_id":"levelo_inurba_marseille","lat":43.231958,"lon":5.355482,"is_reserved":false,"is_disabled":true,"rental_uris":{"android":"levelo://app?vid=c88f8730-1176-4717-97e2-17c27b15274f","ios":"levelo://app?vid=c88f8730-1176-4717-97e2-17c27b15274f"},"vehicle_type_id":"4","last_reported":1732777803,"current_range_meters":0,"station_id":"ce4bhu92rcd13ifvqi70","pricing_plan_id":"cebpf4jnsgd1na2vs0mg"},{"bike_id":"ae83e13e-277b-4f16-bea8-fb9d89f73830","system_id":"levelo_inurba_marseille","lat":43.3414,"lon":5.40901,"is_reserved":false,"is_disabled":false,"rental_uris":{"android":"levelo://app?vid=ae83e13e-277b-4f16-bea8-fb9d89f73830","ios":"levelo://app?vid=ae83e13e-277b-4f16-bea8-fb9d89f73830"},"vehicle_type_id":"4","last_reported":1732777803,"current_range_meters":30800,"station_id":"ce4bhqh2rcd13ifvqhlg","pricing_plan_id":"cebpf4jnsgd1na2vs0mg"},{"bike_id":"8824e813-2399-43f4-89c4-da61b1288a95","system_id":"levelo_inurba_marseille","lat":43.30471,"lon":5.37906,"is_reserved":false,"is_disabled":false,"rental_uris":{"android":"levelo://app?vid=8824e813-2399-43f4-89c4-da61b1288a95","ios":"levelo://app?vid=8824e813-2399-43f4-89c4-da61b1288a95"},"vehicle_type_id":"4","last_reported":1732777803,"current_range_meters":7200,"station_id":"ce4bgup2rcd13ifvqcn0","pricing_plan_id":"cebpf4jnsgd1na2vs0mg"},{"bike_id":"d1f94dd4-9601-4826-9123-429c805265c9","system_id":"levelo_inurba_marseille","lat":43.32291,"lon":5.38272,"is_reserved":false,"is_disabled":false,"rental_uris":{"android":"levelo://app?vid=d1f94dd4-9601-4826-9123-429c805265c9","ios":"levelo://app?vid=d1f94dd4-9601-4826-9123-429c805265c9"},"vehicle_type_id":"4","last_reported":1732777803,"current_range_meters":22400,"station_id":"ce4bhr12rcd13ifvqhqg","pricing_plan_id":"cebpf4jnsgd1na2vs0mg"},{"bike_id":"d1c3893e-77c6-455f-9911-b0f33c219769","system_id":"levelo_inurba_marseille","lat":43.29007,"lon":5.35606,"is_reserved":false,"is_disabled":false,"rental_uris":{"android":"levelo://app?vid=d1c3893e-77c6-455f-9911-b0f33c219769","ios":"levelo://app?vid=d1c3893e-77c6-455f-9911-b0f33c219769"},"vehicle_type_id":"4","last_reported":1732777803,"current_range_meters":30400,"station_id":"ce4bhb92rcd13ifvqen0","pricing_plan_id":"cebpf4jnsgd1na2vs0mg"},{"bike_id":"b6ed1910-de57-401d-8b1d-af35755f9004","system_id":"levelo_inurba_marseille","lat":43.27955,"lon":5.41053,"is_reserved":false,"is_disabled":true,"rental_uris":{"android":"levelo://app?vid=b6ed1910-de57-401d-8b1d-af35755f9004","ios":"levelo://app?vid=b6ed1910-de57-401d-8b1d-af35755f9004"},"vehicle_type_id":"4","last_reported":1732777803,"current_range_meters":30800,"station_id":"ce4bhnp2rcd13ifvqh0g","pricing_plan_id":"cebpf4jnsgd1na2vs0mg"},{"bike_id":"32a151d9-7005-40eb-a8f7-814ea7e149e3","system_id":"levelo_inurba_marseille","lat":43.30544,"lon":5.36517,"is_reserved":false,"is_disabled":false,"rental_uris":{"android":"levelo://app?vid=32a151d9-7005-40eb-a8f7-814ea7e149e3","ios":"levelo://app?vid=32a151d9-7005-40eb-a8f7-814ea7e149e3"},"vehicle_type_id":"4","last_reported":1732777803,"current_range_meters":38800,"station_id":"ce4bgs12rcd13ifvqcag","pricing_plan_id":"cebpf4jnsgd1na2vs0mg"},{"bike_id":"35168621-654a-4794-a3d1-e6b658b7f0e9","system_id":"levelo_inurba_marseille","lat":43.23196,"lon":5.39978,"is_reserved":false,"is_disabled":false,"rental_uris":{"android":"levelo://app?vid=35168621-654a-4794-a3d1-e6b658b7f0e9","ios":"levelo://app?vid=35168621-654a-4794-a3d1-e6b658b7f0e9"},"vehicle_type_id":"4","last_reported":1732777803,"current_range_meters":31200,"station_id":"ce4bhn12rcd13ifvqgqg","pricing_plan_id":"cebpf4jnsgd1na2vs0mg"},{"bike_id":"3d27800c-ba66-4de2-aa12-1100555b8cf4","system_id":"levelo_inurba_marseille","lat":43.23153,"lon":5.43711,"is_reserved":false,"is_disabled":false,"rental_uris":{"android":"levelo://app?vid=3d27800c-ba66-4de2-aa12-1100555b8cf4","ios":"levelo://app?vid=3d27800c-ba66-4de2-aa12-1100555b8cf4"},"vehicle_type_id":"4","last_reported":1732777803,"current_range_meters":38800,"station_id":"ce4bhmp2rcd13ifvqgog","pricing_plan_id":"cebpf4jnsgd1na2vs0mg"},{"bike_id":"3fe8ca6e-1a23-4068-b888-f8280ac6c59c","system_id":"levelo_inurba_marseille","lat":43.27054,"lon":5.40263,"is_reserved":false,"is_disabled":false,"rental_uris":{"android":"levelo://app?vid=3fe8ca6e-1a23-4068-b888-f8280ac6c59c","ios":"levelo://app?vid=3fe8ca6e-1a23-4068-b888-f8280ac6c59c"},"vehicle_type_id":"4","last_reported":1732777803,"current_range_meters":25600,"station_id":"ce4bhk92rcd13ifvqgc0","pricing_plan_id":"cebpf4jnsgd1na2vs0mg"},{"bike_id":"ff9a459e-e517-41ab-9a69-684d87f67a8d","system_id":"levelo_inurba_marseille","lat":43.23187,"lon":5.39984,"is_reserved":false,"is_disabled":false,"rental_uris":{"android":"levelo://app?vid=ff9a459e-e517-41ab-9a69-684d87f67a8d","ios":"levelo://app?vid=ff9a459e-e517-41ab-9a69-684d87f67a8d"},"vehicle_type_id":"4","last_reported":1732777803,"current_range_meters":38800,"station_id":"ce4bhn12rcd13ifvqgqg","pricing_plan_id":"cebpf4jnsgd1na2vs0mg"},{"bike_id":"e54f0174-c7bd-4711-b39d-83487d0a1cd5","system_id":"levelo_inurba_marseille","lat":43.2955,"lon":5.42279,"is_reserved":false,"is_disabled":false,"rental_uris":{"android":"levelo://app?vid=e54f0174-c7bd-4711-b39d-83487d0a1cd5","ios":"levelo://app?vid=e54f0174-c7bd-4711-b39d-83487d0a1cd5"},"vehicle_type_id":"4","last_reported":1732777803,"current_range_meters":38800,"station_id":"ce4bhph2rcd13ifvqhdg","pricing_plan_id":"cebpf4jnsgd1na2vs0mg"},{"bike_id":"4c79d9a9-6ff6-41c5-baad-233d4aa061ac","system_id":"levelo_inurba_marseille","lat":43.33617,"lon":5.41028,"is_reserved":false,"is_disabled":true,"rental_uris":{"android":"levelo://app?vid=4c79d9a9-6ff6-41c5-baad-233d4aa061ac","ios":"levelo://app?vid=4c79d9a9-6ff6-41c5-baad-233d4aa061ac"},"vehicle_type_id":"4","last_reported":1732777803,"current_range_meters":22800,"station_id":"ce4bhqh2rcd13ifvqhmg","pricing_plan_id":"cebpf4jnsgd1na2vs0mg"},{"bike_id":"3d4db1bd-67f5-4f64-8185-d8f7cb1c2231","system_id":"levelo_inurba_marseille","lat":43.24998,"lon":5.38927,"is_reserved":false,"is_disabled":false,"rental_uris":{"android":"levelo://app?vid=3d4db1bd-67f5-4f64-8185-d8f7cb1c2231","ios":"levelo://app?vid=3d4db1bd-67f5-4f64-8185-d8f7cb1c2231"},"vehicle_type_id":"4","last_reported":1732777803,"current_range_meters":38800,"station_id":"ce4bhgp2rcd13ifvqfd0","pricing_plan_id":"cebpf4jnsgd1na2vs0mg"},{"bike_id":"fd3bc6ec-4d65-4b8c-9c39-97b686e3b390","system_id":"levelo_inurba_marseille","lat":43.32535,"lon":5.41437,"is_reserved":false,"is_disabled":false,"rental_uris":{"android":"levelo://app?vid=fd3bc6ec-4d65-4b8c-9c39-97b686e3b390","ios":"levelo://app?vid=fd3bc6ec-4d65-4b8c-9c39-97b686e3b390"},"vehicle_type_id":"4","last_reported":1732777803,"current_range_meters":24000,"station_id":"ce4bhq12rcd13ifvqhhg","pricing_plan_id":"cebpf4jnsgd1na2vs0mg"},{"bike_id":"97fe0f38-53f3-416b-a627-a69988dfdc04","system_id":"levelo_inurba_marseille","lat":43.2407,"lon":5.37755,"is_reserved":false,"is_disabled":false,"rental_uris":{"android":"levelo://app?vid=97fe0f38-53f3-416b-a627-a69988dfdc04","ios":"levelo://app?vid=97fe0f38-53f3-416b-a627-a69988dfdc04"},"vehicle_type_id":"4","last_reported":1732777803,"current_range_meters":4800,"station_id":"ce4bhnp2rcd13ifvqgvg","pricing_plan_id":"cebpf4jnsgd1na2vs0mg"},{"bike_id":"8770e2f6-a534-436c-bee6-0c491da08b31","system_id":"levelo_inurba_marseille","lat":43.29371,"lon":5.37837,"is_reserved":false,"is_disabled":false,"rental_uris":{"android":"levelo://app?vid=8770e2f6-a534-436c-bee6-0c491da08b31","ios":"levelo://app?vid=8770e2f6-a534-436c-bee6-0c491da08b31"},"vehicle_type_id":"4","last_reported":1732777803,"current_range_meters":36400,"station_id":"ce4bgjh2rcd13ifvqbf0","pricing_plan_id":"cebpf4jnsgd1na2vs0mg"},{"bike_id":"c66a7af0-8ea4-45a2-912d-4749f429412a","system_id":"levelo_inurba_marseille","lat":43.28343,"lon":5.38096,"is_reserved":false,"is_disabled":false,"rental_uris":{"android":"levelo://app?vid=c66a7af0-8ea4-45a2-912d-4749f429412a","ios":"levelo://app?vid=c66a7af0-8ea4-45a2-912d-4749f429412a"},"vehicle_type_id":"4","last_reported":1732777803,"current_range_meters":20400,"station_id":"ce4bh412rcd13ifvqdr0","pricing_plan_id":"cebpf4jnsgd1na2vs0mg"},{"bike_id":"e583f1ec-d711-453e-befa-f489af3eb570","system_id":"levelo_inurba_marseille","lat":43.29032,"lon":5.39964,"is_reserved":false,"is_disabled":false,"rental_uris":{"android":"levelo://app?vid=e583f1ec-d711-453e-befa-f489af3eb570","ios":"levelo://app?vid=e583f1ec-d711-453e-befa-f489af3eb570"},"vehicle_type_id":"4","last_reported":1732777803,"current_range_meters":11200,"station_id":"ce4bh392rcd13ifvqdm0","pricing_plan_id":"cebpf4jnsgd1na2vs0mg"},{"bike_id":"570cbeff-9d9a-4582-8f89-dc4d015141f5","system_id":"levelo_inurba_marseille","lat":43.30154,"lon":5.38085,"is_reserved":false,"is_disabled":false,"rental_uris":{"android":"levelo://app?vid=570cbeff-9d9a-4582-8f89-dc4d015141f5","ios":"levelo://app?vid=570cbeff-9d9a-4582-8f89-dc4d015141f5"},"vehicle_type_id":"4","last_reported":1732777803,"current_range_meters":29600,"station_id":"ce4bgjp2rcd13ifvqbh0","pricing_plan_id":"cebpf4jnsgd1na2vs0mg"},{"bike_id":"f29fa8cb-a7a4-481b-af91-00b2ee7c8bb3","system_id":"levelo_inurba_marseille","lat":43.27875,"lon":5.38818,"is_reserved":false,"is_disabled":false,"rental_uris":{"android":"levelo://app?vid=f29fa8cb-a7a4-481b-af91-00b2ee7c8bb3","ios":"levelo://app?vid=f29fa8cb-a7a4-481b-af91-00b2ee7c8bb3"},"vehicle_type_id":"4","last_reported":1732777803,"current_range_meters":3200,"station_id":"","pricing_plan_id":"cebpf4jnsgd1na2vs0mg"},{"bike_id":"bd452a09-5375-497c-8580-f8824ea808cb","system_id":"levelo_inurba_marseille","lat":43.28945,"lon":5.39635,"is_reserved":false,"is_disabled":false,"rental_uris":{"android":"levelo://app?vid=bd452a09-5375-497c-8580-f8824ea808cb","ios":"levelo://app?vid=bd452a09-5375-497c-8580-f8824ea808cb"},"vehicle_type_id":"4","last_reported":1732777803,"current_range_meters":20000,"station_id":"ce4bh3h2rcd13ifvqdn0","pricing_plan_id":"cebpf4jnsgd1na2vs0mg"},{"bike_id":"0963a0a7-6b59-4f21-8c23-d2110dec0c86","system_id":"levelo_inurba_marseille","lat":43.3361,"lon":5.41029,"is_reserved":false,"is_disabled":false,"rental_uris":{"android":"levelo://app?vid=0963a0a7-6b59-4f21-8c23-d2110dec0c86","ios":"levelo://app?vid=0963a0a7-6b59-4f21-8c23-d2110dec0c86"},"vehicle_type_id":"4","last_reported":1732777803,"current_range_meters":30000,"station_id":"ce4bhqh2rcd13ifvqhmg","pricing_plan_id":"cebpf4jnsgd1na2vs0mg"},{"bike_id":"e779e3bb-321f-480d-b432-018b58a398de","system_id":"levelo_inurba_marseille","lat":43.290945,"lon":5.381089,"is_reserved":false,"is_disabled":false,"rental_uris":{"android":"levelo://app?vid=e779e3bb-321f-480d-b432-018b58a398de","ios":"levelo://app?vid=e779e3bb-321f-480d-b432-018b58a398de"},"vehicle_type_id":"4","last_reported":1732777803,"current_range_meters":16800,"station_id":"ce4bh512rcd13ifvqe2g","pricing_plan_id":"cebpf4jnsgd1na2vs0mg"},{"bike_id":"8831458c-bbd6-4692-84c4-531474636899","system_id":"levelo_inurba_marseille","lat":43.30793,"lon":5.43509,"is_reserved":false,"is_disabled":false,"rental_uris":{"android":"levelo://app?vid=8831458c-bbd6-4692-84c4-531474636899","ios":"levelo://app?vid=8831458c-bbd6-4692-84c4-531474636899"},"vehicle_type_id":"4","last_reported":1732777803,"current_range_meters":6400,"station_id":"ce4bhph2rcd13ifvqheg","pricing_plan_id":"cebpf4jnsgd1na2vs0mg"},{"bike_id":"0d821f48-d5cf-41d8-a189-301bb1eeb2b2","system_id":"levelo_inurba_marseille","lat":43.30483,"lon":5.3791,"is_reserved":false,"is_disabled":false,"rental_uris":{"android":"levelo://app?vid=0d821f48-d5cf-41d8-a189-301bb1eeb2b2","ios":"levelo://app?vid=0d821f48-d5cf-41d8-a189-301bb1eeb2b2"},"vehicle_type_id":"4","last_reported":1732777803,"current_range_meters":28800,"station_id":"ce4bgup2rcd13ifvqcn0","pricing_plan_id":"cebpf4jnsgd1na2vs0mg"},{"bike_id":"7db9c639-3177-4805-92ec-95540cb7e1d6","system_id":"levelo_inurba_marseille","lat":43.30551,"lon":5.36703,"is_reserved":false,"is_disabled":true,"rental_uris":{"android":"levelo://app?vid=7db9c639-3177-4805-92ec-95540cb7e1d6","ios":"levelo://app?vid=7db9c639-3177-4805-92ec-95540cb7e1d6"},"vehicle_type_id":"4","last_reported":1732777803,"current_range_meters":0,"station_id":"ce4bgrp2rcd13ifvqc9g","pricing_plan_id":"cebpf4jnsgd1na2vs0mg"},{"bike_id":"24f787e5-1c16-4adf-b169-9fc0fe167afa","system_id":"levelo_inurba_marseille","lat":43.33026,"lon":5.39047,"is_reserved":false,"is_disabled":false,"rental_uris":{"android":"levelo://app?vid=24f787e5-1c16-4adf-b169-9fc0fe167afa","ios":"levelo://app?vid=24f787e5-1c16-4adf-b169-9fc0fe167afa"},"vehicle_type_id":"4","last_reported":1732777803,"current_range_meters":12400,"station_id":"ce4bhr92rcd13ifvqhrg","pricing_plan_id":"cebpf4jnsgd1na2vs0mg"},{"bike_id":"ff2e900a-bb72-42ec-af70-452b58164d97","system_id":"levelo_inurba_marseille","lat":43.29036,"lon":5.3756,"is_reserved":false,"is_disabled":false,"rental_uris":{"android":"levelo://app?vid=ff2e900a-bb72-42ec-af70-452b58164d97","ios":"levelo://app?vid=ff2e900a-bb72-42ec-af70-452b58164d97"},"vehicle_type_id":"4","last_reported":1732777803,"current_range_meters":8800,"station_id":"ce4bh692rcd13ifvqe90","pricing_plan_id":"cebpf4jnsgd1na2vs0mg"},{"bike_id":"9e944db9-d48e-4848-b5fa-4af701aee80b","system_id":"levelo_inurba_marseille","lat":48.80797,"lon":2.40127,"is_reserved":false,"is_disabled":true,"rental_uris":{"android":"levelo://app?vid=9e944db9-d48e-4848-b5fa-4af701aee80b","ios":"levelo://app?vid=9e944db9-d48e-4848-b5fa-4af701aee80b"},"vehicle_type_id":"4","last_reported":1732777803,"current_range_meters":24800,"station_id":"","pricing_plan_id":"cebpf4jnsgd1na2vs0mg"},{"bike_id":"d9beda48-914f-4174-9e03-1b20aff46ae3","system_id":"levelo_inurba_marseille","lat":43.30476,"lon":5.37908,"is_reserved":false,"is_disabled":false,"rental_uris":{"android":"levelo://app?vid=d9beda48-914f-4174-9e03-1b20aff46ae3","ios":"levelo://app?vid=d9beda48-914f-4174-9e03-1b20aff46ae3"},"vehicle_type_id":"4","last_reported":1732777803,"current_range_meters":34800,"station_id":"ce4bgup2rcd13ifvqcn0","pricing_plan_id":"cebpf4jnsgd1na2vs0mg"},{"bike_id":"112d5ade-b580-4e59-a27f-c25fc2822e8c","system_id":"levelo_inurba_marseille","lat":43.34142,"lon":5.40909,"is_reserved":false,"is_disabled":false,"rental_uris":{"android":"levelo://app?vid=112d5ade-b580-4e59-a27f-c25fc2822e8c","ios":"levelo://app?vid=112d5ade-b580-4e59-a27f-c25fc2822e8c"},"vehicle_type_id":"4","last_reported":1732777803,"current_range_meters":32000,"station_id":"ce4bhqh2rcd13ifvqhlg","pricing_plan_id":"cebpf4jnsgd1na2vs0mg"},{"bike_id":"853dce9c-704d-4c69-8665-fee2463ece47","system_id":"levelo_inurba_marseille","lat":43.32363,"lon":5.38881,"is_reserved":false,"is_disabled":false,"rental_uris":{"android":"levelo://app?vid=853dce9c-704d-4c69-8665-fee2463ece47","ios":"levelo://app?vid=853dce9c-704d-4c69-8665-fee2463ece47"},"vehicle_type_id":"4","last_reported":1732777803,"current_range_meters":38400,"station_id":"ce4bhqp2rcd13ifvqhog","pricing_plan_id":"cebpf4jnsgd1na2vs0mg"},{"bike_id":"9f131acf-0dc0-4bb5-afd1-e7d3c47ab64a","system_id":"levelo_inurba_marseille","lat":43.28271,"lon":5.35055,"is_reserved":false,"is_disabled":true,"rental_uris":{"android":"levelo://app?vid=9f131acf-0dc0-4bb5-afd1-e7d3c47ab64a","ios":"levelo://app?vid=9f131acf-0dc0-4bb5-afd1-e7d3c47ab64a"},"vehicle_type_id":"4","last_reported":1732777803,"current_range_meters":8400,"station_id":"ce4bhbp2rcd13ifvqerg","pricing_plan_id":"cebpf4jnsgd1na2vs0mg"},{"bike_id":"cb6ee3d2-2b62-4531-a7e1-8dcead8b3b06","system_id":"levelo_inurba_marseille","lat":43.23155,"lon":5.4372,"is_reserved":false,"is_disabled":false,"rental_uris":{"android":"levelo://app?vid=cb6ee3d2-2b62-4531-a7e1-8dcead8b3b06","ios":"levelo://app?vid=cb6ee3d2-2b62-4531-a7e1-8dcead8b3b06"},"vehicle_type_id":"4","last_reported":1732777803,"current_range_meters":25200,"station_id":"ce4bhmp2rcd13ifvqgog","pricing_plan_id":"cebpf4jnsgd1na2vs0mg"},