{"last_updated":1752257733,"ttl":60,"version":"2.2","data":{"bikes":[{"bike_id":"94405c89-0483-48a7-8950-62b5bcef6efa","system_id":"levelo_inurba_marseille","lat":43.292934,"lon":5.374596,"is_reserved":false,"is_disabled":false,"rental_uris":{"android":"levelo://app?vid=94405c89-0483-48a7-8950-62b5bcef6efa","ios":"levelo://app?vid=94405c89-0483-48a7-8950-62b5bcef6efa"},"vehicle_type_id":"4","last_reported":1752257734,"current_range_meters":2800,"station_id":"ce4bgi12rcd13ifvqb70","pricing_plan_id":"cebpf4jnsgd1na2vs0mg"},{"bike_id":"3a2bf52e-d06b-45fa-a21d-824d7ea2fec8","system_id":"levelo_inurba_marseille","lat":43.28697,"lon":5.37388,"is_reserved":false,"is_disabled":false,"rental_uris":{"android":"levelo://app?vid=3a2bf52e-d06b-45fa-a21d-824d7ea2fec8","ios":"levelo://app?vid=3a2bf52e-d06b-45fa-a21d-824d7ea2fec8"},"vehicle_type_id":"4","last_reported":1752257734,"current_range_meters":2800,"station_id":"ce4bh3p2rcd13ifvqdq0","pricing_plan_id":"cebpf4jnsgd1na2vs0mg"},{"bike_id":"58992899-e053-440e-9fcd-deaf48d9cab5","system_id":"levelo_inurba_marseille","lat":43.29194,"lon":5.35786,"is_reserved":false,"is_disabled":false,"rental_uris":{"android":"levelo://app?vid=58992899-e053-440e-9fcd-deaf48d9cab5","ios":"levelo://app?vid=58992899-e053-440e-9fcd-deaf48d9cab5"},"vehicle_type_id":"4","last_reported":1752257734,"current_range_meters":2800,"station_id":"ce4bhb12rcd13ifvqel0","pricing_plan_id":"cebpf4jnsgd1na2vs0mg"},{"bike_id":"9a802eb9-da65-4754-b857-075441166909","system_id":"levelo_inurba_marseille","lat":43.2957,"lon":5.37505,"is_reserved":false,"is_disabled":false,"rental_uris":{"android":"levelo://app?vid=9a802eb9-da65-4754-b857-075441166909","ios":"levelo://app?vid=9a802eb9-da65-4754-b857-075441166909"},"vehicle_type_id":"4","last_reported":1752257734,"current_range_meters":2800,"station_id":"ce4bgh92rcd13ifvqb50","pricing_plan_id":"cebpf4jnsgd1na2vs0mg"},{"bike_id":"833789d2-719f-470f-8aa2-b69edbf07c3f","system_id":"levelo_inurba_marseille","lat":43.29648,"lon":5.39243,"is_reserved":false,"is_disabled":false,"rental_uris":{"android":"levelo://app?vid=833789d2-719f-470f-8aa2-b69edbf07c3f","ios":"levelo://app?vid=833789d2-719f-470f-8aa2-b69edbf07c3f"},"vehicle_type_id":"4","last_reported":1752257734,"current_range_meters":3600,"station_id":"","pricing_plan_id":"cebpf4jnsgd1na2vs0mg"},{"bike_id":"c9ec8264-b1f7-41db-a127-5dfa02fc980f","system_id":"levelo_inurba_marseille","lat":43.315799,"lon":5.401817,"is_reserved":false,"is_disabled":false,"rental_uris":{"android":"levelo://app?vid=c9ec8264-b1f7-41db-a127-5dfa02fc980f","ios":"levelo://app?vid=c9ec8264-b1f7-41db-a127-5dfa02fc980f"},"vehicle_type_id":"4","last_reported":1752257734,"current_range_meters":3600,"station_id":"","pricing_plan_id":"cebpf4jnsgd1na2vs0mg"},{"bike_id":"a4e71c09-d013-4906-bd5c-aaf1012438e0","system_id":"levelo_inurba_marseille","lat":43.30935,"lon":5.401506,"is_reserved":false,"is_disabled":true,"rental_uris":{"android":"levelo://app?vid=a4e71c09-d013-4906-bd5c-aaf1012438e0","ios":"levelo://app?vid=a4e71c09-d013-4906-bd5c-aaf1012438e0"},"vehicle_type_id":"4","last_reported":1752257734,"current_range_meters":3600,"station_id":"ce4bgvp2rcd13ifvqct0","pricing_plan_id":"cebpf4jnsgd1na2vs0mg"},{"bike_id":"80f1d22a-cfd2-49f0-a4b4-fb1efd55c785","system_id":"levelo_inurba_marseille","lat":43.29962,"lon":5.41318,"is_reserved":false,"is_disabled":false,"rental_uris":{"android":"levelo://app?vid=80f1d22a-cfd2-49f0-a4b4-fb1efd55c785","ios":"levelo://app?vid=80f1d22a-cfd2-49f0-a4b4-fb1efd55c785"},"vehicle_type_id":"4","last_reported":1752257734,"current_range_meters":3600,"station_id":"ce4bhp12rcd13ifvqh9g","pricing_plan_id":"cebpf4jnsgd1na2vs0mg"},{"bike_id":"6a5b119e-7cf2-4dc4-b7fa-68080f35defe","system_id":"levelo_inurba_marseille","lat":43.31761,"lon":5.3901,"is_reserved":false,"is_disabled":false,"rental_uris":{"android":"levelo://app?vid=6a5b119e-7cf2-4dc4-b7fa-68080f35defe","ios":"levelo://app?vid=6a5b119e-7cf2-4dc4-b7fa-68080f35defe"},"vehicle_type_id":"4","last_reported":1752257734,"current_range_meters":3600,"station_id":"ce4bhqp2rcd13ifvqhng","pricing_plan_id":"cebpf4jnsgd1na2vs0mg"},{"bike_id":"aa01a08d-de6e-4029-938a-b8c99787284d","system_id":"levelo_inurba_marseille","lat":43.29964,"lon":5.38497,"is_reserved":false,"is_disabled":false,"rental_uris":{"android":"levelo://app?vid=aa01a08d-de6e-4029-938a-b8c99787284d","ios":"levelo://app?vid=aa01a08d-de6e-4029-938a-b8c99787284d"},"vehicle_type_id":"4","last_reported":1752257734,"current_range_meters":3600,"station_id":"ce4bgj92rcd13ifvqbd0","pricing_plan_id":"cebpf4jnsgd1na2vs0mg"},{"bike_id":"065134ec-a6fd-4faa-9dce-0726daa7ba7c","system_id":"levelo_inurba_marseille","lat":43.30422,"lon":5.41278,"is_reserved":false,"is_disabled":false,"rental_uris":{"android":"levelo://app?vid=065134ec-a6fd-4faa-9dce-0726daa7ba7c","ios":"levelo://app?vid=065134ec-a6fd-4faa-9dce-0726daa7ba7c"},"vehicle_type_id":"4","last_reported":1752257734,"current_range_meters":4000,"station_id":"ce4bhop2rcd13ifvqh8g","pricing_plan_id":"cebpf4jnsgd1na2vs0mg"},{"bike_id":"7deb2c9b-35b1-4662-bc68-c970abe422cb","system_id":"levelo_inurba_marseille","lat":43.28935,"lon":5.36638,"is_reserved":false,"is_disabled":false,"rental_uris":{"android":"levelo://app?vid=7deb2c9b-35b1-4662-bc68-c970abe422cb","ios":"levelo://app?vid=7deb2c9b-35b1-4662-bc68-c970abe422cb"},"vehicle_type_id":"4","last_reported":1752257734,"current_range_meters":4000,"station_id":"ce4bhap2rcd13ifvqek0","pricing_plan_id":"cebpf4jnsgd1na2vs0mg"},{"bike_id":"879f31c8-72d7-43e8-93aa-9d02014147f2","system_id":"levelo_inurba_marseille","lat":43.28124,"lon":5.426,"is_reserved":false,"is_disabled":false,"rental_uris":{"android":"levelo://app?vid=879f31c8-72d7-43e8-93aa-9d02014147f2","ios":"levelo://app?vid=879f31c8-72d7-43e8-93aa-9d02014147f2"},"vehicle_type_id":"4","last_reported":1752257734,"current_range_meters":4000,"station_id":"ce4bhnh2rcd13ifvqgug","pricing_plan_id":"cebpf4jnsgd1na2vs0mg"},{"bike_id":"b48feb34-ffcd-4bc9-9b4a-f5d08a0bef29","system_id":"levelo_inurba_marseille","lat":43.28263,"lon":5.35057,"is_reserved":false,"is_disabled":false,"rental_uris":{"android":"levelo://app?vid=b48feb34-ffcd-4bc9-9b4a-f5d08a0bef29","ios":"levelo://app?vid=b48feb34-ffcd-4bc9-9b4a-f5d08a0bef29"},"vehicle_type_id":"4","last_reported":1752257734,"current_range_meters":4000,"station_id":"ce4bhbp2rcd13ifvqerg","pricing_plan_id":"cebpf4jnsgd1na2vs0mg"},{"bike_id":"d60d8de5-1826-4d69-99a6-c45bf18f1085","system_id":"levelo_inurba_marseille","lat":43.30309,"lon":5.36891,"is_reserved":false,"is_disabled":true,"rental_uris":{"android":"levelo://app?vid=d60d8de5-1826-4d69-99a6-c45bf18f1085","ios":"levelo://app?vid=d60d8de5-1826-4d69-99a6-c45bf18f1085"},"vehicle_type_id":"4","last_reported":1752257734,"current_range_meters":4400,"station_id":"ce4bgqh2rcd13ifvqc5g","pricing_plan_id":"cebpf4jnsgd1na2vs0mg"},{"bike_id":"90d8b391-9624-42c9-a4e7-34324ca70708","system_id":"levelo_inurba_marseille","lat":43.29787,"lon":5.38096,"is_reserved":false,"is_disabled":false,"rental_uris":{"android":"levelo://app?vid=90d8b391-9624-42c9-a4e7-34324ca70708","ios":"levelo://app?vid=90d8b391-9624-42c9-a4e7-34324ca70708"},"vehicle_type_id":"4","last_reported":1752257734,"current_range_meters":4400,"station_id":"ce4bgip2rcd13ifvqbb0","pricing_plan_id":"cebpf4jnsgd1na2vs0mg"},{"bike_id":"b1fc1d6d-e8c5-41ee-b1e2-15f91eaa2ac4","system_id":"levelo_inurba_marseille","lat":43.28483,"lon":5.38422,"is_reserved":false,"is_disabled":false,"rental_uris":{"android":"levelo://app?vid=b1fc1d6d-e8c5-41ee-b1e2-15f91eaa2ac4","ios":"levelo://app?vid=b1fc1d6d-e8c5-41ee-b1e2-15f91eaa2ac4"},"vehicle_type_id":"4","last_reported":1752257734,"current_range_meters":4400,"station_id":"ce4bh512rcd13ifvqe3g","pricing_plan_id":"cebpf4jnsgd1na2vs0mg"},{"bike_id":"386cfa40-a298-496c-8a84-b6ba08543496","system_id":"levelo_inurba_marseille","lat":43.27901,"lon":5.38005,"is_reserved":false,"is_disabled":false,"rental_uris":{"android":"levelo://app?vid=386cfa40-a298-496c-8a84-b6ba08543496","ios":"levelo://app?vid=386cfa40-a298-496c-8a84-b6ba08543496"},"vehicle_type_id":"4","last_reported":1752257734,"current_range_meters":4400,"station_id":"ce4bhf92rcd13ifvqf50","pricing_plan_id":"cebpf4jnsgd1na2vs0mg"},{"bike_id":"09c44277-e182-4bcc-bf33-2035f40eb12b","system_id":"levelo_inurba_marseille","lat":43.32333,"lon":5.4062,"is_reserved":false,"is_disabled":false,"rental_uris":{"android":"levelo://app?vid=09c44277-e182-4bcc-bf33-2035f40eb12b","ios":"levelo://app?vid=09c44277-e182-4bcc-bf33-2035f40eb12b"},"vehicle_type_id":"4","last_reported":1752257734,"current_range_meters":4400,"station_id":"ce4bhq92rcd13ifvqhjg","pricing_plan_id":"cebpf4jnsgd1na2vs0mg"},{"bike_id":"2b2f2206-7c4a-4b19-abac-bb6f0cceb940","system_id":"levelo_inurba_marseille","lat":43.21769,"lon":5.34575,"is_reserved":false,"is_disabled":false,"rental_uris":{"android":"levelo://app?vid=2b2f2206-7c4a-4b19-abac-bb6f0cceb940","ios":"levelo://app?vid=2b2f2206-7c4a-4b19-abac-bb6f0cceb940"},"vehicle_type_id":"4","last_reported":1752257734,"current_range_meters":4800,"station_id":"st_cvj6r9ubvosntc0bgbag","pricing_plan_id":"cebpf4jnsgd1na2vs0mg"},{"bike_id":"a7638d86-ae46-4944-b5c6-f1ab5cfa3e94","system_id":"levelo_inurba_marseille","lat":43.337444,"lon":5.374475,"is_reserved":false,"is_disabled":false,"rental_uris":{"android":"levelo://app?vid=a7638d86-ae46-4944-b5c6-f1ab5cfa3e94","ios":"levelo://app?vid=a7638d86-ae46-4944-b5c6-f1ab5cfa3e94"},"vehicle_type_id":"4","last_reported":1752257734,"current_range_meters":4800,"station_id":"","pricing_plan_id":"cebpf4jnsgd1na2vs0mg"},{"bike_id":"b8d6bf6b-ecbb-4c40-8ce7-0169ef070b49","system_id":"levelo_inurba_marseille","lat":43.29655,"lon":5.37224,"is_reserved":false,"is_disabled":false,"rental_uris":{"android":"levelo://app?vid=b8d6bf6b-ecbb-4c40-8ce7-0169ef070b49","ios":"levelo://app?vid=b8d6bf6b-ecbb-4c40-8ce7-0169ef070b49"},"vehicle_type_id":"4","last_reported":1752257734,"current_range_meters":5600,"station_id":"","pricing_plan_id":"cebpf4jnsgd1na2vs0mg"},{"bike_id":"2045fb86-6646-4be7-b84d-0b8560d8940c","system_id":"levelo_inurba_marseille","lat":43.27174,"lon":5.40992,"is_reserved":false,"is_disabled":false,"rental_uris":{"android":"levelo://app?vid=2045fb86-6646-4be7-b84d-0b8560d8940c","ios":"levelo://app?vid=2045fb86-6646-4be7-b84d-0b8560d8940c"},"vehicle_type_id":"4","last_reported":1752257734,"current_range_meters":5600,"station_id":"ce4bhl12rcd13ifvqgf0","pricing_plan_id":"cebpf4jnsgd1na2vs0mg"},{"bike_id":"91479100-d761-498f-99e7-e94684047cae","system_id":"levelo_inurba_marseille","lat":43.30327,"lon":5.40429,"is_reserved":false,"is_disabled":false,"rental_uris":{"android":"levelo://app?vid=91479100-d761-498f-99e7-e94684047cae","ios":"levelo://app?vid=91479100-d761-498f-99e7-e94684047cae"},"vehicle_type_id":"4","last_reported":1752257734,"current_range_meters":5600,"station_id":"ce4bh012rcd13ifvqd10","pricing_plan_id":"cebpf4jnsgd1na2vs0mg"},{"bike_id":"3ed4478c-e286-4716-ad56-ab0f338f7192","system_id":"levelo_inurba_marseille","lat":43.28271,"lon":5.35066,"is_reserved":false,"is_disabled":false,"rental_uris":{"android":"levelo://app?vid=3ed4478c-e286-4716-ad56-ab0f338f7192","ios":"levelo://app?vid=3ed4478c-e286-4716-ad56-ab0f338f7192"},"vehicle_type_id":"4","last_reported":1752257734,"current_range_meters":5600,"station_id":"ce4bhbp2rcd13ifvqerg","pricing_plan_id":"cebpf4jnsgd1na2vs0mg"},{"bike_id":"5f07f2ba-8bfc-4688-a505-3ccf2648ef36","system_id":"levelo_inurba_marseille","lat":43.2894,"lon":5.36636,"is_reserved":false,"is_disabled":false,"rental_uris":{"android":"levelo://app?vid=5f07f2ba-8bfc-4688-a505-3ccf2648ef36","ios":"levelo://app?vid=5f07f2ba-8bfc-4688-a505-3ccf2648ef36"},"vehicle_type_id":"4","last_reported":1752257734,"current_range_meters":6000,"station_id":"ce4bhap2rcd13ifvqek0","pricing_plan_id":"cebpf4jnsgd1na2vs0mg"},{"bike_id":"a3832651-ae99-4f48-a1e1-758494bd27d0","system_id":"levelo_inurba_marseille","lat":43.2798,"lon":5.3874,"is_reserved":false,"is_disabled":false,"rental_uris":{"android":"levelo://app?vid=a3832651-ae99-4f48-a1e1-758494bd27d0","ios":"levelo://app?vid=a3832651-ae99-4f48-a1e1-758494bd27d0"},"vehicle_type_id":"4","last_reported":1752257734,"current_range_meters":6000,"station_id":"ce4bhg12rcd13ifvqf80","pricing_plan_id":"cebpf4jnsgd1na2vs0mg"},{"bike_id":"e117ce98-845d-4580-b722-d314a4fed87d","system_id":"levelo_inurba_marseille","lat":43.28858,"lon":5.35836,"is_reserved":false,"is_disabled":false,"rental_uris":{"android":"levelo://app?vid=e117ce98-845d-4580-b722-d314a4fed87d","ios":"levelo://app?vid=e117ce98-845d-4580-b722-d314a4fed87d"},"vehicle_type_id":"4","last_reported":1752257734,"current_range_meters":6000,"station_id":"ce4bhb12rcd13ifvqem0","pricing_plan_id":"cebpf4jnsgd1na2vs0mg"},{"bike_id":"3427aacd-bedb-4603-9854-c7d6c2517d0c","system_id":"levelo_inurba_marseille","lat":43.280366,"lon":5.369415,"is_reserved":false,"is_disabled":false,"rental_uris":{"android":"levelo://app?vid=3427aacd-bedb-4603-9854-c7d6c2517d0c","ios":"levelo://app?vid=3427aacd-bedb-4603-9854-c7d6c2517d0c"},"vehicle_type_id":"4","last_reported":1752257734,"current_range_meters":6000,"station_id":"ce4bha12rcd13ifvqef0","pricing_plan_id":"cebpf4jnsgd1na2vs0mg"},{"bike_id":"588dc962-c37f-4f9b-adf4-4e9e137867c7","system_id":"levelo_inurba_marseille","lat":43.32473,"lon":5.36571,"is_reserved":false,"is_disabled":false,"rental_uris":{"android":"levelo://app?vid=588dc962-c37f-4f9b-adf4-4e9e137867c7","ios":"levelo://app?vid=588dc962-c37f-4f9b-adf4-4e9e137867c7"},"vehicle_type_id":"4","last_reported":1752257734,"current_range_meters":6400,"station_id":"ce4bhs12rcd13ifvqhvg","pricing_plan_id":"cebpf4jnsgd1na2vs0mg"},{"bike_id":"21ae54b9-7375-4101-b8a7-bff9d6e1fa32","system_id":"levelo_inurba_marseille","lat":43.29985,"lon":5.37566,"is_reserved":false,"is_disabled":false,"rental_uris":{"android":"levelo://app?vid=21ae54b9-7375-4101-b8a7-bff9d6e1fa32","ios":"levelo://app?vid=21ae54b9-7375-4101-b8a7-bff9d6e1fa32"},"vehicle_type_id":"4","last_reported":1752257734,"current_range_meters":6400,"station_id":"","pricing_plan_id":"cebpf4jnsgd1na2vs0mg"},{"bike_id":"b757ffbb-2b71-4330-9f60-5f8a9d46d16e","system_id":"levelo_inurba_marseille","lat":43.296488,"lon":5.371144,"is_reserved":false,"is_disabled":false,"rental_uris":{"android":"levelo://app?vid=b757ffbb-2b71-4330-9f60-5f8a9d46d16e","ios":"levelo://app?vid=b757ffbb-2b71-4330-9f60-5f8a9d46d16e"},"vehicle_type_id":"4","last_reported":1752257734,"current_range_meters":6400,"station_id":"","pricing_plan_id":"cebpf4jnsgd1na2vs0mg"},{"bike_id":"138e2fe8-8dfb-4a31-89f6-701e269022be","system_id":"levelo_inurba_marseille","lat":43.279421,"lon":5.410496,"is_reserved":false,"is_disabled":false,"rental_uris":{"android":"levelo://app?vid=138e2fe8-8dfb-4a31-89f6-701e269022be","ios":"levelo://app?vid=138e2fe8-8dfb-4a31-89f6-701e269022be"},"vehicle_type_id":"4","last_reported":1752257734,"current_range_meters":6400,"station_id":"ce4bhnp2rcd13ifvqh0g","pricing_plan_id":"cebpf4jnsgd1na2vs0mg"},{"bike_id":"89589233-2bad-4f2b-8de9-f8274ec4c480","system_id":"levelo_inurba_marseille","lat":43.29227,"lon":5.3606,"is_reserved":false,"is_disabled":false,"rental_uris":{"android":"levelo://app?vid=89589233-2bad-4f2b-8de9-f8274ec4c480","ios":"levelo://app?vid=89589233-2bad-4f2b-8de9-f8274ec4c480"},"vehicle_type_id":"4","last_reported":1752257734,"current_range_meters":6400,"station_id":"ce4bhbh2rcd13ifvqeqg","pricing_plan_id":"cebpf4jnsgd1na2vs0mg"},{"bike_id":"38c2972e-7feb-4c30-9b15-f34102b539b0","system_id":"levelo_inurba_marseille","lat":43.24174,"lon":5.364175,"is_reserved":false,"is_disabled":false,"rental_uris":{"android":"levelo://app?vid=38c2972e-7feb-4c30-9b15-f34102b539b0","ios":"levelo://app?vid=38c2972e-7feb-4c30-9b15-f34102b539b0"},"vehicle_type_id":"4","last_reported":1752257734,"current_range_meters":6400,"station_id":"","pricing_plan_id":"cebpf4jnsgd1na2vs0mg"},{"bike_id":"1a961df9-a371-4bc6-b202-408d06650821","system_id":"levelo_inurba_marseille","lat":43.3202,"lon":5.415159,"is_reserved":false,"is_disabled":false,"rental_uris":{"android":"levelo://app?vid=1a961df9-a371-4bc6-b202-408d06650821","ios":"levelo://app?vid=1a961df9-a371-4bc6-b202-408d06650821"},"vehicle_type_id":"4","last_reported":1752257734,"current_range_meters":6400,"station_id":"ce4bhq92rcd13ifvqhkg","pricing_plan_id":"cebpf4jnsgd1na2vs0mg"},{"bike_id":"1729ab68-2124-4d2b-813b-f55500d04f7c","system_id":"levelo_inurba_marseille","lat":43.282655,"lon":5.350661,"is_reserved":false,"is_disabled":false,"rental_uris":{"android":"levelo://app?vid=1729ab68-2124-4d2b-813b-f55500d04f7c","ios":"levelo://app?vid=1729ab68-2124-4d2b-813b-f55500d04f7c"},"vehicle_type_id":"4","last_reported":1752257734,"current_range_meters":6800,"station_id":"ce4bhbp2rcd13ifvqerg","pricing_plan_id":"cebpf4jnsgd1na2vs0mg"},{"bike_id":"a75f3836-9a8e-40d5-b918-51a269e57ed0","system_id":"levelo_inurba_marseille","lat":43.26214,"lon":5.37441,"is_reserved":false,"is_disabled":false,"rental_uris":{"android":"levelo://app?vid=a75f3836-9a8e-40d5-b918-51a269e57ed0","ios":"levelo://app?vid=a75f3836-9a8e-40d5-b918-51a269e57ed0"},"vehicle_type_id":"4","last_reported":1752257734,"current_range_meters":6800,"station_id":"ce4bhgp2rcd13ifvqfc0","pricing_plan_id":"cebpf4jnsgd1na2vs0mg"},{"bike_id":"102c21f4-3c66-4020-86c7-3d0c894eefbd","system_id":"levelo_inurba_marseille","lat":43.29554,"lon":5.42281,"is_reserved":false,"is_disabled":false,"rental_uris":{"android":"levelo://app?vid=102c21f4-3c66-4020-86c7-3d0c894eefbd","ios":"levelo://app?vid=102c21f4-3c66-4020-86c7-3d0c894eefbd"},"vehicle_type_id":"4","last_reported":1752257734,"current_range_meters":7200,"station_id":"ce4bhph2rcd13ifvqhdg","pricing_plan_id":"cebpf4jnsgd1na2vs0mg"},{"bike_id":"cbcfa34a-0d70-4ed2-bf25-d7f95152763f","system_id":"levelo_inurba_marseille","lat":43.28265,"lon":5.35076,"is_reserved":false,"is_disabled":false,"rental_uris":{"android":"levelo://app?vid=cbcfa34a-0d70-4ed2-bf25-d7f95152763f","ios":"levelo://app?vid=cbcfa34a-0d70-4ed2-bf25-d7f95152763f"},"vehicle_type_id":"4","last_reported":1752257734,"current_range_meters":7200,"station_id":"ce4bhbp2rcd13ifvqerg","pricing_plan_id":"cebpf4jnsgd1na2vs0mg"},{"bike_id":"e62f5073-142e-4a05-be7d-478f213c2da1","system_id":"levelo_inurba_marseille","lat":43.29568,"lon":5.37515,"is_reserved":false,"is_disabled":false,"rental_uris":{"android":"levelo://app?vid=e62f5073-142e-4a05-be7d-478f213c2da1","ios":"levelo://app?vid=e62f5073-142e-4a05-be7d-478f213c2da1"},"vehicle_type_id":"4","last_reported":1752257734,"current_range_meters":7200,"station_id":"ce4bgh92rcd13ifvqb50","pricing_plan_id":"cebpf4jnsgd1na2vs0mg"},{"bike_id":"547b9358-2b6f-4b60-8b66-b37a219bfa39","system_id":"levelo_inurba_marseille","lat":43.28667,"lon":5.36354,"is_reserved":false,"is_disabled":false,"rental_uris":{"android":"levelo://app?vid=547b9358-2b6f-4b60-8b66-b37a219bfa39","ios":"levelo://app?vid=547b9358-2b6f-4b60-8b66-b37a219bfa39"},"vehicle_type_id":"4","last_reported":1752257734,"current_range_meters":8000,"station_id":"ce4bhah2rcd13ifvqej0","pricing_plan_id":"cebpf4jnsgd1na2vs0mg"},{"bike_id":"2b59c16d-a530-4dbf-aed7-adf8ac705c28","system_id":"levelo_inurba_marseille","lat":43.2894,"lon":5.36631,"is_reserved":false,"is_disabled":false,"rental_uris":{"android":"levelo://app?vid=2b59c16d-a530-4dbf-aed7-adf8ac705c28","ios":"levelo://app?vid=2b59c16d-a530-4dbf-aed7-adf8ac705c28"},"vehicle_type_id":"4","last_reported":1752257734,"current_range_meters":8000,"station_id":"ce4bhap2rcd13ifvqek0","pricing_plan_id":"cebpf4jnsgd1na2vs0mg"},{"bike_id":"ee4f8e12-24bb-4037-8dd2-0d969ca3e5a8","system_id":"levelo_inurba_marseille","lat":43.2997,"lon":5.38494,"is_reserved":false,"is_disabled":false,"rental_uris":{"android":"levelo://app?vid=ee4f8e12-24bb-4037-8dd2-0d969ca3e5a8","ios":"levelo://app?vid=ee4f8e12-24bb-4037-8dd2-0d969ca3e5a8"},"vehicle_type_id":"4","last_reported":1752257734,"current_range_meters":8000,"station_id":"ce4bgj92rcd13ifvqbd0","pricing_plan_id":"cebpf4jnsgd1na2vs0mg"},{"bike_id":"0b5a4973-c2df-4a49-9b91-3c1cc686b0fb","system_id":"levelo_inurba_marseille","lat":43.31043,"lon":5.38588,"is_reserved":false,"is_disabled":false,"rental_uris":{"android":"levelo://app?vid=0b5a4973-c2df-4a49-9b91-3c1cc686b0fb","ios":"levelo://app?vid=0b5a4973-c2df-4a49-9b91-3c1cc686b0fb"},"vehicle_type_id":"4","last_reported":1752257734,"current_range_meters":8000,"station_id":"","pricing_plan_id":"cebpf4jnsgd1na2vs0mg"},{"bike_id":"833f97ec-e704-4051-ab3b-2e9eb58f71d0","system_id":"levelo_inurba_marseille","lat":43.302772,"lon":5.375256,"is_reserved":false,"is_disabled":false,"rental_uris":{"android":"levelo://app?vid=833f97ec-e704-4051-ab3b-2e9eb58f71d0","ios":"levelo://app?vid=833f97ec-e704-4051-ab3b-2e9eb58f71d0"},"vehicle_type_id":"4","last_reported":1752257734,"current_range_meters":8000,"station_id":"","pricing_plan_id":"cebpf4jnsgd1na2vs0mg"},{"bike_id":"85ca0c8a-0572-4a6e-bd85-0a9de639a9fe","system_id":"levelo_inurba_marseille","lat":43.29432,"lon":5.38599,"is_reserved":false,"is_disabled":true,"rental_uris":{"android":"levelo://app?vid=85ca0c8a-0572-4a6e-bd85-0a9de639a9fe","ios":"levelo://app?vid=85ca0c8a-0572-4a6e-bd85-0a9de639a9fe"},"vehicle_type_id":"4","last_reported":1752257734,"current_range_meters":8000,"station_id":"ce4bh2h2rcd13ifvqdh0","pricing_plan_id":"cebpf4jnsgd1na2vs0mg"},{"bike_id":"0f1efd82-ce8e-4f13-b84c-98b7817bd907","system_id":"levelo_inurba_marseille","lat":43.309498,"lon":5.390259,"is_reserved":false,"is_disabled":false,"rental_uris":{"android":"levelo://app?vid=0f1efd82-ce8e-4f13-b84c-98b7817bd907","ios":"levelo://app?vid=0f1efd82-ce8e-4f13-b84c-98b7817bd907"},"vehicle_type_id":"4","last_reported":1752257734,"current_range_meters":8000,"station_id":"ce4bgup2rcd13ifvqco0","pricing_plan_id":"cebpf4jnsgd1na2vs0mg"},{"bike_id":"7295afe4-5f05-4dcf-a92e-b6f492503e25","system_id":"levelo_inurba_marseille","lat":43.28413,"lon":5.34977,"is_reserved":false,"is_disabled":false,"rental_uris":{"android":"levelo://app?vid=7295afe4-5f05-4dcf-a92e-b6f492503e25","ios":"levelo://app?vid=7295afe4-5f05-4dcf-a92e-b6f492503e25"},"vehicle_type_id":"4","last_reported":1752257734,"current_range_meters":8400,"station_id":"ce4bhbh2rcd13ifvqepg","pricing_plan_id":"cebpf4jnsgd1na2vs0mg"},{"bike_id":"4c204f19-2747-402b-a19c-08af62f7eecb","system_id":"levelo_inurba_marseille","lat":43.225053,"lon":5.347853,"is_reserved":false,"is_disabled":false,"rental_uris":{"android":"levelo://app?vid=4c204f19-2747-402b-a19c-08af62f7eecb","ios":"levelo://app?vid=4c204f19-2747-402b-a19c-08af62f7eecb"},"vehicle_type_id":"4","last_reported":1752257734,"current_range_meters":8400,"station_id":"","pricing_plan_id":"cebpf4jnsgd1na2vs0mg"},{"bike_id":"efe6bec3-1abe-48c6-ad30-3ac2c6304fe7","system_id":"levelo_inurba_marseille","lat":43.30591,"lon":5.39355,"is_reserved":false,"is_disabled":false,"rental_uris":{"android":"levelo://app?vid=efe6bec3-1abe-48c6-ad30-3ac2c6304fe7","ios":"levelo://app?vid=efe6bec3-1abe-48c6-ad30-3ac2c6304fe7"},"vehicle_type_id":"4","last_reported":1752257734,"current_range_meters":8400,"station_id":"ce4bh0p2rcd13ifvqd80","pricing_plan_id":"cebpf4jnsgd1na2vs0mg"},{"bike_id":"3c4691cc-438e-4e58-bb6b-3d8ec141eda4","system_id":"levelo_inurba_marseille","lat":43.3176,"lon":5.3901,"is_reserved":false,"is_disabled":false,"rental_uris":{"android":"levelo://app?vid=3c4691cc-438e-4e58-bb6b-3d8ec141eda4","ios":"levelo://app?vid=3c4691cc-438e-4e58-bb6b-3d8ec141eda4"},"vehicle_type_id":"4","last_reported":1752257734,"current_range_meters":8400,"station_id":"ce4bhqp2rcd13ifvqhng","pricing_plan_id":"cebpf4jnsgd1na2vs0mg"},{"bike_id":"d940b492-06fc-4464-b9d8-34d36cad590c","system_id":"levelo_inurba_marseille","lat":43.28705,"lon":5.39972,"is_reserved":false,"is_disabled":false,"rental_uris":{"android":"levelo://app?vid=d940b492-06fc-4464-b9d8-34d36cad590c","ios":"levelo://app?vid=d940b492-06fc-4464-b9d8-34d36cad590c"},"vehicle_type_id":"4","last_reported":1752257734,"current_range_meters":8800,"station_id":"ce4bho92rcd13ifvqh3g","pricing_plan_id":"cebpf4jnsgd1na2vs0mg"},{"bike_id":"ea7f713a-f8eb-4f16-8168-36d2161084e8","system_id":"levelo_inurba_marseille","lat":43.27875,"lon":5.39435,"is_reserved":false,"is_disabled":false,"rental_uris":{"android":"levelo://app?vid=ea7f713a-f8eb-4f16-8168-36d2161084e8","ios":"levelo://app?vid=ea7f713a-f8eb-4f16-8168-36d2161084e8"},"vehicle_type_id":"4","last_reported":1752257734,"current_range_meters":8800,"station_id":"","pricing_plan_id":"cebpf4jnsgd1na2vs0mg"},{"bike_id":"0807bcd9-2ed2-49ce-90bb-ae02f1a77634","system_id":"levelo_inurba_marseille","lat":43.29198,"lon":5.39322,"is_reserved":false,"is_disabled":false,"rental_uris":{"android":"levelo://app?vid=0807bcd9-2ed2-49ce-90bb-ae02f1a77634","ios":"levelo://app?vid=0807bcd9-2ed2-49ce-90bb-ae02f1a77634"},"vehicle_type_id":"4","last_reported":1752257734,"current_range_meters":8800,"station_id":"ce4bh192rcd13ifvqdd0","pricing_plan_id":"cebpf4jnsgd1na2vs0mg"},{"bike_id":"f6379f47-d054-43a8-bf41-72c2d3a2fa59","system_id":"levelo_inurba_marseille","lat":43.23964,"lon":5.36638,"is_reserved":false,"is_disabled":true,"rental_uris":{"android":"levelo://app?vid=f6379f47-d054-43a8-bf41-72c2d3a2fa59","ios":"levelo://app?vid=f6379f47-d054-43a8-bf41-72c2d3a2fa59"},"vehicle_type_id":"4","last_reported":1752257734,"current_range_meters":8800,"station_id":"ce4bhi12rcd13ifvqfp0","pricing_plan_id":"cebpf4jnsgd1na2vs0mg"},{"bike_id":"b9797683-29ef-443a-a6e1-33d3703ffb94","system_id":"levelo_inurba_marseille","lat":43.292786,"lon":5.368427,"is_reserved":false,"is_disabled":false,"rental_uris":{"android":"levelo://app?vid=b9797683-29ef-443a-a6e1-33d3703ffb94","ios":"levelo://app?vid=b9797683-29ef-443a-a6e1-33d3703ffb94"},"vehicle_type_id":"4","last_reported":1752257734,"current_range_meters":8800,"station_id":"","pricing_plan_id":"cebpf4jnsgd1na2vs0mg"},{"bike_id":"54d13251-d060-40e7-9740-5050a4e06edf","system_id":"levelo_inurba_marseille","lat":43.27369,"lon":5.3625,"is_reserved":false,"is_disabled":false,"rental_uris":{"android":"levelo://app?vid=54d13251-d060-40e7-9740-5050a4e06edf","ios":"levelo://app?vid=54d13251-d060-40e7-9740-5050a4e06edf"},"vehicle_type_id":"4","last_reported":1752257734,"current_range_meters":8800,"station_id":"ce4bhbh2rcd13ifvqeo0","pricing_plan_id":"cebpf4jnsgd1na2vs0mg"},{"bike_id":"93368431-ba3d-494d-bd7c-c8d34f73c1ee","system_id":"levelo_inurba_marseille","lat":43.282628,"lon":5.350574,"is_reserved":false,"is_disabled":false,"rental_uris":{"android":"levelo://app?vid=93368431-ba3d-494d-bd7c-c8d34f73c1ee","ios":"levelo://app?vid=93368431-ba3d-494d-bd7c-c8d34f73c1ee"},"vehicle_type_id":"4","last_reported":1752257734,"current_range_meters":8000,"station_id":"ce4bhbp2rcd13ifvqerg","pricing_plan_id":"cebpf4jnsgd1na2vs0mg"},{"bike_id":"bcd6c578-fb6c-457e-87a1-e27a5579df87","system_id":"levelo_inurba_marseille","lat":43.28406,"lon":5.3497,"is_reserved":false,"is_disabled":false,"rental_uris":{"android":"levelo://app?vid=bcd6c578-fb6c-457e-87a1-e27a5579df87","ios":"levelo://app?vid=bcd6c578-fb6c-457e-87a1-e27a5579df87"},"vehicle_type_id":"4","last_reported":1752257734,"current_range_meters":9200,"station_id":"ce4bhbh2rcd13ifvqepg","pricing_plan_id":"cebpf4jnsgd1na2vs0mg"},{"bike_id":"2711e2df-4467-499e-8fe3-b15ecca6968c","system_id":"levelo_inurba_marseille","lat":43.306358,"lon":5.400657,"is_reserved":false,"is_disabled":true,"rental_uris":{"android":"levelo://app?vid=2711e2df-4467-499e-8fe3-b15ecca6968c","ios":"levelo://app?vid=2711e2df-4467-499e-8fe3-b15ecca6968c"},"vehicle_type_id":"4","last_reported":1752257734,"current_range_meters":9200,"station_id":"ce4bh112rcd13ifvqda0","pricing_plan_id":"cebpf4jnsgd1na2vs0mg"},{"bike_id":"737f6bea-35ce-412a-88cf-3b48484d34e6","system_id":"levelo_inurba_marseille","lat":43.30095,"lon":5.39071,"is_reserved":false,"is_disabled":false,"rental_uris":{"android":"levelo://app?vid=737f6bea-35ce-412a-88cf-3b48484d34e6","ios":"levelo://app?vid=737f6bea-35ce-412a-88cf-3b48484d34e6"},"vehicle_type_id":"4","last_reported":1752257734,"current_range_meters":9200,"station_id":"ce4bh192rcd13ifvqdb0","pricing_plan_id":"cebpf4jnsgd1na2vs0mg"},{"bike_id":"d4588b24-fa10-4a81-b24f-d2e83e7f0b9d","system_id":"levelo_inurba_marseille","lat":43.23962,"lon":5.36625,"is_reserved":false,"is_disabled":false,"rental_uris":{"android":"levelo://app?vid=d4588b24-fa10-4a81-b24f-d2e83e7f0b9d","ios":"levelo://app?vid=d4588b24-fa10-4a81-b24f-d2e83e7f0b9d"},"vehicle_type_id":"4","last_reported":1752257734,"current_range_meters":9600,"station_id":"ce4bhi12rcd13ifvqfp0","pricing_plan_id":"cebpf4jnsgd1na2vs0mg"},{"bike_id":"b4e2f39c-1a0b-4216-9832-fbb3831b612f","system_id":"levelo_inurba_marseille","lat":43.31163,"lon":5.38726,"is_reserved":false,"is_disabled":false,"rental_uris":{"android":"levelo://app?vid=b4e2f39c-1a0b-4216-9832-fbb3831b612f","ios":"levelo://app?vid=b4e2f39c-1a0b-4216-9832-fbb3831b612f"},"vehicle_type_id":"4","last_reported":1752257734,"current_range_meters":9600,"station_id":"ce4bgv12rcd13ifvqcp0","pricing_plan_id":"cebpf4jnsgd1na2vs0mg"},{"bike_id":"21e3c009-4b78-443a-84a0-048116bfef21","system_id":"levelo_inurba_marseille","lat":43.28405,"lon":5.34995,"is_reserved":false,"is_disabled":false,"rental_uris":{"android":"levelo://app?vid=21e3c009-4b78-443a-84a0-048116bfef21","ios":"levelo://app?vid=21e3c009-4b78-443a-84a0-048116bfef21"},"vehicle_type_id":"4","last_reported":1752257734,"current_range_meters":9600,"station_id":"ce4bhbh2rcd13ifvqepg","pricing_plan_id":"cebpf4jnsgd1na2vs0mg"},{"bike_id":"c537cc12-fe8a-49b3-ac44-b2a6f80bc2b0","system_id":"levelo_inurba_marseille","lat":43.29067,"lon":5.37163,"is_reserved":false,"is_disabled":false,"rental_uris":{"android":"levelo://app?vid=c537cc12-fe8a-49b3-ac44-b2a6f80bc2b0","ios":"levelo://app?vid=c537cc12-fe8a-49b3-ac44-b2a6f80bc2b0"},"vehicle_type_id":"4","last_reported":1752257734,"current_range_meters":9600,"station_id":"ce4bh5p2rcd13ifvqe4g","pricing_plan_id":"cebpf4jnsgd1na2vs0mg"},{"bike_id":"4e209b0c-855f-4b51-8120-2faef8673853","system_id":"levelo_inurba_marseille","lat":43.306142,"lon":5.368795,"is_reserved":false,"is_disabled":false,"rental_uris":{"android":"levelo://app?vid=4e209b0c-855f-4b51-8120-2faef8673853","ios":"levelo://app?vid=4e209b0c-855f-4b51-8120-2faef8673853"},"vehicle_type_id":"4","last_reported":1752257734,"current_range_meters":9600,"station_id":"","pricing_plan_id":"cebpf4jnsgd1na2vs0mg"},{"bike_id":"c4ce93cf-4268-4ad2-add7-0e166b75f60a","system_id":"levelo_inurba_marseille","lat":43.30336,"lon":5.40433,"is_reserved":false,"is_disabled":false,"rental_uris":{"android":"levelo://app?vid=c4ce93cf-4268-4ad2-add7-0e166b75f60a","ios":"levelo://app?vid=c4ce93cf-4268-4ad2-add7-0e166b75f60a"},"vehicle_type_id":"4","last_reported":1752257734,"current_range_meters":10000,"station_id":"ce4bh012rcd13ifvqd10","pricing_plan_id":"cebpf4jnsgd1na2vs0mg"},{"bike_id":"f166470a-6c77-467a-a537-4628500c78ad","system_id":"levelo_inurba_marseille","lat":43.2978,"lon":5.37095,"is_reserved":false,"is_disabled":false,"rental_uris":{"android":"levelo://app?vid=f166470a-6c77-467a-a537-4628500c78ad","ios":"levelo://app?vid=f166470a-6c77-467a-a537-4628500c78ad"},"vehicle_type_id":"4","last_reported":1752257734,"current_range_meters":10000,"station_id":"ce4bgop2rcd13ifvqc1g","pricing_plan_id":"cebpf4jnsgd1na2vs0mg"},{"bike_id":"d4579c0e-fda2-4f4b-9aff-53932a971154","system_id":"levelo_inurba_marseille","lat":43.29544,"lon":5.38541,"is_reserved":false,"is_disabled":true,"rental_uris":{"android":"levelo://app?vid=d4579c0e-fda2-4f4b-9aff-53932a971154","ios":"levelo://app?vid=d4579c0e-fda2-4f4b-9aff-53932a971154"},"vehicle_type_id":"4","last_reported":1752257734,"current_range_meters":10000,"station_id":"ce4bgih2rcd13ifvqba0","pricing_plan_id":"cebpf4jnsgd1na2vs0mg"},{"bike_id":"f2681b96-0576-496d-9ee3-9ccc19d08172","system_id":"levelo_inurba_marseille","lat":43.24162,"lon":5.36392,"is_reserved":false,"is_disabled":false,"rental_uris":{"android":"levelo://app?vid=f2681b96-0576-496d-9ee3-9ccc19d08172","ios":"levelo://app?vid=f2681b96-0576-496d-9ee3-9ccc19d08172"},"vehicle_type_id":"4","last_reported":1752257734,"current_range_meters":10000,"station_id":"cpo36qri1sfpv3e86is0","pricing_plan_id":"cebpf4jnsgd1na2vs0mg"},{"bike_id":"8325c871-462a-43cf-8265-6c44f8be3596","system_id":"levelo_inurba_marseille","lat":43.32333,"lon":5.4062,"is_reserved":false,"is_disabled":false,"rental_uris":{"android":"levelo://app?vid=8325c871-462a-43cf-8265-6c44f8be3596","ios":"levelo://app?vid=8325c871-462a-43cf-8265-6c44f8be3596"},"vehicle_type_id":"4","last_reported":1752257734,"current_range_meters":10000,"station_id":"ce4bhq92rcd13ifvqhjg","pricing_plan_id":"cebpf4jnsgd1na2vs0mg"},{"bike_id":"57943c27-05a4-4be3-a2cb-ccdfb4d1678c","system_id":"levelo_inurba_marseille","lat":43.27174,"lon":5.40997,"is_reserved":false,"is_disabled":false,"rental_uris":{"android":"levelo://app?vid=57943c27-05a4-4be3-a2cb-ccdfb4d1678c","ios":"levelo://app?vid=57943c27-05a4-4be3-a2cb-ccdfb4d1678c"},"vehicle_type_id":"4","last_reported":1752257734,"current_range_meters":10000,"station_id":"ce4bhl12rcd13ifvqgf0","pricing_plan_id":"cebpf4jnsgd1na2vs0mg"},{"bike_id":"8cc29631-6eb6-4853-ae29-124bf553480e","system_id":"levelo_inurba_marseille","lat":43.32045,"lon":5.41548,"is_reserved":false,"is_disabled":false,"rental_uris":{"android":"levelo://app?vid=8cc29631-6eb6-4853-ae29-124bf553480e","ios":"levelo://app?vid=8cc29631-6eb6-4853-ae29-124bf553480e"},"vehicle_type_id":"4","last_reported":1752257734,"current_range_meters":10000,"station_id":"ce4bhq92rcd13ifvqhkg","pricing_plan_id":"cebpf4jnsgd1na2vs0mg"},{"bike_id":"f9ace68e-417f-4077-a59b-c7fe60256e1d","system_id":"levelo_inurba_marseille","lat":43.28454,"lon":5.35886,"is_reserved":false,"is_disabled":false,"rental_uris":{"android":"levelo://app?vid=f9ace68e-417f-4077-a59b-c7fe60256e1d","ios":"levelo://app?vid=f9ace68e-417f-4077-a59b-c7fe60256e1d"},"vehicle_type_id":"4","last_reported":1752257734,"current_range_meters":10000,"station_id":"ce4bhah2rcd13ifvqei0","pricing_plan_id":"cebpf4jnsgd1na2vs0mg"},{"bike_id":"52c044a3-86cf-4acb-ae7b-6f80dfafbbfd","system_id":"levelo_inurba_marseille","lat":43.29201,"lon":5.35808,"is_reserved":false,"is_disabled":false,"rental_uris":{"android":"levelo://app?vid=52c044a3-86cf-4acb-ae7b-6f80dfafbbfd","ios":"levelo://app?vid=52c044a3-86cf-4acb-ae7b-6f80dfafbbfd"},"vehicle_type_id":"4","last_reported":1752257734,"current_range_meters":10000,"station_id":"ce4bhb12rcd13ifvqel0","pricing_plan_id":"cebpf4jnsgd1na2vs0mg"},{"bike_id":"bb79762e-2ac6-4126-be27-1fa6d49e5298","system_id":"levelo_inurba_marseille","lat":43.30305,"lon":5.39209,"is_reserved":false,"is_disabled":false,"rental_uris":{"android":"levelo://app?vid=bb79762e-2ac6-4126-be27-1fa6d49e5298","ios":"levelo://app?vid=bb79762e-2ac6-4126-be27-1fa6d49e5298"},"vehicle_type_id":"4","last_reported":1752257734,"current_range_meters":10000,"station_id":"ce4bgkh2rcd13ifvqbk0","pricing_plan_id":"cebpf4jnsgd1na2vs0mg"},{"bike_id":"81346845-e563-4a54-9cf3-0e2793adb323","system_id":"levelo_inurba_marseille","lat":43.337591,"lon":5.374661,"is_reserved":false,"is_disabled":false,"rental_uris":{"android":"levelo://app?vid=81346845-e563-4a54-9cf3-0e2793adb323","ios":"levelo://app?vid=81346845-e563-4a54-9cf3-0e2793adb323"},"vehicle_type_id":"4","last_reported":1752257734,"current_range_meters":10800,"station_id":"","pricing_plan_id":"cebpf4jnsgd1na2vs0mg"},{"bike_id":"5a7b57ef-a00d-4d19-853c-d49c119db95f","system_id":"levelo_inurba_marseille","lat":43.24566,"lon":5.3734,"is_reserved":false,"is_disabled":true,"rental_uris":{"android":"levelo://app?vid=5a7b57ef-a00d-4d19-853c-d49c119db95f","ios":"levelo://app?vid=5a7b57ef-a00d-4d19-853c-d49c119db95f"},"vehicle_type_id":"4","last_reported":1752257734,"current_range_meters":10800,"station_id":"","pricing_plan_id":"cebpf4jnsgd1na2vs0mg"},{"bike_id":"e4b0ded8-a6a7-4196-a1cb-820651774ffc","system_id":"levelo_inurba_marseille","lat":43.284097,"lon":5.374952,"is_reserved":false,"is_disabled":false,"rental_uris":{"android":"levelo://app?vid=e4b0ded8-a6a7-4196-a1cb-820651774ffc","ios":"levelo://app?vid=e4b0ded8-a6a7-4196-a1cb-820651774ffc"},"vehicle_type_id":"4","last_reported":1752257734,"current_range_meters":10800,"station_id":"ce4bh412rcd13ifvqds0","pricing_plan_id":"cebpf4jnsgd1na2vs0mg"},{"bike_id":"6f5793be-ff53-468d-8a0c-0f54a848f191","system_id":"levelo_inurba_marseille","lat":43.29189,"lon":5.35802,"is_reserved":false,"is_disabled":false,"rental_uris":{"android":"levelo://app?vid=6f5793be-ff53-468d-8a0c-0f54a848f191","ios":"levelo://app?vid=6f5793be-ff53-468d-8a0c-0f54a848f191"},"vehicle_type_id":"4","last_reported":1752257734,"current_range_meters":10800,"station_id":"ce4bhb12rcd13ifvqel0","pricing_plan_id":"cebpf4jnsgd1na2vs0mg"},{"bike_id":"63cc7d51-12cf-445c-9bdb-fae871aeef22","system_id":"levelo_inurba_marseille","lat":43.28933,"lon":5.36636,"is_reserved":false,"is_disabled":false,"rental_uris":{"android":"levelo://app?vid=63cc7d51-12cf-445c-9bdb-fae871aeef22","ios":"levelo://app?vid=63cc7d51-12cf-445c-9bdb-fae871aeef22"},"vehicle_type_id":"4","last_reported":1752257734,"current_range_meters":10800,"station_id":"ce4bhap2rcd13ifvqek0","pricing_plan_id":"cebpf4jnsgd1na2vs0mg"},{"bike_id":"0de15f2b-5dae-4908-9359-1b511edc79f2","system_id":"levelo_inurba_marseille","lat":43.28413,"lon":5.34983,"is_reserved":false,"is_disabled":false,"rental_uris":{"android":"levelo://app?vid=0de15f2b-5dae-4908-9359-1b511edc79f2","ios":"levelo://app?vid=0de15f2b-5dae-4908-9359-1b511edc79f2"},"vehicle_type_id":"4","last_reported":1752257734,"current_range_meters":11200,"station_id":"ce4bhbh2rcd13ifvqepg","pricing_plan_id":"cebpf4jnsgd1na2vs0mg"},{"bike_id":"8330a68f-2f6e-4337-9657-35d7d87c04ca","system_id":"levelo_inurba_marseille","lat":43.25451,"lon":5.37946,"is_reserved":false,"is_disabled":false,"rental_uris":{"android":"levelo://app?vid=8330a68f-2f6e-4337-9657-35d7d87c04ca","ios":"levelo://app?vid=8330a68f-2f6e-4337-9657-35d7d87c04ca"},"vehicle_type_id":"4","last_reported":1752257734,"current_range_meters":11200,"station_id":"","pricing_plan_id":"cebpf4jnsgd1na2vs0mg"},{"bike_id":"cd476012-a55e-4789-b12d-1993e1bc4d04","system_id":"levelo_inurba_marseille","lat":43.28272,"lon":5.35057,"is_reserved":false,"is_disabled":false,"rental_uris":{"android":"levelo://app?vid=cd476012-a55e-4789-b12d-1993e1bc4d04","ios":"levelo://app?vid=cd476012-a55e-4789-b12d-1993e1bc4d04"},"vehicle_type_id":"4","last_reported":1752257734,"current_range_meters":11200,"station_id":"ce4bhbp2rcd13ifvqerg","pricing_plan_id":"cebpf4jnsgd1na2vs0mg"},{"bike_id":"b8c8c829-fcad-4b9a-94ba-95fcd315b051","system_id":"levelo_inurba_marseille","lat":43.273353,"lon":5.390943,"is_reserved":false,"is_disabled":true,"rental_uris":{"android":"levelo://app?vid=b8c8c829-fcad-4b9a-94ba-95fcd315b051","ios":"levelo://app?vid=b8c8c829-fcad-4b9a-94ba-95fcd315b051"},"vehicle_type_id":"4","last_reported":1752257734,"current_range_meters":11200,"station_id":"ce4bhgp2rcd13ifvqfe0","pricing_plan_id":"cebpf4jnsgd1na2vs0mg"},{"bike_id":"30779e2e-ca85-4674-b3f6-e57ef1c3fef6","system_id":"levelo_inurba_marseille","lat":43.28285,"lon":5.350533,"is_reserved":false,"is_disabled":false,"rental_uris":{"android":"levelo://app?vid=30779e2e-ca85-4674-b3f6-e57ef1c3fef6","ios":"levelo://app?vid=30779e2e-ca85-4674-b3f6-e57ef1c3fef6"},"vehicle_type_id":"4","last_reported":1752257734,"current_range_meters":11200,"station_id":"ce4bhbp2rcd13ifvqerg","pricing_plan_id":"cebpf4jnsgd1na2vs0mg"},{"bike_id":"f0fba376-aed3-4fc7-b27a-da833d00856f","system_id":"levelo_inurba_marseille","lat":43.29792,"lon":5.39329,"is_reserved":false,"is_disabled":false,"rental_uris":{"android":"levelo://app?vid=f0fba376-aed3-4fc7-b27a-da833d00856f","ios":"levelo://app?vid=f0fba376-aed3-4fc7-b27a-da833d00856f"},"vehicle_type_id":"4","last_reported":1752257734,"current_range_meters":11200,"station_id":"chh1huq6cuj3fo74tm60","pricing_plan_id":"cebpf4jnsgd1na2vs0mg"},{"bike_id":"534ed68d-5ceb-43a8-968b-be30f01dfa74","system_id":"levelo_inurba_marseille","lat":43.28212,"lon":5.3906,"is_reserved":false,"is_disabled":true,"rental_uris":{"android":"levelo://app?vid=534ed68d-5ceb-43a8-968b-be30f01dfa74","ios":"levelo://app?vid=534ed68d-5ceb-43a8-968b-be30f01dfa74"},"vehicle_type_id":"4","last_reported":1752257734,"current_range_meters":11600,"station_id":"","pricing_plan_id":"cebpf4jnsgd1na2vs0mg"},{"bike_id":"532fcb3c-975e-4be3-ab68-3f3d54df12d6","system_id":"levelo_inurba_marseille","lat":43.24804,"lon":5.37435,"is_reserved":false,"is_disabled":false,"rental_uris":{"android":"levelo://app?vid=532fcb3c-975e-4be3-ab68-3f3d54df12d6","ios":"levelo://app?vid=532fcb3c-975e-4be3-ab68-3f3d54df12d6"},"vehicle_type_id":"4","last_reported":1752257734,"current_range_meters":11600,"station_id":"ce4bhgh2rcd13ifvqfb0","pricing_plan_id":"cebpf4jnsgd1na2vs0mg"},{"bike_id":"385f549b-7ab4-47f5-92cf-865088467a70","system_id":"levelo_inurba_marseille","lat":43.30529,"lon":5.38413,"is_reserved":false,"is_disabled":false,"rental_uris":{"android":"levelo://app?vid=385f549b-7ab4-47f5-92cf-865088467a70","ios":"levelo://app?vid=385f549b-7ab4-47f5-92cf-865088467a70"},"vehicle_type_id":"4","last_reported":1752257734,"current_range_meters":11600,"station_id":"ce4bgg92rcd13ifvqb30","pricing_plan_id":"cebpf4jnsgd1na2vs0mg"},{"bike_id":"1797e06b-d9e5-4fb7-be0f-8230d778970b","system_id":"levelo_inurba_marseille","lat":43.29264,"lon":5.36836,"is_reserved":false,"is_disabled":true,"rental_uris":{"android":"levelo://app?vid=1797e06b-d9e5-4fb7-be0f-8230d778970b","ios":"levelo://app?vid=1797e06b-d9e5-4fb7-be0f-8230d778970b"},"vehicle_type_id":"4","last_reported":1752257734,"current_range_meters":11600,"station_id":"ce4bhbp2rcd13ifvqesg","pricing_plan_id":"cebpf4jnsgd1na2vs0mg"},{"bike_id":"efd2206e-a1ee-42fb-98bf-07155893af7f","system_id":"levelo_inurba_marseille","lat":43.28402,"lon":5.3499,"is_reserved":false,"is_disabled":false,"rental_uris":{"android":"levelo://app?vid=efd2206e-a1ee-42fb-98bf-07155893af7f","ios":"levelo://app?vid=efd2206e-a1ee-42fb-98bf-07155893af7f"},"vehicle_type_id":"4","last_reported":1752257734,"current_range_meters":11600,"station_id":"ce4bhbh2rcd13ifvqepg","pricing_plan_id":"cebpf4jnsgd1na2vs0mg"},{"bike_id":"8f89e4f3-495a-4317-bd6d-37a19186d65b","system_id":"levelo_inurba_marseille","lat":43.33741,"lon":5.39192,"is_reserved":false,"is_disabled":false,"rental_uris":{"android":"levelo://app?vid=8f89e4f3-495a-4317-bd6d-37a19186d65b","ios":"levelo://app?vid=8f89e4f3-495a-4317-bd6d-37a19186d65b"},"vehicle_type_id":"4","last_reported":1752257734,"current_range_meters":11600,"station_id":"ce4bhr92rcd13ifvqhsg","pricing_plan_id":"cebpf4jnsgd1na2vs0mg"},{"bike_id":"a2f087e4-2174-4792-b543-bc2fc14fed30","system_id":"levelo_inurba_marseille","lat":43.28418,"lon":5.34959,"is_reserved":false,"is_disabled":false,"rental_uris":{"android":"levelo://app?vid=a2f087e4-2174-4792-b543-bc2fc14fed30","ios":"levelo://app?vid=a2f087e4-2174-4792-b543-bc2fc14fed30"},"vehicle_type_id":"4","last_reported":1752257734,"current_range_meters":11600,"station_id":"ce4bhbh2rcd13ifvqepg","pricing_plan_id":"cebpf4jnsgd1na2vs0mg"},{"bike_id":"21cc4a87-2424-44a2-8db3-1f99d6545494","system_id":"levelo_inurba_marseille","lat":43.21753,"lon":5.34586,"is_reserved":false,"is_disabled":false,"rental_uris":{"android":"levelo://app?vid=21cc4a87-2424-44a2-8db3-1f99d6545494","ios":"levelo://app?vid=21cc4a87-2424-44a2-8db3-1f99d6545494"},"vehicle_type_id":"4","last_reported":1752257734,"current_range_meters":11600,"station_id":"st_cvj6r9ubvosntc0bgbag","pricing_plan_id":"cebpf4jnsgd1na2vs0mg"},{"bike_id":"e7e5071a-8e26-4a64-8b1f-39ccbe72806a","system_id":"levelo_inurba_marseille","lat":43.3237,"lon":5.40583,"is_reserved":false,"is_disabled":false,"rental_uris":{"android":"levelo://app?vid=e7e5071a-8e26-4a64-8b1f-39ccbe72806a","ios":"levelo://app?vid=e7e5071a-8e26-4a64-8b1f-39ccbe72806a"},"vehicle_type_id":"4","last_reported":1752257734,"current_range_meters":12000,"station_id":"ce4bhq92rcd13ifvqhjg","pricing_plan_id":"cebpf4jnsgd1na2vs0mg"},{"bike_id":"87b55f31-f304-4dd7-8a13-f7a3644dd5b1","system_id":"levelo_inurba_marseille","lat":43.284161,"lon":5.349826,"is_reserved":false,"is_disabled":false,"rental_uris":{"android":"levelo://app?vid=87b55f31-f304-4dd7-8a13-f7a3644dd5b1","ios":"levelo://app?vid=87b55f31-f304-4dd7-8a13-f7a3644dd5b1"},"vehicle_type_id":"4","last_reported":1752257734,"current_range_meters":12000,"station_id":"ce4bhbh2rcd13ifvqepg","pricing_plan_id":"cebpf4jnsgd1na2vs0mg"},{"bike_id":"1981782f-256c-4c97-8ef6-079452b48d42","system_id":"levelo_inurba_marseille","lat":43.27898,"lon":5.38015,"is_reserved":false,"is_disabled":false,"rental_uris":{"android":"levelo://app?vid=1981782f-256c-4c97-8ef6-079452b48d42","ios":"levelo://app?vid=1981782f-256c-4c97-8ef6-079452b48d42"},"vehicle_type_id":"4","last_reported":1752257734,"current_range_meters":12000,"station_id":"ce4bhf92rcd13ifvqf50","pricing_plan_id":"cebpf4jnsgd1na2vs0mg"},{"bike_id":"6cfc468d-aa94-4096-bdab-f9fb6b3eace0","system_id":"levelo_inurba_marseille","lat":43.28424,"lon":5.34997,"is_reserved":false,"is_disabled":false,"rental_uris":{"android":"levelo://app?vid=6cfc468d-aa94-4096-bdab-f9fb6b3eace0","ios":"levelo://app?vid=6cfc468d-aa94-4096-bdab-f9fb6b3eace0"},"vehicle_type_id":"4","last_reported":1752257734,"current_range_meters":12000,"station_id":"ce4bhbh2rcd13ifvqepg","pricing_plan_id":"cebpf4jnsgd1na2vs0mg"},{"bike_id":"1864f4ad-f8a2-42cb-ac0c-3b76f81be837","system_id":"levelo_inurba_marseille","lat":43.29257,"lon":5.37612,"is_reserved":false,"is_disabled":false,"rental_uris":{"android":"levelo://app?vid=1864f4ad-f8a2-42cb-ac0c-3b76f81be837","ios":"levelo://app?vid=1864f4ad-f8a2-42cb-ac0c-3b76f81be837"},"vehicle_type_id":"4","last_reported":1752257734,"current_range_meters":12000,"station_id":"ce4bgi12rcd13ifvqb80","pricing_plan_id":"cebpf4jnsgd1na2vs0mg"},{"bike_id":"d849a247-c2c0-4619-bac8-f5a6994e0014","system_id":"levelo_inurba_marseille","lat":43.320329,"lon":5.415629,"is_reserved":false,"is_disabled":true,"rental_uris":{"android":"levelo://app?vid=d849a247-c2c0-4619-bac8-f5a6994e0014","ios":"levelo://app?vid=d849a247-c2c0-4619-bac8-f5a6994e0014"},"vehicle_type_id":"4","last_reported":1752257734,"current_range_meters":12000,"station_id":"ce4bhq92rcd13ifvqhkg","pricing_plan_id":"cebpf4jnsgd1na2vs0mg"},{"bike_id":"aef35f6b-0ad3-48b6-83e2-d8bd647e71a8","system_id":"levelo_inurba_marseille","lat":43.30592,"lon":5.37191,"is_reserved":false,"is_disabled":false,"rental_uris":{"android":"levelo://app?vid=aef35f6b-0ad3-48b6-83e2-d8bd647e71a8","ios":"levelo://app?vid=aef35f6b-0ad3-48b6-83e2-d8bd647e71a8"},"vehicle_type_id":"4","last_reported":1752257734,"current_range_meters":11600,"station_id":"ce4bgqh2rcd13ifvqc4g","pricing_plan_id":"cebpf4jnsgd1na2vs0mg"},{"bike_id":"c74b27ee-3cfc-4e11-b4c4-f418cd2e9569","system_id":"levelo_inurba_marseille","lat":43.241732,"lon":5.36408,"is_reserved":false,"is_disabled":false,"rental_uris":{"android":"levelo://app?vid=c74b27ee-3cfc-4e11-b4c4-f418cd2e9569","ios":"levelo://app?vid=c74b27ee-3cfc-4e11-b4c4-f418cd2e9569"},"vehicle_type_id":"4","last_reported":1752257734,"current_range_meters":12000,"station_id":"cpo36qri1sfpv3e86is0","pricing_plan_id":"cebpf4jnsgd1na2vs0mg"},{"bike_id":"e09965d9-e429-477b-8c1a-f3bd6f2e090f","system_id":"levelo_inurba_marseille","lat":43.262041,"lon":5.379296,"is_reserved":false,"is_disabled":false,"rental_uris":{"android":"levelo://app?vid=e09965d9-e429-477b-8c1a-f3bd6f2e090f","ios":"levelo://app?vid=e09965d9-e429-477b-8c1a-f3bd6f2e090f"},"vehicle_type_id":"4","last_reported":1752257734,"current_range_meters":12000,"station_id":"ce4bhjp2rcd13ifvqg90","pricing_plan_id":"cebpf4jnsgd1na2vs0mg"},{"bike_id":"3f50b904-8311-4781-93ab-8107c415adad","system_id":"levelo_inurba_marseille","lat":43.27634,"lon":5.361,"is_reserved":false,"is_disabled":false,"rental_uris":{"android":"levelo://app?vid=3f50b904-8311-4781-93ab-8107c415adad","ios":"levelo://app?vid=3f50b904-8311-4781-93ab-8107c415adad"},"vehicle_type_id":"4","last_reported":1752257734,"current_range_meters":12400,"station_id":"ce4bgj92rcd13ifvqbe0","pricing_plan_id":"cebpf4jnsgd1na2vs0mg"},{"bike_id":"6e44525d-ed45-445a-a877-081b94eb5813","system_id":"levelo_inurba_marseille","lat":43.30362,"lon":5.41876,"is_reserved":false,"is_disabled":true,"rental_uris":{"android":"levelo://app?vid=6e44525d-ed45-445a-a877-081b94eb5813","ios":"levelo://app?vid=6e44525d-ed45-445a-a877-081b94eb5813"},"vehicle_type_id":"4","last_reported":1752257734,"current_range_meters":12400,"station_id":"ce4bhop2rcd13ifvqh7g","pricing_plan_id":"cebpf4jnsgd1na2vs0mg"},{"bike_id":"2c702aa4-2ac5-4550-b697-5b3cdcd314b3","system_id":"levelo_inurba_marseille","lat":43.320634,"lon":5.415171,"is_reserved":false,"is_disabled":false,"rental_uris":{"android":"levelo://app?vid=2c702aa4-2ac5-4550-b697-5b3cdcd314b3","ios":"levelo://app?vid=2c702aa4-2ac5-4550-b697-5b3cdcd314b3"},"vehicle_type_id":"4","last_reported":1752257734,"current_range_meters":12400,"station_id":"ce4bhq92rcd13ifvqhkg","pricing_plan_id":"cebpf4jnsgd1na2vs0mg"},{"bike_id":"4464c91a-b8cf-48b1-82b6-b9f3398a5c02","system_id":"levelo_inurba_marseille","lat":43.28408,"lon":5.34987,"is_reserved":false,"is_disabled":false,"rental_uris":{"android":"levelo://app?vid=4464c91a-b8cf-48b1-82b6-b9f3398a5c02","ios":"levelo://app?vid=4464c91a-b8cf-48b1-82b6-b9f3398a5c02"},"vehicle_type_id":"4","last_reported":1752257734,"current_range_meters":12400,"station_id":"ce4bhbh2rcd13ifvqepg","pricing_plan_id":"cebpf4jnsgd1na2vs0mg"},{"bike_id":"ea763b7d-af40-4cf0-b52e-d33e04da8bf8","system_id":"levelo_inurba_marseille","lat":43.28456,"lon":5.35886,"is_reserved":false,"is_disabled":false,"rental_uris":{"android":"levelo://app?vid=ea763b7d-af40-4cf0-b52e-d33e04da8bf8","ios":"levelo://app?vid=ea763b7d-af40-4cf0-b52e-d33e04da8bf8"},"vehicle_type_id":"4","last_reported":1752257734,"current_range_meters":12400,"station_id":"ce4bhah2rcd13ifvqei0","pricing_plan_id":"cebpf4jnsgd1na2vs0mg"},{"bike_id":"39a9b5e6-3b40-48af-8092-556a533b8434","system_id":"levelo_inurba_marseille","lat":43.26553,"lon":5.37285,"is_reserved":false,"is_disabled":false,"rental_uris":{"android":"levelo://app?vid=39a9b5e6-3b40-48af-8092-556a533b8434","ios":"levelo://app?vid=39a9b5e6-3b40-48af-8092-556a533b8434"},"vehicle_type_id":"4","last_reported":1752257734,"current_range_meters":12800,"station_id":"ce4bhg12rcd13ifvqf70","pricing_plan_id":"cebpf4jnsgd1na2vs0mg"},{"bike_id":"44e28c2d-7460-4685-9997-621ecb7b271a","system_id":"levelo_inurba_marseille","lat":43.28274,"lon":5.35059,"is_reserved":false,"is_disabled":false,"rental_uris":{"android":"levelo://app?vid=44e28c2d-7460-4685-9997-621ecb7b271a","ios":"levelo://app?vid=44e28c2d-7460-4685-9997-621ecb7b271a"},"vehicle_type_id":"4","last_reported":1752257734,"current_range_meters":12800,"station_id":"ce4bhbp2rcd13ifvqerg","pricing_plan_id":"cebpf4jnsgd1na2vs0mg"},{"bike_id":"5e78e7e3-0528-425e-9ab1-0c7c440d5275","system_id":"levelo_inurba_marseille","lat":43.29791,"lon":5.38086,"is_reserved":false,"is_disabled":false,"rental_uris":{"android":"levelo://app?vid=5e78e7e3-0528-425e-9ab1-0c7c440d5275","ios":"levelo://app?vid=5e78e7e3-0528-425e-9ab1-0c7c440d5275"},"vehicle_type_id":"4","last_reported":1752257734,"current_range_meters":12800,"station_id":"ce4bgip2rcd13ifvqbb0","pricing_plan_id":"cebpf4jnsgd1na2vs0mg"},{"bike_id":"5076ad93-b7e2-4902-b566-655c2183f3e6","system_id":"levelo_inurba_marseille","lat":43.27969,"lon":5.38729,"is_reserved":false,"is_disabled":true,"rental_uris":{"android":"levelo://app?vid=5076ad93-b7e2-4902-b566-655c2183f3e6","ios":"levelo://app?vid=5076ad93-b7e2-4902-b566-655c2183f3e6"},"vehicle_type_id":"4","last_reported":1752257734,"current_range_meters":12800,"station_id":"ce4bhg12rcd13ifvqf80","pricing_plan_id":"cebpf4jnsgd1na2vs0mg"},{"bike_id":"b847c1bf-6e19-4622-9b4e-858d571896cf","system_id":"levelo_inurba_marseille","lat":43.284115,"lon":5.349567,"is_reserved":false,"is_disabled":false,"rental_uris":{"android":"levelo://app?vid=b847c1bf-6e19-4622-9b4e-858d571896cf","ios":"levelo://app?vid=b847c1bf-6e19-4622-9b4e-858d571896cf"},"vehicle_type_id":"4","last_reported":1752257734,"current_range_meters":12800,"station_id":"ce4bhbh2rcd13ifvqepg","pricing_plan_id":"cebpf4jnsgd1na2vs0mg"},{"bike_id":"f0f3ffa0-2ba6-4941-a141-a5ca7362dd28","system_id":"levelo_inurba_marseille","lat":43.24179,"lon":5.39733,"is_reserved":false,"is_disabled":false,"rental_uris":{"android":"levelo://app?vid=f0f3ffa0-2ba6-4941-a141-a5ca7362dd28","ios":"levelo://app?vid=f0f3ffa0-2ba6-4941-a141-a5ca7362dd28"},"vehicle_type_id":"4","last_reported":1752257734,"current_range_meters":12400,"station_id":"ce4bhn12rcd13ifvqgpg","pricing_plan_id":"cebpf4jnsgd1na2vs0mg"},{"bike_id":"d741996c-f1a8-499d-9da0-0c0929c8644f","system_id":"levelo_inurba_marseille","lat":43.282599,"lon":5.350653,"is_reserved":false,"is_disabled":false,"rental_uris":{"android":"levelo://app?vid=d741996c-f1a8-499d-9da0-0c0929c8644f","ios":"levelo://app?vid=d741996c-f1a8-499d-9da0-0c0929c8644f"},"vehicle_type_id":"4","last_reported":1752257734,"current_range_meters":12800,"station_id":"","pricing_plan_id":"cebpf4jnsgd1na2vs0mg"},{"bike_id":"45444c6a-d3de-48f7-ad56-9e3e2c7c52c9","system_id":"levelo_inurba_marseille","lat":43.3047,"lon":5.37909,"is_reserved":false,"is_disabled":false,"rental_uris":{"android":"levelo://app?vid=45444c6a-d3de-48f7-ad56-9e3e2c7c52c9","ios":"levelo://app?vid=45444c6a-d3de-48f7-ad56-9e3e2c7c52c9"},"vehicle_type_id":"4","last_reported":1752257734,"current_range_meters":12800,"station_id":"ce4bgup2rcd13ifvqcn0","pricing_plan_id":"cebpf4jnsgd1na2vs0mg"},{"bike_id":"7392143f-a48d-4d17-918a-2d49b0cf2786","system_id":"levelo_inurba_marseille","lat":43.31689,"lon":5.40478,"is_reserved":false,"is_disabled":true,"rental_uris":{"android":"levelo://app?vid=7392143f-a48d-4d17-918a-2d49b0cf2786","ios":"levelo://app?vid=7392143f-a48d-4d17-918a-2d49b0cf2786"},"vehicle_type_id":"4","last_reported":1752257734,"current_range_meters":12800,"station_id":"ce4bh012rcd13ifvqd00","pricing_plan_id":"cebpf4jnsgd1na2vs0mg"},{"bike_id":"4d4b9e28-a4f6-4d45-ac6b-64a63a768bd8","system_id":"levelo_inurba_marseille","lat":43.31528,"lon":5.37381,"is_reserved":false,"is_disabled":false,"rental_uris":{"android":"levelo://app?vid=4d4b9e28-a4f6-4d45-ac6b-64a63a768bd8","ios":"levelo://app?vid=4d4b9e28-a4f6-4d45-ac6b-64a63a768bd8"},"vehicle_type_id":"4","last_reported":1752257734,"current_range_meters":13600,"station_id":"","pricing_plan_id":"cebpf4jnsgd1na2vs0mg"},{"bike_id":"595e9351-a7ce-45de-8995-771f7d9fe86e","system_id":"levelo_inurba_marseille","lat":43.309243,"lon":5.378088,"is_reserved":false,"is_disabled":false,"rental_uris":{"android":"levelo://app?vid=595e9351-a7ce-45de-8995-771f7d9fe86e","ios":"levelo://app?vid=595e9351-a7ce-45de-8995-771f7d9fe86e"},"vehicle_type_id":"4","last_reported":1752257734,"current_range_meters":13600,"station_id":"","pricing_plan_id":"cebpf4jnsgd1na2vs0mg"},{"bike_id":"22b95231-7ba9-4581-b09a-0fe42a41f9e5","system_id":"levelo_inurba_marseille","lat":43.29782,"lon":5.37096,"is_reserved":false,"is_disabled":false,"rental_uris":{"android":"levelo://app?vid=22b95231-7ba9-4581-b09a-0fe42a41f9e5","ios":"levelo://app?vid=22b95231-7ba9-4581-b09a-0fe42a41f9e5"},"vehicle_type_id":"4","last_reported":1752257734,"current_range_meters":13600,"station_id":"ce4bgop2rcd13ifvqc1g","pricing_plan_id":"cebpf4jnsgd1na2vs0mg"},{"bike_id":"cee0b5d7-8072-44d3-8a65-17930cb87924","system_id":"levelo_inurba_marseille","lat":43.280068,"lon":5.400052,"is_reserved":false,"is_disabled":false,"rental_uris":{"android":"levelo://app?vid=cee0b5d7-8072-44d3-8a65-17930cb87924","ios":"levelo://app?vid=cee0b5d7-8072-44d3-8a65-17930cb87924"},"vehicle_type_id":"4","last_reported":1752257734,"current_range_meters":13600,"station_id":"ce4bho92rcd13ifvqh4g","pricing_plan_id":"cebpf4jnsgd1na2vs0mg"},{"bike_id":"ede7df91-10dc-4932-891a-543fad550a9c","system_id":"levelo_inurba_marseille","lat":43.31708,"lon":5.37762,"is_reserved":false,"is_disabled":false,"rental_uris":{"android":"levelo://app?vid=ede7df91-10dc-4932-891a-543fad550a9c","ios":"levelo://app?vid=ede7df91-10dc-4932-891a-543fad550a9c"},"vehicle_type_id":"4","last_reported":1752257734,"current_range_meters":13600,"station_id":"ce4bgth2rcd13ifvqch0","pricing_plan_id":"cebpf4jnsgd1na2vs0mg"},{"bike_id":"e3a75ee9-c614-467b-8cc2-f813bcef2ab1","system_id":"levelo_inurba_marseille","lat":43.33743,"lon":5.3919,"is_reserved":false,"is_disabled":false,"rental_uris":{"android":"levelo://app?vid=e3a75ee9-c614-467b-8cc2-f813bcef2ab1","ios":"levelo://app?vid=e3a75ee9-c614-467b-8cc2-f813bcef2ab1"},"vehicle_type_id":"4","last_reported":1752257734,"current_range_meters":13600,"station_id":"ce4bhr92rcd13ifvqhsg","pricing_plan_id":"cebpf4jnsgd1na2vs0mg"},{"bike_id":"dc745791-e4b0-4e9a-bf26-a83de36e49d9","system_id":"levelo_inurba_marseille","lat":43.28624,"lon":5.350961,"is_reserved":false,"is_disabled":false,"rental_uris":{"android":"levelo://app?vid=dc745791-e4b0-4e9a-bf26-a83de36e49d9","ios":"levelo://app?vid=dc745791-e4b0-4e9a-bf26-a83de36e49d9"},"vehicle_type_id":"4","last_reported":1752257734,"current_range_meters":13600,"station_id":"ce4bhch2rcd13ifvqeug","pricing_plan_id":"cebpf4jnsgd1na2vs0mg"},{"bike_id":"0a362eec-9196-4ecc-bbbf-e6895aad7159","system_id":"levelo_inurba_marseille","lat":43.29951,"lon":5.3851,"is_reserved":false,"is_disabled":false,"rental_uris":{"android":"levelo://app?vid=0a362eec-9196-4ecc-bbbf-e6895aad7159","ios":"levelo://app?vid=0a362eec-9196-4ecc-bbbf-e6895aad7159"},"vehicle_type_id":"4","last_reported":1752257734,"current_range_meters":13600,"station_id":"ce4bgj92rcd13ifvqbd0","pricing_plan_id":"cebpf4jnsgd1na2vs0mg"},{"bike_id":"fd9f5c27-5d58-42e5-badc-a12a0344229e","system_id":"levelo_inurba_marseille","lat":43.28963,"lon":5.3609,"is_reserved":false,"is_disabled":false,"rental_uris":{"android":"levelo://app?vid=fd9f5c27-5d58-42e5-badc-a12a0344229e","ios":"levelo://app?vid=fd9f5c27-5d58-42e5-badc-a12a0344229e"},"vehicle_type_id":"4","last_reported":1752257734,"current_range_meters":14000,"station_id":"","pricing_plan_id":"cebpf4jnsgd1na2vs0mg"},{"bike_id":"a31f389f-298a-453d-b613-4741a0990c4e","system_id":"levelo_inurba_marseille","lat":43.28933,"lon":5.3664,"is_reserved":false,"is_disabled":false,"rental_uris":{"android":"levelo://app?vid=a31f389f-298a-453d-b613-4741a0990c4e","ios":"levelo://app?vid=a31f389f-298a-453d-b613-4741a0990c4e"},"vehicle_type_id":"4","last_reported":1752257734,"current_range_meters":14000,"station_id":"ce4bhap2rcd13ifvqek0","pricing_plan_id":"cebpf4jnsgd1na2vs0mg"},{"bike_id":"4d173174-91f3-4fc6-9a36-1cfb70227834","system_id":"levelo_inurba_marseille","lat":43.30886,"lon":5.3965,"is_reserved":false,"is_disabled":false,"rental_uris":{"android":"levelo://app?vid=4d173174-91f3-4fc6-9a36-1cfb70227834","ios":"levelo://app?vid=4d173174-91f3-4fc6-9a36-1cfb70227834"},"vehicle_type_id":"4","last_reported":1752257734,"current_range_meters":14000,"station_id":"ce4bh012rcd13ifvqcv0","pricing_plan_id":"cebpf4jnsgd1na2vs0mg"},{"bike_id":"03b82edd-c6df-42d9-9fa2-60084c796815","system_id":"levelo_inurba_marseille","lat":43.28413,"lon":5.34976,"is_reserved":false,"is_disabled":false,"rental_uris":{"android":"levelo://app?vid=03b82edd-c6df-42d9-9fa2-60084c796815","ios":"levelo://app?vid=03b82edd-c6df-42d9-9fa2-60084c796815"},"vehicle_type_id":"4","last_reported":1752257734,"current_range_meters":14000,"station_id":"ce4bhbh2rcd13ifvqepg","pricing_plan_id":"cebpf4jnsgd1na2vs0mg"},{"bike_id":"92f8f3a3-f6f7-4911-bad4-07ff8f2cebc1","system_id":"levelo_inurba_marseille","lat":43.23967,"lon":5.36632,"is_reserved":false,"is_disabled":false,"rental_uris":{"android":"levelo://app?vid=92f8f3a3-f6f7-4911-bad4-07ff8f2cebc1","ios":"levelo://app?vid=92f8f3a3-f6f7-4911-bad4-07ff8f2cebc1"},"vehicle_type_id":"4","last_reported":1752257734,"current_range_meters":14000,"station_id":"ce4bhi12rcd13ifvqfp0","pricing_plan_id":"cebpf4jnsgd1na2vs0mg"},{"bike_id":"7e6c718b-e9ee-4560-a480-28f69eaa2f6d","system_id":"levelo_inurba_marseille","lat":43.30214,"lon":5.39482,"is_reserved":false,"is_disabled":false,"rental_uris":{"android":"levelo://app?vid=7e6c718b-e9ee-4560-a480-28f69eaa2f6d","ios":"levelo://app?vid=7e6c718b-e9ee-4560-a480-28f69eaa2f6d"},"vehicle_type_id":"4","last_reported":1752257734,"current_range_meters":14400,"station_id":"ce4bh0p2rcd13ifvqd70","pricing_plan_id":"cebpf4jnsgd1na2vs0mg"},{"bike_id":"5f27cee9-4808-4986-92e5-73f9f0fefbc8","system_id":"levelo_inurba_marseille","lat":43.24825,"lon":5.37447,"is_reserved":false,"is_disabled":false,"rental_uris":{"android":"levelo://app?vid=5f27cee9-4808-4986-92e5-73f9f0fefbc8","ios":"levelo://app?vid=5f27cee9-4808-4986-92e5-73f9f0fefbc8"},"vehicle_type_id":"4","last_reported":1752257734,"current_range_meters":14400,"station_id":"ce4bhgh2rcd13ifvqfb0","pricing_plan_id":"cebpf4jnsgd1na2vs0mg"},{"bike_id":"530fdaa0-3dcf-48bd-ae6d-18f67ca1c283","system_id":"levelo_inurba_marseille","lat":43.297111,"lon":5.366155,"is_reserved":false,"is_disabled":false,"rental_uris":{"android":"levelo://app?vid=530fdaa0-3dcf-48bd-ae6d-18f67ca1c283","ios":"levelo://app?vid=530fdaa0-3dcf-48bd-ae6d-18f67ca1c283"},"vehicle_type_id":"4","last_reported":1752257734,"current_range_meters":14400,"station_id":"","pricing_plan_id":"cebpf4jnsgd1na2vs0mg"},{"bike_id":"647a1903-1834-4730-b34e-6397917620f0","system_id":"levelo_inurba_marseille","lat":43.31673,"lon":5.37021,"is_reserved":false,"is_disabled":false,"rental_uris":{"android":"levelo://app?vid=647a1903-1834-4730-b34e-6397917620f0","ios":"levelo://app?vid=647a1903-1834-4730-b34e-6397917620f0"},"vehicle_type_id":"4","last_reported":1752257734,"current_range_meters":14400,"station_id":"","pricing_plan_id":"cebpf4jnsgd1na2vs0mg"},{"bike_id":"dac4a1ab-9fb2-4169-990a-4ef97c80691d","system_id":"levelo_inurba_marseille","lat":43.28415,"lon":5.3497,"is_reserved":false,"is_disabled":false,"rental_uris":{"android":"levelo://app?vid=dac4a1ab-9fb2-4169-990a-4ef97c80691d","ios":"levelo://app?vid=dac4a1ab-9fb2-4169-990a-4ef97c80691d"},"vehicle_type_id":"4","last_reported":1752257734,"current_range_meters":14400,"station_id":"ce4bhbh2rcd13ifvqepg","pricing_plan_id":"cebpf4jnsgd1na2vs0mg"},{"bike_id":"eda0ea69-6404-43e6-9ede-2655d170d444","system_id":"levelo_inurba_marseille","lat":43.28851,"lon":5.358403,"is_reserved":false,"is_disabled":false,"rental_uris":{"android":"levelo://app?vid=eda0ea69-6404-43e6-9ede-2655d170d444","ios":"levelo://app?vid=eda0ea69-6404-43e6-9ede-2655d170d444"},"vehicle_type_id":"4","last_reported":1752257734,"current_range_meters":14400,"station_id":"ce4bhb12rcd13ifvqem0","pricing_plan_id":"cebpf4jnsgd1na2vs0mg"},{"bike_id":"650f810a-ea48-4652-b488-5274535ec11b","system_id":"levelo_inurba_marseille","lat":43.2418,"lon":5.36375,"is_reserved":false,"is_disabled":false,"rental_uris":{"android":"levelo://app?vid=650f810a-ea48-4652-b488-5274535ec11b","ios":"levelo://app?vid=650f810a-ea48-4652-b488-5274535ec11b"},"vehicle_type_id":"4","last_reported":1752257734,"current_range_meters":14400,"station_id":"cpo36qri1sfpv3e86is0","pricing_plan_id":"cebpf4jnsgd1na2vs0mg"},{"bike_id":"e8e03632-b9d1-480f-a4da-da482a543464","system_id":"levelo_inurba_marseille","lat":43.29031,"lon":5.37564,"is_reserved":false,"is_disabled":true,"rental_uris":{"android":"levelo://app?vid=e8e03632-b9d1-480f-a4da-da482a543464","ios":"levelo://app?vid=e8e03632-b9d1-480f-a4da-da482a543464"},"vehicle_type_id":"4","last_reported":1752257734,"current_range_meters":14800,"station_id":"ce4bh692rcd13ifvqe90","pricing_plan_id":"cebpf4jnsgd1na2vs0mg"},{"bike_id":"17dc2d40-3732-44c3-ac13-1f57ddcc496d","system_id":"levelo_inurba_marseille","lat":43.29096,"lon":5.38122,"is_reserved":false,"is_disabled":false,"rental_uris":{"android":"levelo://app?vid=17dc2d40-3732-44c3-ac13-1f57ddcc496d","ios":"levelo://app?vid=17dc2d40-3732-44c3-ac13-1f57ddcc496d"},"vehicle_type_id":"4","last_reported":1752257734,"current_range_meters":14800,"station_id":"ce4bh512rcd13ifvqe2g","pricing_plan_id":"cebpf4jnsgd1na2vs0mg"},{"bike_id":"85758837-e8e8-429b-9b62-411361adebf1","system_id":"levelo_inurba_marseille","lat":43.3176,"lon":5.39014,"is_reserved":false,"is_disabled":true,"rental_uris":{"android":"levelo://app?vid=85758837-e8e8-429b-9b62-411361adebf1","ios":"levelo://app?vid=85758837-e8e8-429b-9b62-411361adebf1"},"vehicle_type_id":"4","last_reported":1752257734,"current_range_meters":14800,"station_id":"ce4bhqp2rcd13ifvqhng","pricing_plan_id":"cebpf4jnsgd1na2vs0mg"},{"bike_id":"dafa5a87-b26d-4379-9a6b-1f02133b78a6","system_id":"levelo_inurba_marseille","lat":43.211874,"lon":5.350604,"is_reserved":false,"is_disabled":false,"rental_uris":{"android":"levelo://app?vid=dafa5a87-b26d-4379-9a6b-1f02133b78a6","ios":"levelo://app?vid=dafa5a87-b26d-4379-9a6b-1f02133b78a6"},"vehicle_type_id":"4","last_reported":1752257734,"current_range_meters":14800,"station_id":"st_cvj6sg6p6f1abm77japg","pricing_plan_id":"cebpf4jnsgd1na2vs0mg"},{"bike_id":"ceb8bcf8-9e11-4102-bd78-9a687c0c96d2","system_id":"levelo_inurba_marseille","lat":43.28908,"lon":5.38394,"is_reserved":false,"is_disabled":true,"rental_uris":{"android":"levelo://app?vid=ceb8bcf8-9e11-4102-bd78-9a687c0c96d2","ios":"levelo://app?vid=ceb8bcf8-9e11-4102-bd78-9a687c0c96d2"},"vehicle_type_id":"4","last_reported":1752257734,"current_range_meters":15200,"station_id":"ce4bh612rcd13ifvqe6g","pricing_plan_id":"cebpf4jnsgd1na2vs0mg"},{"bike_id":"8929c1bf-fd4d-44e4-aa66-b3eb6538c998","system_id":"levelo_inurba_marseille","lat":43.28593,"lon":5.43021,"is_reserved":false,"is_disabled":false,"rental_uris":{"android":"levelo://app?vid=8929c1bf-fd4d-44e4-aa66-b3eb6538c998","ios":"levelo://app?vid=8929c1bf-fd4d-44e4-aa66-b3eb6538c998"},"vehicle_type_id":"4","last_reported":1752257734,"current_range_meters":15200,"station_id":"","pricing_plan_id":"cebpf4jnsgd1na2vs0mg"},{"bike_id":"a9001741-1745-49c0-afeb-e7f128011c9f","system_id":"levelo_inurba_marseille","lat":43.28429,"lon":5.34963,"is_reserved":false,"is_disabled":false,"rental_uris":{"android":"levelo://app?vid=a9001741-1745-49c0-afeb-e7f128011c9f","ios":"levelo://app?vid=a9001741-1745-49c0-afeb-e7f128011c9f"},"vehicle_type_id":"4","last_reported":1752257734,"current_range_meters":15200,"station_id":"ce4bhbh2rcd13ifvqepg","pricing_plan_id":"cebpf4jnsgd1na2vs0mg"},{"bike_id":"16020920-cdec-4159-a5c0-8c1443f10e73","system_id":"levelo_inurba_marseille","lat":43.29999,"lon":5.38498,"is_reserved":false,"is_disabled":false,"rental_uris":{"android":"levelo://app?vid=16020920-cdec-4159-a5c0-8c1443f10e73","ios":"levelo://app?vid=16020920-cdec-4159-a5c0-8c1443f10e73"},"vehicle_type_id":"4","last_reported":1752257734,"current_range_meters":15200,"station_id":"ce4bgj92rcd13ifvqbd0","pricing_plan_id":"cebpf4jnsgd1na2vs0mg"},{"bike_id":"7b5cd6ce-df57-4328-854d-cb2d1407ab18","system_id":"levelo_inurba_marseille","lat":43.33028,"lon":5.3904,"is_reserved":false,"is_disabled":false,"rental_uris":{"android":"levelo://app?vid=7b5cd6ce-df57-4328-854d-cb2d1407ab18","ios":"levelo://app?vid=7b5cd6ce-df57-4328-854d-cb2d1407ab18"},"vehicle_type_id":"4","last_reported":1752257734,"current_range_meters":15200,"station_id":"ce4bhr92rcd13ifvqhrg","pricing_plan_id":"cebpf4jnsgd1na2vs0mg"},{"bike_id":"cb311608-0c78-49bf-8b9b-4a50cc5c90e8","system_id":"levelo_inurba_marseille","lat":43.24661,"lon":5.38881,"is_reserved":false,"is_disabled":false,"rental_uris":{"android":"levelo://app?vid=cb311608-0c78-49bf-8b9b-4a50cc5c90e8","ios":"levelo://app?vid=cb311608-0c78-49bf-8b9b-4a50cc5c90e8"},"vehicle_type_id":"4","last_reported":1752257734,"current_range_meters":16000,"station_id":"ce4bhg12rcd13ifvqf60","pricing_plan_id":"cebpf4jnsgd1na2vs0mg"},{"bike_id":"8b2e304f-bdfc-4c65-9cae-9c8089cc9da6","system_id":"levelo_inurba_marseille","lat":43.284231,"lon":5.349877,"is_reserved":false,"is_disabled":false,"rental_uris":{"android":"levelo://app?vid=8b2e304f-bdfc-4c65-9cae-9c8089cc9da6","ios":"levelo://app?vid=8b2e304f-bdfc-4c65-9cae-9c8089cc9da6"},"vehicle_type_id":"4","last_reported":1752257734,"current_range_meters":16000,"station_id":"ce4bhbh2rcd13ifvqepg","pricing_plan_id":"cebpf4jnsgd1na2vs0mg"},{"bike_id":"9fb194c9-7b40-47e2-bed9-ec29662fa388","system_id":"levelo_inurba_marseille","lat":43.293042,"lon":5.371674,"is_reserved":false,"is_disabled":false,"rental_uris":{"android":"levelo://app?vid=9fb194c9-7b40-47e2-bed9-ec29662fa388","ios":"levelo://app?vid=9fb194c9-7b40-47e2-bed9-ec29662fa388"},"vehicle_type_id":"4","last_reported":1752257734,"current_range_meters":16000,"station_id":"ce4bgh92rcd13ifvqb40","pricing_plan_id":"cebpf4jnsgd1na2vs0mg"},{"bike_id":"ba7e3217-8069-471e-8907-7c5152d45243","system_id":"levelo_inurba_marseille","lat":43.26228,"lon":5.40447,"is_reserved":false,"is_disabled":false,"rental_uris":{"android":"levelo://app?vid=ba7e3217-8069-471e-8907-7c5152d45243","ios":"levelo://app?vid=ba7e3217-8069-471e-8907-7c5152d45243"},"vehicle_type_id":"4","last_reported":1752257734,"current_range_meters":16000,"station_id":"ce4bhmh2rcd13ifvqgmg","pricing_plan_id":"cebpf4jnsgd1na2vs0mg"},{"bike_id":"e9fd0cf8-573b-4177-88a6-f1faf33e8aca","system_id":"levelo_inurba_marseille","lat":43.29022,"lon":5.35624,"is_reserved":false,"is_disabled":true,"rental_uris":{"android":"levelo://app?vid=e9fd0cf8-573b-4177-88a6-f1faf33e8aca","ios":"levelo://app?vid=e9fd0cf8-573b-4177-88a6-f1faf33e8aca"},"vehicle_type_id":"4","last_reported":1752257734,"current_range_meters":16000,"station_id":"ce4bhb92rcd13ifvqen0","pricing_plan_id":"cebpf4jnsgd1na2vs0mg"},{"bike_id":"43b90c82-97e0-4fa7-8b67-2448f07d529e","system_id":"levelo_inurba_marseille","lat":43.211929,"lon":5.35068,"is_reserved":false,"is_disabled":false,"rental_uris":{"android":"levelo://app?vid=43b90c82-97e0-4fa7-8b67-2448f07d529e","ios":"levelo://app?vid=43b90c82-97e0-4fa7-8b67-2448f07d529e"},"vehicle_type_id":"4","last_reported":1752257734,"current_range_meters":16000,"station_id":"","pricing_plan_id":"cebpf4jnsgd1na2vs0mg"},{"bike_id":"a8792cb5-8073-49d0-b551-e9732393f0b0","system_id":"levelo_inurba_marseille","lat":43.28416,"lon":5.34971,"is_reserved":false,"is_disabled":false,"rental_uris":{"android":"levelo://app?vid=a8792cb5-8073-49d0-b551-e9732393f0b0","ios":"levelo://app?vid=a8792cb5-8073-49d0-b551-e9732393f0b0"},"vehicle_type_id":"4","last_reported":1752257734,"current_range_meters":16000,"station_id":"ce4bhbh2rcd13ifvqepg","pricing_plan_id":"cebpf4jnsgd1na2vs0mg"},{"bike_id":"45bf7bb2-07d1-4864-86fe-8e74a893ff6b","system_id":"levelo_inurba_marseille","lat":43.28425,"lon":5.34987,"is_reserved":false,"is_disabled":false,"rental_uris":{"android":"levelo://app?vid=45bf7bb2-07d1-4864-86fe-8e74a893ff6b","ios":"levelo://app?vid=45bf7bb2-07d1-4864-86fe-8e74a893ff6b"},"vehicle_type_id":"4","last_reported":1752257734,"current_range_meters":16000,"station_id":"ce4bhbh2rcd13ifvqepg","pricing_plan_id":"cebpf4jnsgd1na2vs0mg"},{"bike_id":"b5d9c4b0-7874-48f9-a2b6-109f176a3691","system_id":"levelo_inurba_marseille","lat":43.28609,"lon":5.35109,"is_reserved":false,"is_disabled":false,"rental_uris":{"android":"levelo://app?vid=b5d9c4b0-7874-48f9-a2b6-109f176a3691","ios":"levelo://app?vid=b5d9c4b0-7874-48f9-a2b6-109f176a3691"},"vehicle_type_id":"4","last_reported":1752257734,"current_range_meters":16000,"station_id":"ce4bhch2rcd13ifvqeug","pricing_plan_id":"cebpf4jnsgd1na2vs0mg"},{"bike_id":"d05e987d-6766-4c70-b7d6-4c4ecf5a7258","system_id":"levelo_inurba_marseille","lat":43.284315,"lon":5.349819,"is_reserved":false,"is_disabled":false,"rental_uris":{"android":"levelo://app?vid=d05e987d-6766-4c70-b7d6-4c4ecf5a7258","ios":"levelo://app?vid=d05e987d-6766-4c70-b7d6-4c4ecf5a7258"},"vehicle_type_id":"4","last_reported":1752257734,"current_range_meters":16000,"station_id":"ce4bhbh2rcd13ifvqepg","pricing_plan_id":"cebpf4jnsgd1na2vs0mg"},{"bike_id":"37b84a38-055a-4a6e-a56a-8ff3d0c1b2ec","system_id":"levelo_inurba_marseille","lat":43.21187,"lon":5.35077,"is_reserved":false,"is_disabled":false,"rental_uris":{"android":"levelo://app?vid=37b84a38-055a-4a6e-a56a-8ff3d0c1b2ec","ios":"levelo://app?vid=37b84a38-055a-4a6e-a56a-8ff3d0c1b2ec"},"vehicle_type_id":"4","last_reported":1752257734,"current_range_meters":16000,"station_id":"st_cvj6sg6p6f1abm77japg","pricing_plan_id":"cebpf4jnsgd1na2vs0mg"},{"bike_id":"8ecb4bb6-81af-43e9-8c0a-ca33656ac8a7","system_id":"levelo_inurba_marseille","lat":43.28931,"lon":5.3664,"is_reserved":false,"is_disabled":false,"rental_uris":{"android":"levelo://app?vid=8ecb4bb6-81af-43e9-8c0a-ca33656ac8a7","ios":"levelo://app?vid=8ecb4bb6-81af-43e9-8c0a-ca33656ac8a7"},"vehicle_type_id":"4","last_reported":1752257734,"current_range_meters":16000,"station_id":"ce4bhap2rcd13ifvqek0","pricing_plan_id":"cebpf4jnsgd1na2vs0mg"},{"bike_id":"dbba3321-20c7-4989-a7b5-ea9ab2c4b3e8","system_id":"levelo_inurba_marseille","lat":43.261935,"lon":5.374477,"is_reserved":false,"is_disabled":false,"rental_uris":{"android":"levelo://app?vid=dbba3321-20c7-4989-a7b5-ea9ab2c4b3e8","ios":"levelo://app?vid=dbba3321-20c7-4989-a7b5-ea9ab2c4b3e8"},"vehicle_type_id":"4","last_reported":1752257734,"current_range_meters":16000,"station_id":"ce4bhgp2rcd13ifvqfc0","pricing_plan_id":"cebpf4jnsgd1na2vs0mg"},{"bike_id":"61d703a2-9341-4f16-b181-860a7b17fc56","system_id":"levelo_inurba_marseille","lat":43.322837,"lon":5.382692,"is_reserved":false,"is_disabled":false,"rental_uris":{"android":"levelo://app?vid=61d703a2-9341-4f16-b181-860a7b17fc56","ios":"levelo://app?vid=61d703a2-9341-4f16-b181-860a7b17fc56"},"vehicle_type_id":"4","last_reported":1752257734,"current_range_meters":16400,"station_id":"ce4bhr12rcd13ifvqhqg","pricing_plan_id":"cebpf4jnsgd1na2vs0mg"},{"bike_id":"8fccf46e-4269-459a-bd9a-cdd93f6b32bc","system_id":"levelo_inurba_marseille","lat":43.30361,"lon":5.41869,"is_reserved":false,"is_disabled":true,"rental_uris":{"android":"levelo://app?vid=8fccf46e-4269-459a-bd9a-cdd93f6b32bc","ios":"levelo://app?vid=8fccf46e-4269-459a-bd9a-cdd93f6b32bc"},"vehicle_type_id":"4","last_reported":1752257734,"current_range_meters":16400,"station_id":"ce4bhop2rcd13ifvqh7g","pricing_plan_id":"cebpf4jnsgd1na2vs0mg"},{"bike_id":"c9ae3b41-dbbe-4f4a-b39e-e69af1c321a3","system_id":"levelo_inurba_marseille","lat":43.27375,"lon":5.36255,"is_reserved":false,"is_disabled":false,"rental_uris":{"android":"levelo://app?vid=c9ae3b41-dbbe-4f4a-b39e-e69af1c321a3","ios":"levelo://app?vid=c9ae3b41-dbbe-4f4a-b39e-e69af1c321a3"},"vehicle_type_id":"4","last_reported":1752257734,"current_range_meters":16400,"station_id":"ce4bhbh2rcd13ifvqeo0","pricing_plan_id":"cebpf4jnsgd1na2vs0mg"},{"bike_id":"8a7c505f-0e98-48e6-9ab2-74f71308a4a4","system_id":"levelo_inurba_marseille","lat":43.29708,"lon":5.36606,"is_reserved":false,"is_disabled":false,"rental_uris":{"android":"levelo://app?vid=8a7c505f-0e98-48e6-9ab2-74f71308a4a4","ios":"levelo://app?vid=8a7c505f-0e98-48e6-9ab2-74f71308a4a4"},"vehicle_type_id":"4","last_reported":1752257734,"current_range_meters":16400,"station_id":"ce4bgn12rcd13ifvqbt0","pricing_plan_id":"cebpf4jnsgd1na2vs0mg"},{"bike_id":"4ff4766f-13dc-49b2-bced-7f909eef25ac","system_id":"levelo_inurba_marseille","lat":43.27385,"lon":5.36258,"is_reserved":false,"is_disabled":false,"rental_uris":{"android":"levelo://app?vid=4ff4766f-13dc-49b2-bced-7f909eef25ac","ios":"levelo://app?vid=4ff4766f-13dc-49b2-bced-7f909eef25ac"},"vehicle_type_id":"4","last_reported":1752257734,"current_range_meters":16400,"station_id":"ce4bhbh2rcd13ifvqeo0","pricing_plan_id":"cebpf4jnsgd1na2vs0mg"},{"bike_id":"d6a1f61c-2430-47c4-9735-5de1b09e9ee0","system_id":"levelo_inurba_marseille","lat":43.30468,"lon":5.37908,"is_reserved":false,"is_disabled":false,"rental_uris":{"android":"levelo://app?vid=d6a1f61c-2430-47c4-9735-5de1b09e9ee0","ios":"levelo://app?vid=d6a1f61c-2430-47c4-9735-5de1b09e9ee0"},"vehicle_type_id":"4","last_reported":1752257734,"current_range_meters":16400,"station_id":"ce4bgup2rcd13ifvqcn0","pricing_plan_id":"cebpf4jnsgd1na2vs0mg"},{"bike_id":"6e668d6d-7714-4b0f-b45e-ed505ef5b4c7","system_id":"levelo_inurba_marseille","lat":43.284113,"lon":5.349822,"is_reserved":false,"is_disabled":false,"rental_uris":{"android":"levelo://app?vid=6e668d6d-7714-4b0f-b45e-ed505ef5b4c7","ios":"levelo://app?vid=6e668d6d-7714-4b0f-b45e-ed505ef5b4c7"},"vehicle_type_id":"4","last_reported":1752257734,"current_range_meters":16400,"station_id":"ce4bh512rcd13ifvqe2g","pricing_plan_id":"cebpf4jnsgd1na2vs0mg"},{"bike_id":"0f35d6b8-0cab-463f-b2cb-038c990512d1","system_id":"levelo_inurba_marseille","lat":43.24678,"lon":5.38175,"is_reserved":false,"is_disabled":false,"rental_uris":{"android":"levelo://app?vid=0f35d6b8-0cab-463f-b2cb-038c990512d1","ios":"levelo://app?vid=0f35d6b8-0cab-463f-b2cb-038c990512d1"},"vehicle_type_id":"4","last_reported":1752257734,"current_range_meters":16400,"station_id":"ce4bhih2rcd13ifvqfr0","pricing_plan_id":"cebpf4jnsgd1na2vs0mg"},{"bike_id":"6c4be16c-bfa1-4d3d-b213-6938773f8e66","system_id":"levelo_inurba_marseille","lat":43.27176,"lon":5.40997,"is_reserved":false,"is_disabled":false,"rental_uris":{"android":"levelo://app?vid=6c4be16c-bfa1-4d3d-b213-6938773f8e66","ios":"levelo://app?vid=6c4be16c-bfa1-4d3d-b213-6938773f8e66"},"vehicle_type_id":"4","last_reported":1752257734,"current_range_meters":16400,"station_id":"ce4bhl12rcd13ifvqgf0","pricing_plan_id":"cebpf4jnsgd1na2vs0mg"},{"bike_id":"75fdea33-3bed-46d2-8df9-bc1de569a0c7","system_id":"levelo_inurba_marseille","lat":43.24812,"lon":5.37454,"is_reserved":false,"is_disabled":false,"rental_uris":{"android":"levelo://app?vid=75fdea33-3bed-46d2-8df9-bc1de569a0c7","ios":"levelo://app?vid=75fdea33-3bed-46d2-8df9-bc1de569a0c7"},"vehicle_type_id":"4","last_reported":1752257734,"current_range_meters":16400,"station_id":"ce4bhgh2rcd13ifvqfb0","pricing_plan_id":"cebpf4jnsgd1na2vs0mg"},{"bike_id":"6afdf2b4-0f5d-40c4-9a6d-2f6336fd6f19","system_id":"levelo_inurba_marseille","lat":43.29782,"lon":5.37091,"is_reserved":false,"is_disabled":false,"rental_uris":{"android":"levelo://app?vid=6afdf2b4-0f5d-40c4-9a6d-2f6336fd6f19","ios":"levelo://app?vid=6afdf2b4-0f5d-40c4-9a6d-2f6336fd6f19"},"vehicle_type_id":"4","last_reported":1752257734,"current_range_meters":16800,"station_id":"ce4bgop2rcd13ifvqc1g","pricing_plan_id":"cebpf4jnsgd1na2vs0mg"},{"bike_id":"61198919-e72c-4fce-bc96-126627987dc0","system_id":"levelo_inurba_marseille","lat":43.29572,"lon":5.37871,"is_reserved":false,"is_disabled":false,"rental_uris":{"android":"levelo://app?vid=61198919-e72c-4fce-bc96-126627987dc0","ios":"levelo://app?vid=61198919-e72c-4fce-bc96-126627987dc0"},"vehicle_type_id":"4","last_reported":1752257734,"current_range_meters":16800,"station_id":"","pricing_plan_id":"cebpf4jnsgd1na2vs0mg"},{"bike_id":"569afae2-8acd-423a-9492-52efa27b4bbe","system_id":"levelo_inurba_marseille","lat":43.24811,"lon":5.37458,"is_reserved":false,"is_disabled":false,"rental_uris":{"android":"levelo://app?vid=569afae2-8acd-423a-9492-52efa27b4bbe","ios":"levelo://app?vid=569afae2-8acd-423a-9492-52efa27b4bbe"},"vehicle_type_id":"4","last_reported":1752257734,"current_range_meters":16800,"station_id":"ce4bhgh2rcd13ifvqfb0","pricing_plan_id":"cebpf4jnsgd1na2vs0mg"},{"bike_id":"eb6a2290-40e2-4780-bdeb-a149c699215d","system_id":"levelo_inurba_marseille","lat":43.27965,"lon":5.41044,"is_reserved":false,"is_disabled":false,"rental_uris":{"android":"levelo://app?vid=eb6a2290-40e2-4780-bdeb-a149c699215d","ios":"levelo://app?vid=eb6a2290-40e2-4780-bdeb-a149c699215d"},"vehicle_type_id":"4","last_reported":1752257734,"current_range_meters":16800,"station_id":"ce4bhnp2rcd13ifvqh0g","pricing_plan_id":"cebpf4jnsgd1na2vs0mg"},{"bike_id":"a0138538-145e-45b9-aebb-fed41925ecaf","system_id":"levelo_inurba_marseille","lat":43.236943,"lon":5.360611,"is_reserved":false,"is_disabled":false,"rental_uris":{"android":"levelo://app?vid=a0138538-145e-45b9-aebb-fed41925ecaf","ios":"levelo://app?vid=a0138538-145e-45b9-aebb-fed41925ecaf"},"vehicle_type_id":"4","last_reported":1752257734,"current_range_meters":16800,"station_id":"","pricing_plan_id":"cebpf4jnsgd1na2vs0mg"},{"bike_id":"452e8211-4f44-45d0-814a-3e9e25b8c44e","system_id":"levelo_inurba_marseille","lat":43.21192,"lon":5.35076,"is_reserved":false,"is_disabled":false,"rental_uris":{"android":"levelo://app?vid=452e8211-4f44-45d0-814a-3e9e25b8c44e","ios":"levelo://app?vid=452e8211-4f44-45d0-814a-3e9e25b8c44e"},"vehicle_type_id":"4","last_reported":1752257734,"current_range_meters":16800,"station_id":"st_cvj6sg6p6f1abm77japg","pricing_plan_id":"cebpf4jnsgd1na2vs0mg"},{"bike_id":"087dbcc2-cfab-4afb-8044-ef38f9a40780","system_id":"levelo_inurba_marseille","lat":43.284594,"lon":5.358694,"is_reserved":false,"is_disabled":false,"rental_uris":{"android":"levelo://app?vid=087dbcc2-cfab-4afb-8044-ef38f9a40780","ios":"levelo://app?vid=087dbcc2-cfab-4afb-8044-ef38f9a40780"},"vehicle_type_id":"4","last_reported":1752257734,"current_range_meters":16800,"station_id":"ce4bhah2rcd13ifvqei0","pricing_plan_id":"cebpf4jnsgd1na2vs0mg"},{"bike_id":"e86ba8c9-208d-482c-a826-4c100938472a","system_id":"levelo_inurba_marseille","lat":43.21191,"lon":5.35074,"is_reserved":false,"is_disabled":false,"rental_uris":{"android":"levelo://app?vid=e86ba8c9-208d-482c-a826-4c100938472a","ios":"levelo://app?vid=e86ba8c9-208d-482c-a826-4c100938472a"},"vehicle_type_id":"4","last_reported":1752257734,"current_range_meters":16800,"station_id":"st_cvj6sg6p6f1abm77japg","pricing_plan_id":"cebpf4jnsgd1na2vs0mg"},{"bike_id":"5fb1fcab-8ea7-4a75-8b3a-a6567f7168ca","system_id":"levelo_inurba_marseille","lat":43.296844,"lon":5.37297,"is_reserved":false,"is_disabled":false,"rental_uris":{"android":"levelo://app?vid=5fb1fcab-8ea7-4a75-8b3a-a6567f7168ca","ios":"levelo://app?vid=5fb1fcab-8ea7-4a75-8b3a-a6567f7168ca"},"vehicle_type_id":"4","last_reported":1752257734,"current_range_meters":17200,"station_id":"ce4bgg92rcd13ifvqb30","pricing_plan_id":"cebpf4jnsgd1na2vs0mg"},{"bike_id":"a581eef9-f0fb-4e5d-8be0-84b96bfd2d41","system_id":"levelo_inurba_marseille","lat":43.2938,"lon":5.37854,"is_reserved":false,"is_disabled":true,"rental_uris":{"android":"levelo://app?vid=a581eef9-f0fb-4e5d-8be0-84b96bfd2d41","ios":"levelo://app?vid=a581eef9-f0fb-4e5d-8be0-84b96bfd2d41"},"vehicle_type_id":"4","last_reported":1752257734,"current_range_meters":17200,"station_id":"ce4bgjh2rcd13ifvqbf0","pricing_plan_id":"cebpf4jnsgd1na2vs0mg"},{"bike_id":"598555b4-3749-44cc-8e11-87c397e89037","system_id":"levelo_inurba_marseille","lat":43.24794,"lon":5.37455,"is_reserved":false,"is_disabled":false,"rental_uris":{"android":"levelo://app?vid=598555b4-3749-44cc-8e11-87c397e89037","ios":"levelo://app?vid=598555b4-3749-44cc-8e11-87c397e89037"},"vehicle_type_id":"4","last_reported":1752257734,"current_range_meters":17200,"station_id":"ce4bhgh2rcd13ifvqfb0","pricing_plan_id":"cebpf4jnsgd1na2vs0mg"},{"bike_id":"a81ede20-43a9-47cd-942d-8fb15c54f5f7","system_id":"levelo_inurba_marseille","lat":43.30072,"lon":5.45141,"is_reserved":false,"is_disabled":false,"rental_uris":{"android":"levelo://app?vid=a81ede20-43a9-47cd-942d-8fb15c54f5f7","ios":"levelo://app?vid=a81ede20-43a9-47cd-942d-8fb15c54f5f7"},"vehicle_type_id":"4","last_reported":1752257734,"current_range_meters":17600,"station_id":"","pricing_plan_id":"cebpf4jnsgd1na2vs0mg"},{"bike_id":"bf496f62-2eb2-4fa9-8478-c9dc03d05fe9","system_id":"levelo_inurba_marseille","lat":43.307795,"lon":5.376551,"is_reserved":false,"is_disabled":false,"rental_uris":{"android":"levelo://app?vid=bf496f62-2eb2-4fa9-8478-c9dc03d05fe9","ios":"levelo://app?vid=bf496f62-2eb2-4fa9-8478-c9dc03d05fe9"},"vehicle_type_id":"4","last_reported":1752257734,"current_range_meters":17600,"station_id":"ce4bgv92rcd13ifvqcq0","pricing_plan_id":"cebpf4jnsgd1na2vs0mg"},{"bike_id":"e9df902a-afad-4c12-bc1e-9191f6b436a4","system_id":"levelo_inurba_marseille","lat":43.28413,"lon":5.34979,"is_reserved":false,"is_disabled":false,"rental_uris":{"android":"levelo://app?vid=e9df902a-afad-4c12-bc1e-9191f6b436a4","ios":"levelo://app?vid=e9df902a-afad-4c12-bc1e-9191f6b436a4"},"vehicle_type_id":"4","last_reported":1752257734,"current_range_meters":17600,"station_id":"ce4bhbh2rcd13ifvqepg","pricing_plan_id":"cebpf4jnsgd1na2vs0mg"},{"bike_id":"f272420d-ba4a-4b11-a790-579b5df77b6a","system_id":"levelo_inurba_marseille","lat":43.28633,"lon":5.35086,"is_reserved":false,"is_disabled":false,"rental_uris":{"android":"levelo://app?vid=f272420d-ba4a-4b11-a790-579b5df77b6a","ios":"levelo://app?vid=f272420d-ba4a-4b11-a790-579b5df77b6a"},"vehicle_type_id":"4","last_reported":1752257734,"current_range_meters":17600,"station_id":"ce4bhch2rcd13ifvqeug","pricing_plan_id":"cebpf4jnsgd1na2vs0mg"},{"bike_id":"9f424f06-de87-40af-9b2b-61499dafc8c5","system_id":"levelo_inurba_marseille","lat":43.25717,"lon":5.41112,"is_reserved":false,"is_disabled":false,"rental_uris":{"android":"levelo://app?vid=9f424f06-de87-40af-9b2b-61499dafc8c5","ios":"levelo://app?vid=9f424f06-de87-40af-9b2b-61499dafc8c5"},"vehicle_type_id":"4","last_reported":1752257734,"current_range_meters":17600,"station_id":"ce4bhkp2rcd13ifvqgd0","pricing_plan_id":"cebpf4jnsgd1na2vs0mg"},{"bike_id":"ed019ecd-f4ca-470f-953e-821f34892065","system_id":"levelo_inurba_marseille","lat":43.30566,"lon":5.36697,"is_reserved":false,"is_disabled":true,"rental_uris":{"android":"levelo://app?vid=ed019ecd-f4ca-470f-953e-821f34892065","ios":"levelo://app?vid=ed019ecd-f4ca-470f-953e-821f34892065"},"vehicle_type_id":"4","last_reported":1752257734,"current_range_meters":18000,"station_id":"ce4bgrp2rcd13ifvqc9g","pricing_plan_id":"cebpf4jnsgd1na2vs0mg"},{"bike_id":"709c9beb-13f1-45e2-bbd1-0f71d60cf8b2","system_id":"levelo_inurba_marseille","lat":43.30935,"lon":5.40141,"is_reserved":false,"is_disabled":true,"rental_uris":{"android":"levelo://app?vid=709c9beb-13f1-45e2-bbd1-0f71d60cf8b2","ios":"levelo://app?vid=709c9beb-13f1-45e2-bbd1-0f71d60cf8b2"},"vehicle_type_id":"4","last_reported":1752257734,"current_range_meters":18000,"station_id":"ce4bgvp2rcd13ifvqct0","pricing_plan_id":"cebpf4jnsgd1na2vs0mg"},{"bike_id":"83cd1e59-2b67-412e-b8cf-62bb846e4934","system_id":"levelo_inurba_marseille","lat":43.25108,"lon":5.40323,"is_reserved":false,"is_disabled":false,"rental_uris":{"android":"levelo://app?vid=83cd1e59-2b67-412e-b8cf-62bb846e4934","ios":"levelo://app?vid=83cd1e59-2b67-412e-b8cf-62bb846e4934"},"vehicle_type_id":"4","last_reported":1752257734,"current_range_meters":18000,"station_id":"ce4bhlh2rcd13ifvqgig","pricing_plan_id":"cebpf4jnsgd1na2vs0mg"},{"bike_id":"7bee464a-45f4-4fdf-b3b0-390f7f623143","system_id":"levelo_inurba_marseille","lat":43.29969,"lon":5.38494,"is_reserved":false,"is_disabled":false,"rental_uris":{"android":"levelo://app?vid=7bee464a-45f4-4fdf-b3b0-390f7f623143","ios":"levelo://app?vid=7bee464a-45f4-4fdf-b3b0-390f7f623143"},"vehicle_type_id":"4","last_reported":1752257734,"current_range_meters":18000,"station_id":"ce4bgj92rcd13ifvqbd0","pricing_plan_id":"cebpf4jnsgd1na2vs0mg"},{"bike_id":"ad023729-3d33-44a6-99ca-a047715b7f88","system_id":"levelo_inurba_marseille","lat":43.212018,"lon":5.350702,"is_reserved":false,"is_disabled":false,"rental_uris":{"android":"levelo://app?vid=ad023729-3d33-44a6-99ca-a047715b7f88","ios":"levelo://app?vid=ad023729-3d33-44a6-99ca-a047715b7f88"},"vehicle_type_id":"4","last_reported":1752257734,"current_range_meters":18000,"station_id":"st_cvj6sg6p6f1abm77japg","pricing_plan_id":"cebpf4jnsgd1na2vs0mg"},{"bike_id":"f51f994c-3d8d-42f0-8137-295062a37402","system_id":"levelo_inurba_marseille","lat":43.24783,"lon":5.37395,"is_reserved":false,"is_disabled":false,"rental_uris":{"android":"levelo://app?vid=f51f994c-3d8d-42f0-8137-295062a37402","ios":"levelo://app?vid=f51f994c-3d8d-42f0-8137-295062a37402"},"vehicle_type_id":"4","last_reported":1752257734,"current_range_meters":18000,"station_id":"ce4bhgh2rcd13ifvqfb0","pricing_plan_id":"cebpf4jnsgd1na2vs0mg"},{"bike_id":"d986ab92-05dd-4f8a-9fa1-a9294bba3783","system_id":"levelo_inurba_marseille","lat":43.28634,"lon":5.35074,"is_reserved":false,"is_disabled":false,"rental_uris":{"android":"levelo://app?vid=d986ab92-05dd-4f8a-9fa1-a9294bba3783","ios":"levelo://app?vid=d986ab92-05dd-4f8a-9fa1-a9294bba3783"},"vehicle_type_id":"4","last_reported":1752257734,"current_range_meters":18000,"station_id":"ce4bhch2rcd13ifvqeug","pricing_plan_id":"cebpf4jnsgd1na2vs0mg"},{"bike_id":"3ec996ee-5eb7-423e-a9c9-224b7fd49375","system_id":"levelo_inurba_marseille","lat":43.29209,"lon":5.36032,"is_reserved":false,"is_disabled":false,"rental_uris":{"android":"levelo://app?vid=3ec996ee-5eb7-423e-a9c9-224b7fd49375","ios":"levelo://app?vid=3ec996ee-5eb7-423e-a9c9-224b7fd49375"},"vehicle_type_id":"4","last_reported":1752257734,"current_range_meters":18000,"station_id":"ce4bhbh2rcd13ifvqeqg","pricing_plan_id":"cebpf4jnsgd1na2vs0mg"},{"bike_id":"bd780b9f-2638-45b0-81a5-171acb11391a","system_id":"levelo_inurba_marseille","lat":43.24811,"lon":5.3746,"is_reserved":false,"is_disabled":false,"rental_uris":{"android":"levelo://app?vid=bd780b9f-2638-45b0-81a5-171acb11391a","ios":"levelo://app?vid=bd780b9f-2638-45b0-81a5-171acb11391a"},"vehicle_type_id":"4","last_reported":1752257734,"current_range_meters":18000,"station_id":"ce4bhgh2rcd13ifvqfb0","pricing_plan_id":"cebpf4jnsgd1na2vs0mg"},{"bike_id":"1910b188-ae7a-4d0a-adfd-2cc64036c90b","system_id":"levelo_inurba_marseille","lat":43.297,"lon":5.36602,"is_reserved":false,"is_disabled":false,"rental_uris":{"android":"levelo://app?vid=1910b188-ae7a-4d0a-adfd-2cc64036c90b","ios":"levelo://app?vid=1910b188-ae7a-4d0a-adfd-2cc64036c90b"},"vehicle_type_id":"4","last_reported":1752257734,"current_range_meters":18000,"station_id":"ce4bgn12rcd13ifvqbt0","pricing_plan_id":"cebpf4jnsgd1na2vs0mg"},{"bike_id":"80068acc-29b4-4fc6-9b91-5e7fb490ab33","system_id":"levelo_inurba_marseille","lat":43.29306,"lon":5.37454,"is_reserved":false,"is_disabled":false,"rental_uris":{"android":"levelo://app?vid=80068acc-29b4-4fc6-9b91-5e7fb490ab33","ios":"levelo://app?vid=80068acc-29b4-4fc6-9b91-5e7fb490ab33"},"vehicle_type_id":"4","last_reported":1752257734,"current_range_meters":18000,"station_id":"ce4bgi12rcd13ifvqb70","pricing_plan_id":"cebpf4jnsgd1na2vs0mg"},{"bike_id":"632f6828-7231-4041-9f27-9cb380b98636","system_id":"levelo_inurba_marseille","lat":43.24811,"lon":5.37456,"is_reserved":false,"is_disabled":false,"rental_uris":{"android":"levelo://app?vid=632f6828-7231-4041-9f27-9cb380b98636","ios":"levelo://app?vid=632f6828-7231-4041-9f27-9cb380b98636"},"vehicle_type_id":"4","last_reported":1752257734,"current_range_meters":18800,"station_id":"ce4bhgh2rcd13ifvqfb0","pricing_plan_id":"cebpf4jnsgd1na2vs0mg"},{"bike_id":"004c20e6-d67f-4f87-a74e-888d841d47d4","system_id":"levelo_inurba_marseille","lat":43.2737,"lon":5.36256,"is_reserved":false,"is_disabled":false,"rental_uris":{"android":"levelo://app?vid=004c20e6-d67f-4f87-a74e-888d841d47d4","ios":"levelo://app?vid=004c20e6-d67f-4f87-a74e-888d841d47d4"},"vehicle_type_id":"4","last_reported":1752257734,"current_range_meters":18800,"station_id":"ce4bhbh2rcd13ifvqeo0","pricing_plan_id":"cebpf4jnsgd1na2vs0mg"},{"bike_id":"00433137-46e6-4f59-a816-26a944e59086","system_id":"levelo_inurba_marseille","lat":43.27378,"lon":5.36255,"is_reserved":false,"is_disabled":false,"rental_uris":{"android":"levelo://app?vid=00433137-46e6-4f59-a816-26a944e59086","ios":"levelo://app?vid=00433137-46e6-4f59-a816-26a944e59086"},"vehicle_type_id":"4","last_reported":1752257734,"current_range_meters":18800,"station_id":"ce4bhbh2rcd13ifvqeo0","pricing_plan_id":"cebpf4jnsgd1na2vs0mg"},{"bike_id":"db2690f4-eb5c-4bb7-a073-68e2f29c4ad8","system_id":"levelo_inurba_marseille","lat":43.24818,"lon":5.37432,"is_reserved":false,"is_disabled":false,"rental_uris":{"android":"levelo://app?vid=db2690f4-eb5c-4bb7-a073-68e2f29c4ad8","ios":"levelo://app?vid=db2690f4-eb5c-4bb7-a073-68e2f29c4ad8"},"vehicle_type_id":"4","last_reported":1752257734,"current_range_meters":18800,"station_id":"ce4bhgh2rcd13ifvqfb0","pricing_plan_id":"cebpf4jnsgd1na2vs0mg"},{"bike_id":"1e5ea641-70ae-4b9b-9cf2-f920d4c9db51","system_id":"levelo_inurba_marseille","lat":43.292175,"lon":5.360429,"is_reserved":false,"is_disabled":false,"rental_uris":{"android":"levelo://app?vid=1e5ea641-70ae-4b9b-9cf2-f920d4c9db51","ios":"levelo://app?vid=1e5ea641-70ae-4b9b-9cf2-f920d4c9db51"},"vehicle_type_id":"4","last_reported":1752257734,"current_range_meters":18800,"station_id":"ce4bhbh2rcd13ifvqeqg","pricing_plan_id":"cebpf4jnsgd1na2vs0mg"},{"bike_id":"2d98c144-979b-4cdc-9c63-d39d433bf790","system_id":"levelo_inurba_marseille","lat":43.26759,"lon":5.3942,"is_reserved":false,"is_disabled":true,"rental_uris":{"android":"levelo://app?vid=2d98c144-979b-4cdc-9c63-d39d433bf790","ios":"levelo://app?vid=2d98c144-979b-4cdc-9c63-d39d433bf790"},"vehicle_type_id":"4","last_reported":1752257734,"current_range_meters":18800,"station_id":"ce4bhh12rcd13ifvqfg0","pricing_plan_id":"cebpf4jnsgd1na2vs0mg"},{"bike_id":"b61ebea1-adee-45b3-b357-d987af367b70","system_id":"levelo_inurba_marseille","lat":43.28267,"lon":5.35068,"is_reserved":false,"is_disabled":false,"rental_uris":{"android":"levelo://app?vid=b61ebea1-adee-45b3-b357-d987af367b70","ios":"levelo://app?vid=b61ebea1-adee-45b3-b357-d987af367b70"},"vehicle_type_id":"4","last_reported":1752257734,"current_range_meters":18800,"station_id":"ce4bhbp2rcd13ifvqerg","pricing_plan_id":"cebpf4jnsgd1na2vs0mg"},{"bike_id":"dccdf221-b260-41eb-be37-43c203814ef0","system_id":"levelo_inurba_marseille","lat":43.28273,"lon":5.35061,"is_reserved":false,"is_disabled":false,"rental_uris":{"android":"levelo://app?vid=dccdf221-b260-41eb-be37-43c203814ef0","ios":"levelo://app?vid=dccdf221-b260-41eb-be37-43c203814ef0"},"vehicle_type_id":"4","last_reported":1752257734,"current_range_meters":18800,"station_id":"ce4bhbp2rcd13ifvqerg","pricing_plan_id":"cebpf4jnsgd1na2vs0mg"},{"bike_id":"d02fabcd-fc6a-4274-bb4e-fde2ccd3d0b3","system_id":"levelo_inurba_marseille","lat":43.30573,"lon":5.3842,"is_reserved":false,"is_disabled":false,"rental_uris":{"android":"levelo://app?vid=d02fabcd-fc6a-4274-bb4e-fde2ccd3d0b3","ios":"levelo://app?vid=d02fabcd-fc6a-4274-bb4e-fde2ccd3d0b3"},"vehicle_type_id":"4","last_reported":1752257734,"current_range_meters":18800,"station_id":"ce4bgjp2rcd13ifvqbh0","pricing_plan_id":"cebpf4jnsgd1na2vs0mg"},{"bike_id":"ebc43a4a-a55c-4253-a436-3c01cbc7ed39","system_id":"levelo_inurba_marseille","lat":43.28696,"lon":5.39979,"is_reserved":false,"is_disabled":false,"rental_uris":{"android":"levelo://app?vid=ebc43a4a-a55c-4253-a436-3c01cbc7ed39","ios":"levelo://app?vid=ebc43a4a-a55c-4253-a436-3c01cbc7ed39"},"vehicle_type_id":"4","last_reported":1752257734,"current_range_meters":18800,"station_id":"ce4bho92rcd13ifvqh3g","pricing_plan_id":"cebpf4jnsgd1na2vs0mg"},{"bike_id":"ae6e1137-1c26-4dae-9666-2cf494fd0508","system_id":"levelo_inurba_marseille","lat":43.3171,"lon":5.43703,"is_reserved":false,"is_disabled":false,"rental_uris":{"android":"levelo://app?vid=ae6e1137-1c26-4dae-9666-2cf494fd0508","ios":"levelo://app?vid=ae6e1137-1c26-4dae-9666-2cf494fd0508"},"vehicle_type_id":"4","last_reported":1752257734,"current_range_meters":19200,"station_id":"ce4bhp92rcd13ifvqhcg","pricing_plan_id":"cebpf4jnsgd1na2vs0mg"},{"bike_id":"ba2c3a9c-d0e2-421a-aade-5237ad9151ca","system_id":"levelo_inurba_marseille","lat":43.28269,"lon":5.35069,"is_reserved":false,"is_disabled":false,"rental_uris":{"android":"levelo://app?vid=ba2c3a9c-d0e2-421a-aade-5237ad9151ca","ios":"levelo://app?vid=ba2c3a9c-d0e2-421a-aade-5237ad9151ca"},"vehicle_type_id":"4","last_reported":1752257734,"current_range_meters":19200,"station_id":"ce4bhbp2rcd13ifvqerg","pricing_plan_id":"cebpf4jnsgd1na2vs0mg"},{"bike_id":"53c1ba0d-870a-437e-9f54-79ca32476219","system_id":"levelo_inurba_marseille","lat":43.2621,"lon":5.37443,"is_reserved":false,"is_disabled":false,"rental_uris":{"android":"levelo://app?vid=53c1ba0d-870a-437e-9f54-79ca32476219","ios":"levelo://app?vid=53c1ba0d-870a-437e-9f54-79ca32476219"},"vehicle_type_id":"4","last_reported":1752257734,"current_range_meters":19200,"station_id":"ce4bhgp2rcd13ifvqfc0","pricing_plan_id":"cebpf4jnsgd1na2vs0mg"},{"bike_id":"c6f7dabd-b092-4554-a710-07eb4af96a4c","system_id":"levelo_inurba_marseille","lat":43.211913,"lon":5.350658,"is_reserved":false,"is_disabled":false,"rental_uris":{"android":"levelo://app?vid=c6f7dabd-b092-4554-a710-07eb4af96a4c","ios":"levelo://app?vid=c6f7dabd-b092-4554-a710-07eb4af96a4c"},"vehicle_type_id":"4","last_reported":1752257734,"current_range_meters":19200,"station_id":"st_cvj6sg6p6f1abm77japg","pricing_plan_id":"cebpf4jnsgd1na2vs0mg"},{"bike_id":"919e600e-ebda-4ca0-9126-38ed65a36143","system_id":"levelo_inurba_marseille","lat":43.21191,"lon":5.35076,"is_reserved":false,"is_disabled":false,"rental_uris":{"android":"levelo://app?vid=919e600e-ebda-4ca0-9126-38ed65a36143","ios":"levelo://app?vid=919e600e-ebda-4ca0-9126-38ed65a36143"},"vehicle_type_id":"4","last_reported":1752257734,"current_range_meters":19200,"station_id":"st_cvj6sg6p6f1abm77japg","pricing_plan_id":"cebpf4jnsgd1na2vs0mg"},{"bike_id":"1e2f3e77-fa8d-4489-969e-36169d866e35","system_id":"levelo_inurba_marseille","lat":43.284073,"lon":5.349897,"is_reserved":false,"is_disabled":false,"rental_uris":{"android":"levelo://app?vid=1e2f3e77-fa8d-4489-969e-36169d866e35","ios":"levelo://app?vid=1e2f3e77-fa8d-4489-969e-36169d866e35"},"vehicle_type_id":"4","last_reported":1752257734,"current_range_meters":19200,"station_id":"ce4bhbh2rcd13ifvqepg","pricing_plan_id":"cebpf4jnsgd1na2vs0mg"},{"bike_id":"2093d507-9815-48d8-8feb-cb32ba87d199","system_id":"levelo_inurba_marseille","lat":43.321102,"lon":5.367698,"is_reserved":false,"is_disabled":false,"rental_uris":{"android":"levelo://app?vid=2093d507-9815-48d8-8feb-cb32ba87d199","ios":"levelo://app?vid=2093d507-9815-48d8-8feb-cb32ba87d199"},"vehicle_type_id":"4","last_reported":1752257734,"current_range_meters":19200,"station_id":"ce4bhrh2rcd13ifvqhug","pricing_plan_id":"cebpf4jnsgd1na2vs0mg"},{"bike_id":"30aee902-e6a6-4e9a-94f9-33078a505ffa","system_id":"levelo_inurba_marseille","lat":43.24177,"lon":5.39727,"is_reserved":false,"is_disabled":false,"rental_uris":{"android":"levelo://app?vid=30aee902-e6a6-4e9a-94f9-33078a505ffa","ios":"levelo://app?vid=30aee902-e6a6-4e9a-94f9-33078a505ffa"},"vehicle_type_id":"4","last_reported":1752257734,"current_range_meters":19600,"station_id":"ce4bhn12rcd13ifvqgpg","pricing_plan_id":"cebpf4jnsgd1na2vs0mg"},{"bike_id":"61311c34-8ad3-46f2-97a6-24b285751e2f","system_id":"levelo_inurba_marseille","lat":43.3236,"lon":5.40611,"is_reserved":false,"is_disabled":false,"rental_uris":{"android":"levelo://app?vid=61311c34-8ad3-46f2-97a6-24b285751e2f","ios":"levelo://app?vid=61311c34-8ad3-46f2-97a6-24b285751e2f"},"vehicle_type_id":"4","last_reported":1752257734,"current_range_meters":19600,"station_id":"ce4bhq92rcd13ifvqhjg","pricing_plan_id":"cebpf4jnsgd1na2vs0mg"},{"bike_id":"00bc0b3b-e317-4a17-a011-a3a9a29d816a","system_id":"levelo_inurba_marseille","lat":43.212199,"lon":5.350609,"is_reserved":false,"is_disabled":false,"rental_uris":{"android":"levelo://app?vid=00bc0b3b-e317-4a17-a011-a3a9a29d816a","ios":"levelo://app?vid=00bc0b3b-e317-4a17-a011-a3a9a29d816a"},"vehicle_type_id":"4","last_reported":1752257734,"current_range_meters":19600,"station_id":"st_cvj6sg6p6f1abm77japg","pricing_plan_id":"cebpf4jnsgd1na2vs0mg"},{"bike_id":"1d504fbb-d483-4e0b-91a8-aae95b7a0eff","system_id":"levelo_inurba_marseille","lat":43.25577,"lon":5.38227,"is_reserved":false,"is_disabled":false,"rental_uris":{"android":"levelo://app?vid=1d504fbb-d483-4e0b-91a8-aae95b7a0eff","ios":"levelo://app?vid=1d504fbb-d483-4e0b-91a8-aae95b7a0eff"},"vehicle_type_id":"4","last_reported":1752257734,"current_range_meters":19600,"station_id":"ce4bhih2rcd13ifvqfs0","pricing_plan_id":"cebpf4jnsgd1na2vs0mg"},{"bike_id":"9211b15f-14a9-4012-992e-4f9cee77fe7f","system_id":"levelo_inurba_marseille","lat":43.31495,"lon":5.37298,"is_reserved":false,"is_disabled":false,"rental_uris":{"android":"levelo://app?vid=9211b15f-14a9-4012-992e-4f9cee77fe7f","ios":"levelo://app?vid=9211b15f-14a9-4012-992e-4f9cee77fe7f"},