{"last_updated":1747536356,"ttl":60,"version":"2.2","data":{"bikes":[{"bike_id":"c0b9fd4f-e181-46ce-b0bf-f5119973334f","system_id":"levelo_inurba_marseille","lat":43.33771,"lon":5.37424,"is_reserved":false,"is_disabled":false,"rental_uris":{"android":"levelo://app?vid=c0b9fd4f-e181-46ce-b0bf-f5119973334f","ios":"levelo://app?vid=c0b9fd4f-e181-46ce-b0bf-f5119973334f"},"vehicle_type_id":"4","last_reported":1747536356,"current_range_meters":3200,"station_id":"","pricing_plan_id":"cebpf4jnsgd1na2vs0mg"},{"bike_id":"78a72d2e-086e-4202-8619-96d6a7e70ccc","system_id":"levelo_inurba_marseille","lat":43.283683,"lon":5.399065,"is_reserved":false,"is_disabled":true,"rental_uris":{"android":"levelo://app?vid=78a72d2e-086e-4202-8619-96d6a7e70ccc","ios":"levelo://app?vid=78a72d2e-086e-4202-8619-96d6a7e70ccc"},"vehicle_type_id":"4","last_reported":1747536356,"current_range_meters":0,"station_id":"","pricing_plan_id":"cebpf4jnsgd1na2vs0mg"},{"bike_id":"fc2577e7-1497-425b-9d4f-ab8d7dc843c6","system_id":"levelo_inurba_marseille","lat":43.33771,"lon":5.37485,"is_reserved":false,"is_disabled":true,"rental_uris":{"android":"levelo://app?vid=fc2577e7-1497-425b-9d4f-ab8d7dc843c6","ios":"levelo://app?vid=fc2577e7-1497-425b-9d4f-ab8d7dc843c6"},"vehicle_type_id":"4","last_reported":1747536356,"current_range_meters":0,"station_id":"","pricing_plan_id":"cebpf4jnsgd1na2vs0mg"},{"bike_id":"7e8f9622-74b3-4df1-9fba-94b450718227","system_id":"levelo_inurba_marseille","lat":43.2878,"lon":5.38245,"is_reserved":false,"is_disabled":true,"rental_uris":{"android":"levelo://app?vid=7e8f9622-74b3-4df1-9fba-94b450718227","ios":"levelo://app?vid=7e8f9622-74b3-4df1-9fba-94b450718227"},"vehicle_type_id":"4","last_reported":1747536356,"current_range_meters":0,"station_id":"","pricing_plan_id":"cebpf4jnsgd1na2vs0mg"},{"bike_id":"80d0d83f-909d-4568-b4e7-8a3ef4eed2de","system_id":"levelo_inurba_marseille","lat":43.25364,"lon":5.41942,"is_reserved":false,"is_disabled":true,"rental_uris":{"android":"levelo://app?vid=80d0d83f-909d-4568-b4e7-8a3ef4eed2de","ios":"levelo://app?vid=80d0d83f-909d-4568-b4e7-8a3ef4eed2de"},"vehicle_type_id":"4","last_reported":1747536356,"current_range_meters":0,"station_id":"","pricing_plan_id":"cebpf4jnsgd1na2vs0mg"},{"bike_id":"59e33bab-443b-4b82-946a-94b602858b07","system_id":"levelo_inurba_marseille","lat":43.281842,"lon":5.384601,"is_reserved":false,"is_disabled":true,"rental_uris":{"android":"levelo://app?vid=59e33bab-443b-4b82-946a-94b602858b07","ios":"levelo://app?vid=59e33bab-443b-4b82-946a-94b602858b07"},"vehicle_type_id":"4","last_reported":1747536356,"current_range_meters":0,"station_id":"","pricing_plan_id":"cebpf4jnsgd1na2vs0mg"},{"bike_id":"0b7b8d9e-a565-4a78-b09b-a8c868649f48","system_id":"levelo_inurba_marseille","lat":43.337444,"lon":5.374475,"is_reserved":false,"is_disabled":true,"rental_uris":{"android":"levelo://app?vid=0b7b8d9e-a565-4a78-b09b-a8c868649f48","ios":"levelo://app?vid=0b7b8d9e-a565-4a78-b09b-a8c868649f48"},"vehicle_type_id":"4","last_reported":1747536356,"current_range_meters":0,"station_id":"","pricing_plan_id":"cebpf4jnsgd1na2vs0mg"},{"bike_id":"1c306c3e-c8bd-4009-ac53-251079544953","system_id":"levelo_inurba_marseille","lat":43.25047,"lon":5.42695,"is_reserved":false,"is_disabled":true,"rental_uris":{"android":"levelo://app?vid=1c306c3e-c8bd-4009-ac53-251079544953","ios":"levelo://app?vid=1c306c3e-c8bd-4009-ac53-251079544953"},"vehicle_type_id":"4","last_reported":1747536356,"current_range_meters":0,"station_id":"","pricing_plan_id":"cebpf4jnsgd1na2vs0mg"},{"bike_id":"ce4325af-2448-4172-bdec-81d552ee0b62","system_id":"levelo_inurba_marseille","lat":43.261664,"lon":5.420073,"is_reserved":false,"is_disabled":true,"rental_uris":{"android":"levelo://app?vid=ce4325af-2448-4172-bdec-81d552ee0b62","ios":"levelo://app?vid=ce4325af-2448-4172-bdec-81d552ee0b62"},"vehicle_type_id":"4","last_reported":1747536356,"current_range_meters":0,"station_id":"","pricing_plan_id":"cebpf4jnsgd1na2vs0mg"},{"bike_id":"23939faf-d206-4b93-ade4-199417584041","system_id":"levelo_inurba_marseille","lat":43.249464,"lon":5.375484,"is_reserved":false,"is_disabled":true,"rental_uris":{"android":"levelo://app?vid=23939faf-d206-4b93-ade4-199417584041","ios":"levelo://app?vid=23939faf-d206-4b93-ade4-199417584041"},"vehicle_type_id":"4","last_reported":1747536356,"current_range_meters":0,"station_id":"","pricing_plan_id":"cebpf4jnsgd1na2vs0mg"},{"bike_id":"c94af0c5-fcda-4413-885f-4b4f3e453db7","system_id":"levelo_inurba_marseille","lat":43.245616,"lon":5.373315,"is_reserved":false,"is_disabled":true,"rental_uris":{"android":"levelo://app?vid=c94af0c5-fcda-4413-885f-4b4f3e453db7","ios":"levelo://app?vid=c94af0c5-fcda-4413-885f-4b4f3e453db7"},"vehicle_type_id":"4","last_reported":1747536356,"current_range_meters":0,"station_id":"","pricing_plan_id":"cebpf4jnsgd1na2vs0mg"},{"bike_id":"1742355b-9236-4912-aac1-ab831c8365dd","system_id":"levelo_inurba_marseille","lat":43.278651,"lon":5.392183,"is_reserved":false,"is_disabled":true,"rental_uris":{"android":"levelo://app?vid=1742355b-9236-4912-aac1-ab831c8365dd","ios":"levelo://app?vid=1742355b-9236-4912-aac1-ab831c8365dd"},"vehicle_type_id":"4","last_reported":1747536356,"current_range_meters":0,"station_id":"","pricing_plan_id":"cebpf4jnsgd1na2vs0mg"},{"bike_id":"792567c6-0442-4011-aff0-9c05e25deb48","system_id":"levelo_inurba_marseille","lat":43.337444,"lon":5.374475,"is_reserved":false,"is_disabled":true,"rental_uris":{"android":"levelo://app?vid=792567c6-0442-4011-aff0-9c05e25deb48","ios":"levelo://app?vid=792567c6-0442-4011-aff0-9c05e25deb48"},"vehicle_type_id":"4","last_reported":1747536356,"current_range_meters":0,"station_id":"","pricing_plan_id":"cebpf4jnsgd1na2vs0mg"},{"bike_id":"bb0baa39-1e01-43e0-a77c-5ba8d631e8a2","system_id":"levelo_inurba_marseille","lat":43.27261,"lon":5.38557,"is_reserved":false,"is_disabled":true,"rental_uris":{"android":"levelo://app?vid=bb0baa39-1e01-43e0-a77c-5ba8d631e8a2","ios":"levelo://app?vid=bb0baa39-1e01-43e0-a77c-5ba8d631e8a2"},"vehicle_type_id":"4","last_reported":1747536356,"current_range_meters":0,"station_id":"","pricing_plan_id":"cebpf4jnsgd1na2vs0mg"},{"bike_id":"7767ae57-f034-4e8b-b914-6e6183cc8c15","system_id":"levelo_inurba_marseille","lat":43.30205,"lon":5.39475,"is_reserved":false,"is_disabled":true,"rental_uris":{"android":"levelo://app?vid=7767ae57-f034-4e8b-b914-6e6183cc8c15","ios":"levelo://app?vid=7767ae57-f034-4e8b-b914-6e6183cc8c15"},"vehicle_type_id":"4","last_reported":1747536356,"current_range_meters":0,"station_id":"ce4bh0p2rcd13ifvqd70","pricing_plan_id":"cebpf4jnsgd1na2vs0mg"},{"bike_id":"5d23977f-d32e-4dd6-b71d-2d14316b7dad","system_id":"levelo_inurba_marseille","lat":43.23968,"lon":5.3663,"is_reserved":false,"is_disabled":true,"rental_uris":{"android":"levelo://app?vid=5d23977f-d32e-4dd6-b71d-2d14316b7dad","ios":"levelo://app?vid=5d23977f-d32e-4dd6-b71d-2d14316b7dad"},"vehicle_type_id":"4","last_reported":1747536356,"current_range_meters":0,"station_id":"ce4bhi12rcd13ifvqfp0","pricing_plan_id":"cebpf4jnsgd1na2vs0mg"},{"bike_id":"806fbaf0-12b9-4576-bd63-75d5dcea0150","system_id":"levelo_inurba_marseille","lat":43.25935,"lon":5.409135,"is_reserved":false,"is_disabled":true,"rental_uris":{"android":"levelo://app?vid=806fbaf0-12b9-4576-bd63-75d5dcea0150","ios":"levelo://app?vid=806fbaf0-12b9-4576-bd63-75d5dcea0150"},"vehicle_type_id":"4","last_reported":1747536356,"current_range_meters":0,"station_id":"ce4bhm92rcd13ifvqglg","pricing_plan_id":"cebpf4jnsgd1na2vs0mg"},{"bike_id":"f52c3e24-282e-4fb5-a1ea-652303c958d9","system_id":"levelo_inurba_marseille","lat":43.24183,"lon":5.39728,"is_reserved":false,"is_disabled":true,"rental_uris":{"android":"levelo://app?vid=f52c3e24-282e-4fb5-a1ea-652303c958d9","ios":"levelo://app?vid=f52c3e24-282e-4fb5-a1ea-652303c958d9"},"vehicle_type_id":"4","last_reported":1747536356,"current_range_meters":0,"station_id":"ce4bhn12rcd13ifvqgpg","pricing_plan_id":"cebpf4jnsgd1na2vs0mg"},{"bike_id":"4c8b85b7-6445-440b-974c-cf69ef597251","system_id":"levelo_inurba_marseille","lat":43.229327,"lon":5.353803,"is_reserved":false,"is_disabled":true,"rental_uris":{"android":"levelo://app?vid=4c8b85b7-6445-440b-974c-cf69ef597251","ios":"levelo://app?vid=4c8b85b7-6445-440b-974c-cf69ef597251"},"vehicle_type_id":"4","last_reported":1747536356,"current_range_meters":0,"station_id":"cpo3532slgdg3j2ikp40","pricing_plan_id":"cebpf4jnsgd1na2vs0mg"},{"bike_id":"761f97ef-3d44-49e1-a980-dbcf9a00e013","system_id":"levelo_inurba_marseille","lat":43.2251,"lon":5.34769,"is_reserved":false,"is_disabled":true,"rental_uris":{"android":"levelo://app?vid=761f97ef-3d44-49e1-a980-dbcf9a00e013","ios":"levelo://app?vid=761f97ef-3d44-49e1-a980-dbcf9a00e013"},"vehicle_type_id":"4","last_reported":1747536356,"current_range_meters":0,"station_id":"st_cvj5dfep6f1abm77gieg","pricing_plan_id":"cebpf4jnsgd1na2vs0mg"},{"bike_id":"59f9598d-e110-4192-bc18-7a255f754535","system_id":"levelo_inurba_marseille","lat":43.217498,"lon":5.34607,"is_reserved":false,"is_disabled":true,"rental_uris":{"android":"levelo://app?vid=59f9598d-e110-4192-bc18-7a255f754535","ios":"levelo://app?vid=59f9598d-e110-4192-bc18-7a255f754535"},"vehicle_type_id":"4","last_reported":1747536356,"current_range_meters":0,"station_id":"st_cvj6r9ubvosntc0bgbag","pricing_plan_id":"cebpf4jnsgd1na2vs0mg"},{"bike_id":"c5d1ec55-ba85-4b5d-b6d2-c046455ee0a9","system_id":"levelo_inurba_marseille","lat":43.25864,"lon":5.39909,"is_reserved":false,"is_disabled":true,"rental_uris":{"android":"levelo://app?vid=c5d1ec55-ba85-4b5d-b6d2-c046455ee0a9","ios":"levelo://app?vid=c5d1ec55-ba85-4b5d-b6d2-c046455ee0a9"},"vehicle_type_id":"4","last_reported":1747536356,"current_range_meters":400,"station_id":"ce4bhl92rcd13ifvqghg","pricing_plan_id":"cebpf4jnsgd1na2vs0mg"},{"bike_id":"d8911881-e82e-4c7b-963e-42a565f0cadb","system_id":"levelo_inurba_marseille","lat":43.270339,"lon":5.40691,"is_reserved":false,"is_disabled":true,"rental_uris":{"android":"levelo://app?vid=d8911881-e82e-4c7b-963e-42a565f0cadb","ios":"levelo://app?vid=d8911881-e82e-4c7b-963e-42a565f0cadb"},"vehicle_type_id":"4","last_reported":1747536356,"current_range_meters":800,"station_id":"","pricing_plan_id":"cebpf4jnsgd1na2vs0mg"},{"bike_id":"7657b3de-9c4f-4694-ab75-d410c1742129","system_id":"levelo_inurba_marseille","lat":43.29045,"lon":5.35914,"is_reserved":false,"is_disabled":true,"rental_uris":{"android":"levelo://app?vid=7657b3de-9c4f-4694-ab75-d410c1742129","ios":"levelo://app?vid=7657b3de-9c4f-4694-ab75-d410c1742129"},"vehicle_type_id":"4","last_reported":1747536356,"current_range_meters":800,"station_id":"ce4bha92rcd13ifvqeg0","pricing_plan_id":"cebpf4jnsgd1na2vs0mg"},{"bike_id":"b9df08aa-aab5-4f64-a98b-f889afb71ea6","system_id":"levelo_inurba_marseille","lat":43.239624,"lon":5.366384,"is_reserved":false,"is_disabled":true,"rental_uris":{"android":"levelo://app?vid=b9df08aa-aab5-4f64-a98b-f889afb71ea6","ios":"levelo://app?vid=b9df08aa-aab5-4f64-a98b-f889afb71ea6"},"vehicle_type_id":"4","last_reported":1747536356,"current_range_meters":2000,"station_id":"ce4bhi12rcd13ifvqfp0","pricing_plan_id":"cebpf4jnsgd1na2vs0mg"},{"bike_id":"e9dd3aa4-b5e7-4480-926d-d7f537719bfa","system_id":"levelo_inurba_marseille","lat":43.23029,"lon":5.40207,"is_reserved":false,"is_disabled":false,"rental_uris":{"android":"levelo://app?vid=e9dd3aa4-b5e7-4480-926d-d7f537719bfa","ios":"levelo://app?vid=e9dd3aa4-b5e7-4480-926d-d7f537719bfa"},"vehicle_type_id":"4","last_reported":1747536356,"current_range_meters":2800,"station_id":"","pricing_plan_id":"cebpf4jnsgd1na2vs0mg"},{"bike_id":"3193ad55-2474-4440-81b7-a1e4a46d043c","system_id":"levelo_inurba_marseille","lat":43.284585,"lon":5.35892,"is_reserved":false,"is_disabled":false,"rental_uris":{"android":"levelo://app?vid=3193ad55-2474-4440-81b7-a1e4a46d043c","ios":"levelo://app?vid=3193ad55-2474-4440-81b7-a1e4a46d043c"},"vehicle_type_id":"4","last_reported":1747536356,"current_range_meters":3200,"station_id":"ce4bhah2rcd13ifvqei0","pricing_plan_id":"cebpf4jnsgd1na2vs0mg"},{"bike_id":"67ac088a-4538-4dec-b4fb-3ce44990ecf0","system_id":"levelo_inurba_marseille","lat":43.24175,"lon":5.39723,"is_reserved":false,"is_disabled":false,"rental_uris":{"android":"levelo://app?vid=67ac088a-4538-4dec-b4fb-3ce44990ecf0","ios":"levelo://app?vid=67ac088a-4538-4dec-b4fb-3ce44990ecf0"},"vehicle_type_id":"4","last_reported":1747536356,"current_range_meters":3200,"station_id":"ce4bhn12rcd13ifvqgpg","pricing_plan_id":"cebpf4jnsgd1na2vs0mg"},{"bike_id":"206eb918-ba6a-41e3-bf08-d57e5b278296","system_id":"levelo_inurba_marseille","lat":43.302985,"lon":5.392243,"is_reserved":false,"is_disabled":false,"rental_uris":{"android":"levelo://app?vid=206eb918-ba6a-41e3-bf08-d57e5b278296","ios":"levelo://app?vid=206eb918-ba6a-41e3-bf08-d57e5b278296"},"vehicle_type_id":"4","last_reported":1747536356,"current_range_meters":3600,"station_id":"ce4bgkh2rcd13ifvqbk0","pricing_plan_id":"cebpf4jnsgd1na2vs0mg"},{"bike_id":"9f0c1fb2-960c-4ed7-992e-e8d2729e9fd5","system_id":"levelo_inurba_marseille","lat":43.30801,"lon":5.3817,"is_reserved":false,"is_disabled":false,"rental_uris":{"android":"levelo://app?vid=9f0c1fb2-960c-4ed7-992e-e8d2729e9fd5","ios":"levelo://app?vid=9f0c1fb2-960c-4ed7-992e-e8d2729e9fd5"},"vehicle_type_id":"4","last_reported":1747536356,"current_range_meters":3600,"station_id":"ce4bgt12rcd13ifvqce0","pricing_plan_id":"cebpf4jnsgd1na2vs0mg"},{"bike_id":"6e612e7b-28be-478c-9618-97651a5de57b","system_id":"levelo_inurba_marseille","lat":43.24658,"lon":5.39585,"is_reserved":false,"is_disabled":false,"rental_uris":{"android":"levelo://app?vid=6e612e7b-28be-478c-9618-97651a5de57b","ios":"levelo://app?vid=6e612e7b-28be-478c-9618-97651a5de57b"},"vehicle_type_id":"4","last_reported":1747536356,"current_range_meters":4400,"station_id":"","pricing_plan_id":"cebpf4jnsgd1na2vs0mg"},{"bike_id":"6906f954-bb21-4ff3-9038-904a598decd8","system_id":"levelo_inurba_marseille","lat":43.286915,"lon":5.37408,"is_reserved":false,"is_disabled":false,"rental_uris":{"android":"levelo://app?vid=6906f954-bb21-4ff3-9038-904a598decd8","ios":"levelo://app?vid=6906f954-bb21-4ff3-9038-904a598decd8"},"vehicle_type_id":"4","last_reported":1747536356,"current_range_meters":4400,"station_id":"ce4bh3p2rcd13ifvqdq0","pricing_plan_id":"cebpf4jnsgd1na2vs0mg"},{"bike_id":"c384119a-2dd6-4133-b3a0-482146a4d54a","system_id":"levelo_inurba_marseille","lat":43.24389,"lon":5.37063,"is_reserved":false,"is_disabled":false,"rental_uris":{"android":"levelo://app?vid=c384119a-2dd6-4133-b3a0-482146a4d54a","ios":"levelo://app?vid=c384119a-2dd6-4133-b3a0-482146a4d54a"},"vehicle_type_id":"4","last_reported":1747536356,"current_range_meters":4400,"station_id":"ce4bhhh2rcd13ifvqfk0","pricing_plan_id":"cebpf4jnsgd1na2vs0mg"},{"bike_id":"5edac6c7-ba0a-40ae-ae97-c13bede4041c","system_id":"levelo_inurba_marseille","lat":43.30376,"lon":5.42487,"is_reserved":false,"is_disabled":false,"rental_uris":{"android":"levelo://app?vid=5edac6c7-ba0a-40ae-ae97-c13bede4041c","ios":"levelo://app?vid=5edac6c7-ba0a-40ae-ae97-c13bede4041c"},"vehicle_type_id":"4","last_reported":1747536356,"current_range_meters":4400,"station_id":"ce4bhoh2rcd13ifvqh6g","pricing_plan_id":"cebpf4jnsgd1na2vs0mg"},{"bike_id":"a4063de7-3465-4b39-9bf8-ef1a75de7c2d","system_id":"levelo_inurba_marseille","lat":43.2857,"lon":5.46109,"is_reserved":false,"is_disabled":false,"rental_uris":{"android":"levelo://app?vid=a4063de7-3465-4b39-9bf8-ef1a75de7c2d","ios":"levelo://app?vid=a4063de7-3465-4b39-9bf8-ef1a75de7c2d"},"vehicle_type_id":"4","last_reported":1747536356,"current_range_meters":4800,"station_id":"","pricing_plan_id":"cebpf4jnsgd1na2vs0mg"},{"bike_id":"6e623445-81c6-44d8-b8bc-c06ca96689c7","system_id":"levelo_inurba_marseille","lat":43.30595,"lon":5.37232,"is_reserved":false,"is_disabled":false,"rental_uris":{"android":"levelo://app?vid=6e623445-81c6-44d8-b8bc-c06ca96689c7","ios":"levelo://app?vid=6e623445-81c6-44d8-b8bc-c06ca96689c7"},"vehicle_type_id":"4","last_reported":1747536356,"current_range_meters":4800,"station_id":"","pricing_plan_id":"cebpf4jnsgd1na2vs0mg"},{"bike_id":"c4842f2c-2caf-42cd-a69f-adb966206205","system_id":"levelo_inurba_marseille","lat":43.30433,"lon":5.3888,"is_reserved":false,"is_disabled":false,"rental_uris":{"android":"levelo://app?vid=c4842f2c-2caf-42cd-a69f-adb966206205","ios":"levelo://app?vid=c4842f2c-2caf-42cd-a69f-adb966206205"},"vehicle_type_id":"4","last_reported":1747536356,"current_range_meters":4800,"station_id":"ce4bgk12rcd13ifvqbi0","pricing_plan_id":"cebpf4jnsgd1na2vs0mg"},{"bike_id":"c6af509c-e30d-4e63-9de6-6f238c80ed2c","system_id":"levelo_inurba_marseille","lat":43.31706,"lon":5.40442,"is_reserved":false,"is_disabled":false,"rental_uris":{"android":"levelo://app?vid=c6af509c-e30d-4e63-9de6-6f238c80ed2c","ios":"levelo://app?vid=c6af509c-e30d-4e63-9de6-6f238c80ed2c"},"vehicle_type_id":"4","last_reported":1747536356,"current_range_meters":4800,"station_id":"ce4bh012rcd13ifvqd00","pricing_plan_id":"cebpf4jnsgd1na2vs0mg"},{"bike_id":"74ebbf72-e768-4228-bb55-9d74feb70a79","system_id":"levelo_inurba_marseille","lat":43.285513,"lon":5.395223,"is_reserved":false,"is_disabled":false,"rental_uris":{"android":"levelo://app?vid=74ebbf72-e768-4228-bb55-9d74feb70a79","ios":"levelo://app?vid=74ebbf72-e768-4228-bb55-9d74feb70a79"},"vehicle_type_id":"4","last_reported":1747536356,"current_range_meters":4800,"station_id":"ce4bh292rcd13ifvqdg0","pricing_plan_id":"cebpf4jnsgd1na2vs0mg"},{"bike_id":"247923c1-8cb9-486a-8e5a-c9b973edfdcc","system_id":"levelo_inurba_marseille","lat":43.28397,"lon":5.37517,"is_reserved":false,"is_disabled":false,"rental_uris":{"android":"levelo://app?vid=247923c1-8cb9-486a-8e5a-c9b973edfdcc","ios":"levelo://app?vid=247923c1-8cb9-486a-8e5a-c9b973edfdcc"},"vehicle_type_id":"4","last_reported":1747536356,"current_range_meters":4800,"station_id":"ce4bh412rcd13ifvqds0","pricing_plan_id":"cebpf4jnsgd1na2vs0mg"},{"bike_id":"1676ddb4-29a5-4180-a7d8-067d530fbaf5","system_id":"levelo_inurba_marseille","lat":43.28873,"lon":5.35834,"is_reserved":false,"is_disabled":false,"rental_uris":{"android":"levelo://app?vid=1676ddb4-29a5-4180-a7d8-067d530fbaf5","ios":"levelo://app?vid=1676ddb4-29a5-4180-a7d8-067d530fbaf5"},"vehicle_type_id":"4","last_reported":1747536356,"current_range_meters":4800,"station_id":"ce4bhb12rcd13ifvqem0","pricing_plan_id":"cebpf4jnsgd1na2vs0mg"},{"bike_id":"5e16ea8f-95fb-446c-ab51-fae1112c0aff","system_id":"levelo_inurba_marseille","lat":43.259311,"lon":5.408972,"is_reserved":false,"is_disabled":false,"rental_uris":{"android":"levelo://app?vid=5e16ea8f-95fb-446c-ab51-fae1112c0aff","ios":"levelo://app?vid=5e16ea8f-95fb-446c-ab51-fae1112c0aff"},"vehicle_type_id":"4","last_reported":1747536356,"current_range_meters":4800,"station_id":"ce4bhm92rcd13ifvqglg","pricing_plan_id":"cebpf4jnsgd1na2vs0mg"},{"bike_id":"69aa41dd-00d4-4743-85c7-2382bfa71cba","system_id":"levelo_inurba_marseille","lat":43.284421,"lon":5.391896,"is_reserved":false,"is_disabled":false,"rental_uris":{"android":"levelo://app?vid=69aa41dd-00d4-4743-85c7-2382bfa71cba","ios":"levelo://app?vid=69aa41dd-00d4-4743-85c7-2382bfa71cba"},"vehicle_type_id":"4","last_reported":1747536356,"current_range_meters":4800,"station_id":"ce4bhoh2rcd13ifvqh5g","pricing_plan_id":"cebpf4jnsgd1na2vs0mg"},{"bike_id":"343caff8-66ae-48de-8ad2-12268cecda98","system_id":"levelo_inurba_marseille","lat":43.24169,"lon":5.363982,"is_reserved":false,"is_disabled":false,"rental_uris":{"android":"levelo://app?vid=343caff8-66ae-48de-8ad2-12268cecda98","ios":"levelo://app?vid=343caff8-66ae-48de-8ad2-12268cecda98"},"vehicle_type_id":"4","last_reported":1747536356,"current_range_meters":4800,"station_id":"cpo36qri1sfpv3e86is0","pricing_plan_id":"cebpf4jnsgd1na2vs0mg"},{"bike_id":"6cd5c425-f8ac-4068-b8ea-a8bfbef29ee5","system_id":"levelo_inurba_marseille","lat":43.249945,"lon":5.379348,"is_reserved":false,"is_disabled":false,"rental_uris":{"android":"levelo://app?vid=6cd5c425-f8ac-4068-b8ea-a8bfbef29ee5","ios":"levelo://app?vid=6cd5c425-f8ac-4068-b8ea-a8bfbef29ee5"},"vehicle_type_id":"4","last_reported":1747536356,"current_range_meters":6000,"station_id":"","pricing_plan_id":"cebpf4jnsgd1na2vs0mg"},{"bike_id":"3fa58c22-00c6-48db-914d-ec2861a3d890","system_id":"levelo_inurba_marseille","lat":43.310811,"lon":5.402275,"is_reserved":false,"is_disabled":false,"rental_uris":{"android":"levelo://app?vid=3fa58c22-00c6-48db-914d-ec2861a3d890","ios":"levelo://app?vid=3fa58c22-00c6-48db-914d-ec2861a3d890"},"vehicle_type_id":"4","last_reported":1747536356,"current_range_meters":6000,"station_id":"","pricing_plan_id":"cebpf4jnsgd1na2vs0mg"},{"bike_id":"da23a86e-14c4-44c9-bf5e-75ab537d58d7","system_id":"levelo_inurba_marseille","lat":43.30117,"lon":5.39864,"is_reserved":false,"is_disabled":false,"rental_uris":{"android":"levelo://app?vid=da23a86e-14c4-44c9-bf5e-75ab537d58d7","ios":"levelo://app?vid=da23a86e-14c4-44c9-bf5e-75ab537d58d7"},"vehicle_type_id":"4","last_reported":1747536356,"current_range_meters":6000,"station_id":"ce4bh0h2rcd13ifvqd40","pricing_plan_id":"cebpf4jnsgd1na2vs0mg"},{"bike_id":"9b9e79af-a96c-43c3-9679-d942d955b379","system_id":"levelo_inurba_marseille","lat":43.28337,"lon":5.38646,"is_reserved":false,"is_disabled":false,"rental_uris":{"android":"levelo://app?vid=9b9e79af-a96c-43c3-9679-d942d955b379","ios":"levelo://app?vid=9b9e79af-a96c-43c3-9679-d942d955b379"},"vehicle_type_id":"4","last_reported":1747536356,"current_range_meters":6000,"station_id":"ce4bh492rcd13ifvqdvg","pricing_plan_id":"cebpf4jnsgd1na2vs0mg"},{"bike_id":"36b1745a-43fa-4776-bad2-1802bcb8f390","system_id":"levelo_inurba_marseille","lat":43.298002,"lon":5.404103,"is_reserved":false,"is_disabled":false,"rental_uris":{"android":"levelo://app?vid=36b1745a-43fa-4776-bad2-1802bcb8f390","ios":"levelo://app?vid=36b1745a-43fa-4776-bad2-1802bcb8f390"},"vehicle_type_id":"4","last_reported":1747536356,"current_range_meters":6400,"station_id":"ce4bh112rcd13ifvqd90","pricing_plan_id":"cebpf4jnsgd1na2vs0mg"},{"bike_id":"f499d5fe-31e6-47f0-b64c-f98cf37f77d0","system_id":"levelo_inurba_marseille","lat":43.2804,"lon":5.36945,"is_reserved":false,"is_disabled":false,"rental_uris":{"android":"levelo://app?vid=f499d5fe-31e6-47f0-b64c-f98cf37f77d0","ios":"levelo://app?vid=f499d5fe-31e6-47f0-b64c-f98cf37f77d0"},"vehicle_type_id":"4","last_reported":1747536356,"current_range_meters":6400,"station_id":"ce4bha12rcd13ifvqef0","pricing_plan_id":"cebpf4jnsgd1na2vs0mg"},{"bike_id":"a9db2928-263a-4e37-a0d4-52f8dcf7b633","system_id":"levelo_inurba_marseille","lat":43.284643,"lon":5.35878,"is_reserved":false,"is_disabled":false,"rental_uris":{"android":"levelo://app?vid=a9db2928-263a-4e37-a0d4-52f8dcf7b633","ios":"levelo://app?vid=a9db2928-263a-4e37-a0d4-52f8dcf7b633"},"vehicle_type_id":"4","last_reported":1747536356,"current_range_meters":6400,"station_id":"ce4bhah2rcd13ifvqei0","pricing_plan_id":"cebpf4jnsgd1na2vs0mg"},{"bike_id":"e2fc8af1-f5b5-4887-bcc2-61f17df64fdc","system_id":"levelo_inurba_marseille","lat":43.24642,"lon":5.38195,"is_reserved":false,"is_disabled":false,"rental_uris":{"android":"levelo://app?vid=e2fc8af1-f5b5-4887-bcc2-61f17df64fdc","ios":"levelo://app?vid=e2fc8af1-f5b5-4887-bcc2-61f17df64fdc"},"vehicle_type_id":"4","last_reported":1747536356,"current_range_meters":6400,"station_id":"ce4bhih2rcd13ifvqfr0","pricing_plan_id":"cebpf4jnsgd1na2vs0mg"},{"bike_id":"ed443012-0605-473f-828a-45b2b7e28c8b","system_id":"levelo_inurba_marseille","lat":43.31699,"lon":5.43696,"is_reserved":false,"is_disabled":false,"rental_uris":{"android":"levelo://app?vid=ed443012-0605-473f-828a-45b2b7e28c8b","ios":"levelo://app?vid=ed443012-0605-473f-828a-45b2b7e28c8b"},"vehicle_type_id":"4","last_reported":1747536356,"current_range_meters":6400,"station_id":"ce4bhp92rcd13ifvqhcg","pricing_plan_id":"cebpf4jnsgd1na2vs0mg"},{"bike_id":"4e979281-4aea-41b8-a073-5e62d7e5cb1f","system_id":"levelo_inurba_marseille","lat":43.29781,"lon":5.39336,"is_reserved":false,"is_disabled":false,"rental_uris":{"android":"levelo://app?vid=4e979281-4aea-41b8-a073-5e62d7e5cb1f","ios":"levelo://app?vid=4e979281-4aea-41b8-a073-5e62d7e5cb1f"},"vehicle_type_id":"4","last_reported":1747536356,"current_range_meters":6400,"station_id":"chh1huq6cuj3fo74tm60","pricing_plan_id":"cebpf4jnsgd1na2vs0mg"},{"bike_id":"3b843dca-d67a-4b0e-916b-710ebb36ec6d","system_id":"levelo_inurba_marseille","lat":43.325121,"lon":5.40137,"is_reserved":false,"is_disabled":false,"rental_uris":{"android":"levelo://app?vid=3b843dca-d67a-4b0e-916b-710ebb36ec6d","ios":"levelo://app?vid=3b843dca-d67a-4b0e-916b-710ebb36ec6d"},"vehicle_type_id":"4","last_reported":1747536356,"current_range_meters":6800,"station_id":"","pricing_plan_id":"cebpf4jnsgd1na2vs0mg"},{"bike_id":"fd8cc24a-6707-458f-be40-b0fcf29dedae","system_id":"levelo_inurba_marseille","lat":43.285707,"lon":5.395017,"is_reserved":false,"is_disabled":false,"rental_uris":{"android":"levelo://app?vid=fd8cc24a-6707-458f-be40-b0fcf29dedae","ios":"levelo://app?vid=fd8cc24a-6707-458f-be40-b0fcf29dedae"},"vehicle_type_id":"4","last_reported":1747536356,"current_range_meters":6800,"station_id":"ce4bh292rcd13ifvqdg0","pricing_plan_id":"cebpf4jnsgd1na2vs0mg"},{"bike_id":"f422de0d-c618-4f7f-bb53-97f17150b375","system_id":"levelo_inurba_marseille","lat":43.28461,"lon":5.35887,"is_reserved":false,"is_disabled":false,"rental_uris":{"android":"levelo://app?vid=f422de0d-c618-4f7f-bb53-97f17150b375","ios":"levelo://app?vid=f422de0d-c618-4f7f-bb53-97f17150b375"},"vehicle_type_id":"4","last_reported":1747536356,"current_range_meters":6800,"station_id":"ce4bhah2rcd13ifvqei0","pricing_plan_id":"cebpf4jnsgd1na2vs0mg"},{"bike_id":"1e5a7839-d218-47a9-988d-f5fdcdfa5acb","system_id":"levelo_inurba_marseille","lat":43.2584,"lon":5.39449,"is_reserved":false,"is_disabled":false,"rental_uris":{"android":"levelo://app?vid=1e5a7839-d218-47a9-988d-f5fdcdfa5acb","ios":"levelo://app?vid=1e5a7839-d218-47a9-988d-f5fdcdfa5acb"},"vehicle_type_id":"4","last_reported":1747536356,"current_range_meters":6800,"station_id":"ce4bhip2rcd13ifvqft0","pricing_plan_id":"cebpf4jnsgd1na2vs0mg"},{"bike_id":"2bdbf59f-e481-4844-905c-61239f926a33","system_id":"levelo_inurba_marseille","lat":43.231853,"lon":5.399707,"is_reserved":false,"is_disabled":false,"rental_uris":{"android":"levelo://app?vid=2bdbf59f-e481-4844-905c-61239f926a33","ios":"levelo://app?vid=2bdbf59f-e481-4844-905c-61239f926a33"},"vehicle_type_id":"4","last_reported":1747536356,"current_range_meters":6800,"station_id":"ce4bhn12rcd13ifvqgqg","pricing_plan_id":"cebpf4jnsgd1na2vs0mg"},{"bike_id":"39295a67-818d-4c4b-acd8-ebcf53b310ba","system_id":"levelo_inurba_marseille","lat":43.309247,"lon":5.401557,"is_reserved":false,"is_disabled":false,"rental_uris":{"android":"levelo://app?vid=39295a67-818d-4c4b-acd8-ebcf53b310ba","ios":"levelo://app?vid=39295a67-818d-4c4b-acd8-ebcf53b310ba"},"vehicle_type_id":"4","last_reported":1747536356,"current_range_meters":7200,"station_id":"ce4bgvp2rcd13ifvqct0","pricing_plan_id":"cebpf4jnsgd1na2vs0mg"},{"bike_id":"093b888a-9c5d-4574-bb57-20f4bb5014c9","system_id":"levelo_inurba_marseille","lat":43.30614,"lon":5.40115,"is_reserved":false,"is_disabled":false,"rental_uris":{"android":"levelo://app?vid=093b888a-9c5d-4574-bb57-20f4bb5014c9","ios":"levelo://app?vid=093b888a-9c5d-4574-bb57-20f4bb5014c9"},"vehicle_type_id":"4","last_reported":1747536356,"current_range_meters":7200,"station_id":"ce4bh112rcd13ifvqda0","pricing_plan_id":"cebpf4jnsgd1na2vs0mg"},{"bike_id":"7c783805-9298-450c-b74a-a775a4886c18","system_id":"levelo_inurba_marseille","lat":43.29052,"lon":5.35928,"is_reserved":false,"is_disabled":false,"rental_uris":{"android":"levelo://app?vid=7c783805-9298-450c-b74a-a775a4886c18","ios":"levelo://app?vid=7c783805-9298-450c-b74a-a775a4886c18"},"vehicle_type_id":"4","last_reported":1747536356,"current_range_meters":7200,"station_id":"ce4bha92rcd13ifvqeg0","pricing_plan_id":"cebpf4jnsgd1na2vs0mg"},{"bike_id":"123ae55b-6b07-49b7-90aa-71520b895cea","system_id":"levelo_inurba_marseille","lat":43.270544,"lon":5.402596,"is_reserved":false,"is_disabled":false,"rental_uris":{"android":"levelo://app?vid=123ae55b-6b07-49b7-90aa-71520b895cea","ios":"levelo://app?vid=123ae55b-6b07-49b7-90aa-71520b895cea"},"vehicle_type_id":"4","last_reported":1747536356,"current_range_meters":7200,"station_id":"ce4bhk92rcd13ifvqgc0","pricing_plan_id":"cebpf4jnsgd1na2vs0mg"},{"bike_id":"7711fff8-1c30-4c3a-aa27-6e5dbb51f698","system_id":"levelo_inurba_marseille","lat":43.251077,"lon":5.403309,"is_reserved":false,"is_disabled":false,"rental_uris":{"android":"levelo://app?vid=7711fff8-1c30-4c3a-aa27-6e5dbb51f698","ios":"levelo://app?vid=7711fff8-1c30-4c3a-aa27-6e5dbb51f698"},"vehicle_type_id":"4","last_reported":1747536356,"current_range_meters":7200,"station_id":"ce4bhlh2rcd13ifvqgig","pricing_plan_id":"cebpf4jnsgd1na2vs0mg"},{"bike_id":"17375fce-7bfc-4711-8359-aff96b26ac3f","system_id":"levelo_inurba_marseille","lat":43.24082,"lon":5.37753,"is_reserved":false,"is_disabled":false,"rental_uris":{"android":"levelo://app?vid=17375fce-7bfc-4711-8359-aff96b26ac3f","ios":"levelo://app?vid=17375fce-7bfc-4711-8359-aff96b26ac3f"},"vehicle_type_id":"4","last_reported":1747536356,"current_range_meters":7200,"station_id":"ce4bhnp2rcd13ifvqgvg","pricing_plan_id":"cebpf4jnsgd1na2vs0mg"},{"bike_id":"55fb771a-6e76-45c4-a9b7-cda97a0011d0","system_id":"levelo_inurba_marseille","lat":43.28746,"lon":5.38288,"is_reserved":false,"is_disabled":false,"rental_uris":{"android":"levelo://app?vid=55fb771a-6e76-45c4-a9b7-cda97a0011d0","ios":"levelo://app?vid=55fb771a-6e76-45c4-a9b7-cda97a0011d0"},"vehicle_type_id":"4","last_reported":1747536356,"current_range_meters":8000,"station_id":"","pricing_plan_id":"cebpf4jnsgd1na2vs0mg"},{"bike_id":"456df13e-096a-4823-8eea-67f822f45ee6","system_id":"levelo_inurba_marseille","lat":43.251185,"lon":5.403223,"is_reserved":false,"is_disabled":false,"rental_uris":{"android":"levelo://app?vid=456df13e-096a-4823-8eea-67f822f45ee6","ios":"levelo://app?vid=456df13e-096a-4823-8eea-67f822f45ee6"},"vehicle_type_id":"4","last_reported":1747536356,"current_range_meters":8000,"station_id":"ce4bhlh2rcd13ifvqgig","pricing_plan_id":"cebpf4jnsgd1na2vs0mg"},{"bike_id":"3a75c5f4-243e-4f18-b95d-8635947008bf","system_id":"levelo_inurba_marseille","lat":43.25116,"lon":5.40321,"is_reserved":false,"is_disabled":false,"rental_uris":{"android":"levelo://app?vid=3a75c5f4-243e-4f18-b95d-8635947008bf","ios":"levelo://app?vid=3a75c5f4-243e-4f18-b95d-8635947008bf"},"vehicle_type_id":"4","last_reported":1747536356,"current_range_meters":8000,"station_id":"ce4bhlh2rcd13ifvqgig","pricing_plan_id":"cebpf4jnsgd1na2vs0mg"},{"bike_id":"80ce8948-82cf-42c6-8ab6-4636b50ac5f8","system_id":"levelo_inurba_marseille","lat":43.315268,"lon":5.380354,"is_reserved":false,"is_disabled":false,"rental_uris":{"android":"levelo://app?vid=80ce8948-82cf-42c6-8ab6-4636b50ac5f8","ios":"levelo://app?vid=80ce8948-82cf-42c6-8ab6-4636b50ac5f8"},"vehicle_type_id":"4","last_reported":1747536356,"current_range_meters":8000,"station_id":"ce4bhsp2rcd13ifvqi50","pricing_plan_id":"cebpf4jnsgd1na2vs0mg"},{"bike_id":"d796888f-19f7-44cb-b77a-5927886255b3","system_id":"levelo_inurba_marseille","lat":43.30477,"lon":5.37902,"is_reserved":false,"is_disabled":false,"rental_uris":{"android":"levelo://app?vid=d796888f-19f7-44cb-b77a-5927886255b3","ios":"levelo://app?vid=d796888f-19f7-44cb-b77a-5927886255b3"},"vehicle_type_id":"4","last_reported":1747536356,"current_range_meters":8400,"station_id":"ce4bgup2rcd13ifvqcn0","pricing_plan_id":"cebpf4jnsgd1na2vs0mg"},{"bike_id":"80bd32ce-938d-45aa-9142-5fc1fd0e2285","system_id":"levelo_inurba_marseille","lat":43.3107,"lon":5.383495,"is_reserved":false,"is_disabled":false,"rental_uris":{"android":"levelo://app?vid=80bd32ce-938d-45aa-9142-5fc1fd0e2285","ios":"levelo://app?vid=80bd32ce-938d-45aa-9142-5fc1fd0e2285"},"vehicle_type_id":"4","last_reported":1747536356,"current_range_meters":8400,"station_id":"ce4bgv92rcd13ifvqcr0","pricing_plan_id":"cebpf4jnsgd1na2vs0mg"},{"bike_id":"dc90dba8-61be-49b2-98c8-a8e3d46f6759","system_id":"levelo_inurba_marseille","lat":43.30933,"lon":5.401475,"is_reserved":false,"is_disabled":false,"rental_uris":{"android":"levelo://app?vid=dc90dba8-61be-49b2-98c8-a8e3d46f6759","ios":"levelo://app?vid=dc90dba8-61be-49b2-98c8-a8e3d46f6759"},"vehicle_type_id":"4","last_reported":1747536356,"current_range_meters":8400,"station_id":"ce4bgvp2rcd13ifvqct0","pricing_plan_id":"cebpf4jnsgd1na2vs0mg"},{"bike_id":"32322682-2395-470f-b5f5-a01e73b4ebbb","system_id":"levelo_inurba_marseille","lat":43.288364,"lon":5.393138,"is_reserved":false,"is_disabled":false,"rental_uris":{"android":"levelo://app?vid=32322682-2395-470f-b5f5-a01e73b4ebbb","ios":"levelo://app?vid=32322682-2395-470f-b5f5-a01e73b4ebbb"},"vehicle_type_id":"4","last_reported":1747536356,"current_range_meters":8400,"station_id":"ce4bh2p2rcd13ifvqdi0","pricing_plan_id":"cebpf4jnsgd1na2vs0mg"},{"bike_id":"06f7afc6-2996-4b94-a5cc-33e2d654b02f","system_id":"levelo_inurba_marseille","lat":43.28965,"lon":5.39648,"is_reserved":false,"is_disabled":false,"rental_uris":{"android":"levelo://app?vid=06f7afc6-2996-4b94-a5cc-33e2d654b02f","ios":"levelo://app?vid=06f7afc6-2996-4b94-a5cc-33e2d654b02f"},"vehicle_type_id":"4","last_reported":1747536356,"current_range_meters":8400,"station_id":"ce4bh3h2rcd13ifvqdn0","pricing_plan_id":"cebpf4jnsgd1na2vs0mg"},{"bike_id":"7e8ca646-fbd8-47c1-b576-6a662073d69b","system_id":"levelo_inurba_marseille","lat":43.251149,"lon":5.403218,"is_reserved":false,"is_disabled":false,"rental_uris":{"android":"levelo://app?vid=7e8ca646-fbd8-47c1-b576-6a662073d69b","ios":"levelo://app?vid=7e8ca646-fbd8-47c1-b576-6a662073d69b"},"vehicle_type_id":"4","last_reported":1747536356,"current_range_meters":8400,"station_id":"ce4bhlh2rcd13ifvqgig","pricing_plan_id":"cebpf4jnsgd1na2vs0mg"},{"bike_id":"d0cc36ba-dea5-4301-b9bc-2db32098db5e","system_id":"levelo_inurba_marseille","lat":43.25095,"lon":5.39505,"is_reserved":false,"is_disabled":false,"rental_uris":{"android":"levelo://app?vid=d0cc36ba-dea5-4301-b9bc-2db32098db5e","ios":"levelo://app?vid=d0cc36ba-dea5-4301-b9bc-2db32098db5e"},"vehicle_type_id":"4","last_reported":1747536356,"current_range_meters":8400,"station_id":"ce4bhm12rcd13ifvqgkg","pricing_plan_id":"cebpf4jnsgd1na2vs0mg"},{"bike_id":"b8e6468b-87db-4ff6-8122-ef13bf5b7c8c","system_id":"levelo_inurba_marseille","lat":43.31379,"lon":5.37916,"is_reserved":false,"is_disabled":false,"rental_uris":{"android":"levelo://app?vid=b8e6468b-87db-4ff6-8122-ef13bf5b7c8c","ios":"levelo://app?vid=b8e6468b-87db-4ff6-8122-ef13bf5b7c8c"},"vehicle_type_id":"4","last_reported":1747536356,"current_range_meters":8800,"station_id":"","pricing_plan_id":"cebpf4jnsgd1na2vs0mg"},{"bike_id":"822dd0b4-7412-48bb-99dc-94cac0c42c1e","system_id":"levelo_inurba_marseille","lat":43.294405,"lon":5.397487,"is_reserved":false,"is_disabled":false,"rental_uris":{"android":"levelo://app?vid=822dd0b4-7412-48bb-99dc-94cac0c42c1e","ios":"levelo://app?vid=822dd0b4-7412-48bb-99dc-94cac0c42c1e"},"vehicle_type_id":"4","last_reported":1747536356,"current_range_meters":8800,"station_id":"ce4bh3h2rcd13ifvqdo0","pricing_plan_id":"cebpf4jnsgd1na2vs0mg"},{"bike_id":"82862649-485d-4988-aeb2-e287bb522774","system_id":"levelo_inurba_marseille","lat":43.289354,"lon":5.364031,"is_reserved":false,"is_disabled":false,"rental_uris":{"android":"levelo://app?vid=82862649-485d-4988-aeb2-e287bb522774","ios":"levelo://app?vid=82862649-485d-4988-aeb2-e287bb522774"},"vehicle_type_id":"4","last_reported":1747536356,"current_range_meters":8800,"station_id":"ce4bhc92rcd13ifvqetg","pricing_plan_id":"cebpf4jnsgd1na2vs0mg"},{"bike_id":"5ea6f467-857b-4ea7-a4b9-4a241fcc702a","system_id":"levelo_inurba_marseille","lat":43.24681,"lon":5.38171,"is_reserved":false,"is_disabled":false,"rental_uris":{"android":"levelo://app?vid=5ea6f467-857b-4ea7-a4b9-4a241fcc702a","ios":"levelo://app?vid=5ea6f467-857b-4ea7-a4b9-4a241fcc702a"},"vehicle_type_id":"4","last_reported":1747536356,"current_range_meters":8800,"station_id":"ce4bhih2rcd13ifvqfr0","pricing_plan_id":"cebpf4jnsgd1na2vs0mg"},{"bike_id":"0e643c49-55b7-4013-9035-8e29a4bbf97b","system_id":"levelo_inurba_marseille","lat":43.24684,"lon":5.38142,"is_reserved":false,"is_disabled":false,"rental_uris":{"android":"levelo://app?vid=0e643c49-55b7-4013-9035-8e29a4bbf97b","ios":"levelo://app?vid=0e643c49-55b7-4013-9035-8e29a4bbf97b"},"vehicle_type_id":"4","last_reported":1747536356,"current_range_meters":8800,"station_id":"ce4bhih2rcd13ifvqfr0","pricing_plan_id":"cebpf4jnsgd1na2vs0mg"},{"bike_id":"3ada38a9-c7bf-40bd-8e56-eedf1b279d42","system_id":"levelo_inurba_marseille","lat":43.2315,"lon":5.43721,"is_reserved":false,"is_disabled":false,"rental_uris":{"android":"levelo://app?vid=3ada38a9-c7bf-40bd-8e56-eedf1b279d42","ios":"levelo://app?vid=3ada38a9-c7bf-40bd-8e56-eedf1b279d42"},"vehicle_type_id":"4","last_reported":1747536356,"current_range_meters":8800,"station_id":"ce4bhmp2rcd13ifvqgog","pricing_plan_id":"cebpf4jnsgd1na2vs0mg"},{"bike_id":"6bad99d6-c400-4729-a6f1-dd5f2da6c3f2","system_id":"levelo_inurba_marseille","lat":43.31728,"lon":5.4241,"is_reserved":false,"is_disabled":false,"rental_uris":{"android":"levelo://app?vid=6bad99d6-c400-4729-a6f1-dd5f2da6c3f2","ios":"levelo://app?vid=6bad99d6-c400-4729-a6f1-dd5f2da6c3f2"},"vehicle_type_id":"4","last_reported":1747536356,"current_range_meters":8800,"station_id":"ce4bhp92rcd13ifvqhbg","pricing_plan_id":"cebpf4jnsgd1na2vs0mg"},{"bike_id":"de1c9b32-6d0a-422c-8dcb-e9d2c47903a1","system_id":"levelo_inurba_marseille","lat":43.31712,"lon":5.42409,"is_reserved":false,"is_disabled":false,"rental_uris":{"android":"levelo://app?vid=de1c9b32-6d0a-422c-8dcb-e9d2c47903a1","ios":"levelo://app?vid=de1c9b32-6d0a-422c-8dcb-e9d2c47903a1"},"vehicle_type_id":"4","last_reported":1747536356,"current_range_meters":8800,"station_id":"ce4bhp92rcd13ifvqhbg","pricing_plan_id":"cebpf4jnsgd1na2vs0mg"},{"bike_id":"87b1d5a0-ca20-4099-8fc3-ab0909b77445","system_id":"levelo_inurba_marseille","lat":43.30933,"lon":5.40137,"is_reserved":false,"is_disabled":false,"rental_uris":{"android":"levelo://app?vid=87b1d5a0-ca20-4099-8fc3-ab0909b77445","ios":"levelo://app?vid=87b1d5a0-ca20-4099-8fc3-ab0909b77445"},"vehicle_type_id":"4","last_reported":1747536356,"current_range_meters":9200,"station_id":"ce4bgvp2rcd13ifvqct0","pricing_plan_id":"cebpf4jnsgd1na2vs0mg"},{"bike_id":"48aec151-f27a-48c6-a1d0-5f755752c784","system_id":"levelo_inurba_marseille","lat":43.285696,"lon":5.394986,"is_reserved":false,"is_disabled":false,"rental_uris":{"android":"levelo://app?vid=48aec151-f27a-48c6-a1d0-5f755752c784","ios":"levelo://app?vid=48aec151-f27a-48c6-a1d0-5f755752c784"},"vehicle_type_id":"4","last_reported":1747536356,"current_range_meters":9200,"station_id":"ce4bh292rcd13ifvqdg0","pricing_plan_id":"cebpf4jnsgd1na2vs0mg"},{"bike_id":"dbebb23c-0d76-46f8-9a78-14655ed12205","system_id":"levelo_inurba_marseille","lat":43.255804,"lon":5.382333,"is_reserved":false,"is_disabled":false,"rental_uris":{"android":"levelo://app?vid=dbebb23c-0d76-46f8-9a78-14655ed12205","ios":"levelo://app?vid=dbebb23c-0d76-46f8-9a78-14655ed12205"},"vehicle_type_id":"4","last_reported":1747536356,"current_range_meters":9200,"station_id":"ce4bhih2rcd13ifvqfs0","pricing_plan_id":"cebpf4jnsgd1na2vs0mg"},{"bike_id":"8f189487-f31d-4ca2-a926-e41f071bd7f5","system_id":"levelo_inurba_marseille","lat":43.24067,"lon":5.377626,"is_reserved":false,"is_disabled":false,"rental_uris":{"android":"levelo://app?vid=8f189487-f31d-4ca2-a926-e41f071bd7f5","ios":"levelo://app?vid=8f189487-f31d-4ca2-a926-e41f071bd7f5"},"vehicle_type_id":"4","last_reported":1747536356,"current_range_meters":9200,"station_id":"ce4bhnp2rcd13ifvqgvg","pricing_plan_id":"cebpf4jnsgd1na2vs0mg"},{"bike_id":"0fb02880-5c6e-4026-9e4a-07529c572b44","system_id":"levelo_inurba_marseille","lat":43.25474,"lon":5.373858,"is_reserved":false,"is_disabled":false,"rental_uris":{"android":"levelo://app?vid=0fb02880-5c6e-4026-9e4a-07529c572b44","ios":"levelo://app?vid=0fb02880-5c6e-4026-9e4a-07529c572b44"},"vehicle_type_id":"4","last_reported":1747536356,"current_range_meters":9600,"station_id":"","pricing_plan_id":"cebpf4jnsgd1na2vs0mg"},{"bike_id":"c0db4030-ef30-480b-a735-af5435a471ed","system_id":"levelo_inurba_marseille","lat":43.27723,"lon":5.42672,"is_reserved":false,"is_disabled":false,"rental_uris":{"android":"levelo://app?vid=c0db4030-ef30-480b-a735-af5435a471ed","ios":"levelo://app?vid=c0db4030-ef30-480b-a735-af5435a471ed"},"vehicle_type_id":"4","last_reported":1747536356,"current_range_meters":9600,"station_id":"","pricing_plan_id":"cebpf4jnsgd1na2vs0mg"},{"bike_id":"337b08c3-9453-4585-b2d5-7cd494c9cc9f","system_id":"levelo_inurba_marseille","lat":43.28419,"lon":5.37528,"is_reserved":false,"is_disabled":false,"rental_uris":{"android":"levelo://app?vid=337b08c3-9453-4585-b2d5-7cd494c9cc9f","ios":"levelo://app?vid=337b08c3-9453-4585-b2d5-7cd494c9cc9f"},"vehicle_type_id":"4","last_reported":1747536356,"current_range_meters":9600,"station_id":"ce4bh412rcd13ifvqds0","pricing_plan_id":"cebpf4jnsgd1na2vs0mg"},{"bike_id":"2013cd87-0d43-443c-a50a-2ae65b408add","system_id":"levelo_inurba_marseille","lat":43.323643,"lon":5.388899,"is_reserved":false,"is_disabled":false,"rental_uris":{"android":"levelo://app?vid=2013cd87-0d43-443c-a50a-2ae65b408add","ios":"levelo://app?vid=2013cd87-0d43-443c-a50a-2ae65b408add"},"vehicle_type_id":"4","last_reported":1747536356,"current_range_meters":9600,"station_id":"ce4bhqp2rcd13ifvqhog","pricing_plan_id":"cebpf4jnsgd1na2vs0mg"},{"bike_id":"fbb9dc35-fa9d-42e4-9fd8-bc3154190a90","system_id":"levelo_inurba_marseille","lat":43.30931,"lon":5.401555,"is_reserved":false,"is_disabled":false,"rental_uris":{"android":"levelo://app?vid=fbb9dc35-fa9d-42e4-9fd8-bc3154190a90","ios":"levelo://app?vid=fbb9dc35-fa9d-42e4-9fd8-bc3154190a90"},"vehicle_type_id":"4","last_reported":1747536356,"current_range_meters":10000,"station_id":"ce4bgvp2rcd13ifvqct0","pricing_plan_id":"cebpf4jnsgd1na2vs0mg"},{"bike_id":"db22b70b-7de1-403c-85af-ebb538cde99e","system_id":"levelo_inurba_marseille","lat":43.298704,"lon":5.397361,"is_reserved":false,"is_disabled":false,"rental_uris":{"android":"levelo://app?vid=db22b70b-7de1-403c-85af-ebb538cde99e","ios":"levelo://app?vid=db22b70b-7de1-403c-85af-ebb538cde99e"},"vehicle_type_id":"4","last_reported":1747536356,"current_range_meters":10000,"station_id":"ce4bh0h2rcd13ifvqd50","pricing_plan_id":"cebpf4jnsgd1na2vs0mg"},{"bike_id":"792c9dbd-158e-4661-91d4-2c1ed379e655","system_id":"levelo_inurba_marseille","lat":43.24689,"lon":5.38093,"is_reserved":false,"is_disabled":false,"rental_uris":{"android":"levelo://app?vid=792c9dbd-158e-4661-91d4-2c1ed379e655","ios":"levelo://app?vid=792c9dbd-158e-4661-91d4-2c1ed379e655"},"vehicle_type_id":"4","last_reported":1747536356,"current_range_meters":10000,"station_id":"ce4bhih2rcd13ifvqfr0","pricing_plan_id":"cebpf4jnsgd1na2vs0mg"},{"bike_id":"9174d559-4e85-42b4-a063-f2d23adfad9b","system_id":"levelo_inurba_marseille","lat":43.251109,"lon":5.403247,"is_reserved":false,"is_disabled":false,"rental_uris":{"android":"levelo://app?vid=9174d559-4e85-42b4-a063-f2d23adfad9b","ios":"levelo://app?vid=9174d559-4e85-42b4-a063-f2d23adfad9b"},"vehicle_type_id":"4","last_reported":1747536356,"current_range_meters":10000,"station_id":"ce4bhlh2rcd13ifvqgig","pricing_plan_id":"cebpf4jnsgd1na2vs0mg"},{"bike_id":"07b3ae1b-4117-4b3a-b14b-cc006307aefd","system_id":"levelo_inurba_marseille","lat":43.29548,"lon":5.422845,"is_reserved":false,"is_disabled":false,"rental_uris":{"android":"levelo://app?vid=07b3ae1b-4117-4b3a-b14b-cc006307aefd","ios":"levelo://app?vid=07b3ae1b-4117-4b3a-b14b-cc006307aefd"},"vehicle_type_id":"4","last_reported":1747536356,"current_range_meters":10000,"station_id":"ce4bhph2rcd13ifvqhdg","pricing_plan_id":"cebpf4jnsgd1na2vs0mg"},{"bike_id":"0f42c805-92e1-4274-b532-29e3edd02304","system_id":"levelo_inurba_marseille","lat":43.29234,"lon":5.40191,"is_reserved":false,"is_disabled":false,"rental_uris":{"android":"levelo://app?vid=0f42c805-92e1-4274-b532-29e3edd02304","ios":"levelo://app?vid=0f42c805-92e1-4274-b532-29e3edd02304"},"vehicle_type_id":"4","last_reported":1747536356,"current_range_meters":10800,"station_id":"","pricing_plan_id":"cebpf4jnsgd1na2vs0mg"},{"bike_id":"3980d76b-e904-45ba-9bbd-4ee10919b44c","system_id":"levelo_inurba_marseille","lat":43.31069,"lon":5.38195,"is_reserved":false,"is_disabled":false,"rental_uris":{"android":"levelo://app?vid=3980d76b-e904-45ba-9bbd-4ee10919b44c","ios":"levelo://app?vid=3980d76b-e904-45ba-9bbd-4ee10919b44c"},"vehicle_type_id":"4","last_reported":1747536356,"current_range_meters":10800,"station_id":"","pricing_plan_id":"cebpf4jnsgd1na2vs0mg"},{"bike_id":"14603e41-b2dd-4757-a53c-2e366aa4f983","system_id":"levelo_inurba_marseille","lat":43.269916,"lon":5.428248,"is_reserved":false,"is_disabled":false,"rental_uris":{"android":"levelo://app?vid=14603e41-b2dd-4757-a53c-2e366aa4f983","ios":"levelo://app?vid=14603e41-b2dd-4757-a53c-2e366aa4f983"},"vehicle_type_id":"4","last_reported":1747536356,"current_range_meters":10800,"station_id":"","pricing_plan_id":"cebpf4jnsgd1na2vs0mg"},{"bike_id":"04caccac-fac0-4257-8dfe-104b91321d87","system_id":"levelo_inurba_marseille","lat":43.28406,"lon":5.375177,"is_reserved":false,"is_disabled":false,"rental_uris":{"android":"levelo://app?vid=04caccac-fac0-4257-8dfe-104b91321d87","ios":"levelo://app?vid=04caccac-fac0-4257-8dfe-104b91321d87"},"vehicle_type_id":"4","last_reported":1747536356,"current_range_meters":10800,"station_id":"ce4bh412rcd13ifvqds0","pricing_plan_id":"cebpf4jnsgd1na2vs0mg"},{"bike_id":"caf4c81d-8b81-4d8d-a4f9-9d00bac7ad70","system_id":"levelo_inurba_marseille","lat":43.307776,"lon":5.428192,"is_reserved":false,"is_disabled":false,"rental_uris":{"android":"levelo://app?vid=caf4c81d-8b81-4d8d-a4f9-9d00bac7ad70","ios":"levelo://app?vid=caf4c81d-8b81-4d8d-a4f9-9d00bac7ad70"},"vehicle_type_id":"4","last_reported":1747536356,"current_range_meters":11200,"station_id":"","pricing_plan_id":"cebpf4jnsgd1na2vs0mg"},{"bike_id":"3725928c-be3e-412e-a7ab-18d223db2dcb","system_id":"levelo_inurba_marseille","lat":43.285621,"lon":5.394958,"is_reserved":false,"is_disabled":false,"rental_uris":{"android":"levelo://app?vid=3725928c-be3e-412e-a7ab-18d223db2dcb","ios":"levelo://app?vid=3725928c-be3e-412e-a7ab-18d223db2dcb"},"vehicle_type_id":"4","last_reported":1747536356,"current_range_meters":11200,"station_id":"ce4bh292rcd13ifvqdg0","pricing_plan_id":"cebpf4jnsgd1na2vs0mg"},{"bike_id":"0ed9aa78-44cd-4e0d-8cbf-403f16048f90","system_id":"levelo_inurba_marseille","lat":43.28449,"lon":5.35911,"is_reserved":false,"is_disabled":false,"rental_uris":{"android":"levelo://app?vid=0ed9aa78-44cd-4e0d-8cbf-403f16048f90","ios":"levelo://app?vid=0ed9aa78-44cd-4e0d-8cbf-403f16048f90"},"vehicle_type_id":"4","last_reported":1747536356,"current_range_meters":11200,"station_id":"ce4bhah2rcd13ifvqei0","pricing_plan_id":"cebpf4jnsgd1na2vs0mg"},{"bike_id":"ffc3ddf2-0082-4578-9e25-c91f5b4279bc","system_id":"levelo_inurba_marseille","lat":43.28307,"lon":5.41135,"is_reserved":false,"is_disabled":false,"rental_uris":{"android":"levelo://app?vid=ffc3ddf2-0082-4578-9e25-c91f5b4279bc","ios":"levelo://app?vid=ffc3ddf2-0082-4578-9e25-c91f5b4279bc"},"vehicle_type_id":"4","last_reported":1747536356,"current_range_meters":11600,"station_id":"","pricing_plan_id":"cebpf4jnsgd1na2vs0mg"},{"bike_id":"99aab1ac-0e74-4853-a5d5-d682d1f9422c","system_id":"levelo_inurba_marseille","lat":43.309332,"lon":5.401512,"is_reserved":false,"is_disabled":false,"rental_uris":{"android":"levelo://app?vid=99aab1ac-0e74-4853-a5d5-d682d1f9422c","ios":"levelo://app?vid=99aab1ac-0e74-4853-a5d5-d682d1f9422c"},"vehicle_type_id":"4","last_reported":1747536356,"current_range_meters":11600,"station_id":"ce4bgvp2rcd13ifvqct0","pricing_plan_id":"cebpf4jnsgd1na2vs0mg"},{"bike_id":"7868986d-a54c-4a37-84be-fce32b4b1235","system_id":"levelo_inurba_marseille","lat":43.26511,"lon":5.39545,"is_reserved":false,"is_disabled":false,"rental_uris":{"android":"levelo://app?vid=7868986d-a54c-4a37-84be-fce32b4b1235","ios":"levelo://app?vid=7868986d-a54c-4a37-84be-fce32b4b1235"},"vehicle_type_id":"4","last_reported":1747536356,"current_range_meters":11600,"station_id":"ce4bhi12rcd13ifvqfq0","pricing_plan_id":"cebpf4jnsgd1na2vs0mg"},{"bike_id":"7d9dd8c1-69f5-4957-8992-21b219e4420c","system_id":"levelo_inurba_marseille","lat":43.24671,"lon":5.38163,"is_reserved":false,"is_disabled":false,"rental_uris":{"android":"levelo://app?vid=7d9dd8c1-69f5-4957-8992-21b219e4420c","ios":"levelo://app?vid=7d9dd8c1-69f5-4957-8992-21b219e4420c"},"vehicle_type_id":"4","last_reported":1747536356,"current_range_meters":11600,"station_id":"ce4bhih2rcd13ifvqfr0","pricing_plan_id":"cebpf4jnsgd1na2vs0mg"},{"bike_id":"bbad5bf7-b54d-4284-aeee-744acb86bc7d","system_id":"levelo_inurba_marseille","lat":43.278136,"lon":5.407155,"is_reserved":false,"is_disabled":false,"rental_uris":{"android":"levelo://app?vid=bbad5bf7-b54d-4284-aeee-744acb86bc7d","ios":"levelo://app?vid=bbad5bf7-b54d-4284-aeee-744acb86bc7d"},"vehicle_type_id":"4","last_reported":1747536356,"current_range_meters":11600,"station_id":"ce4bhnh2rcd13ifvqgtg","pricing_plan_id":"cebpf4jnsgd1na2vs0mg"},{"bike_id":"8dfe3edc-82df-4b5a-a412-16963c595c57","system_id":"levelo_inurba_marseille","lat":43.308743,"lon":5.396344,"is_reserved":false,"is_disabled":false,"rental_uris":{"android":"levelo://app?vid=8dfe3edc-82df-4b5a-a412-16963c595c57","ios":"levelo://app?vid=8dfe3edc-82df-4b5a-a412-16963c595c57"},"vehicle_type_id":"4","last_reported":1747536356,"current_range_meters":12000,"station_id":"ce4bh012rcd13ifvqcv0","pricing_plan_id":"cebpf4jnsgd1na2vs0mg"},{"bike_id":"c608898e-58b6-42f7-903a-6008119c7a64","system_id":"levelo_inurba_marseille","lat":43.240628,"lon":5.377576,"is_reserved":false,"is_disabled":false,"rental_uris":{"android":"levelo://app?vid=c608898e-58b6-42f7-903a-6008119c7a64","ios":"levelo://app?vid=c608898e-58b6-42f7-903a-6008119c7a64"},"vehicle_type_id":"4","last_reported":1747536356,"current_range_meters":12000,"station_id":"ce4bhnp2rcd13ifvqgvg","pricing_plan_id":"cebpf4jnsgd1na2vs0mg"},{"bike_id":"6e1bd625-3ec1-43df-9657-36d71ae09f8d","system_id":"levelo_inurba_marseille","lat":43.337491,"lon":5.374577,"is_reserved":false,"is_disabled":false,"rental_uris":{"android":"levelo://app?vid=6e1bd625-3ec1-43df-9657-36d71ae09f8d","ios":"levelo://app?vid=6e1bd625-3ec1-43df-9657-36d71ae09f8d"},"vehicle_type_id":"4","last_reported":1747536356,"current_range_meters":12400,"station_id":"","pricing_plan_id":"cebpf4jnsgd1na2vs0mg"},{"bike_id":"e70364cf-e3cc-4f7d-bb72-53979b280fcc","system_id":"levelo_inurba_marseille","lat":43.302447,"lon":5.400747,"is_reserved":false,"is_disabled":false,"rental_uris":{"android":"levelo://app?vid=e70364cf-e3cc-4f7d-bb72-53979b280fcc","ios":"levelo://app?vid=e70364cf-e3cc-4f7d-bb72-53979b280fcc"},"vehicle_type_id":"4","last_reported":1747536356,"current_range_meters":12400,"station_id":"ce4bgvh2rcd13ifvqcs0","pricing_plan_id":"cebpf4jnsgd1na2vs0mg"},{"bike_id":"27f05115-decc-4fbb-b226-cbb837efe701","system_id":"levelo_inurba_marseille","lat":43.302487,"lon":5.400459,"is_reserved":false,"is_disabled":false,"rental_uris":{"android":"levelo://app?vid=27f05115-decc-4fbb-b226-cbb837efe701","ios":"levelo://app?vid=27f05115-decc-4fbb-b226-cbb837efe701"},"vehicle_type_id":"4","last_reported":1747536356,"current_range_meters":12400,"station_id":"ce4bgvh2rcd13ifvqcs0","pricing_plan_id":"cebpf4jnsgd1na2vs0mg"},{"bike_id":"ac17f9c9-7ee6-41de-bb75-3f81ebd8c42e","system_id":"levelo_inurba_marseille","lat":43.30639,"lon":5.40079,"is_reserved":false,"is_disabled":false,"rental_uris":{"android":"levelo://app?vid=ac17f9c9-7ee6-41de-bb75-3f81ebd8c42e","ios":"levelo://app?vid=ac17f9c9-7ee6-41de-bb75-3f81ebd8c42e"},"vehicle_type_id":"4","last_reported":1747536356,"current_range_meters":12400,"station_id":"ce4bh112rcd13ifvqda0","pricing_plan_id":"cebpf4jnsgd1na2vs0mg"},{"bike_id":"56de12ec-c2b3-4960-90ca-a3bf7841338a","system_id":"levelo_inurba_marseille","lat":43.24642,"lon":5.389027,"is_reserved":false,"is_disabled":false,"rental_uris":{"android":"levelo://app?vid=56de12ec-c2b3-4960-90ca-a3bf7841338a","ios":"levelo://app?vid=56de12ec-c2b3-4960-90ca-a3bf7841338a"},"vehicle_type_id":"4","last_reported":1747536356,"current_range_meters":12400,"station_id":"ce4bhg12rcd13ifvqf60","pricing_plan_id":"cebpf4jnsgd1na2vs0mg"},{"bike_id":"f4422497-4aad-4e8b-bd52-83c14c78c01b","system_id":"levelo_inurba_marseille","lat":43.2509,"lon":5.40365,"is_reserved":false,"is_disabled":false,"rental_uris":{"android":"levelo://app?vid=f4422497-4aad-4e8b-bd52-83c14c78c01b","ios":"levelo://app?vid=f4422497-4aad-4e8b-bd52-83c14c78c01b"},"vehicle_type_id":"4","last_reported":1747536356,"current_range_meters":12400,"station_id":"ce4bhlh2rcd13ifvqgig","pricing_plan_id":"cebpf4jnsgd1na2vs0mg"},{"bike_id":"4745dd8b-a0b2-49db-b417-8a28eecc51d4","system_id":"levelo_inurba_marseille","lat":43.2433,"lon":5.38004,"is_reserved":false,"is_disabled":false,"rental_uris":{"android":"levelo://app?vid=4745dd8b-a0b2-49db-b417-8a28eecc51d4","ios":"levelo://app?vid=4745dd8b-a0b2-49db-b417-8a28eecc51d4"},"vehicle_type_id":"4","last_reported":1747536356,"current_range_meters":12800,"station_id":"","pricing_plan_id":"cebpf4jnsgd1na2vs0mg"},{"bike_id":"0e689d43-c17d-4781-a4d7-f7a5ff3e0dbd","system_id":"levelo_inurba_marseille","lat":43.30326,"lon":5.40436,"is_reserved":false,"is_disabled":false,"rental_uris":{"android":"levelo://app?vid=0e689d43-c17d-4781-a4d7-f7a5ff3e0dbd","ios":"levelo://app?vid=0e689d43-c17d-4781-a4d7-f7a5ff3e0dbd"},"vehicle_type_id":"4","last_reported":1747536356,"current_range_meters":12800,"station_id":"ce4bh012rcd13ifvqd10","pricing_plan_id":"cebpf4jnsgd1na2vs0mg"},{"bike_id":"4739d0ee-0dbc-4b41-a171-18fe3d7e3cc9","system_id":"levelo_inurba_marseille","lat":43.29872,"lon":5.39769,"is_reserved":false,"is_disabled":false,"rental_uris":{"android":"levelo://app?vid=4739d0ee-0dbc-4b41-a171-18fe3d7e3cc9","ios":"levelo://app?vid=4739d0ee-0dbc-4b41-a171-18fe3d7e3cc9"},"vehicle_type_id":"4","last_reported":1747536356,"current_range_meters":12800,"station_id":"ce4bh0h2rcd13ifvqd50","pricing_plan_id":"cebpf4jnsgd1na2vs0mg"},{"bike_id":"eee74f2d-ed85-40ff-83e9-09c3b1e90d56","system_id":"levelo_inurba_marseille","lat":43.25112,"lon":5.40331,"is_reserved":false,"is_disabled":false,"rental_uris":{"android":"levelo://app?vid=eee74f2d-ed85-40ff-83e9-09c3b1e90d56","ios":"levelo://app?vid=eee74f2d-ed85-40ff-83e9-09c3b1e90d56"},"vehicle_type_id":"4","last_reported":1747536356,"current_range_meters":12800,"station_id":"ce4bhlh2rcd13ifvqgig","pricing_plan_id":"cebpf4jnsgd1na2vs0mg"},{"bike_id":"7238b89e-2b97-4bc5-95ab-4759c70767ab","system_id":"levelo_inurba_marseille","lat":43.31112,"lon":5.37771,"is_reserved":false,"is_disabled":false,"rental_uris":{"android":"levelo://app?vid=7238b89e-2b97-4bc5-95ab-4759c70767ab","ios":"levelo://app?vid=7238b89e-2b97-4bc5-95ab-4759c70767ab"},"vehicle_type_id":"4","last_reported":1747536356,"current_range_meters":13600,"station_id":"ce4bgt92rcd13ifvqcg0","pricing_plan_id":"cebpf4jnsgd1na2vs0mg"},{"bike_id":"3845b92b-2215-4a79-be64-fa2b0d45d0ba","system_id":"levelo_inurba_marseille","lat":43.30244,"lon":5.40078,"is_reserved":false,"is_disabled":false,"rental_uris":{"android":"levelo://app?vid=3845b92b-2215-4a79-be64-fa2b0d45d0ba","ios":"levelo://app?vid=3845b92b-2215-4a79-be64-fa2b0d45d0ba"},"vehicle_type_id":"4","last_reported":1747536356,"current_range_meters":13600,"station_id":"ce4bgvh2rcd13ifvqcs0","pricing_plan_id":"cebpf4jnsgd1na2vs0mg"},{"bike_id":"92c0459c-522b-4e51-bf45-fa5573a5f2d9","system_id":"levelo_inurba_marseille","lat":43.29626,"lon":5.40617,"is_reserved":false,"is_disabled":false,"rental_uris":{"android":"levelo://app?vid=92c0459c-522b-4e51-bf45-fa5573a5f2d9","ios":"levelo://app?vid=92c0459c-522b-4e51-bf45-fa5573a5f2d9"},"vehicle_type_id":"4","last_reported":1747536356,"current_range_meters":13600,"station_id":"ce4bh0h2rcd13ifvqd60","pricing_plan_id":"cebpf4jnsgd1na2vs0mg"},{"bike_id":"262036fe-d80c-4d06-a49b-dfb02bc52ea7","system_id":"levelo_inurba_marseille","lat":43.30897,"lon":5.4018,"is_reserved":false,"is_disabled":false,"rental_uris":{"android":"levelo://app?vid=262036fe-d80c-4d06-a49b-dfb02bc52ea7","ios":"levelo://app?vid=262036fe-d80c-4d06-a49b-dfb02bc52ea7"},"vehicle_type_id":"4","last_reported":1747536356,"current_range_meters":14000,"station_id":"ce4bgvp2rcd13ifvqct0","pricing_plan_id":"cebpf4jnsgd1na2vs0mg"},{"bike_id":"3ba7c2a7-41ec-4970-b2db-84b73b82b25a","system_id":"levelo_inurba_marseille","lat":43.30321,"lon":5.4045,"is_reserved":false,"is_disabled":false,"rental_uris":{"android":"levelo://app?vid=3ba7c2a7-41ec-4970-b2db-84b73b82b25a","ios":"levelo://app?vid=3ba7c2a7-41ec-4970-b2db-84b73b82b25a"},"vehicle_type_id":"4","last_reported":1747536356,"current_range_meters":14000,"station_id":"ce4bh012rcd13ifvqd10","pricing_plan_id":"cebpf4jnsgd1na2vs0mg"},{"bike_id":"ac3834a9-965b-4a58-89b3-af339b7bb1c6","system_id":"levelo_inurba_marseille","lat":43.284093,"lon":5.375049,"is_reserved":false,"is_disabled":false,"rental_uris":{"android":"levelo://app?vid=ac3834a9-965b-4a58-89b3-af339b7bb1c6","ios":"levelo://app?vid=ac3834a9-965b-4a58-89b3-af339b7bb1c6"},"vehicle_type_id":"4","last_reported":1747536356,"current_range_meters":14000,"station_id":"ce4bh412rcd13ifvqds0","pricing_plan_id":"cebpf4jnsgd1na2vs0mg"},{"bike_id":"584c70d0-0918-4aa0-b289-fcc6a9442003","system_id":"levelo_inurba_marseille","lat":43.25069,"lon":5.39558,"is_reserved":false,"is_disabled":false,"rental_uris":{"android":"levelo://app?vid=584c70d0-0918-4aa0-b289-fcc6a9442003","ios":"levelo://app?vid=584c70d0-0918-4aa0-b289-fcc6a9442003"},"vehicle_type_id":"4","last_reported":1747536356,"current_range_meters":14000,"station_id":"ce4bhm12rcd13ifvqgkg","pricing_plan_id":"cebpf4jnsgd1na2vs0mg"},{"bike_id":"55982159-14b0-423d-a8c0-c157cf2770cd","system_id":"levelo_inurba_marseille","lat":43.2774,"lon":5.36281,"is_reserved":false,"is_disabled":false,"rental_uris":{"android":"levelo://app?vid=55982159-14b0-423d-a8c0-c157cf2770cd","ios":"levelo://app?vid=55982159-14b0-423d-a8c0-c157cf2770cd"},"vehicle_type_id":"4","last_reported":1747536356,"current_range_meters":14400,"station_id":"","pricing_plan_id":"cebpf4jnsgd1na2vs0mg"},{"bike_id":"a2e8ac07-c27d-4596-ac54-d8fb456abf0d","system_id":"levelo_inurba_marseille","lat":43.28248,"lon":5.42428,"is_reserved":false,"is_disabled":false,"rental_uris":{"android":"levelo://app?vid=a2e8ac07-c27d-4596-ac54-d8fb456abf0d","ios":"levelo://app?vid=a2e8ac07-c27d-4596-ac54-d8fb456abf0d"},"vehicle_type_id":"4","last_reported":1747536356,"current_range_meters":14400,"station_id":"","pricing_plan_id":"cebpf4jnsgd1na2vs0mg"},{"bike_id":"f044e6b9-8dc1-480f-b78a-6afbe2af2e6b","system_id":"levelo_inurba_marseille","lat":43.29528,"lon":5.39401,"is_reserved":false,"is_disabled":false,"rental_uris":{"android":"levelo://app?vid=f044e6b9-8dc1-480f-b78a-6afbe2af2e6b","ios":"levelo://app?vid=f044e6b9-8dc1-480f-b78a-6afbe2af2e6b"},"vehicle_type_id":"4","last_reported":1747536356,"current_range_meters":14400,"station_id":"ce4bh292rcd13ifvqdf0","pricing_plan_id":"cebpf4jnsgd1na2vs0mg"},{"bike_id":"b26a0dd7-cbdc-4ab7-8def-31c4b88b224a","system_id":"levelo_inurba_marseille","lat":43.31206,"lon":5.39252,"is_reserved":false,"is_disabled":false,"rental_uris":{"android":"levelo://app?vid=b26a0dd7-cbdc-4ab7-8def-31c4b88b224a","ios":"levelo://app?vid=b26a0dd7-cbdc-4ab7-8def-31c4b88b224a"},"vehicle_type_id":"4","last_reported":1747536356,"current_range_meters":14800,"station_id":"","pricing_plan_id":"cebpf4jnsgd1na2vs0mg"},{"bike_id":"5911af4c-0fec-4cf2-a307-b3bae3f3f5c8","system_id":"levelo_inurba_marseille","lat":43.31329,"lon":5.39705,"is_reserved":false,"is_disabled":false,"rental_uris":{"android":"levelo://app?vid=5911af4c-0fec-4cf2-a307-b3bae3f3f5c8","ios":"levelo://app?vid=5911af4c-0fec-4cf2-a307-b3bae3f3f5c8"},"vehicle_type_id":"4","last_reported":1747536356,"current_range_meters":14800,"station_id":"ce4bgvp2rcd13ifvqcu0","pricing_plan_id":"cebpf4jnsgd1na2vs0mg"},{"bike_id":"2f0cadb4-d32c-481d-b010-d7df56ff1e9c","system_id":"levelo_inurba_marseille","lat":43.292538,"lon":5.409054,"is_reserved":false,"is_disabled":false,"rental_uris":{"android":"levelo://app?vid=2f0cadb4-d32c-481d-b010-d7df56ff1e9c","ios":"levelo://app?vid=2f0cadb4-d32c-481d-b010-d7df56ff1e9c"},"vehicle_type_id":"4","last_reported":1747536356,"current_range_meters":14800,"station_id":"ce4bh192rcd13ifvqdc0","pricing_plan_id":"cebpf4jnsgd1na2vs0mg"},{"bike_id":"19a61da9-a97e-4007-8732-605f996b7778","system_id":"levelo_inurba_marseille","lat":43.28412,"lon":5.37514,"is_reserved":false,"is_disabled":false,"rental_uris":{"android":"levelo://app?vid=19a61da9-a97e-4007-8732-605f996b7778","ios":"levelo://app?vid=19a61da9-a97e-4007-8732-605f996b7778"},"vehicle_type_id":"4","last_reported":1747536356,"current_range_meters":14800,"station_id":"ce4bh412rcd13ifvqds0","pricing_plan_id":"cebpf4jnsgd1na2vs0mg"},{"bike_id":"1cb8de45-6a2e-4eb3-9101-6ff953a05b07","system_id":"levelo_inurba_marseille","lat":43.284598,"lon":5.358873,"is_reserved":false,"is_disabled":false,"rental_uris":{"android":"levelo://app?vid=1cb8de45-6a2e-4eb3-9101-6ff953a05b07","ios":"levelo://app?vid=1cb8de45-6a2e-4eb3-9101-6ff953a05b07"},"vehicle_type_id":"4","last_reported":1747536356,"current_range_meters":14800,"station_id":"ce4bhah2rcd13ifvqei0","pricing_plan_id":"cebpf4jnsgd1na2vs0mg"},{"bike_id":"e601ce08-8e8b-4e19-aba6-1226c7cf3db9","system_id":"levelo_inurba_marseille","lat":43.284323,"lon":5.391932,"is_reserved":false,"is_disabled":false,"rental_uris":{"android":"levelo://app?vid=e601ce08-8e8b-4e19-aba6-1226c7cf3db9","ios":"levelo://app?vid=e601ce08-8e8b-4e19-aba6-1226c7cf3db9"},"vehicle_type_id":"4","last_reported":1747536356,"current_range_meters":14800,"station_id":"ce4bhoh2rcd13ifvqh5g","pricing_plan_id":"cebpf4jnsgd1na2vs0mg"},{"bike_id":"834030b7-ca92-479e-8f4c-9101b82edad3","system_id":"levelo_inurba_marseille","lat":43.295553,"lon":5.42293,"is_reserved":false,"is_disabled":false,"rental_uris":{"android":"levelo://app?vid=834030b7-ca92-479e-8f4c-9101b82edad3","ios":"levelo://app?vid=834030b7-ca92-479e-8f4c-9101b82edad3"},"vehicle_type_id":"4","last_reported":1747536356,"current_range_meters":14800,"station_id":"ce4bhph2rcd13ifvqhdg","pricing_plan_id":"cebpf4jnsgd1na2vs0mg"},{"bike_id":"8bed9aaa-52ac-4f5e-8bbb-515dc545319a","system_id":"levelo_inurba_marseille","lat":43.24655,"lon":5.3818,"is_reserved":false,"is_disabled":false,"rental_uris":{"android":"levelo://app?vid=8bed9aaa-52ac-4f5e-8bbb-515dc545319a","ios":"levelo://app?vid=8bed9aaa-52ac-4f5e-8bbb-515dc545319a"},"vehicle_type_id":"4","last_reported":1747536356,"current_range_meters":15200,"station_id":"ce4bhih2rcd13ifvqfr0","pricing_plan_id":"cebpf4jnsgd1na2vs0mg"},{"bike_id":"1df77482-56ed-43f0-a80c-7f28eed744f8","system_id":"levelo_inurba_marseille","lat":43.25127,"lon":5.40322,"is_reserved":false,"is_disabled":false,"rental_uris":{"android":"levelo://app?vid=1df77482-56ed-43f0-a80c-7f28eed744f8","ios":"levelo://app?vid=1df77482-56ed-43f0-a80c-7f28eed744f8"},"vehicle_type_id":"4","last_reported":1747536356,"current_range_meters":15200,"station_id":"ce4bhlh2rcd13ifvqgig","pricing_plan_id":"cebpf4jnsgd1na2vs0mg"},{"bike_id":"a5c84728-1f7c-41e1-bdb0-a2270890189e","system_id":"levelo_inurba_marseille","lat":43.23152,"lon":5.43721,"is_reserved":false,"is_disabled":false,"rental_uris":{"android":"levelo://app?vid=a5c84728-1f7c-41e1-bdb0-a2270890189e","ios":"levelo://app?vid=a5c84728-1f7c-41e1-bdb0-a2270890189e"},"vehicle_type_id":"4","last_reported":1747536356,"current_range_meters":15200,"station_id":"ce4bhmp2rcd13ifvqgog","pricing_plan_id":"cebpf4jnsgd1na2vs0mg"},{"bike_id":"2f22e502-93ed-458e-bf58-1819fda515f3","system_id":"levelo_inurba_marseille","lat":43.31125,"lon":5.37751,"is_reserved":false,"is_disabled":false,"rental_uris":{"android":"levelo://app?vid=2f22e502-93ed-458e-bf58-1819fda515f3","ios":"levelo://app?vid=2f22e502-93ed-458e-bf58-1819fda515f3"},"vehicle_type_id":"4","last_reported":1747536356,"current_range_meters":16000,"station_id":"ce4bgt92rcd13ifvqcg0","pricing_plan_id":"cebpf4jnsgd1na2vs0mg"},{"bike_id":"cbff0bd8-ab69-455f-978e-8e044433b1ea","system_id":"levelo_inurba_marseille","lat":43.303268,"lon":5.404378,"is_reserved":false,"is_disabled":false,"rental_uris":{"android":"levelo://app?vid=cbff0bd8-ab69-455f-978e-8e044433b1ea","ios":"levelo://app?vid=cbff0bd8-ab69-455f-978e-8e044433b1ea"},"vehicle_type_id":"4","last_reported":1747536356,"current_range_meters":16000,"station_id":"ce4bh012rcd13ifvqd10","pricing_plan_id":"cebpf4jnsgd1na2vs0mg"},{"bike_id":"c5ff94be-c2ea-413f-a053-ee20ee5d180d","system_id":"levelo_inurba_marseille","lat":43.311121,"lon":5.37768,"is_reserved":false,"is_disabled":false,"rental_uris":{"android":"levelo://app?vid=c5ff94be-c2ea-413f-a053-ee20ee5d180d","ios":"levelo://app?vid=c5ff94be-c2ea-413f-a053-ee20ee5d180d"},"vehicle_type_id":"4","last_reported":1747536356,"current_range_meters":16400,"station_id":"ce4bgt92rcd13ifvqcg0","pricing_plan_id":"cebpf4jnsgd1na2vs0mg"},{"bike_id":"74fbea3f-8a18-4fc8-8f56-6b744c75f57a","system_id":"levelo_inurba_marseille","lat":43.298785,"lon":5.39732,"is_reserved":false,"is_disabled":false,"rental_uris":{"android":"levelo://app?vid=74fbea3f-8a18-4fc8-8f56-6b744c75f57a","ios":"levelo://app?vid=74fbea3f-8a18-4fc8-8f56-6b744c75f57a"},"vehicle_type_id":"4","last_reported":1747536356,"current_range_meters":16400,"station_id":"ce4bh0h2rcd13ifvqd50","pricing_plan_id":"cebpf4jnsgd1na2vs0mg"},{"bike_id":"942d70f0-6de3-463e-b885-a14fc7604da5","system_id":"levelo_inurba_marseille","lat":43.246673,"lon":5.381641,"is_reserved":false,"is_disabled":false,"rental_uris":{"android":"levelo://app?vid=942d70f0-6de3-463e-b885-a14fc7604da5","ios":"levelo://app?vid=942d70f0-6de3-463e-b885-a14fc7604da5"},"vehicle_type_id":"4","last_reported":1747536356,"current_range_meters":16400,"station_id":"ce4bhih2rcd13ifvqfr0","pricing_plan_id":"cebpf4jnsgd1na2vs0mg"},{"bike_id":"58887f66-7108-4294-a00e-551c17af804a","system_id":"levelo_inurba_marseille","lat":43.262269,"lon":5.404626,"is_reserved":false,"is_disabled":false,"rental_uris":{"android":"levelo://app?vid=58887f66-7108-4294-a00e-551c17af804a","ios":"levelo://app?vid=58887f66-7108-4294-a00e-551c17af804a"},"vehicle_type_id":"4","last_reported":1747536356,"current_range_meters":16400,"station_id":"ce4bhmh2rcd13ifvqgmg","pricing_plan_id":"cebpf4jnsgd1na2vs0mg"},{"bike_id":"7a31f435-63bc-4ff6-838b-d79912959956","system_id":"levelo_inurba_marseille","lat":43.26223,"lon":5.40483,"is_reserved":false,"is_disabled":false,"rental_uris":{"android":"levelo://app?vid=7a31f435-63bc-4ff6-838b-d79912959956","ios":"levelo://app?vid=7a31f435-63bc-4ff6-838b-d79912959956"},"vehicle_type_id":"4","last_reported":1747536356,"current_range_meters":16400,"station_id":"ce4bhmh2rcd13ifvqgmg","pricing_plan_id":"cebpf4jnsgd1na2vs0mg"},{"bike_id":"0a672e4f-4d62-47b0-88d5-45b4c1c6a08c","system_id":"levelo_inurba_marseille","lat":43.29549,"lon":5.42273,"is_reserved":false,"is_disabled":false,"rental_uris":{"android":"levelo://app?vid=0a672e4f-4d62-47b0-88d5-45b4c1c6a08c","ios":"levelo://app?vid=0a672e4f-4d62-47b0-88d5-45b4c1c6a08c"},"vehicle_type_id":"4","last_reported":1747536356,"current_range_meters":16400,"station_id":"ce4bhph2rcd13ifvqhdg","pricing_plan_id":"cebpf4jnsgd1na2vs0mg"},{"bike_id":"b947e013-2e44-4d3f-95bd-7fde4f81ce7e","system_id":"levelo_inurba_marseille","lat":43.32335,"lon":5.406222,"is_reserved":false,"is_disabled":false,"rental_uris":{"android":"levelo://app?vid=b947e013-2e44-4d3f-95bd-7fde4f81ce7e","ios":"levelo://app?vid=b947e013-2e44-4d3f-95bd-7fde4f81ce7e"},"vehicle_type_id":"4","last_reported":1747536356,"current_range_meters":16400,"station_id":"ce4bhq92rcd13ifvqhjg","pricing_plan_id":"cebpf4jnsgd1na2vs0mg"},{"bike_id":"bf2b2bfb-9733-4bda-908d-03391ae976cc","system_id":"levelo_inurba_marseille","lat":43.311862,"lon":5.416202,"is_reserved":false,"is_disabled":false,"rental_uris":{"android":"levelo://app?vid=bf2b2bfb-9733-4bda-908d-03391ae976cc","ios":"levelo://app?vid=bf2b2bfb-9733-4bda-908d-03391ae976cc"},"vehicle_type_id":"4","last_reported":1747536356,"current_range_meters":16800,"station_id":"","pricing_plan_id":"cebpf4jnsgd1na2vs0mg"},{"bike_id":"5dee036b-29cd-483a-bada-e312729a7e07","system_id":"levelo_inurba_marseille","lat":43.308033,"lon":5.3815,"is_reserved":false,"is_disabled":false,"rental_uris":{"android":"levelo://app?vid=5dee036b-29cd-483a-bada-e312729a7e07","ios":"levelo://app?vid=5dee036b-29cd-483a-bada-e312729a7e07"},"vehicle_type_id":"4","last_reported":1747536356,"current_range_meters":16800,"station_id":"ce4bgt12rcd13ifvqce0","pricing_plan_id":"cebpf4jnsgd1na2vs0mg"},{"bike_id":"b41619e3-6dbe-49d7-baca-02ff8f7f1d54","system_id":"levelo_inurba_marseille","lat":43.309436,"lon":5.401737,"is_reserved":false,"is_disabled":false,"rental_uris":{"android":"levelo://app?vid=b41619e3-6dbe-49d7-baca-02ff8f7f1d54","ios":"levelo://app?vid=b41619e3-6dbe-49d7-baca-02ff8f7f1d54"},"vehicle_type_id":"4","last_reported":1747536356,"current_range_meters":16800,"station_id":"ce4bgvp2rcd13ifvqct0","pricing_plan_id":"cebpf4jnsgd1na2vs0mg"},{"bike_id":"dcfc1075-09a3-4249-a3dc-22aa08ec40e5","system_id":"levelo_inurba_marseille","lat":43.25724,"lon":5.41108,"is_reserved":false,"is_disabled":false,"rental_uris":{"android":"levelo://app?vid=dcfc1075-09a3-4249-a3dc-22aa08ec40e5","ios":"levelo://app?vid=dcfc1075-09a3-4249-a3dc-22aa08ec40e5"},"vehicle_type_id":"4","last_reported":1747536356,"current_range_meters":16800,"station_id":"ce4bhkp2rcd13ifvqgd0","pricing_plan_id":"cebpf4jnsgd1na2vs0mg"},{"bike_id":"c38c0434-7c0b-4918-a236-1841e549db1d","system_id":"levelo_inurba_marseille","lat":43.251023,"lon":5.403176,"is_reserved":false,"is_disabled":false,"rental_uris":{"android":"levelo://app?vid=c38c0434-7c0b-4918-a236-1841e549db1d","ios":"levelo://app?vid=c38c0434-7c0b-4918-a236-1841e549db1d"},"vehicle_type_id":"4","last_reported":1747536356,"current_range_meters":16800,"station_id":"ce4bhlh2rcd13ifvqgig","pricing_plan_id":"cebpf4jnsgd1na2vs0mg"},{"bike_id":"ac25e498-bb19-40a6-9b78-628d48d84d83","system_id":"levelo_inurba_marseille","lat":43.2513,"lon":5.40333,"is_reserved":false,"is_disabled":false,"rental_uris":{"android":"levelo://app?vid=ac25e498-bb19-40a6-9b78-628d48d84d83","ios":"levelo://app?vid=ac25e498-bb19-40a6-9b78-628d48d84d83"},"vehicle_type_id":"4","last_reported":1747536356,"current_range_meters":16800,"station_id":"ce4bhlh2rcd13ifvqgig","pricing_plan_id":"cebpf4jnsgd1na2vs0mg"},{"bike_id":"ed34fad4-c48e-4c1a-b9b1-8eb1cd77d573","system_id":"levelo_inurba_marseille","lat":43.30949,"lon":5.38636,"is_reserved":false,"is_disabled":false,"rental_uris":{"android":"levelo://app?vid=ed34fad4-c48e-4c1a-b9b1-8eb1cd77d573","ios":"levelo://app?vid=ed34fad4-c48e-4c1a-b9b1-8eb1cd77d573"},"vehicle_type_id":"4","last_reported":1747536356,"current_range_meters":16800,"station_id":"ce4bhqh2rcd13ifvqhmg","pricing_plan_id":"cebpf4jnsgd1na2vs0mg"},{"bike_id":"c591037e-9bdc-4128-b08a-269580cd419f","system_id":"levelo_inurba_marseille","lat":43.319787,"lon":5.381315,"is_reserved":false,"is_disabled":false,"rental_uris":{"android":"levelo://app?vid=c591037e-9bdc-4128-b08a-269580cd419f","ios":"levelo://app?vid=c591037e-9bdc-4128-b08a-269580cd419f"},"vehicle_type_id":"4","last_reported":1747536356,"current_range_meters":16800,"station_id":"ce4bhr12rcd13ifvqhpg","pricing_plan_id":"cebpf4jnsgd1na2vs0mg"},{"bike_id":"1b586395-d7b7-480d-8921-ab9290352404","system_id":"levelo_inurba_marseille","lat":43.32365,"lon":5.36765,"is_reserved":false,"is_disabled":false,"rental_uris":{"android":"levelo://app?vid=1b586395-d7b7-480d-8921-ab9290352404","ios":"levelo://app?vid=1b586395-d7b7-480d-8921-ab9290352404"},"vehicle_type_id":"4","last_reported":1747536356,"current_range_meters":16800,"station_id":"ce4bhsh2rcd13ifvqi2g","pricing_plan_id":"cebpf4jnsgd1na2vs0mg"},{"bike_id":"19456222-7d38-48cf-a950-06daadd07927","system_id":"levelo_inurba_marseille","lat":43.25022,"lon":5.37539,"is_reserved":false,"is_disabled":false,"rental_uris":{"android":"levelo://app?vid=19456222-7d38-48cf-a950-06daadd07927","ios":"levelo://app?vid=19456222-7d38-48cf-a950-06daadd07927"},"vehicle_type_id":"4","last_reported":1747536356,"current_range_meters":17200,"station_id":"","pricing_plan_id":"cebpf4jnsgd1na2vs0mg"},{"bike_id":"ee75602a-f143-4ba1-b3de-330c8991247c","system_id":"levelo_inurba_marseille","lat":43.31488,"lon":5.373043,"is_reserved":false,"is_disabled":false,"rental_uris":{"android":"levelo://app?vid=ee75602a-f143-4ba1-b3de-330c8991247c","ios":"levelo://app?vid=ee75602a-f143-4ba1-b3de-330c8991247c"},"vehicle_type_id":"4","last_reported":1747536356,"current_range_meters":17200,"station_id":"ce4bgt12rcd13ifvqcd0","pricing_plan_id":"cebpf4jnsgd1na2vs0mg"},{"bike_id":"8d2d9f61-e608-4b0f-bb8a-b346f6f803f9","system_id":"levelo_inurba_marseille","lat":43.30135,"lon":5.39805,"is_reserved":false,"is_disabled":false,"rental_uris":{"android":"levelo://app?vid=8d2d9f61-e608-4b0f-bb8a-b346f6f803f9","ios":"levelo://app?vid=8d2d9f61-e608-4b0f-bb8a-b346f6f803f9"},"vehicle_type_id":"4","last_reported":1747536356,"current_range_meters":17200,"station_id":"ce4bh0h2rcd13ifvqd40","pricing_plan_id":"cebpf4jnsgd1na2vs0mg"},{"bike_id":"5ddd41df-5811-4b09-99f7-599fa0ee82b0","system_id":"levelo_inurba_marseille","lat":43.245419,"lon":5.395291,"is_reserved":false,"is_disabled":false,"rental_uris":{"android":"levelo://app?vid=5ddd41df-5811-4b09-99f7-599fa0ee82b0","ios":"levelo://app?vid=5ddd41df-5811-4b09-99f7-599fa0ee82b0"},"vehicle_type_id":"4","last_reported":1747536356,"current_range_meters":17200,"station_id":"ce4bhlp2rcd13ifvqgjg","pricing_plan_id":"cebpf4jnsgd1na2vs0mg"},{"bike_id":"db647a88-7197-40ac-aeb0-6195ce252bd5","system_id":"levelo_inurba_marseille","lat":43.31081,"lon":5.424329,"is_reserved":false,"is_disabled":false,"rental_uris":{"android":"levelo://app?vid=db647a88-7197-40ac-aeb0-6195ce252bd5","ios":"levelo://app?vid=db647a88-7197-40ac-aeb0-6195ce252bd5"},"vehicle_type_id":"4","last_reported":1747536356,"current_range_meters":17200,"station_id":"ce4bhp92rcd13ifvqhag","pricing_plan_id":"cebpf4jnsgd1na2vs0mg"},{"bike_id":"86603db7-b462-4e72-8622-a2dee8bb2920","system_id":"levelo_inurba_marseille","lat":43.337444,"lon":5.374475,"is_reserved":false,"is_disabled":false,"rental_uris":{"android":"levelo://app?vid=86603db7-b462-4e72-8622-a2dee8bb2920","ios":"levelo://app?vid=86603db7-b462-4e72-8622-a2dee8bb2920"},"vehicle_type_id":"4","last_reported":1747536356,"current_range_meters":17600,"station_id":"","pricing_plan_id":"cebpf4jnsgd1na2vs0mg"},{"bike_id":"cf99a182-05bd-4cbc-b6a6-6a33541bdb08","system_id":"levelo_inurba_marseille","lat":43.25115,"lon":5.40339,"is_reserved":false,"is_disabled":false,"rental_uris":{"android":"levelo://app?vid=cf99a182-05bd-4cbc-b6a6-6a33541bdb08","ios":"levelo://app?vid=cf99a182-05bd-4cbc-b6a6-6a33541bdb08"},"vehicle_type_id":"4","last_reported":1747536356,"current_range_meters":17600,"station_id":"ce4bhlh2rcd13ifvqgig","pricing_plan_id":"cebpf4jnsgd1na2vs0mg"},{"bike_id":"1e2f0c80-2ce7-417a-ae75-e6a168f4d00d","system_id":"levelo_inurba_marseille","lat":43.286116,"lon":5.386888,"is_reserved":false,"is_disabled":false,"rental_uris":{"android":"levelo://app?vid=1e2f0c80-2ce7-417a-ae75-e6a168f4d00d","ios":"levelo://app?vid=1e2f0c80-2ce7-417a-ae75-e6a168f4d00d"},"vehicle_type_id":"4","last_reported":1747536356,"current_range_meters":18000,"station_id":"","pricing_plan_id":"cebpf4jnsgd1na2vs0mg"},{"bike_id":"26ae3f71-446b-4d48-9715-d0cb78472fbf","system_id":"levelo_inurba_marseille","lat":43.31167,"lon":5.37006,"is_reserved":false,"is_disabled":false,"rental_uris":{"android":"levelo://app?vid=26ae3f71-446b-4d48-9715-d0cb78472fbf","ios":"levelo://app?vid=26ae3f71-446b-4d48-9715-d0cb78472fbf"},"vehicle_type_id":"4","last_reported":1747536356,"current_range_meters":18000,"station_id":"","pricing_plan_id":"cebpf4jnsgd1na2vs0mg"},{"bike_id":"cec3f715-614f-4bf0-96bd-7080ba74ba99","system_id":"levelo_inurba_marseille","lat":43.31123,"lon":5.37762,"is_reserved":false,"is_disabled":false,"rental_uris":{"android":"levelo://app?vid=cec3f715-614f-4bf0-96bd-7080ba74ba99","ios":"levelo://app?vid=cec3f715-614f-4bf0-96bd-7080ba74ba99"},"vehicle_type_id":"4","last_reported":1747536356,"current_range_meters":18000,"station_id":"ce4bgt92rcd13ifvqcg0","pricing_plan_id":"cebpf4jnsgd1na2vs0mg"},{"bike_id":"a8085997-0af4-4667-a061-b271c4b9805c","system_id":"levelo_inurba_marseille","lat":43.29263,"lon":5.40892,"is_reserved":false,"is_disabled":false,"rental_uris":{"android":"levelo://app?vid=a8085997-0af4-4667-a061-b271c4b9805c","ios":"levelo://app?vid=a8085997-0af4-4667-a061-b271c4b9805c"},"vehicle_type_id":"4","last_reported":1747536356,"current_range_meters":18000,"station_id":"ce4bh192rcd13ifvqdc0","pricing_plan_id":"cebpf4jnsgd1na2vs0mg"},{"bike_id":"10c61589-e6eb-469d-8214-e4ff226596c8","system_id":"levelo_inurba_marseille","lat":43.287021,"lon":5.373789,"is_reserved":false,"is_disabled":false,"rental_uris":{"android":"levelo://app?vid=10c61589-e6eb-469d-8214-e4ff226596c8","ios":"levelo://app?vid=10c61589-e6eb-469d-8214-e4ff226596c8"},"vehicle_type_id":"4","last_reported":1747536356,"current_range_meters":18000,"station_id":"ce4bh3p2rcd13ifvqdq0","pricing_plan_id":"cebpf4jnsgd1na2vs0mg"},{"bike_id":"aec52bc3-9728-40f0-98ec-43f09b1f4cc9","system_id":"levelo_inurba_marseille","lat":43.286656,"lon":5.363458,"is_reserved":false,"is_disabled":false,"rental_uris":{"android":"levelo://app?vid=aec52bc3-9728-40f0-98ec-43f09b1f4cc9","ios":"levelo://app?vid=aec52bc3-9728-40f0-98ec-43f09b1f4cc9"},"vehicle_type_id":"4","last_reported":1747536356,"current_range_meters":18000,"station_id":"ce4bhah2rcd13ifvqej0","pricing_plan_id":"cebpf4jnsgd1na2vs0mg"},{"bike_id":"9b675469-68e4-4d63-a0fe-3351b274fa61","system_id":"levelo_inurba_marseille","lat":43.265639,"lon":5.390035,"is_reserved":false,"is_disabled":false,"rental_uris":{"android":"levelo://app?vid=9b675469-68e4-4d63-a0fe-3351b274fa61","ios":"levelo://app?vid=9b675469-68e4-4d63-a0fe-3351b274fa61"},"vehicle_type_id":"4","last_reported":1747536356,"current_range_meters":18000,"station_id":"ce4bhe12rcd13ifvqf30","pricing_plan_id":"cebpf4jnsgd1na2vs0mg"},{"bike_id":"bf5ae813-579c-457c-8bf8-b874e79e5881","system_id":"levelo_inurba_marseille","lat":43.27047,"lon":5.402655,"is_reserved":false,"is_disabled":false,"rental_uris":{"android":"levelo://app?vid=bf5ae813-579c-457c-8bf8-b874e79e5881","ios":"levelo://app?vid=bf5ae813-579c-457c-8bf8-b874e79e5881"},"vehicle_type_id":"4","last_reported":1747536356,"current_range_meters":18000,"station_id":"ce4bhk92rcd13ifvqgc0","pricing_plan_id":"cebpf4jnsgd1na2vs0mg"},{"bike_id":"e380e188-a303-474b-b80b-a2c302d00fcc","system_id":"levelo_inurba_marseille","lat":43.29796,"lon":5.39358,"is_reserved":false,"is_disabled":false,"rental_uris":{"android":"levelo://app?vid=e380e188-a303-474b-b80b-a2c302d00fcc","ios":"levelo://app?vid=e380e188-a303-474b-b80b-a2c302d00fcc"},"vehicle_type_id":"4","last_reported":1747536356,"current_range_meters":18800,"station_id":"chh1huq6cuj3fo74tm60","pricing_plan_id":"cebpf4jnsgd1na2vs0mg"},{"bike_id":"385479f3-b148-433e-9c0d-0ee45fb8b2fe","system_id":"levelo_inurba_marseille","lat":43.29922,"lon":5.37469,"is_reserved":false,"is_disabled":false,"rental_uris":{"android":"levelo://app?vid=385479f3-b148-433e-9c0d-0ee45fb8b2fe","ios":"levelo://app?vid=385479f3-b148-433e-9c0d-0ee45fb8b2fe"},"vehicle_type_id":"4","last_reported":1747536356,"current_range_meters":19200,"station_id":"ce4bgjh2rcd13ifvqbg0","pricing_plan_id":"cebpf4jnsgd1na2vs0mg"},{"bike_id":"e02af135-527e-4f04-b463-540aa971dcbc","system_id":"levelo_inurba_marseille","lat":43.3093,"lon":5.40148,"is_reserved":false,"is_disabled":false,"rental_uris":{"android":"levelo://app?vid=e02af135-527e-4f04-b463-540aa971dcbc","ios":"levelo://app?vid=e02af135-527e-4f04-b463-540aa971dcbc"},"vehicle_type_id":"4","last_reported":1747536356,"current_range_meters":19200,"station_id":"ce4bgvp2rcd13ifvqct0","pricing_plan_id":"cebpf4jnsgd1na2vs0mg"},{"bike_id":"6450735b-3d48-4b6f-93ec-dbcda2681c1c","system_id":"levelo_inurba_marseille","lat":43.288474,"lon":5.393084,"is_reserved":false,"is_disabled":false,"rental_uris":{"android":"levelo://app?vid=6450735b-3d48-4b6f-93ec-dbcda2681c1c","ios":"levelo://app?vid=6450735b-3d48-4b6f-93ec-dbcda2681c1c"},"vehicle_type_id":"4","last_reported":1747536356,"current_range_meters":19200,"station_id":"ce4bh2p2rcd13ifvqdi0","pricing_plan_id":"cebpf4jnsgd1na2vs0mg"},{"bike_id":"7b5e997d-e5cd-43d5-81a9-e37676225382","system_id":"levelo_inurba_marseille","lat":43.32005,"lon":5.3816,"is_reserved":false,"is_disabled":false,"rental_uris":{"android":"levelo://app?vid=7b5e997d-e5cd-43d5-81a9-e37676225382","ios":"levelo://app?vid=7b5e997d-e5cd-43d5-81a9-e37676225382"},"vehicle_type_id":"4","last_reported":1747536356,"current_range_meters":19200,"station_id":"ce4bhr12rcd13ifvqhpg","pricing_plan_id":"cebpf4jnsgd1na2vs0mg"},{"bike_id":"b3594d0a-6267-4611-9097-5bb94a2ba24f","system_id":"levelo_inurba_marseille","lat":43.311411,"lon":5.370005,"is_reserved":false,"is_disabled":false,"rental_uris":{"android":"levelo://app?vid=b3594d0a-6267-4611-9097-5bb94a2ba24f","ios":"levelo://app?vid=b3594d0a-6267-4611-9097-5bb94a2ba24f"},"vehicle_type_id":"4","last_reported":1747536356,"current_range_meters":19600,"station_id":"","pricing_plan_id":"cebpf4jnsgd1na2vs0mg"},{"bike_id":"69557a2b-8909-4a37-9c6b-bf5bedfdcfd9","system_id":"levelo_inurba_marseille","lat":43.295174,"lon":5.381819,"is_reserved":false,"is_disabled":false,"rental_uris":{"android":"levelo://app?vid=69557a2b-8909-4a37-9c6b-bf5bedfdcfd9","ios":"levelo://app?vid=69557a2b-8909-4a37-9c6b-bf5bedfdcfd9"},"vehicle_type_id":"4","last_reported":1747536356,"current_range_meters":19600,"station_id":"","pricing_plan_id":"cebpf4jnsgd1na2vs0mg"},{"bike_id":"11595ed8-8a87-4135-bacb-4f28f6f3f7c3","system_id":"levelo_inurba_marseille","lat":43.284596,"lon":5.358919,"is_reserved":false,"is_disabled":false,"rental_uris":{"android":"levelo://app?vid=11595ed8-8a87-4135-bacb-4f28f6f3f7c3","ios":"levelo://app?vid=11595ed8-8a87-4135-bacb-4f28f6f3f7c3"},"vehicle_type_id":"4","last_reported":1747536356,"current_range_meters":19600,"station_id":"ce4bhah2rcd13ifvqei0","pricing_plan_id":"cebpf4jnsgd1na2vs0mg"},{"bike_id":"188c0480-8788-40d0-af36-4aa2d4838ea7","system_id":"levelo_inurba_marseille","lat":43.265657,"lon":5.39008,"is_reserved":false,"is_disabled":false,"rental_uris":{"android":"levelo://app?vid=188c0480-8788-40d0-af36-4aa2d4838ea7","ios":"levelo://app?vid=188c0480-8788-40d0-af36-4aa2d4838ea7"},"vehicle_type_id":"4","last_reported":1747536356,"current_range_meters":19600,"station_id":"ce4bhe12rcd13ifvqf30","pricing_plan_id":"cebpf4jnsgd1na2vs0mg"},{"bike_id":"3563b3b3-c604-49af-afb2-fe6650c85f37","system_id":"levelo_inurba_marseille","lat":43.24651,"lon":5.38889,"is_reserved":false,"is_disabled":false,"rental_uris":{"android":"levelo://app?vid=3563b3b3-c604-49af-afb2-fe6650c85f37","ios":"levelo://app?vid=3563b3b3-c604-49af-afb2-fe6650c85f37"},"vehicle_type_id":"4","last_reported":1747536356,"current_range_meters":19600,"station_id":"ce4bhg12rcd13ifvqf60","pricing_plan_id":"cebpf4jnsgd1na2vs0mg"},{"bike_id":"566adc86-6127-44ab-8e50-1918798c55f9","system_id":"levelo_inurba_marseille","lat":43.24689,"lon":5.38144,"is_reserved":false,"is_disabled":false,"rental_uris":{"android":"levelo://app?vid=566adc86-6127-44ab-8e50-1918798c55f9","ios":"levelo://app?vid=566adc86-6127-44ab-8e50-1918798c55f9"},"vehicle_type_id":"4","last_reported":1747536356,"current_range_meters":19600,"station_id":"ce4bhih2rcd13ifvqfr0","pricing_plan_id":"cebpf4jnsgd1na2vs0mg"},{"bike_id":"62206078-c5ad-4e52-ba29-df17c645da6e","system_id":"levelo_inurba_marseille","lat":43.30211,"lon":5.39467,"is_reserved":false,"is_disabled":false,"rental_uris":{"android":"levelo://app?vid=62206078-c5ad-4e52-ba29-df17c645da6e","ios":"levelo://app?vid=62206078-c5ad-4e52-ba29-df17c645da6e"},"vehicle_type_id":"4","last_reported":1747536356,"current_range_meters":20000,"station_id":"ce4bh0p2rcd13ifvqd70","pricing_plan_id":"cebpf4jnsgd1na2vs0mg"},{"bike_id":"0df27879-b9ab-4c1d-86ff-031abc232570","system_id":"levelo_inurba_marseille","lat":43.28704,"lon":5.37393,"is_reserved":false,"is_disabled":false,"rental_uris":{"android":"levelo://app?vid=0df27879-b9ab-4c1d-86ff-031abc232570","ios":"levelo://app?vid=0df27879-b9ab-4c1d-86ff-031abc232570"},"vehicle_type_id":"4","last_reported":1747536356,"current_range_meters":20000,"station_id":"ce4bh3p2rcd13ifvqdq0","pricing_plan_id":"cebpf4jnsgd1na2vs0mg"},{"bike_id":"5d140f7b-8225-4b01-9103-f17b88333a52","system_id":"levelo_inurba_marseille","lat":43.28477,"lon":5.38537,"is_reserved":false,"is_disabled":false,"rental_uris":{"android":"levelo://app?vid=5d140f7b-8225-4b01-9103-f17b88333a52","ios":"levelo://app?vid=5d140f7b-8225-4b01-9103-f17b88333a52"},"vehicle_type_id":"4","last_reported":1747536356,"current_range_meters":20000,"station_id":"ce4bh8p2rcd13ifvqeb0","pricing_plan_id":"cebpf4jnsgd1na2vs0mg"},{"bike_id":"3041cd5e-fc09-4e0a-b51a-14bc0455bed0","system_id":"levelo_inurba_marseille","lat":43.285668,"lon":5.395075,"is_reserved":false,"is_disabled":false,"rental_uris":{"android":"levelo://app?vid=3041cd5e-fc09-4e0a-b51a-14bc0455bed0","ios":"levelo://app?vid=3041cd5e-fc09-4e0a-b51a-14bc0455bed0"},"vehicle_type_id":"4","last_reported":1747536356,"current_range_meters":20400,"station_id":"ce4bh292rcd13ifvqdg0","pricing_plan_id":"cebpf4jnsgd1na2vs0mg"},{"bike_id":"6f306859-adae-4a26-8471-8b603eef8da5","system_id":"levelo_inurba_marseille","lat":43.29036,"lon":5.35923,"is_reserved":false,"is_disabled":false,"rental_uris":{"android":"levelo://app?vid=6f306859-adae-4a26-8471-8b603eef8da5","ios":"levelo://app?vid=6f306859-adae-4a26-8471-8b603eef8da5"},"vehicle_type_id":"4","last_reported":1747536356,"current_range_meters":20400,"station_id":"ce4bha92rcd13ifvqeg0","pricing_plan_id":"cebpf4jnsgd1na2vs0mg"},{"bike_id":"ebf9c3ce-9479-4c19-8a75-de779fc4a8aa","system_id":"levelo_inurba_marseille","lat":43.23964,"lon":5.36639,"is_reserved":false,"is_disabled":false,"rental_uris":{"android":"levelo://app?vid=ebf9c3ce-9479-4c19-8a75-de779fc4a8aa","ios":"levelo://app?vid=ebf9c3ce-9479-4c19-8a75-de779fc4a8aa"},"vehicle_type_id":"4","last_reported":1747536356,"current_range_meters":20400,"station_id":"ce4bhi12rcd13ifvqfp0","pricing_plan_id":"cebpf4jnsgd1na2vs0mg"},{"bike_id":"dde9788a-3544-45f9-b257-5910785620bb","system_id":"levelo_inurba_marseille","lat":43.29573,"lon":5.37523,"is_reserved":false,"is_disabled":false,"rental_uris":{"android":"levelo://app?vid=dde9788a-3544-45f9-b257-5910785620bb","ios":"levelo://app?vid=dde9788a-3544-45f9-b257-5910785620bb"},"vehicle_type_id":"4","last_reported":1747536356,"current_range_meters":20800,"station_id":"ce4bgh92rcd13ifvqb50","pricing_plan_id":"cebpf4jnsgd1na2vs0mg"},{"bike_id":"7c64d0bf-e0eb-4c30-8e02-571c500b473c","system_id":"levelo_inurba_marseille","lat":43.301316,"lon":5.398616,"is_reserved":false,"is_disabled":false,"rental_uris":{"android":"levelo://app?vid=7c64d0bf-e0eb-4c30-8e02-571c500b473c","ios":"levelo://app?vid=7c64d0bf-e0eb-4c30-8e02-571c500b473c"},"vehicle_type_id":"4","last_reported":1747536356,"current_range_meters":20800,"station_id":"ce4bh0h2rcd13ifvqd40","pricing_plan_id":"cebpf4jnsgd1na2vs0mg"},{"bike_id":"2d8e7071-6ffa-4dc6-8402-96d258f1bb66","system_id":"levelo_inurba_marseille","lat":43.257082,"lon":5.411164,"is_reserved":false,"is_disabled":false,"rental_uris":{"android":"levelo://app?vid=2d8e7071-6ffa-4dc6-8402-96d258f1bb66","ios":"levelo://app?vid=2d8e7071-6ffa-4dc6-8402-96d258f1bb66"},"vehicle_type_id":"4","last_reported":1747536356,"current_range_meters":20800,"station_id":"ce4bhkp2rcd13ifvqgd0","pricing_plan_id":"cebpf4jnsgd1na2vs0mg"},{"bike_id":"705d059e-e522-46d0-931e-4864d8928f53","system_id":"levelo_inurba_marseille","lat":43.27185,"lon":5.41017,"is_reserved":false,"is_disabled":false,"rental_uris":{"android":"levelo://app?vid=705d059e-e522-46d0-931e-4864d8928f53","ios":"levelo://app?vid=705d059e-e522-46d0-931e-4864d8928f53"},"vehicle_type_id":"4","last_reported":1747536356,"current_range_meters":20800,"station_id":"ce4bhl12rcd13ifvqgf0","pricing_plan_id":"cebpf4jnsgd1na2vs0mg"},{"bike_id":"d40067b5-13cd-4bf1-a4e8-8af31baa5cea","system_id":"levelo_inurba_marseille","lat":43.281967,"lon":5.390407,"is_reserved":false,"is_disabled":false,"rental_uris":{"android":"levelo://app?vid=d40067b5-13cd-4bf1-a4e8-8af31baa5cea","ios":"levelo://app?vid=d40067b5-13cd-4bf1-a4e8-8af31baa5cea"},"vehicle_type_id":"4","last_reported":1747536356,"current_range_meters":21600,"station_id":"","pricing_plan_id":"cebpf4jnsgd1na2vs0mg"},{"bike_id":"f5add0ca-3e2f-4c5f-9917-84435c06a472","system_id":"levelo_inurba_marseille","lat":43.30467,"lon":5.38873,"is_reserved":false,"is_disabled":false,"rental_uris":{"android":"levelo://app?vid=f5add0ca-3e2f-4c5f-9917-84435c06a472","ios":"levelo://app?vid=f5add0ca-3e2f-4c5f-9917-84435c06a472"},"vehicle_type_id":"4","last_reported":1747536356,"current_range_meters":21600,"station_id":"ce4bgk12rcd13ifvqbi0","pricing_plan_id":"cebpf4jnsgd1na2vs0mg"},{"bike_id":"a52431d0-61fa-4bec-98db-a950a2301f49","system_id":"levelo_inurba_marseille","lat":43.30343,"lon":5.4041,"is_reserved":false,"is_disabled":false,"rental_uris":{"android":"levelo://app?vid=a52431d0-61fa-4bec-98db-a950a2301f49","ios":"levelo://app?vid=a52431d0-61fa-4bec-98db-a950a2301f49"},"vehicle_type_id":"4","last_reported":1747536356,"current_range_meters":21600,"station_id":"ce4bh012rcd13ifvqd10","pricing_plan_id":"cebpf4jnsgd1na2vs0mg"},{"bike_id":"f9321d35-bb41-4a9b-8646-b69084b6891e","system_id":"levelo_inurba_marseille","lat":43.296295,"lon":5.406095,"is_reserved":false,"is_disabled":false,"rental_uris":{"android":"levelo://app?vid=f9321d35-bb41-4a9b-8646-b69084b6891e","ios":"levelo://app?vid=f9321d35-bb41-4a9b-8646-b69084b6891e"},"vehicle_type_id":"4","last_reported":1747536356,"current_range_meters":21600,"station_id":"ce4bh0h2rcd13ifvqd60","pricing_plan_id":"cebpf4jnsgd1na2vs0mg"},{"bike_id":"1a2305d1-8be9-429f-ad5f-2c1b076bbdfc","system_id":"levelo_inurba_marseille","lat":43.284577,"lon":5.358783,"is_reserved":false,"is_disabled":false,"rental_uris":{"android":"levelo://app?vid=1a2305d1-8be9-429f-ad5f-2c1b076bbdfc","ios":"levelo://app?vid=1a2305d1-8be9-429f-ad5f-2c1b076bbdfc"},"vehicle_type_id":"4","last_reported":1747536356,"current_range_meters":21600,"station_id":"ce4bhah2rcd13ifvqei0","pricing_plan_id":"cebpf4jnsgd1na2vs0mg"},{"bike_id":"67f72f62-eb9d-4994-bbcf-c10b28dd838c","system_id":"levelo_inurba_marseille","lat":43.29306,"lon":5.3716,"is_reserved":false,"is_disabled":false,"rental_uris":{"android":"levelo://app?vid=67f72f62-eb9d-4994-bbcf-c10b28dd838c","ios":"levelo://app?vid=67f72f62-eb9d-4994-bbcf-c10b28dd838c"},"vehicle_type_id":"4","last_reported":1747536356,"current_range_meters":22000,"station_id":"ce4bgh92rcd13ifvqb40","pricing_plan_id":"cebpf4jnsgd1na2vs0mg"},{"bike_id":"56e99e5f-6490-4c91-ac79-b4b1cabaa29f","system_id":"levelo_inurba_marseille","lat":43.302593,"lon":5.400745,"is_reserved":false,"is_disabled":false,"rental_uris":{"android":"levelo://app?vid=56e99e5f-6490-4c91-ac79-b4b1cabaa29f","ios":"levelo://app?vid=56e99e5f-6490-4c91-ac79-b4b1cabaa29f"},"vehicle_type_id":"4","last_reported":1747536356,"current_range_meters":22000,"station_id":"ce4bgvh2rcd13ifvqcs0","pricing_plan_id":"cebpf4jnsgd1na2vs0mg"},{"bike_id":"f9226e90-3468-4f20-8b28-b98e8a356545","system_id":"levelo_inurba_marseille","lat":43.303259,"lon":5.404369,"is_reserved":false,"is_disabled":false,"rental_uris":{"android":"levelo://app?vid=f9226e90-3468-4f20-8b28-b98e8a356545","ios":"levelo://app?vid=f9226e90-3468-4f20-8b28-b98e8a356545"},"vehicle_type_id":"4","last_reported":1747536356,"current_range_meters":22000,"station_id":"ce4bh012rcd13ifvqd10","pricing_plan_id":"cebpf4jnsgd1na2vs0mg"},{"bike_id":"b4d6223b-c6eb-4e73-a4b5-918b9ad6e2d3","system_id":"levelo_inurba_marseille","lat":43.25727,"lon":5.41107,"is_reserved":false,"is_disabled":false,"rental_uris":{"android":"levelo://app?vid=b4d6223b-c6eb-4e73-a4b5-918b9ad6e2d3","ios":"levelo://app?vid=b4d6223b-c6eb-4e73-a4b5-918b9ad6e2d3"},"vehicle_type_id":"4","last_reported":1747536356,"current_range_meters":22000,"station_id":"ce4bhkp2rcd13ifvqgd0","pricing_plan_id":"cebpf4jnsgd1na2vs0mg"},{"bike_id":"e3f5446b-bb98-46a9-a0f3-9de5ac9cbfe8","system_id":"levelo_inurba_marseille","lat":43.26232,"lon":5.40457,"is_reserved":false,"is_disabled":false,"rental_uris":{"android":"levelo://app?vid=e3f5446b-bb98-46a9-a0f3-9de5ac9cbfe8","ios":"levelo://app?vid=e3f5446b-bb98-46a9-a0f3-9de5ac9cbfe8"},"vehicle_type_id":"4","last_reported":1747536356,"current_range_meters":22000,"station_id":"ce4bhmh2rcd13ifvqgmg","pricing_plan_id":"cebpf4jnsgd1na2vs0mg"},{"bike_id":"f54954c7-c1a8-40ba-bda3-43f86cfcfe6b","system_id":"levelo_inurba_marseille","lat":43.30618,"lon":5.38374,"is_reserved":false,"is_disabled":false,"rental_uris":{"android":"levelo://app?vid=f54954c7-c1a8-40ba-bda3-43f86cfcfe6b","ios":"levelo://app?vid=f54954c7-c1a8-40ba-bda3-43f86cfcfe6b"},"vehicle_type_id":"4","last_reported":1747536356,"current_range_meters":22400,"station_id":"","pricing_plan_id":"cebpf4jnsgd1na2vs0mg"},{"bike_id":"b74e02a7-216e-4efa-87f3-aea7fd4b97d5","system_id":"levelo_inurba_marseille","lat":43.30308,"lon":5.36896,"is_reserved":false,"is_disabled":false,"rental_uris":{"android":"levelo://app?vid=b74e02a7-216e-4efa-87f3-aea7fd4b97d5","ios":"levelo://app?vid=b74e02a7-216e-4efa-87f3-aea7fd4b97d5"},"vehicle_type_id":"4","last_reported":1747536356,"current_range_meters":22400,"station_id":"ce4bgqh2rcd13ifvqc5g","pricing_plan_id":"cebpf4jnsgd1na2vs0mg"},{"bike_id":"17792e43-3c87-474e-892c-8ce45b9387b0","system_id":"levelo_inurba_marseille","lat":43.285674,"lon":5.39496,"is_reserved":false,"is_disabled":false,"rental_uris":{"android":"levelo://app?vid=17792e43-3c87-474e-892c-8ce45b9387b0","ios":"levelo://app?vid=17792e43-3c87-474e-892c-8ce45b9387b0"},"vehicle_type_id":"4","last_reported":1747536356,"current_range_meters":22400,"station_id":"ce4bh292rcd13ifvqdg0","pricing_plan_id":"cebpf4jnsgd1na2vs0mg"},{"bike_id":"2e82caf3-5fc2-4ca0-8501-af81e4c8695b","system_id":"levelo_inurba_marseille","lat":43.29557,"lon":5.4229,"is_reserved":false,"is_disabled":false,"rental_uris":{"android":"levelo://app?vid=2e82caf3-5fc2-4ca0-8501-af81e4c8695b","ios":"levelo://app?vid=2e82caf3-5fc2-4ca0-8501-af81e4c8695b"},"vehicle_type_id":"4","last_reported":1747536356,"current_range_meters":22400,"station_id":"ce4bhph2rcd13ifvqhdg","pricing_plan_id":"cebpf4jnsgd1na2vs0mg"},{"bike_id":"a5033b18-066a-4230-b4e3-ba83e3434b14","system_id":"levelo_inurba_marseille","lat":43.30937,"lon":5.37136,"is_reserved":false,"is_disabled":false,"rental_uris":{"android":"levelo://app?vid=a5033b18-066a-4230-b4e3-ba83e3434b14","ios":"levelo://app?vid=a5033b18-066a-4230-b4e3-ba83e3434b14"},"vehicle_type_id":"4","last_reported":1747536356,"current_range_meters":22800,"station_id":"ce4bguh2rcd13ifvqckg","pricing_plan_id":"cebpf4jnsgd1na2vs0mg"},{"bike_id":"47e27a4b-d136-4ed2-bd7a-6a16cf437d1a","system_id":"levelo_inurba_marseille","lat":43.309282,"lon":5.401497,"is_reserved":false,"is_disabled":false,"rental_uris":{"android":"levelo://app?vid=47e27a4b-d136-4ed2-bd7a-6a16cf437d1a","ios":"levelo://app?vid=47e27a4b-d136-4ed2-bd7a-6a16cf437d1a"},"vehicle_type_id":"4","last_reported":1747536356,"current_range_meters":22800,"station_id":"ce4bgvp2rcd13ifvqct0","pricing_plan_id":"cebpf4jnsgd1na2vs0mg"},{"bike_id":"35882ca5-5cd6-47ec-aee4-0a074835aa2e","system_id":"levelo_inurba_marseille","lat":43.313146,"lon":5.396916,"is_reserved":false,"is_disabled":false,"rental_uris":{"android":"levelo://app?vid=35882ca5-5cd6-47ec-aee4-0a074835aa2e","ios":"levelo://app?vid=35882ca5-5cd6-47ec-aee4-0a074835aa2e"},"vehicle_type_id":"4","last_reported":1747536356,"current_range_meters":22800,"station_id":"ce4bgvp2rcd13ifvqcu0","pricing_plan_id":"cebpf4jnsgd1na2vs0mg"},{"bike_id":"7fdcf52b-541b-4360-8c0a-0ae336ff6d66","system_id":"levelo_inurba_marseille","lat":43.30082,"lon":5.39827,"is_reserved":false,"is_disabled":false,"rental_uris":{"android":"levelo://app?vid=7fdcf52b-541b-4360-8c0a-0ae336ff6d66","ios":"levelo://app?vid=7fdcf52b-541b-4360-8c0a-0ae336ff6d66"},"vehicle_type_id":"4","last_reported":1747536356,"current_range_meters":22800,"station_id":"ce4bh0h2rcd13ifvqd40","pricing_plan_id":"cebpf4jnsgd1na2vs0mg"},{"bike_id":"68d42093-02cc-4366-bcdd-0e03f43620d1","system_id":"levelo_inurba_marseille","lat":43.28847,"lon":5.35816,"is_reserved":false,"is_disabled":false,"rental_uris":{"android":"levelo://app?vid=68d42093-02cc-4366-bcdd-0e03f43620d1","ios":"levelo://app?vid=68d42093-02cc-4366-bcdd-0e03f43620d1"},"vehicle_type_id":"4","last_reported":1747536356,"current_range_meters":22800,"station_id":"ce4bhb12rcd13ifvqem0","pricing_plan_id":"cebpf4jnsgd1na2vs0mg"},{"bike_id":"b49e4efd-6938-4ecb-a675-e236e5f487c2","system_id":"levelo_inurba_marseille","lat":43.257298,"lon":5.411093,"is_reserved":false,"is_disabled":false,"rental_uris":{"android":"levelo://app?vid=b49e4efd-6938-4ecb-a675-e236e5f487c2","ios":"levelo://app?vid=b49e4efd-6938-4ecb-a675-e236e5f487c2"},"vehicle_type_id":"4","last_reported":1747536356,"current_range_meters":22800,"station_id":"ce4bhkp2rcd13ifvqgd0","pricing_plan_id":"cebpf4jnsgd1na2vs0mg"},{"bike_id":"1ef05c2f-1395-4821-b79c-d7c2cdc7602b","system_id":"levelo_inurba_marseille","lat":43.24542,"lon":5.39546,"is_reserved":false,"is_disabled":false,"rental_uris":{"android":"levelo://app?vid=1ef05c2f-1395-4821-b79c-d7c2cdc7602b","ios":"levelo://app?vid=1ef05c2f-1395-4821-b79c-d7c2cdc7602b"},"vehicle_type_id":"4","last_reported":1747536356,"current_range_meters":22800,"station_id":"ce4bhlp2rcd13ifvqgjg","pricing_plan_id":"cebpf4jnsgd1na2vs0mg"},{"bike_id":"39e2ed66-9956-4ef6-982d-047884828e87","system_id":"levelo_inurba_marseille","lat":43.2629,"lon":5.39297,"is_reserved":false,"is_disabled":false,"rental_uris":{"android":"levelo://app?vid=39e2ed66-9956-4ef6-982d-047884828e87","ios":"levelo://app?vid=39e2ed66-9956-4ef6-982d-047884828e87"},"vehicle_type_id":"4","last_reported":1747536356,"current_range_meters":23200,"station_id":"","pricing_plan_id":"cebpf4jnsgd1na2vs0mg"},{"bike_id":"1286081b-efb6-4be4-a0bf-fa144dfbdbcf","system_id":"levelo_inurba_marseille","lat":43.313665,"lon":5.384943,"is_reserved":false,"is_disabled":false,"rental_uris":{"android":"levelo://app?vid=1286081b-efb6-4be4-a0bf-fa144dfbdbcf","ios":"levelo://app?vid=1286081b-efb6-4be4-a0bf-fa144dfbdbcf"},"vehicle_type_id":"4","last_reported":1747536356,"current_range_meters":23200,"station_id":"ce4bgt92rcd13ifvqcf0","pricing_plan_id":"cebpf4jnsgd1na2vs0mg"},{"bike_id":"adb1ef56-46e4-4a1d-b296-3be777b5e62f","system_id":"levelo_inurba_marseille","lat":43.30638,"lon":5.400742,"is_reserved":false,"is_disabled":false,"rental_uris":{"android":"levelo://app?vid=adb1ef56-46e4-4a1d-b296-3be777b5e62f","ios":"levelo://app?vid=adb1ef56-46e4-4a1d-b296-3be777b5e62f"},"vehicle_type_id":"4","last_reported":1747536356,"current_range_meters":23200,"station_id":"ce4bh112rcd13ifvqda0","pricing_plan_id":"cebpf4jnsgd1na2vs0mg"},{"bike_id":"39904e6d-7769-41af-997b-f038992df78f","system_id":"levelo_inurba_marseille","lat":43.29183,"lon":5.41055,"is_reserved":false,"is_disabled":false,"rental_uris":{"android":"levelo://app?vid=39904e6d-7769-41af-997b-f038992df78f","ios":"levelo://app?vid=39904e6d-7769-41af-997b-f038992df78f"},"vehicle_type_id":"4","last_reported":1747536356,"current_range_meters":23200,"station_id":"ce4bh192rcd13ifvqdc0","pricing_plan_id":"cebpf4jnsgd1na2vs0mg"},{"bike_id":"75e84ff8-d1e0-4a47-b9c0-955b0393c61f","system_id":"levelo_inurba_marseille","lat":43.251242,"lon":5.403232,"is_reserved":false,"is_disabled":false,"rental_uris":{"android":"levelo://app?vid=75e84ff8-d1e0-4a47-b9c0-955b0393c61f","ios":"levelo://app?vid=75e84ff8-d1e0-4a47-b9c0-955b0393c61f"},