{"last_updated":1740308849,"ttl":60,"version":"2.2","data":{"bikes":[{"bike_id":"53dc1046-c8ed-446b-920a-f2dd87fa2ddc","system_id":"levelo_inurba_marseille","lat":43.33015,"lon":5.3902,"is_reserved":false,"is_disabled":false,"rental_uris":{"android":"levelo://app?vid=53dc1046-c8ed-446b-920a-f2dd87fa2ddc","ios":"levelo://app?vid=53dc1046-c8ed-446b-920a-f2dd87fa2ddc"},"vehicle_type_id":"4","last_reported":1740308849,"current_range_meters":2800,"station_id":"ce4bhr92rcd13ifvqhrg","pricing_plan_id":"cebpf4jnsgd1na2vs0mg"},{"bike_id":"d635f9c0-faa4-40e1-b8e2-2d7560048bc9","system_id":"levelo_inurba_marseille","lat":43.26555,"lon":5.37286,"is_reserved":false,"is_disabled":false,"rental_uris":{"android":"levelo://app?vid=d635f9c0-faa4-40e1-b8e2-2d7560048bc9","ios":"levelo://app?vid=d635f9c0-faa4-40e1-b8e2-2d7560048bc9"},"vehicle_type_id":"4","last_reported":1740308849,"current_range_meters":3200,"station_id":"ce4bhg12rcd13ifvqf70","pricing_plan_id":"cebpf4jnsgd1na2vs0mg"},{"bike_id":"77de25f8-2754-4855-8b4b-54da74cbc167","system_id":"levelo_inurba_marseille","lat":43.26472,"lon":5.40895,"is_reserved":false,"is_disabled":false,"rental_uris":{"android":"levelo://app?vid=77de25f8-2754-4855-8b4b-54da74cbc167","ios":"levelo://app?vid=77de25f8-2754-4855-8b4b-54da74cbc167"},"vehicle_type_id":"4","last_reported":1740308849,"current_range_meters":3200,"station_id":"","pricing_plan_id":"cebpf4jnsgd1na2vs0mg"},{"bike_id":"81b02dd1-1b52-471a-a367-2832a8856db6","system_id":"levelo_inurba_marseille","lat":43.2668,"lon":5.38273,"is_reserved":false,"is_disabled":false,"rental_uris":{"android":"levelo://app?vid=81b02dd1-1b52-471a-a367-2832a8856db6","ios":"levelo://app?vid=81b02dd1-1b52-471a-a367-2832a8856db6"},"vehicle_type_id":"4","last_reported":1740308849,"current_range_meters":4000,"station_id":"ce4bhg92rcd13ifvqf90","pricing_plan_id":"cebpf4jnsgd1na2vs0mg"},{"bike_id":"48fdad31-db79-45a0-8609-a89faac54331","system_id":"levelo_inurba_marseille","lat":43.30433,"lon":5.39758,"is_reserved":false,"is_disabled":false,"rental_uris":{"android":"levelo://app?vid=48fdad31-db79-45a0-8609-a89faac54331","ios":"levelo://app?vid=48fdad31-db79-45a0-8609-a89faac54331"},"vehicle_type_id":"4","last_reported":1740308849,"current_range_meters":4000,"station_id":"ce4bh092rcd13ifvqd20","pricing_plan_id":"cebpf4jnsgd1na2vs0mg"},{"bike_id":"91cd9c50-a708-4ca7-8c38-9684716b8855","system_id":"levelo_inurba_marseille","lat":43.33785,"lon":5.37436,"is_reserved":false,"is_disabled":false,"rental_uris":{"android":"levelo://app?vid=91cd9c50-a708-4ca7-8c38-9684716b8855","ios":"levelo://app?vid=91cd9c50-a708-4ca7-8c38-9684716b8855"},"vehicle_type_id":"4","last_reported":1740308849,"current_range_meters":4400,"station_id":"","pricing_plan_id":"cebpf4jnsgd1na2vs0mg"},{"bike_id":"cfaa1cac-eb2a-43df-a4c1-c8b4bc2dae41","system_id":"levelo_inurba_marseille","lat":43.30551,"lon":5.36557,"is_reserved":false,"is_disabled":false,"rental_uris":{"android":"levelo://app?vid=cfaa1cac-eb2a-43df-a4c1-c8b4bc2dae41","ios":"levelo://app?vid=cfaa1cac-eb2a-43df-a4c1-c8b4bc2dae41"},"vehicle_type_id":"4","last_reported":1740308849,"current_range_meters":4800,"station_id":"ce4bgs12rcd13ifvqcag","pricing_plan_id":"cebpf4jnsgd1na2vs0mg"},{"bike_id":"fa83beb1-2405-4db0-9826-c091cb751783","system_id":"levelo_inurba_marseille","lat":43.25107,"lon":5.40365,"is_reserved":false,"is_disabled":true,"rental_uris":{"android":"levelo://app?vid=fa83beb1-2405-4db0-9826-c091cb751783","ios":"levelo://app?vid=fa83beb1-2405-4db0-9826-c091cb751783"},"vehicle_type_id":"4","last_reported":1740308849,"current_range_meters":4800,"station_id":"ce4bhlh2rcd13ifvqgig","pricing_plan_id":"cebpf4jnsgd1na2vs0mg"},{"bike_id":"ab46b189-6bae-4129-a7fd-10b3ccd5a48e","system_id":"levelo_inurba_marseille","lat":43.27197,"lon":5.39997,"is_reserved":false,"is_disabled":false,"rental_uris":{"android":"levelo://app?vid=ab46b189-6bae-4129-a7fd-10b3ccd5a48e","ios":"levelo://app?vid=ab46b189-6bae-4129-a7fd-10b3ccd5a48e"},"vehicle_type_id":"4","last_reported":1740308849,"current_range_meters":5600,"station_id":"","pricing_plan_id":"cebpf4jnsgd1na2vs0mg"},{"bike_id":"7a85cf15-a2f8-4cbd-bd39-b6987c2c9a0a","system_id":"levelo_inurba_marseille","lat":43.23196,"lon":5.39979,"is_reserved":false,"is_disabled":false,"rental_uris":{"android":"levelo://app?vid=7a85cf15-a2f8-4cbd-bd39-b6987c2c9a0a","ios":"levelo://app?vid=7a85cf15-a2f8-4cbd-bd39-b6987c2c9a0a"},"vehicle_type_id":"4","last_reported":1740308849,"current_range_meters":6000,"station_id":"ce4bhn12rcd13ifvqgqg","pricing_plan_id":"cebpf4jnsgd1na2vs0mg"},{"bike_id":"098ba318-f0ee-4c81-991e-ba2f5a0cbad4","system_id":"levelo_inurba_marseille","lat":43.27609,"lon":5.36121,"is_reserved":false,"is_disabled":false,"rental_uris":{"android":"levelo://app?vid=098ba318-f0ee-4c81-991e-ba2f5a0cbad4","ios":"levelo://app?vid=098ba318-f0ee-4c81-991e-ba2f5a0cbad4"},"vehicle_type_id":"4","last_reported":1740308849,"current_range_meters":6000,"station_id":"ce4bgj92rcd13ifvqbe0","pricing_plan_id":"cebpf4jnsgd1na2vs0mg"},{"bike_id":"3edf878a-b077-47d4-bf89-8453f040639a","system_id":"levelo_inurba_marseille","lat":43.30653,"lon":5.40072,"is_reserved":false,"is_disabled":false,"rental_uris":{"android":"levelo://app?vid=3edf878a-b077-47d4-bf89-8453f040639a","ios":"levelo://app?vid=3edf878a-b077-47d4-bf89-8453f040639a"},"vehicle_type_id":"4","last_reported":1740308849,"current_range_meters":6000,"station_id":"ce4bh112rcd13ifvqda0","pricing_plan_id":"cebpf4jnsgd1na2vs0mg"},{"bike_id":"22613deb-4e09-4d61-9470-7377805ef5b9","system_id":"levelo_inurba_marseille","lat":43.30904,"lon":5.40179,"is_reserved":false,"is_disabled":false,"rental_uris":{"android":"levelo://app?vid=22613deb-4e09-4d61-9470-7377805ef5b9","ios":"levelo://app?vid=22613deb-4e09-4d61-9470-7377805ef5b9"},"vehicle_type_id":"4","last_reported":1740308849,"current_range_meters":6400,"station_id":"ce4bgvp2rcd13ifvqct0","pricing_plan_id":"cebpf4jnsgd1na2vs0mg"},{"bike_id":"c0eb7731-415d-4d31-b872-c50c7ef99c9f","system_id":"levelo_inurba_marseille","lat":43.27218,"lon":5.39206,"is_reserved":false,"is_disabled":false,"rental_uris":{"android":"levelo://app?vid=c0eb7731-415d-4d31-b872-c50c7ef99c9f","ios":"levelo://app?vid=c0eb7731-415d-4d31-b872-c50c7ef99c9f"},"vehicle_type_id":"4","last_reported":1740308849,"current_range_meters":6400,"station_id":"ce4bhhp2rcd13ifvqfm0","pricing_plan_id":"cebpf4jnsgd1na2vs0mg"},{"bike_id":"f32fe46d-1120-4c2c-97c5-cdbf2de4ccec","system_id":"levelo_inurba_marseille","lat":43.259454,"lon":5.408909,"is_reserved":false,"is_disabled":false,"rental_uris":{"android":"levelo://app?vid=f32fe46d-1120-4c2c-97c5-cdbf2de4ccec","ios":"levelo://app?vid=f32fe46d-1120-4c2c-97c5-cdbf2de4ccec"},"vehicle_type_id":"4","last_reported":1740308849,"current_range_meters":6400,"station_id":"ce4bhm92rcd13ifvqglg","pricing_plan_id":"cebpf4jnsgd1na2vs0mg"},{"bike_id":"3d4b3468-7d16-483f-8715-2c2d3fcb7db6","system_id":"levelo_inurba_marseille","lat":43.2512,"lon":5.40334,"is_reserved":false,"is_disabled":false,"rental_uris":{"android":"levelo://app?vid=3d4b3468-7d16-483f-8715-2c2d3fcb7db6","ios":"levelo://app?vid=3d4b3468-7d16-483f-8715-2c2d3fcb7db6"},"vehicle_type_id":"4","last_reported":1740308849,"current_range_meters":6400,"station_id":"ce4bhlh2rcd13ifvqgig","pricing_plan_id":"cebpf4jnsgd1na2vs0mg"},{"bike_id":"f01bc604-d3fe-484b-ab17-16d012a9acf2","system_id":"levelo_inurba_marseille","lat":43.279825,"lon":5.416566,"is_reserved":false,"is_disabled":false,"rental_uris":{"android":"levelo://app?vid=f01bc604-d3fe-484b-ab17-16d012a9acf2","ios":"levelo://app?vid=f01bc604-d3fe-484b-ab17-16d012a9acf2"},"vehicle_type_id":"4","last_reported":1740308849,"current_range_meters":6400,"station_id":"ce4bho12rcd13ifvqh1g","pricing_plan_id":"cebpf4jnsgd1na2vs0mg"},{"bike_id":"de25e584-1f82-4091-b0b5-07951c73cbcf","system_id":"levelo_inurba_marseille","lat":43.28455,"lon":5.39206,"is_reserved":false,"is_disabled":false,"rental_uris":{"android":"levelo://app?vid=de25e584-1f82-4091-b0b5-07951c73cbcf","ios":"levelo://app?vid=de25e584-1f82-4091-b0b5-07951c73cbcf"},"vehicle_type_id":"4","last_reported":1740308849,"current_range_meters":6400,"station_id":"","pricing_plan_id":"cebpf4jnsgd1na2vs0mg"},{"bike_id":"d6304c24-34fc-41d9-b5c1-e9bbec4a030a","system_id":"levelo_inurba_marseille","lat":43.25101,"lon":5.40339,"is_reserved":false,"is_disabled":false,"rental_uris":{"android":"levelo://app?vid=d6304c24-34fc-41d9-b5c1-e9bbec4a030a","ios":"levelo://app?vid=d6304c24-34fc-41d9-b5c1-e9bbec4a030a"},"vehicle_type_id":"4","last_reported":1740308849,"current_range_meters":6800,"station_id":"ce4bhlh2rcd13ifvqgig","pricing_plan_id":"cebpf4jnsgd1na2vs0mg"},{"bike_id":"498fd156-74e1-4d37-a852-67eabfe4e583","system_id":"levelo_inurba_marseille","lat":43.24695,"lon":5.38173,"is_reserved":false,"is_disabled":false,"rental_uris":{"android":"levelo://app?vid=498fd156-74e1-4d37-a852-67eabfe4e583","ios":"levelo://app?vid=498fd156-74e1-4d37-a852-67eabfe4e583"},"vehicle_type_id":"4","last_reported":1740308849,"current_range_meters":6800,"station_id":"ce4bhih2rcd13ifvqfr0","pricing_plan_id":"cebpf4jnsgd1na2vs0mg"},{"bike_id":"6d04e975-2738-4214-8489-d55bba23fd67","system_id":"levelo_inurba_marseille","lat":43.28277,"lon":5.35077,"is_reserved":false,"is_disabled":false,"rental_uris":{"android":"levelo://app?vid=6d04e975-2738-4214-8489-d55bba23fd67","ios":"levelo://app?vid=6d04e975-2738-4214-8489-d55bba23fd67"},"vehicle_type_id":"4","last_reported":1740308849,"current_range_meters":6800,"station_id":"ce4bhbp2rcd13ifvqerg","pricing_plan_id":"cebpf4jnsgd1na2vs0mg"},{"bike_id":"91dbf563-1a8a-411b-af95-51ba538b1126","system_id":"levelo_inurba_marseille","lat":43.23956,"lon":5.36649,"is_reserved":false,"is_disabled":false,"rental_uris":{"android":"levelo://app?vid=91dbf563-1a8a-411b-af95-51ba538b1126","ios":"levelo://app?vid=91dbf563-1a8a-411b-af95-51ba538b1126"},"vehicle_type_id":"4","last_reported":1740308849,"current_range_meters":6800,"station_id":"ce4bhi12rcd13ifvqfp0","pricing_plan_id":"cebpf4jnsgd1na2vs0mg"},{"bike_id":"2a7165b4-60a1-4418-90cd-83d9915280e2","system_id":"levelo_inurba_marseille","lat":43.28019,"lon":5.40605,"is_reserved":false,"is_disabled":false,"rental_uris":{"android":"levelo://app?vid=2a7165b4-60a1-4418-90cd-83d9915280e2","ios":"levelo://app?vid=2a7165b4-60a1-4418-90cd-83d9915280e2"},"vehicle_type_id":"4","last_reported":1740308849,"current_range_meters":6800,"station_id":"","pricing_plan_id":"cebpf4jnsgd1na2vs0mg"},{"bike_id":"9116b8ac-629d-459b-b44d-248b2c2649b7","system_id":"levelo_inurba_marseille","lat":43.27942,"lon":5.41047,"is_reserved":false,"is_disabled":true,"rental_uris":{"android":"levelo://app?vid=9116b8ac-629d-459b-b44d-248b2c2649b7","ios":"levelo://app?vid=9116b8ac-629d-459b-b44d-248b2c2649b7"},"vehicle_type_id":"4","last_reported":1740308849,"current_range_meters":6800,"station_id":"ce4bhnp2rcd13ifvqh0g","pricing_plan_id":"cebpf4jnsgd1na2vs0mg"},{"bike_id":"6d48938c-9b80-49b7-89e5-950ba7a6ce63","system_id":"levelo_inurba_marseille","lat":43.25922,"lon":5.40883,"is_reserved":false,"is_disabled":false,"rental_uris":{"android":"levelo://app?vid=6d48938c-9b80-49b7-89e5-950ba7a6ce63","ios":"levelo://app?vid=6d48938c-9b80-49b7-89e5-950ba7a6ce63"},"vehicle_type_id":"4","last_reported":1740308849,"current_range_meters":6800,"station_id":"ce4bhm92rcd13ifvqglg","pricing_plan_id":"cebpf4jnsgd1na2vs0mg"},{"bike_id":"f65e14d9-9d98-4273-878d-64aa1ddbd1a3","system_id":"levelo_inurba_marseille","lat":43.2407,"lon":5.37762,"is_reserved":false,"is_disabled":false,"rental_uris":{"android":"levelo://app?vid=f65e14d9-9d98-4273-878d-64aa1ddbd1a3","ios":"levelo://app?vid=f65e14d9-9d98-4273-878d-64aa1ddbd1a3"},"vehicle_type_id":"4","last_reported":1740308849,"current_range_meters":6800,"station_id":"ce4bhnp2rcd13ifvqgvg","pricing_plan_id":"cebpf4jnsgd1na2vs0mg"},{"bike_id":"b985ad1f-1942-453b-b5eb-7462cafd1e31","system_id":"levelo_inurba_marseille","lat":43.232,"lon":5.35505,"is_reserved":false,"is_disabled":false,"rental_uris":{"android":"levelo://app?vid=b985ad1f-1942-453b-b5eb-7462cafd1e31","ios":"levelo://app?vid=b985ad1f-1942-453b-b5eb-7462cafd1e31"},"vehicle_type_id":"4","last_reported":1740308849,"current_range_meters":6800,"station_id":"ce4bhu92rcd13ifvqi70","pricing_plan_id":"cebpf4jnsgd1na2vs0mg"},{"bike_id":"e64a08a3-c5ef-4feb-aeac-93c0a23ef559","system_id":"levelo_inurba_marseille","lat":43.2549,"lon":5.3765,"is_reserved":false,"is_disabled":false,"rental_uris":{"android":"levelo://app?vid=e64a08a3-c5ef-4feb-aeac-93c0a23ef559","ios":"levelo://app?vid=e64a08a3-c5ef-4feb-aeac-93c0a23ef559"},"vehicle_type_id":"4","last_reported":1740308849,"current_range_meters":7200,"station_id":"ce4bhh12rcd13ifvqff0","pricing_plan_id":"cebpf4jnsgd1na2vs0mg"},{"bike_id":"2e4d9ef6-4dd9-45eb-8687-42db3850d70a","system_id":"levelo_inurba_marseille","lat":43.27468,"lon":5.4079,"is_reserved":false,"is_disabled":false,"rental_uris":{"android":"levelo://app?vid=2e4d9ef6-4dd9-45eb-8687-42db3850d70a","ios":"levelo://app?vid=2e4d9ef6-4dd9-45eb-8687-42db3850d70a"},"vehicle_type_id":"4","last_reported":1740308849,"current_range_meters":7200,"station_id":"","pricing_plan_id":"cebpf4jnsgd1na2vs0mg"},{"bike_id":"06c7d04b-0c73-473f-9f55-ff858732e591","system_id":"levelo_inurba_marseille","lat":43.2657,"lon":5.39024,"is_reserved":false,"is_disabled":false,"rental_uris":{"android":"levelo://app?vid=06c7d04b-0c73-473f-9f55-ff858732e591","ios":"levelo://app?vid=06c7d04b-0c73-473f-9f55-ff858732e591"},"vehicle_type_id":"4","last_reported":1740308849,"current_range_meters":7200,"station_id":"ce4bhe12rcd13ifvqf30","pricing_plan_id":"cebpf4jnsgd1na2vs0mg"},{"bike_id":"f4c73116-43d3-41d9-88bb-9461dbbb405f","system_id":"levelo_inurba_marseille","lat":43.2544,"lon":5.41635,"is_reserved":false,"is_disabled":false,"rental_uris":{"android":"levelo://app?vid=f4c73116-43d3-41d9-88bb-9461dbbb405f","ios":"levelo://app?vid=f4c73116-43d3-41d9-88bb-9461dbbb405f"},"vehicle_type_id":"4","last_reported":1740308849,"current_range_meters":8000,"station_id":"","pricing_plan_id":"cebpf4jnsgd1na2vs0mg"},{"bike_id":"074a8113-e323-4485-94ff-42bb9ce3b359","system_id":"levelo_inurba_marseille","lat":43.23953,"lon":5.36643,"is_reserved":false,"is_disabled":false,"rental_uris":{"android":"levelo://app?vid=074a8113-e323-4485-94ff-42bb9ce3b359","ios":"levelo://app?vid=074a8113-e323-4485-94ff-42bb9ce3b359"},"vehicle_type_id":"4","last_reported":1740308849,"current_range_meters":8000,"station_id":"ce4bhi12rcd13ifvqfp0","pricing_plan_id":"cebpf4jnsgd1na2vs0mg"},{"bike_id":"9859663a-d407-450b-be7f-fdf2377c07a7","system_id":"levelo_inurba_marseille","lat":43.34135,"lon":5.40905,"is_reserved":false,"is_disabled":false,"rental_uris":{"android":"levelo://app?vid=9859663a-d407-450b-be7f-fdf2377c07a7","ios":"levelo://app?vid=9859663a-d407-450b-be7f-fdf2377c07a7"},"vehicle_type_id":"4","last_reported":1740308849,"current_range_meters":8000,"station_id":"ce4bhqh2rcd13ifvqhlg","pricing_plan_id":"cebpf4jnsgd1na2vs0mg"},{"bike_id":"590c2d4d-a6f8-41f2-86bc-cf779452c419","system_id":"levelo_inurba_marseille","lat":43.27169,"lon":5.41002,"is_reserved":false,"is_disabled":false,"rental_uris":{"android":"levelo://app?vid=590c2d4d-a6f8-41f2-86bc-cf779452c419","ios":"levelo://app?vid=590c2d4d-a6f8-41f2-86bc-cf779452c419"},"vehicle_type_id":"4","last_reported":1740308849,"current_range_meters":8000,"station_id":"ce4bhl12rcd13ifvqgf0","pricing_plan_id":"cebpf4jnsgd1na2vs0mg"},{"bike_id":"827ec7e5-1ae5-45b8-890e-b6822ea9bc11","system_id":"levelo_inurba_marseille","lat":43.23963,"lon":5.36634,"is_reserved":false,"is_disabled":false,"rental_uris":{"android":"levelo://app?vid=827ec7e5-1ae5-45b8-890e-b6822ea9bc11","ios":"levelo://app?vid=827ec7e5-1ae5-45b8-890e-b6822ea9bc11"},"vehicle_type_id":"4","last_reported":1740308849,"current_range_meters":8000,"station_id":"ce4bhi12rcd13ifvqfp0","pricing_plan_id":"cebpf4jnsgd1na2vs0mg"},{"bike_id":"be5f18c6-d773-4035-9538-497c8eccebd5","system_id":"levelo_inurba_marseille","lat":43.27559,"lon":5.38427,"is_reserved":false,"is_disabled":false,"rental_uris":{"android":"levelo://app?vid=be5f18c6-d773-4035-9538-497c8eccebd5","ios":"levelo://app?vid=be5f18c6-d773-4035-9538-497c8eccebd5"},"vehicle_type_id":"4","last_reported":1740308849,"current_range_meters":8400,"station_id":"ce4bhh92rcd13ifvqfi0","pricing_plan_id":"cebpf4jnsgd1na2vs0mg"},{"bike_id":"519c0d90-c598-4074-9c80-d5e1565ff705","system_id":"levelo_inurba_marseille","lat":43.23075,"lon":5.35482,"is_reserved":false,"is_disabled":false,"rental_uris":{"android":"levelo://app?vid=519c0d90-c598-4074-9c80-d5e1565ff705","ios":"levelo://app?vid=519c0d90-c598-4074-9c80-d5e1565ff705"},"vehicle_type_id":"4","last_reported":1740308849,"current_range_meters":8400,"station_id":"cpo3342slgdg3j2ifvpg","pricing_plan_id":"cebpf4jnsgd1na2vs0mg"},{"bike_id":"f059cbcc-b7ad-4e49-87a3-054a01f702f4","system_id":"levelo_inurba_marseille","lat":43.30895,"lon":5.39632,"is_reserved":false,"is_disabled":false,"rental_uris":{"android":"levelo://app?vid=f059cbcc-b7ad-4e49-87a3-054a01f702f4","ios":"levelo://app?vid=f059cbcc-b7ad-4e49-87a3-054a01f702f4"},"vehicle_type_id":"4","last_reported":1740308849,"current_range_meters":8400,"station_id":"ce4bh012rcd13ifvqcv0","pricing_plan_id":"cebpf4jnsgd1na2vs0mg"},{"bike_id":"0b35ef10-1d1d-4e8a-949e-c3122c5e3874","system_id":"levelo_inurba_marseille","lat":43.23959,"lon":5.36624,"is_reserved":false,"is_disabled":false,"rental_uris":{"android":"levelo://app?vid=0b35ef10-1d1d-4e8a-949e-c3122c5e3874","ios":"levelo://app?vid=0b35ef10-1d1d-4e8a-949e-c3122c5e3874"},"vehicle_type_id":"4","last_reported":1740308849,"current_range_meters":8400,"station_id":"ce4bhi12rcd13ifvqfp0","pricing_plan_id":"cebpf4jnsgd1na2vs0mg"},{"bike_id":"bb127142-502c-4b61-b74c-d7410317905c","system_id":"levelo_inurba_marseille","lat":43.26864,"lon":5.40217,"is_reserved":false,"is_disabled":false,"rental_uris":{"android":"levelo://app?vid=bb127142-502c-4b61-b74c-d7410317905c","ios":"levelo://app?vid=bb127142-502c-4b61-b74c-d7410317905c"},"vehicle_type_id":"4","last_reported":1740308849,"current_range_meters":8800,"station_id":"ce501612rcd8frsf0b60","pricing_plan_id":"cebpf4jnsgd1na2vs0mg"},{"bike_id":"c76531ac-1214-4592-9c1c-6b2ce2bc0cf8","system_id":"levelo_inurba_marseille","lat":43.23198,"lon":5.35534,"is_reserved":false,"is_disabled":false,"rental_uris":{"android":"levelo://app?vid=c76531ac-1214-4592-9c1c-6b2ce2bc0cf8","ios":"levelo://app?vid=c76531ac-1214-4592-9c1c-6b2ce2bc0cf8"},"vehicle_type_id":"4","last_reported":1740308849,"current_range_meters":8800,"station_id":"ce4bhu92rcd13ifvqi70","pricing_plan_id":"cebpf4jnsgd1na2vs0mg"},{"bike_id":"7edad6f1-bb02-4747-8467-5494540e990b","system_id":"levelo_inurba_marseille","lat":43.25005,"lon":5.38925,"is_reserved":false,"is_disabled":false,"rental_uris":{"android":"levelo://app?vid=7edad6f1-bb02-4747-8467-5494540e990b","ios":"levelo://app?vid=7edad6f1-bb02-4747-8467-5494540e990b"},"vehicle_type_id":"4","last_reported":1740308849,"current_range_meters":8800,"station_id":"ce4bhgp2rcd13ifvqfd0","pricing_plan_id":"cebpf4jnsgd1na2vs0mg"},{"bike_id":"65a2b506-9f18-4086-90d7-6bbdf970a117","system_id":"levelo_inurba_marseille","lat":43.29533,"lon":5.38547,"is_reserved":false,"is_disabled":true,"rental_uris":{"android":"levelo://app?vid=65a2b506-9f18-4086-90d7-6bbdf970a117","ios":"levelo://app?vid=65a2b506-9f18-4086-90d7-6bbdf970a117"},"vehicle_type_id":"4","last_reported":1740308849,"current_range_meters":9200,"station_id":"ce4bgih2rcd13ifvqba0","pricing_plan_id":"cebpf4jnsgd1na2vs0mg"},{"bike_id":"5d52fe5a-dfb3-40bb-a0d1-9a7b3f23529e","system_id":"levelo_inurba_marseille","lat":43.26228,"lon":5.40437,"is_reserved":false,"is_disabled":false,"rental_uris":{"android":"levelo://app?vid=5d52fe5a-dfb3-40bb-a0d1-9a7b3f23529e","ios":"levelo://app?vid=5d52fe5a-dfb3-40bb-a0d1-9a7b3f23529e"},"vehicle_type_id":"4","last_reported":1740308849,"current_range_meters":9200,"station_id":"ce4bhmh2rcd13ifvqgmg","pricing_plan_id":"cebpf4jnsgd1na2vs0mg"},{"bike_id":"09486dc5-7654-4904-afc6-3b8a40308aeb","system_id":"levelo_inurba_marseille","lat":43.25417,"lon":5.41577,"is_reserved":false,"is_disabled":false,"rental_uris":{"android":"levelo://app?vid=09486dc5-7654-4904-afc6-3b8a40308aeb","ios":"levelo://app?vid=09486dc5-7654-4904-afc6-3b8a40308aeb"},"vehicle_type_id":"4","last_reported":1740308849,"current_range_meters":9200,"station_id":"","pricing_plan_id":"cebpf4jnsgd1na2vs0mg"},{"bike_id":"8e002248-b1bc-49c3-b640-bd9109fa66a3","system_id":"levelo_inurba_marseille","lat":43.26794,"lon":5.3948,"is_reserved":false,"is_disabled":false,"rental_uris":{"android":"levelo://app?vid=8e002248-b1bc-49c3-b640-bd9109fa66a3","ios":"levelo://app?vid=8e002248-b1bc-49c3-b640-bd9109fa66a3"},"vehicle_type_id":"4","last_reported":1740308849,"current_range_meters":9200,"station_id":"ce4bhh12rcd13ifvqfg0","pricing_plan_id":"cebpf4jnsgd1na2vs0mg"},{"bike_id":"f00c61fb-ec65-4c44-adf0-658e6c00b6f6","system_id":"levelo_inurba_marseille","lat":43.28277,"lon":5.35073,"is_reserved":false,"is_disabled":false,"rental_uris":{"android":"levelo://app?vid=f00c61fb-ec65-4c44-adf0-658e6c00b6f6","ios":"levelo://app?vid=f00c61fb-ec65-4c44-adf0-658e6c00b6f6"},"vehicle_type_id":"4","last_reported":1740308849,"current_range_meters":9200,"station_id":"ce4bhbp2rcd13ifvqerg","pricing_plan_id":"cebpf4jnsgd1na2vs0mg"},{"bike_id":"580cd37a-010c-47d8-955d-e1bf99f50654","system_id":"levelo_inurba_marseille","lat":43.28397,"lon":5.3865,"is_reserved":false,"is_disabled":false,"rental_uris":{"android":"levelo://app?vid=580cd37a-010c-47d8-955d-e1bf99f50654","ios":"levelo://app?vid=580cd37a-010c-47d8-955d-e1bf99f50654"},"vehicle_type_id":"4","last_reported":1740308849,"current_range_meters":9200,"station_id":"","pricing_plan_id":"cebpf4jnsgd1na2vs0mg"},{"bike_id":"26a2d076-f5f2-45a7-98f5-29542790fe7d","system_id":"levelo_inurba_marseille","lat":43.32361,"lon":5.36763,"is_reserved":false,"is_disabled":false,"rental_uris":{"android":"levelo://app?vid=26a2d076-f5f2-45a7-98f5-29542790fe7d","ios":"levelo://app?vid=26a2d076-f5f2-45a7-98f5-29542790fe7d"},"vehicle_type_id":"4","last_reported":1740308849,"current_range_meters":9200,"station_id":"ce4bhsh2rcd13ifvqi2g","pricing_plan_id":"cebpf4jnsgd1na2vs0mg"},{"bike_id":"1a10fd59-4523-44b6-b95d-9c8ecd2de736","system_id":"levelo_inurba_marseille","lat":43.258627,"lon":5.399128,"is_reserved":false,"is_disabled":false,"rental_uris":{"android":"levelo://app?vid=1a10fd59-4523-44b6-b95d-9c8ecd2de736","ios":"levelo://app?vid=1a10fd59-4523-44b6-b95d-9c8ecd2de736"},"vehicle_type_id":"4","last_reported":1740308849,"current_range_meters":9200,"station_id":"ce4bhl92rcd13ifvqghg","pricing_plan_id":"cebpf4jnsgd1na2vs0mg"},{"bike_id":"e2f62125-3a72-42e8-8935-2e0ba3bfe398","system_id":"levelo_inurba_marseille","lat":43.25582,"lon":5.38223,"is_reserved":false,"is_disabled":false,"rental_uris":{"android":"levelo://app?vid=e2f62125-3a72-42e8-8935-2e0ba3bfe398","ios":"levelo://app?vid=e2f62125-3a72-42e8-8935-2e0ba3bfe398"},"vehicle_type_id":"4","last_reported":1740308849,"current_range_meters":9600,"station_id":"ce4bhih2rcd13ifvqfs0","pricing_plan_id":"cebpf4jnsgd1na2vs0mg"},{"bike_id":"2b68e173-ca1c-410c-ae67-fdb4ea3e3f2a","system_id":"levelo_inurba_marseille","lat":43.24654,"lon":5.38179,"is_reserved":false,"is_disabled":false,"rental_uris":{"android":"levelo://app?vid=2b68e173-ca1c-410c-ae67-fdb4ea3e3f2a","ios":"levelo://app?vid=2b68e173-ca1c-410c-ae67-fdb4ea3e3f2a"},"vehicle_type_id":"4","last_reported":1740308849,"current_range_meters":9600,"station_id":"ce4bhih2rcd13ifvqfr0","pricing_plan_id":"cebpf4jnsgd1na2vs0mg"},{"bike_id":"1f1c1f1f-d07d-4838-a63b-cd20d23c1423","system_id":"levelo_inurba_marseille","lat":43.28705,"lon":5.39964,"is_reserved":false,"is_disabled":false,"rental_uris":{"android":"levelo://app?vid=1f1c1f1f-d07d-4838-a63b-cd20d23c1423","ios":"levelo://app?vid=1f1c1f1f-d07d-4838-a63b-cd20d23c1423"},"vehicle_type_id":"4","last_reported":1740308849,"current_range_meters":9600,"station_id":"ce4bho92rcd13ifvqh3g","pricing_plan_id":"cebpf4jnsgd1na2vs0mg"},{"bike_id":"49e1c317-c43a-4e17-be08-ea23dc8d6739","system_id":"levelo_inurba_marseille","lat":43.30186,"lon":5.39584,"is_reserved":false,"is_disabled":true,"rental_uris":{"android":"levelo://app?vid=49e1c317-c43a-4e17-be08-ea23dc8d6739","ios":"levelo://app?vid=49e1c317-c43a-4e17-be08-ea23dc8d6739"},"vehicle_type_id":"4","last_reported":1740308849,"current_range_meters":9600,"station_id":"","pricing_plan_id":"cebpf4jnsgd1na2vs0mg"},{"bike_id":"ad184f0e-d5c6-4a9c-ba11-7ab7f337e022","system_id":"levelo_inurba_marseille","lat":43.25825,"lon":5.39425,"is_reserved":false,"is_disabled":false,"rental_uris":{"android":"levelo://app?vid=ad184f0e-d5c6-4a9c-ba11-7ab7f337e022","ios":"levelo://app?vid=ad184f0e-d5c6-4a9c-ba11-7ab7f337e022"},"vehicle_type_id":"4","last_reported":1740308849,"current_range_meters":9600,"station_id":"ce4bhip2rcd13ifvqft0","pricing_plan_id":"cebpf4jnsgd1na2vs0mg"},{"bike_id":"60eeb1d5-3d1a-4aaf-94d5-8e92a4e3b5ef","system_id":"levelo_inurba_marseille","lat":43.2861,"lon":5.351,"is_reserved":false,"is_disabled":false,"rental_uris":{"android":"levelo://app?vid=60eeb1d5-3d1a-4aaf-94d5-8e92a4e3b5ef","ios":"levelo://app?vid=60eeb1d5-3d1a-4aaf-94d5-8e92a4e3b5ef"},"vehicle_type_id":"4","last_reported":1740308849,"current_range_meters":9600,"station_id":"ce4bhch2rcd13ifvqeug","pricing_plan_id":"cebpf4jnsgd1na2vs0mg"},{"bike_id":"b1f1891e-04da-4ee5-a98c-3d8b0253b7c5","system_id":"levelo_inurba_marseille","lat":43.26558,"lon":5.39011,"is_reserved":false,"is_disabled":false,"rental_uris":{"android":"levelo://app?vid=b1f1891e-04da-4ee5-a98c-3d8b0253b7c5","ios":"levelo://app?vid=b1f1891e-04da-4ee5-a98c-3d8b0253b7c5"},"vehicle_type_id":"4","last_reported":1740308849,"current_range_meters":9600,"station_id":"ce4bhe12rcd13ifvqf30","pricing_plan_id":"cebpf4jnsgd1na2vs0mg"},{"bike_id":"1f7411cd-9379-4bab-a8bc-411b928d8602","system_id":"levelo_inurba_marseille","lat":43.27495,"lon":5.42463,"is_reserved":false,"is_disabled":false,"rental_uris":{"android":"levelo://app?vid=1f7411cd-9379-4bab-a8bc-411b928d8602","ios":"levelo://app?vid=1f7411cd-9379-4bab-a8bc-411b928d8602"},"vehicle_type_id":"4","last_reported":1740308849,"current_range_meters":10000,"station_id":"ce4bhn92rcd13ifvqgrg","pricing_plan_id":"cebpf4jnsgd1na2vs0mg"},{"bike_id":"1b0d6542-f74d-4dd5-b78b-1cd1115ff80b","system_id":"levelo_inurba_marseille","lat":43.30649,"lon":5.37403,"is_reserved":false,"is_disabled":false,"rental_uris":{"android":"levelo://app?vid=1b0d6542-f74d-4dd5-b78b-1cd1115ff80b","ios":"levelo://app?vid=1b0d6542-f74d-4dd5-b78b-1cd1115ff80b"},"vehicle_type_id":"4","last_reported":1740308849,"current_range_meters":10000,"station_id":"","pricing_plan_id":"cebpf4jnsgd1na2vs0mg"},{"bike_id":"4177e995-807d-40d8-9b40-d51883f9ac50","system_id":"levelo_inurba_marseille","lat":43.24665,"lon":5.38155,"is_reserved":false,"is_disabled":false,"rental_uris":{"android":"levelo://app?vid=4177e995-807d-40d8-9b40-d51883f9ac50","ios":"levelo://app?vid=4177e995-807d-40d8-9b40-d51883f9ac50"},"vehicle_type_id":"4","last_reported":1740308849,"current_range_meters":10000,"station_id":"ce4bhih2rcd13ifvqfr0","pricing_plan_id":"cebpf4jnsgd1na2vs0mg"},{"bike_id":"8dc51aab-29d3-43fa-a37e-6c47cc4c2e69","system_id":"levelo_inurba_marseille","lat":43.24161,"lon":5.36391,"is_reserved":false,"is_disabled":false,"rental_uris":{"android":"levelo://app?vid=8dc51aab-29d3-43fa-a37e-6c47cc4c2e69","ios":"levelo://app?vid=8dc51aab-29d3-43fa-a37e-6c47cc4c2e69"},"vehicle_type_id":"4","last_reported":1740308849,"current_range_meters":10800,"station_id":"cpo36qri1sfpv3e86is0","pricing_plan_id":"cebpf4jnsgd1na2vs0mg"},{"bike_id":"2e7bb708-5023-4450-86cb-e2e265576aa1","system_id":"levelo_inurba_marseille","lat":43.26801,"lon":5.40264,"is_reserved":false,"is_disabled":false,"rental_uris":{"android":"levelo://app?vid=2e7bb708-5023-4450-86cb-e2e265576aa1","ios":"levelo://app?vid=2e7bb708-5023-4450-86cb-e2e265576aa1"},"vehicle_type_id":"4","last_reported":1740308849,"current_range_meters":10800,"station_id":"ce501612rcd8frsf0b60","pricing_plan_id":"cebpf4jnsgd1na2vs0mg"},{"bike_id":"3fd2a98c-7939-498c-8625-9658300a849b","system_id":"levelo_inurba_marseille","lat":43.25928,"lon":5.40905,"is_reserved":false,"is_disabled":false,"rental_uris":{"android":"levelo://app?vid=3fd2a98c-7939-498c-8625-9658300a849b","ios":"levelo://app?vid=3fd2a98c-7939-498c-8625-9658300a849b"},"vehicle_type_id":"4","last_reported":1740308849,"current_range_meters":10800,"station_id":"ce4bhm92rcd13ifvqglg","pricing_plan_id":"cebpf4jnsgd1na2vs0mg"},{"bike_id":"c396fa84-c871-4546-85c3-45e8ee86c4ed","system_id":"levelo_inurba_marseille","lat":43.291969,"lon":5.393175,"is_reserved":false,"is_disabled":false,"rental_uris":{"android":"levelo://app?vid=c396fa84-c871-4546-85c3-45e8ee86c4ed","ios":"levelo://app?vid=c396fa84-c871-4546-85c3-45e8ee86c4ed"},"vehicle_type_id":"4","last_reported":1740308849,"current_range_meters":10800,"station_id":"ce4bh192rcd13ifvqdd0","pricing_plan_id":"cebpf4jnsgd1na2vs0mg"},{"bike_id":"1ccf745e-f1b6-4dc3-9209-1d7ba695f681","system_id":"levelo_inurba_marseille","lat":43.29258,"lon":5.37616,"is_reserved":false,"is_disabled":false,"rental_uris":{"android":"levelo://app?vid=1ccf745e-f1b6-4dc3-9209-1d7ba695f681","ios":"levelo://app?vid=1ccf745e-f1b6-4dc3-9209-1d7ba695f681"},"vehicle_type_id":"4","last_reported":1740308849,"current_range_meters":10800,"station_id":"ce4bgi12rcd13ifvqb80","pricing_plan_id":"cebpf4jnsgd1na2vs0mg"},{"bike_id":"80e30e07-59ff-4807-b06b-c6dc1a9e08e2","system_id":"levelo_inurba_marseille","lat":43.3361,"lon":5.41014,"is_reserved":false,"is_disabled":true,"rental_uris":{"android":"levelo://app?vid=80e30e07-59ff-4807-b06b-c6dc1a9e08e2","ios":"levelo://app?vid=80e30e07-59ff-4807-b06b-c6dc1a9e08e2"},"vehicle_type_id":"4","last_reported":1740308849,"current_range_meters":11200,"station_id":"ce4bhqh2rcd13ifvqhmg","pricing_plan_id":"cebpf4jnsgd1na2vs0mg"},{"bike_id":"095d5026-b6cb-411c-ab71-6c60703e2b2f","system_id":"levelo_inurba_marseille","lat":43.23067,"lon":5.35502,"is_reserved":false,"is_disabled":true,"rental_uris":{"android":"levelo://app?vid=095d5026-b6cb-411c-ab71-6c60703e2b2f","ios":"levelo://app?vid=095d5026-b6cb-411c-ab71-6c60703e2b2f"},"vehicle_type_id":"4","last_reported":1740308849,"current_range_meters":11200,"station_id":"cpo3342slgdg3j2ifvpg","pricing_plan_id":"cebpf4jnsgd1na2vs0mg"},{"bike_id":"7330758a-b186-4c5c-af68-65980e50c2ac","system_id":"levelo_inurba_marseille","lat":43.28037,"lon":5.3695,"is_reserved":false,"is_disabled":false,"rental_uris":{"android":"levelo://app?vid=7330758a-b186-4c5c-af68-65980e50c2ac","ios":"levelo://app?vid=7330758a-b186-4c5c-af68-65980e50c2ac"},"vehicle_type_id":"4","last_reported":1740308849,"current_range_meters":11200,"station_id":"ce4bha12rcd13ifvqef0","pricing_plan_id":"cebpf4jnsgd1na2vs0mg"},{"bike_id":"57634eff-9d9b-457b-819d-a0fb50ef511b","system_id":"levelo_inurba_marseille","lat":43.26676,"lon":5.38264,"is_reserved":false,"is_disabled":false,"rental_uris":{"android":"levelo://app?vid=57634eff-9d9b-457b-819d-a0fb50ef511b","ios":"levelo://app?vid=57634eff-9d9b-457b-819d-a0fb50ef511b"},"vehicle_type_id":"4","last_reported":1740308849,"current_range_meters":11200,"station_id":"ce4bhg92rcd13ifvqf90","pricing_plan_id":"cebpf4jnsgd1na2vs0mg"},{"bike_id":"fcdcac66-94a2-4ad9-ae78-35213b164ee1","system_id":"levelo_inurba_marseille","lat":43.29275,"lon":5.40119,"is_reserved":false,"is_disabled":false,"rental_uris":{"android":"levelo://app?vid=fcdcac66-94a2-4ad9-ae78-35213b164ee1","ios":"levelo://app?vid=fcdcac66-94a2-4ad9-ae78-35213b164ee1"},"vehicle_type_id":"4","last_reported":1740308849,"current_range_meters":11600,"station_id":"ce4bh312rcd13ifvqdk0","pricing_plan_id":"cebpf4jnsgd1na2vs0mg"},{"bike_id":"07e94c33-65a8-4be0-90bf-399fe126c10e","system_id":"levelo_inurba_marseille","lat":43.25038,"lon":5.38961,"is_reserved":false,"is_disabled":false,"rental_uris":{"android":"levelo://app?vid=07e94c33-65a8-4be0-90bf-399fe126c10e","ios":"levelo://app?vid=07e94c33-65a8-4be0-90bf-399fe126c10e"},"vehicle_type_id":"4","last_reported":1740308849,"current_range_meters":11600,"station_id":"","pricing_plan_id":"cebpf4jnsgd1na2vs0mg"},{"bike_id":"595cb27f-c551-4223-a595-754b68654f41","system_id":"levelo_inurba_marseille","lat":43.30555,"lon":5.36527,"is_reserved":false,"is_disabled":false,"rental_uris":{"android":"levelo://app?vid=595cb27f-c551-4223-a595-754b68654f41","ios":"levelo://app?vid=595cb27f-c551-4223-a595-754b68654f41"},"vehicle_type_id":"4","last_reported":1740308849,"current_range_meters":11600,"station_id":"ce4bgs12rcd13ifvqcag","pricing_plan_id":"cebpf4jnsgd1na2vs0mg"},{"bike_id":"e0c1d965-9bb5-48f6-93c4-81a00c3e7849","system_id":"levelo_inurba_marseille","lat":43.27071,"lon":5.42272,"is_reserved":false,"is_disabled":false,"rental_uris":{"android":"levelo://app?vid=e0c1d965-9bb5-48f6-93c4-81a00c3e7849","ios":"levelo://app?vid=e0c1d965-9bb5-48f6-93c4-81a00c3e7849"},"vehicle_type_id":"4","last_reported":1740308849,"current_range_meters":12000,"station_id":"ce4bhk92rcd13ifvqgb0","pricing_plan_id":"cebpf4jnsgd1na2vs0mg"},{"bike_id":"6e7453d3-b596-416f-a44e-21daef2820ad","system_id":"levelo_inurba_marseille","lat":43.25538,"lon":5.3818,"is_reserved":false,"is_disabled":false,"rental_uris":{"android":"levelo://app?vid=6e7453d3-b596-416f-a44e-21daef2820ad","ios":"levelo://app?vid=6e7453d3-b596-416f-a44e-21daef2820ad"},"vehicle_type_id":"4","last_reported":1740308849,"current_range_meters":12400,"station_id":"","pricing_plan_id":"cebpf4jnsgd1na2vs0mg"},{"bike_id":"e64ff07f-c2cf-4166-9163-32e5f1609d23","system_id":"levelo_inurba_marseille","lat":43.30649,"lon":5.4007,"is_reserved":false,"is_disabled":false,"rental_uris":{"android":"levelo://app?vid=e64ff07f-c2cf-4166-9163-32e5f1609d23","ios":"levelo://app?vid=e64ff07f-c2cf-4166-9163-32e5f1609d23"},"vehicle_type_id":"4","last_reported":1740308849,"current_range_meters":12400,"station_id":"ce4bh112rcd13ifvqda0","pricing_plan_id":"cebpf4jnsgd1na2vs0mg"},{"bike_id":"385d7307-e183-42a8-82a3-6bef8a311a76","system_id":"levelo_inurba_marseille","lat":43.27404,"lon":5.39374,"is_reserved":false,"is_disabled":false,"rental_uris":{"android":"levelo://app?vid=385d7307-e183-42a8-82a3-6bef8a311a76","ios":"levelo://app?vid=385d7307-e183-42a8-82a3-6bef8a311a76"},"vehicle_type_id":"4","last_reported":1740308849,"current_range_meters":12400,"station_id":"ce4bhdp2rcd13ifvqf20","pricing_plan_id":"cebpf4jnsgd1na2vs0mg"},{"bike_id":"1b218dd3-cbf0-4126-858c-bdfc514e6cf8","system_id":"levelo_inurba_marseille","lat":43.30304,"lon":5.36915,"is_reserved":false,"is_disabled":false,"rental_uris":{"android":"levelo://app?vid=1b218dd3-cbf0-4126-858c-bdfc514e6cf8","ios":"levelo://app?vid=1b218dd3-cbf0-4126-858c-bdfc514e6cf8"},"vehicle_type_id":"4","last_reported":1740308849,"current_range_meters":12400,"station_id":"ce4bgqh2rcd13ifvqc5g","pricing_plan_id":"cebpf4jnsgd1na2vs0mg"},{"bike_id":"6cee15f5-f5b0-4f78-80d2-62dd5deb5a0a","system_id":"levelo_inurba_marseille","lat":43.26574,"lon":5.39029,"is_reserved":false,"is_disabled":false,"rental_uris":{"android":"levelo://app?vid=6cee15f5-f5b0-4f78-80d2-62dd5deb5a0a","ios":"levelo://app?vid=6cee15f5-f5b0-4f78-80d2-62dd5deb5a0a"},"vehicle_type_id":"4","last_reported":1740308849,"current_range_meters":12800,"station_id":"ce4bhe12rcd13ifvqf30","pricing_plan_id":"cebpf4jnsgd1na2vs0mg"},{"bike_id":"47c58b1f-0f04-4a95-ba73-4d794abee5f2","system_id":"levelo_inurba_marseille","lat":43.30445,"lon":5.38906,"is_reserved":false,"is_disabled":true,"rental_uris":{"android":"levelo://app?vid=47c58b1f-0f04-4a95-ba73-4d794abee5f2","ios":"levelo://app?vid=47c58b1f-0f04-4a95-ba73-4d794abee5f2"},"vehicle_type_id":"4","last_reported":1740308849,"current_range_meters":13600,"station_id":"ce4bgk12rcd13ifvqbi0","pricing_plan_id":"cebpf4jnsgd1na2vs0mg"},{"bike_id":"db34a549-fda4-44fe-a627-6e220f75d9a6","system_id":"levelo_inurba_marseille","lat":43.24172,"lon":5.39744,"is_reserved":false,"is_disabled":false,"rental_uris":{"android":"levelo://app?vid=db34a549-fda4-44fe-a627-6e220f75d9a6","ios":"levelo://app?vid=db34a549-fda4-44fe-a627-6e220f75d9a6"},"vehicle_type_id":"4","last_reported":1740308849,"current_range_meters":13600,"station_id":"ce4bhn12rcd13ifvqgpg","pricing_plan_id":"cebpf4jnsgd1na2vs0mg"},{"bike_id":"e636832d-d31d-492b-9bcd-b899a106503d","system_id":"levelo_inurba_marseille","lat":43.24162,"lon":5.36416,"is_reserved":false,"is_disabled":false,"rental_uris":{"android":"levelo://app?vid=e636832d-d31d-492b-9bcd-b899a106503d","ios":"levelo://app?vid=e636832d-d31d-492b-9bcd-b899a106503d"},"vehicle_type_id":"4","last_reported":1740308849,"current_range_meters":13600,"station_id":"cpo36qri1sfpv3e86is0","pricing_plan_id":"cebpf4jnsgd1na2vs0mg"},{"bike_id":"ab7da9df-c7ed-482b-9961-43b5cca3e34b","system_id":"levelo_inurba_marseille","lat":43.31116,"lon":5.37789,"is_reserved":false,"is_disabled":true,"rental_uris":{"android":"levelo://app?vid=ab7da9df-c7ed-482b-9961-43b5cca3e34b","ios":"levelo://app?vid=ab7da9df-c7ed-482b-9961-43b5cca3e34b"},"vehicle_type_id":"4","last_reported":1740308849,"current_range_meters":13600,"station_id":"ce4bgt92rcd13ifvqcg0","pricing_plan_id":"cebpf4jnsgd1na2vs0mg"},{"bike_id":"2bdc35be-c87d-4858-a812-b27d436edeb5","system_id":"levelo_inurba_marseille","lat":43.28293,"lon":5.35066,"is_reserved":false,"is_disabled":false,"rental_uris":{"android":"levelo://app?vid=2bdc35be-c87d-4858-a812-b27d436edeb5","ios":"levelo://app?vid=2bdc35be-c87d-4858-a812-b27d436edeb5"},"vehicle_type_id":"4","last_reported":1740308849,"current_range_meters":13600,"station_id":"ce4bhbp2rcd13ifvqerg","pricing_plan_id":"cebpf4jnsgd1na2vs0mg"},{"bike_id":"e501be99-a171-4e91-9e5b-ac547e4c06f2","system_id":"levelo_inurba_marseille","lat":43.2319,"lon":5.35537,"is_reserved":false,"is_disabled":false,"rental_uris":{"android":"levelo://app?vid=e501be99-a171-4e91-9e5b-ac547e4c06f2","ios":"levelo://app?vid=e501be99-a171-4e91-9e5b-ac547e4c06f2"},"vehicle_type_id":"4","last_reported":1740308849,"current_range_meters":13600,"station_id":"ce4bhu92rcd13ifvqi70","pricing_plan_id":"cebpf4jnsgd1na2vs0mg"},{"bike_id":"a3610751-bbe4-4d3e-a717-1a0eebd2fb2a","system_id":"levelo_inurba_marseille","lat":43.30707,"lon":5.37539,"is_reserved":false,"is_disabled":false,"rental_uris":{"android":"levelo://app?vid=a3610751-bbe4-4d3e-a717-1a0eebd2fb2a","ios":"levelo://app?vid=a3610751-bbe4-4d3e-a717-1a0eebd2fb2a"},"vehicle_type_id":"4","last_reported":1740308849,"current_range_meters":13600,"station_id":"","pricing_plan_id":"cebpf4jnsgd1na2vs0mg"},{"bike_id":"e47a31df-7e40-45c7-9055-0a967984bc80","system_id":"levelo_inurba_marseille","lat":43.29845,"lon":5.36269,"is_reserved":false,"is_disabled":false,"rental_uris":{"android":"levelo://app?vid=e47a31df-7e40-45c7-9055-0a967984bc80","ios":"levelo://app?vid=e47a31df-7e40-45c7-9055-0a967984bc80"},"vehicle_type_id":"4","last_reported":1740308849,"current_range_meters":14000,"station_id":"ce4bgpp2rcd13ifvqc3g","pricing_plan_id":"cebpf4jnsgd1na2vs0mg"},{"bike_id":"855caca9-cd59-4c97-ad51-a64e28ee341f","system_id":"levelo_inurba_marseille","lat":43.308806,"lon":5.396451,"is_reserved":false,"is_disabled":true,"rental_uris":{"android":"levelo://app?vid=855caca9-cd59-4c97-ad51-a64e28ee341f","ios":"levelo://app?vid=855caca9-cd59-4c97-ad51-a64e28ee341f"},"vehicle_type_id":"4","last_reported":1740308849,"current_range_meters":14000,"station_id":"ce4bh012rcd13ifvqcv0","pricing_plan_id":"cebpf4jnsgd1na2vs0mg"},{"bike_id":"7e68d2dc-c00f-4e58-8247-38224da8b835","system_id":"levelo_inurba_marseille","lat":43.231529,"lon":5.437196,"is_reserved":false,"is_disabled":false,"rental_uris":{"android":"levelo://app?vid=7e68d2dc-c00f-4e58-8247-38224da8b835","ios":"levelo://app?vid=7e68d2dc-c00f-4e58-8247-38224da8b835"},"vehicle_type_id":"4","last_reported":1740308849,"current_range_meters":14000,"station_id":"ce4bhmp2rcd13ifvqgog","pricing_plan_id":"cebpf4jnsgd1na2vs0mg"},{"bike_id":"4caf490d-10e5-4073-8dae-a68a285775aa","system_id":"levelo_inurba_marseille","lat":43.24389,"lon":5.37049,"is_reserved":false,"is_disabled":false,"rental_uris":{"android":"levelo://app?vid=4caf490d-10e5-4073-8dae-a68a285775aa","ios":"levelo://app?vid=4caf490d-10e5-4073-8dae-a68a285775aa"},"vehicle_type_id":"4","last_reported":1740308849,"current_range_meters":14400,"station_id":"ce4bhhh2rcd13ifvqfk0","pricing_plan_id":"cebpf4jnsgd1na2vs0mg"},{"bike_id":"81794103-8d6e-48cf-b9b6-8758dc157431","system_id":"levelo_inurba_marseille","lat":43.28373,"lon":5.38622,"is_reserved":false,"is_disabled":false,"rental_uris":{"android":"levelo://app?vid=81794103-8d6e-48cf-b9b6-8758dc157431","ios":"levelo://app?vid=81794103-8d6e-48cf-b9b6-8758dc157431"},"vehicle_type_id":"4","last_reported":1740308849,"current_range_meters":14000,"station_id":"ce4bh492rcd13ifvqdvg","pricing_plan_id":"cebpf4jnsgd1na2vs0mg"},{"bike_id":"6e15618d-4d2d-4cdc-9d90-2b87c6806ce4","system_id":"levelo_inurba_marseille","lat":43.2718,"lon":5.40996,"is_reserved":false,"is_disabled":false,"rental_uris":{"android":"levelo://app?vid=6e15618d-4d2d-4cdc-9d90-2b87c6806ce4","ios":"levelo://app?vid=6e15618d-4d2d-4cdc-9d90-2b87c6806ce4"},"vehicle_type_id":"4","last_reported":1740308849,"current_range_meters":14400,"station_id":"ce4bhl12rcd13ifvqgf0","pricing_plan_id":"cebpf4jnsgd1na2vs0mg"},{"bike_id":"5e360339-1ec7-42b8-9557-61b0e1ea6f97","system_id":"levelo_inurba_marseille","lat":43.30357,"lon":5.41871,"is_reserved":false,"is_disabled":false,"rental_uris":{"android":"levelo://app?vid=5e360339-1ec7-42b8-9557-61b0e1ea6f97","ios":"levelo://app?vid=5e360339-1ec7-42b8-9557-61b0e1ea6f97"},"vehicle_type_id":"4","last_reported":1740308849,"current_range_meters":14400,"station_id":"ce4bhop2rcd13ifvqh7g","pricing_plan_id":"cebpf4jnsgd1na2vs0mg"},{"bike_id":"c8ef4e11-5fe0-4deb-aff6-bfa0e903adb7","system_id":"levelo_inurba_marseille","lat":43.26676,"lon":5.38268,"is_reserved":false,"is_disabled":false,"rental_uris":{"android":"levelo://app?vid=c8ef4e11-5fe0-4deb-aff6-bfa0e903adb7","ios":"levelo://app?vid=c8ef4e11-5fe0-4deb-aff6-bfa0e903adb7"},"vehicle_type_id":"4","last_reported":1740308849,"current_range_meters":14400,"station_id":"ce4bhg92rcd13ifvqf90","pricing_plan_id":"cebpf4jnsgd1na2vs0mg"},{"bike_id":"6efd5f7f-d79b-463c-8c97-119a5a9c4ec9","system_id":"levelo_inurba_marseille","lat":43.28615,"lon":5.35106,"is_reserved":false,"is_disabled":false,"rental_uris":{"android":"levelo://app?vid=6efd5f7f-d79b-463c-8c97-119a5a9c4ec9","ios":"levelo://app?vid=6efd5f7f-d79b-463c-8c97-119a5a9c4ec9"},"vehicle_type_id":"4","last_reported":1740308849,"current_range_meters":14800,"station_id":"ce4bhch2rcd13ifvqeug","pricing_plan_id":"cebpf4jnsgd1na2vs0mg"},{"bike_id":"0e17628e-77f1-4b2d-9900-e51a8c9f0181","system_id":"levelo_inurba_marseille","lat":43.288759,"lon":5.449889,"is_reserved":false,"is_disabled":false,"rental_uris":{"android":"levelo://app?vid=0e17628e-77f1-4b2d-9900-e51a8c9f0181","ios":"levelo://app?vid=0e17628e-77f1-4b2d-9900-e51a8c9f0181"},"vehicle_type_id":"4","last_reported":1740308849,"current_range_meters":14800,"station_id":"","pricing_plan_id":"cebpf4jnsgd1na2vs0mg"},{"bike_id":"3a65e98c-6fc0-442b-97a2-ccd814e231ae","system_id":"levelo_inurba_marseille","lat":43.24071,"lon":5.37762,"is_reserved":false,"is_disabled":false,"rental_uris":{"android":"levelo://app?vid=3a65e98c-6fc0-442b-97a2-ccd814e231ae","ios":"levelo://app?vid=3a65e98c-6fc0-442b-97a2-ccd814e231ae"},"vehicle_type_id":"4","last_reported":1740308849,"current_range_meters":14800,"station_id":"ce4bhnp2rcd13ifvqgvg","pricing_plan_id":"cebpf4jnsgd1na2vs0mg"},{"bike_id":"9fdc5228-e835-4793-ad30-e5834cfd975b","system_id":"levelo_inurba_marseille","lat":43.2586,"lon":5.39904,"is_reserved":false,"is_disabled":false,"rental_uris":{"android":"levelo://app?vid=9fdc5228-e835-4793-ad30-e5834cfd975b","ios":"levelo://app?vid=9fdc5228-e835-4793-ad30-e5834cfd975b"},"vehicle_type_id":"4","last_reported":1740308849,"current_range_meters":14800,"station_id":"ce4bhl92rcd13ifvqghg","pricing_plan_id":"cebpf4jnsgd1na2vs0mg"},{"bike_id":"24371844-0388-4325-bd72-54e6291e85e8","system_id":"levelo_inurba_marseille","lat":43.2762,"lon":5.36126,"is_reserved":false,"is_disabled":false,"rental_uris":{"android":"levelo://app?vid=24371844-0388-4325-bd72-54e6291e85e8","ios":"levelo://app?vid=24371844-0388-4325-bd72-54e6291e85e8"},"vehicle_type_id":"4","last_reported":1740308849,"current_range_meters":14800,"station_id":"ce4bgj92rcd13ifvqbe0","pricing_plan_id":"cebpf4jnsgd1na2vs0mg"},{"bike_id":"94d81672-f077-455d-ad5d-d4332136c2a8","system_id":"levelo_inurba_marseille","lat":43.22893,"lon":5.35409,"is_reserved":false,"is_disabled":false,"rental_uris":{"android":"levelo://app?vid=94d81672-f077-455d-ad5d-d4332136c2a8","ios":"levelo://app?vid=94d81672-f077-455d-ad5d-d4332136c2a8"},"vehicle_type_id":"4","last_reported":1740308849,"current_range_meters":15200,"station_id":"cpo3532slgdg3j2ikp40","pricing_plan_id":"cebpf4jnsgd1na2vs0mg"},{"bike_id":"9faf844a-413f-419f-bdea-64830f7f2bfb","system_id":"levelo_inurba_marseille","lat":43.29938,"lon":5.3793,"is_reserved":false,"is_disabled":false,"rental_uris":{"android":"levelo://app?vid=9faf844a-413f-419f-bdea-64830f7f2bfb","ios":"levelo://app?vid=9faf844a-413f-419f-bdea-64830f7f2bfb"},"vehicle_type_id":"4","last_reported":1740308849,"current_range_meters":15200,"station_id":"","pricing_plan_id":"cebpf4jnsgd1na2vs0mg"},{"bike_id":"d11f8e8f-64ba-4e30-9bb1-e71abe31654c","system_id":"levelo_inurba_marseille","lat":43.30315,"lon":5.36883,"is_reserved":false,"is_disabled":false,"rental_uris":{"android":"levelo://app?vid=d11f8e8f-64ba-4e30-9bb1-e71abe31654c","ios":"levelo://app?vid=d11f8e8f-64ba-4e30-9bb1-e71abe31654c"},"vehicle_type_id":"4","last_reported":1740308849,"current_range_meters":15200,"station_id":"ce4bgqh2rcd13ifvqc5g","pricing_plan_id":"cebpf4jnsgd1na2vs0mg"},{"bike_id":"35f7fe5f-b05d-405c-a155-dda0758733e2","system_id":"levelo_inurba_marseille","lat":43.28166,"lon":5.42625,"is_reserved":false,"is_disabled":true,"rental_uris":{"android":"levelo://app?vid=35f7fe5f-b05d-405c-a155-dda0758733e2","ios":"levelo://app?vid=35f7fe5f-b05d-405c-a155-dda0758733e2"},"vehicle_type_id":"4","last_reported":1740308849,"current_range_meters":15200,"station_id":"ce4bhnh2rcd13ifvqgug","pricing_plan_id":"cebpf4jnsgd1na2vs0mg"},{"bike_id":"d32e8744-fd12-4612-88e2-5c93407430f0","system_id":"levelo_inurba_marseille","lat":43.30549,"lon":5.36535,"is_reserved":false,"is_disabled":false,"rental_uris":{"android":"levelo://app?vid=d32e8744-fd12-4612-88e2-5c93407430f0","ios":"levelo://app?vid=d32e8744-fd12-4612-88e2-5c93407430f0"},"vehicle_type_id":"4","last_reported":1740308849,"current_range_meters":16000,"station_id":"ce4bgs12rcd13ifvqcag","pricing_plan_id":"cebpf4jnsgd1na2vs0mg"},{"bike_id":"4fd90cf5-0719-47d5-a493-0ca6596204e5","system_id":"levelo_inurba_marseille","lat":43.27999,"lon":5.41655,"is_reserved":false,"is_disabled":false,"rental_uris":{"android":"levelo://app?vid=4fd90cf5-0719-47d5-a493-0ca6596204e5","ios":"levelo://app?vid=4fd90cf5-0719-47d5-a493-0ca6596204e5"},"vehicle_type_id":"4","last_reported":1740308849,"current_range_meters":16000,"station_id":"ce4bho12rcd13ifvqh1g","pricing_plan_id":"cebpf4jnsgd1na2vs0mg"},{"bike_id":"679760c1-e05f-4aa6-b58b-9eda9299c78c","system_id":"levelo_inurba_marseille","lat":43.26773,"lon":5.39418,"is_reserved":false,"is_disabled":false,"rental_uris":{"android":"levelo://app?vid=679760c1-e05f-4aa6-b58b-9eda9299c78c","ios":"levelo://app?vid=679760c1-e05f-4aa6-b58b-9eda9299c78c"},"vehicle_type_id":"4","last_reported":1740308849,"current_range_meters":16000,"station_id":"ce4bhh12rcd13ifvqfg0","pricing_plan_id":"cebpf4jnsgd1na2vs0mg"},{"bike_id":"85b5bbcd-7da2-4232-8e5a-a25680dad453","system_id":"levelo_inurba_marseille","lat":43.23954,"lon":5.36655,"is_reserved":false,"is_disabled":false,"rental_uris":{"android":"levelo://app?vid=85b5bbcd-7da2-4232-8e5a-a25680dad453","ios":"levelo://app?vid=85b5bbcd-7da2-4232-8e5a-a25680dad453"},"vehicle_type_id":"4","last_reported":1740308849,"current_range_meters":16000,"station_id":"ce4bhi12rcd13ifvqfp0","pricing_plan_id":"cebpf4jnsgd1na2vs0mg"},{"bike_id":"23594a72-7f9f-4bbf-9733-72344f95fca1","system_id":"levelo_inurba_marseille","lat":43.30646,"lon":5.40106,"is_reserved":false,"is_disabled":false,"rental_uris":{"android":"levelo://app?vid=23594a72-7f9f-4bbf-9733-72344f95fca1","ios":"levelo://app?vid=23594a72-7f9f-4bbf-9733-72344f95fca1"},"vehicle_type_id":"4","last_reported":1740308849,"current_range_meters":16000,"station_id":"ce4bh112rcd13ifvqda0","pricing_plan_id":"cebpf4jnsgd1na2vs0mg"},{"bike_id":"faeb2e28-4e2f-4cbb-aea8-2733d5daab0d","system_id":"levelo_inurba_marseille","lat":43.28699,"lon":5.373924,"is_reserved":false,"is_disabled":false,"rental_uris":{"android":"levelo://app?vid=faeb2e28-4e2f-4cbb-aea8-2733d5daab0d","ios":"levelo://app?vid=faeb2e28-4e2f-4cbb-aea8-2733d5daab0d"},"vehicle_type_id":"4","last_reported":1740308849,"current_range_meters":16000,"station_id":"ce4bh3p2rcd13ifvqdq0","pricing_plan_id":"cebpf4jnsgd1na2vs0mg"},{"bike_id":"065264ea-78a5-4bde-b253-83b311c1f12e","system_id":"levelo_inurba_marseille","lat":43.291923,"lon":5.393249,"is_reserved":false,"is_disabled":false,"rental_uris":{"android":"levelo://app?vid=065264ea-78a5-4bde-b253-83b311c1f12e","ios":"levelo://app?vid=065264ea-78a5-4bde-b253-83b311c1f12e"},"vehicle_type_id":"4","last_reported":1740308849,"current_range_meters":16000,"station_id":"ce4bh192rcd13ifvqdd0","pricing_plan_id":"cebpf4jnsgd1na2vs0mg"},{"bike_id":"6d3a28fb-ad8e-4099-ab7e-2f1842cf0da6","system_id":"levelo_inurba_marseille","lat":43.319978,"lon":5.381578,"is_reserved":false,"is_disabled":false,"rental_uris":{"android":"levelo://app?vid=6d3a28fb-ad8e-4099-ab7e-2f1842cf0da6","ios":"levelo://app?vid=6d3a28fb-ad8e-4099-ab7e-2f1842cf0da6"},"vehicle_type_id":"4","last_reported":1740308849,"current_range_meters":16400,"station_id":"ce4bhr12rcd13ifvqhpg","pricing_plan_id":"cebpf4jnsgd1na2vs0mg"},{"bike_id":"74157aef-a346-4e2f-a1a5-509505ceba28","system_id":"levelo_inurba_marseille","lat":43.27366,"lon":5.3626,"is_reserved":false,"is_disabled":false,"rental_uris":{"android":"levelo://app?vid=74157aef-a346-4e2f-a1a5-509505ceba28","ios":"levelo://app?vid=74157aef-a346-4e2f-a1a5-509505ceba28"},"vehicle_type_id":"4","last_reported":1740308849,"current_range_meters":16400,"station_id":"ce4bhbh2rcd13ifvqeo0","pricing_plan_id":"cebpf4jnsgd1na2vs0mg"},{"bike_id":"5e293833-6cbb-40f3-985d-e0fda3477507","system_id":"levelo_inurba_marseille","lat":43.31115,"lon":5.3778,"is_reserved":false,"is_disabled":false,"rental_uris":{"android":"levelo://app?vid=5e293833-6cbb-40f3-985d-e0fda3477507","ios":"levelo://app?vid=5e293833-6cbb-40f3-985d-e0fda3477507"},"vehicle_type_id":"4","last_reported":1740308849,"current_range_meters":16400,"station_id":"ce4bgt92rcd13ifvqcg0","pricing_plan_id":"cebpf4jnsgd1na2vs0mg"},{"bike_id":"04d2baed-6020-49da-a94e-5cd3cc1cd370","system_id":"levelo_inurba_marseille","lat":43.25837,"lon":5.39425,"is_reserved":false,"is_disabled":false,"rental_uris":{"android":"levelo://app?vid=04d2baed-6020-49da-a94e-5cd3cc1cd370","ios":"levelo://app?vid=04d2baed-6020-49da-a94e-5cd3cc1cd370"},"vehicle_type_id":"4","last_reported":1740308849,"current_range_meters":16400,"station_id":"ce4bhip2rcd13ifvqft0","pricing_plan_id":"cebpf4jnsgd1na2vs0mg"},{"bike_id":"68c1cb49-7da1-4934-a025-4e78e338d091","system_id":"levelo_inurba_marseille","lat":43.337638,"lon":5.374412,"is_reserved":false,"is_disabled":false,"rental_uris":{"android":"levelo://app?vid=68c1cb49-7da1-4934-a025-4e78e338d091","ios":"levelo://app?vid=68c1cb49-7da1-4934-a025-4e78e338d091"},"vehicle_type_id":"4","last_reported":1740308849,"current_range_meters":16400,"station_id":"","pricing_plan_id":"cebpf4jnsgd1na2vs0mg"},{"bike_id":"61208316-9308-4988-99f7-5ead4f0f4c93","system_id":"levelo_inurba_marseille","lat":43.23195,"lon":5.35546,"is_reserved":false,"is_disabled":false,"rental_uris":{"android":"levelo://app?vid=61208316-9308-4988-99f7-5ead4f0f4c93","ios":"levelo://app?vid=61208316-9308-4988-99f7-5ead4f0f4c93"},"vehicle_type_id":"4","last_reported":1740308849,"current_range_meters":16400,"station_id":"ce4bhu92rcd13ifvqi70","pricing_plan_id":"cebpf4jnsgd1na2vs0mg"},{"bike_id":"45fb24fd-97c0-4da8-b3a6-d3651ebff086","system_id":"levelo_inurba_marseille","lat":43.31253,"lon":5.40175,"is_reserved":false,"is_disabled":false,"rental_uris":{"android":"levelo://app?vid=45fb24fd-97c0-4da8-b3a6-d3651ebff086","ios":"levelo://app?vid=45fb24fd-97c0-4da8-b3a6-d3651ebff086"},"vehicle_type_id":"4","last_reported":1740308849,"current_range_meters":16800,"station_id":"ce4bh092rcd13ifvqd30","pricing_plan_id":"cebpf4jnsgd1na2vs0mg"},{"bike_id":"cfa146d7-3f1d-4672-9e69-e4bd8a012504","system_id":"levelo_inurba_marseille","lat":43.27373,"lon":5.36259,"is_reserved":false,"is_disabled":false,"rental_uris":{"android":"levelo://app?vid=cfa146d7-3f1d-4672-9e69-e4bd8a012504","ios":"levelo://app?vid=cfa146d7-3f1d-4672-9e69-e4bd8a012504"},"vehicle_type_id":"4","last_reported":1740308849,"current_range_meters":16800,"station_id":"ce4bhbh2rcd13ifvqeo0","pricing_plan_id":"cebpf4jnsgd1na2vs0mg"},{"bike_id":"87ab73e3-3fc0-4c5c-92c8-3a2e3e3751d4","system_id":"levelo_inurba_marseille","lat":43.28422,"lon":5.375,"is_reserved":false,"is_disabled":false,"rental_uris":{"android":"levelo://app?vid=87ab73e3-3fc0-4c5c-92c8-3a2e3e3751d4","ios":"levelo://app?vid=87ab73e3-3fc0-4c5c-92c8-3a2e3e3751d4"},"vehicle_type_id":"4","last_reported":1740308849,"current_range_meters":16800,"station_id":"ce4bh412rcd13ifvqds0","pricing_plan_id":"cebpf4jnsgd1na2vs0mg"},{"bike_id":"48dc272f-0a9b-4c4a-9c57-965b277c24be","system_id":"levelo_inurba_marseille","lat":43.30538,"lon":5.36558,"is_reserved":false,"is_disabled":false,"rental_uris":{"android":"levelo://app?vid=48dc272f-0a9b-4c4a-9c57-965b277c24be","ios":"levelo://app?vid=48dc272f-0a9b-4c4a-9c57-965b277c24be"},"vehicle_type_id":"4","last_reported":1740308849,"current_range_meters":16800,"station_id":"ce4bgs12rcd13ifvqcag","pricing_plan_id":"cebpf4jnsgd1na2vs0mg"},{"bike_id":"e672cd00-72b0-400a-8535-9ab04e4611c6","system_id":"levelo_inurba_marseille","lat":43.24383,"lon":5.37096,"is_reserved":false,"is_disabled":false,"rental_uris":{"android":"levelo://app?vid=e672cd00-72b0-400a-8535-9ab04e4611c6","ios":"levelo://app?vid=e672cd00-72b0-400a-8535-9ab04e4611c6"},"vehicle_type_id":"4","last_reported":1740308849,"current_range_meters":16800,"station_id":"ce4bhhh2rcd13ifvqfk0","pricing_plan_id":"cebpf4jnsgd1na2vs0mg"},{"bike_id":"fc93a0cd-d658-4fe7-9e6a-52a49333f268","system_id":"levelo_inurba_marseille","lat":43.30821,"lon":5.38191,"is_reserved":false,"is_disabled":false,"rental_uris":{"android":"levelo://app?vid=fc93a0cd-d658-4fe7-9e6a-52a49333f268","ios":"levelo://app?vid=fc93a0cd-d658-4fe7-9e6a-52a49333f268"},"vehicle_type_id":"4","last_reported":1740308849,"current_range_meters":16800,"station_id":"ce4bgt12rcd13ifvqce0","pricing_plan_id":"cebpf4jnsgd1na2vs0mg"},{"bike_id":"3c81ac4f-dec7-4f72-8468-5559c32da46d","system_id":"levelo_inurba_marseille","lat":43.29894,"lon":5.43669,"is_reserved":false,"is_disabled":false,"rental_uris":{"android":"levelo://app?vid=3c81ac4f-dec7-4f72-8468-5559c32da46d","ios":"levelo://app?vid=3c81ac4f-dec7-4f72-8468-5559c32da46d"},"vehicle_type_id":"4","last_reported":1740308849,"current_range_meters":17200,"station_id":"ce4bhpp2rcd13ifvqhfg","pricing_plan_id":"cebpf4jnsgd1na2vs0mg"},{"bike_id":"6a707a97-1fec-4e66-8e2f-ab0523ee1a0e","system_id":"levelo_inurba_marseille","lat":43.25,"lon":5.38927,"is_reserved":false,"is_disabled":false,"rental_uris":{"android":"levelo://app?vid=6a707a97-1fec-4e66-8e2f-ab0523ee1a0e","ios":"levelo://app?vid=6a707a97-1fec-4e66-8e2f-ab0523ee1a0e"},"vehicle_type_id":"4","last_reported":1740308849,"current_range_meters":17200,"station_id":"ce4bhgp2rcd13ifvqfd0","pricing_plan_id":"cebpf4jnsgd1na2vs0mg"},{"bike_id":"51c7c09f-82e9-4a4b-a201-54869c0fba8f","system_id":"levelo_inurba_marseille","lat":43.25083,"lon":5.39516,"is_reserved":false,"is_disabled":true,"rental_uris":{"android":"levelo://app?vid=51c7c09f-82e9-4a4b-a201-54869c0fba8f","ios":"levelo://app?vid=51c7c09f-82e9-4a4b-a201-54869c0fba8f"},"vehicle_type_id":"4","last_reported":1740308849,"current_range_meters":17200,"station_id":"ce4bhm12rcd13ifvqgkg","pricing_plan_id":"cebpf4jnsgd1na2vs0mg"},{"bike_id":"18119c42-8b9c-4f54-846c-3af8f872ca80","system_id":"levelo_inurba_marseille","lat":43.28718,"lon":5.36096,"is_reserved":false,"is_disabled":false,"rental_uris":{"android":"levelo://app?vid=18119c42-8b9c-4f54-846c-3af8f872ca80","ios":"levelo://app?vid=18119c42-8b9c-4f54-846c-3af8f872ca80"},"vehicle_type_id":"4","last_reported":1740308849,"current_range_meters":17200,"station_id":"cki0cbj6b192h4jlfktg","pricing_plan_id":"cebpf4jnsgd1na2vs0mg"},{"bike_id":"8e5d8ee8-3ab6-431c-8183-aaf067d6c91b","system_id":"levelo_inurba_marseille","lat":43.25,"lon":5.38929,"is_reserved":false,"is_disabled":false,"rental_uris":{"android":"levelo://app?vid=8e5d8ee8-3ab6-431c-8183-aaf067d6c91b","ios":"levelo://app?vid=8e5d8ee8-3ab6-431c-8183-aaf067d6c91b"},"vehicle_type_id":"4","last_reported":1740308849,"current_range_meters":17200,"station_id":"ce4bhgp2rcd13ifvqfd0","pricing_plan_id":"cebpf4jnsgd1na2vs0mg"},{"bike_id":"ee82f77f-f9d3-4009-b8ec-39bce07c2f58","system_id":"levelo_inurba_marseille","lat":43.27497,"lon":5.42452,"is_reserved":false,"is_disabled":false,"rental_uris":{"android":"levelo://app?vid=ee82f77f-f9d3-4009-b8ec-39bce07c2f58","ios":"levelo://app?vid=ee82f77f-f9d3-4009-b8ec-39bce07c2f58"},"vehicle_type_id":"4","last_reported":1740308849,"current_range_meters":17200,"station_id":"ce4bhn92rcd13ifvqgrg","pricing_plan_id":"cebpf4jnsgd1na2vs0mg"},{"bike_id":"ec12a65c-843c-4fd5-9689-c9a4557a3748","system_id":"levelo_inurba_marseille","lat":43.27071,"lon":5.4228,"is_reserved":false,"is_disabled":false,"rental_uris":{"android":"levelo://app?vid=ec12a65c-843c-4fd5-9689-c9a4557a3748","ios":"levelo://app?vid=ec12a65c-843c-4fd5-9689-c9a4557a3748"},"vehicle_type_id":"4","last_reported":1740308849,"current_range_meters":17200,"station_id":"ce4bhk92rcd13ifvqgb0","pricing_plan_id":"cebpf4jnsgd1na2vs0mg"},{"bike_id":"10ef97ed-34d8-4649-924a-f68e48b166be","system_id":"levelo_inurba_marseille","lat":43.26221,"lon":5.40444,"is_reserved":false,"is_disabled":false,"rental_uris":{"android":"levelo://app?vid=10ef97ed-34d8-4649-924a-f68e48b166be","ios":"levelo://app?vid=10ef97ed-34d8-4649-924a-f68e48b166be"},"vehicle_type_id":"4","last_reported":1740308849,"current_range_meters":17200,"station_id":"ce4bhmh2rcd13ifvqgmg","pricing_plan_id":"cebpf4jnsgd1na2vs0mg"},{"bike_id":"980588cb-aa59-436a-9bc0-01f90b14b9b4","system_id":"levelo_inurba_marseille","lat":43.24158,"lon":5.36395,"is_reserved":false,"is_disabled":false,"rental_uris":{"android":"levelo://app?vid=980588cb-aa59-436a-9bc0-01f90b14b9b4","ios":"levelo://app?vid=980588cb-aa59-436a-9bc0-01f90b14b9b4"},"vehicle_type_id":"4","last_reported":1740308849,"current_range_meters":17600,"station_id":"cpo36qri1sfpv3e86is0","pricing_plan_id":"cebpf4jnsgd1na2vs0mg"},{"bike_id":"8537b7da-c72e-47bf-aa31-12e1fd582d4c","system_id":"levelo_inurba_marseille","lat":43.33029,"lon":5.39034,"is_reserved":false,"is_disabled":false,"rental_uris":{"android":"levelo://app?vid=8537b7da-c72e-47bf-aa31-12e1fd582d4c","ios":"levelo://app?vid=8537b7da-c72e-47bf-aa31-12e1fd582d4c"},"vehicle_type_id":"4","last_reported":1740308849,"current_range_meters":17200,"station_id":"ce4bhr92rcd13ifvqhrg","pricing_plan_id":"cebpf4jnsgd1na2vs0mg"},{"bike_id":"87c93845-143c-4613-9a0d-08836448a26d","system_id":"levelo_inurba_marseille","lat":43.23957,"lon":5.36639,"is_reserved":false,"is_disabled":false,"rental_uris":{"android":"levelo://app?vid=87c93845-143c-4613-9a0d-08836448a26d","ios":"levelo://app?vid=87c93845-143c-4613-9a0d-08836448a26d"},"vehicle_type_id":"4","last_reported":1740308849,"current_range_meters":17600,"station_id":"ce4bhi12rcd13ifvqfp0","pricing_plan_id":"cebpf4jnsgd1na2vs0mg"},{"bike_id":"c74af51f-e8b0-454b-9ffe-08da9beb30bd","system_id":"levelo_inurba_marseille","lat":43.27923,"lon":5.3959,"is_reserved":false,"is_disabled":false,"rental_uris":{"android":"levelo://app?vid=c74af51f-e8b0-454b-9ffe-08da9beb30bd","ios":"levelo://app?vid=c74af51f-e8b0-454b-9ffe-08da9beb30bd"},"vehicle_type_id":"4","last_reported":1740308849,"current_range_meters":17600,"station_id":"ce4bhf92rcd13ifvqf40","pricing_plan_id":"cebpf4jnsgd1na2vs0mg"},{"bike_id":"1f724299-518e-43e9-b32e-7282b81b7214","system_id":"levelo_inurba_marseille","lat":43.25932,"lon":5.40895,"is_reserved":false,"is_disabled":false,"rental_uris":{"android":"levelo://app?vid=1f724299-518e-43e9-b32e-7282b81b7214","ios":"levelo://app?vid=1f724299-518e-43e9-b32e-7282b81b7214"},"vehicle_type_id":"4","last_reported":1740308849,"current_range_meters":17600,"station_id":"ce4bhm92rcd13ifvqglg","pricing_plan_id":"cebpf4jnsgd1na2vs0mg"},{"bike_id":"e0335c82-1737-423f-91e5-2b6ee66ad215","system_id":"levelo_inurba_marseille","lat":43.2866,"lon":5.36361,"is_reserved":false,"is_disabled":false,"rental_uris":{"android":"levelo://app?vid=e0335c82-1737-423f-91e5-2b6ee66ad215","ios":"levelo://app?vid=e0335c82-1737-423f-91e5-2b6ee66ad215"},"vehicle_type_id":"4","last_reported":1740308849,"current_range_meters":17600,"station_id":"ce4bhah2rcd13ifvqej0","pricing_plan_id":"cebpf4jnsgd1na2vs0mg"},{"bike_id":"fb44b31f-7afc-4a5c-8b14-6d56005aa669","system_id":"levelo_inurba_marseille","lat":43.28581,"lon":5.42347,"is_reserved":false,"is_disabled":false,"rental_uris":{"android":"levelo://app?vid=fb44b31f-7afc-4a5c-8b14-6d56005aa669","ios":"levelo://app?vid=fb44b31f-7afc-4a5c-8b14-6d56005aa669"},"vehicle_type_id":"4","last_reported":1740308849,"current_range_meters":18000,"station_id":"","pricing_plan_id":"cebpf4jnsgd1na2vs0mg"},{"bike_id":"dfd73891-7692-4880-af8b-db2b9051ddf4","system_id":"levelo_inurba_marseille","lat":43.3088,"lon":5.39638,"is_reserved":false,"is_disabled":false,"rental_uris":{"android":"levelo://app?vid=dfd73891-7692-4880-af8b-db2b9051ddf4","ios":"levelo://app?vid=dfd73891-7692-4880-af8b-db2b9051ddf4"},"vehicle_type_id":"4","last_reported":1740308849,"current_range_meters":17600,"station_id":"ce4bh012rcd13ifvqcv0","pricing_plan_id":"cebpf4jnsgd1na2vs0mg"},{"bike_id":"0786ac5d-203e-484d-b092-40e6cea57c62","system_id":"levelo_inurba_marseille","lat":43.29773,"lon":5.37122,"is_reserved":false,"is_disabled":false,"rental_uris":{"android":"levelo://app?vid=0786ac5d-203e-484d-b092-40e6cea57c62","ios":"levelo://app?vid=0786ac5d-203e-484d-b092-40e6cea57c62"},"vehicle_type_id":"4","last_reported":1740308849,"current_range_meters":17600,"station_id":"ce4bgop2rcd13ifvqc1g","pricing_plan_id":"cebpf4jnsgd1na2vs0mg"},{"bike_id":"a2609c25-95ff-4ac8-a72d-17797d74beae","system_id":"levelo_inurba_marseille","lat":43.30634,"lon":5.40078,"is_reserved":false,"is_disabled":false,"rental_uris":{"android":"levelo://app?vid=a2609c25-95ff-4ac8-a72d-17797d74beae","ios":"levelo://app?vid=a2609c25-95ff-4ac8-a72d-17797d74beae"},"vehicle_type_id":"4","last_reported":1740308849,"current_range_meters":18000,"station_id":"ce4bh112rcd13ifvqda0","pricing_plan_id":"cebpf4jnsgd1na2vs0mg"},{"bike_id":"b3a62955-8f81-4b82-bacf-cd1ac5807c40","system_id":"levelo_inurba_marseille","lat":43.28707,"lon":5.36099,"is_reserved":false,"is_disabled":false,"rental_uris":{"android":"levelo://app?vid=b3a62955-8f81-4b82-bacf-cd1ac5807c40","ios":"levelo://app?vid=b3a62955-8f81-4b82-bacf-cd1ac5807c40"},"vehicle_type_id":"4","last_reported":1740308849,"current_range_meters":18000,"station_id":"cki0cbj6b192h4jlfktg","pricing_plan_id":"cebpf4jnsgd1na2vs0mg"},{"bike_id":"2e7781d1-08b9-45ca-8d3e-465084a027b5","system_id":"levelo_inurba_marseille","lat":43.30302,"lon":5.39221,"is_reserved":false,"is_disabled":false,"rental_uris":{"android":"levelo://app?vid=2e7781d1-08b9-45ca-8d3e-465084a027b5","ios":"levelo://app?vid=2e7781d1-08b9-45ca-8d3e-465084a027b5"},"vehicle_type_id":"4","last_reported":1740308849,"current_range_meters":18000,"station_id":"ce4bgkh2rcd13ifvqbk0","pricing_plan_id":"cebpf4jnsgd1na2vs0mg"},{"bike_id":"9d7c969d-ee67-4fd6-9d50-a91ee3e019cb","system_id":"levelo_inurba_marseille","lat":43.23187,"lon":5.39981,"is_reserved":false,"is_disabled":false,"rental_uris":{"android":"levelo://app?vid=9d7c969d-ee67-4fd6-9d50-a91ee3e019cb","ios":"levelo://app?vid=9d7c969d-ee67-4fd6-9d50-a91ee3e019cb"},"vehicle_type_id":"4","last_reported":1740308849,"current_range_meters":18000,"station_id":"ce4bhn12rcd13ifvqgqg","pricing_plan_id":"cebpf4jnsgd1na2vs0mg"},{"bike_id":"7fe0996e-2e24-4a3a-b975-03a2a20f6506","system_id":"levelo_inurba_marseille","lat":43.32369,"lon":5.36782,"is_reserved":false,"is_disabled":false,"rental_uris":{"android":"levelo://app?vid=7fe0996e-2e24-4a3a-b975-03a2a20f6506","ios":"levelo://app?vid=7fe0996e-2e24-4a3a-b975-03a2a20f6506"},"vehicle_type_id":"4","last_reported":1740308849,"current_range_meters":18000,"station_id":"ce4bhsh2rcd13ifvqi2g","pricing_plan_id":"cebpf4jnsgd1na2vs0mg"},{"bike_id":"024d6242-f75b-4d1e-914b-e252978b28b8","system_id":"levelo_inurba_marseille","lat":43.2828,"lon":5.35074,"is_reserved":false,"is_disabled":false,"rental_uris":{"android":"levelo://app?vid=024d6242-f75b-4d1e-914b-e252978b28b8","ios":"levelo://app?vid=024d6242-f75b-4d1e-914b-e252978b28b8"},"vehicle_type_id":"4","last_reported":1740308849,"current_range_meters":18000,"station_id":"ce4bhbp2rcd13ifvqerg","pricing_plan_id":"cebpf4jnsgd1na2vs0mg"},{"bike_id":"1ef41376-cd3a-40a3-ae4a-f23a2a34fc30","system_id":"levelo_inurba_marseille","lat":43.27677,"lon":5.38907,"is_reserved":false,"is_disabled":true,"rental_uris":{"android":"levelo://app?vid=1ef41376-cd3a-40a3-ae4a-f23a2a34fc30","ios":"levelo://app?vid=1ef41376-cd3a-40a3-ae4a-f23a2a34fc30"},"vehicle_type_id":"4","last_reported":1740308849,"current_range_meters":18800,"station_id":"ce4bhi12rcd13ifvqfo0","pricing_plan_id":"cebpf4jnsgd1na2vs0mg"},{"bike_id":"801d8fd1-e866-4bfa-943a-75b427e43c2a","system_id":"levelo_inurba_marseille","lat":43.291992,"lon":5.393191,"is_reserved":false,"is_disabled":false,"rental_uris":{"android":"levelo://app?vid=801d8fd1-e866-4bfa-943a-75b427e43c2a","ios":"levelo://app?vid=801d8fd1-e866-4bfa-943a-75b427e43c2a"},"vehicle_type_id":"4","last_reported":1740308849,"current_range_meters":18800,"station_id":"ce4bh192rcd13ifvqdd0","pricing_plan_id":"cebpf4jnsgd1na2vs0mg"},{"bike_id":"a32f37fa-d220-4c16-930f-677517bfbcf8","system_id":"levelo_inurba_marseille","lat":43.2317,"lon":5.40006,"is_reserved":false,"is_disabled":false,"rental_uris":{"android":"levelo://app?vid=a32f37fa-d220-4c16-930f-677517bfbcf8","ios":"levelo://app?vid=a32f37fa-d220-4c16-930f-677517bfbcf8"},"vehicle_type_id":"4","last_reported":1740308849,"current_range_meters":18800,"station_id":"ce4bhn12rcd13ifvqgqg","pricing_plan_id":"cebpf4jnsgd1na2vs0mg"},{"bike_id":"092edd37-1372-4d8a-af2d-059012b84d58","system_id":"levelo_inurba_marseille","lat":43.2827,"lon":5.35039,"is_reserved":false,"is_disabled":false,"rental_uris":{"android":"levelo://app?vid=092edd37-1372-4d8a-af2d-059012b84d58","ios":"levelo://app?vid=092edd37-1372-4d8a-af2d-059012b84d58"},"vehicle_type_id":"4","last_reported":1740308849,"current_range_meters":18800,"station_id":"ce4bhbp2rcd13ifvqerg","pricing_plan_id":"cebpf4jnsgd1na2vs0mg"},{"bike_id":"f917ce9c-59cb-4f70-a5b4-37e273892c4c","system_id":"levelo_inurba_marseille","lat":43.28372,"lon":5.38142,"is_reserved":false,"is_disabled":false,"rental_uris":{"android":"levelo://app?vid=f917ce9c-59cb-4f70-a5b4-37e273892c4c","ios":"levelo://app?vid=f917ce9c-59cb-4f70-a5b4-37e273892c4c"},"vehicle_type_id":"4","last_reported":1740308849,"current_range_meters":19200,"station_id":"ce4bh412rcd13ifvqdr0","pricing_plan_id":"cebpf4jnsgd1na2vs0mg"},{"bike_id":"b65ea0d9-5be0-4ff8-97d4-ed97e4d0b099","system_id":"levelo_inurba_marseille","lat":43.28692,"lon":5.374,"is_reserved":false,"is_disabled":false,"rental_uris":{"android":"levelo://app?vid=b65ea0d9-5be0-4ff8-97d4-ed97e4d0b099","ios":"levelo://app?vid=b65ea0d9-5be0-4ff8-97d4-ed97e4d0b099"},"vehicle_type_id":"4","last_reported":1740308849,"current_range_meters":19200,"station_id":"ce4bh3p2rcd13ifvqdq0","pricing_plan_id":"cebpf4jnsgd1na2vs0mg"},{"bike_id":"898ab424-6c29-4f2e-864c-8222062711cd","system_id":"levelo_inurba_marseille","lat":43.27958,"lon":5.38722,"is_reserved":false,"is_disabled":false,"rental_uris":{"android":"levelo://app?vid=898ab424-6c29-4f2e-864c-8222062711cd","ios":"levelo://app?vid=898ab424-6c29-4f2e-864c-8222062711cd"},"vehicle_type_id":"4","last_reported":1740308849,"current_range_meters":19200,"station_id":"ce4bhg12rcd13ifvqf80","pricing_plan_id":"cebpf4jnsgd1na2vs0mg"},{"bike_id":"c833a9c8-df91-4a8e-8ccf-4c632e0e89f9","system_id":"levelo_inurba_marseille","lat":43.30521,"lon":5.36504,"is_reserved":false,"is_disabled":false,"rental_uris":{"android":"levelo://app?vid=c833a9c8-df91-4a8e-8ccf-4c632e0e89f9","ios":"levelo://app?vid=c833a9c8-df91-4a8e-8ccf-4c632e0e89f9"},"vehicle_type_id":"4","last_reported":1740308849,"current_range_meters":19200,"station_id":"","pricing_plan_id":"cebpf4jnsgd1na2vs0mg"},{"bike_id":"9db7ae3a-c201-4d5e-99f1-e577399936a7","system_id":"levelo_inurba_marseille","lat":43.24815,"lon":5.37454,"is_reserved":false,"is_disabled":false,"rental_uris":{"android":"levelo://app?vid=9db7ae3a-c201-4d5e-99f1-e577399936a7","ios":"levelo://app?vid=9db7ae3a-c201-4d5e-99f1-e577399936a7"},"vehicle_type_id":"4","last_reported":1740308849,"current_range_meters":19200,"station_id":"ce4bhgh2rcd13ifvqfb0","pricing_plan_id":"cebpf4jnsgd1na2vs0mg"},{"bike_id":"952c41bd-384f-47fa-9c96-7f985c78c00f","system_id":"levelo_inurba_marseille","lat":43.28935,"lon":5.36397,"is_reserved":false,"is_disabled":false,"rental_uris":{"android":"levelo://app?vid=952c41bd-384f-47fa-9c96-7f985c78c00f","ios":"levelo://app?vid=952c41bd-384f-47fa-9c96-7f985c78c00f"},"vehicle_type_id":"4","last_reported":1740308849,"current_range_meters":19200,"station_id":"ce4bhc92rcd13ifvqetg","pricing_plan_id":"cebpf4jnsgd1na2vs0mg"},{"bike_id":"9fabdfa7-a0ef-44ff-b626-33a9b5d52aad","system_id":"levelo_inurba_marseille","lat":43.3014,"lon":5.38783,"is_reserved":false,"is_disabled":true,"rental_uris":{"android":"levelo://app?vid=9fabdfa7-a0ef-44ff-b626-33a9b5d52aad","ios":"levelo://app?vid=9fabdfa7-a0ef-44ff-b626-33a9b5d52aad"},"vehicle_type_id":"4","last_reported":1740308849,"current_range_meters":19200,"station_id":"ce4bghh2rcd13ifvqb60","pricing_plan_id":"cebpf4jnsgd1na2vs0mg"},{"bike_id":"b5a1d484-9e63-43b3-9bbc-06f2df1a2c91","system_id":"levelo_inurba_marseille","lat":43.291941,"lon":5.39316,"is_reserved":false,"is_disabled":false,"rental_uris":{"android":"levelo://app?vid=b5a1d484-9e63-43b3-9bbc-06f2df1a2c91","ios":"levelo://app?vid=b5a1d484-9e63-43b3-9bbc-06f2df1a2c91"},"vehicle_type_id":"4","last_reported":1740308849,"current_range_meters":19600,"station_id":"ce4bh192rcd13ifvqdd0","pricing_plan_id":"cebpf4jnsgd1na2vs0mg"},{"bike_id":"41a2216f-8b22-4f4f-9eac-5e2283bcdb4b","system_id":"levelo_inurba_marseille","lat":43.28156,"lon":5.4265,"is_reserved":false,"is_disabled":true,"rental_uris":{"android":"levelo://app?vid=41a2216f-8b22-4f4f-9eac-5e2283bcdb4b","ios":"levelo://app?vid=41a2216f-8b22-4f4f-9eac-5e2283bcdb4b"},"vehicle_type_id":"4","last_reported":1740308849,"current_range_meters":19600,"station_id":"ce4bhnh2rcd13ifvqgug","pricing_plan_id":"cebpf4jnsgd1na2vs0mg"},{"bike_id":"8ca06677-b1b9-472e-a44c-d767e4da9357","system_id":"levelo_inurba_marseille","lat":43.292112,"lon":5.393156,"is_reserved":false,"is_disabled":false,"rental_uris":{"android":"levelo://app?vid=8ca06677-b1b9-472e-a44c-d767e4da9357","ios":"levelo://app?vid=8ca06677-b1b9-472e-a44c-d767e4da9357"},"vehicle_type_id":"4","last_reported":1740308849,"current_range_meters":19600,"station_id":"ce4bh192rcd13ifvqdd0","pricing_plan_id":"cebpf4jnsgd1na2vs0mg"},{"bike_id":"20fd86ed-39ad-42be-9ebd-94695372e5a3","system_id":"levelo_inurba_marseille","lat":43.25485,"lon":5.37655,"is_reserved":false,"is_disabled":false,"rental_uris":{"android":"levelo://app?vid=20fd86ed-39ad-42be-9ebd-94695372e5a3","ios":"levelo://app?vid=20fd86ed-39ad-42be-9ebd-94695372e5a3"},"vehicle_type_id":"4","last_reported":1740308849,"current_range_meters":19600,"station_id":"ce4bhh12rcd13ifvqff0","pricing_plan_id":"cebpf4jnsgd1na2vs0mg"},{"bike_id":"35b0c0af-0c7c-497c-96f5-bb7729363e10","system_id":"levelo_inurba_marseille","lat":43.28429,"lon":5.37513,"is_reserved":false,"is_disabled":false,"rental_uris":{"android":"levelo://app?vid=35b0c0af-0c7c-497c-96f5-bb7729363e10","ios":"levelo://app?vid=35b0c0af-0c7c-497c-96f5-bb7729363e10"},"vehicle_type_id":"4","last_reported":1740308849,"current_range_meters":19600,"station_id":"ce4bh412rcd13ifvqds0","pricing_plan_id":"cebpf4jnsgd1na2vs0mg"},{"bike_id":"b9d4e17d-02cb-400f-b51e-84bc86475cec","system_id":"levelo_inurba_marseille","lat":43.24991,"lon":5.38885,"is_reserved":false,"is_disabled":false,"rental_uris":{"android":"levelo://app?vid=b9d4e17d-02cb-400f-b51e-84bc86475cec","ios":"levelo://app?vid=b9d4e17d-02cb-400f-b51e-84bc86475cec"},"vehicle_type_id":"4","last_reported":1740308849,"current_range_meters":19200,"station_id":"ce4bhgp2rcd13ifvqfd0","pricing_plan_id":"cebpf4jnsgd1na2vs0mg"},{"bike_id":"c0553ce2-1e21-4424-ae14-30f158e9755d","system_id":"levelo_inurba_marseille","lat":43.29877,"lon":5.38899,"is_reserved":false,"is_disabled":true,"rental_uris":{"android":"levelo://app?vid=c0553ce2-1e21-4424-ae14-30f158e9755d","ios":"levelo://app?vid=c0553ce2-1e21-4424-ae14-30f158e9755d"},"vehicle_type_id":"4","last_reported":1740308849,"current_range_meters":19600,"station_id":"ce4bh392rcd13ifvqdl0","pricing_plan_id":"cebpf4jnsgd1na2vs0mg"},{"bike_id":"774b7214-10fb-495c-a4fe-cd1f1555509a","system_id":"levelo_inurba_marseille","lat":43.31988,"lon":5.3816,"is_reserved":false,"is_disabled":false,"rental_uris":{"android":"levelo://app?vid=774b7214-10fb-495c-a4fe-cd1f1555509a","ios":"levelo://app?vid=774b7214-10fb-495c-a4fe-cd1f1555509a"},"vehicle_type_id":"4","last_reported":1740308849,"current_range_meters":20000,"station_id":"ce4bhr12rcd13ifvqhpg","pricing_plan_id":"cebpf4jnsgd1na2vs0mg"},{"bike_id":"b7efa97b-93e3-4145-b496-3aea0bcbd7a9","system_id":"levelo_inurba_marseille","lat":43.30599,"lon":5.372306,"is_reserved":false,"is_disabled":false,"rental_uris":{"android":"levelo://app?vid=b7efa97b-93e3-4145-b496-3aea0bcbd7a9","ios":"levelo://app?vid=b7efa97b-93e3-4145-b496-3aea0bcbd7a9"},"vehicle_type_id":"4","last_reported":1740308849,"current_range_meters":20000,"station_id":"ce4bhb92rcd13ifvqen0","pricing_plan_id":"cebpf4jnsgd1na2vs0mg"},{"bike_id":"0f987971-2fed-4a1e-8fb9-529d7192d066","system_id":"levelo_inurba_marseille","lat":43.292094,"lon":5.39313,"is_reserved":false,"is_disabled":false,"rental_uris":{"android":"levelo://app?vid=0f987971-2fed-4a1e-8fb9-529d7192d066","ios":"levelo://app?vid=0f987971-2fed-4a1e-8fb9-529d7192d066"},"vehicle_type_id":"4","last_reported":1740308849,"current_range_meters":20000,"station_id":"ce4bh192rcd13ifvqdd0","pricing_plan_id":"cebpf4jnsgd1na2vs0mg"},{"bike_id":"2470bbff-434e-4658-9bfc-2a484a922e4a","system_id":"levelo_inurba_marseille","lat":43.30148,"lon":5.38087,"is_reserved":false,"is_disabled":false,"rental_uris":{"android":"levelo://app?vid=2470bbff-434e-4658-9bfc-2a484a922e4a","ios":"levelo://app?vid=2470bbff-434e-4658-9bfc-2a484a922e4a"},"vehicle_type_id":"4","last_reported":1740308849,"current_range_meters":20000,"station_id":"ce4bgjp2rcd13ifvqbh0","pricing_plan_id":"cebpf4jnsgd1na2vs0mg"},{"bike_id":"30cbce76-9e88-46d7-bd0c-af6a1c8c4bf9","system_id":"levelo_inurba_marseille","lat":43.291992,"lon":5.393291,"is_reserved":false,"is_disabled":false,"rental_uris":{"android":"levelo://app?vid=30cbce76-9e88-46d7-bd0c-af6a1c8c4bf9","ios":"levelo://app?vid=30cbce76-9e88-46d7-bd0c-af6a1c8c4bf9"},"vehicle_type_id":"4","last_reported":1740308849,"current_range_meters":20000,"station_id":"ce4bh192rcd13ifvqdd0","pricing_plan_id":"cebpf4jnsgd1na2vs0mg"},{"bike_id":"fe3ae4ab-b74c-4e5f-bbd6-489ceedc0623","system_id":"levelo_inurba_marseille","lat":43.28157,"lon":5.42626,"is_reserved":false,"is_disabled":false,"rental_uris":{"android":"levelo://app?vid=fe3ae4ab-b74c-4e5f-bbd6-489ceedc0623","ios":"levelo://app?vid=fe3ae4ab-b74c-4e5f-bbd6-489ceedc0623"},"vehicle_type_id":"4","last_reported":1740308849,"current_range_meters":20000,"station_id":"ce4bhnh2rcd13ifvqgug","pricing_plan_id":"cebpf4jnsgd1na2vs0mg"},{"bike_id":"5525ee3c-aab4-4baf-8a97-71988d808817","system_id":"levelo_inurba_marseille","lat":43.30139,"lon":5.38059,"is_reserved":false,"is_disabled":false,"rental_uris":{"android":"levelo://app?vid=5525ee3c-aab4-4baf-8a97-71988d808817","ios":"levelo://app?vid=5525ee3c-aab4-4baf-8a97-71988d808817"},"vehicle_type_id":"4","last_reported":1740308849,"current_range_meters":20400,"station_id":"ce4bgjp2rcd13ifvqbh0","pricing_plan_id":"cebpf4jnsgd1na2vs0mg"},{"bike_id":"22ca045d-5e11-4ca6-9b92-8d5bd5e550fe","system_id":"levelo_inurba_marseille","lat":43.30646,"lon":5.40063,"is_reserved":false,"is_disabled":false,"rental_uris":{"android":"levelo://app?vid=22ca045d-5e11-4ca6-9b92-8d5bd5e550fe","ios":"levelo://app?vid=22ca045d-5e11-4ca6-9b92-8d5bd5e550fe"},"vehicle_type_id":"4","last_reported":1740308849,"current_range_meters":20400,"station_id":"ce4bh112rcd13ifvqda0","pricing_plan_id":"cebpf4jnsgd1na2vs0mg"},{"bike_id":"6bccd46d-18cd-4919-8c3a-aae72100696b","system_id":"levelo_inurba_marseille","lat":43.27994,"lon":5.40006,"is_reserved":false,"is_disabled":false,"rental_uris":{"android":"levelo://app?vid=6bccd46d-18cd-4919-8c3a-aae72100696b","ios":"levelo://app?vid=6bccd46d-18cd-4919-8c3a-aae72100696b"},"vehicle_type_id":"4","last_reported":1740308849,"current_range_meters":20400,"station_id":"ce4bho92rcd13ifvqh4g","pricing_plan_id":"cebpf4jnsgd1na2vs0mg"},{"bike_id":"53f24911-84f9-4a9f-bc56-60bce6e81901","system_id":"levelo_inurba_marseille","lat":43.27369,"lon":5.3626,"is_reserved":false,"is_disabled":false,"rental_uris":{"android":"levelo://app?vid=53f24911-84f9-4a9f-bc56-60bce6e81901","ios":"levelo://app?vid=53f24911-84f9-4a9f-bc56-60bce6e81901"},"vehicle_type_id":"4","last_reported":1740308849,"current_range_meters":20400,"station_id":"ce4bhbh2rcd13ifvqeo0","pricing_plan_id":"cebpf4jnsgd1na2vs0mg"},{"bike_id":"4657a093-4c94-49fa-b6c2-2632781e82ff","system_id":"levelo_inurba_marseille","lat":43.27953,"lon":5.38705,"is_reserved":false,"is_disabled":false,"rental_uris":{"android":"levelo://app?vid=4657a093-4c94-49fa-b6c2-2632781e82ff","ios":"levelo://app?vid=4657a093-4c94-49fa-b6c2-2632781e82ff"},"vehicle_type_id":"4","last_reported":1740308849,"current_range_meters":20400,"station_id":"ce4bhg12rcd13ifvqf80","pricing_plan_id":"cebpf4jnsgd1na2vs0mg"},{"bike_id":"30145bb2-2c4c-48b0-897b-d150465e51cc","system_id":"levelo_inurba_marseille","lat":43.23192,"lon":5.35549,"is_reserved":false,"is_disabled":false,"rental_uris":{"android":"levelo://app?vid=30145bb2-2c4c-48b0-897b-d150465e51cc","ios":"levelo://app?vid=30145bb2-2c4c-48b0-897b-d150465e51cc"},"vehicle_type_id":"4","last_reported":1740308849,"current_range_meters":20400,"station_id":"ce4bhu92rcd13ifvqi70","pricing_plan_id":"cebpf4jnsgd1na2vs0mg"},{"bike_id":"2be26d79-2eed-40f2-9548-8e92206449be","system_id":"levelo_inurba_marseille","lat":43.23961,"lon":5.36636,"is_reserved":false,"is_disabled":false,"rental_uris":{"android":"levelo://app?vid=2be26d79-2eed-40f2-9548-8e92206449be","ios":"levelo://app?vid=2be26d79-2eed-40f2-9548-8e92206449be"},"vehicle_type_id":"4","last_reported":1740308849,"current_range_meters":20400,"station_id":"ce4bhi12rcd13ifvqfp0","pricing_plan_id":"cebpf4jnsgd1na2vs0mg"},{"bike_id":"15b1cb35-a0a7-4ca2-aaa2-ac7edebe0bf9","system_id":"levelo_inurba_marseille","lat":43.29648,"lon":5.36623,"is_reserved":false,"is_disabled":false,"rental_uris":{"android":"levelo://app?vid=15b1cb35-a0a7-4ca2-aaa2-ac7edebe0bf9","ios":"levelo://app?vid=15b1cb35-a0a7-4ca2-aaa2-ac7edebe0bf9"},"vehicle_type_id":"4","last_reported":1740308849,"current_range_meters":20800,"station_id":"ce4bgn12rcd13ifvqbt0","pricing_plan_id":"cebpf4jnsgd1na2vs0mg"},{"bike_id":"7daca8ba-c490-462e-a8ae-2539ceef8867","system_id":"levelo_inurba_marseille","lat":43.260376,"lon":5.373181,"is_reserved":false,"is_disabled":false,"rental_uris":{"android":"levelo://app?vid=7daca8ba-c490-462e-a8ae-2539ceef8867","ios":"levelo://app?vid=7daca8ba-c490-462e-a8ae-2539ceef8867"},"vehicle_type_id":"4","last_reported":1740308849,"current_range_meters":20800,"station_id":"ce4bgh92rcd13ifvqb50","pricing_plan_id":"cebpf4jnsgd1na2vs0mg"},{"bike_id":"46928310-8493-4ec9-9db3-633e4decde1e","system_id":"levelo_inurba_marseille","lat":43.26685,"lon":5.38277,"is_reserved":false,"is_disabled":false,"rental_uris":{"android":"levelo://app?vid=46928310-8493-4ec9-9db3-633e4decde1e","ios":"levelo://app?vid=46928310-8493-4ec9-9db3-633e4decde1e"},"vehicle_type_id":"4","last_reported":1740308849,"current_range_meters":20800,"station_id":"ce4bhg92rcd13ifvqf90","pricing_plan_id":"cebpf4jnsgd1na2vs0mg"},{"bike_id":"ebbf6217-465f-4269-8ee4-4515a862b241","system_id":"levelo_inurba_marseille","lat":43.29874,"lon":5.38911,"is_reserved":false,"is_disabled":true,"rental_uris":{"android":"levelo://app?vid=ebbf6217-465f-4269-8ee4-4515a862b241","ios":"levelo://app?vid=ebbf6217-465f-4269-8ee4-4515a862b241"},"vehicle_type_id":"4","last_reported":1740308849,"current_range_meters":20800,"station_id":"ce4bh392rcd13ifvqdl0","pricing_plan_id":"cebpf4jnsgd1na2vs0mg"},{"bike_id":"4065098d-7131-403c-b3d3-06507a881211","system_id":"levelo_inurba_marseille","lat":43.30648,"lon":5.40066,"is_reserved":false,"is_disabled":false,"rental_uris":{"android":"levelo://app?vid=4065098d-7131-403c-b3d3-06507a881211","ios":"levelo://app?vid=4065098d-7131-403c-b3d3-06507a881211"},"vehicle_type_id":"4","last_reported":1740308849,"current_range_meters":20800,"station_id":"ce4bh112rcd13ifvqda0","pricing_plan_id":"cebpf4jnsgd1na2vs0mg"},{"bike_id":"1103d28b-8801-477c-8a26-574aa231ff2b","system_id":"levelo_inurba_marseille","lat":43.26566,"lon":5.38998,"is_reserved":false,"is_disabled":false,"rental_uris":{"android":"levelo://app?vid=1103d28b-8801-477c-8a26-574aa231ff2b","ios":"levelo://app?vid=1103d28b-8801-477c-8a26-574aa231ff2b"},"vehicle_type_id":"4","last_reported":1740308849,"current_range_meters":20800,"station_id":"ce4bhe12rcd13ifvqf30","pricing_plan_id":"cebpf4jnsgd1na2vs0mg"},{"bike_id":"6b66e7cf-0765-46f2-aa2e-f2d2390d5da8","system_id":"levelo_inurba_marseille","lat":43.24816,"lon":5.37464,"is_reserved":false,"is_disabled":false,"rental_uris":{"android":"levelo://app?vid=6b66e7cf-0765-46f2-aa2e-f2d2390d5da8","ios":"levelo://app?vid=6b66e7cf-0765-46f2-aa2e-f2d2390d5da8"},"vehicle_type_id":"4","last_reported":1740308849,"current_range_meters":20800,"station_id":"ce4bhgh2rcd13ifvqfb0","pricing_plan_id":"cebpf4jnsgd1na2vs0mg"},{"bike_id":"0e4921e7-fffc-4458-a734-8289f347938b","system_id":"levelo_inurba_marseille","lat":43.25088,"lon":5.39524,"is_reserved":false,"is_disabled":false,"rental_uris":{"android":"levelo://app?vid=0e4921e7-fffc-4458-a734-8289f347938b","ios":"levelo://app?vid=0e4921e7-fffc-4458-a734-8289f347938b"},"vehicle_type_id":"4","last_reported":1740308849,"current_range_meters":21600,"station_id":"ce4bhm12rcd13ifvqgkg","pricing_plan_id":"cebpf4jnsgd1na2vs0mg"},{"bike_id":"a8f009b4-809c-4264-8939-95c7f4cc190a","system_id":"levelo_inurba_marseille","lat":43.2692,"lon":5.38912,"is_reserved":false,"is_disabled":false,"rental_uris":{"android":"levelo://app?vid=a8f009b4-809c-4264-8939-95c7f4cc190a","ios":"levelo://app?vid=a8f009b4-809c-4264-8939-95c7f4cc190a"},"vehicle_type_id":"4","last_reported":1740308849,"current_range_meters":21600,"station_id":"ce4bhhh2rcd13ifvqfl0","pricing_plan_id":"cebpf4jnsgd1na2vs0mg"},{"bike_id":"cdf89f84-1d45-4ce1-b985-6a2c8b69ccf3","system_id":"levelo_inurba_marseille","lat":43.3058,"lon":5.36529,"is_reserved":false,"is_disabled":true,"rental_uris":{"android":"levelo://app?vid=cdf89f84-1d45-4ce1-b985-6a2c8b69ccf3","ios":"levelo://app?vid=cdf89f84-1d45-4ce1-b985-6a2c8b69ccf3"},"vehicle_type_id":"4","last_reported":1740308849,"current_range_meters":21600,"station_id":"ce4bgs12rcd13ifvqcag","pricing_plan_id":"cebpf4jnsgd1na2vs0mg"},{"bike_id":"8ac161f7-b4dc-44a3-bf95-492c39fd4f06","system_id":"levelo_inurba_marseille","lat":43.30118,"lon":5.38772,"is_reserved":false,"is_disabled":false,"rental_uris":{"android":"levelo://app?vid=8ac161f7-b4dc-44a3-bf95-492c39fd4f06","ios":"levelo://app?vid=8ac161f7-b4dc-44a3-bf95-492c39fd4f06"},"vehicle_type_id":"4","last_reported":1740308849,"current_range_meters":21600,"station_id":"ce4bghh2rcd13ifvqb60","pricing_plan_id":"cebpf4jnsgd1na2vs0mg"},{"bike_id":"90deeaa6-db44-4cc0-afc3-a438ee273d94","system_id":"levelo_inurba_marseille","lat":43.29201,"lon":5.39334,"is_reserved":false,"is_disabled":false,"rental_uris":{"android":"levelo://app?vid=90deeaa6-db44-4cc0-afc3-a438ee273d94","ios":"levelo://app?vid=90deeaa6-db44-4cc0-afc3-a438ee273d94"},"vehicle_type_id":"4","last_reported":1740308849,"current_range_meters":21600,"station_id":"ce4bh192rcd13ifvqdd0","pricing_plan_id":"cebpf4jnsgd1na2vs0mg"},{"bike_id":"d4eab337-9baf-4534-b79d-3cbd62733c4b","system_id":"levelo_inurba_marseille","lat":43.28617,"lon":5.35106,"is_reserved":false,"is_disabled":false,"rental_uris":{"android":"levelo://app?vid=d4eab337-9baf-4534-b79d-3cbd62733c4b","ios":"levelo://app?vid=d4eab337-9baf-4534-b79d-3cbd62733c4b"},"vehicle_type_id":"4","last_reported":1740308849,"current_range_meters":22000,"station_id":"ce4bhch2rcd13ifvqeug","pricing_plan_id":"cebpf4jnsgd1na2vs0mg"},{"bike_id":"168890a0-0019-44e8-a924-c7723c3b83c5","system_id":"levelo_inurba_marseille","lat":43.28932,"lon":5.364,"is_reserved":false,"is_disabled":false,"rental_uris":{"android":"levelo://app?vid=168890a0-0019-44e8-a924-c7723c3b83c5","ios":"levelo://app?vid=168890a0-0019-44e8-a924-c7723c3b83c5"},"vehicle_type_id":"4","last_reported":1740308849,"current_range_meters":21600,"station_id":"ce4bhc92rcd13ifvqetg","pricing_plan_id":"cebpf4jnsgd1na2vs0mg"},{"bike_id":"c3857c09-9780-4dbe-a6d6-765b2f84b4f9","system_id":"levelo_inurba_marseille","lat":43.30843,"lon":5.39664,"is_reserved":false,"is_disabled":false,"rental_uris":{"android":"levelo://app?vid=c3857c09-9780-4dbe-a6d6-765b2f84b4f9","ios":"levelo://app?vid=c3857c09-9780-4dbe-a6d6-765b2f84b4f9"},"vehicle_type_id":"4","last_reported":1740308849,"current_range_meters":22000,"station_id":"","pricing_plan_id":"cebpf4jnsgd1na2vs0mg"},{"bike_id":"5dad9ff5-c320-425a-b227-be14ad5ba3b9","system_id":"levelo_inurba_marseille","lat":43.29844,"lon":5.36279,"is_reserved":false,"is_disabled":false,"rental_uris":{"android":"levelo://app?vid=5dad9ff5-c320-425a-b227-be14ad5ba3b9","ios":"levelo://app?vid=5dad9ff5-c320-425a-b227-be14ad5ba3b9"},"vehicle_type_id":"4","last_reported":1740308849,"current_range_meters":22000,"station_id":"ce4bgpp2rcd13ifvqc3g","pricing_plan_id":"cebpf4jnsgd1na2vs0mg"},{"bike_id":"fd8a1263-fc5b-4c57-972c-7441b5ae2f27","system_id":"levelo_inurba_marseille","lat":43.29307,"lon":5.37175,"is_reserved":false,"is_disabled":false,"rental_uris":{"android":"levelo://app?vid=fd8a1263-fc5b-4c57-972c-7441b5ae2f27","ios":"levelo://app?vid=fd8a1263-fc5b-4c57-972c-7441b5ae2f27"},"vehicle_type_id":"4","last_reported":1740308849,"current_range_meters":22000,"station_id":"ce4bgh92rcd13ifvqb40","pricing_plan_id":"cebpf4jnsgd1na2vs0mg"},{"bike_id":"a31ed295-5f06-4d07-a7d4-a32a8f4ee196","system_id":"levelo_inurba_marseille","lat":43.30186,"lon":5.3663,"is_reserved":false,"is_disabled":false,"rental_uris":{"android":"levelo://app?vid=a31ed295-5f06-4d07-a7d4-a32a8f4ee196","ios":"levelo://app?vid=a31ed295-5f06-4d07-a7d4-a32a8f4ee196"},"vehicle_type_id":"4","last_reported":1740308849,"current_range_meters":22000,"station_id":"ce4bgrh2rcd13ifvqc8g","pricing_plan_id":"cebpf4jnsgd1na2vs0mg"},{"bike_id":"53899e2c-901f-4684-921b-47370fcd206b","system_id":"levelo_inurba_marseille","lat":43.30078,"lon":5.39107,"is_reserved":false,"is_disabled":true,"rental_uris":{"android":"levelo://app?vid=53899e2c-901f-4684-921b-47370fcd206b","ios":"levelo://app?vid=53899e2c-901f-4684-921b-47370fcd206b"},"vehicle_type_id":"4","last_reported":1740308849,"current_range_meters":22000,"station_id":"ce4bh192rcd13ifvqdb0","pricing_plan_id":"cebpf4jnsgd1na2vs0mg"},{"bike_id":"0c81086b-1d1b-467d-8685-2f8d05afdd13","system_id":"levelo_inurba_marseille","lat":43.25009,"lon":5.38914,"is_reserved":false,"is_disabled":false,"rental_uris":{"android":"levelo://app?vid=0c81086b-1d1b-467d-8685-2f8d05afdd13","ios":"levelo://app?vid=0c81086b-1d1b-467d-8685-2f8d05afdd13"},"vehicle_type_id":"4","last_reported":1740308849,"current_range_meters":22000,"station_id":"ce4bhgp2rcd13ifvqfd0","pricing_plan_id":"cebpf4jnsgd1na2vs0mg"},{"bike_id":"073518a5-4dc0-447e-9477-a67f73b2a5a2","system_id":"levelo_inurba_marseille","lat":43.32361,"lon":5.36776,"is_reserved":false,"is_disabled":false,"rental_uris":{"android":"levelo://app?vid=073518a5-4dc0-447e-9477-a67f73b2a5a2","ios":"levelo://app?vid=073518a5-4dc0-447e-9477-a67f73b2a5a2"},"vehicle_type_id":"4","last_reported":1740308849,"current_range_meters":22000,"station_id":"ce4bhsh2rcd13ifvqi2g","pricing_plan_id":"cebpf4jnsgd1na2vs0mg"},{"bike_id":"3f91c66d-4fd2-45b8-9488-3f030df93fcc","system_id":"levelo_inurba_marseille","lat":43.2835,"lon":5.38102,"is_reserved":false,"is_disabled":true,"rental_uris":{"android":"levelo://app?vid=3f91c66d-4fd2-45b8-9488-3f030df93fcc","ios":"levelo://app?vid=3f91c66d-4fd2-45b8-9488-3f030df93fcc"},"vehicle_type_id":"4","last_reported":1740308849,"current_range_meters":22000,"station_id":"ce4bh412rcd13ifvqdr0","pricing_plan_id":"cebpf4jnsgd1na2vs0mg"},{"bike_id":"871d8ea5-2c7c-4d9d-9a3f-986873c01304","system_id":"levelo_inurba_marseille","lat":43.28624,"lon":5.35098,"is_reserved":false,"is_disabled":false,"rental_uris":{"android":"levelo://app?vid=871d8ea5-2c7c-4d9d-9a3f-986873c01304","ios":"levelo://app?vid=871d8ea5-2c7c-4d9d-9a3f-986873c01304"},"vehicle_type_id":"4","last_reported":1740308849,"current_range_meters":22400,"station_id":"ce4bhch2rcd13ifvqeug","pricing_plan_id":"cebpf4jnsgd1na2vs0mg"},{"bike_id":"31f22dd6-b64e-47dc-a1e2-0e184779765a","system_id":"levelo_inurba_marseille","lat":43.29018,"lon":5.37894,"is_reserved":false,"is_disabled":false,"rental_uris":{"android":"levelo://app?vid=31f22dd6-b64e-47dc-a1e2-0e184779765a","ios":"levelo://app?vid=31f22dd6-b64e-47dc-a1e2-0e184779765a"},"vehicle_type_id":"4","last_reported":1740308849,"current_range_meters":22400,"station_id":"","pricing_plan_id":"cebpf4jnsgd1na2vs0mg"},{"bike_id":"8f7b6903-2094-4d1b-a8d0-982f0e934c25","system_id":"levelo_inurba_marseille","lat":43.33023,"lon":5.39035,"is_reserved":false,"is_disabled":false,"rental_uris":{"android":"levelo://app?vid=8f7b6903-2094-4d1b-a8d0-982f0e934c25","ios":"levelo://app?vid=8f7b6903-2094-4d1b-a8d0-982f0e934c25"},"vehicle_type_id":"4","last_reported":1740308849,"current_range_meters":22400,"station_id":"ce4bhr92rcd13ifvqhrg","pricing_plan_id":"cebpf4jnsgd1na2vs0mg"},{"bike_id":"d1530cd6-d354-44d4-b371-5e708ae5110a","system_id":"levelo_inurba_marseille","lat":43.232,"lon":5.35546,"is_reserved":false,"is_disabled":false,"rental_uris":{"android":"levelo://app?vid=d1530cd6-d354-44d4-b371-5e708ae5110a","ios":"levelo://app?vid=d1530cd6-d354-44d4-b371-5e708ae5110a"},"vehicle_type_id":"4","last_reported":1740308849,"current_range_meters":22400,"station_id":"ce4bhu92rcd13ifvqi70","pricing_plan_id":"cebpf4jnsgd1na2vs0mg"},{"bike_id":"f7e7581b-0083-4d3a-a2c6-87c1099e5a7b","system_id":"levelo_inurba_marseille","lat":43.31062,"lon":5.38362,"is_reserved":false,"is_disabled":false,"rental_uris":{"android":"levelo://app?vid=f7e7581b-0083-4d3a-a2c6-87c1099e5a7b","ios":"levelo://app?vid=f7e7581b-0083-4d3a-a2c6-87c1099e5a7b"},"vehicle_type_id":"4","last_reported":1740308849,"current_range_meters":22400,"station_id":"ce4bgv92rcd13ifvqcr0","pricing_plan_id":"cebpf4jnsgd1na2vs0mg"},{"bike_id":"568eaab1-7fc0-4562-9e29-ab77b9ac20f0","system_id":"levelo_inurba_marseille","lat":43.28748,"lon":5.37375,"is_reserved":false,"is_disabled":false,"rental_uris":{"android":"levelo://app?vid=568eaab1-7fc0-4562-9e29-ab77b9ac20f0","ios":"levelo://app?vid=568eaab1-7fc0-4562-9e29-ab77b9ac20f0"},"vehicle_type_id":"4","last_reported":1740308849,"current_range_meters":22400,"station_id":"","pricing_plan_id":"cebpf4jnsgd1na2vs0mg"},{"bike_id":"d81a8ce0-ea1d-4b05-9ee3-f7c8b707376c","system_id":"levelo_inurba_marseille","lat":43.27501,"lon":5.42455,"is_reserved":false,"is_disabled":false,"rental_uris":{"android":"levelo://app?vid=d81a8ce0-ea1d-4b05-9ee3-f7c8b707376c","ios":"levelo://app?vid=d81a8ce0-ea1d-4b05-9ee3-f7c8b707376c"},"vehicle_type_id":"4","last_reported":1740308849,"current_range_meters":22400,"station_id":"ce4bhn92rcd13ifvqgrg","pricing_plan_id":"cebpf4jnsgd1na2vs0mg"},{"bike_id":"8b9b7581-b242-45ec-889d-dff3ef38622e","system_id":"levelo_inurba_marseille","lat":43.23993,"lon":5.3656,"is_reserved":false,"is_disabled":false,"rental_uris":{"android":"levelo://app?vid=8b9b7581-b242-45ec-889d-dff3ef38622e","ios":"levelo://app?vid=8b9b7581-b242-45ec-889d-dff3ef38622e"},"vehicle_type_id":"4","last_reported":1740308849,"current_range_meters":22400,"station_id":"","pricing_plan_id":"cebpf4jnsgd1na2vs0mg"},{"bike_id":"582cf8d0-56f2-4a1e-91b9-fb0d46a05e7f","system_id":"levelo_inurba_marseille","lat":43.240662,"lon":5.377643,"is_reserved":false,"is_disabled":false,"rental_uris":{"android":"levelo://app?vid=582cf8d0-56f2-4a1e-91b9-fb0d46a05e7f","ios":"levelo://app?vid=582cf8d0-56f2-4a1e-91b9-fb0d46a05e7f"},"vehicle_type_id":"4","last_reported":1740308849,"current_range_meters":22800,"station_id":"ce4bhg12rcd13ifvqf80","pricing_plan_id":"cebpf4jnsgd1na2vs0mg"},{"bike_id":"67350e3b-ced3-434f-8df5-0f50029c572e","system_id":"levelo_inurba_marseille","lat":43.23186,"lon":5.35575,"is_reserved":false,"is_disabled":false,"rental_uris":{"android":"levelo://app?vid=67350e3b-ced3-434f-8df5-0f50029c572e","ios":"levelo://app?vid=67350e3b-ced3-434f-8df5-0f50029c572e"},"vehicle_type_id":"4","last_reported":1740308849,"current_range_meters":22800,"station_id":"ce4bhu92rcd13ifvqi70","pricing_plan_id":"cebpf4jnsgd1na2vs0mg"},{"bike_id":"de0b4617-8e03-400e-8e6e-9980ed6cda76","system_id":"levelo_inurba_marseille","lat":43.2396,"lon":5.36631,"is_reserved":false,"is_disabled":false,"rental_uris":{"android":"levelo://app?vid=de0b4617-8e03-400e-8e6e-9980ed6cda76","ios":"levelo://app?vid=de0b4617-8e03-400e-8e6e-9980ed6cda76"},"vehicle_type_id":"4","last_reported":1740308849,"current_range_meters":22800,"station_id":"ce4bhi12rcd13ifvqfp0","pricing_plan_id":"cebpf4jnsgd1na2vs0mg"},{"bike_id":"ea8e3a1b-2887-4e2d-b378-dfff5ba911b5","system_id":"levelo_inurba_marseille","lat":43.30888,"lon":5.39649,"is_reserved":false,"is_disabled":false,"rental_uris":{"android":"levelo://app?vid=ea8e3a1b-2887-4e2d-b378-dfff5ba911b5","ios":"levelo://app?vid=ea8e3a1b-2887-4e2d-b378-dfff5ba911b5"},"vehicle_type_id":"4","last_reported":1740308849,"current_range_meters":22800,"station_id":"ce4bh012rcd13ifvqcv0","pricing_plan_id":"cebpf4jnsgd1na2vs0mg"},{"bike_id":"86669f33-8519-423e-9dec-1b624217baeb","system_id":"levelo_inurba_marseille","lat":43.25078,"lon":5.39533,"is_reserved":false,"is_disabled":true,"rental_uris":{"android":"levelo://app?vid=86669f33-8519-423e-9dec-1b624217baeb","ios":"levelo://app?vid=86669f33-8519-423e-9dec-1b624217baeb"},"vehicle_type_id":"4","last_reported":1740308849,"current_range_meters":22800,"station_id":"ce4bhm12rcd13ifvqgkg","pricing_plan_id":"cebpf4jnsgd1na2vs0mg"},{"bike_id":"a82bd904-680a-4a07-ba77-b6af3c94da98","system_id":"levelo_inurba_marseille","lat":43.30638,"lon":5.40074,"is_reserved":false,"is_disabled":false,"rental_uris":{"android":"levelo://app?vid=a82bd904-680a-4a07-ba77-b6af3c94da98","ios":"levelo://app?vid=a82bd904-680a-4a07-ba77-b6af3c94da98"},"vehicle_type_id":"4","last_reported":1740308849,"current_range_meters":22800,"station_id":"ce4bh112rcd13ifvqda0","pricing_plan_id":"cebpf4jnsgd1na2vs0mg"},{"bike_id":"c0d3d3bc-11e5-4d83-bae1-95045d809bb5","system_id":"levelo_inurba_marseille","lat":43.29026,"lon":5.38646,"is_reserved":false,"is_disabled":false,"rental_uris":{"android":"levelo://app?vid=c0d3d3bc-11e5-4d83-bae1-95045d809bb5","ios":"levelo://app?vid=c0d3d3bc-11e5-4d83-bae1-95045d809bb5"},"vehicle_type_id":"4","last_reported":1740308849,"current_range_meters":22800,"station_id":"ce4bh4p2rcd13ifvqe0g","pricing_plan_id":"cebpf4jnsgd1na2vs0mg"},{"bike_id":"e0a974b6-ebb6-4643-b3b6-b282d529bc0a","system_id":"levelo_inurba_marseille","lat":43.31715,"lon":5.43706,"is_reserved":false,"is_disabled":true,"rental_uris":{"android":"levelo://app?vid=e0a974b6-ebb6-4643-b3b6-b282d529bc0a","ios":"levelo://app?vid=e0a974b6-ebb6-4643-b3b6-b282d529bc0a"},"vehicle_type_id":"4","last_reported":1740308849,"current_range_meters":22800,"station_id":"ce4bhp92rcd13ifvqhcg","pricing_plan_id":"cebpf4jnsgd1na2vs0mg"},{"bike_id":"67353ec5-ce91-46f3-8df8-86128e85fd44","system_id":"levelo_inurba_marseille","lat":43.28144,"lon":5.42664,"is_reserved":false,"is_disabled":true,"rental_uris":{"android":"levelo://app?vid=67353ec5-ce91-46f3-8df8-86128e85fd44","ios":"levelo://app?vid=67353ec5-ce91-46f3-8df8-86128e85fd44"},"vehicle_type_id":"4","last_reported":1740308849,"current_range_meters":22800,"station_id":"ce4bhnh2rcd13ifvqgug","pricing_plan_id":"cebpf4jnsgd1na2vs0mg"},{"bike_id":"20af6c71-3066-4d60-aa3b-1980efba44ae","system_id":"levelo_inurba_marseille","lat":43.28263,"lon":5.35061,"is_reserved":false,"is_disabled":false,"rental_uris":{"android":"levelo://app?vid=20af6c71-3066-4d60-aa3b-1980efba44ae","ios":"levelo://app?vid=20af6c71-3066-4d60-aa3b-1980efba44ae"},"vehicle_type_id":"4","last_reported":1740308849,"current_range_meters":23200,"station_id":"ce4bhbp2rcd13ifvqerg","pricing_plan_id":"cebpf4jnsgd1na2vs0mg"},{"bike_id":"4e8d8ea3-71a7-4584-98f6-731f28ff9f47","system_id":"levelo_inurba_marseille","lat":43.26939,"lon":5.40273,"is_reserved":false,"is_disabled":false,"rental_uris":{"android":"levelo://app?vid=4e8d8ea3-71a7-4584-98f6-731f28ff9f47","ios":"levelo://app?vid=4e8d8ea3-71a7-4584-98f6-731f28ff9f47"},"vehicle_type_id":"4","last_reported":1740308849,"current_range_meters":23200,"station_id":"cjm6bp8fraef2m0cb0m0","pricing_plan_id":"cebpf4jnsgd1na2vs0mg"},{"bike_id":"f244c07b-dc13-4f61-8c44-efe86de82881","system_id":"levelo_inurba_marseille","lat":43.29646,"lon":5.406,"is_reserved":false,"is_disabled":true,"rental_uris":{"android":"levelo://app?vid=f244c07b-dc13-4f61-8c44-efe86de82881","ios":"levelo://app?vid=f244c07b-dc13-4f61-8c44-efe86de82881"},"vehicle_type_id":"4","last_reported":1740308849,"current_range_meters":23200,"station_id":"ce4bh0h2rcd13ifvqd60","pricing_plan_id":"cebpf4jnsgd1na2vs0mg"},{"bike_id":"c679d1ae-58d3-41f1-863e-fb7adcd1e4da","system_id":"levelo_inurba_marseille","lat":43.295961,"lon":5.381045,"is_reserved":false,"is_disabled":false,"rental_uris":{"android":"levelo://app?vid=c679d1ae-58d3-41f1-863e-fb7adcd1e4da","ios":"levelo://app?vid=c679d1ae-58d3-41f1-863e-fb7adcd1e4da"},"vehicle_type_id":"4","last_reported":1740308849,"current_range_meters":23200,"station_id":"ce4bgl12rcd13ifvqbo0","pricing_plan_id":"cebpf4jnsgd1na2vs0mg"},{"bike_id":"306c8afe-27f2-42dd-9d3c-74d43bc1f2cb","system_id":"levelo_inurba_marseille","lat":43.27492,"lon":5.42479,"is_reserved":false,"is_disabled":false,"rental_uris":{"android":"levelo://app?vid=306c8afe-27f2-42dd-9d3c-74d43bc1f2cb","ios":"levelo://app?vid=306c8afe-27f2-42dd-9d3c-74d43bc1f2cb"},"vehicle_type_id":"4","last_reported":1740308849,"current_range_meters":23200,"station_id":"ce4bhn92rcd13ifvqgrg","pricing_plan_id":"cebpf4jnsgd1na2vs0mg"},{"bike_id":"fee3dd29-ec90-43d4-9bc1-dff5f0a7721c","system_id":"levelo_inurba_marseille","lat":43.28623,"lon":5.351,"is_reserved":false,"is_disabled":false,"rental_uris":{"android":"levelo://app?vid=fee3dd29-ec90-43d4-9bc1-dff5f0a7721c","ios":"levelo://app?vid=fee3dd29-ec90-43d4-9bc1-dff5f0a7721c"},