{"last_updated":1728962167,"ttl":60,"version":"2.2","data":{"bikes":[{"bike_id":"bdfebf5b-d2cc-4c8d-b7ba-e9fd07ad275f","system_id":"levelo_inurba_marseille","lat":43.30589,"lon":5.39356,"is_reserved":false,"is_disabled":false,"rental_uris":{"android":"levelo://app?vid=bdfebf5b-d2cc-4c8d-b7ba-e9fd07ad275f","ios":"levelo://app?vid=bdfebf5b-d2cc-4c8d-b7ba-e9fd07ad275f"},"vehicle_type_id":"4","last_reported":1728962167,"current_range_meters":38400,"station_id":"ce4bh0p2rcd13ifvqd80","pricing_plan_id":"cebpf4jnsgd1na2vs0mg"},{"bike_id":"10530386-7ea2-4630-9cfd-fe14c55cdb58","system_id":"levelo_inurba_marseille","lat":43.31756,"lon":5.39017,"is_reserved":false,"is_disabled":false,"rental_uris":{"android":"levelo://app?vid=10530386-7ea2-4630-9cfd-fe14c55cdb58","ios":"levelo://app?vid=10530386-7ea2-4630-9cfd-fe14c55cdb58"},"vehicle_type_id":"4","last_reported":1728962167,"current_range_meters":8800,"station_id":"ce4bhqp2rcd13ifvqhng","pricing_plan_id":"cebpf4jnsgd1na2vs0mg"},{"bike_id":"0e00236d-6c78-40f2-aabc-967513e135d4","system_id":"levelo_inurba_marseille","lat":43.287042,"lon":5.373924,"is_reserved":false,"is_disabled":false,"rental_uris":{"android":"levelo://app?vid=0e00236d-6c78-40f2-aabc-967513e135d4","ios":"levelo://app?vid=0e00236d-6c78-40f2-aabc-967513e135d4"},"vehicle_type_id":"4","last_reported":1728962167,"current_range_meters":39200,"station_id":"ce4bh3p2rcd13ifvqdq0","pricing_plan_id":"cebpf4jnsgd1na2vs0mg"},{"bike_id":"cf4cabc2-1787-4d02-a606-03a61104119e","system_id":"levelo_inurba_marseille","lat":43.31329,"lon":5.397,"is_reserved":false,"is_disabled":false,"rental_uris":{"android":"levelo://app?vid=cf4cabc2-1787-4d02-a606-03a61104119e","ios":"levelo://app?vid=cf4cabc2-1787-4d02-a606-03a61104119e"},"vehicle_type_id":"4","last_reported":1728962167,"current_range_meters":36800,"station_id":"ce4bgvp2rcd13ifvqcu0","pricing_plan_id":"cebpf4jnsgd1na2vs0mg"},{"bike_id":"ac788206-ab8f-4ef0-a827-047740674c33","system_id":"levelo_inurba_marseille","lat":43.3127,"lon":5.3943,"is_reserved":false,"is_disabled":false,"rental_uris":{"android":"levelo://app?vid=ac788206-ab8f-4ef0-a827-047740674c33","ios":"levelo://app?vid=ac788206-ab8f-4ef0-a827-047740674c33"},"vehicle_type_id":"4","last_reported":1728962167,"current_range_meters":21600,"station_id":"","pricing_plan_id":"cebpf4jnsgd1na2vs0mg"},{"bike_id":"f4d5b4d2-0a44-42ed-ab83-851738facba2","system_id":"levelo_inurba_marseille","lat":43.27369,"lon":5.3625,"is_reserved":false,"is_disabled":false,"rental_uris":{"android":"levelo://app?vid=f4d5b4d2-0a44-42ed-ab83-851738facba2","ios":"levelo://app?vid=f4d5b4d2-0a44-42ed-ab83-851738facba2"},"vehicle_type_id":"4","last_reported":1728962167,"current_range_meters":21600,"station_id":"ce4bhbh2rcd13ifvqeo0","pricing_plan_id":"cebpf4jnsgd1na2vs0mg"},{"bike_id":"ab06f5b3-3c08-4bb2-ab1c-a3aa34c68d36","system_id":"levelo_inurba_marseille","lat":43.25086,"lon":5.39515,"is_reserved":false,"is_disabled":false,"rental_uris":{"android":"levelo://app?vid=ab06f5b3-3c08-4bb2-ab1c-a3aa34c68d36","ios":"levelo://app?vid=ab06f5b3-3c08-4bb2-ab1c-a3aa34c68d36"},"vehicle_type_id":"4","last_reported":1728962167,"current_range_meters":38800,"station_id":"ce4bhm12rcd13ifvqgkg","pricing_plan_id":"cebpf4jnsgd1na2vs0mg"},{"bike_id":"e90d7b20-e729-4ade-9af7-e9438d15a208","system_id":"levelo_inurba_marseille","lat":43.28411,"lon":5.3751,"is_reserved":false,"is_disabled":false,"rental_uris":{"android":"levelo://app?vid=e90d7b20-e729-4ade-9af7-e9438d15a208","ios":"levelo://app?vid=e90d7b20-e729-4ade-9af7-e9438d15a208"},"vehicle_type_id":"4","last_reported":1728962167,"current_range_meters":38800,"station_id":"ce4bh412rcd13ifvqds0","pricing_plan_id":"cebpf4jnsgd1na2vs0mg"},{"bike_id":"6c769316-75e3-4eba-8bca-7dffbdb7e41c","system_id":"levelo_inurba_marseille","lat":43.28461,"lon":5.3589,"is_reserved":false,"is_disabled":false,"rental_uris":{"android":"levelo://app?vid=6c769316-75e3-4eba-8bca-7dffbdb7e41c","ios":"levelo://app?vid=6c769316-75e3-4eba-8bca-7dffbdb7e41c"},"vehicle_type_id":"4","last_reported":1728962167,"current_range_meters":38400,"station_id":"ce4bhah2rcd13ifvqei0","pricing_plan_id":"cebpf4jnsgd1na2vs0mg"},{"bike_id":"261bd9d6-59cc-4bd5-83dc-a5723cdfb9b6","system_id":"levelo_inurba_marseille","lat":43.31267,"lon":5.40164,"is_reserved":false,"is_disabled":false,"rental_uris":{"android":"levelo://app?vid=261bd9d6-59cc-4bd5-83dc-a5723cdfb9b6","ios":"levelo://app?vid=261bd9d6-59cc-4bd5-83dc-a5723cdfb9b6"},"vehicle_type_id":"4","last_reported":1728962167,"current_range_meters":39200,"station_id":"ce4bh092rcd13ifvqd30","pricing_plan_id":"cebpf4jnsgd1na2vs0mg"},{"bike_id":"03af0fa0-ac7a-486e-a557-c6d6a75c2a26","system_id":"levelo_inurba_marseille","lat":43.3108,"lon":5.42424,"is_reserved":false,"is_disabled":false,"rental_uris":{"android":"levelo://app?vid=03af0fa0-ac7a-486e-a557-c6d6a75c2a26","ios":"levelo://app?vid=03af0fa0-ac7a-486e-a557-c6d6a75c2a26"},"vehicle_type_id":"4","last_reported":1728962167,"current_range_meters":32800,"station_id":"ce4bhp92rcd13ifvqhag","pricing_plan_id":"cebpf4jnsgd1na2vs0mg"},{"bike_id":"ceb766f0-d391-46e8-8221-d34fbc4e12db","system_id":"levelo_inurba_marseille","lat":43.29784,"lon":5.39349,"is_reserved":false,"is_disabled":false,"rental_uris":{"android":"levelo://app?vid=ceb766f0-d391-46e8-8221-d34fbc4e12db","ios":"levelo://app?vid=ceb766f0-d391-46e8-8221-d34fbc4e12db"},"vehicle_type_id":"4","last_reported":1728962167,"current_range_meters":38800,"station_id":"chh1huq6cuj3fo74tm60","pricing_plan_id":"cebpf4jnsgd1na2vs0mg"},{"bike_id":"0e0f07db-f267-4fa0-9c4e-15c4b35284ab","system_id":"levelo_inurba_marseille","lat":43.32283,"lon":5.38264,"is_reserved":false,"is_disabled":false,"rental_uris":{"android":"levelo://app?vid=0e0f07db-f267-4fa0-9c4e-15c4b35284ab","ios":"levelo://app?vid=0e0f07db-f267-4fa0-9c4e-15c4b35284ab"},"vehicle_type_id":"4","last_reported":1728962167,"current_range_meters":38000,"station_id":"ce4bhr12rcd13ifvqhqg","pricing_plan_id":"cebpf4jnsgd1na2vs0mg"},{"bike_id":"0e27d2a3-05c1-4ee1-8499-176b54a59476","system_id":"levelo_inurba_marseille","lat":43.29791,"lon":5.39341,"is_reserved":false,"is_disabled":false,"rental_uris":{"android":"levelo://app?vid=0e27d2a3-05c1-4ee1-8499-176b54a59476","ios":"levelo://app?vid=0e27d2a3-05c1-4ee1-8499-176b54a59476"},"vehicle_type_id":"4","last_reported":1728962167,"current_range_meters":38800,"station_id":"chh1huq6cuj3fo74tm60","pricing_plan_id":"cebpf4jnsgd1na2vs0mg"},{"bike_id":"ba0bc205-42c3-45aa-9387-1143bf833c8e","system_id":"levelo_inurba_marseille","lat":43.29266,"lon":5.36846,"is_reserved":false,"is_disabled":false,"rental_uris":{"android":"levelo://app?vid=ba0bc205-42c3-45aa-9387-1143bf833c8e","ios":"levelo://app?vid=ba0bc205-42c3-45aa-9387-1143bf833c8e"},"vehicle_type_id":"4","last_reported":1728962167,"current_range_meters":38400,"station_id":"ce4bhbp2rcd13ifvqesg","pricing_plan_id":"cebpf4jnsgd1na2vs0mg"},{"bike_id":"8f0ddbae-438c-4d1f-9f27-4368934ce05e","system_id":"levelo_inurba_marseille","lat":43.30597,"lon":5.39346,"is_reserved":false,"is_disabled":false,"rental_uris":{"android":"levelo://app?vid=8f0ddbae-438c-4d1f-9f27-4368934ce05e","ios":"levelo://app?vid=8f0ddbae-438c-4d1f-9f27-4368934ce05e"},"vehicle_type_id":"4","last_reported":1728962167,"current_range_meters":38000,"station_id":"ce4bh0p2rcd13ifvqd80","pricing_plan_id":"cebpf4jnsgd1na2vs0mg"},{"bike_id":"aedc2950-8b7b-4e89-9368-59c434adb633","system_id":"levelo_inurba_marseille","lat":43.28268,"lon":5.35081,"is_reserved":false,"is_disabled":false,"rental_uris":{"android":"levelo://app?vid=aedc2950-8b7b-4e89-9368-59c434adb633","ios":"levelo://app?vid=aedc2950-8b7b-4e89-9368-59c434adb633"},"vehicle_type_id":"4","last_reported":1728962167,"current_range_meters":38000,"station_id":"ce4bhbp2rcd13ifvqerg","pricing_plan_id":"cebpf4jnsgd1na2vs0mg"},{"bike_id":"e0d609ec-d2fb-447a-aae2-ed2991c291e9","system_id":"levelo_inurba_marseille","lat":43.31166,"lon":5.38719,"is_reserved":false,"is_disabled":false,"rental_uris":{"android":"levelo://app?vid=e0d609ec-d2fb-447a-aae2-ed2991c291e9","ios":"levelo://app?vid=e0d609ec-d2fb-447a-aae2-ed2991c291e9"},"vehicle_type_id":"4","last_reported":1728962167,"current_range_meters":33600,"station_id":"ce4bgv12rcd13ifvqcp0","pricing_plan_id":"cebpf4jnsgd1na2vs0mg"},{"bike_id":"4fb899fb-c7f7-4299-8856-d588065fcc96","system_id":"levelo_inurba_marseille","lat":43.31724,"lon":5.42402,"is_reserved":false,"is_disabled":false,"rental_uris":{"android":"levelo://app?vid=4fb899fb-c7f7-4299-8856-d588065fcc96","ios":"levelo://app?vid=4fb899fb-c7f7-4299-8856-d588065fcc96"},"vehicle_type_id":"4","last_reported":1728962167,"current_range_meters":38800,"station_id":"ce4bhp92rcd13ifvqhbg","pricing_plan_id":"cebpf4jnsgd1na2vs0mg"},{"bike_id":"a741e10f-0759-49b0-af27-2a852c4aee52","system_id":"levelo_inurba_marseille","lat":43.32655,"lon":5.40993,"is_reserved":false,"is_disabled":false,"rental_uris":{"android":"levelo://app?vid=a741e10f-0759-49b0-af27-2a852c4aee52","ios":"levelo://app?vid=a741e10f-0759-49b0-af27-2a852c4aee52"},"vehicle_type_id":"4","last_reported":1728962167,"current_range_meters":36800,"station_id":"ce4bhpp2rcd13ifvqhgg","pricing_plan_id":"cebpf4jnsgd1na2vs0mg"},{"bike_id":"58f13e0b-f545-4df4-bc1f-4c6e95704afc","system_id":"levelo_inurba_marseille","lat":43.28411,"lon":5.37511,"is_reserved":false,"is_disabled":false,"rental_uris":{"android":"levelo://app?vid=58f13e0b-f545-4df4-bc1f-4c6e95704afc","ios":"levelo://app?vid=58f13e0b-f545-4df4-bc1f-4c6e95704afc"},"vehicle_type_id":"4","last_reported":1728962167,"current_range_meters":37600,"station_id":"ce4bh412rcd13ifvqds0","pricing_plan_id":"cebpf4jnsgd1na2vs0mg"},{"bike_id":"dfe8030c-37d8-4b9c-a9e4-185e78aae511","system_id":"levelo_inurba_marseille","lat":43.31753,"lon":5.39014,"is_reserved":false,"is_disabled":false,"rental_uris":{"android":"levelo://app?vid=dfe8030c-37d8-4b9c-a9e4-185e78aae511","ios":"levelo://app?vid=dfe8030c-37d8-4b9c-a9e4-185e78aae511"},"vehicle_type_id":"4","last_reported":1728962167,"current_range_meters":38400,"station_id":"ce4bhqp2rcd13ifvqhng","pricing_plan_id":"cebpf4jnsgd1na2vs0mg"},{"bike_id":"1c5b8ae7-786d-445b-b9e1-97874f67f0a3","system_id":"levelo_inurba_marseille","lat":43.30783,"lon":5.37648,"is_reserved":false,"is_disabled":false,"rental_uris":{"android":"levelo://app?vid=1c5b8ae7-786d-445b-b9e1-97874f67f0a3","ios":"levelo://app?vid=1c5b8ae7-786d-445b-b9e1-97874f67f0a3"},"vehicle_type_id":"4","last_reported":1728962167,"current_range_meters":39200,"station_id":"ce4bgv92rcd13ifvqcq0","pricing_plan_id":"cebpf4jnsgd1na2vs0mg"},{"bike_id":"5d12803c-19db-45e4-a857-1fff9be49f25","system_id":"levelo_inurba_marseille","lat":43.25931,"lon":5.40906,"is_reserved":false,"is_disabled":false,"rental_uris":{"android":"levelo://app?vid=5d12803c-19db-45e4-a857-1fff9be49f25","ios":"levelo://app?vid=5d12803c-19db-45e4-a857-1fff9be49f25"},"vehicle_type_id":"4","last_reported":1728962167,"current_range_meters":37600,"station_id":"ce4bhm92rcd13ifvqglg","pricing_plan_id":"cebpf4jnsgd1na2vs0mg"},{"bike_id":"009e1944-5320-46ff-a5bd-7f170a6cc59c","system_id":"levelo_inurba_marseille","lat":43.31067,"lon":5.38338,"is_reserved":false,"is_disabled":false,"rental_uris":{"android":"levelo://app?vid=009e1944-5320-46ff-a5bd-7f170a6cc59c","ios":"levelo://app?vid=009e1944-5320-46ff-a5bd-7f170a6cc59c"},"vehicle_type_id":"4","last_reported":1728962167,"current_range_meters":38800,"station_id":"ce4bgv92rcd13ifvqcr0","pricing_plan_id":"cebpf4jnsgd1na2vs0mg"},{"bike_id":"2c9ed3c2-8f06-4c6d-9374-4d34c0d3ad6b","system_id":"levelo_inurba_marseille","lat":43.326598,"lon":5.409867,"is_reserved":false,"is_disabled":false,"rental_uris":{"android":"levelo://app?vid=2c9ed3c2-8f06-4c6d-9374-4d34c0d3ad6b","ios":"levelo://app?vid=2c9ed3c2-8f06-4c6d-9374-4d34c0d3ad6b"},"vehicle_type_id":"4","last_reported":1728962167,"current_range_meters":39200,"station_id":"ce4bhpp2rcd13ifvqhgg","pricing_plan_id":"cebpf4jnsgd1na2vs0mg"},{"bike_id":"28462d19-e15d-41dd-bbef-77267e4be378","system_id":"levelo_inurba_marseille","lat":43.292597,"lon":5.409024,"is_reserved":false,"is_disabled":false,"rental_uris":{"android":"levelo://app?vid=28462d19-e15d-41dd-bbef-77267e4be378","ios":"levelo://app?vid=28462d19-e15d-41dd-bbef-77267e4be378"},"vehicle_type_id":"4","last_reported":1728962167,"current_range_meters":35200,"station_id":"ce4bh192rcd13ifvqdc0","pricing_plan_id":"cebpf4jnsgd1na2vs0mg"},{"bike_id":"c6cb8169-86d9-4979-b6d9-2235f845d6f0","system_id":"levelo_inurba_marseille","lat":43.31486,"lon":5.37297,"is_reserved":false,"is_disabled":false,"rental_uris":{"android":"levelo://app?vid=c6cb8169-86d9-4979-b6d9-2235f845d6f0","ios":"levelo://app?vid=c6cb8169-86d9-4979-b6d9-2235f845d6f0"},"vehicle_type_id":"4","last_reported":1728962167,"current_range_meters":38400,"station_id":"ce4bgt12rcd13ifvqcd0","pricing_plan_id":"cebpf4jnsgd1na2vs0mg"},{"bike_id":"4cf12dc6-3a4d-47f6-980f-7bb8edfa494b","system_id":"levelo_inurba_marseille","lat":43.30487,"lon":5.37897,"is_reserved":false,"is_disabled":false,"rental_uris":{"android":"levelo://app?vid=4cf12dc6-3a4d-47f6-980f-7bb8edfa494b","ios":"levelo://app?vid=4cf12dc6-3a4d-47f6-980f-7bb8edfa494b"},"vehicle_type_id":"4","last_reported":1728962167,"current_range_meters":27600,"station_id":"ce4bgup2rcd13ifvqcn0","pricing_plan_id":"cebpf4jnsgd1na2vs0mg"},{"bike_id":"5292987e-66b0-490b-9008-873f9af3c4a1","system_id":"levelo_inurba_marseille","lat":43.2587,"lon":5.39902,"is_reserved":false,"is_disabled":false,"rental_uris":{"android":"levelo://app?vid=5292987e-66b0-490b-9008-873f9af3c4a1","ios":"levelo://app?vid=5292987e-66b0-490b-9008-873f9af3c4a1"},"vehicle_type_id":"4","last_reported":1728962167,"current_range_meters":38800,"station_id":"ce4bhl92rcd13ifvqghg","pricing_plan_id":"cebpf4jnsgd1na2vs0mg"},{"bike_id":"1c9343e4-7b78-402e-b1fe-6599c269887e","system_id":"levelo_inurba_marseille","lat":43.314515,"lon":5.37384,"is_reserved":false,"is_disabled":false,"rental_uris":{"android":"levelo://app?vid=1c9343e4-7b78-402e-b1fe-6599c269887e","ios":"levelo://app?vid=1c9343e4-7b78-402e-b1fe-6599c269887e"},"vehicle_type_id":"4","last_reported":1728962167,"current_range_meters":25200,"station_id":"","pricing_plan_id":"cebpf4jnsgd1na2vs0mg"},{"bike_id":"b42f2c24-44ff-457a-9a5c-112549c7964a","system_id":"levelo_inurba_marseille","lat":43.25118,"lon":5.40322,"is_reserved":false,"is_disabled":false,"rental_uris":{"android":"levelo://app?vid=b42f2c24-44ff-457a-9a5c-112549c7964a","ios":"levelo://app?vid=b42f2c24-44ff-457a-9a5c-112549c7964a"},"vehicle_type_id":"4","last_reported":1728962167,"current_range_meters":38000,"station_id":"ce4bhlh2rcd13ifvqgig","pricing_plan_id":"cebpf4jnsgd1na2vs0mg"},{"bike_id":"b1b01acb-9147-4343-a458-fba808df90c3","system_id":"levelo_inurba_marseille","lat":43.28151,"lon":5.42641,"is_reserved":false,"is_disabled":false,"rental_uris":{"android":"levelo://app?vid=b1b01acb-9147-4343-a458-fba808df90c3","ios":"levelo://app?vid=b1b01acb-9147-4343-a458-fba808df90c3"},"vehicle_type_id":"4","last_reported":1728962167,"current_range_meters":37600,"station_id":"ce4bhnh2rcd13ifvqgug","pricing_plan_id":"cebpf4jnsgd1na2vs0mg"},{"bike_id":"0f436496-4da5-49a1-8b18-624ffd1d6246","system_id":"levelo_inurba_marseille","lat":43.28457,"lon":5.35893,"is_reserved":false,"is_disabled":false,"rental_uris":{"android":"levelo://app?vid=0f436496-4da5-49a1-8b18-624ffd1d6246","ios":"levelo://app?vid=0f436496-4da5-49a1-8b18-624ffd1d6246"},"vehicle_type_id":"4","last_reported":1728962167,"current_range_meters":34000,"station_id":"ce4bhah2rcd13ifvqei0","pricing_plan_id":"cebpf4jnsgd1na2vs0mg"},{"bike_id":"5d474d0f-c59b-4278-ac35-6201f553535f","system_id":"levelo_inurba_marseille","lat":43.29622,"lon":5.406,"is_reserved":false,"is_disabled":false,"rental_uris":{"android":"levelo://app?vid=5d474d0f-c59b-4278-ac35-6201f553535f","ios":"levelo://app?vid=5d474d0f-c59b-4278-ac35-6201f553535f"},"vehicle_type_id":"4","last_reported":1728962167,"current_range_meters":38000,"station_id":"ce4bh0h2rcd13ifvqd60","pricing_plan_id":"cebpf4jnsgd1na2vs0mg"},{"bike_id":"23d8bd7c-2dd6-4dbc-8138-b2a4ac4b4b56","system_id":"levelo_inurba_marseille","lat":43.31525,"lon":5.38038,"is_reserved":false,"is_disabled":false,"rental_uris":{"android":"levelo://app?vid=23d8bd7c-2dd6-4dbc-8138-b2a4ac4b4b56","ios":"levelo://app?vid=23d8bd7c-2dd6-4dbc-8138-b2a4ac4b4b56"},"vehicle_type_id":"4","last_reported":1728962167,"current_range_meters":36400,"station_id":"ce4bhsp2rcd13ifvqi50","pricing_plan_id":"cebpf4jnsgd1na2vs0mg"},{"bike_id":"01278a9e-9df9-414f-9298-8fc23308687f","system_id":"levelo_inurba_marseille","lat":43.3092,"lon":5.36845,"is_reserved":false,"is_disabled":false,"rental_uris":{"android":"levelo://app?vid=01278a9e-9df9-414f-9298-8fc23308687f","ios":"levelo://app?vid=01278a9e-9df9-414f-9298-8fc23308687f"},"vehicle_type_id":"4","last_reported":1728962167,"current_range_meters":36400,"station_id":"ce4bgn92rcd13ifvqbvg","pricing_plan_id":"cebpf4jnsgd1na2vs0mg"},{"bike_id":"725cf1f1-c36f-4257-98d4-57b786bdb67f","system_id":"levelo_inurba_marseille","lat":43.24654,"lon":5.38888,"is_reserved":false,"is_disabled":false,"rental_uris":{"android":"levelo://app?vid=725cf1f1-c36f-4257-98d4-57b786bdb67f","ios":"levelo://app?vid=725cf1f1-c36f-4257-98d4-57b786bdb67f"},"vehicle_type_id":"4","last_reported":1728962167,"current_range_meters":37600,"station_id":"ce4bhg12rcd13ifvqf60","pricing_plan_id":"cebpf4jnsgd1na2vs0mg"},{"bike_id":"b35fcd0d-0b0b-4c33-b438-02cf58ed0ee3","system_id":"levelo_inurba_marseille","lat":43.27564,"lon":5.3841,"is_reserved":false,"is_disabled":false,"rental_uris":{"android":"levelo://app?vid=b35fcd0d-0b0b-4c33-b438-02cf58ed0ee3","ios":"levelo://app?vid=b35fcd0d-0b0b-4c33-b438-02cf58ed0ee3"},"vehicle_type_id":"4","last_reported":1728962167,"current_range_meters":38800,"station_id":"ce4bhh92rcd13ifvqfi0","pricing_plan_id":"cebpf4jnsgd1na2vs0mg"},{"bike_id":"028fce04-55e9-4ec3-b4a5-1b566b48b26b","system_id":"levelo_inurba_marseille","lat":43.32538,"lon":5.41451,"is_reserved":false,"is_disabled":false,"rental_uris":{"android":"levelo://app?vid=028fce04-55e9-4ec3-b4a5-1b566b48b26b","ios":"levelo://app?vid=028fce04-55e9-4ec3-b4a5-1b566b48b26b"},"vehicle_type_id":"4","last_reported":1728962167,"current_range_meters":24000,"station_id":"ce4bhq12rcd13ifvqhhg","pricing_plan_id":"cebpf4jnsgd1na2vs0mg"},{"bike_id":"0aa0a823-4192-4039-a41f-8b7be20c611d","system_id":"levelo_inurba_marseille","lat":43.31505,"lon":5.37295,"is_reserved":false,"is_disabled":false,"rental_uris":{"android":"levelo://app?vid=0aa0a823-4192-4039-a41f-8b7be20c611d","ios":"levelo://app?vid=0aa0a823-4192-4039-a41f-8b7be20c611d"},"vehicle_type_id":"4","last_reported":1728962167,"current_range_meters":9600,"station_id":"ce4bgt12rcd13ifvqcd0","pricing_plan_id":"cebpf4jnsgd1na2vs0mg"},{"bike_id":"05a48c1f-8542-4604-801f-8bcad6213878","system_id":"levelo_inurba_marseille","lat":43.34147,"lon":5.40903,"is_reserved":false,"is_disabled":false,"rental_uris":{"android":"levelo://app?vid=05a48c1f-8542-4604-801f-8bcad6213878","ios":"levelo://app?vid=05a48c1f-8542-4604-801f-8bcad6213878"},"vehicle_type_id":"4","last_reported":1728962167,"current_range_meters":18000,"station_id":"ce4bhqh2rcd13ifvqhlg","pricing_plan_id":"cebpf4jnsgd1na2vs0mg"},{"bike_id":"2b85a6e0-def7-4a19-ab1f-dffd44eebd82","system_id":"levelo_inurba_marseille","lat":43.32365,"lon":5.38874,"is_reserved":false,"is_disabled":false,"rental_uris":{"android":"levelo://app?vid=2b85a6e0-def7-4a19-ab1f-dffd44eebd82","ios":"levelo://app?vid=2b85a6e0-def7-4a19-ab1f-dffd44eebd82"},"vehicle_type_id":"4","last_reported":1728962167,"current_range_meters":11200,"station_id":"ce4bhqp2rcd13ifvqhog","pricing_plan_id":"cebpf4jnsgd1na2vs0mg"},{"bike_id":"b33fb764-46a4-49bb-8826-da12c1c9f740","system_id":"levelo_inurba_marseille","lat":43.28703,"lon":5.374,"is_reserved":false,"is_disabled":false,"rental_uris":{"android":"levelo://app?vid=b33fb764-46a4-49bb-8826-da12c1c9f740","ios":"levelo://app?vid=b33fb764-46a4-49bb-8826-da12c1c9f740"},"vehicle_type_id":"4","last_reported":1728962167,"current_range_meters":24800,"station_id":"ce4bh3p2rcd13ifvqdq0","pricing_plan_id":"cebpf4jnsgd1na2vs0mg"},{"bike_id":"02d20c80-1832-49a8-b20c-d886b909e3b2","system_id":"levelo_inurba_marseille","lat":43.29247,"lon":5.40903,"is_reserved":false,"is_disabled":false,"rental_uris":{"android":"levelo://app?vid=02d20c80-1832-49a8-b20c-d886b909e3b2","ios":"levelo://app?vid=02d20c80-1832-49a8-b20c-d886b909e3b2"},"vehicle_type_id":"4","last_reported":1728962167,"current_range_meters":34000,"station_id":"ce4bh192rcd13ifvqdc0","pricing_plan_id":"cebpf4jnsgd1na2vs0mg"},{"bike_id":"1eb0d291-c980-43c3-897c-b678fe3f7bcf","system_id":"levelo_inurba_marseille","lat":43.32343,"lon":5.40624,"is_reserved":false,"is_disabled":false,"rental_uris":{"android":"levelo://app?vid=1eb0d291-c980-43c3-897c-b678fe3f7bcf","ios":"levelo://app?vid=1eb0d291-c980-43c3-897c-b678fe3f7bcf"},"vehicle_type_id":"4","last_reported":1728962167,"current_range_meters":32800,"station_id":"ce4bhq92rcd13ifvqhjg","pricing_plan_id":"cebpf4jnsgd1na2vs0mg"},{"bike_id":"8fdd4147-e848-49f0-9c54-870bdb6cb1f5","system_id":"levelo_inurba_marseille","lat":43.33605,"lon":5.41037,"is_reserved":false,"is_disabled":false,"rental_uris":{"android":"levelo://app?vid=8fdd4147-e848-49f0-9c54-870bdb6cb1f5","ios":"levelo://app?vid=8fdd4147-e848-49f0-9c54-870bdb6cb1f5"},"vehicle_type_id":"4","last_reported":1728962167,"current_range_meters":36800,"station_id":"ce4bhqh2rcd13ifvqhmg","pricing_plan_id":"cebpf4jnsgd1na2vs0mg"},{"bike_id":"16108f92-6bb6-4625-8e86-043bb5e3efc3","system_id":"levelo_inurba_marseille","lat":43.33603,"lon":5.41042,"is_reserved":false,"is_disabled":false,"rental_uris":{"android":"levelo://app?vid=16108f92-6bb6-4625-8e86-043bb5e3efc3","ios":"levelo://app?vid=16108f92-6bb6-4625-8e86-043bb5e3efc3"},"vehicle_type_id":"4","last_reported":1728962167,"current_range_meters":39200,"station_id":"ce4bhqh2rcd13ifvqhmg","pricing_plan_id":"cebpf4jnsgd1na2vs0mg"},{"bike_id":"38f8e82f-b32d-4209-9f63-50ee9fadf9e5","system_id":"levelo_inurba_marseille","lat":43.27069,"lon":5.4228,"is_reserved":false,"is_disabled":false,"rental_uris":{"android":"levelo://app?vid=38f8e82f-b32d-4209-9f63-50ee9fadf9e5","ios":"levelo://app?vid=38f8e82f-b32d-4209-9f63-50ee9fadf9e5"},"vehicle_type_id":"4","last_reported":1728962167,"current_range_meters":39200,"station_id":"ce4bhk92rcd13ifvqgb0","pricing_plan_id":"cebpf4jnsgd1na2vs0mg"},{"bike_id":"fdfebcf8-fb17-4b40-8a78-d74a03d62b1a","system_id":"levelo_inurba_marseille","lat":43.23185,"lon":5.39978,"is_reserved":false,"is_disabled":false,"rental_uris":{"android":"levelo://app?vid=fdfebcf8-fb17-4b40-8a78-d74a03d62b1a","ios":"levelo://app?vid=fdfebcf8-fb17-4b40-8a78-d74a03d62b1a"},"vehicle_type_id":"4","last_reported":1728962167,"current_range_meters":28400,"station_id":"ce4bhn12rcd13ifvqgqg","pricing_plan_id":"cebpf4jnsgd1na2vs0mg"},{"bike_id":"089f7e4d-5e67-4252-9468-8ac863048356","system_id":"levelo_inurba_marseille","lat":43.30421,"lon":5.38891,"is_reserved":false,"is_disabled":false,"rental_uris":{"android":"levelo://app?vid=089f7e4d-5e67-4252-9468-8ac863048356","ios":"levelo://app?vid=089f7e4d-5e67-4252-9468-8ac863048356"},"vehicle_type_id":"4","last_reported":1728962167,"current_range_meters":38000,"station_id":"ce4bgk12rcd13ifvqbi0","pricing_plan_id":"cebpf4jnsgd1na2vs0mg"},{"bike_id":"4acaa12a-59a0-401c-a35a-9d542ce22a01","system_id":"levelo_inurba_marseille","lat":43.29891,"lon":5.43657,"is_reserved":false,"is_disabled":false,"rental_uris":{"android":"levelo://app?vid=4acaa12a-59a0-401c-a35a-9d542ce22a01","ios":"levelo://app?vid=4acaa12a-59a0-401c-a35a-9d542ce22a01"},"vehicle_type_id":"4","last_reported":1728962167,"current_range_meters":38000,"station_id":"ce4bhpp2rcd13ifvqhfg","pricing_plan_id":"cebpf4jnsgd1na2vs0mg"},{"bike_id":"27521189-a10b-488a-82b8-973812fa95e1","system_id":"levelo_inurba_marseille","lat":43.324864,"lon":5.365709,"is_reserved":false,"is_disabled":false,"rental_uris":{"android":"levelo://app?vid=27521189-a10b-488a-82b8-973812fa95e1","ios":"levelo://app?vid=27521189-a10b-488a-82b8-973812fa95e1"},"vehicle_type_id":"4","last_reported":1728962167,"current_range_meters":37600,"station_id":"ce4bhs12rcd13ifvqhvg","pricing_plan_id":"cebpf4jnsgd1na2vs0mg"},{"bike_id":"de247580-7b42-44b2-91cb-98260b1c6640","system_id":"levelo_inurba_marseille","lat":43.30877,"lon":5.39648,"is_reserved":false,"is_disabled":false,"rental_uris":{"android":"levelo://app?vid=de247580-7b42-44b2-91cb-98260b1c6640","ios":"levelo://app?vid=de247580-7b42-44b2-91cb-98260b1c6640"},"vehicle_type_id":"4","last_reported":1728962167,"current_range_meters":37600,"station_id":"ce4bh012rcd13ifvqcv0","pricing_plan_id":"cebpf4jnsgd1na2vs0mg"},{"bike_id":"2bfab616-519d-4176-be5e-18a9df497326","system_id":"levelo_inurba_marseille","lat":43.29972,"lon":5.38483,"is_reserved":false,"is_disabled":false,"rental_uris":{"android":"levelo://app?vid=2bfab616-519d-4176-be5e-18a9df497326","ios":"levelo://app?vid=2bfab616-519d-4176-be5e-18a9df497326"},"vehicle_type_id":"4","last_reported":1728962167,"current_range_meters":37600,"station_id":"ce4bgj92rcd13ifvqbd0","pricing_plan_id":"cebpf4jnsgd1na2vs0mg"},{"bike_id":"9db40ddd-438c-4b3e-acd4-f19cdf6b8d2b","system_id":"levelo_inurba_marseille","lat":43.24807,"lon":5.37451,"is_reserved":false,"is_disabled":false,"rental_uris":{"android":"levelo://app?vid=9db40ddd-438c-4b3e-acd4-f19cdf6b8d2b","ios":"levelo://app?vid=9db40ddd-438c-4b3e-acd4-f19cdf6b8d2b"},"vehicle_type_id":"4","last_reported":1728962167,"current_range_meters":32000,"station_id":"ce4bhgh2rcd13ifvqfb0","pricing_plan_id":"cebpf4jnsgd1na2vs0mg"},{"bike_id":"5724a621-30fc-4cf9-b14f-4b747b3dff4a","system_id":"levelo_inurba_marseille","lat":43.24665,"lon":5.3815,"is_reserved":false,"is_disabled":false,"rental_uris":{"android":"levelo://app?vid=5724a621-30fc-4cf9-b14f-4b747b3dff4a","ios":"levelo://app?vid=5724a621-30fc-4cf9-b14f-4b747b3dff4a"},"vehicle_type_id":"4","last_reported":1728962167,"current_range_meters":38800,"station_id":"ce4bhih2rcd13ifvqfr0","pricing_plan_id":"cebpf4jnsgd1na2vs0mg"},{"bike_id":"09a2e575-ef21-47f1-afdd-66b4617de5a0","system_id":"levelo_inurba_marseille","lat":43.28074,"lon":5.39653,"is_reserved":false,"is_disabled":false,"rental_uris":{"android":"levelo://app?vid=09a2e575-ef21-47f1-afdd-66b4617de5a0","ios":"levelo://app?vid=09a2e575-ef21-47f1-afdd-66b4617de5a0"},"vehicle_type_id":"4","last_reported":1728962167,"current_range_meters":38800,"station_id":"ce4bho12rcd13ifvqh2g","pricing_plan_id":"cebpf4jnsgd1na2vs0mg"},{"bike_id":"51ea1441-9738-4a97-808c-9b3f542e779b","system_id":"levelo_inurba_marseille","lat":43.29042,"lon":5.39949,"is_reserved":false,"is_disabled":false,"rental_uris":{"android":"levelo://app?vid=51ea1441-9738-4a97-808c-9b3f542e779b","ios":"levelo://app?vid=51ea1441-9738-4a97-808c-9b3f542e779b"},"vehicle_type_id":"4","last_reported":1728962167,"current_range_meters":12400,"station_id":"ce4bh392rcd13ifvqdm0","pricing_plan_id":"cebpf4jnsgd1na2vs0mg"},{"bike_id":"49be40e6-825f-4f85-95e7-732c4c0772ae","system_id":"levelo_inurba_marseille","lat":43.31323,"lon":5.3969,"is_reserved":false,"is_disabled":false,"rental_uris":{"android":"levelo://app?vid=49be40e6-825f-4f85-95e7-732c4c0772ae","ios":"levelo://app?vid=49be40e6-825f-4f85-95e7-732c4c0772ae"},"vehicle_type_id":"4","last_reported":1728962167,"current_range_meters":30000,"station_id":"ce4bgvp2rcd13ifvqcu0","pricing_plan_id":"cebpf4jnsgd1na2vs0mg"},{"bike_id":"70700c70-fa0c-4308-8c61-fb4893e7da37","system_id":"levelo_inurba_marseille","lat":43.30418,"lon":5.41289,"is_reserved":false,"is_disabled":false,"rental_uris":{"android":"levelo://app?vid=70700c70-fa0c-4308-8c61-fb4893e7da37","ios":"levelo://app?vid=70700c70-fa0c-4308-8c61-fb4893e7da37"},"vehicle_type_id":"4","last_reported":1728962167,"current_range_meters":37600,"station_id":"ce4bhop2rcd13ifvqh8g","pricing_plan_id":"cebpf4jnsgd1na2vs0mg"},{"bike_id":"ba87a5e1-78fc-4d10-8ebe-451ce5ee31ce","system_id":"levelo_inurba_marseille","lat":43.255807,"lon":5.38232,"is_reserved":false,"is_disabled":false,"rental_uris":{"android":"levelo://app?vid=ba87a5e1-78fc-4d10-8ebe-451ce5ee31ce","ios":"levelo://app?vid=ba87a5e1-78fc-4d10-8ebe-451ce5ee31ce"},"vehicle_type_id":"4","last_reported":1728962167,"current_range_meters":7200,"station_id":"ce4bhih2rcd13ifvqfs0","pricing_plan_id":"cebpf4jnsgd1na2vs0mg"},{"bike_id":"c3d7c0eb-3d86-4cb2-9661-09e5ae2b8029","system_id":"levelo_inurba_marseille","lat":43.279033,"lon":5.380094,"is_reserved":false,"is_disabled":false,"rental_uris":{"android":"levelo://app?vid=c3d7c0eb-3d86-4cb2-9661-09e5ae2b8029","ios":"levelo://app?vid=c3d7c0eb-3d86-4cb2-9661-09e5ae2b8029"},"vehicle_type_id":"4","last_reported":1728962167,"current_range_meters":38800,"station_id":"ce4bhf92rcd13ifvqf50","pricing_plan_id":"cebpf4jnsgd1na2vs0mg"},{"bike_id":"11961461-44e3-464d-b597-7f76cd80ed83","system_id":"levelo_inurba_marseille","lat":43.32654,"lon":5.40986,"is_reserved":false,"is_disabled":false,"rental_uris":{"android":"levelo://app?vid=11961461-44e3-464d-b597-7f76cd80ed83","ios":"levelo://app?vid=11961461-44e3-464d-b597-7f76cd80ed83"},"vehicle_type_id":"4","last_reported":1728962167,"current_range_meters":19600,"station_id":"ce4bhpp2rcd13ifvqhgg","pricing_plan_id":"cebpf4jnsgd1na2vs0mg"},{"bike_id":"d68a13a4-a346-4048-9044-ed61653ff321","system_id":"levelo_inurba_marseille","lat":43.32654,"lon":5.40985,"is_reserved":false,"is_disabled":false,"rental_uris":{"android":"levelo://app?vid=d68a13a4-a346-4048-9044-ed61653ff321","ios":"levelo://app?vid=d68a13a4-a346-4048-9044-ed61653ff321"},"vehicle_type_id":"4","last_reported":1728962167,"current_range_meters":38400,"station_id":"ce4bhpp2rcd13ifvqhgg","pricing_plan_id":"cebpf4jnsgd1na2vs0mg"},{"bike_id":"a7ac06c3-430e-48f4-9ad6-5a0061e134a2","system_id":"levelo_inurba_marseille","lat":43.292589,"lon":5.409107,"is_reserved":false,"is_disabled":false,"rental_uris":{"android":"levelo://app?vid=a7ac06c3-430e-48f4-9ad6-5a0061e134a2","ios":"levelo://app?vid=a7ac06c3-430e-48f4-9ad6-5a0061e134a2"},"vehicle_type_id":"4","last_reported":1728962167,"current_range_meters":16000,"station_id":"ce4bh192rcd13ifvqdc0","pricing_plan_id":"cebpf4jnsgd1na2vs0mg"},{"bike_id":"7788dc4b-4f54-41ed-a1d3-a1984d58b388","system_id":"levelo_inurba_marseille","lat":43.28616,"lon":5.351,"is_reserved":false,"is_disabled":false,"rental_uris":{"android":"levelo://app?vid=7788dc4b-4f54-41ed-a1d3-a1984d58b388","ios":"levelo://app?vid=7788dc4b-4f54-41ed-a1d3-a1984d58b388"},"vehicle_type_id":"4","last_reported":1728962167,"current_range_meters":38000,"station_id":"ce4bhch2rcd13ifvqeug","pricing_plan_id":"cebpf4jnsgd1na2vs0mg"},{"bike_id":"e8fd743b-6305-49f6-9cda-5da5f3b2104d","system_id":"levelo_inurba_marseille","lat":43.25117,"lon":5.40322,"is_reserved":false,"is_disabled":false,"rental_uris":{"android":"levelo://app?vid=e8fd743b-6305-49f6-9cda-5da5f3b2104d","ios":"levelo://app?vid=e8fd743b-6305-49f6-9cda-5da5f3b2104d"},"vehicle_type_id":"4","last_reported":1728962167,"current_range_meters":38400,"station_id":"ce4bhlh2rcd13ifvqgig","pricing_plan_id":"cebpf4jnsgd1na2vs0mg"},{"bike_id":"2cae58b0-1d09-4f39-9486-738f0cc9e4a7","system_id":"levelo_inurba_marseille","lat":43.26053,"lon":5.39389,"is_reserved":false,"is_disabled":false,"rental_uris":{"android":"levelo://app?vid=2cae58b0-1d09-4f39-9486-738f0cc9e4a7","ios":"levelo://app?vid=2cae58b0-1d09-4f39-9486-738f0cc9e4a7"},"vehicle_type_id":"4","last_reported":1728962167,"current_range_meters":38400,"station_id":"ce4bhh92rcd13ifvqfj0","pricing_plan_id":"cebpf4jnsgd1na2vs0mg"},{"bike_id":"995213a4-b0e8-4737-b0b6-5f59e564978e","system_id":"levelo_inurba_marseille","lat":43.33604,"lon":5.41022,"is_reserved":false,"is_disabled":false,"rental_uris":{"android":"levelo://app?vid=995213a4-b0e8-4737-b0b6-5f59e564978e","ios":"levelo://app?vid=995213a4-b0e8-4737-b0b6-5f59e564978e"},"vehicle_type_id":"4","last_reported":1728962167,"current_range_meters":8400,"station_id":"ce4bhqh2rcd13ifvqhmg","pricing_plan_id":"cebpf4jnsgd1na2vs0mg"},{"bike_id":"b178b062-35cd-4f92-91db-f4ae171fe0ea","system_id":"levelo_inurba_marseille","lat":43.292851,"lon":5.368404,"is_reserved":false,"is_disabled":false,"rental_uris":{"android":"levelo://app?vid=b178b062-35cd-4f92-91db-f4ae171fe0ea","ios":"levelo://app?vid=b178b062-35cd-4f92-91db-f4ae171fe0ea"},"vehicle_type_id":"4","last_reported":1728962167,"current_range_meters":12000,"station_id":"","pricing_plan_id":"cebpf4jnsgd1na2vs0mg"},{"bike_id":"252d1b20-655d-4314-9684-3fb736d1a505","system_id":"levelo_inurba_marseille","lat":43.30885,"lon":5.3964,"is_reserved":false,"is_disabled":false,"rental_uris":{"android":"levelo://app?vid=252d1b20-655d-4314-9684-3fb736d1a505","ios":"levelo://app?vid=252d1b20-655d-4314-9684-3fb736d1a505"},"vehicle_type_id":"4","last_reported":1728962167,"current_range_meters":37600,"station_id":"ce4bh012rcd13ifvqcv0","pricing_plan_id":"cebpf4jnsgd1na2vs0mg"},{"bike_id":"d302fb41-2c47-4a95-b7f9-3d90b4fa95cf","system_id":"levelo_inurba_marseille","lat":43.26558,"lon":5.37287,"is_reserved":false,"is_disabled":false,"rental_uris":{"android":"levelo://app?vid=d302fb41-2c47-4a95-b7f9-3d90b4fa95cf","ios":"levelo://app?vid=d302fb41-2c47-4a95-b7f9-3d90b4fa95cf"},"vehicle_type_id":"4","last_reported":1728962167,"current_range_meters":17200,"station_id":"ce4bhg12rcd13ifvqf70","pricing_plan_id":"cebpf4jnsgd1na2vs0mg"},{"bike_id":"b17bd6a0-4c14-4c8c-96d0-fdc1bec84ba5","system_id":"levelo_inurba_marseille","lat":43.31063,"lon":5.38359,"is_reserved":false,"is_disabled":false,"rental_uris":{"android":"levelo://app?vid=b17bd6a0-4c14-4c8c-96d0-fdc1bec84ba5","ios":"levelo://app?vid=b17bd6a0-4c14-4c8c-96d0-fdc1bec84ba5"},"vehicle_type_id":"4","last_reported":1728962167,"current_range_meters":10000,"station_id":"ce4bgv92rcd13ifvqcr0","pricing_plan_id":"cebpf4jnsgd1na2vs0mg"},{"bike_id":"a0004b86-0108-4a59-8420-8474f739e195","system_id":"levelo_inurba_marseille","lat":43.31759,"lon":5.39018,"is_reserved":false,"is_disabled":false,"rental_uris":{"android":"levelo://app?vid=a0004b86-0108-4a59-8420-8474f739e195","ios":"levelo://app?vid=a0004b86-0108-4a59-8420-8474f739e195"},"vehicle_type_id":"4","last_reported":1728962167,"current_range_meters":37600,"station_id":"ce4bhqp2rcd13ifvqhng","pricing_plan_id":"cebpf4jnsgd1na2vs0mg"},{"bike_id":"c0670d96-b06e-446b-a07e-6b5eeebc59d7","system_id":"levelo_inurba_marseille","lat":43.274948,"lon":5.424466,"is_reserved":false,"is_disabled":false,"rental_uris":{"android":"levelo://app?vid=c0670d96-b06e-446b-a07e-6b5eeebc59d7","ios":"levelo://app?vid=c0670d96-b06e-446b-a07e-6b5eeebc59d7"},"vehicle_type_id":"4","last_reported":1728962167,"current_range_meters":14000,"station_id":"ce4bhn92rcd13ifvqgrg","pricing_plan_id":"cebpf4jnsgd1na2vs0mg"},{"bike_id":"fc75fa28-69db-4cb3-85fb-3c7ea9927cfe","system_id":"levelo_inurba_marseille","lat":43.24673,"lon":5.38153,"is_reserved":false,"is_disabled":false,"rental_uris":{"android":"levelo://app?vid=fc75fa28-69db-4cb3-85fb-3c7ea9927cfe","ios":"levelo://app?vid=fc75fa28-69db-4cb3-85fb-3c7ea9927cfe"},"vehicle_type_id":"4","last_reported":1728962167,"current_range_meters":16400,"station_id":"ce4bhih2rcd13ifvqfr0","pricing_plan_id":"cebpf4jnsgd1na2vs0mg"},{"bike_id":"aa6f8b46-b3a2-4381-9f2b-74e08e3afb96","system_id":"levelo_inurba_marseille","lat":43.29277,"lon":5.40122,"is_reserved":false,"is_disabled":false,"rental_uris":{"android":"levelo://app?vid=aa6f8b46-b3a2-4381-9f2b-74e08e3afb96","ios":"levelo://app?vid=aa6f8b46-b3a2-4381-9f2b-74e08e3afb96"},"vehicle_type_id":"4","last_reported":1728962167,"current_range_meters":38800,"station_id":"ce4bh312rcd13ifvqdk0","pricing_plan_id":"cebpf4jnsgd1na2vs0mg"},{"bike_id":"66f19c86-2913-454e-ad63-aada6244fa0f","system_id":"levelo_inurba_marseille","lat":43.30958,"lon":5.39028,"is_reserved":false,"is_disabled":false,"rental_uris":{"android":"levelo://app?vid=66f19c86-2913-454e-ad63-aada6244fa0f","ios":"levelo://app?vid=66f19c86-2913-454e-ad63-aada6244fa0f"},"vehicle_type_id":"4","last_reported":1728962167,"current_range_meters":37600,"station_id":"ce4bgup2rcd13ifvqco0","pricing_plan_id":"cebpf4jnsgd1na2vs0mg"},{"bike_id":"a0d3d324-fa7e-4417-aee7-85012ecab44e","system_id":"levelo_inurba_marseille","lat":43.3422,"lon":5.44544,"is_reserved":false,"is_disabled":false,"rental_uris":{"android":"levelo://app?vid=a0d3d324-fa7e-4417-aee7-85012ecab44e","ios":"levelo://app?vid=a0d3d324-fa7e-4417-aee7-85012ecab44e"},"vehicle_type_id":"4","last_reported":1728962167,"current_range_meters":25200,"station_id":"","pricing_plan_id":"cebpf4jnsgd1na2vs0mg"},{"bike_id":"724c8533-6c2a-4d58-9645-9dc7cc8cde49","system_id":"levelo_inurba_marseille","lat":43.27183,"lon":5.40993,"is_reserved":false,"is_disabled":false,"rental_uris":{"android":"levelo://app?vid=724c8533-6c2a-4d58-9645-9dc7cc8cde49","ios":"levelo://app?vid=724c8533-6c2a-4d58-9645-9dc7cc8cde49"},"vehicle_type_id":"4","last_reported":1728962167,"current_range_meters":38800,"station_id":"ce4bhl12rcd13ifvqgf0","pricing_plan_id":"cebpf4jnsgd1na2vs0mg"},{"bike_id":"880da27e-9468-4933-9a69-bc77ef75e0be","system_id":"levelo_inurba_marseille","lat":43.30454,"lon":5.37898,"is_reserved":false,"is_disabled":false,"rental_uris":{"android":"levelo://app?vid=880da27e-9468-4933-9a69-bc77ef75e0be","ios":"levelo://app?vid=880da27e-9468-4933-9a69-bc77ef75e0be"},"vehicle_type_id":"4","last_reported":1728962167,"current_range_meters":28800,"station_id":"ce4bgup2rcd13ifvqcn0","pricing_plan_id":"cebpf4jnsgd1na2vs0mg"},{"bike_id":"16b07e6e-ae2a-4eb8-8bb1-c71380449afb","system_id":"levelo_inurba_marseille","lat":43.30533,"lon":5.38422,"is_reserved":false,"is_disabled":false,"rental_uris":{"android":"levelo://app?vid=16b07e6e-ae2a-4eb8-8bb1-c71380449afb","ios":"levelo://app?vid=16b07e6e-ae2a-4eb8-8bb1-c71380449afb"},"vehicle_type_id":"4","last_reported":1728962167,"current_range_meters":38000,"station_id":"ce4bgg92rcd13ifvqb30","pricing_plan_id":"cebpf4jnsgd1na2vs0mg"},{"bike_id":"9b4cc07a-8e06-4f52-bccc-0f5b961a7294","system_id":"levelo_inurba_marseille","lat":43.24178,"lon":5.39731,"is_reserved":false,"is_disabled":false,"rental_uris":{"android":"levelo://app?vid=9b4cc07a-8e06-4f52-bccc-0f5b961a7294","ios":"levelo://app?vid=9b4cc07a-8e06-4f52-bccc-0f5b961a7294"},"vehicle_type_id":"4","last_reported":1728962167,"current_range_meters":35600,"station_id":"ce4bhn12rcd13ifvqgpg","pricing_plan_id":"cebpf4jnsgd1na2vs0mg"},{"bike_id":"6a6e8901-7cf8-4ec1-b6aa-3e523137d174","system_id":"levelo_inurba_marseille","lat":43.31181,"lon":5.38714,"is_reserved":false,"is_disabled":false,"rental_uris":{"android":"levelo://app?vid=6a6e8901-7cf8-4ec1-b6aa-3e523137d174","ios":"levelo://app?vid=6a6e8901-7cf8-4ec1-b6aa-3e523137d174"},"vehicle_type_id":"4","last_reported":1728962167,"current_range_meters":8000,"station_id":"ce4bgv12rcd13ifvqcp0","pricing_plan_id":"cebpf4jnsgd1na2vs0mg"},{"bike_id":"644810b7-5229-4f71-9575-acaadc738537","system_id":"levelo_inurba_marseille","lat":43.29877,"lon":5.38917,"is_reserved":false,"is_disabled":false,"rental_uris":{"android":"levelo://app?vid=644810b7-5229-4f71-9575-acaadc738537","ios":"levelo://app?vid=644810b7-5229-4f71-9575-acaadc738537"},"vehicle_type_id":"4","last_reported":1728962167,"current_range_meters":16000,"station_id":"ce4bh392rcd13ifvqdl0","pricing_plan_id":"cebpf4jnsgd1na2vs0mg"},{"bike_id":"3782e9f8-0568-4557-b6ce-c329321d8f73","system_id":"levelo_inurba_marseille","lat":43.29528,"lon":5.38538,"is_reserved":false,"is_disabled":false,"rental_uris":{"android":"levelo://app?vid=3782e9f8-0568-4557-b6ce-c329321d8f73","ios":"levelo://app?vid=3782e9f8-0568-4557-b6ce-c329321d8f73"},"vehicle_type_id":"4","last_reported":1728962167,"current_range_meters":37600,"station_id":"ce4bgih2rcd13ifvqba0","pricing_plan_id":"cebpf4jnsgd1na2vs0mg"},{"bike_id":"9cbbe67b-d607-4d6c-8ade-aa1c5d82f4ea","system_id":"levelo_inurba_marseille","lat":43.25111,"lon":5.4033,"is_reserved":false,"is_disabled":false,"rental_uris":{"android":"levelo://app?vid=9cbbe67b-d607-4d6c-8ade-aa1c5d82f4ea","ios":"levelo://app?vid=9cbbe67b-d607-4d6c-8ade-aa1c5d82f4ea"},"vehicle_type_id":"4","last_reported":1728962167,"current_range_meters":38800,"station_id":"ce4bhlh2rcd13ifvqgig","pricing_plan_id":"cebpf4jnsgd1na2vs0mg"},{"bike_id":"b8bae9b1-65c0-4a14-aaf3-f3ac10ad9671","system_id":"levelo_inurba_marseille","lat":43.29554,"lon":5.42285,"is_reserved":false,"is_disabled":false,"rental_uris":{"android":"levelo://app?vid=b8bae9b1-65c0-4a14-aaf3-f3ac10ad9671","ios":"levelo://app?vid=b8bae9b1-65c0-4a14-aaf3-f3ac10ad9671"},"vehicle_type_id":"4","last_reported":1728962167,"current_range_meters":34800,"station_id":"ce4bhph2rcd13ifvqhdg","pricing_plan_id":"cebpf4jnsgd1na2vs0mg"},{"bike_id":"3f6cf828-28c5-477c-b2cd-de42a5adebc9","system_id":"levelo_inurba_marseille","lat":43.30795,"lon":5.38164,"is_reserved":false,"is_disabled":false,"rental_uris":{"android":"levelo://app?vid=3f6cf828-28c5-477c-b2cd-de42a5adebc9","ios":"levelo://app?vid=3f6cf828-28c5-477c-b2cd-de42a5adebc9"},"vehicle_type_id":"4","last_reported":1728962167,"current_range_meters":39200,"station_id":"ce4bgt12rcd13ifvqce0","pricing_plan_id":"cebpf4jnsgd1na2vs0mg"},{"bike_id":"fa331c34-5e97-4c8e-a49b-19a42b995464","system_id":"levelo_inurba_marseille","lat":43.29526,"lon":5.38532,"is_reserved":false,"is_disabled":false,"rental_uris":{"android":"levelo://app?vid=fa331c34-5e97-4c8e-a49b-19a42b995464","ios":"levelo://app?vid=fa331c34-5e97-4c8e-a49b-19a42b995464"},"vehicle_type_id":"4","last_reported":1728962167,"current_range_meters":38400,"station_id":"ce4bgih2rcd13ifvqba0","pricing_plan_id":"cebpf4jnsgd1na2vs0mg"},{"bike_id":"793b1d32-dafb-4771-acc9-064e03a7fa79","system_id":"levelo_inurba_marseille","lat":43.2979,"lon":5.39343,"is_reserved":false,"is_disabled":false,"rental_uris":{"android":"levelo://app?vid=793b1d32-dafb-4771-acc9-064e03a7fa79","ios":"levelo://app?vid=793b1d32-dafb-4771-acc9-064e03a7fa79"},"vehicle_type_id":"4","last_reported":1728962167,"current_range_meters":16000,"station_id":"chh1huq6cuj3fo74tm60","pricing_plan_id":"cebpf4jnsgd1na2vs0mg"},{"bike_id":"725778a0-0ed4-4bc0-918b-3b4879d33cad","system_id":"levelo_inurba_marseille","lat":43.31318,"lon":5.39705,"is_reserved":false,"is_disabled":false,"rental_uris":{"android":"levelo://app?vid=725778a0-0ed4-4bc0-918b-3b4879d33cad","ios":"levelo://app?vid=725778a0-0ed4-4bc0-918b-3b4879d33cad"},"vehicle_type_id":"4","last_reported":1728962167,"current_range_meters":26800,"station_id":"ce4bgvp2rcd13ifvqcu0","pricing_plan_id":"cebpf4jnsgd1na2vs0mg"},{"bike_id":"1e73027b-0c25-4e93-a48b-592f5c5b175f","system_id":"levelo_inurba_marseille","lat":43.30356,"lon":5.4187,"is_reserved":false,"is_disabled":false,"rental_uris":{"android":"levelo://app?vid=1e73027b-0c25-4e93-a48b-592f5c5b175f","ios":"levelo://app?vid=1e73027b-0c25-4e93-a48b-592f5c5b175f"},"vehicle_type_id":"4","last_reported":1728962167,"current_range_meters":34000,"station_id":"ce4bhop2rcd13ifvqh7g","pricing_plan_id":"cebpf4jnsgd1na2vs0mg"},{"bike_id":"572b3f5a-1091-4fa3-b694-ca3344cebf69","system_id":"levelo_inurba_marseille","lat":43.30584,"lon":5.39356,"is_reserved":false,"is_disabled":false,"rental_uris":{"android":"levelo://app?vid=572b3f5a-1091-4fa3-b694-ca3344cebf69","ios":"levelo://app?vid=572b3f5a-1091-4fa3-b694-ca3344cebf69"},"vehicle_type_id":"4","last_reported":1728962167,"current_range_meters":38800,"station_id":"ce4bh0p2rcd13ifvqd80","pricing_plan_id":"cebpf4jnsgd1na2vs0mg"},{"bike_id":"3504f3a0-44ab-42b7-bd29-b6c4f5e56540","system_id":"levelo_inurba_marseille","lat":43.25083,"lon":5.39519,"is_reserved":false,"is_disabled":false,"rental_uris":{"android":"levelo://app?vid=3504f3a0-44ab-42b7-bd29-b6c4f5e56540","ios":"levelo://app?vid=3504f3a0-44ab-42b7-bd29-b6c4f5e56540"},"vehicle_type_id":"4","last_reported":1728962167,"current_range_meters":38800,"station_id":"ce4bhm12rcd13ifvqgkg","pricing_plan_id":"cebpf4jnsgd1na2vs0mg"},{"bike_id":"82eb830f-5b8f-458d-9a87-361604c60adf","system_id":"levelo_inurba_marseille","lat":43.26937,"lon":5.40252,"is_reserved":false,"is_disabled":false,"rental_uris":{"android":"levelo://app?vid=82eb830f-5b8f-458d-9a87-361604c60adf","ios":"levelo://app?vid=82eb830f-5b8f-458d-9a87-361604c60adf"},"vehicle_type_id":"4","last_reported":1728962167,"current_range_meters":33200,"station_id":"cjm6bp8fraef2m0cb0m0","pricing_plan_id":"cebpf4jnsgd1na2vs0mg"},{"bike_id":"3afb0681-8fbd-47fe-8917-e12bc3cf488b","system_id":"levelo_inurba_marseille","lat":43.33716,"lon":5.39189,"is_reserved":false,"is_disabled":false,"rental_uris":{"android":"levelo://app?vid=3afb0681-8fbd-47fe-8917-e12bc3cf488b","ios":"levelo://app?vid=3afb0681-8fbd-47fe-8917-e12bc3cf488b"},"vehicle_type_id":"4","last_reported":1728962167,"current_range_meters":38800,"station_id":"ce4bhr92rcd13ifvqhsg","pricing_plan_id":"cebpf4jnsgd1na2vs0mg"},{"bike_id":"f25b9087-5c61-492d-8a81-c981d671dc2b","system_id":"levelo_inurba_marseille","lat":43.28275,"lon":5.35082,"is_reserved":false,"is_disabled":false,"rental_uris":{"android":"levelo://app?vid=f25b9087-5c61-492d-8a81-c981d671dc2b","ios":"levelo://app?vid=f25b9087-5c61-492d-8a81-c981d671dc2b"},"vehicle_type_id":"4","last_reported":1728962167,"current_range_meters":38800,"station_id":"ce4bhbp2rcd13ifvqerg","pricing_plan_id":"cebpf4jnsgd1na2vs0mg"},{"bike_id":"a732941c-85bc-42aa-bd93-04ae552d110c","system_id":"levelo_inurba_marseille","lat":43.308,"lon":5.43529,"is_reserved":false,"is_disabled":false,"rental_uris":{"android":"levelo://app?vid=a732941c-85bc-42aa-bd93-04ae552d110c","ios":"levelo://app?vid=a732941c-85bc-42aa-bd93-04ae552d110c"},"vehicle_type_id":"4","last_reported":1728962167,"current_range_meters":6400,"station_id":"ce4bhph2rcd13ifvqheg","pricing_plan_id":"cebpf4jnsgd1na2vs0mg"},{"bike_id":"5f9bbca4-c275-4b1d-bb90-de4434b02e5b","system_id":"levelo_inurba_marseille","lat":43.27492,"lon":5.42449,"is_reserved":false,"is_disabled":false,"rental_uris":{"android":"levelo://app?vid=5f9bbca4-c275-4b1d-bb90-de4434b02e5b","ios":"levelo://app?vid=5f9bbca4-c275-4b1d-bb90-de4434b02e5b"},"vehicle_type_id":"4","last_reported":1728962167,"current_range_meters":38000,"station_id":"ce4bhn92rcd13ifvqgrg","pricing_plan_id":"cebpf4jnsgd1na2vs0mg"},{"bike_id":"71cdb9e1-5075-490f-bf25-59e6d36abd3d","system_id":"levelo_inurba_marseille","lat":43.31368,"lon":5.384981,"is_reserved":false,"is_disabled":false,"rental_uris":{"android":"levelo://app?vid=71cdb9e1-5075-490f-bf25-59e6d36abd3d","ios":"levelo://app?vid=71cdb9e1-5075-490f-bf25-59e6d36abd3d"},"vehicle_type_id":"4","last_reported":1728962167,"current_range_meters":38800,"station_id":"ce4bgt92rcd13ifvqcf0","pricing_plan_id":"cebpf4jnsgd1na2vs0mg"},{"bike_id":"ac01e824-d40b-4d7f-a0cc-589e84351732","system_id":"levelo_inurba_marseille","lat":43.30922,"lon":5.4014,"is_reserved":false,"is_disabled":false,"rental_uris":{"android":"levelo://app?vid=ac01e824-d40b-4d7f-a0cc-589e84351732","ios":"levelo://app?vid=ac01e824-d40b-4d7f-a0cc-589e84351732"},"vehicle_type_id":"4","last_reported":1728962167,"current_range_meters":38800,"station_id":"ce4bgvp2rcd13ifvqct0","pricing_plan_id":"cebpf4jnsgd1na2vs0mg"},{"bike_id":"e9beb8d7-2da3-4682-a424-ae07c8fcc948","system_id":"levelo_inurba_marseille","lat":43.31067,"lon":5.38343,"is_reserved":false,"is_disabled":false,"rental_uris":{"android":"levelo://app?vid=e9beb8d7-2da3-4682-a424-ae07c8fcc948","ios":"levelo://app?vid=e9beb8d7-2da3-4682-a424-ae07c8fcc948"},"vehicle_type_id":"4","last_reported":1728962167,"current_range_meters":20800,"station_id":"ce4bgv92rcd13ifvqcr0","pricing_plan_id":"cebpf4jnsgd1na2vs0mg"},{"bike_id":"5017923a-b9e0-4769-95ab-eee05b5f533e","system_id":"levelo_inurba_marseille","lat":43.28471,"lon":5.38557,"is_reserved":false,"is_disabled":false,"rental_uris":{"android":"levelo://app?vid=5017923a-b9e0-4769-95ab-eee05b5f533e","ios":"levelo://app?vid=5017923a-b9e0-4769-95ab-eee05b5f533e"},"vehicle_type_id":"4","last_reported":1728962167,"current_range_meters":38800,"station_id":"ce4bh8p2rcd13ifvqeb0","pricing_plan_id":"cebpf4jnsgd1na2vs0mg"},{"bike_id":"a2a2eee2-67f1-4950-874b-99c0ac226d01","system_id":"levelo_inurba_marseille","lat":43.30639,"lon":5.40077,"is_reserved":false,"is_disabled":false,"rental_uris":{"android":"levelo://app?vid=a2a2eee2-67f1-4950-874b-99c0ac226d01","ios":"levelo://app?vid=a2a2eee2-67f1-4950-874b-99c0ac226d01"},"vehicle_type_id":"4","last_reported":1728962167,"current_range_meters":38000,"station_id":"ce4bh112rcd13ifvqda0","pricing_plan_id":"cebpf4jnsgd1na2vs0mg"},{"bike_id":"bf5003d4-276e-4f0f-9d6d-d7e79f7de396","system_id":"levelo_inurba_marseille","lat":43.31169,"lon":5.38719,"is_reserved":false,"is_disabled":false,"rental_uris":{"android":"levelo://app?vid=bf5003d4-276e-4f0f-9d6d-d7e79f7de396","ios":"levelo://app?vid=bf5003d4-276e-4f0f-9d6d-d7e79f7de396"},"vehicle_type_id":"4","last_reported":1728962167,"current_range_meters":25200,"station_id":"ce4bgv12rcd13ifvqcp0","pricing_plan_id":"cebpf4jnsgd1na2vs0mg"},{"bike_id":"77a5466a-03ba-4b57-bc93-2e99ba89f7bc","system_id":"levelo_inurba_marseille","lat":43.30274,"lon":5.377,"is_reserved":false,"is_disabled":false,"rental_uris":{"android":"levelo://app?vid=77a5466a-03ba-4b57-bc93-2e99ba89f7bc","ios":"levelo://app?vid=77a5466a-03ba-4b57-bc93-2e99ba89f7bc"},"vehicle_type_id":"4","last_reported":1728962167,"current_range_meters":30000,"station_id":"ce4bguh2rcd13ifvqcj0","pricing_plan_id":"cebpf4jnsgd1na2vs0mg"},{"bike_id":"0ed0c075-e6fe-402d-bd25-ee3cc88443aa","system_id":"levelo_inurba_marseille","lat":43.25828,"lon":5.39428,"is_reserved":false,"is_disabled":false,"rental_uris":{"android":"levelo://app?vid=0ed0c075-e6fe-402d-bd25-ee3cc88443aa","ios":"levelo://app?vid=0ed0c075-e6fe-402d-bd25-ee3cc88443aa"},"vehicle_type_id":"4","last_reported":1728962167,"current_range_meters":38800,"station_id":"ce4bhip2rcd13ifvqft0","pricing_plan_id":"cebpf4jnsgd1na2vs0mg"},{"bike_id":"a32ac163-48ce-4b32-900d-2f39da2712bd","system_id":"levelo_inurba_marseille","lat":43.31751,"lon":5.39024,"is_reserved":false,"is_disabled":false,"rental_uris":{"android":"levelo://app?vid=a32ac163-48ce-4b32-900d-2f39da2712bd","ios":"levelo://app?vid=a32ac163-48ce-4b32-900d-2f39da2712bd"},"vehicle_type_id":"4","last_reported":1728962167,"current_range_meters":16800,"station_id":"ce4bhqp2rcd13ifvqhng","pricing_plan_id":"cebpf4jnsgd1na2vs0mg"},{"bike_id":"9baf4630-9073-486a-a0d5-ce2290767dc4","system_id":"levelo_inurba_marseille","lat":43.31066,"lon":5.38349,"is_reserved":false,"is_disabled":false,"rental_uris":{"android":"levelo://app?vid=9baf4630-9073-486a-a0d5-ce2290767dc4","ios":"levelo://app?vid=9baf4630-9073-486a-a0d5-ce2290767dc4"},"vehicle_type_id":"4","last_reported":1728962167,"current_range_meters":25600,"station_id":"ce4bgv92rcd13ifvqcr0","pricing_plan_id":"cebpf4jnsgd1na2vs0mg"},{"bike_id":"156a0bc3-4b5e-445e-ae9e-b853060babb5","system_id":"levelo_inurba_marseille","lat":43.31113,"lon":5.3777,"is_reserved":false,"is_disabled":false,"rental_uris":{"android":"levelo://app?vid=156a0bc3-4b5e-445e-ae9e-b853060babb5","ios":"levelo://app?vid=156a0bc3-4b5e-445e-ae9e-b853060babb5"},"vehicle_type_id":"4","last_reported":1728962167,"current_range_meters":21600,"station_id":"ce4bgt92rcd13ifvqcg0","pricing_plan_id":"cebpf4jnsgd1na2vs0mg"},{"bike_id":"b97ac990-8c0e-4aa6-a428-6bf3d623b8ab","system_id":"levelo_inurba_marseille","lat":43.24546,"lon":5.39529,"is_reserved":false,"is_disabled":false,"rental_uris":{"android":"levelo://app?vid=b97ac990-8c0e-4aa6-a428-6bf3d623b8ab","ios":"levelo://app?vid=b97ac990-8c0e-4aa6-a428-6bf3d623b8ab"},"vehicle_type_id":"4","last_reported":1728962167,"current_range_meters":38800,"station_id":"ce4bhlp2rcd13ifvqgjg","pricing_plan_id":"cebpf4jnsgd1na2vs0mg"},{"bike_id":"c333d346-3a82-4cf1-ab36-d866fea6ec45","system_id":"levelo_inurba_marseille","lat":43.30147,"lon":5.38086,"is_reserved":false,"is_disabled":false,"rental_uris":{"android":"levelo://app?vid=c333d346-3a82-4cf1-ab36-d866fea6ec45","ios":"levelo://app?vid=c333d346-3a82-4cf1-ab36-d866fea6ec45"},"vehicle_type_id":"4","last_reported":1728962167,"current_range_meters":32800,"station_id":"ce4bgjp2rcd13ifvqbh0","pricing_plan_id":"cebpf4jnsgd1na2vs0mg"},{"bike_id":"d2ae8d7f-7b3a-472e-9aef-617bbb91fe40","system_id":"levelo_inurba_marseille","lat":43.3009,"lon":5.39078,"is_reserved":false,"is_disabled":false,"rental_uris":{"android":"levelo://app?vid=d2ae8d7f-7b3a-472e-9aef-617bbb91fe40","ios":"levelo://app?vid=d2ae8d7f-7b3a-472e-9aef-617bbb91fe40"},"vehicle_type_id":"4","last_reported":1728962167,"current_range_meters":11600,"station_id":"ce4bh192rcd13ifvqdb0","pricing_plan_id":"cebpf4jnsgd1na2vs0mg"},{"bike_id":"c3859e9b-f515-430b-a811-8bbd3362718f","system_id":"levelo_inurba_marseille","lat":43.3234,"lon":5.40616,"is_reserved":false,"is_disabled":false,"rental_uris":{"android":"levelo://app?vid=c3859e9b-f515-430b-a811-8bbd3362718f","ios":"levelo://app?vid=c3859e9b-f515-430b-a811-8bbd3362718f"},"vehicle_type_id":"4","last_reported":1728962167,"current_range_meters":28800,"station_id":"ce4bhq92rcd13ifvqhjg","pricing_plan_id":"cebpf4jnsgd1na2vs0mg"},{"bike_id":"07538918-d507-49c7-b40a-4119b7a280f9","system_id":"levelo_inurba_marseille","lat":43.25867,"lon":5.39899,"is_reserved":false,"is_disabled":false,"rental_uris":{"android":"levelo://app?vid=07538918-d507-49c7-b40a-4119b7a280f9","ios":"levelo://app?vid=07538918-d507-49c7-b40a-4119b7a280f9"},"vehicle_type_id":"4","last_reported":1728962167,"current_range_meters":30800,"station_id":"ce4bhl92rcd13ifvqghg","pricing_plan_id":"cebpf4jnsgd1na2vs0mg"},{"bike_id":"b80c714b-6a66-4d5c-832e-bd487c535a72","system_id":"levelo_inurba_marseille","lat":43.31109,"lon":5.38064,"is_reserved":false,"is_disabled":false,"rental_uris":{"android":"levelo://app?vid=b80c714b-6a66-4d5c-832e-bd487c535a72","ios":"levelo://app?vid=b80c714b-6a66-4d5c-832e-bd487c535a72"},"vehicle_type_id":"4","last_reported":1728962167,"current_range_meters":17200,"station_id":"ce4bgt92rcd13ifvqcf0","pricing_plan_id":"cebpf4jnsgd1na2vs0mg"},{"bike_id":"2140b6a3-5118-4150-823e-9225aeb56201","system_id":"levelo_inurba_marseille","lat":43.23187,"lon":5.35548,"is_reserved":false,"is_disabled":false,"rental_uris":{"android":"levelo://app?vid=2140b6a3-5118-4150-823e-9225aeb56201","ios":"levelo://app?vid=2140b6a3-5118-4150-823e-9225aeb56201"},"vehicle_type_id":"4","last_reported":1728962167,"current_range_meters":8800,"station_id":"ce4bhu92rcd13ifvqi70","pricing_plan_id":"cebpf4jnsgd1na2vs0mg"},{"bike_id":"03b56092-c058-4398-84a2-01f5466a7ddf","system_id":"levelo_inurba_marseille","lat":43.28347,"lon":5.38108,"is_reserved":false,"is_disabled":false,"rental_uris":{"android":"levelo://app?vid=03b56092-c058-4398-84a2-01f5466a7ddf","ios":"levelo://app?vid=03b56092-c058-4398-84a2-01f5466a7ddf"},"vehicle_type_id":"4","last_reported":1728962167,"current_range_meters":38800,"station_id":"ce4bh412rcd13ifvqdr0","pricing_plan_id":"cebpf4jnsgd1na2vs0mg"},{"bike_id":"478f5959-9690-4265-aea1-95006faa579d","system_id":"levelo_inurba_marseille","lat":43.2718,"lon":5.40991,"is_reserved":false,"is_disabled":false,"rental_uris":{"android":"levelo://app?vid=478f5959-9690-4265-aea1-95006faa579d","ios":"levelo://app?vid=478f5959-9690-4265-aea1-95006faa579d"},"vehicle_type_id":"4","last_reported":1728962167,"current_range_meters":38800,"station_id":"ce4bhl12rcd13ifvqgf0","pricing_plan_id":"cebpf4jnsgd1na2vs0mg"},{"bike_id":"5e3c4e0d-c8cf-4e2d-bc0c-a77ad4ef7d06","system_id":"levelo_inurba_marseille","lat":43.31758,"lon":5.39021,"is_reserved":false,"is_disabled":false,"rental_uris":{"android":"levelo://app?vid=5e3c4e0d-c8cf-4e2d-bc0c-a77ad4ef7d06","ios":"levelo://app?vid=5e3c4e0d-c8cf-4e2d-bc0c-a77ad4ef7d06"},"vehicle_type_id":"4","last_reported":1728962167,"current_range_meters":8800,"station_id":"ce4bhqp2rcd13ifvqhng","pricing_plan_id":"cebpf4jnsgd1na2vs0mg"},{"bike_id":"bead9c83-edfe-41ad-9426-3a8d14b72148","system_id":"levelo_inurba_marseille","lat":43.303,"lon":5.39211,"is_reserved":false,"is_disabled":false,"rental_uris":{"android":"levelo://app?vid=bead9c83-edfe-41ad-9426-3a8d14b72148","ios":"levelo://app?vid=bead9c83-edfe-41ad-9426-3a8d14b72148"},"vehicle_type_id":"4","last_reported":1728962167,"current_range_meters":38000,"station_id":"ce4bgkh2rcd13ifvqbk0","pricing_plan_id":"cebpf4jnsgd1na2vs0mg"},{"bike_id":"e9fff77b-13a3-4f63-8aba-c4250eefdc04","system_id":"levelo_inurba_marseille","lat":43.28705,"lon":5.37942,"is_reserved":false,"is_disabled":false,"rental_uris":{"android":"levelo://app?vid=e9fff77b-13a3-4f63-8aba-c4250eefdc04","ios":"levelo://app?vid=e9fff77b-13a3-4f63-8aba-c4250eefdc04"},"vehicle_type_id":"4","last_reported":1728962167,"current_range_meters":37600,"station_id":"ce4bh9p2rcd13ifvqec0","pricing_plan_id":"cebpf4jnsgd1na2vs0mg"},{"bike_id":"c3c7024d-57b6-478f-98eb-dab6fb52878b","system_id":"levelo_inurba_marseille","lat":43.2963,"lon":5.406,"is_reserved":false,"is_disabled":false,"rental_uris":{"android":"levelo://app?vid=c3c7024d-57b6-478f-98eb-dab6fb52878b","ios":"levelo://app?vid=c3c7024d-57b6-478f-98eb-dab6fb52878b"},"vehicle_type_id":"4","last_reported":1728962167,"current_range_meters":38000,"station_id":"ce4bh0h2rcd13ifvqd60","pricing_plan_id":"cebpf4jnsgd1na2vs0mg"},{"bike_id":"ad3a8670-165f-4afc-9f01-24e092308761","system_id":"levelo_inurba_marseille","lat":43.30144,"lon":5.38082,"is_reserved":false,"is_disabled":false,"rental_uris":{"android":"levelo://app?vid=ad3a8670-165f-4afc-9f01-24e092308761","ios":"levelo://app?vid=ad3a8670-165f-4afc-9f01-24e092308761"},"vehicle_type_id":"4","last_reported":1728962167,"current_range_meters":35600,"station_id":"ce4bgjp2rcd13ifvqbh0","pricing_plan_id":"cebpf4jnsgd1na2vs0mg"},{"bike_id":"8092e7ad-0afa-4aec-9d8c-cbdbf46d1a3b","system_id":"levelo_inurba_marseille","lat":43.29521,"lon":5.39034,"is_reserved":false,"is_disabled":false,"rental_uris":{"android":"levelo://app?vid=8092e7ad-0afa-4aec-9d8c-cbdbf46d1a3b","ios":"levelo://app?vid=8092e7ad-0afa-4aec-9d8c-cbdbf46d1a3b"},"vehicle_type_id":"4","last_reported":1728962167,"current_range_meters":36800,"station_id":"ce4bh3p2rcd13ifvqdp0","pricing_plan_id":"cebpf4jnsgd1na2vs0mg"},{"bike_id":"02edf250-0bdc-44d6-9936-04b527fbc30e","system_id":"levelo_inurba_marseille","lat":43.24389,"lon":5.37054,"is_reserved":false,"is_disabled":false,"rental_uris":{"android":"levelo://app?vid=02edf250-0bdc-44d6-9936-04b527fbc30e","ios":"levelo://app?vid=02edf250-0bdc-44d6-9936-04b527fbc30e"},"vehicle_type_id":"4","last_reported":1728962167,"current_range_meters":11600,"station_id":"ce4bhhh2rcd13ifvqfk0","pricing_plan_id":"cebpf4jnsgd1na2vs0mg"},{"bike_id":"0a6256fd-46c4-4b92-b7a6-6a3dbf227f73","system_id":"levelo_inurba_marseille","lat":43.28936,"lon":5.36625,"is_reserved":false,"is_disabled":false,"rental_uris":{"android":"levelo://app?vid=0a6256fd-46c4-4b92-b7a6-6a3dbf227f73","ios":"levelo://app?vid=0a6256fd-46c4-4b92-b7a6-6a3dbf227f73"},"vehicle_type_id":"4","last_reported":1728962167,"current_range_meters":38000,"station_id":"ce4bhap2rcd13ifvqek0","pricing_plan_id":"cebpf4jnsgd1na2vs0mg"},{"bike_id":"de5fb6c9-1629-41d4-994d-0b513290afbf","system_id":"levelo_inurba_marseille","lat":43.30323,"lon":5.40444,"is_reserved":false,"is_disabled":false,"rental_uris":{"android":"levelo://app?vid=de5fb6c9-1629-41d4-994d-0b513290afbf","ios":"levelo://app?vid=de5fb6c9-1629-41d4-994d-0b513290afbf"},"vehicle_type_id":"4","last_reported":1728962167,"current_range_meters":38400,"station_id":"ce4bh012rcd13ifvqd10","pricing_plan_id":"cebpf4jnsgd1na2vs0mg"},{"bike_id":"37fe95d8-983d-46c0-b0ba-5f6a355380bf","system_id":"levelo_inurba_marseille","lat":43.25495,"lon":5.37647,"is_reserved":false,"is_disabled":false,"rental_uris":{"android":"levelo://app?vid=37fe95d8-983d-46c0-b0ba-5f6a355380bf","ios":"levelo://app?vid=37fe95d8-983d-46c0-b0ba-5f6a355380bf"},"vehicle_type_id":"4","last_reported":1728962167,"current_range_meters":37600,"station_id":"ce4bhh12rcd13ifvqff0","pricing_plan_id":"cebpf4jnsgd1na2vs0mg"},{"bike_id":"8aa82f16-a6a0-4a14-9f25-838a8898f98d","system_id":"levelo_inurba_marseille","lat":43.26208,"lon":5.37441,"is_reserved":false,"is_disabled":false,"rental_uris":{"android":"levelo://app?vid=8aa82f16-a6a0-4a14-9f25-838a8898f98d","ios":"levelo://app?vid=8aa82f16-a6a0-4a14-9f25-838a8898f98d"},"vehicle_type_id":"4","last_reported":1728962167,"current_range_meters":38800,"station_id":"ce4bhgp2rcd13ifvqfc0","pricing_plan_id":"cebpf4jnsgd1na2vs0mg"},{"bike_id":"dc9cb9d8-ec56-43b2-a222-2bd37472647e","system_id":"levelo_inurba_marseille","lat":43.30204,"lon":5.39471,"is_reserved":false,"is_disabled":false,"rental_uris":{"android":"levelo://app?vid=dc9cb9d8-ec56-43b2-a222-2bd37472647e","ios":"levelo://app?vid=dc9cb9d8-ec56-43b2-a222-2bd37472647e"},"vehicle_type_id":"4","last_reported":1728962167,"current_range_meters":34000,"station_id":"ce4bh0p2rcd13ifvqd70","pricing_plan_id":"cebpf4jnsgd1na2vs0mg"},{"bike_id":"73dd10de-5743-4354-9834-4217a8450956","system_id":"levelo_inurba_marseille","lat":43.24992,"lon":5.38933,"is_reserved":false,"is_disabled":false,"rental_uris":{"android":"levelo://app?vid=73dd10de-5743-4354-9834-4217a8450956","ios":"levelo://app?vid=73dd10de-5743-4354-9834-4217a8450956"},"vehicle_type_id":"4","last_reported":1728962167,"current_range_meters":31200,"station_id":"ce4bhgp2rcd13ifvqfd0","pricing_plan_id":"cebpf4jnsgd1na2vs0mg"},{"bike_id":"2223a3bd-c75c-4118-93ca-21e03d665431","system_id":"levelo_inurba_marseille","lat":43.31113,"lon":5.37766,"is_reserved":false,"is_disabled":false,"rental_uris":{"android":"levelo://app?vid=2223a3bd-c75c-4118-93ca-21e03d665431","ios":"levelo://app?vid=2223a3bd-c75c-4118-93ca-21e03d665431"},"vehicle_type_id":"4","last_reported":1728962167,"current_range_meters":22000,"station_id":"ce4bgt92rcd13ifvqcg0","pricing_plan_id":"cebpf4jnsgd1na2vs0mg"},{"bike_id":"81005c71-8480-4978-bc63-a1e137caa2c6","system_id":"levelo_inurba_marseille","lat":43.30135,"lon":5.38066,"is_reserved":false,"is_disabled":false,"rental_uris":{"android":"levelo://app?vid=81005c71-8480-4978-bc63-a1e137caa2c6","ios":"levelo://app?vid=81005c71-8480-4978-bc63-a1e137caa2c6"},"vehicle_type_id":"4","last_reported":1728962167,"current_range_meters":32000,"station_id":"ce4bgjp2rcd13ifvqbh0","pricing_plan_id":"cebpf4jnsgd1na2vs0mg"},{"bike_id":"c130d266-11e3-484c-bccd-9f7041e77c51","system_id":"levelo_inurba_marseille","lat":43.28076,"lon":5.396451,"is_reserved":false,"is_disabled":false,"rental_uris":{"android":"levelo://app?vid=c130d266-11e3-484c-bccd-9f7041e77c51","ios":"levelo://app?vid=c130d266-11e3-484c-bccd-9f7041e77c51"},"vehicle_type_id":"4","last_reported":1728962167,"current_range_meters":38400,"station_id":"ce4bho12rcd13ifvqh2g","pricing_plan_id":"cebpf4jnsgd1na2vs0mg"},{"bike_id":"1183d7b5-9c89-4b9a-87ff-0ccc49010bcd","system_id":"levelo_inurba_marseille","lat":43.31274,"lon":5.40172,"is_reserved":false,"is_disabled":false,"rental_uris":{"android":"levelo://app?vid=1183d7b5-9c89-4b9a-87ff-0ccc49010bcd","ios":"levelo://app?vid=1183d7b5-9c89-4b9a-87ff-0ccc49010bcd"},"vehicle_type_id":"4","last_reported":1728962167,"current_range_meters":9600,"station_id":"ce4bh092rcd13ifvqd30","pricing_plan_id":"cebpf4jnsgd1na2vs0mg"},{"bike_id":"00e5c71a-1933-4298-b02f-08f784b2909c","system_id":"levelo_inurba_marseille","lat":43.24388,"lon":5.37048,"is_reserved":false,"is_disabled":false,"rental_uris":{"android":"levelo://app?vid=00e5c71a-1933-4298-b02f-08f784b2909c","ios":"levelo://app?vid=00e5c71a-1933-4298-b02f-08f784b2909c"},"vehicle_type_id":"4","last_reported":1728962167,"current_range_meters":38800,"station_id":"ce4bhhh2rcd13ifvqfk0","pricing_plan_id":"cebpf4jnsgd1na2vs0mg"},{"bike_id":"e01e41b6-906b-4d38-bd47-8409331ef9cb","system_id":"levelo_inurba_marseille","lat":43.24164,"lon":5.36399,"is_reserved":false,"is_disabled":false,"rental_uris":{"android":"levelo://app?vid=e01e41b6-906b-4d38-bd47-8409331ef9cb","ios":"levelo://app?vid=e01e41b6-906b-4d38-bd47-8409331ef9cb"},"vehicle_type_id":"4","last_reported":1728962167,"current_range_meters":35200,"station_id":"cpo36qri1sfpv3e86is0","pricing_plan_id":"cebpf4jnsgd1na2vs0mg"},{"bike_id":"0eafdba6-2b03-4430-88b8-4e60c6aa4b07","system_id":"levelo_inurba_marseille","lat":43.30414,"lon":5.41291,"is_reserved":false,"is_disabled":false,"rental_uris":{"android":"levelo://app?vid=0eafdba6-2b03-4430-88b8-4e60c6aa4b07","ios":"levelo://app?vid=0eafdba6-2b03-4430-88b8-4e60c6aa4b07"},"vehicle_type_id":"4","last_reported":1728962167,"current_range_meters":38800,"station_id":"ce4bhop2rcd13ifvqh8g","pricing_plan_id":"cebpf4jnsgd1na2vs0mg"},{"bike_id":"93abdbdf-1438-45e5-8756-442e7e3c29f1","system_id":"levelo_inurba_marseille","lat":43.31169,"lon":5.38717,"is_reserved":false,"is_disabled":false,"rental_uris":{"android":"levelo://app?vid=93abdbdf-1438-45e5-8756-442e7e3c29f1","ios":"levelo://app?vid=93abdbdf-1438-45e5-8756-442e7e3c29f1"},"vehicle_type_id":"4","last_reported":1728962167,"current_range_meters":39200,"station_id":"ce4bgv12rcd13ifvqcp0","pricing_plan_id":"cebpf4jnsgd1na2vs0mg"},{"bike_id":"4d3da2c7-a256-4b90-980c-9a92764f835f","system_id":"levelo_inurba_marseille","lat":43.31226,"lon":5.36847,"is_reserved":false,"is_disabled":false,"rental_uris":{"android":"levelo://app?vid=4d3da2c7-a256-4b90-980c-9a92764f835f","ios":"levelo://app?vid=4d3da2c7-a256-4b90-980c-9a92764f835f"},"vehicle_type_id":"4","last_reported":1728962167,"current_range_meters":20400,"station_id":"ce4bgl92rcd13ifvqbq0","pricing_plan_id":"cebpf4jnsgd1na2vs0mg"},{"bike_id":"89211ee2-076f-4df3-92bd-cd8885f2e76d","system_id":"levelo_inurba_marseille","lat":43.23191,"lon":5.35556,"is_reserved":false,"is_disabled":false,"rental_uris":{"android":"levelo://app?vid=89211ee2-076f-4df3-92bd-cd8885f2e76d","ios":"levelo://app?vid=89211ee2-076f-4df3-92bd-cd8885f2e76d"},"vehicle_type_id":"4","last_reported":1728962167,"current_range_meters":38800,"station_id":"ce4bhu92rcd13ifvqi70","pricing_plan_id":"cebpf4jnsgd1na2vs0mg"},{"bike_id":"9207eef8-e68e-457b-992f-67b1caf8027a","system_id":"levelo_inurba_marseille","lat":43.28567,"lon":5.39502,"is_reserved":false,"is_disabled":false,"rental_uris":{"android":"levelo://app?vid=9207eef8-e68e-457b-992f-67b1caf8027a","ios":"levelo://app?vid=9207eef8-e68e-457b-992f-67b1caf8027a"},"vehicle_type_id":"4","last_reported":1728962167,"current_range_meters":38800,"station_id":"ce4bh292rcd13ifvqdg0","pricing_plan_id":"cebpf4jnsgd1na2vs0mg"},{"bike_id":"6f108c79-169f-46fd-b08b-6b93e5050ee6","system_id":"levelo_inurba_marseille","lat":43.33729,"lon":5.39196,"is_reserved":false,"is_disabled":false,"rental_uris":{"android":"levelo://app?vid=6f108c79-169f-46fd-b08b-6b93e5050ee6","ios":"levelo://app?vid=6f108c79-169f-46fd-b08b-6b93e5050ee6"},"vehicle_type_id":"4","last_reported":1728962167,"current_range_meters":38400,"station_id":"ce4bhr92rcd13ifvqhsg","pricing_plan_id":"cebpf4jnsgd1na2vs0mg"},{"bike_id":"de485e34-9ebe-4f27-bc4c-a0b813191d55","system_id":"levelo_inurba_marseille","lat":43.31755,"lon":5.39025,"is_reserved":false,"is_disabled":false,"rental_uris":{"android":"levelo://app?vid=de485e34-9ebe-4f27-bc4c-a0b813191d55","ios":"levelo://app?vid=de485e34-9ebe-4f27-bc4c-a0b813191d55"},"vehicle_type_id":"4","last_reported":1728962167,"current_range_meters":29600,"station_id":"ce4bhqp2rcd13ifvqhng","pricing_plan_id":"cebpf4jnsgd1na2vs0mg"},{"bike_id":"d9486349-c332-407f-893d-bef322644bb8","system_id":"levelo_inurba_marseille","lat":43.30931,"lon":5.40133,"is_reserved":false,"is_disabled":false,"rental_uris":{"android":"levelo://app?vid=d9486349-c332-407f-893d-bef322644bb8","ios":"levelo://app?vid=d9486349-c332-407f-893d-bef322644bb8"},"vehicle_type_id":"4","last_reported":1728962167,"current_range_meters":24000,"station_id":"ce4bgvp2rcd13ifvqct0","pricing_plan_id":"cebpf4jnsgd1na2vs0mg"},{"bike_id":"c0747870-668c-42ce-9942-4f23692a8d56","system_id":"levelo_inurba_marseille","lat":43.27902,"lon":5.38003,"is_reserved":false,"is_disabled":false,"rental_uris":{"android":"levelo://app?vid=c0747870-668c-42ce-9942-4f23692a8d56","ios":"levelo://app?vid=c0747870-668c-42ce-9942-4f23692a8d56"},"vehicle_type_id":"4","last_reported":1728962167,"current_range_meters":38000,"station_id":"ce4bhf92rcd13ifvqf50","pricing_plan_id":"cebpf4jnsgd1na2vs0mg"},{"bike_id":"4401e9fe-8fae-4df0-be02-0119e3aeedbd","system_id":"levelo_inurba_marseille","lat":43.33755,"lon":5.37423,"is_reserved":false,"is_disabled":false,"rental_uris":{"android":"levelo://app?vid=4401e9fe-8fae-4df0-be02-0119e3aeedbd","ios":"levelo://app?vid=4401e9fe-8fae-4df0-be02-0119e3aeedbd"},"vehicle_type_id":"4","last_reported":1728962167,"current_range_meters":33200,"station_id":"","pricing_plan_id":"cebpf4jnsgd1na2vs0mg"},{"bike_id":"c26c9bb1-b28c-40c1-a76c-f35d2916c182","system_id":"levelo_inurba_marseille","lat":43.24813,"lon":5.37458,"is_reserved":false,"is_disabled":false,"rental_uris":{"android":"levelo://app?vid=c26c9bb1-b28c-40c1-a76c-f35d2916c182","ios":"levelo://app?vid=c26c9bb1-b28c-40c1-a76c-f35d2916c182"},"vehicle_type_id":"4","last_reported":1728962167,"current_range_meters":12400,"station_id":"ce4bhgh2rcd13ifvqfb0","pricing_plan_id":"cebpf4jnsgd1na2vs0mg"},{"bike_id":"7407b431-bff5-4398-a903-ce772c985ca2","system_id":"levelo_inurba_marseille","lat":43.24386,"lon":5.37065,"is_reserved":false,"is_disabled":false,"rental_uris":{"android":"levelo://app?vid=7407b431-bff5-4398-a903-ce772c985ca2","ios":"levelo://app?vid=7407b431-bff5-4398-a903-ce772c985ca2"},"vehicle_type_id":"4","last_reported":1728962167,"current_range_meters":19600,"station_id":"ce4bhhh2rcd13ifvqfk0","pricing_plan_id":"cebpf4jnsgd1na2vs0mg"},{"bike_id":"916a54ad-a9e8-4577-90db-02834ceb456b","system_id":"levelo_inurba_marseille","lat":43.23969,"lon":5.366345,"is_reserved":false,"is_disabled":false,"rental_uris":{"android":"levelo://app?vid=916a54ad-a9e8-4577-90db-02834ceb456b","ios":"levelo://app?vid=916a54ad-a9e8-4577-90db-02834ceb456b"},"vehicle_type_id":"4","last_reported":1728962167,"current_range_meters":35200,"station_id":"ce4bhi12rcd13ifvqfp0","pricing_plan_id":"cebpf4jnsgd1na2vs0mg"},{"bike_id":"8afc2d11-5f30-4024-8dd1-bcca6caac62e","system_id":"levelo_inurba_marseille","lat":43.31891,"lon":5.40727,"is_reserved":false,"is_disabled":false,"rental_uris":{"android":"levelo://app?vid=8afc2d11-5f30-4024-8dd1-bcca6caac62e","ios":"levelo://app?vid=8afc2d11-5f30-4024-8dd1-bcca6caac62e"},"vehicle_type_id":"4","last_reported":1728962167,"current_range_meters":38800,"station_id":"ce4bhq12rcd13ifvqhig","pricing_plan_id":"cebpf4jnsgd1na2vs0mg"},{"bike_id":"f86c0e4c-e675-4813-89ef-9c087542fa2b","system_id":"levelo_inurba_marseille","lat":43.28462,"lon":5.35875,"is_reserved":false,"is_disabled":false,"rental_uris":{"android":"levelo://app?vid=f86c0e4c-e675-4813-89ef-9c087542fa2b","ios":"levelo://app?vid=f86c0e4c-e675-4813-89ef-9c087542fa2b"},"vehicle_type_id":"4","last_reported":1728962167,"current_range_meters":38800,"station_id":"ce4bhah2rcd13ifvqei0","pricing_plan_id":"cebpf4jnsgd1na2vs0mg"},{"bike_id":"3f0d3248-e783-4468-83c3-58a8e361f6f2","system_id":"levelo_inurba_marseille","lat":43.2925,"lon":5.40899,"is_reserved":false,"is_disabled":false,"rental_uris":{"android":"levelo://app?vid=3f0d3248-e783-4468-83c3-58a8e361f6f2","ios":"levelo://app?vid=3f0d3248-e783-4468-83c3-58a8e361f6f2"},"vehicle_type_id":"4","last_reported":1728962167,"current_range_meters":17200,"station_id":"ce4bh192rcd13ifvqdc0","pricing_plan_id":"cebpf4jnsgd1na2vs0mg"},{"bike_id":"de9fce36-42d5-4f27-b0a2-d390f9b6b1c9","system_id":"levelo_inurba_marseille","lat":43.25114,"lon":5.40327,"is_reserved":false,"is_disabled":false,"rental_uris":{"android":"levelo://app?vid=de9fce36-42d5-4f27-b0a2-d390f9b6b1c9","ios":"levelo://app?vid=de9fce36-42d5-4f27-b0a2-d390f9b6b1c9"},"vehicle_type_id":"4","last_reported":1728962167,"current_range_meters":19200,"station_id":"ce4bhlh2rcd13ifvqgig","pricing_plan_id":"cebpf4jnsgd1na2vs0mg"},{"bike_id":"4dc1d225-5761-4879-8f1a-044daee9054f","system_id":"levelo_inurba_marseille","lat":43.30893,"lon":5.37197,"is_reserved":false,"is_disabled":false,"rental_uris":{"android":"levelo://app?vid=4dc1d225-5761-4879-8f1a-044daee9054f","ios":"levelo://app?vid=4dc1d225-5761-4879-8f1a-044daee9054f"},"vehicle_type_id":"4","last_reported":1728962167,"current_range_meters":20400,"station_id":"ce4bguh2rcd13ifvqckg","pricing_plan_id":"cebpf4jnsgd1na2vs0mg"},{"bike_id":"544b8d64-8bbe-4ff8-b401-1ae6d24b3eb1","system_id":"levelo_inurba_marseille","lat":43.3093,"lon":5.40148,"is_reserved":false,"is_disabled":false,"rental_uris":{"android":"levelo://app?vid=544b8d64-8bbe-4ff8-b401-1ae6d24b3eb1","ios":"levelo://app?vid=544b8d64-8bbe-4ff8-b401-1ae6d24b3eb1"},"vehicle_type_id":"4","last_reported":1728962167,"current_range_meters":20800,"station_id":"ce4bgvp2rcd13ifvqct0","pricing_plan_id":"cebpf4jnsgd1na2vs0mg"},{"bike_id":"8eca1db8-c7a5-4c55-a530-7e36502bac8b","system_id":"levelo_inurba_marseille","lat":43.33018,"lon":5.39032,"is_reserved":false,"is_disabled":false,"rental_uris":{"android":"levelo://app?vid=8eca1db8-c7a5-4c55-a530-7e36502bac8b","ios":"levelo://app?vid=8eca1db8-c7a5-4c55-a530-7e36502bac8b"},"vehicle_type_id":"4","last_reported":1728962167,"current_range_meters":32400,"station_id":"ce4bhr92rcd13ifvqhrg","pricing_plan_id":"cebpf4jnsgd1na2vs0mg"},{"bike_id":"b895459e-801f-47a3-87f4-c5be46820f27","system_id":"levelo_inurba_marseille","lat":43.32361,"lon":5.38875,"is_reserved":false,"is_disabled":false,"rental_uris":{"android":"levelo://app?vid=b895459e-801f-47a3-87f4-c5be46820f27","ios":"levelo://app?vid=b895459e-801f-47a3-87f4-c5be46820f27"},"vehicle_type_id":"4","last_reported":1728962167,"current_range_meters":2000,"station_id":"ce4bhqp2rcd13ifvqhog","pricing_plan_id":"cebpf4jnsgd1na2vs0mg"},{"bike_id":"43a6ef7e-d7c2-44f0-ad8d-beb876eb5cb3","system_id":"levelo_inurba_marseille","lat":43.27496,"lon":5.42452,"is_reserved":false,"is_disabled":false,"rental_uris":{"android":"levelo://app?vid=43a6ef7e-d7c2-44f0-ad8d-beb876eb5cb3","ios":"levelo://app?vid=43a6ef7e-d7c2-44f0-ad8d-beb876eb5cb3"},"vehicle_type_id":"4","last_reported":1728962167,"current_range_meters":37600,"station_id":"ce4bhn92rcd13ifvqgrg","pricing_plan_id":"cebpf4jnsgd1na2vs0mg"},{"bike_id":"2b2d6558-4240-4254-85f5-df5dcae71ce8","system_id":"levelo_inurba_marseille","lat":43.24069,"lon":5.37764,"is_reserved":false,"is_disabled":false,"rental_uris":{"android":"levelo://app?vid=2b2d6558-4240-4254-85f5-df5dcae71ce8","ios":"levelo://app?vid=2b2d6558-4240-4254-85f5-df5dcae71ce8"},"vehicle_type_id":"4","last_reported":1728962167,"current_range_meters":37600,"station_id":"ce4bhnp2rcd13ifvqgvg","pricing_plan_id":"cebpf4jnsgd1na2vs0mg"},{"bike_id":"3c9a80a7-6d68-4bb8-9474-fe0e2b009cb0","system_id":"levelo_inurba_marseille","lat":43.31758,"lon":5.39015,"is_reserved":false,"is_disabled":false,"rental_uris":{"android":"levelo://app?vid=3c9a80a7-6d68-4bb8-9474-fe0e2b009cb0","ios":"levelo://app?vid=3c9a80a7-6d68-4bb8-9474-fe0e2b009cb0"},"vehicle_type_id":"4","last_reported":1728962167,"current_range_meters":8000,"station_id":"ce4bhqp2rcd13ifvqhng","pricing_plan_id":"cebpf4jnsgd1na2vs0mg"},{"bike_id":"4e8bf75a-f60c-4784-a213-558cc88de64c","system_id":"levelo_inurba_marseille","lat":43.28462,"lon":5.38418,"is_reserved":false,"is_disabled":false,"rental_uris":{"android":"levelo://app?vid=4e8bf75a-f60c-4784-a213-558cc88de64c","ios":"levelo://app?vid=4e8bf75a-f60c-4784-a213-558cc88de64c"},"vehicle_type_id":"4","last_reported":1728962167,"current_range_meters":38000,"station_id":"ce4bh512rcd13ifvqe3g","pricing_plan_id":"cebpf4jnsgd1na2vs0mg"},{"bike_id":"bc03ccbb-238a-438e-9698-c71e60a696b1","system_id":"levelo_inurba_marseille","lat":43.3064,"lon":5.40085,"is_reserved":false,"is_disabled":false,"rental_uris":{"android":"levelo://app?vid=bc03ccbb-238a-438e-9698-c71e60a696b1","ios":"levelo://app?vid=bc03ccbb-238a-438e-9698-c71e60a696b1"},"vehicle_type_id":"4","last_reported":1728962167,"current_range_meters":38800,"station_id":"ce4bh112rcd13ifvqda0","pricing_plan_id":"cebpf4jnsgd1na2vs0mg"},{"bike_id":"ff96eee3-1ac8-4888-9ae7-e4b6cc8154af","system_id":"levelo_inurba_marseille","lat":43.33739,"lon":5.3746,"is_reserved":false,"is_disabled":false,"rental_uris":{"android":"levelo://app?vid=ff96eee3-1ac8-4888-9ae7-e4b6cc8154af","ios":"levelo://app?vid=ff96eee3-1ac8-4888-9ae7-e4b6cc8154af"},"vehicle_type_id":"4","last_reported":1728962167,"current_range_meters":35600,"station_id":"","pricing_plan_id":"cebpf4jnsgd1na2vs0mg"},{"bike_id":"6b5d2128-dc38-4643-bc23-b894fe503d55","system_id":"levelo_inurba_marseille","lat":43.30096,"lon":5.39077,"is_reserved":false,"is_disabled":false,"rental_uris":{"android":"levelo://app?vid=6b5d2128-dc38-4643-bc23-b894fe503d55","ios":"levelo://app?vid=6b5d2128-dc38-4643-bc23-b894fe503d55"},"vehicle_type_id":"4","last_reported":1728962167,"current_range_meters":23200,"station_id":"ce4bh192rcd13ifvqdb0","pricing_plan_id":"cebpf4jnsgd1na2vs0mg"},{"bike_id":"87070b4b-67ca-46ca-bb7f-d5a97d044803","system_id":"levelo_inurba_marseille","lat":43.31114,"lon":5.37766,"is_reserved":false,"is_disabled":false,"rental_uris":{"android":"levelo://app?vid=87070b4b-67ca-46ca-bb7f-d5a97d044803","ios":"levelo://app?vid=87070b4b-67ca-46ca-bb7f-d5a97d044803"},"vehicle_type_id":"4","last_reported":1728962167,"current_range_meters":38800,"station_id":"ce4bgt92rcd13ifvqcg0","pricing_plan_id":"cebpf4jnsgd1na2vs0mg"},{"bike_id":"58189e9e-4194-4d27-b971-8ac13dc5383f","system_id":"levelo_inurba_marseille","lat":43.3149,"lon":5.37296,"is_reserved":false,"is_disabled":false,"rental_uris":{"android":"levelo://app?vid=58189e9e-4194-4d27-b971-8ac13dc5383f","ios":"levelo://app?vid=58189e9e-4194-4d27-b971-8ac13dc5383f"},"vehicle_type_id":"4","last_reported":1728962167,"current_range_meters":27600,"station_id":"ce4bgt12rcd13ifvqcd0","pricing_plan_id":"cebpf4jnsgd1na2vs0mg"},{"bike_id":"c50c599b-7eb4-4ae0-bc1f-a366e21ec0ac","system_id":"levelo_inurba_marseille","lat":43.330233,"lon":5.390353,"is_reserved":false,"is_disabled":false,"rental_uris":{"android":"levelo://app?vid=c50c599b-7eb4-4ae0-bc1f-a366e21ec0ac","ios":"levelo://app?vid=c50c599b-7eb4-4ae0-bc1f-a366e21ec0ac"},"vehicle_type_id":"4","last_reported":1728962167,"current_range_meters":36400,"station_id":"ce4bhr92rcd13ifvqhrg","pricing_plan_id":"cebpf4jnsgd1na2vs0mg"},{"bike_id":"affbb959-d301-4244-bb79-4c72a90d3c33","system_id":"levelo_inurba_marseille","lat":43.28281,"lon":5.40903,"is_reserved":false,"is_disabled":false,"rental_uris":{"android":"levelo://app?vid=affbb959-d301-4244-bb79-4c72a90d3c33","ios":"levelo://app?vid=affbb959-d301-4244-bb79-4c72a90d3c33"},"vehicle_type_id":"4","last_reported":1728962167,"current_range_meters":32000,"station_id":"","pricing_plan_id":"cebpf4jnsgd1na2vs0mg"},{"bike_id":"13fdcd62-9f46-4fb7-9985-1cfb68d7ba2a","system_id":"levelo_inurba_marseille","lat":43.29225,"lon":5.36072,"is_reserved":false,"is_disabled":false,"rental_uris":{"android":"levelo://app?vid=13fdcd62-9f46-4fb7-9985-1cfb68d7ba2a","ios":"levelo://app?vid=13fdcd62-9f46-4fb7-9985-1cfb68d7ba2a"},"vehicle_type_id":"4","last_reported":1728962167,"current_range_meters":14800,"station_id":"ce4bhbh2rcd13ifvqeqg","pricing_plan_id":"cebpf4jnsgd1na2vs0mg"},{"bike_id":"9824d324-d859-48cc-9cb5-90b3cf898ef8","system_id":"levelo_inurba_marseille","lat":43.28456,"lon":5.35884,"is_reserved":false,"is_disabled":false,"rental_uris":{"android":"levelo://app?vid=9824d324-d859-48cc-9cb5-90b3cf898ef8","ios":"levelo://app?vid=9824d324-d859-48cc-9cb5-90b3cf898ef8"},"vehicle_type_id":"4","last_reported":1728962167,"current_range_meters":39200,"station_id":"ce4bhah2rcd13ifvqei0","pricing_plan_id":"cebpf4jnsgd1na2vs0mg"},{"bike_id":"124fe4c8-d877-453b-88bd-af8d62d24653","system_id":"levelo_inurba_marseille","lat":43.24651,"lon":5.38899,"is_reserved":false,"is_disabled":false,"rental_uris":{"android":"levelo://app?vid=124fe4c8-d877-453b-88bd-af8d62d24653","ios":"levelo://app?vid=124fe4c8-d877-453b-88bd-af8d62d24653"},"vehicle_type_id":"4","last_reported":1728962167,"current_range_meters":8400,"station_id":"ce4bhg12rcd13ifvqf60","pricing_plan_id":"cebpf4jnsgd1na2vs0mg"},{"bike_id":"f44a9589-e2e5-45ce-9597-36cbac02912f","system_id":"levelo_inurba_marseille","lat":43.28939,"lon":5.39626,"is_reserved":false,"is_disabled":false,"rental_uris":{"android":"levelo://app?vid=f44a9589-e2e5-45ce-9597-36cbac02912f","ios":"levelo://app?vid=f44a9589-e2e5-45ce-9597-36cbac02912f"},"vehicle_type_id":"4","last_reported":1728962167,"current_range_meters":38800,"station_id":"ce4bh3h2rcd13ifvqdn0","pricing_plan_id":"cebpf4jnsgd1na2vs0mg"},{"bike_id":"d6fed98b-6f3d-4ee9-b77c-30a41d4f3bbb","system_id":"levelo_inurba_marseille","lat":43.2846,"lon":5.35878,"is_reserved":false,"is_disabled":false,"rental_uris":{"android":"levelo://app?vid=d6fed98b-6f3d-4ee9-b77c-30a41d4f3bbb","ios":"levelo://app?vid=d6fed98b-6f3d-4ee9-b77c-30a41d4f3bbb"},"vehicle_type_id":"4","last_reported":1728962167,"current_range_meters":36000,"station_id":"ce4bhah2rcd13ifvqei0","pricing_plan_id":"cebpf4jnsgd1na2vs0mg"},{"bike_id":"fef33a01-1b0e-4553-94a4-fb9045e805f5","system_id":"levelo_inurba_marseille","lat":43.31162,"lon":5.38724,"is_reserved":false,"is_disabled":false,"rental_uris":{"android":"levelo://app?vid=fef33a01-1b0e-4553-94a4-fb9045e805f5","ios":"levelo://app?vid=fef33a01-1b0e-4553-94a4-fb9045e805f5"},"vehicle_type_id":"4","last_reported":1728962167,"current_range_meters":27200,"station_id":"ce4bgv12rcd13ifvqcp0","pricing_plan_id":"cebpf4jnsgd1na2vs0mg"},{"bike_id":"f57f4d6f-75e3-40c2-8b37-fd35a15bf7ea","system_id":"levelo_inurba_marseille","lat":43.28104,"lon":5.378387,"is_reserved":false,"is_disabled":false,"rental_uris":{"android":"levelo://app?vid=f57f4d6f-75e3-40c2-8b37-fd35a15bf7ea","ios":"levelo://app?vid=f57f4d6f-75e3-40c2-8b37-fd35a15bf7ea"},"vehicle_type_id":"4","last_reported":1728962167,"current_range_meters":38000,"station_id":"ce4bha12rcd13ifvqee0","pricing_plan_id":"cebpf4jnsgd1na2vs0mg"},{"bike_id":"fd5d6e39-fef6-41e5-ab0a-5f9e7b94603a","system_id":"levelo_inurba_marseille","lat":43.24644,"lon":5.3889,"is_reserved":false,"is_disabled":false,"rental_uris":{"android":"levelo://app?vid=fd5d6e39-fef6-41e5-ab0a-5f9e7b94603a","ios":"levelo://app?vid=fd5d6e39-fef6-41e5-ab0a-5f9e7b94603a"},"vehicle_type_id":"4","last_reported":1728962167,"current_range_meters":38800,"station_id":"ce4bhg12rcd13ifvqf60","pricing_plan_id":"cebpf4jnsgd1na2vs0mg"},{"bike_id":"8bf5b36e-884a-4ead-a687-4aeaa5d33435","system_id":"levelo_inurba_marseille","lat":43.2587,"lon":5.399,"is_reserved":false,"is_disabled":false,"rental_uris":{"android":"levelo://app?vid=8bf5b36e-884a-4ead-a687-4aeaa5d33435","ios":"levelo://app?vid=8bf5b36e-884a-4ead-a687-4aeaa5d33435"},"vehicle_type_id":"4","last_reported":1728962167,"current_range_meters":38800,"station_id":"ce4bhl92rcd13ifvqghg","pricing_plan_id":"cebpf4jnsgd1na2vs0mg"},{"bike_id":"aafcf1be-1d47-4a19-abd2-e4662b7c2e59","system_id":"levelo_inurba_marseille","lat":43.28698,"lon":5.39979,"is_reserved":false,"is_disabled":false,"rental_uris":{"android":"levelo://app?vid=aafcf1be-1d47-4a19-abd2-e4662b7c2e59","ios":"levelo://app?vid=aafcf1be-1d47-4a19-abd2-e4662b7c2e59"},"vehicle_type_id":"4","last_reported":1728962167,"current_range_meters":34000,"station_id":"ce4bho92rcd13ifvqh3g","pricing_plan_id":"cebpf4jnsgd1na2vs0mg"},{"bike_id":"e55ce7e2-8e60-47b5-844e-977029bd08ba","system_id":"levelo_inurba_marseille","lat":43.29557,"lon":5.4228,"is_reserved":false,"is_disabled":false,"rental_uris":{"android":"levelo://app?vid=e55ce7e2-8e60-47b5-844e-977029bd08ba","ios":"levelo://app?vid=e55ce7e2-8e60-47b5-844e-977029bd08ba"},"vehicle_type_id":"4","last_reported":1728962167,"current_range_meters":38800,"station_id":"ce4bhph2rcd13ifvqhdg","pricing_plan_id":"cebpf4jnsgd1na2vs0mg"},{"bike_id":"07d70820-54c8-485a-b04b-017096cc6e14","system_id":"levelo_inurba_marseille","lat":43.330189,"lon":5.390334,"is_reserved":false,"is_disabled":false,"rental_uris":{"android":"levelo://app?vid=07d70820-54c8-485a-b04b-017096cc6e14","ios":"levelo://app?vid=07d70820-54c8-485a-b04b-017096cc6e14"},"vehicle_type_id":"4","last_reported":1728962167,"current_range_meters":38400,"station_id":"ce4bhr92rcd13ifvqhrg","pricing_plan_id":"cebpf4jnsgd1na2vs0mg"},{"bike_id":"292b9425-1372-40d4-bf0a-fe57aa779a41","system_id":"levelo_inurba_marseille","lat":43.23063,"lon":5.35495,"is_reserved":false,"is_disabled":false,"rental_uris":{"android":"levelo://app?vid=292b9425-1372-40d4-bf0a-fe57aa779a41","ios":"levelo://app?vid=292b9425-1372-40d4-bf0a-fe57aa779a41"},"vehicle_type_id":"4","last_reported":1728962167,"current_range_meters":36000,"station_id":"cpo3342slgdg3j2ifvpg","pricing_plan_id":"cebpf4jnsgd1na2vs0mg"},{"bike_id":"12461a23-70ed-4bb6-8bd7-3c3e204957fc","system_id":"levelo_inurba_marseille","lat":43.302981,"lon":5.392041,"is_reserved":false,"is_disabled":false,"rental_uris":{"android":"levelo://app?vid=12461a23-70ed-4bb6-8bd7-3c3e204957fc","ios":"levelo://app?vid=12461a23-70ed-4bb6-8bd7-3c3e204957fc"},"vehicle_type_id":"4","last_reported":1728962167,"current_range_meters":39200,"station_id":"ce4bgkh2rcd13ifvqbk0","pricing_plan_id":"cebpf4jnsgd1na2vs0mg"},{"bike_id":"9f64ae34-3d53-461b-a6d6-174aa3829040","system_id":"levelo_inurba_marseille","lat":43.29436,"lon":5.3976,"is_reserved":false,"is_disabled":false,"rental_uris":{"android":"levelo://app?vid=9f64ae34-3d53-461b-a6d6-174aa3829040","ios":"levelo://app?vid=9f64ae34-3d53-461b-a6d6-174aa3829040"},"vehicle_type_id":"4","last_reported":1728962167,"current_range_meters":38800,"station_id":"ce4bh3h2rcd13ifvqdo0","pricing_plan_id":"cebpf4jnsgd1na2vs0mg"},{"bike_id":"a0e94a62-92b9-4aee-841c-76cf95b5fb0a","system_id":"levelo_inurba_marseille","lat":43.25075,"lon":5.39512,"is_reserved":false,"is_disabled":false,"rental_uris":{"android":"levelo://app?vid=a0e94a62-92b9-4aee-841c-76cf95b5fb0a","ios":"levelo://app?vid=a0e94a62-92b9-4aee-841c-76cf95b5fb0a"},"vehicle_type_id":"4","last_reported":1728962167,"current_range_meters":28400,"station_id":"ce4bhm12rcd13ifvqgkg","pricing_plan_id":"cebpf4jnsgd1na2vs0mg"},{"bike_id":"35b48b50-b446-4a64-9e47-a66935f74835","system_id":"levelo_inurba_marseille","lat":43.27829,"lon":5.39206,"is_reserved":false,"is_disabled":false,"rental_uris":{"android":"levelo://app?vid=35b48b50-b446-4a64-9e47-a66935f74835","ios":"levelo://app?vid=35b48b50-b446-4a64-9e47-a66935f74835"},"vehicle_type_id":"4","last_reported":1728962167,"current_range_meters":38000,"station_id":"ce4bhjp2rcd13ifvqga0","pricing_plan_id":"cebpf4jnsgd1na2vs0mg"},{"bike_id":"21edea7c-9fb1-4ef0-a7a1-b2688276a797","system_id":"levelo_inurba_marseille","lat":43.29278,"lon":5.40126,"is_reserved":false,"is_disabled":false,"rental_uris":{"android":"levelo://app?vid=21edea7c-9fb1-4ef0-a7a1-b2688276a797","ios":"levelo://app?vid=21edea7c-9fb1-4ef0-a7a1-b2688276a797"},"vehicle_type_id":"4","last_reported":1728962167,"current_range_meters":33200,"station_id":"ce4bh312rcd13ifvqdk0","pricing_plan_id":"cebpf4jnsgd1na2vs0mg"},{"bike_id":"4ab6b2ce-f81b-4e19-90f7-924cfa3fce97","system_id":"levelo_inurba_marseille","lat":43.29415,"lon":5.39743,"is_reserved":false,"is_disabled":false,"rental_uris":{"android":"levelo://app?vid=4ab6b2ce-f81b-4e19-90f7-924cfa3fce97","ios":"levelo://app?vid=4ab6b2ce-f81b-4e19-90f7-924cfa3fce97"},"vehicle_type_id":"4","last_reported":1728962167,"current_range_meters":38000,"station_id":"ce4bh3h2rcd13ifvqdo0","pricing_plan_id":"cebpf4jnsgd1na2vs0mg"},{"bike_id":"1e832aed-27c8-44a7-8b7b-b73f12e7aa22","system_id":"levelo_inurba_marseille","lat":43.30417,"lon":5.41289,"is_reserved":false,"is_disabled":false,"rental_uris":{"android":"levelo://app?vid=1e832aed-27c8-44a7-8b7b-b73f12e7aa22","ios":"levelo://app?vid=1e832aed-27c8-44a7-8b7b-b73f12e7aa22"},"vehicle_type_id":"4","last_reported":1728962167,"current_range_meters":37600,"station_id":"ce4bhop2rcd13ifvqh8g","pricing_plan_id":"cebpf4jnsgd1na2vs0mg"},{"bike_id":"5f72df1a-58a0-456c-bd34-2c0a262f314a","system_id":"levelo_inurba_marseille","lat":43.29027,"lon":5.38645,"is_reserved":false,"is_disabled":false,"rental_uris":{"android":"levelo://app?vid=5f72df1a-58a0-456c-bd34-2c0a262f314a","ios":"levelo://app?vid=5f72df1a-58a0-456c-bd34-2c0a262f314a"},"vehicle_type_id":"4","last_reported":1728962167,"current_range_meters":38800,"station_id":"ce4bh4p2rcd13ifvqe0g","pricing_plan_id":"cebpf4jnsgd1na2vs0mg"},{"bike_id":"92864da1-a397-4a3b-bd33-8b556867fd8f","system_id":"levelo_inurba_marseille","lat":43.24545,"lon":5.39525,"is_reserved":false,"is_disabled":false,"rental_uris":{"android":"levelo://app?vid=92864da1-a397-4a3b-bd33-8b556867fd8f","ios":"levelo://app?vid=92864da1-a397-4a3b-bd33-8b556867fd8f"},"vehicle_type_id":"4","last_reported":1728962167,"current_range_meters":24000,"station_id":"ce4bhlp2rcd13ifvqgjg","pricing_plan_id":"cebpf4jnsgd1na2vs0mg"},{"bike_id":"2f856bfb-366d-4a8a-afe7-c16bc64e24e9","system_id":"levelo_inurba_marseille","lat":43.28857,"lon":5.35851,"is_reserved":false,"is_disabled":false,"rental_uris":{"android":"levelo://app?vid=2f856bfb-366d-4a8a-afe7-c16bc64e24e9","ios":"levelo://app?vid=2f856bfb-366d-4a8a-afe7-c16bc64e24e9"},"vehicle_type_id":"4","last_reported":1728962167,"current_range_meters":24800,"station_id":"ce4bhb12rcd13ifvqem0","pricing_plan_id":"cebpf4jnsgd1na2vs0mg"},{"bike_id":"f9431acc-4158-4e63-bbe0-7544277cc35e","system_id":"levelo_inurba_marseille","lat":43.29032,"lon":5.37567,"is_reserved":false,"is_disabled":false,"rental_uris":{"android":"levelo://app?vid=f9431acc-4158-4e63-bbe0-7544277cc35e","ios":"levelo://app?vid=f9431acc-4158-4e63-bbe0-7544277cc35e"},"vehicle_type_id":"4","last_reported":1728962167,"current_range_meters":28000,"station_id":"ce4bh692rcd13ifvqe90","pricing_plan_id":"cebpf4jnsgd1na2vs0mg"},{"bike_id":"e42a5c5b-19d2-48bc-8dfc-c8514ef28621","system_id":"levelo_inurba_marseille","lat":43.24169,"lon":5.36399,"is_reserved":false,"is_disabled":false,"rental_uris":{"android":"levelo://app?vid=e42a5c5b-19d2-48bc-8dfc-c8514ef28621","ios":"levelo://app?vid=e42a5c5b-19d2-48bc-8dfc-c8514ef28621"},"vehicle_type_id":"4","last_reported":1728962167,"current_range_meters":27600,"station_id":"cpo36qri1sfpv3e86is0","pricing_plan_id":"cebpf4jnsgd1na2vs0mg"},{"bike_id":"24a43979-b432-43c7-83da-543a83415270","system_id":"levelo_inurba_marseille","lat":43.27061,"lon":5.40254,"is_reserved":false,"is_disabled":false,"rental_uris":{"android":"levelo://app?vid=24a43979-b432-43c7-83da-543a83415270","ios":"levelo://app?vid=24a43979-b432-43c7-83da-543a83415270"},"vehicle_type_id":"4","last_reported":1728962167,"current_range_meters":37600,"station_id":"ce4bhk92rcd13ifvqgc0","pricing_plan_id":"cebpf4jnsgd1na2vs0mg"},{"bike_id":"a8e051ed-6aea-47ae-a855-1de69c426089","system_id":"levelo_inurba_marseille","lat":43.25109,"lon":5.40327,"is_reserved":false,"is_disabled":false,"rental_uris":{"android":"levelo://app?vid=a8e051ed-6aea-47ae-a855-1de69c426089","ios":"levelo://app?vid=a8e051ed-6aea-47ae-a855-1de69c426089"},"vehicle_type_id":"4","last_reported":1728962167,"current_range_meters":38800,"station_id":"ce4bhlh2rcd13ifvqgig","pricing_plan_id":"cebpf4jnsgd1na2vs0mg"},{"bike_id":"96312f5f-0242-4af5-8904-5da6da457ea0","system_id":"levelo_inurba_marseille","lat":43.28842,"lon":5.35849,"is_reserved":false,"is_disabled":false,"rental_uris":{"android":"levelo://app?vid=96312f5f-0242-4af5-8904-5da6da457ea0","ios":"levelo://app?vid=96312f5f-0242-4af5-8904-5da6da457ea0"},"vehicle_type_id":"4","last_reported":1728962167,"current_range_meters":38400,"station_id":"ce4bhb12rcd13ifvqem0","pricing_plan_id":"cebpf4jnsgd1na2vs0mg"},{"bike_id":"0bb0b55b-1db0-4f04-9cae-5decd1e52b8e","system_id":"levelo_inurba_marseille","lat":43.23154,"lon":5.43706,"is_reserved":false,"is_disabled":false,"rental_uris":{"android":"levelo://app?vid=0bb0b55b-1db0-4f04-9cae-5decd1e52b8e","ios":"levelo://app?vid=0bb0b55b-1db0-4f04-9cae-5decd1e52b8e"},"vehicle_type_id":"4","last_reported":1728962167,"current_range_meters":24000,"station_id":"ce4bhmp2rcd13ifvqgog","pricing_plan_id":"cebpf4jnsgd1na2vs0mg"},{"bike_id":"0262a9fe-feca-45d9-bcc5-0db5cd20149e","system_id":"levelo_inurba_marseille","lat":43.31275,"lon":5.40163,"is_reserved":false,"is_disabled":false,"rental_uris":{"android":"levelo://app?vid=0262a9fe-feca-45d9-bcc5-0db5cd20149e","ios":"levelo://app?vid=0262a9fe-feca-45d9-bcc5-0db5cd20149e"},"vehicle_type_id":"4","last_reported":1728962167,"current_range_meters":39200,"station_id":"ce4bh092rcd13ifvqd30","pricing_plan_id":"cebpf4jnsgd1na2vs0mg"},{"bike_id":"c33238aa-1247-4c16-bdb1-0c68942c7f08","system_id":"levelo_inurba_marseille","lat":43.3078,"lon":5.37648,"is_reserved":false,"is_disabled":false,"rental_uris":{"android":"levelo://app?vid=c33238aa-1247-4c16-bdb1-0c68942c7f08","ios":"levelo://app?vid=c33238aa-1247-4c16-bdb1-0c68942c7f08"},"vehicle_type_id":"4","last_reported":1728962167,"current_range_meters":38800,"station_id":"ce4bgv92rcd13ifvqcq0","pricing_plan_id":"cebpf4jnsgd1na2vs0mg"},{"bike_id":"c3d19ee9-9995-4177-baec-3f2c8d846bcb","system_id":"levelo_inurba_marseille","lat":43.308884,"lon":5.396396,"is_reserved":false,"is_disabled":false,"rental_uris":{"android":"levelo://app?vid=c3d19ee9-9995-4177-baec-3f2c8d846bcb","ios":"levelo://app?vid=c3d19ee9-9995-4177-baec-3f2c8d846bcb"},"vehicle_type_id":"4","last_reported":1728962167,"current_range_meters":28400,"station_id":"ce4bh012rcd13ifvqcv0","pricing_plan_id":"cebpf4jnsgd1na2vs0mg"},{"bike_id":"d06f24f3-1961-4c39-8b26-c72733863fe9","system_id":"levelo_inurba_marseille","lat":43.33781,"lon":5.37443,"is_reserved":false,"is_disabled":false,"rental_uris":{"android":"levelo://app?vid=d06f24f3-1961-4c39-8b26-c72733863fe9","ios":"levelo://app?vid=d06f24f3-1961-4c39-8b26-c72733863fe9"},"vehicle_type_id":"4","last_reported":1728962167,"current_range_meters":26000,"station_id":"","pricing_plan_id":"cebpf4jnsgd1na2vs0mg"},{"bike_id":"ba787b4f-c27a-403a-a536-98ba900ad1eb","system_id":"levelo_inurba_marseille","lat":43.25112,"lon":5.40316,"is_reserved":false,"is_disabled":false,"rental_uris":{"android":"levelo://app?vid=ba787b4f-c27a-403a-a536-98ba900ad1eb","ios":"levelo://app?vid=ba787b4f-c27a-403a-a536-98ba900ad1eb"},"vehicle_type_id":"4","last_reported":1728962167,"current_range_meters":35600,"station_id":"ce4bhlh2rcd13ifvqgig","pricing_plan_id":"cebpf4jnsgd1na2vs0mg"},{"bike_id":"2da6aa54-ad0c-484f-8279-5aac8ad1d94b","system_id":"levelo_inurba_marseille","lat":43.31719,"lon":5.42408,"is_reserved":false,"is_disabled":false,"rental_uris":{"android":"levelo://app?vid=2da6aa54-ad0c-484f-8279-5aac8ad1d94b","ios":"levelo://app?vid=2da6aa54-ad0c-484f-8279-5aac8ad1d94b"},"vehicle_type_id":"4","last_reported":1728962167,"current_range_meters":38000,"station_id":"ce4bhp92rcd13ifvqhbg","pricing_plan_id":"cebpf4jnsgd1na2vs0mg"},{"bike_id":"6d1e9b82-c078-4afa-ba2d-8366bc0d7400","system_id":"levelo_inurba_marseille","lat":43.29563,"lon":5.3996,"is_reserved":false,"is_disabled":false,"rental_uris":{"android":"levelo://app?vid=6d1e9b82-c078-4afa-ba2d-8366bc0d7400","ios":"levelo://app?vid=6d1e9b82-c078-4afa-ba2d-8366bc0d7400"},"vehicle_type_id":"4","last_reported":1728962167,"current_range_meters":37600,"station_id":"ce4bh312rcd13ifvqdj0","pricing_plan_id":"cebpf4jnsgd1na2vs0mg"},{"bike_id":"59801407-972f-4a36-807e-85d5772337bc","system_id":"levelo_inurba_marseille","lat":43.2808,"lon":5.39655,"is_reserved":false,"is_disabled":false,"rental_uris":{"android":"levelo://app?vid=59801407-972f-4a36-807e-85d5772337bc","ios":"levelo://app?vid=59801407-972f-4a36-807e-85d5772337bc"},"vehicle_type_id":"4","last_reported":1728962167,"current_range_meters":5600,"station_id":"ce4bho12rcd13ifvqh2g","pricing_plan_id":"cebpf4jnsgd1na2vs0mg"},{"bike_id":"537e77d6-1c8a-47f0-9964-2253af554a01","system_id":"levelo_inurba_marseille","lat":43.28664,"lon":5.36357,"is_reserved":false,"is_disabled":false,"rental_uris":{"android":"levelo://app?vid=537e77d6-1c8a-47f0-9964-2253af554a01","ios":"levelo://app?vid=537e77d6-1c8a-47f0-9964-2253af554a01"},"vehicle_type_id":"4","last_reported":1728962167,"current_range_meters":38800,"station_id":"ce4bhah2rcd13ifvqej0","pricing_plan_id":"cebpf4jnsgd1na2vs0mg"},{"bike_id":"de55ef64-fd38-455a-b0e1-1ae601486694","system_id":"levelo_inurba_marseille","lat":43.28461,"lon":5.35894,"is_reserved":false,"is_disabled":false,"rental_uris":{"android":"levelo://app?vid=de55ef64-fd38-455a-b0e1-1ae601486694","ios":"levelo://app?vid=de55ef64-fd38-455a-b0e1-1ae601486694"},"vehicle_type_id":"4","last_reported":1728962167,"current_range_meters":28400,"station_id":"ce4bhah2rcd13ifvqei0","pricing_plan_id":"cebpf4jnsgd1na2vs0mg"},{"bike_id":"d41309ab-1a1f-4395-acaa-455483c3f8e1","system_id":"levelo_inurba_marseille","lat":43.23191,"lon":5.35561,"is_reserved":false,"is_disabled":false,"rental_uris":{"android":"levelo://app?vid=d41309ab-1a1f-4395-acaa-455483c3f8e1","ios":"levelo://app?vid=d41309ab-1a1f-4395-acaa-455483c3f8e1"},"vehicle_type_id":"4","last_reported":1728962167,"current_range_meters":35600,"station_id":"ce4bhu92rcd13ifvqi70","pricing_plan_id":"cebpf4jnsgd1na2vs0mg"},{"bike_id":"98a90dc6-6da5-408f-b798-38b980581df3","system_id":"levelo_inurba_marseille","lat":43.29297,"lon":5.3745,"is_reserved":false,"is_disabled":false,"rental_uris":{"android":"levelo://app?vid=98a90dc6-6da5-408f-b798-38b980581df3","ios":"levelo://app?vid=98a90dc6-6da5-408f-b798-38b980581df3"},"vehicle_type_id":"4","last_reported":1728962167,"current_range_meters":30400,"station_id":"ce4bgi12rcd13ifvqb70","pricing_plan_id":"cebpf4jnsgd1na2vs0mg"},{"bike_id":"4d61dae6-15fa-4e8d-92b6-002cd41e2abc","system_id":"levelo_inurba_marseille","lat":43.28265,"lon":5.35075,"is_reserved":false,"is_disabled":false,"rental_uris":{"android":"levelo://app?vid=4d61dae6-15fa-4e8d-92b6-002cd41e2abc","ios":"levelo://app?vid=4d61dae6-15fa-4e8d-92b6-002cd41e2abc"},"vehicle_type_id":"4","last_reported":1728962167,"current_range_meters":14000,"station_id":"ce4bhbp2rcd13ifvqerg","pricing_plan_id":"cebpf4jnsgd1na2vs0mg"},{"bike_id":"621f96f4-09af-43a6-9d6e-e7a687bab458","system_id":"levelo_inurba_marseille","lat":43.25086,"lon":5.39521,"is_reserved":false,"is_disabled":false,"rental_uris":{"android":"levelo://app?vid=621f96f4-09af-43a6-9d6e-e7a687bab458","ios":"levelo://app?vid=621f96f4-09af-43a6-9d6e-e7a687bab458"},"vehicle_type_id":"4","last_reported":1728962167,"current_range_meters":38400,"station_id":"ce4bhm12rcd13ifvqgkg","pricing_plan_id":"cebpf4jnsgd1na2vs0mg"},{"bike_id":"710523a7-e306-4ecb-ab43-7eb6b3a30162","system_id":"levelo_inurba_marseille","lat":43.30465,"lon":5.40176,"is_reserved":false,"is_disabled":false,"rental_uris":{"android":"levelo://app?vid=710523a7-e306-4ecb-ab43-7eb6b3a30162","ios":"levelo://app?vid=710523a7-e306-4ecb-ab43-7eb6b3a30162"},"vehicle_type_id":"4","last_reported":1728962167,"current_range_meters":24800,"station_id":"","pricing_plan_id":"cebpf4jnsgd1na2vs0mg"},{"bike_id":"3dbf4e3e-5839-4c37-b41f-742e4bb32b46","system_id":"levelo_inurba_marseille","lat":43.30802,"lon":5.38162,"is_reserved":false,"is_disabled":false,"rental_uris":{"android":"levelo://app?vid=3dbf4e3e-5839-4c37-b41f-742e4bb32b46","ios":"levelo://app?vid=3dbf4e3e-5839-4c37-b41f-742e4bb32b46"},"vehicle_type_id":"4","last_reported":1728962167,"current_range_meters":38800,"station_id":"ce4bgt12rcd13ifvqce0","pricing_plan_id":"cebpf4jnsgd1na2vs0mg"},{"bike_id":"fca53f66-742d-44ee-956a-20e7ae576730","system_id":"levelo_inurba_marseille","lat":43.31271,"lon":5.40158,"is_reserved":false,"is_disabled":false,"rental_uris":{"android":"levelo://app?vid=fca53f66-742d-44ee-956a-20e7ae576730","ios":"levelo://app?vid=fca53f66-742d-44ee-956a-20e7ae576730"},"vehicle_type_id":"4","last_reported":1728962167,"current_range_meters":38800,"station_id":"ce4bh092rcd13ifvqd30","pricing_plan_id":"cebpf4jnsgd1na2vs0mg"},{"bike_id":"eaedc49c-645c-4444-a4d2-8456bbc17d70","system_id":"levelo_inurba_marseille","lat":43.29901,"lon":5.436575,"is_reserved":false,"is_disabled":false,"rental_uris":{"android":"levelo://app?vid=eaedc49c-645c-4444-a4d2-8456bbc17d70","ios":"levelo://app?vid=eaedc49c-645c-4444-a4d2-8456bbc17d70"},"vehicle_type_id":"4","last_reported":1728962167,"current_range_meters":17200,"station_id":"ce4bhpp2rcd13ifvqhfg","pricing_plan_id":"cebpf4jnsgd1na2vs0mg"},