{"last_updated":1688058409,"ttl":30,"version":"2.2","data":{"bikes":[{"bike_id":"666c1415-28e9-4944-87f5-29a628446c75","system_id":"levelo_inurba_marseille","lat":43.312239,"lon":5.368562,"is_reserved":false,"is_disabled":false,"rental_uris":{"android":"levelo://app?vid=666c1415-28e9-4944-87f5-29a628446c75","ios":"levelo://app?vid=666c1415-28e9-4944-87f5-29a628446c75"},"vehicle_type_id":"4","last_reported":1688058409,"current_range_meters":31200,"station_id":"ce4bgl92rcd13ifvqbq0","pricing_plan_id":"free"},{"bike_id":"751a241a-8b56-4667-a2b2-07a0d47f2f67","system_id":"levelo_inurba_marseille","lat":43.31481,"lon":5.37307,"is_reserved":false,"is_disabled":false,"rental_uris":{"android":"levelo://app?vid=751a241a-8b56-4667-a2b2-07a0d47f2f67","ios":"levelo://app?vid=751a241a-8b56-4667-a2b2-07a0d47f2f67"},"vehicle_type_id":"4","last_reported":1688058409,"current_range_meters":16000,"station_id":"ce4bgt12rcd13ifvqcd0","pricing_plan_id":"free"},{"bike_id":"bbf80e20-3024-4b87-81b5-2548630eab69","system_id":"levelo_inurba_marseille","lat":43.305706,"lon":5.365654,"is_reserved":false,"is_disabled":false,"rental_uris":{"android":"levelo://app?vid=bbf80e20-3024-4b87-81b5-2548630eab69","ios":"levelo://app?vid=bbf80e20-3024-4b87-81b5-2548630eab69"},"vehicle_type_id":"4","last_reported":1688058409,"current_range_meters":30000,"station_id":"ce4bgs12rcd13ifvqcag","pricing_plan_id":"free"},{"bike_id":"01888242-99f9-4c03-8e05-7f508ab09639","system_id":"levelo_inurba_marseille","lat":43.311125,"lon":5.377624,"is_reserved":false,"is_disabled":false,"rental_uris":{"android":"levelo://app?vid=01888242-99f9-4c03-8e05-7f508ab09639","ios":"levelo://app?vid=01888242-99f9-4c03-8e05-7f508ab09639"},"vehicle_type_id":"4","last_reported":1688058409,"current_range_meters":22000,"station_id":"ce4bgt92rcd13ifvqcg0","pricing_plan_id":"free"},{"bike_id":"493449e0-4fde-43e7-9489-ac60731dfc59","system_id":"levelo_inurba_marseille","lat":43.30305,"lon":5.36904,"is_reserved":false,"is_disabled":false,"rental_uris":{"android":"levelo://app?vid=493449e0-4fde-43e7-9489-ac60731dfc59","ios":"levelo://app?vid=493449e0-4fde-43e7-9489-ac60731dfc59"},"vehicle_type_id":"4","last_reported":1688058409,"current_range_meters":22000,"station_id":"ce4bgqh2rcd13ifvqc5g","pricing_plan_id":"free"},{"bike_id":"0fd0ed7f-6986-4977-8f8f-eab36a06e9d4","system_id":"levelo_inurba_marseille","lat":43.315289,"lon":5.380349,"is_reserved":false,"is_disabled":false,"rental_uris":{"android":"levelo://app?vid=0fd0ed7f-6986-4977-8f8f-eab36a06e9d4","ios":"levelo://app?vid=0fd0ed7f-6986-4977-8f8f-eab36a06e9d4"},"vehicle_type_id":"4","last_reported":1688058409,"current_range_meters":20000,"station_id":"ce4bhsp2rcd13ifvqi50","pricing_plan_id":"free"},{"bike_id":"69b7d020-7dca-4cd1-8bba-625fcdf99057","system_id":"levelo_inurba_marseille","lat":43.308012,"lon":5.381511,"is_reserved":false,"is_disabled":false,"rental_uris":{"android":"levelo://app?vid=69b7d020-7dca-4cd1-8bba-625fcdf99057","ios":"levelo://app?vid=69b7d020-7dca-4cd1-8bba-625fcdf99057"},"vehicle_type_id":"4","last_reported":1688058409,"current_range_meters":14000,"station_id":"ce4bgt12rcd13ifvqce0","pricing_plan_id":"free"},{"bike_id":"51e10880-af97-47a8-9d4b-d90ab34dcb79","system_id":"levelo_inurba_marseille","lat":43.304606,"lon":5.379026,"is_reserved":false,"is_disabled":false,"rental_uris":{"android":"levelo://app?vid=51e10880-af97-47a8-9d4b-d90ab34dcb79","ios":"levelo://app?vid=51e10880-af97-47a8-9d4b-d90ab34dcb79"},"vehicle_type_id":"4","last_reported":1688058409,"current_range_meters":2000,"station_id":"ce4bgup2rcd13ifvqcn0","pricing_plan_id":"free"},{"bike_id":"34ee49b9-c50b-4a68-a7c0-e16e42a93913","system_id":"levelo_inurba_marseille","lat":43.32534,"lon":5.36873,"is_reserved":false,"is_disabled":false,"rental_uris":{"android":"levelo://app?vid=34ee49b9-c50b-4a68-a7c0-e16e42a93913","ios":"levelo://app?vid=34ee49b9-c50b-4a68-a7c0-e16e42a93913"},"vehicle_type_id":"4","last_reported":1688058409,"current_range_meters":16400,"station_id":"","pricing_plan_id":"free"},{"bike_id":"68608edd-60a5-44ad-b28d-cc078dd05430","system_id":"levelo_inurba_marseille","lat":43.29939,"lon":5.3656,"is_reserved":false,"is_disabled":false,"rental_uris":{"android":"levelo://app?vid=68608edd-60a5-44ad-b28d-cc078dd05430","ios":"levelo://app?vid=68608edd-60a5-44ad-b28d-cc078dd05430"},"vehicle_type_id":"4","last_reported":1688058409,"current_range_meters":19600,"station_id":"ce4bgm92rcd13ifvqbr0","pricing_plan_id":"free"},{"bike_id":"f86b7bb0-779e-47ee-8302-03669830cc38","system_id":"levelo_inurba_marseille","lat":43.299222,"lon":5.365554,"is_reserved":false,"is_disabled":false,"rental_uris":{"android":"levelo://app?vid=f86b7bb0-779e-47ee-8302-03669830cc38","ios":"levelo://app?vid=f86b7bb0-779e-47ee-8302-03669830cc38"},"vehicle_type_id":"4","last_reported":1688058409,"current_range_meters":0,"station_id":"ce4bgm92rcd13ifvqbr0","pricing_plan_id":"free"},{"bike_id":"737583ed-cdeb-4fff-80e1-c97f7497dcad","system_id":"levelo_inurba_marseille","lat":43.298433,"lon":5.362774,"is_reserved":false,"is_disabled":false,"rental_uris":{"android":"levelo://app?vid=737583ed-cdeb-4fff-80e1-c97f7497dcad","ios":"levelo://app?vid=737583ed-cdeb-4fff-80e1-c97f7497dcad"},"vehicle_type_id":"4","last_reported":1688058409,"current_range_meters":4800,"station_id":"ce4bgpp2rcd13ifvqc3g","pricing_plan_id":"free"},{"bike_id":"f458d70c-bdae-48ac-afcc-e30ec309bdd1","system_id":"levelo_inurba_marseille","lat":43.298433,"lon":5.362774,"is_reserved":false,"is_disabled":false,"rental_uris":{"android":"levelo://app?vid=f458d70c-bdae-48ac-afcc-e30ec309bdd1","ios":"levelo://app?vid=f458d70c-bdae-48ac-afcc-e30ec309bdd1"},"vehicle_type_id":"4","last_reported":1688058409,"current_range_meters":7200,"station_id":"ce4bgpp2rcd13ifvqc3g","pricing_plan_id":"free"},{"bike_id":"87cef420-e224-4de2-9a66-083b58905f1c","system_id":"levelo_inurba_marseille","lat":43.298433,"lon":5.362774,"is_reserved":false,"is_disabled":false,"rental_uris":{"android":"levelo://app?vid=87cef420-e224-4de2-9a66-083b58905f1c","ios":"levelo://app?vid=87cef420-e224-4de2-9a66-083b58905f1c"},"vehicle_type_id":"4","last_reported":1688058409,"current_range_meters":24400,"station_id":"ce4bgpp2rcd13ifvqc3g","pricing_plan_id":"free"},{"bike_id":"2a4839fa-055f-4964-a582-bc0fa565319e","system_id":"levelo_inurba_marseille","lat":43.298433,"lon":5.362774,"is_reserved":false,"is_disabled":false,"rental_uris":{"android":"levelo://app?vid=2a4839fa-055f-4964-a582-bc0fa565319e","ios":"levelo://app?vid=2a4839fa-055f-4964-a582-bc0fa565319e"},"vehicle_type_id":"4","last_reported":1688058409,"current_range_meters":24800,"station_id":"ce4bgpp2rcd13ifvqc3g","pricing_plan_id":"free"},{"bike_id":"b95c3460-9b2d-46f0-944c-00c80ec30ab1","system_id":"levelo_inurba_marseille","lat":43.29843,"lon":5.36271,"is_reserved":false,"is_disabled":false,"rental_uris":{"android":"levelo://app?vid=b95c3460-9b2d-46f0-944c-00c80ec30ab1","ios":"levelo://app?vid=b95c3460-9b2d-46f0-944c-00c80ec30ab1"},"vehicle_type_id":"4","last_reported":1688058409,"current_range_meters":7200,"station_id":"ce4bgpp2rcd13ifvqc3g","pricing_plan_id":"free"},{"bike_id":"c8548786-f884-4db2-bd4f-d82cf3599812","system_id":"levelo_inurba_marseille","lat":43.298433,"lon":5.362774,"is_reserved":false,"is_disabled":false,"rental_uris":{"android":"levelo://app?vid=c8548786-f884-4db2-bd4f-d82cf3599812","ios":"levelo://app?vid=c8548786-f884-4db2-bd4f-d82cf3599812"},"vehicle_type_id":"4","last_reported":1688058409,"current_range_meters":800,"station_id":"ce4bgpp2rcd13ifvqc3g","pricing_plan_id":"free"},{"bike_id":"9e308144-b59d-4d47-917d-825a14557ebd","system_id":"levelo_inurba_marseille","lat":43.298433,"lon":5.362774,"is_reserved":false,"is_disabled":false,"rental_uris":{"android":"levelo://app?vid=9e308144-b59d-4d47-917d-825a14557ebd","ios":"levelo://app?vid=9e308144-b59d-4d47-917d-825a14557ebd"},"vehicle_type_id":"4","last_reported":1688058409,"current_range_meters":12000,"station_id":"ce4bgpp2rcd13ifvqc3g","pricing_plan_id":"free"},{"bike_id":"2d9217ab-1a1e-4c26-8f12-f75f4a7b1b7b","system_id":"levelo_inurba_marseille","lat":43.298433,"lon":5.362774,"is_reserved":false,"is_disabled":false,"rental_uris":{"android":"levelo://app?vid=2d9217ab-1a1e-4c26-8f12-f75f4a7b1b7b","ios":"levelo://app?vid=2d9217ab-1a1e-4c26-8f12-f75f4a7b1b7b"},"vehicle_type_id":"4","last_reported":1688058409,"current_range_meters":7200,"station_id":"ce4bgpp2rcd13ifvqc3g","pricing_plan_id":"free"},{"bike_id":"9f7f9d62-5a88-4b3a-8ef5-f5390d836d87","system_id":"levelo_inurba_marseille","lat":43.311722,"lon":5.387247,"is_reserved":false,"is_disabled":false,"rental_uris":{"android":"levelo://app?vid=9f7f9d62-5a88-4b3a-8ef5-f5390d836d87","ios":"levelo://app?vid=9f7f9d62-5a88-4b3a-8ef5-f5390d836d87"},"vehicle_type_id":"4","last_reported":1688058409,"current_range_meters":18000,"station_id":"ce4bgv12rcd13ifvqcp0","pricing_plan_id":"free"},{"bike_id":"c308155a-030c-4de2-86d3-17e39d98d109","system_id":"levelo_inurba_marseille","lat":43.32828,"lon":5.3667,"is_reserved":false,"is_disabled":false,"rental_uris":{"android":"levelo://app?vid=c308155a-030c-4de2-86d3-17e39d98d109","ios":"levelo://app?vid=c308155a-030c-4de2-86d3-17e39d98d109"},"vehicle_type_id":"4","last_reported":1688058409,"current_range_meters":23600,"station_id":"ce4bhs92rcd13ifvqi0g","pricing_plan_id":"free"},{"bike_id":"52c17931-f235-4280-a010-fb1d15e44b39","system_id":"levelo_inurba_marseille","lat":43.3283,"lon":5.36682,"is_reserved":false,"is_disabled":false,"rental_uris":{"android":"levelo://app?vid=52c17931-f235-4280-a010-fb1d15e44b39","ios":"levelo://app?vid=52c17931-f235-4280-a010-fb1d15e44b39"},"vehicle_type_id":"4","last_reported":1688058409,"current_range_meters":24000,"station_id":"ce4bhs92rcd13ifvqi0g","pricing_plan_id":"free"},{"bike_id":"0291cc6f-01b4-4c29-ad5e-4632e4e22c96","system_id":"levelo_inurba_marseille","lat":43.3284,"lon":5.36669,"is_reserved":false,"is_disabled":false,"rental_uris":{"android":"levelo://app?vid=0291cc6f-01b4-4c29-ad5e-4632e4e22c96","ios":"levelo://app?vid=0291cc6f-01b4-4c29-ad5e-4632e4e22c96"},"vehicle_type_id":"4","last_reported":1688058409,"current_range_meters":17600,"station_id":"ce4bhs92rcd13ifvqi0g","pricing_plan_id":"free"},{"bike_id":"a7887075-0a9a-42c9-bb85-cb0461926c78","system_id":"levelo_inurba_marseille","lat":43.2968,"lon":5.37291,"is_reserved":false,"is_disabled":false,"rental_uris":{"android":"levelo://app?vid=a7887075-0a9a-42c9-bb85-cb0461926c78","ios":"levelo://app?vid=a7887075-0a9a-42c9-bb85-cb0461926c78"},"vehicle_type_id":"4","last_reported":1688058409,"current_range_meters":7600,"station_id":"ce4bgk12rcd13ifvqbj0","pricing_plan_id":"free"},{"bike_id":"f14621dc-ae54-4a03-b283-79b4c5c40d1d","system_id":"levelo_inurba_marseille","lat":43.29672,"lon":5.37298,"is_reserved":false,"is_disabled":false,"rental_uris":{"android":"levelo://app?vid=f14621dc-ae54-4a03-b283-79b4c5c40d1d","ios":"levelo://app?vid=f14621dc-ae54-4a03-b283-79b4c5c40d1d"},"vehicle_type_id":"4","last_reported":1688058409,"current_range_meters":4800,"station_id":"ce4bgk12rcd13ifvqbj0","pricing_plan_id":"free"},{"bike_id":"fd6e49b8-0523-40f1-a1b1-8b1a0c5c26e9","system_id":"levelo_inurba_marseille","lat":43.296131,"lon":5.370773,"is_reserved":false,"is_disabled":false,"rental_uris":{"android":"levelo://app?vid=fd6e49b8-0523-40f1-a1b1-8b1a0c5c26e9","ios":"levelo://app?vid=fd6e49b8-0523-40f1-a1b1-8b1a0c5c26e9"},"vehicle_type_id":"4","last_reported":1688058409,"current_range_meters":0,"station_id":"ce4bgnh2rcd13ifvqc0g","pricing_plan_id":"free"},{"bike_id":"7da389c0-dee1-45e4-87eb-f55d58cbb7b5","system_id":"levelo_inurba_marseille","lat":43.29573,"lon":5.367355,"is_reserved":false,"is_disabled":false,"rental_uris":{"android":"levelo://app?vid=7da389c0-dee1-45e4-87eb-f55d58cbb7b5","ios":"levelo://app?vid=7da389c0-dee1-45e4-87eb-f55d58cbb7b5"},"vehicle_type_id":"4","last_reported":1688058409,"current_range_meters":3600,"station_id":"ce4bgph2rcd13ifvqc2g","pricing_plan_id":"free"},{"bike_id":"2db0ab78-adea-4f82-b85f-b23afa5f191a","system_id":"levelo_inurba_marseille","lat":43.30946,"lon":5.39009,"is_reserved":false,"is_disabled":false,"rental_uris":{"android":"levelo://app?vid=2db0ab78-adea-4f82-b85f-b23afa5f191a","ios":"levelo://app?vid=2db0ab78-adea-4f82-b85f-b23afa5f191a"},"vehicle_type_id":"4","last_reported":1688058409,"current_range_meters":20000,"station_id":"ce4bgup2rcd13ifvqco0","pricing_plan_id":"free"},{"bike_id":"c6c3acc4-4b4c-4444-98df-2213e155191d","system_id":"levelo_inurba_marseille","lat":43.309589,"lon":5.390258,"is_reserved":false,"is_disabled":false,"rental_uris":{"android":"levelo://app?vid=c6c3acc4-4b4c-4444-98df-2213e155191d","ios":"levelo://app?vid=c6c3acc4-4b4c-4444-98df-2213e155191d"},"vehicle_type_id":"4","last_reported":1688058409,"current_range_meters":15200,"station_id":"ce4bgup2rcd13ifvqco0","pricing_plan_id":"free"},{"bike_id":"7cec7d3a-5255-4c61-8209-0bb97c8f6026","system_id":"levelo_inurba_marseille","lat":43.30954,"lon":5.39032,"is_reserved":false,"is_disabled":false,"rental_uris":{"android":"levelo://app?vid=7cec7d3a-5255-4c61-8209-0bb97c8f6026","ios":"levelo://app?vid=7cec7d3a-5255-4c61-8209-0bb97c8f6026"},"vehicle_type_id":"4","last_reported":1688058409,"current_range_meters":3200,"station_id":"ce4bgup2rcd13ifvqco0","pricing_plan_id":"free"},{"bike_id":"e03e73fa-039a-4995-b8d8-eadd4c8b7353","system_id":"levelo_inurba_marseille","lat":43.309589,"lon":5.390258,"is_reserved":false,"is_disabled":false,"rental_uris":{"android":"levelo://app?vid=e03e73fa-039a-4995-b8d8-eadd4c8b7353","ios":"levelo://app?vid=e03e73fa-039a-4995-b8d8-eadd4c8b7353"},"vehicle_type_id":"4","last_reported":1688058409,"current_range_meters":24400,"station_id":"ce4bgup2rcd13ifvqco0","pricing_plan_id":"free"},{"bike_id":"20406b16-a1a0-4b12-bdfc-50a044c6474a","system_id":"levelo_inurba_marseille","lat":43.309589,"lon":5.390258,"is_reserved":false,"is_disabled":false,"rental_uris":{"android":"levelo://app?vid=20406b16-a1a0-4b12-bdfc-50a044c6474a","ios":"levelo://app?vid=20406b16-a1a0-4b12-bdfc-50a044c6474a"},"vehicle_type_id":"4","last_reported":1688058409,"current_range_meters":18800,"station_id":"ce4bgup2rcd13ifvqco0","pricing_plan_id":"free"},{"bike_id":"5659cdea-6764-4183-9410-17e474ba4853","system_id":"levelo_inurba_marseille","lat":43.317557,"lon":5.390173,"is_reserved":false,"is_disabled":false,"rental_uris":{"android":"levelo://app?vid=5659cdea-6764-4183-9410-17e474ba4853","ios":"levelo://app?vid=5659cdea-6764-4183-9410-17e474ba4853"},"vehicle_type_id":"4","last_reported":1688058409,"current_range_meters":31600,"station_id":"ce4bhqp2rcd13ifvqhng","pricing_plan_id":"free"},{"bike_id":"6d34a1da-9b10-4c5f-8d51-8b9e31ca09bf","system_id":"levelo_inurba_marseille","lat":43.317557,"lon":5.390173,"is_reserved":false,"is_disabled":false,"rental_uris":{"android":"levelo://app?vid=6d34a1da-9b10-4c5f-8d51-8b9e31ca09bf","ios":"levelo://app?vid=6d34a1da-9b10-4c5f-8d51-8b9e31ca09bf"},"vehicle_type_id":"4","last_reported":1688058409,"current_range_meters":4800,"station_id":"ce4bhqp2rcd13ifvqhng","pricing_plan_id":"free"},{"bike_id":"6ec79c0d-0303-4fd7-bd75-aee07039de1d","system_id":"levelo_inurba_marseille","lat":43.317557,"lon":5.390173,"is_reserved":false,"is_disabled":false,"rental_uris":{"android":"levelo://app?vid=6ec79c0d-0303-4fd7-bd75-aee07039de1d","ios":"levelo://app?vid=6ec79c0d-0303-4fd7-bd75-aee07039de1d"},"vehicle_type_id":"4","last_reported":1688058409,"current_range_meters":25600,"station_id":"ce4bhqp2rcd13ifvqhng","pricing_plan_id":"free"},{"bike_id":"afd60171-c9c9-4603-be98-1ca19ac91538","system_id":"levelo_inurba_marseille","lat":43.295748,"lon":5.37522,"is_reserved":false,"is_disabled":false,"rental_uris":{"android":"levelo://app?vid=afd60171-c9c9-4603-be98-1ca19ac91538","ios":"levelo://app?vid=afd60171-c9c9-4603-be98-1ca19ac91538"},"vehicle_type_id":"4","last_reported":1688058409,"current_range_meters":25200,"station_id":"ce4bgh92rcd13ifvqb50","pricing_plan_id":"free"},{"bike_id":"af67c0d8-bf65-4bcf-94e9-082e0c13ea43","system_id":"levelo_inurba_marseille","lat":43.295748,"lon":5.37522,"is_reserved":false,"is_disabled":false,"rental_uris":{"android":"levelo://app?vid=af67c0d8-bf65-4bcf-94e9-082e0c13ea43","ios":"levelo://app?vid=af67c0d8-bf65-4bcf-94e9-082e0c13ea43"},"vehicle_type_id":"4","last_reported":1688058409,"current_range_meters":9200,"station_id":"ce4bgh92rcd13ifvqb50","pricing_plan_id":"free"},{"bike_id":"e5a4d109-16da-4369-9981-ff655d254cae","system_id":"levelo_inurba_marseille","lat":43.297526,"lon":5.380432,"is_reserved":false,"is_disabled":false,"rental_uris":{"android":"levelo://app?vid=e5a4d109-16da-4369-9981-ff655d254cae","ios":"levelo://app?vid=e5a4d109-16da-4369-9981-ff655d254cae"},"vehicle_type_id":"4","last_reported":1688058409,"current_range_meters":21600,"station_id":"","pricing_plan_id":"free"},{"bike_id":"009e6771-804a-4cee-986d-86f4f2447c08","system_id":"levelo_inurba_marseille","lat":43.29561,"lon":5.37535,"is_reserved":false,"is_disabled":false,"rental_uris":{"android":"levelo://app?vid=009e6771-804a-4cee-986d-86f4f2447c08","ios":"levelo://app?vid=009e6771-804a-4cee-986d-86f4f2447c08"},"vehicle_type_id":"4","last_reported":1688058409,"current_range_meters":400,"station_id":"ce4bgh92rcd13ifvqb50","pricing_plan_id":"free"},{"bike_id":"b5339a7c-c820-42b7-b281-76e3ea9f0a15","system_id":"levelo_inurba_marseille","lat":43.296277,"lon":5.377108,"is_reserved":false,"is_disabled":false,"rental_uris":{"android":"levelo://app?vid=b5339a7c-c820-42b7-b281-76e3ea9f0a15","ios":"levelo://app?vid=b5339a7c-c820-42b7-b281-76e3ea9f0a15"},"vehicle_type_id":"4","last_reported":1688058409,"current_range_meters":0,"station_id":"ce4bgi92rcd13ifvqb90","pricing_plan_id":"free"},{"bike_id":"43743424-f96d-4e8d-a3af-db7afce7b5ce","system_id":"levelo_inurba_marseille","lat":43.298037,"lon":5.381066,"is_reserved":false,"is_disabled":false,"rental_uris":{"android":"levelo://app?vid=43743424-f96d-4e8d-a3af-db7afce7b5ce","ios":"levelo://app?vid=43743424-f96d-4e8d-a3af-db7afce7b5ce"},"vehicle_type_id":"4","last_reported":1688058409,"current_range_meters":11200,"station_id":"ce4bgip2rcd13ifvqbb0","pricing_plan_id":"free"},{"bike_id":"8ae25507-a670-47c3-8055-eaa051ae86e2","system_id":"levelo_inurba_marseille","lat":43.2951,"lon":5.37498,"is_reserved":false,"is_disabled":false,"rental_uris":{"android":"levelo://app?vid=8ae25507-a670-47c3-8055-eaa051ae86e2","ios":"levelo://app?vid=8ae25507-a670-47c3-8055-eaa051ae86e2"},"vehicle_type_id":"4","last_reported":1688058409,"current_range_meters":0,"station_id":"ce4bgkp2rcd13ifvqbmg","pricing_plan_id":"free"},{"bike_id":"b8676a56-ceb4-4f7e-bc57-1beb93f822ea","system_id":"levelo_inurba_marseille","lat":43.29511,"lon":5.37504,"is_reserved":false,"is_disabled":false,"rental_uris":{"android":"levelo://app?vid=b8676a56-ceb4-4f7e-bc57-1beb93f822ea","ios":"levelo://app?vid=b8676a56-ceb4-4f7e-bc57-1beb93f822ea"},"vehicle_type_id":"4","last_reported":1688058409,"current_range_meters":14800,"station_id":"ce4bgkp2rcd13ifvqbmg","pricing_plan_id":"free"},{"bike_id":"8c2687b7-d3e3-4df0-a4e1-830b83c2d3f0","system_id":"levelo_inurba_marseille","lat":43.309589,"lon":5.390258,"is_reserved":false,"is_disabled":false,"rental_uris":{"android":"levelo://app?vid=8c2687b7-d3e3-4df0-a4e1-830b83c2d3f0","ios":"levelo://app?vid=8c2687b7-d3e3-4df0-a4e1-830b83c2d3f0"},"vehicle_type_id":"4","last_reported":1688058409,"current_range_meters":0,"station_id":"ce4bgup2rcd13ifvqco0","pricing_plan_id":"free"},{"bike_id":"99d1765e-2ebc-474d-996b-792ff2adb9db","system_id":"levelo_inurba_marseille","lat":43.32367,"lon":5.38858,"is_reserved":false,"is_disabled":false,"rental_uris":{"android":"levelo://app?vid=99d1765e-2ebc-474d-996b-792ff2adb9db","ios":"levelo://app?vid=99d1765e-2ebc-474d-996b-792ff2adb9db"},"vehicle_type_id":"4","last_reported":1688058409,"current_range_meters":25200,"station_id":"ce4bhqp2rcd13ifvqhog","pricing_plan_id":"free"},{"bike_id":"a77c9f55-f10d-4fed-a2f3-ed48021a3bdb","system_id":"levelo_inurba_marseille","lat":43.32363,"lon":5.38874,"is_reserved":false,"is_disabled":false,"rental_uris":{"android":"levelo://app?vid=a77c9f55-f10d-4fed-a2f3-ed48021a3bdb","ios":"levelo://app?vid=a77c9f55-f10d-4fed-a2f3-ed48021a3bdb"},"vehicle_type_id":"4","last_reported":1688058409,"current_range_meters":31200,"station_id":"ce4bhqp2rcd13ifvqhog","pricing_plan_id":"free"},{"bike_id":"abd681d9-c52f-4774-a57c-e904eb472a58","system_id":"levelo_inurba_marseille","lat":43.32361,"lon":5.38883,"is_reserved":false,"is_disabled":false,"rental_uris":{"android":"levelo://app?vid=abd681d9-c52f-4774-a57c-e904eb472a58","ios":"levelo://app?vid=abd681d9-c52f-4774-a57c-e904eb472a58"},"vehicle_type_id":"4","last_reported":1688058409,"current_range_meters":30000,"station_id":"ce4bhqp2rcd13ifvqhog","pricing_plan_id":"free"},{"bike_id":"6e9fca5d-f0a6-4235-8983-5ea88ce7ce05","system_id":"levelo_inurba_marseille","lat":43.32366,"lon":5.38879,"is_reserved":false,"is_disabled":false,"rental_uris":{"android":"levelo://app?vid=6e9fca5d-f0a6-4235-8983-5ea88ce7ce05","ios":"levelo://app?vid=6e9fca5d-f0a6-4235-8983-5ea88ce7ce05"},"vehicle_type_id":"4","last_reported":1688058409,"current_range_meters":20400,"station_id":"ce4bhqp2rcd13ifvqhog","pricing_plan_id":"free"},{"bike_id":"18f9657f-1698-4648-af66-7ea25e03172a","system_id":"levelo_inurba_marseille","lat":43.32367,"lon":5.388836,"is_reserved":false,"is_disabled":false,"rental_uris":{"android":"levelo://app?vid=18f9657f-1698-4648-af66-7ea25e03172a","ios":"levelo://app?vid=18f9657f-1698-4648-af66-7ea25e03172a"},"vehicle_type_id":"4","last_reported":1688058409,"current_range_meters":6800,"station_id":"ce4bhqp2rcd13ifvqhog","pricing_plan_id":"free"},{"bike_id":"c737b305-2f9e-411a-b1ca-26b0f745d0f2","system_id":"levelo_inurba_marseille","lat":43.33174,"lon":5.36164,"is_reserved":false,"is_disabled":false,"rental_uris":{"android":"levelo://app?vid=c737b305-2f9e-411a-b1ca-26b0f745d0f2","ios":"levelo://app?vid=c737b305-2f9e-411a-b1ca-26b0f745d0f2"},"vehicle_type_id":"4","last_reported":1688058409,"current_range_meters":5200,"station_id":"","pricing_plan_id":"free"},{"bike_id":"b80fcc20-346f-42dd-9156-a94d11555263","system_id":"levelo_inurba_marseille","lat":43.29343,"lon":5.37145,"is_reserved":false,"is_disabled":false,"rental_uris":{"android":"levelo://app?vid=b80fcc20-346f-42dd-9156-a94d11555263","ios":"levelo://app?vid=b80fcc20-346f-42dd-9156-a94d11555263"},"vehicle_type_id":"4","last_reported":1688058409,"current_range_meters":23200,"station_id":"","pricing_plan_id":"free"},{"bike_id":"186c5073-a0e8-4f9a-b9d3-25b3a2758589","system_id":"levelo_inurba_marseille","lat":43.29601,"lon":5.381084,"is_reserved":false,"is_disabled":false,"rental_uris":{"android":"levelo://app?vid=186c5073-a0e8-4f9a-b9d3-25b3a2758589","ios":"levelo://app?vid=186c5073-a0e8-4f9a-b9d3-25b3a2758589"},"vehicle_type_id":"4","last_reported":1688058409,"current_range_meters":13200,"station_id":"ce4bgl12rcd13ifvqbo0","pricing_plan_id":"free"},{"bike_id":"0fbe705f-d6c7-4a56-a51d-884eea2f478d","system_id":"levelo_inurba_marseille","lat":43.29602,"lon":5.381084,"is_reserved":false,"is_disabled":false,"rental_uris":{"android":"levelo://app?vid=0fbe705f-d6c7-4a56-a51d-884eea2f478d","ios":"levelo://app?vid=0fbe705f-d6c7-4a56-a51d-884eea2f478d"},"vehicle_type_id":"4","last_reported":1688058409,"current_range_meters":3200,"station_id":"ce4bgl12rcd13ifvqbo0","pricing_plan_id":"free"},{"bike_id":"2b499b24-4278-4a4e-a5b2-b9e7da0ebac5","system_id":"levelo_inurba_marseille","lat":43.305994,"lon":5.393687,"is_reserved":false,"is_disabled":false,"rental_uris":{"android":"levelo://app?vid=2b499b24-4278-4a4e-a5b2-b9e7da0ebac5","ios":"levelo://app?vid=2b499b24-4278-4a4e-a5b2-b9e7da0ebac5"},"vehicle_type_id":"4","last_reported":1688058409,"current_range_meters":22800,"station_id":"ce4bh0p2rcd13ifvqd80","pricing_plan_id":"free"},{"bike_id":"30408249-2898-49b9-bf99-1d02954295ef","system_id":"levelo_inurba_marseille","lat":43.2936,"lon":5.37835,"is_reserved":false,"is_disabled":false,"rental_uris":{"android":"levelo://app?vid=30408249-2898-49b9-bf99-1d02954295ef","ios":"levelo://app?vid=30408249-2898-49b9-bf99-1d02954295ef"},"vehicle_type_id":"4","last_reported":1688058409,"current_range_meters":14800,"station_id":"ce4bgjh2rcd13ifvqbf0","pricing_plan_id":"free"},{"bike_id":"6d34c5ed-5a82-4d6b-a30c-a32c7d30fc24","system_id":"levelo_inurba_marseille","lat":43.298764,"lon":5.388973,"is_reserved":false,"is_disabled":false,"rental_uris":{"android":"levelo://app?vid=6d34c5ed-5a82-4d6b-a30c-a32c7d30fc24","ios":"levelo://app?vid=6d34c5ed-5a82-4d6b-a30c-a32c7d30fc24"},"vehicle_type_id":"4","last_reported":1688058409,"current_range_meters":0,"station_id":"ce4bh392rcd13ifvqdl0","pricing_plan_id":"free"},{"bike_id":"77e55967-536f-4f5b-8987-08e0096d5bc4","system_id":"levelo_inurba_marseille","lat":43.31334,"lon":5.39688,"is_reserved":false,"is_disabled":false,"rental_uris":{"android":"levelo://app?vid=77e55967-536f-4f5b-8987-08e0096d5bc4","ios":"levelo://app?vid=77e55967-536f-4f5b-8987-08e0096d5bc4"},"vehicle_type_id":"4","last_reported":1688058409,"current_range_meters":3600,"station_id":"ce4bgvp2rcd13ifvqcu0","pricing_plan_id":"free"},{"bike_id":"8fa22362-774d-41d5-aa6b-0f238edf843c","system_id":"levelo_inurba_marseille","lat":43.309038,"lon":5.396546,"is_reserved":false,"is_disabled":false,"rental_uris":{"android":"levelo://app?vid=8fa22362-774d-41d5-aa6b-0f238edf843c","ios":"levelo://app?vid=8fa22362-774d-41d5-aa6b-0f238edf843c"},"vehicle_type_id":"4","last_reported":1688058409,"current_range_meters":31200,"station_id":"ce4bh012rcd13ifvqcv0","pricing_plan_id":"free"},{"bike_id":"63c45d1e-dcdd-4412-9a00-07ed5c27a82c","system_id":"levelo_inurba_marseille","lat":43.309038,"lon":5.396546,"is_reserved":false,"is_disabled":false,"rental_uris":{"android":"levelo://app?vid=63c45d1e-dcdd-4412-9a00-07ed5c27a82c","ios":"levelo://app?vid=63c45d1e-dcdd-4412-9a00-07ed5c27a82c"},"vehicle_type_id":"4","last_reported":1688058409,"current_range_meters":18000,"station_id":"ce4bh012rcd13ifvqcv0","pricing_plan_id":"free"},{"bike_id":"f6ec1910-a6d9-4daa-8ba9-add755e22882","system_id":"levelo_inurba_marseille","lat":43.291994,"lon":5.357886,"is_reserved":false,"is_disabled":false,"rental_uris":{"android":"levelo://app?vid=f6ec1910-a6d9-4daa-8ba9-add755e22882","ios":"levelo://app?vid=f6ec1910-a6d9-4daa-8ba9-add755e22882"},"vehicle_type_id":"4","last_reported":1688058409,"current_range_meters":9600,"station_id":"ce4bhb12rcd13ifvqel0","pricing_plan_id":"free"},{"bike_id":"1325bd51-d079-47d1-b7be-3da259b1f1c4","system_id":"levelo_inurba_marseille","lat":43.290779,"lon":5.371482,"is_reserved":false,"is_disabled":false,"rental_uris":{"android":"levelo://app?vid=1325bd51-d079-47d1-b7be-3da259b1f1c4","ios":"levelo://app?vid=1325bd51-d079-47d1-b7be-3da259b1f1c4"},"vehicle_type_id":"4","last_reported":1688058409,"current_range_meters":800,"station_id":"ce4bh5p2rcd13ifvqe4g","pricing_plan_id":"free"},{"bike_id":"0b38e9c2-d915-43f3-b779-25c1196b58af","system_id":"levelo_inurba_marseille","lat":43.290624,"lon":5.359245,"is_reserved":false,"is_disabled":false,"rental_uris":{"android":"levelo://app?vid=0b38e9c2-d915-43f3-b779-25c1196b58af","ios":"levelo://app?vid=0b38e9c2-d915-43f3-b779-25c1196b58af"},"vehicle_type_id":"4","last_reported":1688058409,"current_range_meters":13600,"station_id":"ce4bha92rcd13ifvqeg0","pricing_plan_id":"free"},{"bike_id":"0a30b1b6-c51a-46ff-be1b-e78e42800149","system_id":"levelo_inurba_marseille","lat":43.290624,"lon":5.359245,"is_reserved":false,"is_disabled":false,"rental_uris":{"android":"levelo://app?vid=0a30b1b6-c51a-46ff-be1b-e78e42800149","ios":"levelo://app?vid=0a30b1b6-c51a-46ff-be1b-e78e42800149"},"vehicle_type_id":"4","last_reported":1688058409,"current_range_meters":10000,"station_id":"ce4bha92rcd13ifvqeg0","pricing_plan_id":"free"},{"bike_id":"e8a11aa1-4be1-429c-a5b1-326c978df428","system_id":"levelo_inurba_marseille","lat":43.29419,"lon":5.38625,"is_reserved":false,"is_disabled":false,"rental_uris":{"android":"levelo://app?vid=e8a11aa1-4be1-429c-a5b1-326c978df428","ios":"levelo://app?vid=e8a11aa1-4be1-429c-a5b1-326c978df428"},"vehicle_type_id":"4","last_reported":1688058409,"current_range_meters":0,"station_id":"ce4bh2h2rcd13ifvqdh0","pricing_plan_id":"free"},{"bike_id":"421f55cd-b7c1-450c-b14e-38d9d6d75389","system_id":"levelo_inurba_marseille","lat":43.294174,"lon":5.386231,"is_reserved":false,"is_disabled":false,"rental_uris":{"android":"levelo://app?vid=421f55cd-b7c1-450c-b14e-38d9d6d75389","ios":"levelo://app?vid=421f55cd-b7c1-450c-b14e-38d9d6d75389"},"vehicle_type_id":"4","last_reported":1688058409,"current_range_meters":6400,"station_id":"","pricing_plan_id":"free"},{"bike_id":"399ef6b6-bd49-40a3-a085-0dfa050cfb9f","system_id":"levelo_inurba_marseille","lat":43.29411,"lon":5.38614,"is_reserved":false,"is_disabled":false,"rental_uris":{"android":"levelo://app?vid=399ef6b6-bd49-40a3-a085-0dfa050cfb9f","ios":"levelo://app?vid=399ef6b6-bd49-40a3-a085-0dfa050cfb9f"},"vehicle_type_id":"4","last_reported":1688058409,"current_range_meters":0,"station_id":"","pricing_plan_id":"free"},{"bike_id":"014dee94-64c5-40f8-aad8-7a7334cb7990","system_id":"levelo_inurba_marseille","lat":43.290327,"lon":5.375711,"is_reserved":false,"is_disabled":false,"rental_uris":{"android":"levelo://app?vid=014dee94-64c5-40f8-aad8-7a7334cb7990","ios":"levelo://app?vid=014dee94-64c5-40f8-aad8-7a7334cb7990"},"vehicle_type_id":"4","last_reported":1688058409,"current_range_meters":2800,"station_id":"ce4bh692rcd13ifvqe90","pricing_plan_id":"free"},{"bike_id":"1b0e142b-a360-49bb-b4fc-8f67b0812760","system_id":"levelo_inurba_marseille","lat":43.289184,"lon":5.366408,"is_reserved":false,"is_disabled":false,"rental_uris":{"android":"levelo://app?vid=1b0e142b-a360-49bb-b4fc-8f67b0812760","ios":"levelo://app?vid=1b0e142b-a360-49bb-b4fc-8f67b0812760"},"vehicle_type_id":"4","last_reported":1688058409,"current_range_meters":0,"station_id":"ce4bhap2rcd13ifvqek0","pricing_plan_id":"free"},{"bike_id":"cf0b9f59-130e-44f2-966b-cc46f30527eb","system_id":"levelo_inurba_marseille","lat":43.289468,"lon":5.363719,"is_reserved":false,"is_disabled":false,"rental_uris":{"android":"levelo://app?vid=cf0b9f59-130e-44f2-966b-cc46f30527eb","ios":"levelo://app?vid=cf0b9f59-130e-44f2-966b-cc46f30527eb"},"vehicle_type_id":"4","last_reported":1688058409,"current_range_meters":24000,"station_id":"ce4bhc92rcd13ifvqetg","pricing_plan_id":"free"},{"bike_id":"a78078f8-e92b-4ca8-b8b1-267661497663","system_id":"levelo_inurba_marseille","lat":43.290995,"lon":5.381361,"is_reserved":false,"is_disabled":false,"rental_uris":{"android":"levelo://app?vid=a78078f8-e92b-4ca8-b8b1-267661497663","ios":"levelo://app?vid=a78078f8-e92b-4ca8-b8b1-267661497663"},"vehicle_type_id":"4","last_reported":1688058409,"current_range_meters":7200,"station_id":"ce4bh512rcd13ifvqe2g","pricing_plan_id":"free"},{"bike_id":"4e60eeab-ac4b-44dc-91be-65a7bc4ebd4e","system_id":"levelo_inurba_marseille","lat":43.290995,"lon":5.381361,"is_reserved":false,"is_disabled":false,"rental_uris":{"android":"levelo://app?vid=4e60eeab-ac4b-44dc-91be-65a7bc4ebd4e","ios":"levelo://app?vid=4e60eeab-ac4b-44dc-91be-65a7bc4ebd4e"},"vehicle_type_id":"4","last_reported":1688058409,"current_range_meters":16400,"station_id":"ce4bh512rcd13ifvqe2g","pricing_plan_id":"free"},{"bike_id":"c5f05917-57af-4f85-8f7e-efd87ba91a9a","system_id":"levelo_inurba_marseille","lat":43.290995,"lon":5.381361,"is_reserved":false,"is_disabled":false,"rental_uris":{"android":"levelo://app?vid=c5f05917-57af-4f85-8f7e-efd87ba91a9a","ios":"levelo://app?vid=c5f05917-57af-4f85-8f7e-efd87ba91a9a"},"vehicle_type_id":"4","last_reported":1688058409,"current_range_meters":13200,"station_id":"ce4bh512rcd13ifvqe2g","pricing_plan_id":"free"},{"bike_id":"4dba30ec-f384-4d80-93a4-345271b628e4","system_id":"levelo_inurba_marseille","lat":43.290995,"lon":5.381361,"is_reserved":false,"is_disabled":false,"rental_uris":{"android":"levelo://app?vid=4dba30ec-f384-4d80-93a4-345271b628e4","ios":"levelo://app?vid=4dba30ec-f384-4d80-93a4-345271b628e4"},"vehicle_type_id":"4","last_reported":1688058409,"current_range_meters":28800,"station_id":"ce4bh512rcd13ifvqe2g","pricing_plan_id":"free"},{"bike_id":"eeb9841f-b19c-4a58-8186-aa6e27965f8d","system_id":"levelo_inurba_marseille","lat":43.290995,"lon":5.381361,"is_reserved":false,"is_disabled":false,"rental_uris":{"android":"levelo://app?vid=eeb9841f-b19c-4a58-8186-aa6e27965f8d","ios":"levelo://app?vid=eeb9841f-b19c-4a58-8186-aa6e27965f8d"},"vehicle_type_id":"4","last_reported":1688058409,"current_range_meters":20400,"station_id":"ce4bh512rcd13ifvqe2g","pricing_plan_id":"free"},{"bike_id":"c50ed626-af0d-4960-b735-e2ef0423257c","system_id":"levelo_inurba_marseille","lat":43.290995,"lon":5.381361,"is_reserved":false,"is_disabled":false,"rental_uris":{"android":"levelo://app?vid=c50ed626-af0d-4960-b735-e2ef0423257c","ios":"levelo://app?vid=c50ed626-af0d-4960-b735-e2ef0423257c"},"vehicle_type_id":"4","last_reported":1688058409,"current_range_meters":800,"station_id":"ce4bh512rcd13ifvqe2g","pricing_plan_id":"free"},{"bike_id":"7e093baa-f020-4f77-8552-5aac54099811","system_id":"levelo_inurba_marseille","lat":43.2901,"lon":5.381269,"is_reserved":false,"is_disabled":false,"rental_uris":{"android":"levelo://app?vid=7e093baa-f020-4f77-8552-5aac54099811","ios":"levelo://app?vid=7e093baa-f020-4f77-8552-5aac54099811"},"vehicle_type_id":"4","last_reported":1688058409,"current_range_meters":0,"station_id":"ce4bh4p2rcd13ifvqe1g","pricing_plan_id":"free"},{"bike_id":"9afc9f10-5cfe-45f5-a1da-a4209fff76f2","system_id":"levelo_inurba_marseille","lat":43.28856,"lon":5.358371,"is_reserved":false,"is_disabled":false,"rental_uris":{"android":"levelo://app?vid=9afc9f10-5cfe-45f5-a1da-a4209fff76f2","ios":"levelo://app?vid=9afc9f10-5cfe-45f5-a1da-a4209fff76f2"},"vehicle_type_id":"4","last_reported":1688058409,"current_range_meters":19200,"station_id":"ce4bhb12rcd13ifvqem0","pricing_plan_id":"free"},{"bike_id":"8958839c-2103-45a1-94ea-b01a0c826b3b","system_id":"levelo_inurba_marseille","lat":43.28856,"lon":5.358371,"is_reserved":false,"is_disabled":false,"rental_uris":{"android":"levelo://app?vid=8958839c-2103-45a1-94ea-b01a0c826b3b","ios":"levelo://app?vid=8958839c-2103-45a1-94ea-b01a0c826b3b"},"vehicle_type_id":"4","last_reported":1688058409,"current_range_meters":0,"station_id":"ce4bhb12rcd13ifvqem0","pricing_plan_id":"free"},{"bike_id":"50addb93-59ca-464f-9bd3-af34b1190966","system_id":"levelo_inurba_marseille","lat":43.33732,"lon":5.37399,"is_reserved":false,"is_disabled":false,"rental_uris":{"android":"levelo://app?vid=50addb93-59ca-464f-9bd3-af34b1190966","ios":"levelo://app?vid=50addb93-59ca-464f-9bd3-af34b1190966"},"vehicle_type_id":"4","last_reported":1688058409,"current_range_meters":29200,"station_id":"","pricing_plan_id":"free"},{"bike_id":"c2108957-e3bb-40a9-84fa-a87a03db860e","system_id":"levelo_inurba_marseille","lat":43.28856,"lon":5.358371,"is_reserved":false,"is_disabled":false,"rental_uris":{"android":"levelo://app?vid=c2108957-e3bb-40a9-84fa-a87a03db860e","ios":"levelo://app?vid=c2108957-e3bb-40a9-84fa-a87a03db860e"},"vehicle_type_id":"4","last_reported":1688058409,"current_range_meters":0,"station_id":"ce4bhb12rcd13ifvqem0","pricing_plan_id":"free"},{"bike_id":"b8bf73c4-9484-46f1-97b5-8575db35b481","system_id":"levelo_inurba_marseille","lat":43.33743,"lon":5.37473,"is_reserved":false,"is_disabled":false,"rental_uris":{"android":"levelo://app?vid=b8bf73c4-9484-46f1-97b5-8575db35b481","ios":"levelo://app?vid=b8bf73c4-9484-46f1-97b5-8575db35b481"},"vehicle_type_id":"4","last_reported":1688058409,"current_range_meters":30000,"station_id":"","pricing_plan_id":"free"},{"bike_id":"396c1909-0155-4346-a145-e0c9bdbb0351","system_id":"levelo_inurba_marseille","lat":43.30934,"lon":5.40145,"is_reserved":false,"is_disabled":false,"rental_uris":{"android":"levelo://app?vid=396c1909-0155-4346-a145-e0c9bdbb0351","ios":"levelo://app?vid=396c1909-0155-4346-a145-e0c9bdbb0351"},"vehicle_type_id":"4","last_reported":1688058409,"current_range_meters":3200,"station_id":"ce4bgvp2rcd13ifvqct0","pricing_plan_id":"free"},{"bike_id":"d1d48dbc-bef7-4f0a-ac87-eeefad6e13c7","system_id":"levelo_inurba_marseille","lat":43.33743,"lon":5.37486,"is_reserved":false,"is_disabled":false,"rental_uris":{"android":"levelo://app?vid=d1d48dbc-bef7-4f0a-ac87-eeefad6e13c7","ios":"levelo://app?vid=d1d48dbc-bef7-4f0a-ac87-eeefad6e13c7"},"vehicle_type_id":"4","last_reported":1688058409,"current_range_meters":12800,"station_id":"","pricing_plan_id":"free"},{"bike_id":"b152602a-aaa7-4eed-93ba-89050d9c58ba","system_id":"levelo_inurba_marseille","lat":43.3067,"lon":5.40078,"is_reserved":false,"is_disabled":false,"rental_uris":{"android":"levelo://app?vid=b152602a-aaa7-4eed-93ba-89050d9c58ba","ios":"levelo://app?vid=b152602a-aaa7-4eed-93ba-89050d9c58ba"},"vehicle_type_id":"4","last_reported":1688058409,"current_range_meters":18800,"station_id":"","pricing_plan_id":"free"},{"bike_id":"1068b3f9-c9c6-41ae-b569-c25a84a0de6b","system_id":"levelo_inurba_marseille","lat":43.309371,"lon":5.401449,"is_reserved":false,"is_disabled":false,"rental_uris":{"android":"levelo://app?vid=1068b3f9-c9c6-41ae-b569-c25a84a0de6b","ios":"levelo://app?vid=1068b3f9-c9c6-41ae-b569-c25a84a0de6b"},"vehicle_type_id":"4","last_reported":1688058409,"current_range_meters":26000,"station_id":"ce4bgvp2rcd13ifvqct0","pricing_plan_id":"free"},{"bike_id":"476cd57c-2e9c-4f0d-a086-f93a7e3396f6","system_id":"levelo_inurba_marseille","lat":43.337516,"lon":5.374747,"is_reserved":false,"is_disabled":false,"rental_uris":{"android":"levelo://app?vid=476cd57c-2e9c-4f0d-a086-f93a7e3396f6","ios":"levelo://app?vid=476cd57c-2e9c-4f0d-a086-f93a7e3396f6"},"vehicle_type_id":"4","last_reported":1688058409,"current_range_meters":24000,"station_id":"","pricing_plan_id":"free"},{"bike_id":"11e72b07-7bb6-4076-91c4-2b4b47cc94a1","system_id":"levelo_inurba_marseille","lat":43.30645,"lon":5.40088,"is_reserved":false,"is_disabled":false,"rental_uris":{"android":"levelo://app?vid=11e72b07-7bb6-4076-91c4-2b4b47cc94a1","ios":"levelo://app?vid=11e72b07-7bb6-4076-91c4-2b4b47cc94a1"},"vehicle_type_id":"4","last_reported":1688058409,"current_range_meters":8400,"station_id":"ce4bh112rcd13ifvqda0","pricing_plan_id":"free"},{"bike_id":"adf6c4c9-51e2-4466-8c4d-cbd8a2d77a1b","system_id":"levelo_inurba_marseille","lat":43.3376,"lon":5.37478,"is_reserved":false,"is_disabled":false,"rental_uris":{"android":"levelo://app?vid=adf6c4c9-51e2-4466-8c4d-cbd8a2d77a1b","ios":"levelo://app?vid=adf6c4c9-51e2-4466-8c4d-cbd8a2d77a1b"},"vehicle_type_id":"4","last_reported":1688058409,"current_range_meters":0,"station_id":"","pricing_plan_id":"free"},{"bike_id":"37012690-e1c5-4c9d-b764-68ab606a324c","system_id":"levelo_inurba_marseille","lat":43.311125,"lon":5.377624,"is_reserved":false,"is_disabled":false,"rental_uris":{"android":"levelo://app?vid=37012690-e1c5-4c9d-b764-68ab606a324c","ios":"levelo://app?vid=37012690-e1c5-4c9d-b764-68ab606a324c"},"vehicle_type_id":"4","last_reported":1688058409,"current_range_meters":0,"station_id":"ce4bgt92rcd13ifvqcg0","pricing_plan_id":"free"},{"bike_id":"90aa82ea-faa6-4a86-9794-034ec6fccfd4","system_id":"levelo_inurba_marseille","lat":43.30454,"lon":5.40081,"is_reserved":false,"is_disabled":false,"rental_uris":{"android":"levelo://app?vid=90aa82ea-faa6-4a86-9794-034ec6fccfd4","ios":"levelo://app?vid=90aa82ea-faa6-4a86-9794-034ec6fccfd4"},"vehicle_type_id":"4","last_reported":1688058409,"current_range_meters":18000,"station_id":"","pricing_plan_id":"free"},{"bike_id":"96a813c6-9b46-4c7f-bde3-ece40b78419d","system_id":"levelo_inurba_marseille","lat":43.298681,"lon":5.397225,"is_reserved":false,"is_disabled":false,"rental_uris":{"android":"levelo://app?vid=96a813c6-9b46-4c7f-bde3-ece40b78419d","ios":"levelo://app?vid=96a813c6-9b46-4c7f-bde3-ece40b78419d"},"vehicle_type_id":"4","last_reported":1688058409,"current_range_meters":0,"station_id":"ce4bh0h2rcd13ifvqd50","pricing_plan_id":"free"},{"bike_id":"89801f06-1f8b-4bcb-b068-890914271d8d","system_id":"levelo_inurba_marseille","lat":43.298681,"lon":5.397225,"is_reserved":false,"is_disabled":false,"rental_uris":{"android":"levelo://app?vid=89801f06-1f8b-4bcb-b068-890914271d8d","ios":"levelo://app?vid=89801f06-1f8b-4bcb-b068-890914271d8d"},"vehicle_type_id":"4","last_reported":1688058409,"current_range_meters":14800,"station_id":"ce4bh0h2rcd13ifvqd50","pricing_plan_id":"free"},{"bike_id":"aa9be7a5-bfce-4456-a47a-c8cc6d2dbfba","system_id":"levelo_inurba_marseille","lat":43.286591,"lon":5.363346,"is_reserved":false,"is_disabled":false,"rental_uris":{"android":"levelo://app?vid=aa9be7a5-bfce-4456-a47a-c8cc6d2dbfba","ios":"levelo://app?vid=aa9be7a5-bfce-4456-a47a-c8cc6d2dbfba"},"vehicle_type_id":"4","last_reported":1688058409,"current_range_meters":7600,"station_id":"ce4bhah2rcd13ifvqej0","pricing_plan_id":"free"},{"bike_id":"522bd160-ba49-4209-b0c8-ef927944e057","system_id":"levelo_inurba_marseille","lat":43.286961,"lon":5.373785,"is_reserved":false,"is_disabled":false,"rental_uris":{"android":"levelo://app?vid=522bd160-ba49-4209-b0c8-ef927944e057","ios":"levelo://app?vid=522bd160-ba49-4209-b0c8-ef927944e057"},"vehicle_type_id":"4","last_reported":1688058409,"current_range_meters":16000,"station_id":"ce4bh3p2rcd13ifvqdq0","pricing_plan_id":"free"},{"bike_id":"f0d8647f-1ed3-4083-9e9f-b1adc97f6159","system_id":"levelo_inurba_marseille","lat":43.298681,"lon":5.397225,"is_reserved":false,"is_disabled":false,"rental_uris":{"android":"levelo://app?vid=f0d8647f-1ed3-4083-9e9f-b1adc97f6159","ios":"levelo://app?vid=f0d8647f-1ed3-4083-9e9f-b1adc97f6159"},"vehicle_type_id":"4","last_reported":1688058409,"current_range_meters":4400,"station_id":"ce4bh0h2rcd13ifvqd50","pricing_plan_id":"free"},{"bike_id":"f6620c43-a672-48e7-b194-b93d145c1117","system_id":"levelo_inurba_marseille","lat":43.286961,"lon":5.373785,"is_reserved":false,"is_disabled":false,"rental_uris":{"android":"levelo://app?vid=f6620c43-a672-48e7-b194-b93d145c1117","ios":"levelo://app?vid=f6620c43-a672-48e7-b194-b93d145c1117"},"vehicle_type_id":"4","last_reported":1688058409,"current_range_meters":0,"station_id":"ce4bh3p2rcd13ifvqdq0","pricing_plan_id":"free"},{"bike_id":"18b43296-9731-4463-8794-9b3ebe16c939","system_id":"levelo_inurba_marseille","lat":43.286961,"lon":5.373785,"is_reserved":false,"is_disabled":false,"rental_uris":{"android":"levelo://app?vid=18b43296-9731-4463-8794-9b3ebe16c939","ios":"levelo://app?vid=18b43296-9731-4463-8794-9b3ebe16c939"},"vehicle_type_id":"4","last_reported":1688058409,"current_range_meters":11600,"station_id":"ce4bh3p2rcd13ifvqdq0","pricing_plan_id":"free"},{"bike_id":"76654cfd-db5c-4881-85c0-d368c53381a4","system_id":"levelo_inurba_marseille","lat":43.302759,"lon":5.400793,"is_reserved":false,"is_disabled":false,"rental_uris":{"android":"levelo://app?vid=76654cfd-db5c-4881-85c0-d368c53381a4","ios":"levelo://app?vid=76654cfd-db5c-4881-85c0-d368c53381a4"},"vehicle_type_id":"4","last_reported":1688058409,"current_range_meters":12400,"station_id":"ce4bgvh2rcd13ifvqcs0","pricing_plan_id":"free"},{"bike_id":"00d44d4b-e415-46b0-89b1-eb3c954e4f46","system_id":"levelo_inurba_marseille","lat":43.3025,"lon":5.40048,"is_reserved":false,"is_disabled":false,"rental_uris":{"android":"levelo://app?vid=00d44d4b-e415-46b0-89b1-eb3c954e4f46","ios":"levelo://app?vid=00d44d4b-e415-46b0-89b1-eb3c954e4f46"},"vehicle_type_id":"4","last_reported":1688058409,"current_range_meters":2000,"station_id":"","pricing_plan_id":"free"},{"bike_id":"628ad624-fa46-42e1-9765-167091d8f8cb","system_id":"levelo_inurba_marseille","lat":43.286039,"lon":5.370679,"is_reserved":false,"is_disabled":false,"rental_uris":{"android":"levelo://app?vid=628ad624-fa46-42e1-9765-167091d8f8cb","ios":"levelo://app?vid=628ad624-fa46-42e1-9765-167091d8f8cb"},"vehicle_type_id":"4","last_reported":1688058409,"current_range_meters":21600,"station_id":"ce4bht12rcd13ifvqi60","pricing_plan_id":"free"},{"bike_id":"dcaa4235-5b75-4f96-bc72-767c6b427222","system_id":"levelo_inurba_marseille","lat":43.286039,"lon":5.370679,"is_reserved":false,"is_disabled":false,"rental_uris":{"android":"levelo://app?vid=dcaa4235-5b75-4f96-bc72-767c6b427222","ios":"levelo://app?vid=dcaa4235-5b75-4f96-bc72-767c6b427222"},"vehicle_type_id":"4","last_reported":1688058409,"current_range_meters":29600,"station_id":"ce4bht12rcd13ifvqi60","pricing_plan_id":"free"},{"bike_id":"1137b8ae-4360-4e7c-9005-8bd0a0f819ff","system_id":"levelo_inurba_marseille","lat":43.28716,"lon":5.37938,"is_reserved":false,"is_disabled":false,"rental_uris":{"android":"levelo://app?vid=1137b8ae-4360-4e7c-9005-8bd0a0f819ff","ios":"levelo://app?vid=1137b8ae-4360-4e7c-9005-8bd0a0f819ff"},"vehicle_type_id":"4","last_reported":1688058409,"current_range_meters":4800,"station_id":"ce4bh9p2rcd13ifvqec0","pricing_plan_id":"free"},{"bike_id":"d69fed3a-efe9-46fb-b1dc-1240b8978d3e","system_id":"levelo_inurba_marseille","lat":43.316517,"lon":5.404375,"is_reserved":false,"is_disabled":false,"rental_uris":{"android":"levelo://app?vid=d69fed3a-efe9-46fb-b1dc-1240b8978d3e","ios":"levelo://app?vid=d69fed3a-efe9-46fb-b1dc-1240b8978d3e"},"vehicle_type_id":"4","last_reported":1688058409,"current_range_meters":20800,"station_id":"ce4bh012rcd13ifvqd00","pricing_plan_id":"free"},{"bike_id":"20bfa1bf-9f94-4d03-b746-3a39dae8ea58","system_id":"levelo_inurba_marseille","lat":43.30328,"lon":5.40341,"is_reserved":false,"is_disabled":false,"rental_uris":{"android":"levelo://app?vid=20bfa1bf-9f94-4d03-b746-3a39dae8ea58","ios":"levelo://app?vid=20bfa1bf-9f94-4d03-b746-3a39dae8ea58"},"vehicle_type_id":"4","last_reported":1688058409,"current_range_meters":19200,"station_id":"","pricing_plan_id":"free"},{"bike_id":"56c48013-f7d1-4593-bb46-8ffaa88d896d","system_id":"levelo_inurba_marseille","lat":43.284534,"lon":5.358662,"is_reserved":false,"is_disabled":false,"rental_uris":{"android":"levelo://app?vid=56c48013-f7d1-4593-bb46-8ffaa88d896d","ios":"levelo://app?vid=56c48013-f7d1-4593-bb46-8ffaa88d896d"},"vehicle_type_id":"4","last_reported":1688058409,"current_range_meters":3600,"station_id":"ce4bhah2rcd13ifvqei0","pricing_plan_id":"free"},{"bike_id":"874fb454-9107-4de5-a648-8f097876248a","system_id":"levelo_inurba_marseille","lat":43.294314,"lon":5.397498,"is_reserved":false,"is_disabled":false,"rental_uris":{"android":"levelo://app?vid=874fb454-9107-4de5-a648-8f097876248a","ios":"levelo://app?vid=874fb454-9107-4de5-a648-8f097876248a"},"vehicle_type_id":"4","last_reported":1688058409,"current_range_meters":5200,"station_id":"ce4bh3h2rcd13ifvqdo0","pricing_plan_id":"free"},{"bike_id":"5d4839d3-2a0a-42a4-9639-c6b2bac4d643","system_id":"levelo_inurba_marseille","lat":43.294314,"lon":5.397498,"is_reserved":false,"is_disabled":false,"rental_uris":{"android":"levelo://app?vid=5d4839d3-2a0a-42a4-9639-c6b2bac4d643","ios":"levelo://app?vid=5d4839d3-2a0a-42a4-9639-c6b2bac4d643"},"vehicle_type_id":"4","last_reported":1688058409,"current_range_meters":6400,"station_id":"ce4bh3h2rcd13ifvqdo0","pricing_plan_id":"free"},{"bike_id":"99748bd4-5b25-4ff7-b8fe-54a853749e4b","system_id":"levelo_inurba_marseille","lat":43.285856,"lon":5.350771,"is_reserved":false,"is_disabled":false,"rental_uris":{"android":"levelo://app?vid=99748bd4-5b25-4ff7-b8fe-54a853749e4b","ios":"levelo://app?vid=99748bd4-5b25-4ff7-b8fe-54a853749e4b"},"vehicle_type_id":"4","last_reported":1688058409,"current_range_meters":0,"station_id":"ce4bhch2rcd13ifvqeug","pricing_plan_id":"free"},{"bike_id":"e25e5c82-c29a-43d1-8f9e-8b224ea717f6","system_id":"levelo_inurba_marseille","lat":43.285848,"lon":5.350787,"is_reserved":false,"is_disabled":false,"rental_uris":{"android":"levelo://app?vid=e25e5c82-c29a-43d1-8f9e-8b224ea717f6","ios":"levelo://app?vid=e25e5c82-c29a-43d1-8f9e-8b224ea717f6"},"vehicle_type_id":"4","last_reported":1688058409,"current_range_meters":24800,"station_id":"ce4bhch2rcd13ifvqeug","pricing_plan_id":"free"},{"bike_id":"3a8a2c20-7710-4bb6-9559-c8a9016fda2b","system_id":"levelo_inurba_marseille","lat":43.298433,"lon":5.362774,"is_reserved":false,"is_disabled":false,"rental_uris":{"android":"levelo://app?vid=3a8a2c20-7710-4bb6-9559-c8a9016fda2b","ios":"levelo://app?vid=3a8a2c20-7710-4bb6-9559-c8a9016fda2b"},"vehicle_type_id":"4","last_reported":1688058409,"current_range_meters":6400,"station_id":"ce4bgpp2rcd13ifvqc3g","pricing_plan_id":"free"},{"bike_id":"0e7cc8d9-c2c8-4de7-bdfe-13f49f18079c","system_id":"levelo_inurba_marseille","lat":43.28616,"lon":5.35101,"is_reserved":false,"is_disabled":false,"rental_uris":{"android":"levelo://app?vid=0e7cc8d9-c2c8-4de7-bdfe-13f49f18079c","ios":"levelo://app?vid=0e7cc8d9-c2c8-4de7-bdfe-13f49f18079c"},"vehicle_type_id":"4","last_reported":1688058409,"current_range_meters":7600,"station_id":"ce4bhch2rcd13ifvqeug","pricing_plan_id":"free"},{"bike_id":"992e9536-733a-4415-81b0-6596bec3f6e3","system_id":"levelo_inurba_marseille","lat":43.283998,"lon":5.375062,"is_reserved":false,"is_disabled":false,"rental_uris":{"android":"levelo://app?vid=992e9536-733a-4415-81b0-6596bec3f6e3","ios":"levelo://app?vid=992e9536-733a-4415-81b0-6596bec3f6e3"},"vehicle_type_id":"4","last_reported":1688058409,"current_range_meters":800,"station_id":"ce4bh412rcd13ifvqds0","pricing_plan_id":"free"},{"bike_id":"44cab7ae-ae35-4746-b252-784896609ba5","system_id":"levelo_inurba_marseille","lat":43.283998,"lon":5.375062,"is_reserved":false,"is_disabled":false,"rental_uris":{"android":"levelo://app?vid=44cab7ae-ae35-4746-b252-784896609ba5","ios":"levelo://app?vid=44cab7ae-ae35-4746-b252-784896609ba5"},"vehicle_type_id":"4","last_reported":1688058409,"current_range_meters":8000,"station_id":"ce4bh412rcd13ifvqds0","pricing_plan_id":"free"},{"bike_id":"919e2832-f156-4af5-9e77-3a940422a0c2","system_id":"levelo_inurba_marseille","lat":43.283998,"lon":5.375062,"is_reserved":false,"is_disabled":false,"rental_uris":{"android":"levelo://app?vid=919e2832-f156-4af5-9e77-3a940422a0c2","ios":"levelo://app?vid=919e2832-f156-4af5-9e77-3a940422a0c2"},"vehicle_type_id":"4","last_reported":1688058409,"current_range_meters":0,"station_id":"ce4bh412rcd13ifvqds0","pricing_plan_id":"free"},{"bike_id":"25d18eef-4a76-40e5-a5c0-9309ff8314ec","system_id":"levelo_inurba_marseille","lat":43.283998,"lon":5.375062,"is_reserved":false,"is_disabled":false,"rental_uris":{"android":"levelo://app?vid=25d18eef-4a76-40e5-a5c0-9309ff8314ec","ios":"levelo://app?vid=25d18eef-4a76-40e5-a5c0-9309ff8314ec"},"vehicle_type_id":"4","last_reported":1688058409,"current_range_meters":0,"station_id":"ce4bh412rcd13ifvqds0","pricing_plan_id":"free"},{"bike_id":"1787cbf0-e07b-4a5c-aac2-8071ce3d39a9","system_id":"levelo_inurba_marseille","lat":43.286595,"lon":5.386795,"is_reserved":false,"is_disabled":false,"rental_uris":{"android":"levelo://app?vid=1787cbf0-e07b-4a5c-aac2-8071ce3d39a9","ios":"levelo://app?vid=1787cbf0-e07b-4a5c-aac2-8071ce3d39a9"},"vehicle_type_id":"4","last_reported":1688058409,"current_range_meters":26000,"station_id":"ce4bh492rcd13ifvqdug","pricing_plan_id":"free"},{"bike_id":"b4c950db-352f-4a1a-8e3c-c05101a6dad0","system_id":"levelo_inurba_marseille","lat":43.28802,"lon":5.39146,"is_reserved":false,"is_disabled":false,"rental_uris":{"android":"levelo://app?vid=b4c950db-352f-4a1a-8e3c-c05101a6dad0","ios":"levelo://app?vid=b4c950db-352f-4a1a-8e3c-c05101a6dad0"},"vehicle_type_id":"4","last_reported":1688058409,"current_range_meters":29200,"station_id":"","pricing_plan_id":"free"},{"bike_id":"8525491f-3db0-400c-9669-dc39652966d2","system_id":"levelo_inurba_marseille","lat":43.32339,"lon":5.40622,"is_reserved":false,"is_disabled":false,"rental_uris":{"android":"levelo://app?vid=8525491f-3db0-400c-9669-dc39652966d2","ios":"levelo://app?vid=8525491f-3db0-400c-9669-dc39652966d2"},"vehicle_type_id":"4","last_reported":1688058409,"current_range_meters":13200,"station_id":"ce4bhq92rcd13ifvqhjg","pricing_plan_id":"free"},{"bike_id":"1b7b0fd6-7a16-4583-98c9-b1921e383d7f","system_id":"levelo_inurba_marseille","lat":43.32337,"lon":5.40624,"is_reserved":false,"is_disabled":false,"rental_uris":{"android":"levelo://app?vid=1b7b0fd6-7a16-4583-98c9-b1921e383d7f","ios":"levelo://app?vid=1b7b0fd6-7a16-4583-98c9-b1921e383d7f"},"vehicle_type_id":"4","last_reported":1688058409,"current_range_meters":28800,"station_id":"ce4bhq92rcd13ifvqhjg","pricing_plan_id":"free"},{"bike_id":"7cec1a17-8034-4d06-837e-547e4006214b","system_id":"levelo_inurba_marseille","lat":43.28354,"lon":5.38103,"is_reserved":false,"is_disabled":false,"rental_uris":{"android":"levelo://app?vid=7cec1a17-8034-4d06-837e-547e4006214b","ios":"levelo://app?vid=7cec1a17-8034-4d06-837e-547e4006214b"},"vehicle_type_id":"4","last_reported":1688058409,"current_range_meters":1200,"station_id":"ce4bh412rcd13ifvqdr0","pricing_plan_id":"free"},{"bike_id":"2b79bf6b-e78c-46d7-95da-22cd71435376","system_id":"levelo_inurba_marseille","lat":43.28421,"lon":5.34993,"is_reserved":false,"is_disabled":false,"rental_uris":{"android":"levelo://app?vid=2b79bf6b-e78c-46d7-95da-22cd71435376","ios":"levelo://app?vid=2b79bf6b-e78c-46d7-95da-22cd71435376"},"vehicle_type_id":"4","last_reported":1688058409,"current_range_meters":21600,"station_id":"ce4bhbh2rcd13ifvqepg","pricing_plan_id":"free"},{"bike_id":"44a77310-fe78-48c5-924f-0bca2a7fdf5b","system_id":"levelo_inurba_marseille","lat":43.28422,"lon":5.3498,"is_reserved":false,"is_disabled":false,"rental_uris":{"android":"levelo://app?vid=44a77310-fe78-48c5-924f-0bca2a7fdf5b","ios":"levelo://app?vid=44a77310-fe78-48c5-924f-0bca2a7fdf5b"},"vehicle_type_id":"4","last_reported":1688058409,"current_range_meters":2000,"station_id":"ce4bhbh2rcd13ifvqepg","pricing_plan_id":"free"},{"bike_id":"58f74936-68fd-4d90-a83b-560ca9f41485","system_id":"levelo_inurba_marseille","lat":43.28416,"lon":5.34989,"is_reserved":false,"is_disabled":false,"rental_uris":{"android":"levelo://app?vid=58f74936-68fd-4d90-a83b-560ca9f41485","ios":"levelo://app?vid=58f74936-68fd-4d90-a83b-560ca9f41485"},"vehicle_type_id":"4","last_reported":1688058409,"current_range_meters":31200,"station_id":"ce4bhbh2rcd13ifvqepg","pricing_plan_id":"free"},{"bike_id":"0a00316a-8f1c-402b-a18c-c42e82842c08","system_id":"levelo_inurba_marseille","lat":43.284219,"lon":5.3497,"is_reserved":false,"is_disabled":false,"rental_uris":{"android":"levelo://app?vid=0a00316a-8f1c-402b-a18c-c42e82842c08","ios":"levelo://app?vid=0a00316a-8f1c-402b-a18c-c42e82842c08"},"vehicle_type_id":"4","last_reported":1688058409,"current_range_meters":31600,"station_id":"ce4bhbh2rcd13ifvqepg","pricing_plan_id":"free"},{"bike_id":"a31a35a5-e61f-4317-9391-7f19d8fcfbcd","system_id":"levelo_inurba_marseille","lat":43.28415,"lon":5.3499,"is_reserved":false,"is_disabled":false,"rental_uris":{"android":"levelo://app?vid=a31a35a5-e61f-4317-9391-7f19d8fcfbcd","ios":"levelo://app?vid=a31a35a5-e61f-4317-9391-7f19d8fcfbcd"},"vehicle_type_id":"4","last_reported":1688058409,"current_range_meters":0,"station_id":"ce4bhbh2rcd13ifvqepg","pricing_plan_id":"free"},{"bike_id":"32539452-dfdf-4b86-ae3d-77012767d16c","system_id":"levelo_inurba_marseille","lat":43.28414,"lon":5.34993,"is_reserved":false,"is_disabled":false,"rental_uris":{"android":"levelo://app?vid=32539452-dfdf-4b86-ae3d-77012767d16c","ios":"levelo://app?vid=32539452-dfdf-4b86-ae3d-77012767d16c"},"vehicle_type_id":"4","last_reported":1688058409,"current_range_meters":2000,"station_id":"ce4bhbh2rcd13ifvqepg","pricing_plan_id":"free"},{"bike_id":"86f6fbc5-566c-4de3-83ae-a947fca4a2a4","system_id":"levelo_inurba_marseille","lat":43.284217,"lon":5.349697,"is_reserved":false,"is_disabled":false,"rental_uris":{"android":"levelo://app?vid=86f6fbc5-566c-4de3-83ae-a947fca4a2a4","ios":"levelo://app?vid=86f6fbc5-566c-4de3-83ae-a947fca4a2a4"},"vehicle_type_id":"4","last_reported":1688058409,"current_range_meters":31200,"station_id":"ce4bhbh2rcd13ifvqepg","pricing_plan_id":"free"},{"bike_id":"4a2fff34-e566-454e-b176-ffb584de71ea","system_id":"levelo_inurba_marseille","lat":43.284219,"lon":5.3497,"is_reserved":false,"is_disabled":false,"rental_uris":{"android":"levelo://app?vid=4a2fff34-e566-454e-b176-ffb584de71ea","ios":"levelo://app?vid=4a2fff34-e566-454e-b176-ffb584de71ea"},"vehicle_type_id":"4","last_reported":1688058409,"current_range_meters":0,"station_id":"ce4bhbh2rcd13ifvqepg","pricing_plan_id":"free"},{"bike_id":"284d6483-92d0-4216-a427-77bb2b2380b4","system_id":"levelo_inurba_marseille","lat":43.28416,"lon":5.34984,"is_reserved":false,"is_disabled":false,"rental_uris":{"android":"levelo://app?vid=284d6483-92d0-4216-a427-77bb2b2380b4","ios":"levelo://app?vid=284d6483-92d0-4216-a427-77bb2b2380b4"},"vehicle_type_id":"4","last_reported":1688058409,"current_range_meters":14400,"station_id":"ce4bhbh2rcd13ifvqepg","pricing_plan_id":"free"},{"bike_id":"f0959f94-149a-405c-ab9f-eb64d604f1f7","system_id":"levelo_inurba_marseille","lat":43.284219,"lon":5.3497,"is_reserved":false,"is_disabled":false,"rental_uris":{"android":"levelo://app?vid=f0959f94-149a-405c-ab9f-eb64d604f1f7","ios":"levelo://app?vid=f0959f94-149a-405c-ab9f-eb64d604f1f7"},"vehicle_type_id":"4","last_reported":1688058409,"current_range_meters":19600,"station_id":"ce4bhbh2rcd13ifvqepg","pricing_plan_id":"free"},{"bike_id":"280f7874-9a87-4367-801f-7efcd8e45f0e","system_id":"levelo_inurba_marseille","lat":43.28414,"lon":5.34982,"is_reserved":false,"is_disabled":false,"rental_uris":{"android":"levelo://app?vid=280f7874-9a87-4367-801f-7efcd8e45f0e","ios":"levelo://app?vid=280f7874-9a87-4367-801f-7efcd8e45f0e"},"vehicle_type_id":"4","last_reported":1688058409,"current_range_meters":14800,"station_id":"","pricing_plan_id":"free"},{"bike_id":"ff5b6b38-ebc1-4963-b317-73cb2a73f085","system_id":"levelo_inurba_marseille","lat":43.28412,"lon":5.3498,"is_reserved":false,"is_disabled":false,"rental_uris":{"android":"levelo://app?vid=ff5b6b38-ebc1-4963-b317-73cb2a73f085","ios":"levelo://app?vid=ff5b6b38-ebc1-4963-b317-73cb2a73f085"},"vehicle_type_id":"4","last_reported":1688058409,"current_range_meters":14000,"station_id":"ce4bhbh2rcd13ifvqepg","pricing_plan_id":"free"},{"bike_id":"6023d8b3-ef7b-489a-9460-7cb7e9e54bbf","system_id":"levelo_inurba_marseille","lat":43.284217,"lon":5.349697,"is_reserved":false,"is_disabled":false,"rental_uris":{"android":"levelo://app?vid=6023d8b3-ef7b-489a-9460-7cb7e9e54bbf","ios":"levelo://app?vid=6023d8b3-ef7b-489a-9460-7cb7e9e54bbf"},"vehicle_type_id":"4","last_reported":1688058409,"current_range_meters":22400,"station_id":"ce4bhbh2rcd13ifvqepg","pricing_plan_id":"free"},{"bike_id":"cc749b12-968a-4293-899a-7eef00055646","system_id":"levelo_inurba_marseille","lat":43.284217,"lon":5.349697,"is_reserved":false,"is_disabled":false,"rental_uris":{"android":"levelo://app?vid=cc749b12-968a-4293-899a-7eef00055646","ios":"levelo://app?vid=cc749b12-968a-4293-899a-7eef00055646"},"vehicle_type_id":"4","last_reported":1688058409,"current_range_meters":31200,"station_id":"ce4bhbh2rcd13ifvqepg","pricing_plan_id":"free"},{"bike_id":"f881af5e-2efd-4ada-8b6f-f3a8f0eef96b","system_id":"levelo_inurba_marseille","lat":43.282744,"lon":5.350533,"is_reserved":false,"is_disabled":false,"rental_uris":{"android":"levelo://app?vid=f881af5e-2efd-4ada-8b6f-f3a8f0eef96b","ios":"levelo://app?vid=f881af5e-2efd-4ada-8b6f-f3a8f0eef96b"},"vehicle_type_id":"4","last_reported":1688058409,"current_range_meters":0,"station_id":"ce4bhbp2rcd13ifvqerg","pricing_plan_id":"free"},{"bike_id":"1f887252-c7f5-4b04-a812-a5d3b7961a9b","system_id":"levelo_inurba_marseille","lat":43.282754,"lon":5.350519,"is_reserved":false,"is_disabled":false,"rental_uris":{"android":"levelo://app?vid=1f887252-c7f5-4b04-a812-a5d3b7961a9b","ios":"levelo://app?vid=1f887252-c7f5-4b04-a812-a5d3b7961a9b"},"vehicle_type_id":"4","last_reported":1688058409,"current_range_meters":27200,"station_id":"ce4bhbp2rcd13ifvqerg","pricing_plan_id":"free"},{"bike_id":"667b45c2-03ce-4994-8896-344aab890583","system_id":"levelo_inurba_marseille","lat":43.282754,"lon":5.350519,"is_reserved":false,"is_disabled":false,"rental_uris":{"android":"levelo://app?vid=667b45c2-03ce-4994-8896-344aab890583","ios":"levelo://app?vid=667b45c2-03ce-4994-8896-344aab890583"},"vehicle_type_id":"4","last_reported":1688058409,"current_range_meters":27200,"station_id":"ce4bhbp2rcd13ifvqerg","pricing_plan_id":"free"},{"bike_id":"8f510a06-4e9d-466b-b36b-8858d7e6144d","system_id":"levelo_inurba_marseille","lat":43.282744,"lon":5.350533,"is_reserved":false,"is_disabled":false,"rental_uris":{"android":"levelo://app?vid=8f510a06-4e9d-466b-b36b-8858d7e6144d","ios":"levelo://app?vid=8f510a06-4e9d-466b-b36b-8858d7e6144d"},"vehicle_type_id":"4","last_reported":1688058409,"current_range_meters":23600,"station_id":"ce4bhbp2rcd13ifvqerg","pricing_plan_id":"free"},{"bike_id":"c798c66e-f5fe-4292-b464-8253d1c72642","system_id":"levelo_inurba_marseille","lat":43.282744,"lon":5.350533,"is_reserved":false,"is_disabled":false,"rental_uris":{"android":"levelo://app?vid=c798c66e-f5fe-4292-b464-8253d1c72642","ios":"levelo://app?vid=c798c66e-f5fe-4292-b464-8253d1c72642"},"vehicle_type_id":"4","last_reported":1688058409,"current_range_meters":11200,"station_id":"ce4bhbp2rcd13ifvqerg","pricing_plan_id":"free"},{"bike_id":"41eb68e6-f696-4e8f-90ea-072e69f8919a","system_id":"levelo_inurba_marseille","lat":43.28039,"lon":5.369297,"is_reserved":false,"is_disabled":false,"rental_uris":{"android":"levelo://app?vid=41eb68e6-f696-4e8f-90ea-072e69f8919a","ios":"levelo://app?vid=41eb68e6-f696-4e8f-90ea-072e69f8919a"},"vehicle_type_id":"4","last_reported":1688058409,"current_range_meters":22000,"station_id":"ce4bha12rcd13ifvqef0","pricing_plan_id":"free"},{"bike_id":"87bdc6e4-56b5-49fe-8acf-3eb07be9c924","system_id":"levelo_inurba_marseille","lat":43.281044,"lon":5.378308,"is_reserved":false,"is_disabled":false,"rental_uris":{"android":"levelo://app?vid=87bdc6e4-56b5-49fe-8acf-3eb07be9c924","ios":"levelo://app?vid=87bdc6e4-56b5-49fe-8acf-3eb07be9c924"},"vehicle_type_id":"4","last_reported":1688058409,"current_range_meters":9200,"station_id":"ce4bha12rcd13ifvqee0","pricing_plan_id":"free"},{"bike_id":"7530409d-2ed3-460f-8876-b94c620b5e0a","system_id":"levelo_inurba_marseille","lat":43.281044,"lon":5.378308,"is_reserved":false,"is_disabled":false,"rental_uris":{"android":"levelo://app?vid=7530409d-2ed3-460f-8876-b94c620b5e0a","ios":"levelo://app?vid=7530409d-2ed3-460f-8876-b94c620b5e0a"},"vehicle_type_id":"4","last_reported":1688058409,"current_range_meters":1600,"station_id":"ce4bha12rcd13ifvqee0","pricing_plan_id":"free"},{"bike_id":"33066033-4b6b-4d57-8001-ba9e3be99e26","system_id":"levelo_inurba_marseille","lat":43.33079,"lon":5.40571,"is_reserved":false,"is_disabled":false,"rental_uris":{"android":"levelo://app?vid=33066033-4b6b-4d57-8001-ba9e3be99e26","ios":"levelo://app?vid=33066033-4b6b-4d57-8001-ba9e3be99e26"},"vehicle_type_id":"4","last_reported":1688058409,"current_range_meters":20000,"station_id":"","pricing_plan_id":"free"},{"bike_id":"c8e6ce45-f2b5-4772-a564-3c2039eea91a","system_id":"levelo_inurba_marseille","lat":43.33081,"lon":5.4057,"is_reserved":false,"is_disabled":false,"rental_uris":{"android":"levelo://app?vid=c8e6ce45-f2b5-4772-a564-3c2039eea91a","ios":"levelo://app?vid=c8e6ce45-f2b5-4772-a564-3c2039eea91a"},"vehicle_type_id":"4","last_reported":1688058409,"current_range_meters":1600,"station_id":"","pricing_plan_id":"free"},{"bike_id":"75e62f2c-3bde-47ca-a807-bb91af3cf853","system_id":"levelo_inurba_marseille","lat":43.28573,"lon":5.394992,"is_reserved":false,"is_disabled":false,"rental_uris":{"android":"levelo://app?vid=75e62f2c-3bde-47ca-a807-bb91af3cf853","ios":"levelo://app?vid=75e62f2c-3bde-47ca-a807-bb91af3cf853"},"vehicle_type_id":"4","last_reported":1688058409,"current_range_meters":4400,"station_id":"ce4bh292rcd13ifvqdg0","pricing_plan_id":"free"},{"bike_id":"f837c672-8bc1-4001-b737-1008f3918d6c","system_id":"levelo_inurba_marseille","lat":43.28572,"lon":5.39493,"is_reserved":false,"is_disabled":false,"rental_uris":{"android":"levelo://app?vid=f837c672-8bc1-4001-b737-1008f3918d6c","ios":"levelo://app?vid=f837c672-8bc1-4001-b737-1008f3918d6c"},"vehicle_type_id":"4","last_reported":1688058409,"current_range_meters":3600,"station_id":"ce4bh292rcd13ifvqdg0","pricing_plan_id":"free"},{"bike_id":"66cf518e-9413-48d9-a298-e8c8381f586b","system_id":"levelo_inurba_marseille","lat":43.28573,"lon":5.394992,"is_reserved":false,"is_disabled":false,"rental_uris":{"android":"levelo://app?vid=66cf518e-9413-48d9-a298-e8c8381f586b","ios":"levelo://app?vid=66cf518e-9413-48d9-a298-e8c8381f586b"},"vehicle_type_id":"4","last_reported":1688058409,"current_range_meters":800,"station_id":"ce4bh292rcd13ifvqdg0","pricing_plan_id":"free"},{"bike_id":"f0093a47-0f5c-43a7-9a1c-a6dfbbdb469b","system_id":"levelo_inurba_marseille","lat":43.285742,"lon":5.395004,"is_reserved":false,"is_disabled":false,"rental_uris":{"android":"levelo://app?vid=f0093a47-0f5c-43a7-9a1c-a6dfbbdb469b","ios":"levelo://app?vid=f0093a47-0f5c-43a7-9a1c-a6dfbbdb469b"},"vehicle_type_id":"4","last_reported":1688058409,"current_range_meters":3600,"station_id":"ce4bh292rcd13ifvqdg0","pricing_plan_id":"free"},{"bike_id":"0c9eee73-532e-4f1f-8b23-5a0693e22298","system_id":"levelo_inurba_marseille","lat":43.32658,"lon":5.40995,"is_reserved":false,"is_disabled":false,"rental_uris":{"android":"levelo://app?vid=0c9eee73-532e-4f1f-8b23-5a0693e22298","ios":"levelo://app?vid=0c9eee73-532e-4f1f-8b23-5a0693e22298"},"vehicle_type_id":"4","last_reported":1688058409,"current_range_meters":21600,"station_id":"ce4bhpp2rcd13ifvqhgg","pricing_plan_id":"free"},{"bike_id":"94cd5cee-81d7-4ad5-a0b7-988b3afd962f","system_id":"levelo_inurba_marseille","lat":43.32643,"lon":5.41008,"is_reserved":false,"is_disabled":false,"rental_uris":{"android":"levelo://app?vid=94cd5cee-81d7-4ad5-a0b7-988b3afd962f","ios":"levelo://app?vid=94cd5cee-81d7-4ad5-a0b7-988b3afd962f"},"vehicle_type_id":"4","last_reported":1688058409,"current_range_meters":20400,"station_id":"ce4bhpp2rcd13ifvqhgg","pricing_plan_id":"free"},{"bike_id":"595aab94-5faa-4115-9192-c5b917a5945e","system_id":"levelo_inurba_marseille","lat":43.304188,"lon":5.412904,"is_reserved":false,"is_disabled":false,"rental_uris":{"android":"levelo://app?vid=595aab94-5faa-4115-9192-c5b917a5945e","ios":"levelo://app?vid=595aab94-5faa-4115-9192-c5b917a5945e"},"vehicle_type_id":"4","last_reported":1688058409,"current_range_meters":16400,"station_id":"ce4bhop2rcd13ifvqh8g","pricing_plan_id":"free"},{"bike_id":"457b441d-63c7-4c7a-8df1-4ddf5c9425f8","system_id":"levelo_inurba_marseille","lat":43.304188,"lon":5.412904,"is_reserved":false,"is_disabled":false,"rental_uris":{"android":"levelo://app?vid=457b441d-63c7-4c7a-8df1-4ddf5c9425f8","ios":"levelo://app?vid=457b441d-63c7-4c7a-8df1-4ddf5c9425f8"},"vehicle_type_id":"4","last_reported":1688058409,"current_range_meters":18000,"station_id":"ce4bhop2rcd13ifvqh8g","pricing_plan_id":"free"},{"bike_id":"42950cb9-49e8-4873-8938-0e3afff33f67","system_id":"levelo_inurba_marseille","lat":43.304188,"lon":5.412904,"is_reserved":false,"is_disabled":false,"rental_uris":{"android":"levelo://app?vid=42950cb9-49e8-4873-8938-0e3afff33f67","ios":"levelo://app?vid=42950cb9-49e8-4873-8938-0e3afff33f67"},"vehicle_type_id":"4","last_reported":1688058409,"current_range_meters":29600,"station_id":"ce4bhop2rcd13ifvqh8g","pricing_plan_id":"free"},{"bike_id":"7dc3802e-50d4-443c-bfad-4603f4d0b192","system_id":"levelo_inurba_marseille","lat":43.287154,"lon":5.399979,"is_reserved":false,"is_disabled":false,"rental_uris":{"android":"levelo://app?vid=7dc3802e-50d4-443c-bfad-4603f4d0b192","ios":"levelo://app?vid=7dc3802e-50d4-443c-bfad-4603f4d0b192"},"vehicle_type_id":"4","last_reported":1688058409,"current_range_meters":5200,"station_id":"ce4bho92rcd13ifvqh3g","pricing_plan_id":"free"},{"bike_id":"50fd953c-9754-45f4-aec7-ae52bb9eb6fe","system_id":"levelo_inurba_marseille","lat":43.287154,"lon":5.399979,"is_reserved":false,"is_disabled":false,"rental_uris":{"android":"levelo://app?vid=50fd953c-9754-45f4-aec7-ae52bb9eb6fe","ios":"levelo://app?vid=50fd953c-9754-45f4-aec7-ae52bb9eb6fe"},"vehicle_type_id":"4","last_reported":1688058409,"current_range_meters":31200,"station_id":"ce4bho92rcd13ifvqh3g","pricing_plan_id":"free"},{"bike_id":"bfc9d7f4-03d2-4bbf-9f3e-d1cb731d00ef","system_id":"levelo_inurba_marseille","lat":43.3206,"lon":5.41533,"is_reserved":false,"is_disabled":false,"rental_uris":{"android":"levelo://app?vid=bfc9d7f4-03d2-4bbf-9f3e-d1cb731d00ef","ios":"levelo://app?vid=bfc9d7f4-03d2-4bbf-9f3e-d1cb731d00ef"},"vehicle_type_id":"4","last_reported":1688058409,"current_range_meters":31200,"station_id":"ce4bhq92rcd13ifvqhkg","pricing_plan_id":"free"},{"bike_id":"010303de-9f53-47c9-8014-4eeafc88e3fa","system_id":"levelo_inurba_marseille","lat":43.320045,"lon":5.415048,"is_reserved":false,"is_disabled":false,"rental_uris":{"android":"levelo://app?vid=010303de-9f53-47c9-8014-4eeafc88e3fa","ios":"levelo://app?vid=010303de-9f53-47c9-8014-4eeafc88e3fa"},"vehicle_type_id":"4","last_reported":1688058409,"current_range_meters":31200,"station_id":"ce4bhq92rcd13ifvqhkg","pricing_plan_id":"free"},{"bike_id":"5cd9963c-2a1a-4a4f-9060-4864f6a1d4dc","system_id":"levelo_inurba_marseille","lat":43.32053,"lon":5.41539,"is_reserved":false,"is_disabled":false,"rental_uris":{"android":"levelo://app?vid=5cd9963c-2a1a-4a4f-9060-4864f6a1d4dc","ios":"levelo://app?vid=5cd9963c-2a1a-4a4f-9060-4864f6a1d4dc"},"vehicle_type_id":"4","last_reported":1688058409,"current_range_meters":31200,"station_id":"ce4bhq92rcd13ifvqhkg","pricing_plan_id":"free"},{"bike_id":"cd4cfe7b-caf3-4b46-b5b3-61a4342ffa5f","system_id":"levelo_inurba_marseille","lat":43.279742,"lon":5.38744,"is_reserved":false,"is_disabled":false,"rental_uris":{"android":"levelo://app?vid=cd4cfe7b-caf3-4b46-b5b3-61a4342ffa5f","ios":"levelo://app?vid=cd4cfe7b-caf3-4b46-b5b3-61a4342ffa5f"},"vehicle_type_id":"4","last_reported":1688058409,"current_range_meters":31200,"station_id":"ce4bhg12rcd13ifvqf80","pricing_plan_id":"free"},{"bike_id":"51c314ea-286c-4a2d-ba2f-e1e1bf66b226","system_id":"levelo_inurba_marseille","lat":43.320045,"lon":5.415048,"is_reserved":false,"is_disabled":false,"rental_uris":{"android":"levelo://app?vid=51c314ea-286c-4a2d-ba2f-e1e1bf66b226","ios":"levelo://app?vid=51c314ea-286c-4a2d-ba2f-e1e1bf66b226"},"vehicle_type_id":"4","last_reported":1688058409,"current_range_meters":31200,"station_id":"ce4bhq92rcd13ifvqhkg","pricing_plan_id":"free"},{"bike_id":"0c7adcd0-48aa-4656-a02d-e173a4685874","system_id":"levelo_inurba_marseille","lat":43.320045,"lon":5.415046,"is_reserved":false,"is_disabled":false,"rental_uris":{"android":"levelo://app?vid=0c7adcd0-48aa-4656-a02d-e173a4685874","ios":"levelo://app?vid=0c7adcd0-48aa-4656-a02d-e173a4685874"},"vehicle_type_id":"4","last_reported":1688058409,"current_range_meters":31200,"station_id":"ce4bhq92rcd13ifvqhkg","pricing_plan_id":"free"},{"bike_id":"67276d98-9729-4e4f-be03-e5fac7934407","system_id":"levelo_inurba_marseille","lat":43.32033,"lon":5.4157,"is_reserved":false,"is_disabled":false,"rental_uris":{"android":"levelo://app?vid=67276d98-9729-4e4f-be03-e5fac7934407","ios":"levelo://app?vid=67276d98-9729-4e4f-be03-e5fac7934407"},"vehicle_type_id":"4","last_reported":1688058409,"current_range_meters":27600,"station_id":"ce4bhq92rcd13ifvqhkg","pricing_plan_id":"free"},{"bike_id":"d121dca8-2596-4f85-a2a1-3d6410e5eda4","system_id":"levelo_inurba_marseille","lat":43.33178,"lon":5.40988,"is_reserved":false,"is_disabled":false,"rental_uris":{"android":"levelo://app?vid=d121dca8-2596-4f85-a2a1-3d6410e5eda4","ios":"levelo://app?vid=d121dca8-2596-4f85-a2a1-3d6410e5eda4"},"vehicle_type_id":"4","last_reported":1688058409,"current_range_meters":20400,"station_id":"","pricing_plan_id":"free"},{"bike_id":"7a01c59b-5ceb-440b-b181-3ad2dbd18937","system_id":"levelo_inurba_marseille","lat":43.292569,"lon":5.409107,"is_reserved":false,"is_disabled":false,"rental_uris":{"android":"levelo://app?vid=7a01c59b-5ceb-440b-b181-3ad2dbd18937","ios":"levelo://app?vid=7a01c59b-5ceb-440b-b181-3ad2dbd18937"},"vehicle_type_id":"4","last_reported":1688058409,"current_range_meters":10400,"station_id":"ce4bh192rcd13ifvqdc0","pricing_plan_id":"free"},{"bike_id":"9f1acc43-8c28-441e-8611-4311d41d8c86","system_id":"levelo_inurba_marseille","lat":43.292569,"lon":5.409107,"is_reserved":false,"is_disabled":false,"rental_uris":{"android":"levelo://app?vid=9f1acc43-8c28-441e-8611-4311d41d8c86","ios":"levelo://app?vid=9f1acc43-8c28-441e-8611-4311d41d8c86"},"vehicle_type_id":"4","last_reported":1688058409,"current_range_meters":18400,"station_id":"ce4bh192rcd13ifvqdc0","pricing_plan_id":"free"},{"bike_id":"65247d7b-c923-4f72-b479-8133962e00eb","system_id":"levelo_inurba_marseille","lat":43.27888,"lon":5.38765,"is_reserved":false,"is_disabled":false,"rental_uris":{"android":"levelo://app?vid=65247d7b-c923-4f72-b479-8133962e00eb","ios":"levelo://app?vid=65247d7b-c923-4f72-b479-8133962e00eb"},"vehicle_type_id":"4","last_reported":1688058409,"current_range_meters":18000,"station_id":"","pricing_plan_id":"free"},{"bike_id":"aa0eaabb-85fa-468c-ab8a-23015b1e7ccb","system_id":"levelo_inurba_marseille","lat":43.280784,"lon":5.396622,"is_reserved":false,"is_disabled":false,"rental_uris":{"android":"levelo://app?vid=aa0eaabb-85fa-468c-ab8a-23015b1e7ccb","ios":"levelo://app?vid=aa0eaabb-85fa-468c-ab8a-23015b1e7ccb"},"vehicle_type_id":"4","last_reported":1688058409,"current_range_meters":14800,"station_id":"ce4bho12rcd13ifvqh2g","pricing_plan_id":"free"},{"bike_id":"2ae67aeb-de3c-482c-86bf-52a04f0e0033","system_id":"levelo_inurba_marseille","lat":43.273812,"lon":5.3626,"is_reserved":false,"is_disabled":false,"rental_uris":{"android":"levelo://app?vid=2ae67aeb-de3c-482c-86bf-52a04f0e0033","ios":"levelo://app?vid=2ae67aeb-de3c-482c-86bf-52a04f0e0033"},"vehicle_type_id":"4","last_reported":1688058409,"current_range_meters":31200,"station_id":"ce4bhbh2rcd13ifvqeo0","pricing_plan_id":"free"},{"bike_id":"63e9207e-f7a6-423c-a0d9-36d57b9a3c6b","system_id":"levelo_inurba_marseille","lat":43.273792,"lon":5.362606,"is_reserved":false,"is_disabled":false,"rental_uris":{"android":"levelo://app?vid=63e9207e-f7a6-423c-a0d9-36d57b9a3c6b","ios":"levelo://app?vid=63e9207e-f7a6-423c-a0d9-36d57b9a3c6b"},"vehicle_type_id":"4","last_reported":1688058409,"current_range_meters":17600,"station_id":"ce4bhbh2rcd13ifvqeo0","pricing_plan_id":"free"},{"bike_id":"571198d5-74bc-445b-acfa-5399e490d70f","system_id":"levelo_inurba_marseille","lat":43.273789,"lon":5.362607,"is_reserved":false,"is_disabled":false,"rental_uris":{"android":"levelo://app?vid=571198d5-74bc-445b-acfa-5399e490d70f","ios":"levelo://app?vid=571198d5-74bc-445b-acfa-5399e490d70f"},"vehicle_type_id":"4","last_reported":1688058409,"current_range_meters":14000,"station_id":"ce4bhbh2rcd13ifvqeo0","pricing_plan_id":"free"},{"bike_id":"dc5345a1-9559-4ee3-a6dc-82cab502e75d","system_id":"levelo_inurba_marseille","lat":43.273613,"lon":5.362705,"is_reserved":false,"is_disabled":false,"rental_uris":{"android":"levelo://app?vid=dc5345a1-9559-4ee3-a6dc-82cab502e75d","ios":"levelo://app?vid=dc5345a1-9559-4ee3-a6dc-82cab502e75d"},"vehicle_type_id":"4","last_reported":1688058409,"current_range_meters":27600,"station_id":"ce4bhbh2rcd13ifvqeo0","pricing_plan_id":"free"},{"bike_id":"9d985c5b-0a8e-49b0-a75a-85e2d53602a0","system_id":"levelo_inurba_marseille","lat":43.273613,"lon":5.362705,"is_reserved":false,"is_disabled":false,"rental_uris":{"android":"levelo://app?vid=9d985c5b-0a8e-49b0-a75a-85e2d53602a0","ios":"levelo://app?vid=9d985c5b-0a8e-49b0-a75a-85e2d53602a0"},"vehicle_type_id":"4","last_reported":1688058409,"current_range_meters":23200,"station_id":"ce4bhbh2rcd13ifvqeo0","pricing_plan_id":"free"},{"bike_id":"bf5dad5e-e4bc-4ca0-a483-37ddd3ec6b11","system_id":"levelo_inurba_marseille","lat":43.273757,"lon":5.362581,"is_reserved":false,"is_disabled":false,"rental_uris":{"android":"levelo://app?vid=bf5dad5e-e4bc-4ca0-a483-37ddd3ec6b11","ios":"levelo://app?vid=bf5dad5e-e4bc-4ca0-a483-37ddd3ec6b11"},"vehicle_type_id":"4","last_reported":1688058409,"current_range_meters":0,"station_id":"ce4bgj92rcd13ifvqbe0","pricing_plan_id":"free"},{"bike_id":"48e7a043-fc2c-4059-88f2-67949f91bfab","system_id":"levelo_inurba_marseille","lat":43.273609,"lon":5.362708,"is_reserved":false,"is_disabled":false,"rental_uris":{"android":"levelo://app?vid=48e7a043-fc2c-4059-88f2-67949f91bfab","ios":"levelo://app?vid=48e7a043-fc2c-4059-88f2-67949f91bfab"},"vehicle_type_id":"4","last_reported":1688058409,"current_range_meters":14000,"station_id":"ce4bhbh2rcd13ifvqeo0","pricing_plan_id":"free"},{"bike_id":"653ab45c-a44f-4551-a2e2-1caf9c29cbef","system_id":"levelo_inurba_marseille","lat":43.273609,"lon":5.362708,"is_reserved":false,"is_disabled":false,"rental_uris":{"android":"levelo://app?vid=653ab45c-a44f-4551-a2e2-1caf9c29cbef","ios":"levelo://app?vid=653ab45c-a44f-4551-a2e2-1caf9c29cbef"},"vehicle_type_id":"4","last_reported":1688058409,"current_range_meters":31200,"station_id":"ce4bhbh2rcd13ifvqeo0","pricing_plan_id":"free"},{"bike_id":"d40d10e9-708d-415e-8484-dc1f67ff8c92","system_id":"levelo_inurba_marseille","lat":43.273609,"lon":5.362708,"is_reserved":false,"is_disabled":false,"rental_uris":{"android":"levelo://app?vid=d40d10e9-708d-415e-8484-dc1f67ff8c92","ios":"levelo://app?vid=d40d10e9-708d-415e-8484-dc1f67ff8c92"},"vehicle_type_id":"4","last_reported":1688058409,"current_range_meters":31600,"station_id":"ce4bhbh2rcd13ifvqeo0","pricing_plan_id":"free"},{"bike_id":"121eb30d-4069-432b-9ae3-44beecbd4e92","system_id":"levelo_inurba_marseille","lat":43.273732,"lon":5.362615,"is_reserved":false,"is_disabled":false,"rental_uris":{"android":"levelo://app?vid=121eb30d-4069-432b-9ae3-44beecbd4e92","ios":"levelo://app?vid=121eb30d-4069-432b-9ae3-44beecbd4e92"},"vehicle_type_id":"4","last_reported":1688058409,"current_range_meters":19200,"station_id":"ce4bhbh2rcd13ifvqeo0","pricing_plan_id":"free"},{"bike_id":"3cbf5491-15cf-45c3-9c50-4aa9d5a6421b","system_id":"levelo_inurba_marseille","lat":43.273609,"lon":5.362708,"is_reserved":false,"is_disabled":false,"rental_uris":{"android":"levelo://app?vid=3cbf5491-15cf-45c3-9c50-4aa9d5a6421b","ios":"levelo://app?vid=3cbf5491-15cf-45c3-9c50-4aa9d5a6421b"},"vehicle_type_id":"4","last_reported":1688058409,"current_range_meters":32000,"station_id":"ce4bhbh2rcd13ifvqeo0","pricing_plan_id":"free"},{"bike_id":"abdf62ff-468d-455a-a3cd-1048a513d1b3","system_id":"levelo_inurba_marseille","lat":43.273613,"lon":5.362705,"is_reserved":false,"is_disabled":false,"rental_uris":{"android":"levelo://app?vid=abdf62ff-468d-455a-a3cd-1048a513d1b3","ios":"levelo://app?vid=abdf62ff-468d-455a-a3cd-1048a513d1b3"},"vehicle_type_id":"4","last_reported":1688058409,"current_range_meters":20000,"station_id":"ce4bhbh2rcd13ifvqeo0","pricing_plan_id":"free"},{"bike_id":"9a36514e-84d6-4584-a02f-2af6d4493cd0","system_id":"levelo_inurba_marseille","lat":43.273609,"lon":5.362708,"is_reserved":false,"is_disabled":false,"rental_uris":{"android":"levelo://app?vid=9a36514e-84d6-4584-a02f-2af6d4493cd0","ios":"levelo://app?vid=9a36514e-84d6-4584-a02f-2af6d4493cd0"},"vehicle_type_id":"4","last_reported":1688058409,"current_range_meters":31600,"station_id":"ce4bhbh2rcd13ifvqeo0","pricing_plan_id":"free"},{"bike_id":"fac581a7-1867-42ed-8b79-bb13f704b631","system_id":"levelo_inurba_marseille","lat":43.273613,"lon":5.362705,"is_reserved":false,"is_disabled":false,"rental_uris":{"android":"levelo://app?vid=fac581a7-1867-42ed-8b79-bb13f704b631","ios":"levelo://app?vid=fac581a7-1867-42ed-8b79-bb13f704b631"},"vehicle_type_id":"4","last_reported":1688058409,"current_range_meters":31600,"station_id":"ce4bhbh2rcd13ifvqeo0","pricing_plan_id":"free"},{"bike_id":"acc93ae4-0498-4d2c-b17a-4a80b395dc65","system_id":"levelo_inurba_marseille","lat":43.27371,"lon":5.36258,"is_reserved":false,"is_disabled":false,"rental_uris":{"android":"levelo://app?vid=acc93ae4-0498-4d2c-b17a-4a80b395dc65","ios":"levelo://app?vid=acc93ae4-0498-4d2c-b17a-4a80b395dc65"},"vehicle_type_id":"4","last_reported":1688058409,"current_range_meters":6800,"station_id":"ce4bhbh2rcd13ifvqeo0","pricing_plan_id":"free"},{"bike_id":"4924939c-7b1d-4c1d-9f7d-0d48923e80a0","system_id":"levelo_inurba_marseille","lat":43.273613,"lon":5.362705,"is_reserved":false,"is_disabled":false,"rental_uris":{"android":"levelo://app?vid=4924939c-7b1d-4c1d-9f7d-0d48923e80a0","ios":"levelo://app?vid=4924939c-7b1d-4c1d-9f7d-0d48923e80a0"},"vehicle_type_id":"4","last_reported":1688058409,"current_range_meters":10000,"station_id":"ce4bhbh2rcd13ifvqeo0","pricing_plan_id":"free"},{"bike_id":"2274a7db-248f-439b-b6bb-8f731a349eac","system_id":"levelo_inurba_marseille","lat":43.336134,"lon":5.410341,"is_reserved":false,"is_disabled":false,"rental_uris":{"android":"levelo://app?vid=2274a7db-248f-439b-b6bb-8f731a349eac","ios":"levelo://app?vid=2274a7db-248f-439b-b6bb-8f731a349eac"},"vehicle_type_id":"4","last_reported":1688058409,"current_range_meters":31200,"station_id":"ce4bhqh2rcd13ifvqhmg","pricing_plan_id":"free"},{"bike_id":"052a5033-be96-49b7-803d-dde46a8d0454","system_id":"levelo_inurba_marseille","lat":43.317121,"lon":5.423936,"is_reserved":false,"is_disabled":false,"rental_uris":{"android":"levelo://app?vid=052a5033-be96-49b7-803d-dde46a8d0454","ios":"levelo://app?vid=052a5033-be96-49b7-803d-dde46a8d0454"},"vehicle_type_id":"4","last_reported":1688058409,"current_range_meters":13200,"station_id":"ce4bhp92rcd13ifvqhbg","pricing_plan_id":"free"},{"bike_id":"263b5c00-99fa-4372-8300-df5683be4aca","system_id":"levelo_inurba_marseille","lat":43.3108,"lon":5.4243,"is_reserved":false,"is_disabled":false,"rental_uris":{"android":"levelo://app?vid=263b5c00-99fa-4372-8300-df5683be4aca","ios":"levelo://app?vid=263b5c00-99fa-4372-8300-df5683be4aca"},"vehicle_type_id":"4","last_reported":1688058409,"current_range_meters":25200,"station_id":"ce4bhp92rcd13ifvqhag","pricing_plan_id":"free"},{"bike_id":"6d33ccee-42e0-43aa-8805-7b05ffe7adb4","system_id":"levelo_inurba_marseille","lat":43.310785,"lon":5.424305,"is_reserved":false,"is_disabled":false,"rental_uris":{"android":"levelo://app?vid=6d33ccee-42e0-43aa-8805-7b05ffe7adb4","ios":"levelo://app?vid=6d33ccee-42e0-43aa-8805-7b05ffe7adb4"},"vehicle_type_id":"4","last_reported":1688058409,"current_range_meters":19600,"station_id":"ce4bhp92rcd13ifvqhag","pricing_plan_id":"free"},{"bike_id":"3bde4efe-8e33-42a2-b8b0-3e876b264f85","system_id":"levelo_inurba_marseille","lat":43.26808,"lon":5.37124,"is_reserved":false,"is_disabled":false,"rental_uris":{"android":"levelo://app?vid=3bde4efe-8e33-42a2-b8b0-3e876b264f85","ios":"levelo://app?vid=3bde4efe-8e33-42a2-b8b0-3e876b264f85"},"vehicle_type_id":"4","last_reported":1688058409,"current_range_meters":27200,"station_id":"","pricing_plan_id":"free"},{"bike_id":"491706f6-73af-494d-af43-532f57fe3aa0","system_id":"levelo_inurba_marseille","lat":43.278128,"lon":5.407195,"is_reserved":false,"is_disabled":false,"rental_uris":{"android":"levelo://app?vid=491706f6-73af-494d-af43-532f57fe3aa0","ios":"levelo://app?vid=491706f6-73af-494d-af43-532f57fe3aa0"},"vehicle_type_id":"4","last_reported":1688058409,"current_range_meters":0,"station_id":"ce4bhnh2rcd13ifvqgtg","pricing_plan_id":"free"},{"bike_id":"f2ec504a-1bd0-42c9-830a-246d266fad58","system_id":"levelo_inurba_marseille","lat":43.278128,"lon":5.407195,"is_reserved":false,"is_disabled":false,"rental_uris":{"android":"levelo://app?vid=f2ec504a-1bd0-42c9-830a-246d266fad58","ios":"levelo://app?vid=f2ec504a-1bd0-42c9-830a-246d266fad58"},"vehicle_type_id":"4","last_reported":1688058409,"current_range_meters":18000,"station_id":"ce4bhnh2rcd13ifvqgtg","pricing_plan_id":"free"},{"bike_id":"d4f4e7d7-e00e-4e1a-8b4e-bf76b9a30056","system_id":"levelo_inurba_marseille","lat":43.26964,"lon":5.38632,"is_reserved":false,"is_disabled":false,"rental_uris":{"android":"levelo://app?vid=d4f4e7d7-e00e-4e1a-8b4e-bf76b9a30056","ios":"levelo://app?vid=d4f4e7d7-e00e-4e1a-8b4e-bf76b9a30056"},"vehicle_type_id":"4","last_reported":1688058409,"current_range_meters":11200,"station_id":"ce4bhh92rcd13ifvqfh0","pricing_plan_id":"free"},{"bike_id":"77bd9a8b-778d-4ef2-a89e-6803b5b3884b","system_id":"levelo_inurba_marseille","lat":43.278128,"lon":5.407195,"is_reserved":false,"is_disabled":false,"rental_uris":{"android":"levelo://app?vid=77bd9a8b-778d-4ef2-a89e-6803b5b3884b","ios":"levelo://app?vid=77bd9a8b-778d-4ef2-a89e-6803b5b3884b"},"vehicle_type_id":"4","last_reported":1688058409,"current_range_meters":13600,"station_id":"ce4bhnh2rcd13ifvqgtg","pricing_plan_id":"free"},{"bike_id":"d8b9c175-b0f7-417f-a925-4c4bcf4a3076","system_id":"levelo_inurba_marseille","lat":43.278128,"lon":5.407195,"is_reserved":false,"is_disabled":false,"rental_uris":{"android":"levelo://app?vid=d8b9c175-b0f7-417f-a925-4c4bcf4a3076","ios":"levelo://app?vid=d8b9c175-b0f7-417f-a925-4c4bcf4a3076"},"vehicle_type_id":"4","last_reported":1688058409,"current_range_meters":14000,"station_id":"ce4bhnh2rcd13ifvqgtg","pricing_plan_id":"free"},{"bike_id":"3ee5e231-1626-4350-9349-27610a9836a2","system_id":"levelo_inurba_marseille","lat":43.278128,"lon":5.407195,"is_reserved":false,"is_disabled":false,"rental_uris":{"android":"levelo://app?vid=3ee5e231-1626-4350-9349-27610a9836a2","ios":"levelo://app?vid=3ee5e231-1626-4350-9349-27610a9836a2"},"vehicle_type_id":"4","last_reported":1688058409,"current_range_meters":26400,"station_id":"ce4bhnh2rcd13ifvqgtg","pricing_plan_id":"free"},{"bike_id":"4fa21102-9c5c-4785-8da0-3d7f957b0c31","system_id":"levelo_inurba_marseille","lat":43.27045,"lon":5.39282,"is_reserved":false,"is_disabled":false,"rental_uris":{"android":"levelo://app?vid=4fa21102-9c5c-4785-8da0-3d7f957b0c31","ios":"levelo://app?vid=4fa21102-9c5c-4785-8da0-3d7f957b0c31"},"vehicle_type_id":"4","last_reported":1688058409,"current_range_meters":25600,"station_id":"","pricing_plan_id":"free"},{"bike_id":"a2af0dfb-8a30-420f-a2fa-6e55a86ab5ed","system_id":"levelo_inurba_marseille","lat":43.26681,"lon":5.382694,"is_reserved":false,"is_disabled":false,"rental_uris":{"android":"levelo://app?vid=a2af0dfb-8a30-420f-a2fa-6e55a86ab5ed","ios":"levelo://app?vid=a2af0dfb-8a30-420f-a2fa-6e55a86ab5ed"},"vehicle_type_id":"4","last_reported":1688058409,"current_range_meters":400,"station_id":"ce4bhg92rcd13ifvqf90","pricing_plan_id":"free"},{"bike_id":"21006d87-759a-4548-8afd-ef7444c87e12","system_id":"levelo_inurba_marseille","lat":43.27996,"lon":5.416624,"is_reserved":false,"is_disabled":false,"rental_uris":{"android":"levelo://app?vid=21006d87-759a-4548-8afd-ef7444c87e12","ios":"levelo://app?vid=21006d87-759a-4548-8afd-ef7444c87e12"},"vehicle_type_id":"4","last_reported":1688058409,"current_range_meters":3600,"station_id":"ce4bho12rcd13ifvqh1g","pricing_plan_id":"free"},{"bike_id":"e38c64eb-ace5-41ee-8b6e-d37e0c7b4203","system_id":"levelo_inurba_marseille","lat":43.26791,"lon":5.39412,"is_reserved":false,"is_disabled":false,"rental_uris":{"android":"levelo://app?vid=e38c64eb-ace5-41ee-8b6e-d37e0c7b4203","ios":"levelo://app?vid=e38c64eb-ace5-41ee-8b6e-d37e0c7b4203"},"vehicle_type_id":"4","last_reported":1688058409,"current_range_meters":0,"station_id":"ce4bhh12rcd13ifvqfg0","pricing_plan_id":"free"},{"bike_id":"1f3e26ec-4909-44b8-95a4-e1b7fa585a8f","system_id":"levelo_inurba_marseille","lat":43.265569,"lon":5.390047,"is_reserved":false,"is_disabled":false,"rental_uris":{"android":"levelo://app?vid=1f3e26ec-4909-44b8-95a4-e1b7fa585a8f","ios":"levelo://app?vid=1f3e26ec-4909-44b8-95a4-e1b7fa585a8f"},"vehicle_type_id":"4","last_reported":1688058409,"current_range_meters":4000,"station_id":"ce4bhe12rcd13ifvqf30","pricing_plan_id":"free"},{"bike_id":"550d987d-3329-44d7-9342-fca4426edafa","system_id":"levelo_inurba_marseille","lat":43.26198,"lon":5.37436,"is_reserved":false,"is_disabled":false,"rental_uris":{"android":"levelo://app?vid=550d987d-3329-44d7-9342-fca4426edafa","ios":"levelo://app?vid=550d987d-3329-44d7-9342-fca4426edafa"},"vehicle_type_id":"4","last_reported":1688058409,"current_range_meters":31200,"station_id":"ce4bhgp2rcd13ifvqfc0","pricing_plan_id":"free"},{"bike_id":"1400cca6-9bc3-42cb-8954-e21c2552d812","system_id":"levelo_inurba_marseille","lat":43.261782,"lon":5.374515,"is_reserved":false,"is_disabled":false,"rental_uris":{"android":"levelo://app?vid=1400cca6-9bc3-42cb-8954-e21c2552d812","ios":"levelo://app?vid=1400cca6-9bc3-42cb-8954-e21c2552d812"},"vehicle_type_id":"4","last_reported":1688058409,"current_range_meters":14400,"station_id":"ce4bhgp2rcd13ifvqfc0","pricing_plan_id":"free"},{"bike_id":"cb8c6b74-e5ca-47c1-a4b2-8dd5dd880c38","system_id":"levelo_inurba_marseille","lat":43.261782,"lon":5.374515,"is_reserved":false,"is_disabled":false,"rental_uris":{"android":"levelo://app?vid=cb8c6b74-e5ca-47c1-a4b2-8dd5dd880c38","ios":"levelo://app?vid=cb8c6b74-e5ca-47c1-a4b2-8dd5dd880c38"},"vehicle_type_id":"4","last_reported":1688058409,"current_range_meters":0,"station_id":"ce4bhgp2rcd13ifvqfc0","pricing_plan_id":"free"},{"bike_id":"9085cff7-db04-4b20-ae0d-b5507f0960dd","system_id":"levelo_inurba_marseille","lat":43.27187,"lon":5.40995,"is_reserved":false,"is_disabled":false,"rental_uris":{"android":"levelo://app?vid=9085cff7-db04-4b20-ae0d-b5507f0960dd","ios":"levelo://app?vid=9085cff7-db04-4b20-ae0d-b5507f0960dd"},"vehicle_type_id":"4","last_reported":1688058409,"current_range_meters":27600,"station_id":"","pricing_plan_id":"free"},{"bike_id":"7cb5bb70-d5da-4644-aec3-e2b6495172b8","system_id":"levelo_inurba_marseille","lat":43.27185,"lon":5.40993,"is_reserved":false,"is_disabled":false,"rental_uris":{"android":"levelo://app?vid=7cb5bb70-d5da-4644-aec3-e2b6495172b8","ios":"levelo://app?vid=7cb5bb70-d5da-4644-aec3-e2b6495172b8"},"vehicle_type_id":"4","last_reported":1688058409,"current_range_meters":24400,"station_id":"","pricing_plan_id":"free"},{"bike_id":"97e5fc5c-4941-4e1c-a7c5-2007ac0cc167","system_id":"levelo_inurba_marseille","lat":43.26202,"lon":5.379299,"is_reserved":false,"is_disabled":false,"rental_uris":{"android":"levelo://app?vid=97e5fc5c-4941-4e1c-a7c5-2007ac0cc167","ios":"levelo://app?vid=97e5fc5c-4941-4e1c-a7c5-2007ac0cc167"},"vehicle_type_id":"4","last_reported":1688058409,"current_range_meters":20000,"station_id":"ce4bhjp2rcd13ifvqg90","pricing_plan_id":"free"},{"bike_id":"fdebd92b-3c38-4eff-916c-e94408bb5b09","system_id":"levelo_inurba_marseille","lat":43.27181,"lon":5.40994,"is_reserved":false,"is_disabled":false,"rental_uris":{"android":"levelo://app?vid=fdebd92b-3c38-4eff-916c-e94408bb5b09","ios":"levelo://app?vid=fdebd92b-3c38-4eff-916c-e94408bb5b09"},"vehicle_type_id":"4","last_reported":1688058409,"current_range_meters":28800,"station_id":"","pricing_plan_id":"free"},{"bike_id":"210fe184-08d6-4dcc-9132-a2fc3f575b20","system_id":"levelo_inurba_marseille","lat":43.27171,"lon":5.40993,"is_reserved":false,"is_disabled":false,"rental_uris":{"android":"levelo://app?vid=210fe184-08d6-4dcc-9132-a2fc3f575b20","ios":"levelo://app?vid=210fe184-08d6-4dcc-9132-a2fc3f575b20"},"vehicle_type_id":"4","last_reported":1688058409,"current_range_meters":31200,"station_id":"","pricing_plan_id":"free"},{"bike_id":"ce5e5b69-c61e-4718-b9f7-e99357873131","system_id":"levelo_inurba_marseille","lat":43.27167,"lon":5.40995,"is_reserved":false,"is_disabled":false,"rental_uris":{"android":"levelo://app?vid=ce5e5b69-c61e-4718-b9f7-e99357873131","ios":"levelo://app?vid=ce5e5b69-c61e-4718-b9f7-e99357873131"},"vehicle_type_id":"4","last_reported":1688058409,"current_range_meters":29600,"station_id":"","pricing_plan_id":"free"},{"bike_id":"b95d1139-3616-4ff7-a1df-399b150308b9","system_id":"levelo_inurba_marseille","lat":43.2614,"lon":5.37493,"is_reserved":false,"is_disabled":false,"rental_uris":{"android":"levelo://app?vid=b95d1139-3616-4ff7-a1df-399b150308b9","ios":"levelo://app?vid=b95d1139-3616-4ff7-a1df-399b150308b9"},"vehicle_type_id":"4","last_reported":1688058409,"current_range_meters":3200,"station_id":"","pricing_plan_id":"free"},{"bike_id":"a883d251-70bd-4b3b-ad5c-2b57cc81253e","system_id":"levelo_inurba_marseille","lat":43.267959,"lon":5.402685,"is_reserved":false,"is_disabled":false,"rental_uris":{"android":"levelo://app?vid=a883d251-70bd-4b3b-ad5c-2b57cc81253e","ios":"levelo://app?vid=a883d251-70bd-4b3b-ad5c-2b57cc81253e"},"vehicle_type_id":"4","last_reported":1688058409,"current_range_meters":26400,"station_id":"ce501612rcd8frsf0b60","pricing_plan_id":"free"},{"bike_id":"74a199ec-882c-4627-b3ef-bbc58dc931fa","system_id":"levelo_inurba_marseille","lat":43.267959,"lon":5.402687,"is_reserved":false,"is_disabled":false,"rental_uris":{"android":"levelo://app?vid=74a199ec-882c-4627-b3ef-bbc58dc931fa","ios":"levelo://app?vid=74a199ec-882c-4627-b3ef-bbc58dc931fa"},"vehicle_type_id":"4","last_reported":1688058409,"current_range_meters":16800,"station_id":"ce501612rcd8frsf0b60","pricing_plan_id":"free"},{"bike_id":"f8306dfd-0b49-4b7e-b74c-eac4720a0acd","system_id":"levelo_inurba_marseille","lat":43.267959,"lon":5.402685,"is_reserved":false,"is_disabled":false,"rental_uris":{"android":"levelo://app?vid=f8306dfd-0b49-4b7e-b74c-eac4720a0acd","ios":"levelo://app?vid=f8306dfd-0b49-4b7e-b74c-eac4720a0acd"},"vehicle_type_id":"4","last_reported":1688058409,"current_range_meters":5200,"station_id":"ce501612rcd8frsf0b60","pricing_plan_id":"free"},{"bike_id":"a385a344-c187-46a6-83b0-a8b641f14c83","system_id":"levelo_inurba_marseille","lat":43.267959,"lon":5.402687,"is_reserved":false,"is_disabled":false,"rental_uris":{"android":"levelo://app?vid=a385a344-c187-46a6-83b0-a8b641f14c83","ios":"levelo://app?vid=a385a344-c187-46a6-83b0-a8b641f14c83"},"vehicle_type_id":"4","last_reported":1688058409,"current_range_meters":4000,"station_id":"ce501612rcd8frsf0b60","pricing_plan_id":"free"},{"bike_id":"8b41bd47-1ea5-4e9a-a54d-d5dec7b8a076","system_id":"levelo_inurba_marseille","lat":43.267959,"lon":5.402687,"is_reserved":false,"is_disabled":false,"rental_uris":{"android":"levelo://app?vid=8b41bd47-1ea5-4e9a-a54d-d5dec7b8a076","ios":"levelo://app?vid=8b41bd47-1ea5-4e9a-a54d-d5dec7b8a076"},"vehicle_type_id":"4","last_reported":1688058409,"current_range_meters":14800,"station_id":"ce501612rcd8frsf0b60","pricing_plan_id":"free"},{"bike_id":"613690e3-fa93-43cb-bc15-151a5369911d","system_id":"levelo_inurba_marseille","lat":43.260225,"lon":5.375455,"is_reserved":false,"is_disabled":false,"rental_uris":{"android":"levelo://app?vid=613690e3-fa93-43cb-bc15-151a5369911d","ios":"levelo://app?vid=613690e3-fa93-43cb-bc15-151a5369911d"},"vehicle_type_id":"4","last_reported":1688058409,"current_range_meters":31200,"station_id":"ce4bhgh2rcd13ifvqfa0","pricing_plan_id":"free"},{"bike_id":"5cbb6d58-b579-4d8d-aa3d-be5594ced430","system_id":"levelo_inurba_marseille","lat":43.260219,"lon":5.37546,"is_reserved":false,"is_disabled":false,"rental_uris":{"android":"levelo://app?vid=5cbb6d58-b579-4d8d-aa3d-be5594ced430","ios":"levelo://app?vid=5cbb6d58-b579-4d8d-aa3d-be5594ced430"},"vehicle_type_id":"4","last_reported":1688058409,"current_range_meters":30000,"station_id":"ce4bhgh2rcd13ifvqfa0","pricing_plan_id":"free"},{"bike_id":"812666e7-5b04-41cb-85c2-d2b0056e2e69","system_id":"levelo_inurba_marseille","lat":43.260219,"lon":5.37546,"is_reserved":false,"is_disabled":false,"rental_uris":{"android":"levelo://app?vid=812666e7-5b04-41cb-85c2-d2b0056e2e69","ios":"levelo://app?vid=812666e7-5b04-41cb-85c2-d2b0056e2e69"},"vehicle_type_id":"4","last_reported":1688058409,"current_range_meters":24400,"station_id":"ce4bhgh2rcd13ifvqfa0","pricing_plan_id":"free"},{"bike_id":"dd40cb6f-9840-4bb8-92cf-df27e61a10dd","system_id":"levelo_inurba_marseille","lat":43.260219,"lon":5.37546,"is_reserved":false,"is_disabled":false,"rental_uris":{"android":"levelo://app?vid=dd40cb6f-9840-4bb8-92cf-df27e61a10dd","ios":"levelo://app?vid=dd40cb6f-9840-4bb8-92cf-df27e61a10dd"},"vehicle_type_id":"4","last_reported":1688058409,"current_range_meters":1200,"station_id":"ce4bhgh2rcd13ifvqfa0","pricing_plan_id":"free"},{"bike_id":"d0565cf1-5665-447a-87bf-260c2cc79d4b","system_id":"levelo_inurba_marseille","lat":43.25965,"lon":5.37528,"is_reserved":false,"is_disabled":false,"rental_uris":{"android":"levelo://app?vid=d0565cf1-5665-447a-87bf-260c2cc79d4b","ios":"levelo://app?vid=d0565cf1-5665-447a-87bf-260c2cc79d4b"},"vehicle_type_id":"4","last_reported":1688058409,"current_range_meters":2000,"station_id":"","pricing_plan_id":"free"},{"bike_id":"b131505b-11b1-4465-add9-09a94dd06e7d","system_id":"levelo_inurba_marseille","lat":43.275028,"lon":5.424534,"is_reserved":false,"is_disabled":false,"rental_uris":{"android":"levelo://app?vid=b131505b-11b1-4465-add9-09a94dd06e7d","ios":"levelo://app?vid=b131505b-11b1-4465-add9-09a94dd06e7d"},"vehicle_type_id":"4","last_reported":1688058409,"current_range_meters":25200,"station_id":"ce4bhn92rcd13ifvqgrg","pricing_plan_id":"free"},{"bike_id":"8405e39d-965d-4ef8-ba37-a68a3e5ccaa2","system_id":"levelo_inurba_marseille","lat":43.275028,"lon":5.424534,"is_reserved":false,"is_disabled":false,"rental_uris":{"android":"levelo://app?vid=8405e39d-965d-4ef8-ba37-a68a3e5ccaa2","ios":"levelo://app?vid=8405e39d-965d-4ef8-ba37-a68a3e5ccaa2"},"vehicle_type_id":"4","last_reported":1688058409,"current_range_meters":2800,"station_id":"ce4bhn92rcd13ifvqgrg","pricing_plan_id":"free"},{"bike_id":"6cc8c126-734e-43ae-926a-bddde20c9bc3","system_id":"levelo_inurba_marseille","lat":43.255756,"lon":5.382303,"is_reserved":false,"is_disabled":false,"rental_uris":{"android":"levelo://app?vid=6cc8c126-734e-43ae-926a-bddde20c9bc3","ios":"levelo://app?vid=6cc8c126-734e-43ae-926a-bddde20c9bc3"},"vehicle_type_id":"4","last_reported":1688058409,"current_range_meters":19600,"station_id":"ce4bhih2rcd13ifvqfs0","pricing_plan_id":"free"},{"bike_id":"0cc3bad3-385a-4fd5-9a56-9b61f9baced9","system_id":"levelo_inurba_marseille","lat":43.255756,"lon":5.382303,"is_reserved":false,"is_disabled":false,"rental_uris":{"android":"levelo://app?vid=0cc3bad3-385a-4fd5-9a56-9b61f9baced9","ios":"levelo://app?vid=0cc3bad3-385a-4fd5-9a56-9b61f9baced9"},"vehicle_type_id":"4","last_reported":1688058409,"current_range_meters":30000,"station_id":"ce4bhih2rcd13ifvqfs0","pricing_plan_id":"free"},{"bike_id":"f8c9e03c-abc6-4415-b602-a6c81355b734","system_id":"levelo_inurba_marseille","lat":43.255756,"lon":5.382303,"is_reserved":false,"is_disabled":false,"rental_uris":{"android":"levelo://app?vid=f8c9e03c-abc6-4415-b602-a6c81355b734","ios":"levelo://app?vid=f8c9e03c-abc6-4415-b602-a6c81355b734"},"vehicle_type_id":"4","last_reported":1688058409,"current_range_meters":31200,"station_id":"ce4bhih2rcd13ifvqfs0","pricing_plan_id":"free"},{"bike_id":"6d2ef244-74c3-41a9-8ae4-56fd4f47dd10","system_id":"levelo_inurba_marseille","lat":43.255756,"lon":5.382303,"is_reserved":false,"is_disabled":false,"rental_uris":{"android":"levelo://app?vid=6d2ef244-74c3-41a9-8ae4-56fd4f47dd10","ios":"levelo://app?vid=6d2ef244-74c3-41a9-8ae4-56fd4f47dd10"},"vehicle_type_id":"4","last_reported":1688058409,"current_range_meters":14000,"station_id":"ce4bhih2rcd13ifvqfs0","pricing_plan_id":"free"},{"bike_id":"446f43b6-f912-42dc-8088-a68075a98106","system_id":"levelo_inurba_marseille","lat":43.255756,"lon":5.382303,"is_reserved":false,"is_disabled":false,"rental_uris":{"android":"levelo://app?vid=446f43b6-f912-42dc-8088-a68075a98106","ios":"levelo://app?vid=446f43b6-f912-42dc-8088-a68075a98106"},"vehicle_type_id":"4","last_reported":1688058409,"current_range_meters":18000,"station_id":"ce4bhih2rcd13ifvqfs0","pricing_plan_id":"free"},{"bike_id":"0626d266-4724-4b86-8b99-555758dbf047","system_id":"levelo_inurba_marseille","lat":43.25578,"lon":5.38234,"is_reserved":false,"is_disabled":false,"rental_uris":{"android":"levelo://app?vid=0626d266-4724-4b86-8b99-555758dbf047","ios":"levelo://app?vid=0626d266-4724-4b86-8b99-555758dbf047"},"vehicle_type_id":"4","last_reported":1688058409,"current_range_meters":13200,"station_id":"ce4bhih2rcd13ifvqfs0","pricing_plan_id":"free"},{"bike_id":"dff94736-bada-4486-8c39-6753fdcbee08","system_id":"levelo_inurba_marseille","lat":43.255756,"lon":5.382303,"is_reserved":false,"is_disabled":false,"rental_uris":{"android":"levelo://app?vid=dff94736-bada-4486-8c39-6753fdcbee08","ios":"levelo://app?vid=dff94736-bada-4486-8c39-6753fdcbee08"},