{"last_updated":1736287717,"ttl":60,"version":"2.2","data":{"bikes":[{"bike_id":"89421f62-06fd-4b68-bcb1-b94fd7ea6d26","system_id":"levelo_inurba_marseille","lat":43.32369,"lon":5.38913,"is_reserved":false,"is_disabled":false,"rental_uris":{"android":"levelo://app?vid=89421f62-06fd-4b68-bcb1-b94fd7ea6d26","ios":"levelo://app?vid=89421f62-06fd-4b68-bcb1-b94fd7ea6d26"},"vehicle_type_id":"4","last_reported":1736287717,"current_range_meters":21600,"station_id":"ce4bhqp2rcd13ifvqhog","pricing_plan_id":"cebpf4jnsgd1na2vs0mg"},{"bike_id":"e5028c33-9f8e-4ac3-a14c-e67e8c232bdb","system_id":"levelo_inurba_marseille","lat":43.27816,"lon":5.40722,"is_reserved":false,"is_disabled":false,"rental_uris":{"android":"levelo://app?vid=e5028c33-9f8e-4ac3-a14c-e67e8c232bdb","ios":"levelo://app?vid=e5028c33-9f8e-4ac3-a14c-e67e8c232bdb"},"vehicle_type_id":"4","last_reported":1736287717,"current_range_meters":28800,"station_id":"ce4bhnh2rcd13ifvqgtg","pricing_plan_id":"cebpf4jnsgd1na2vs0mg"},{"bike_id":"2cd7da98-beb8-4895-acea-89cb723504ca","system_id":"levelo_inurba_marseille","lat":43.28259,"lon":5.35047,"is_reserved":false,"is_disabled":false,"rental_uris":{"android":"levelo://app?vid=2cd7da98-beb8-4895-acea-89cb723504ca","ios":"levelo://app?vid=2cd7da98-beb8-4895-acea-89cb723504ca"},"vehicle_type_id":"4","last_reported":1736287717,"current_range_meters":24400,"station_id":"ce4bhbp2rcd13ifvqerg","pricing_plan_id":"cebpf4jnsgd1na2vs0mg"},{"bike_id":"bb4f1197-0f5b-4648-9cf8-9e2d759a1085","system_id":"levelo_inurba_marseille","lat":43.26952,"lon":5.38626,"is_reserved":false,"is_disabled":false,"rental_uris":{"android":"levelo://app?vid=bb4f1197-0f5b-4648-9cf8-9e2d759a1085","ios":"levelo://app?vid=bb4f1197-0f5b-4648-9cf8-9e2d759a1085"},"vehicle_type_id":"4","last_reported":1736287717,"current_range_meters":29600,"station_id":"ce4bhh92rcd13ifvqfh0","pricing_plan_id":"cebpf4jnsgd1na2vs0mg"},{"bike_id":"f9aababe-afdf-4fd3-a1be-fb744037173a","system_id":"levelo_inurba_marseille","lat":43.29876,"lon":5.39766,"is_reserved":false,"is_disabled":false,"rental_uris":{"android":"levelo://app?vid=f9aababe-afdf-4fd3-a1be-fb744037173a","ios":"levelo://app?vid=f9aababe-afdf-4fd3-a1be-fb744037173a"},"vehicle_type_id":"4","last_reported":1736287717,"current_range_meters":16000,"station_id":"ce4bh0h2rcd13ifvqd50","pricing_plan_id":"cebpf4jnsgd1na2vs0mg"},{"bike_id":"4a732246-ae68-4ce5-81e6-c1c0fdd801cc","system_id":"levelo_inurba_marseille","lat":43.29072,"lon":5.37168,"is_reserved":false,"is_disabled":false,"rental_uris":{"android":"levelo://app?vid=4a732246-ae68-4ce5-81e6-c1c0fdd801cc","ios":"levelo://app?vid=4a732246-ae68-4ce5-81e6-c1c0fdd801cc"},"vehicle_type_id":"4","last_reported":1736287717,"current_range_meters":30400,"station_id":"ce4bh5p2rcd13ifvqe4g","pricing_plan_id":"cebpf4jnsgd1na2vs0mg"},{"bike_id":"3f1eecaf-04c7-43f3-a2d1-52def2308045","system_id":"levelo_inurba_marseille","lat":43.30613,"lon":5.37218,"is_reserved":false,"is_disabled":false,"rental_uris":{"android":"levelo://app?vid=3f1eecaf-04c7-43f3-a2d1-52def2308045","ios":"levelo://app?vid=3f1eecaf-04c7-43f3-a2d1-52def2308045"},"vehicle_type_id":"4","last_reported":1736287717,"current_range_meters":38000,"station_id":"ce4bgqh2rcd13ifvqc4g","pricing_plan_id":"cebpf4jnsgd1na2vs0mg"},{"bike_id":"1c2c3464-8b3a-4eab-9fdd-fd6c6e2d5657","system_id":"levelo_inurba_marseille","lat":43.28688,"lon":5.38678,"is_reserved":false,"is_disabled":false,"rental_uris":{"android":"levelo://app?vid=1c2c3464-8b3a-4eab-9fdd-fd6c6e2d5657","ios":"levelo://app?vid=1c2c3464-8b3a-4eab-9fdd-fd6c6e2d5657"},"vehicle_type_id":"4","last_reported":1736287717,"current_range_meters":38800,"station_id":"ce4bh492rcd13ifvqdug","pricing_plan_id":"cebpf4jnsgd1na2vs0mg"},{"bike_id":"a289fb1b-5f21-48af-a806-ce60b8382da2","system_id":"levelo_inurba_marseille","lat":43.22924,"lon":5.35372,"is_reserved":false,"is_disabled":false,"rental_uris":{"android":"levelo://app?vid=a289fb1b-5f21-48af-a806-ce60b8382da2","ios":"levelo://app?vid=a289fb1b-5f21-48af-a806-ce60b8382da2"},"vehicle_type_id":"4","last_reported":1736287717,"current_range_meters":8000,"station_id":"cpo3532slgdg3j2ikp40","pricing_plan_id":"cebpf4jnsgd1na2vs0mg"},{"bike_id":"6a1ae31a-27ef-4a2d-9f21-f3fae30e6a70","system_id":"levelo_inurba_marseille","lat":43.30887,"lon":5.39645,"is_reserved":false,"is_disabled":false,"rental_uris":{"android":"levelo://app?vid=6a1ae31a-27ef-4a2d-9f21-f3fae30e6a70","ios":"levelo://app?vid=6a1ae31a-27ef-4a2d-9f21-f3fae30e6a70"},"vehicle_type_id":"4","last_reported":1736287717,"current_range_meters":32800,"station_id":"ce4bh012rcd13ifvqcv0","pricing_plan_id":"cebpf4jnsgd1na2vs0mg"},{"bike_id":"0c06f679-85b2-4f8b-8237-3c1bdba6d34d","system_id":"levelo_inurba_marseille","lat":43.27191,"lon":5.41004,"is_reserved":false,"is_disabled":false,"rental_uris":{"android":"levelo://app?vid=0c06f679-85b2-4f8b-8237-3c1bdba6d34d","ios":"levelo://app?vid=0c06f679-85b2-4f8b-8237-3c1bdba6d34d"},"vehicle_type_id":"4","last_reported":1736287717,"current_range_meters":38800,"station_id":"ce4bhl12rcd13ifvqgf0","pricing_plan_id":"cebpf4jnsgd1na2vs0mg"},{"bike_id":"05a2c15a-fb68-455c-8082-fdf747a62fe7","system_id":"levelo_inurba_marseille","lat":43.27817,"lon":5.407106,"is_reserved":false,"is_disabled":false,"rental_uris":{"android":"levelo://app?vid=05a2c15a-fb68-455c-8082-fdf747a62fe7","ios":"levelo://app?vid=05a2c15a-fb68-455c-8082-fdf747a62fe7"},"vehicle_type_id":"4","last_reported":1736287717,"current_range_meters":38000,"station_id":"ce4bhnh2rcd13ifvqgtg","pricing_plan_id":"cebpf4jnsgd1na2vs0mg"},{"bike_id":"e5378f9f-c1fa-4845-820f-6ca38787ef63","system_id":"levelo_inurba_marseille","lat":43.27613,"lon":5.36112,"is_reserved":false,"is_disabled":false,"rental_uris":{"android":"levelo://app?vid=e5378f9f-c1fa-4845-820f-6ca38787ef63","ios":"levelo://app?vid=e5378f9f-c1fa-4845-820f-6ca38787ef63"},"vehicle_type_id":"4","last_reported":1736287717,"current_range_meters":29600,"station_id":"ce4bgj92rcd13ifvqbe0","pricing_plan_id":"cebpf4jnsgd1na2vs0mg"},{"bike_id":"2d8e34d9-b80c-45b2-a371-14e66d0ae48a","system_id":"levelo_inurba_marseille","lat":43.24179,"lon":5.39739,"is_reserved":false,"is_disabled":false,"rental_uris":{"android":"levelo://app?vid=2d8e34d9-b80c-45b2-a371-14e66d0ae48a","ios":"levelo://app?vid=2d8e34d9-b80c-45b2-a371-14e66d0ae48a"},"vehicle_type_id":"4","last_reported":1736287717,"current_range_meters":38800,"station_id":"ce4bhn12rcd13ifvqgpg","pricing_plan_id":"cebpf4jnsgd1na2vs0mg"},{"bike_id":"f357d330-5bc7-4567-8dd3-ae3b269aeff7","system_id":"levelo_inurba_marseille","lat":43.29559,"lon":5.4229,"is_reserved":false,"is_disabled":false,"rental_uris":{"android":"levelo://app?vid=f357d330-5bc7-4567-8dd3-ae3b269aeff7","ios":"levelo://app?vid=f357d330-5bc7-4567-8dd3-ae3b269aeff7"},"vehicle_type_id":"4","last_reported":1736287717,"current_range_meters":36400,"station_id":"ce4bhph2rcd13ifvqhdg","pricing_plan_id":"cebpf4jnsgd1na2vs0mg"},{"bike_id":"3fd4e529-bf86-415d-b820-50c8dbc3ecb7","system_id":"levelo_inurba_marseille","lat":43.28679,"lon":5.36365,"is_reserved":false,"is_disabled":false,"rental_uris":{"android":"levelo://app?vid=3fd4e529-bf86-415d-b820-50c8dbc3ecb7","ios":"levelo://app?vid=3fd4e529-bf86-415d-b820-50c8dbc3ecb7"},"vehicle_type_id":"4","last_reported":1736287717,"current_range_meters":38800,"station_id":"ce4bhah2rcd13ifvqej0","pricing_plan_id":"cebpf4jnsgd1na2vs0mg"},{"bike_id":"2e3020fc-739e-484f-aff1-968aa18f2ac1","system_id":"levelo_inurba_marseille","lat":43.27994,"lon":5.41671,"is_reserved":false,"is_disabled":true,"rental_uris":{"android":"levelo://app?vid=2e3020fc-739e-484f-aff1-968aa18f2ac1","ios":"levelo://app?vid=2e3020fc-739e-484f-aff1-968aa18f2ac1"},"vehicle_type_id":"4","last_reported":1736287717,"current_range_meters":33600,"station_id":"ce4bho12rcd13ifvqh1g","pricing_plan_id":"cebpf4jnsgd1na2vs0mg"},{"bike_id":"508712e8-c246-4ef4-9b9e-20f18ed4e9a4","system_id":"levelo_inurba_marseille","lat":43.274978,"lon":5.424466,"is_reserved":false,"is_disabled":false,"rental_uris":{"android":"levelo://app?vid=508712e8-c246-4ef4-9b9e-20f18ed4e9a4","ios":"levelo://app?vid=508712e8-c246-4ef4-9b9e-20f18ed4e9a4"},"vehicle_type_id":"4","last_reported":1736287717,"current_range_meters":18800,"station_id":"ce4bhn92rcd13ifvqgrg","pricing_plan_id":"cebpf4jnsgd1na2vs0mg"},{"bike_id":"f4afa2ed-e636-49ec-898a-9b41e07545e0","system_id":"levelo_inurba_marseille","lat":43.295347,"lon":5.385853,"is_reserved":false,"is_disabled":false,"rental_uris":{"android":"levelo://app?vid=f4afa2ed-e636-49ec-898a-9b41e07545e0","ios":"levelo://app?vid=f4afa2ed-e636-49ec-898a-9b41e07545e0"},"vehicle_type_id":"4","last_reported":1736287717,"current_range_meters":38800,"station_id":"ce4bgih2rcd13ifvqba0","pricing_plan_id":"cebpf4jnsgd1na2vs0mg"},{"bike_id":"5b4a3fcd-2d65-4839-9f2e-f0b46d84bb5e","system_id":"levelo_inurba_marseille","lat":43.26949,"lon":5.38943,"is_reserved":false,"is_disabled":false,"rental_uris":{"android":"levelo://app?vid=5b4a3fcd-2d65-4839-9f2e-f0b46d84bb5e","ios":"levelo://app?vid=5b4a3fcd-2d65-4839-9f2e-f0b46d84bb5e"},"vehicle_type_id":"4","last_reported":1736287717,"current_range_meters":22800,"station_id":"ce4bhhh2rcd13ifvqfl0","pricing_plan_id":"cebpf4jnsgd1na2vs0mg"},{"bike_id":"4ea113f9-9eeb-47a3-a1fd-069eaca1fd9a","system_id":"levelo_inurba_marseille","lat":43.29072,"lon":5.37195,"is_reserved":false,"is_disabled":false,"rental_uris":{"android":"levelo://app?vid=4ea113f9-9eeb-47a3-a1fd-069eaca1fd9a","ios":"levelo://app?vid=4ea113f9-9eeb-47a3-a1fd-069eaca1fd9a"},"vehicle_type_id":"4","last_reported":1736287717,"current_range_meters":39200,"station_id":"ce4bh5p2rcd13ifvqe4g","pricing_plan_id":"cebpf4jnsgd1na2vs0mg"},{"bike_id":"8b7b03a4-76c0-429d-86c4-2cba528f75db","system_id":"levelo_inurba_marseille","lat":43.323624,"lon":5.389049,"is_reserved":false,"is_disabled":true,"rental_uris":{"android":"levelo://app?vid=8b7b03a4-76c0-429d-86c4-2cba528f75db","ios":"levelo://app?vid=8b7b03a4-76c0-429d-86c4-2cba528f75db"},"vehicle_type_id":"4","last_reported":1736287717,"current_range_meters":3600,"station_id":"ce4bhqp2rcd13ifvqhog","pricing_plan_id":"cebpf4jnsgd1na2vs0mg"},{"bike_id":"07ba838a-cac9-436d-bde2-39f5016b7c20","system_id":"levelo_inurba_marseille","lat":43.2782,"lon":5.40721,"is_reserved":false,"is_disabled":false,"rental_uris":{"android":"levelo://app?vid=07ba838a-cac9-436d-bde2-39f5016b7c20","ios":"levelo://app?vid=07ba838a-cac9-436d-bde2-39f5016b7c20"},"vehicle_type_id":"4","last_reported":1736287717,"current_range_meters":36800,"station_id":"ce4bhnh2rcd13ifvqgtg","pricing_plan_id":"cebpf4jnsgd1na2vs0mg"},{"bike_id":"e1d67e76-e9ef-43a5-b307-2704c03519b0","system_id":"levelo_inurba_marseille","lat":43.28923,"lon":5.39701,"is_reserved":false,"is_disabled":false,"rental_uris":{"android":"levelo://app?vid=e1d67e76-e9ef-43a5-b307-2704c03519b0","ios":"levelo://app?vid=e1d67e76-e9ef-43a5-b307-2704c03519b0"},"vehicle_type_id":"4","last_reported":1736287717,"current_range_meters":21600,"station_id":"","pricing_plan_id":"cebpf4jnsgd1na2vs0mg"},{"bike_id":"ad34d3c3-f703-46ca-92c3-8e056f95de84","system_id":"levelo_inurba_marseille","lat":43.28455,"lon":5.35888,"is_reserved":false,"is_disabled":false,"rental_uris":{"android":"levelo://app?vid=ad34d3c3-f703-46ca-92c3-8e056f95de84","ios":"levelo://app?vid=ad34d3c3-f703-46ca-92c3-8e056f95de84"},"vehicle_type_id":"4","last_reported":1736287717,"current_range_meters":11600,"station_id":"ce4bhah2rcd13ifvqei0","pricing_plan_id":"cebpf4jnsgd1na2vs0mg"},{"bike_id":"8d65b2b1-927b-45d9-8b22-6f75685ab908","system_id":"levelo_inurba_marseille","lat":43.23154,"lon":5.43718,"is_reserved":false,"is_disabled":false,"rental_uris":{"android":"levelo://app?vid=8d65b2b1-927b-45d9-8b22-6f75685ab908","ios":"levelo://app?vid=8d65b2b1-927b-45d9-8b22-6f75685ab908"},"vehicle_type_id":"4","last_reported":1736287717,"current_range_meters":38000,"station_id":"ce4bhmp2rcd13ifvqgog","pricing_plan_id":"cebpf4jnsgd1na2vs0mg"},{"bike_id":"f9af2b24-9bf6-497f-b409-d490cf2de712","system_id":"levelo_inurba_marseille","lat":43.28617,"lon":5.35103,"is_reserved":false,"is_disabled":false,"rental_uris":{"android":"levelo://app?vid=f9af2b24-9bf6-497f-b409-d490cf2de712","ios":"levelo://app?vid=f9af2b24-9bf6-497f-b409-d490cf2de712"},"vehicle_type_id":"4","last_reported":1736287717,"current_range_meters":31200,"station_id":"ce4bhch2rcd13ifvqeug","pricing_plan_id":"cebpf4jnsgd1na2vs0mg"},{"bike_id":"8a4c045a-dd75-4b08-85b8-01a9f1b5d499","system_id":"levelo_inurba_marseille","lat":43.31074,"lon":5.3836,"is_reserved":false,"is_disabled":false,"rental_uris":{"android":"levelo://app?vid=8a4c045a-dd75-4b08-85b8-01a9f1b5d499","ios":"levelo://app?vid=8a4c045a-dd75-4b08-85b8-01a9f1b5d499"},"vehicle_type_id":"4","last_reported":1736287717,"current_range_meters":20400,"station_id":"ce4bgv92rcd13ifvqcr0","pricing_plan_id":"cebpf4jnsgd1na2vs0mg"},{"bike_id":"96e6d3ae-d237-4fff-8291-1bde92d383d8","system_id":"levelo_inurba_marseille","lat":43.29921,"lon":5.37474,"is_reserved":false,"is_disabled":false,"rental_uris":{"android":"levelo://app?vid=96e6d3ae-d237-4fff-8291-1bde92d383d8","ios":"levelo://app?vid=96e6d3ae-d237-4fff-8291-1bde92d383d8"},"vehicle_type_id":"4","last_reported":1736287717,"current_range_meters":30000,"station_id":"ce4bgjh2rcd13ifvqbg0","pricing_plan_id":"cebpf4jnsgd1na2vs0mg"},{"bike_id":"8e69fd07-fa50-4941-a1e0-41e0e871c852","system_id":"levelo_inurba_marseille","lat":43.28412,"lon":5.37516,"is_reserved":false,"is_disabled":false,"rental_uris":{"android":"levelo://app?vid=8e69fd07-fa50-4941-a1e0-41e0e871c852","ios":"levelo://app?vid=8e69fd07-fa50-4941-a1e0-41e0e871c852"},"vehicle_type_id":"4","last_reported":1736287717,"current_range_meters":38800,"station_id":"ce4bh412rcd13ifvqds0","pricing_plan_id":"cebpf4jnsgd1na2vs0mg"},{"bike_id":"e234c05e-ad7c-4a80-b77e-0f5f2642c720","system_id":"levelo_inurba_marseille","lat":43.28461,"lon":5.35883,"is_reserved":false,"is_disabled":false,"rental_uris":{"android":"levelo://app?vid=e234c05e-ad7c-4a80-b77e-0f5f2642c720","ios":"levelo://app?vid=e234c05e-ad7c-4a80-b77e-0f5f2642c720"},"vehicle_type_id":"4","last_reported":1736287717,"current_range_meters":23200,"station_id":"ce4bhah2rcd13ifvqei0","pricing_plan_id":"cebpf4jnsgd1na2vs0mg"},{"bike_id":"c023aed8-c4af-47de-bf55-7ec6cfb1c879","system_id":"levelo_inurba_marseille","lat":43.26198,"lon":5.3744,"is_reserved":false,"is_disabled":true,"rental_uris":{"android":"levelo://app?vid=c023aed8-c4af-47de-bf55-7ec6cfb1c879","ios":"levelo://app?vid=c023aed8-c4af-47de-bf55-7ec6cfb1c879"},"vehicle_type_id":"4","last_reported":1736287717,"current_range_meters":26000,"station_id":"ce4bhgp2rcd13ifvqfc0","pricing_plan_id":"cebpf4jnsgd1na2vs0mg"},{"bike_id":"85a69695-8910-4e9b-be2e-1c4e4b65a0e7","system_id":"levelo_inurba_marseille","lat":43.24649,"lon":5.38873,"is_reserved":false,"is_disabled":false,"rental_uris":{"android":"levelo://app?vid=85a69695-8910-4e9b-be2e-1c4e4b65a0e7","ios":"levelo://app?vid=85a69695-8910-4e9b-be2e-1c4e4b65a0e7"},"vehicle_type_id":"4","last_reported":1736287717,"current_range_meters":38800,"station_id":"ce4bhg12rcd13ifvqf60","pricing_plan_id":"cebpf4jnsgd1na2vs0mg"},{"bike_id":"f5477bd9-ae2b-4f4a-90d2-43e1d2905a20","system_id":"levelo_inurba_marseille","lat":43.28434,"lon":5.34997,"is_reserved":false,"is_disabled":false,"rental_uris":{"android":"levelo://app?vid=f5477bd9-ae2b-4f4a-90d2-43e1d2905a20","ios":"levelo://app?vid=f5477bd9-ae2b-4f4a-90d2-43e1d2905a20"},"vehicle_type_id":"4","last_reported":1736287717,"current_range_meters":17200,"station_id":"ce4bhbh2rcd13ifvqepg","pricing_plan_id":"cebpf4jnsgd1na2vs0mg"},{"bike_id":"ad036647-e9f4-4246-953d-37ee6601db50","system_id":"levelo_inurba_marseille","lat":43.24669,"lon":5.38164,"is_reserved":false,"is_disabled":false,"rental_uris":{"android":"levelo://app?vid=ad036647-e9f4-4246-953d-37ee6601db50","ios":"levelo://app?vid=ad036647-e9f4-4246-953d-37ee6601db50"},"vehicle_type_id":"4","last_reported":1736287717,"current_range_meters":14800,"station_id":"ce4bhih2rcd13ifvqfr0","pricing_plan_id":"cebpf4jnsgd1na2vs0mg"},{"bike_id":"d74fc36d-2f1d-494c-b9e6-e714c99e8537","system_id":"levelo_inurba_marseille","lat":43.2656,"lon":5.37277,"is_reserved":false,"is_disabled":false,"rental_uris":{"android":"levelo://app?vid=d74fc36d-2f1d-494c-b9e6-e714c99e8537","ios":"levelo://app?vid=d74fc36d-2f1d-494c-b9e6-e714c99e8537"},"vehicle_type_id":"4","last_reported":1736287717,"current_range_meters":28000,"station_id":"ce4bhg12rcd13ifvqf70","pricing_plan_id":"cebpf4jnsgd1na2vs0mg"},{"bike_id":"dfcf855f-5812-4baf-aa89-8e83805791f7","system_id":"levelo_inurba_marseille","lat":43.2759,"lon":5.38424,"is_reserved":false,"is_disabled":false,"rental_uris":{"android":"levelo://app?vid=dfcf855f-5812-4baf-aa89-8e83805791f7","ios":"levelo://app?vid=dfcf855f-5812-4baf-aa89-8e83805791f7"},"vehicle_type_id":"4","last_reported":1736287717,"current_range_meters":22400,"station_id":"ce4bhh92rcd13ifvqfi0","pricing_plan_id":"cebpf4jnsgd1na2vs0mg"},{"bike_id":"83d61421-4a96-4675-8cf7-7779890541e6","system_id":"levelo_inurba_marseille","lat":43.31524,"lon":5.38046,"is_reserved":false,"is_disabled":false,"rental_uris":{"android":"levelo://app?vid=83d61421-4a96-4675-8cf7-7779890541e6","ios":"levelo://app?vid=83d61421-4a96-4675-8cf7-7779890541e6"},"vehicle_type_id":"4","last_reported":1736287717,"current_range_meters":39200,"station_id":"ce4bhsp2rcd13ifvqi50","pricing_plan_id":"cebpf4jnsgd1na2vs0mg"},{"bike_id":"00d350c9-c7d5-42f7-a3e1-74afb7d6252b","system_id":"levelo_inurba_marseille","lat":43.30214,"lon":5.39488,"is_reserved":false,"is_disabled":false,"rental_uris":{"android":"levelo://app?vid=00d350c9-c7d5-42f7-a3e1-74afb7d6252b","ios":"levelo://app?vid=00d350c9-c7d5-42f7-a3e1-74afb7d6252b"},"vehicle_type_id":"4","last_reported":1736287717,"current_range_meters":36800,"station_id":"ce4bh0p2rcd13ifvqd70","pricing_plan_id":"cebpf4jnsgd1na2vs0mg"},{"bike_id":"a33cffdb-3248-49d7-ab5d-308b0c81929e","system_id":"levelo_inurba_marseille","lat":43.28706,"lon":5.39981,"is_reserved":false,"is_disabled":false,"rental_uris":{"android":"levelo://app?vid=a33cffdb-3248-49d7-ab5d-308b0c81929e","ios":"levelo://app?vid=a33cffdb-3248-49d7-ab5d-308b0c81929e"},"vehicle_type_id":"4","last_reported":1736287717,"current_range_meters":30800,"station_id":"ce4bho92rcd13ifvqh3g","pricing_plan_id":"cebpf4jnsgd1na2vs0mg"},{"bike_id":"c736efc7-bdd4-4760-a57b-96851815e95f","system_id":"levelo_inurba_marseille","lat":43.26496,"lon":5.39553,"is_reserved":false,"is_disabled":true,"rental_uris":{"android":"levelo://app?vid=c736efc7-bdd4-4760-a57b-96851815e95f","ios":"levelo://app?vid=c736efc7-bdd4-4760-a57b-96851815e95f"},"vehicle_type_id":"4","last_reported":1736287717,"current_range_meters":38800,"station_id":"ce4bhi12rcd13ifvqfq0","pricing_plan_id":"cebpf4jnsgd1na2vs0mg"},{"bike_id":"a1ceaab5-cc98-4739-8fba-923512224dcf","system_id":"levelo_inurba_marseille","lat":43.23191,"lon":5.35549,"is_reserved":false,"is_disabled":false,"rental_uris":{"android":"levelo://app?vid=a1ceaab5-cc98-4739-8fba-923512224dcf","ios":"levelo://app?vid=a1ceaab5-cc98-4739-8fba-923512224dcf"},"vehicle_type_id":"4","last_reported":1736287717,"current_range_meters":38400,"station_id":"ce4bhu92rcd13ifvqi70","pricing_plan_id":"cebpf4jnsgd1na2vs0mg"},{"bike_id":"0071a927-f6f8-433a-a051-21a458c8608f","system_id":"levelo_inurba_marseille","lat":43.27176,"lon":5.40998,"is_reserved":false,"is_disabled":false,"rental_uris":{"android":"levelo://app?vid=0071a927-f6f8-433a-a051-21a458c8608f","ios":"levelo://app?vid=0071a927-f6f8-433a-a051-21a458c8608f"},"vehicle_type_id":"4","last_reported":1736287717,"current_range_meters":28000,"station_id":"ce4bhl12rcd13ifvqgf0","pricing_plan_id":"cebpf4jnsgd1na2vs0mg"},{"bike_id":"c3b15153-f019-432b-89af-f6657ff93fcd","system_id":"levelo_inurba_marseille","lat":43.30115,"lon":5.39859,"is_reserved":false,"is_disabled":false,"rental_uris":{"android":"levelo://app?vid=c3b15153-f019-432b-89af-f6657ff93fcd","ios":"levelo://app?vid=c3b15153-f019-432b-89af-f6657ff93fcd"},"vehicle_type_id":"4","last_reported":1736287717,"current_range_meters":22400,"station_id":"ce4bh0h2rcd13ifvqd40","pricing_plan_id":"cebpf4jnsgd1na2vs0mg"},{"bike_id":"448c8712-f610-49a8-9ae4-bbeb6e649d67","system_id":"levelo_inurba_marseille","lat":43.29868,"lon":5.39787,"is_reserved":false,"is_disabled":false,"rental_uris":{"android":"levelo://app?vid=448c8712-f610-49a8-9ae4-bbeb6e649d67","ios":"levelo://app?vid=448c8712-f610-49a8-9ae4-bbeb6e649d67"},"vehicle_type_id":"4","last_reported":1736287717,"current_range_meters":28000,"station_id":"ce4bh0h2rcd13ifvqd50","pricing_plan_id":"cebpf4jnsgd1na2vs0mg"},{"bike_id":"dd9059b5-fdfb-47e7-a6b1-65c3dd04eed8","system_id":"levelo_inurba_marseille","lat":43.29216,"lon":5.39346,"is_reserved":false,"is_disabled":false,"rental_uris":{"android":"levelo://app?vid=dd9059b5-fdfb-47e7-a6b1-65c3dd04eed8","ios":"levelo://app?vid=dd9059b5-fdfb-47e7-a6b1-65c3dd04eed8"},"vehicle_type_id":"4","last_reported":1736287717,"current_range_meters":35600,"station_id":"ce4bh192rcd13ifvqdd0","pricing_plan_id":"cebpf4jnsgd1na2vs0mg"},{"bike_id":"0d869571-702b-474e-9734-e51fa36b8db2","system_id":"levelo_inurba_marseille","lat":43.29214,"lon":5.39326,"is_reserved":false,"is_disabled":true,"rental_uris":{"android":"levelo://app?vid=0d869571-702b-474e-9734-e51fa36b8db2","ios":"levelo://app?vid=0d869571-702b-474e-9734-e51fa36b8db2"},"vehicle_type_id":"4","last_reported":1736287717,"current_range_meters":6400,"station_id":"ce4bh192rcd13ifvqdd0","pricing_plan_id":"cebpf4jnsgd1na2vs0mg"},{"bike_id":"884e5eef-e784-4e2f-b2b4-cbe24b9ec4af","system_id":"levelo_inurba_marseille","lat":43.31324,"lon":5.39688,"is_reserved":false,"is_disabled":false,"rental_uris":{"android":"levelo://app?vid=884e5eef-e784-4e2f-b2b4-cbe24b9ec4af","ios":"levelo://app?vid=884e5eef-e784-4e2f-b2b4-cbe24b9ec4af"},"vehicle_type_id":"4","last_reported":1736287717,"current_range_meters":38800,"station_id":"ce4bgvp2rcd13ifvqcu0","pricing_plan_id":"cebpf4jnsgd1na2vs0mg"},{"bike_id":"46b86b97-e7a4-473e-a5e7-7343aa64ab57","system_id":"levelo_inurba_marseille","lat":43.30269,"lon":5.40065,"is_reserved":false,"is_disabled":false,"rental_uris":{"android":"levelo://app?vid=46b86b97-e7a4-473e-a5e7-7343aa64ab57","ios":"levelo://app?vid=46b86b97-e7a4-473e-a5e7-7343aa64ab57"},"vehicle_type_id":"4","last_reported":1736287717,"current_range_meters":28000,"station_id":"ce4bgvh2rcd13ifvqcs0","pricing_plan_id":"cebpf4jnsgd1na2vs0mg"},{"bike_id":"ac1b97d2-d9c7-4a14-8fc5-b716f5c38a8e","system_id":"levelo_inurba_marseille","lat":43.31542,"lon":5.38039,"is_reserved":false,"is_disabled":false,"rental_uris":{"android":"levelo://app?vid=ac1b97d2-d9c7-4a14-8fc5-b716f5c38a8e","ios":"levelo://app?vid=ac1b97d2-d9c7-4a14-8fc5-b716f5c38a8e"},"vehicle_type_id":"4","last_reported":1736287717,"current_range_meters":26000,"station_id":"ce4bhsp2rcd13ifvqi50","pricing_plan_id":"cebpf4jnsgd1na2vs0mg"},{"bike_id":"c366f40b-0b52-4424-ab28-4a9b8b88d572","system_id":"levelo_inurba_marseille","lat":43.26715,"lon":5.38267,"is_reserved":false,"is_disabled":false,"rental_uris":{"android":"levelo://app?vid=c366f40b-0b52-4424-ab28-4a9b8b88d572","ios":"levelo://app?vid=c366f40b-0b52-4424-ab28-4a9b8b88d572"},"vehicle_type_id":"4","last_reported":1736287717,"current_range_meters":38400,"station_id":"ce4bhg92rcd13ifvqf90","pricing_plan_id":"cebpf4jnsgd1na2vs0mg"},{"bike_id":"12a8e073-e2b4-4835-82c4-d0a7e50a1561","system_id":"levelo_inurba_marseille","lat":43.30197,"lon":5.36629,"is_reserved":false,"is_disabled":false,"rental_uris":{"android":"levelo://app?vid=12a8e073-e2b4-4835-82c4-d0a7e50a1561","ios":"levelo://app?vid=12a8e073-e2b4-4835-82c4-d0a7e50a1561"},"vehicle_type_id":"4","last_reported":1736287717,"current_range_meters":19200,"station_id":"ce4bgrh2rcd13ifvqc8g","pricing_plan_id":"cebpf4jnsgd1na2vs0mg"},{"bike_id":"6410b64a-2371-4d9a-b4a9-7ca2750fdfa8","system_id":"levelo_inurba_marseille","lat":43.28729,"lon":5.36089,"is_reserved":false,"is_disabled":false,"rental_uris":{"android":"levelo://app?vid=6410b64a-2371-4d9a-b4a9-7ca2750fdfa8","ios":"levelo://app?vid=6410b64a-2371-4d9a-b4a9-7ca2750fdfa8"},"vehicle_type_id":"4","last_reported":1736287717,"current_range_meters":24000,"station_id":"cki0cbj6b192h4jlfktg","pricing_plan_id":"cebpf4jnsgd1na2vs0mg"},{"bike_id":"4fc26d7d-088e-4a8b-a24d-356304cdd2e1","system_id":"levelo_inurba_marseille","lat":43.30884,"lon":5.39677,"is_reserved":false,"is_disabled":false,"rental_uris":{"android":"levelo://app?vid=4fc26d7d-088e-4a8b-a24d-356304cdd2e1","ios":"levelo://app?vid=4fc26d7d-088e-4a8b-a24d-356304cdd2e1"},"vehicle_type_id":"4","last_reported":1736287717,"current_range_meters":22800,"station_id":"ce4bh012rcd13ifvqcv0","pricing_plan_id":"cebpf4jnsgd1na2vs0mg"},{"bike_id":"4f1ef750-2e4b-4992-a976-9cd83f145c67","system_id":"levelo_inurba_marseille","lat":43.30207,"lon":5.39447,"is_reserved":false,"is_disabled":false,"rental_uris":{"android":"levelo://app?vid=4f1ef750-2e4b-4992-a976-9cd83f145c67","ios":"levelo://app?vid=4f1ef750-2e4b-4992-a976-9cd83f145c67"},"vehicle_type_id":"4","last_reported":1736287717,"current_range_meters":39200,"station_id":"ce4bh0p2rcd13ifvqd70","pricing_plan_id":"cebpf4jnsgd1na2vs0mg"},{"bike_id":"82550dd2-3dae-4fd8-b5b2-c3d75d0734db","system_id":"levelo_inurba_marseille","lat":43.288105,"lon":5.391765,"is_reserved":false,"is_disabled":false,"rental_uris":{"android":"levelo://app?vid=82550dd2-3dae-4fd8-b5b2-c3d75d0734db","ios":"levelo://app?vid=82550dd2-3dae-4fd8-b5b2-c3d75d0734db"},"vehicle_type_id":"4","last_reported":1736287717,"current_range_meters":2800,"station_id":"ce4bh2p2rcd13ifvqdi0","pricing_plan_id":"cebpf4jnsgd1na2vs0mg"},{"bike_id":"5cf5d467-316b-44fa-8fb8-856da6a44a4c","system_id":"levelo_inurba_marseille","lat":43.24634,"lon":5.37793,"is_reserved":false,"is_disabled":true,"rental_uris":{"android":"levelo://app?vid=5cf5d467-316b-44fa-8fb8-856da6a44a4c","ios":"levelo://app?vid=5cf5d467-316b-44fa-8fb8-856da6a44a4c"},"vehicle_type_id":"4","last_reported":1736287717,"current_range_meters":0,"station_id":"","pricing_plan_id":"cebpf4jnsgd1na2vs0mg"},{"bike_id":"37557093-6491-4690-b370-7a12c47f238b","system_id":"levelo_inurba_marseille","lat":43.279434,"lon":5.410351,"is_reserved":false,"is_disabled":false,"rental_uris":{"android":"levelo://app?vid=37557093-6491-4690-b370-7a12c47f238b","ios":"levelo://app?vid=37557093-6491-4690-b370-7a12c47f238b"},"vehicle_type_id":"4","last_reported":1736287717,"current_range_meters":8000,"station_id":"ce4bhnp2rcd13ifvqh0g","pricing_plan_id":"cebpf4jnsgd1na2vs0mg"},{"bike_id":"535f0cc5-944d-4842-bff3-6150789eda0c","system_id":"levelo_inurba_marseille","lat":43.28422,"lon":5.34987,"is_reserved":false,"is_disabled":false,"rental_uris":{"android":"levelo://app?vid=535f0cc5-944d-4842-bff3-6150789eda0c","ios":"levelo://app?vid=535f0cc5-944d-4842-bff3-6150789eda0c"},"vehicle_type_id":"4","last_reported":1736287717,"current_range_meters":38800,"station_id":"ce4bhbh2rcd13ifvqepg","pricing_plan_id":"cebpf4jnsgd1na2vs0mg"},{"bike_id":"a8acd766-c8b6-49fa-a448-d51110da8e25","system_id":"levelo_inurba_marseille","lat":43.25117,"lon":5.40326,"is_reserved":false,"is_disabled":false,"rental_uris":{"android":"levelo://app?vid=a8acd766-c8b6-49fa-a448-d51110da8e25","ios":"levelo://app?vid=a8acd766-c8b6-49fa-a448-d51110da8e25"},"vehicle_type_id":"4","last_reported":1736287717,"current_range_meters":17600,"station_id":"ce4bhlh2rcd13ifvqgig","pricing_plan_id":"cebpf4jnsgd1na2vs0mg"},{"bike_id":"f5f5c0c3-bf0d-4e89-9bff-89b492f51af6","system_id":"levelo_inurba_marseille","lat":43.2407,"lon":5.377562,"is_reserved":false,"is_disabled":false,"rental_uris":{"android":"levelo://app?vid=f5f5c0c3-bf0d-4e89-9bff-89b492f51af6","ios":"levelo://app?vid=f5f5c0c3-bf0d-4e89-9bff-89b492f51af6"},"vehicle_type_id":"4","last_reported":1736287717,"current_range_meters":20800,"station_id":"ce4bhnp2rcd13ifvqgvg","pricing_plan_id":"cebpf4jnsgd1na2vs0mg"},{"bike_id":"4c79f864-3da8-4813-a506-a9595819fe25","system_id":"levelo_inurba_marseille","lat":43.25867,"lon":5.39902,"is_reserved":false,"is_disabled":false,"rental_uris":{"android":"levelo://app?vid=4c79f864-3da8-4813-a506-a9595819fe25","ios":"levelo://app?vid=4c79f864-3da8-4813-a506-a9595819fe25"},"vehicle_type_id":"4","last_reported":1736287717,"current_range_meters":38800,"station_id":"ce4bhl92rcd13ifvqghg","pricing_plan_id":"cebpf4jnsgd1na2vs0mg"},{"bike_id":"840e3f90-17d0-4c94-88a0-c5120c40cdea","system_id":"levelo_inurba_marseille","lat":43.25724,"lon":5.41106,"is_reserved":false,"is_disabled":true,"rental_uris":{"android":"levelo://app?vid=840e3f90-17d0-4c94-88a0-c5120c40cdea","ios":"levelo://app?vid=840e3f90-17d0-4c94-88a0-c5120c40cdea"},"vehicle_type_id":"4","last_reported":1736287717,"current_range_meters":38000,"station_id":"ce4bhkp2rcd13ifvqgd0","pricing_plan_id":"cebpf4jnsgd1na2vs0mg"},{"bike_id":"18989a28-842c-4216-9b41-9977ee09c012","system_id":"levelo_inurba_marseille","lat":43.27177,"lon":5.4098,"is_reserved":false,"is_disabled":false,"rental_uris":{"android":"levelo://app?vid=18989a28-842c-4216-9b41-9977ee09c012","ios":"levelo://app?vid=18989a28-842c-4216-9b41-9977ee09c012"},"vehicle_type_id":"4","last_reported":1736287717,"current_range_meters":39200,"station_id":"ce4bhl12rcd13ifvqgf0","pricing_plan_id":"cebpf4jnsgd1na2vs0mg"},{"bike_id":"2f68cdef-bffc-4037-b844-7b9747e6cb93","system_id":"levelo_inurba_marseille","lat":43.24363,"lon":5.37063,"is_reserved":false,"is_disabled":false,"rental_uris":{"android":"levelo://app?vid=2f68cdef-bffc-4037-b844-7b9747e6cb93","ios":"levelo://app?vid=2f68cdef-bffc-4037-b844-7b9747e6cb93"},"vehicle_type_id":"4","last_reported":1736287717,"current_range_meters":37600,"station_id":"ce4bhhh2rcd13ifvqfk0","pricing_plan_id":"cebpf4jnsgd1na2vs0mg"},{"bike_id":"90f8216f-fbb9-4598-9bab-eadf2338867f","system_id":"levelo_inurba_marseille","lat":43.23968,"lon":5.36629,"is_reserved":false,"is_disabled":false,"rental_uris":{"android":"levelo://app?vid=90f8216f-fbb9-4598-9bab-eadf2338867f","ios":"levelo://app?vid=90f8216f-fbb9-4598-9bab-eadf2338867f"},"vehicle_type_id":"4","last_reported":1736287717,"current_range_meters":28000,"station_id":"ce4bhi12rcd13ifvqfp0","pricing_plan_id":"cebpf4jnsgd1na2vs0mg"},{"bike_id":"410d2916-f558-4d13-a5f4-9cf5855b7b04","system_id":"levelo_inurba_marseille","lat":43.31166,"lon":5.38703,"is_reserved":false,"is_disabled":false,"rental_uris":{"android":"levelo://app?vid=410d2916-f558-4d13-a5f4-9cf5855b7b04","ios":"levelo://app?vid=410d2916-f558-4d13-a5f4-9cf5855b7b04"},"vehicle_type_id":"4","last_reported":1736287717,"current_range_meters":33200,"station_id":"ce4bgv12rcd13ifvqcp0","pricing_plan_id":"cebpf4jnsgd1na2vs0mg"},{"bike_id":"e17ac5d8-0dad-428c-8e18-f61456c149f3","system_id":"levelo_inurba_marseille","lat":43.284582,"lon":5.35895,"is_reserved":false,"is_disabled":false,"rental_uris":{"android":"levelo://app?vid=e17ac5d8-0dad-428c-8e18-f61456c149f3","ios":"levelo://app?vid=e17ac5d8-0dad-428c-8e18-f61456c149f3"},"vehicle_type_id":"4","last_reported":1736287717,"current_range_meters":21600,"station_id":"ce4bhah2rcd13ifvqei0","pricing_plan_id":"cebpf4jnsgd1na2vs0mg"},{"bike_id":"f315f1f6-15a6-45f1-b66d-ebc071343df0","system_id":"levelo_inurba_marseille","lat":43.29379,"lon":5.37854,"is_reserved":false,"is_disabled":true,"rental_uris":{"android":"levelo://app?vid=f315f1f6-15a6-45f1-b66d-ebc071343df0","ios":"levelo://app?vid=f315f1f6-15a6-45f1-b66d-ebc071343df0"},"vehicle_type_id":"4","last_reported":1736287717,"current_range_meters":35200,"station_id":"ce4bgjh2rcd13ifvqbf0","pricing_plan_id":"cebpf4jnsgd1na2vs0mg"},{"bike_id":"514d218d-b1d9-4d7b-9fa0-8ced26e21a3c","system_id":"levelo_inurba_marseille","lat":43.27191,"lon":5.40999,"is_reserved":false,"is_disabled":false,"rental_uris":{"android":"levelo://app?vid=514d218d-b1d9-4d7b-9fa0-8ced26e21a3c","ios":"levelo://app?vid=514d218d-b1d9-4d7b-9fa0-8ced26e21a3c"},"vehicle_type_id":"4","last_reported":1736287717,"current_range_meters":8800,"station_id":"ce4bhl12rcd13ifvqgf0","pricing_plan_id":"cebpf4jnsgd1na2vs0mg"},{"bike_id":"502b9a2d-7119-4752-a288-d02d6d3527f6","system_id":"levelo_inurba_marseille","lat":43.28453,"lon":5.35888,"is_reserved":false,"is_disabled":false,"rental_uris":{"android":"levelo://app?vid=502b9a2d-7119-4752-a288-d02d6d3527f6","ios":"levelo://app?vid=502b9a2d-7119-4752-a288-d02d6d3527f6"},"vehicle_type_id":"4","last_reported":1736287717,"current_range_meters":28400,"station_id":"ce4bhah2rcd13ifvqei0","pricing_plan_id":"cebpf4jnsgd1na2vs0mg"},{"bike_id":"98ed5aa0-7233-4b30-8496-b45d455055fb","system_id":"levelo_inurba_marseille","lat":43.2792,"lon":5.3957,"is_reserved":false,"is_disabled":false,"rental_uris":{"android":"levelo://app?vid=98ed5aa0-7233-4b30-8496-b45d455055fb","ios":"levelo://app?vid=98ed5aa0-7233-4b30-8496-b45d455055fb"},"vehicle_type_id":"4","last_reported":1736287717,"current_range_meters":8400,"station_id":"ce4bhf92rcd13ifvqf40","pricing_plan_id":"cebpf4jnsgd1na2vs0mg"},{"bike_id":"ee40f252-9538-45ff-aae1-ab84a56267b0","system_id":"levelo_inurba_marseille","lat":43.2696,"lon":5.38636,"is_reserved":false,"is_disabled":false,"rental_uris":{"android":"levelo://app?vid=ee40f252-9538-45ff-aae1-ab84a56267b0","ios":"levelo://app?vid=ee40f252-9538-45ff-aae1-ab84a56267b0"},"vehicle_type_id":"4","last_reported":1736287717,"current_range_meters":12400,"station_id":"ce4bhh92rcd13ifvqfh0","pricing_plan_id":"cebpf4jnsgd1na2vs0mg"},{"bike_id":"de77c04a-e189-4114-8dcf-0064c4147977","system_id":"levelo_inurba_marseille","lat":43.30417,"lon":5.41287,"is_reserved":false,"is_disabled":false,"rental_uris":{"android":"levelo://app?vid=de77c04a-e189-4114-8dcf-0064c4147977","ios":"levelo://app?vid=de77c04a-e189-4114-8dcf-0064c4147977"},"vehicle_type_id":"4","last_reported":1736287717,"current_range_meters":26800,"station_id":"ce4bhop2rcd13ifvqh8g","pricing_plan_id":"cebpf4jnsgd1na2vs0mg"},{"bike_id":"15bb3280-a48e-44f3-998c-09cc0aee946e","system_id":"levelo_inurba_marseille","lat":43.28486,"lon":5.35898,"is_reserved":false,"is_disabled":false,"rental_uris":{"android":"levelo://app?vid=15bb3280-a48e-44f3-998c-09cc0aee946e","ios":"levelo://app?vid=15bb3280-a48e-44f3-998c-09cc0aee946e"},"vehicle_type_id":"4","last_reported":1736287717,"current_range_meters":17600,"station_id":"ce4bhah2rcd13ifvqei0","pricing_plan_id":"cebpf4jnsgd1na2vs0mg"},{"bike_id":"3f73d438-6a74-405a-8c4a-d73a9d18c64a","system_id":"levelo_inurba_marseille","lat":43.27074,"lon":5.42276,"is_reserved":false,"is_disabled":false,"rental_uris":{"android":"levelo://app?vid=3f73d438-6a74-405a-8c4a-d73a9d18c64a","ios":"levelo://app?vid=3f73d438-6a74-405a-8c4a-d73a9d18c64a"},"vehicle_type_id":"4","last_reported":1736287717,"current_range_meters":30400,"station_id":"ce4bhk92rcd13ifvqgb0","pricing_plan_id":"cebpf4jnsgd1na2vs0mg"},{"bike_id":"ccefbdf4-df27-4947-9b01-eba3707af800","system_id":"levelo_inurba_marseille","lat":43.29528,"lon":5.38537,"is_reserved":false,"is_disabled":true,"rental_uris":{"android":"levelo://app?vid=ccefbdf4-df27-4947-9b01-eba3707af800","ios":"levelo://app?vid=ccefbdf4-df27-4947-9b01-eba3707af800"},"vehicle_type_id":"4","last_reported":1736287717,"current_range_meters":18000,"station_id":"ce4bgih2rcd13ifvqba0","pricing_plan_id":"cebpf4jnsgd1na2vs0mg"},{"bike_id":"ea60edce-76ab-4155-8e79-99022a30bcac","system_id":"levelo_inurba_marseille","lat":43.29558,"lon":5.42272,"is_reserved":false,"is_disabled":false,"rental_uris":{"android":"levelo://app?vid=ea60edce-76ab-4155-8e79-99022a30bcac","ios":"levelo://app?vid=ea60edce-76ab-4155-8e79-99022a30bcac"},"vehicle_type_id":"4","last_reported":1736287717,"current_range_meters":12400,"station_id":"ce4bhph2rcd13ifvqhdg","pricing_plan_id":"cebpf4jnsgd1na2vs0mg"},{"bike_id":"aeb19615-09cd-4e28-991f-08da78c5f0a3","system_id":"levelo_inurba_marseille","lat":43.32483,"lon":5.36574,"is_reserved":false,"is_disabled":false,"rental_uris":{"android":"levelo://app?vid=aeb19615-09cd-4e28-991f-08da78c5f0a3","ios":"levelo://app?vid=aeb19615-09cd-4e28-991f-08da78c5f0a3"},"vehicle_type_id":"4","last_reported":1736287717,"current_range_meters":17600,"station_id":"ce4bhs12rcd13ifvqhvg","pricing_plan_id":"cebpf4jnsgd1na2vs0mg"},{"bike_id":"cbd2e76c-881c-4903-85d5-3e956be06ddd","system_id":"levelo_inurba_marseille","lat":43.2981,"lon":5.40404,"is_reserved":false,"is_disabled":false,"rental_uris":{"android":"levelo://app?vid=cbd2e76c-881c-4903-85d5-3e956be06ddd","ios":"levelo://app?vid=cbd2e76c-881c-4903-85d5-3e956be06ddd"},"vehicle_type_id":"4","last_reported":1736287717,"current_range_meters":38800,"station_id":"ce4bh112rcd13ifvqd90","pricing_plan_id":"cebpf4jnsgd1na2vs0mg"},{"bike_id":"95cc5ce5-aaa6-4e26-9dfd-a1aa159c85df","system_id":"levelo_inurba_marseille","lat":43.29788,"lon":5.3934,"is_reserved":false,"is_disabled":false,"rental_uris":{"android":"levelo://app?vid=95cc5ce5-aaa6-4e26-9dfd-a1aa159c85df","ios":"levelo://app?vid=95cc5ce5-aaa6-4e26-9dfd-a1aa159c85df"},"vehicle_type_id":"4","last_reported":1736287717,"current_range_meters":38800,"station_id":"chh1huq6cuj3fo74tm60","pricing_plan_id":"cebpf4jnsgd1na2vs0mg"},{"bike_id":"b13965eb-7a3e-487c-8f4f-1d2936af4009","system_id":"levelo_inurba_marseille","lat":43.258227,"lon":5.394304,"is_reserved":false,"is_disabled":false,"rental_uris":{"android":"levelo://app?vid=b13965eb-7a3e-487c-8f4f-1d2936af4009","ios":"levelo://app?vid=b13965eb-7a3e-487c-8f4f-1d2936af4009"},"vehicle_type_id":"4","last_reported":1736287717,"current_range_meters":39200,"station_id":"ce4bhip2rcd13ifvqft0","pricing_plan_id":"cebpf4jnsgd1na2vs0mg"},{"bike_id":"2caa7ff0-56a0-4a66-805c-847ccd11c31b","system_id":"levelo_inurba_marseille","lat":43.313267,"lon":5.396867,"is_reserved":false,"is_disabled":false,"rental_uris":{"android":"levelo://app?vid=2caa7ff0-56a0-4a66-805c-847ccd11c31b","ios":"levelo://app?vid=2caa7ff0-56a0-4a66-805c-847ccd11c31b"},"vehicle_type_id":"4","last_reported":1736287717,"current_range_meters":38800,"station_id":"ce4bgvp2rcd13ifvqcu0","pricing_plan_id":"cebpf4jnsgd1na2vs0mg"},{"bike_id":"7ed041a4-7bdf-4f3c-bce0-af2e72da1242","system_id":"levelo_inurba_marseille","lat":43.2559,"lon":5.38225,"is_reserved":false,"is_disabled":false,"rental_uris":{"android":"levelo://app?vid=7ed041a4-7bdf-4f3c-bce0-af2e72da1242","ios":"levelo://app?vid=7ed041a4-7bdf-4f3c-bce0-af2e72da1242"},"vehicle_type_id":"4","last_reported":1736287717,"current_range_meters":7200,"station_id":"ce4bhih2rcd13ifvqfs0","pricing_plan_id":"cebpf4jnsgd1na2vs0mg"},{"bike_id":"3ad0f3ed-1061-459e-b238-515ecfd1abd9","system_id":"levelo_inurba_marseille","lat":43.30793,"lon":5.37671,"is_reserved":false,"is_disabled":false,"rental_uris":{"android":"levelo://app?vid=3ad0f3ed-1061-459e-b238-515ecfd1abd9","ios":"levelo://app?vid=3ad0f3ed-1061-459e-b238-515ecfd1abd9"},"vehicle_type_id":"4","last_reported":1736287717,"current_range_meters":38800,"station_id":"ce4bgv92rcd13ifvqcq0","pricing_plan_id":"cebpf4jnsgd1na2vs0mg"},{"bike_id":"637c9e25-6ec5-4d5c-9ec9-ed6c73dcb821","system_id":"levelo_inurba_marseille","lat":43.31716,"lon":5.37767,"is_reserved":false,"is_disabled":false,"rental_uris":{"android":"levelo://app?vid=637c9e25-6ec5-4d5c-9ec9-ed6c73dcb821","ios":"levelo://app?vid=637c9e25-6ec5-4d5c-9ec9-ed6c73dcb821"},"vehicle_type_id":"4","last_reported":1736287717,"current_range_meters":34000,"station_id":"ce4bgth2rcd13ifvqch0","pricing_plan_id":"cebpf4jnsgd1na2vs0mg"},{"bike_id":"348e1602-1bb0-4b51-9ba3-012118339c74","system_id":"levelo_inurba_marseille","lat":43.27174,"lon":5.40988,"is_reserved":false,"is_disabled":false,"rental_uris":{"android":"levelo://app?vid=348e1602-1bb0-4b51-9ba3-012118339c74","ios":"levelo://app?vid=348e1602-1bb0-4b51-9ba3-012118339c74"},"vehicle_type_id":"4","last_reported":1736287717,"current_range_meters":35200,"station_id":"ce4bhl12rcd13ifvqgf0","pricing_plan_id":"cebpf4jnsgd1na2vs0mg"},{"bike_id":"b02fab9b-85e2-4691-a949-9c3558950865","system_id":"levelo_inurba_marseille","lat":43.31326,"lon":5.39705,"is_reserved":false,"is_disabled":false,"rental_uris":{"android":"levelo://app?vid=b02fab9b-85e2-4691-a949-9c3558950865","ios":"levelo://app?vid=b02fab9b-85e2-4691-a949-9c3558950865"},"vehicle_type_id":"4","last_reported":1736287717,"current_range_meters":38000,"station_id":"ce4bgvp2rcd13ifvqcu0","pricing_plan_id":"cebpf4jnsgd1na2vs0mg"},{"bike_id":"be418997-7c9d-4737-98e3-b90706366001","system_id":"levelo_inurba_marseille","lat":43.315278,"lon":5.380334,"is_reserved":false,"is_disabled":false,"rental_uris":{"android":"levelo://app?vid=be418997-7c9d-4737-98e3-b90706366001","ios":"levelo://app?vid=be418997-7c9d-4737-98e3-b90706366001"},"vehicle_type_id":"4","last_reported":1736287717,"current_range_meters":27600,"station_id":"ce4bhsp2rcd13ifvqi50","pricing_plan_id":"cebpf4jnsgd1na2vs0mg"},{"bike_id":"5671a7cc-1094-4b46-906d-b97f733ad9e2","system_id":"levelo_inurba_marseille","lat":43.303177,"lon":5.40439,"is_reserved":false,"is_disabled":true,"rental_uris":{"android":"levelo://app?vid=5671a7cc-1094-4b46-906d-b97f733ad9e2","ios":"levelo://app?vid=5671a7cc-1094-4b46-906d-b97f733ad9e2"},"vehicle_type_id":"4","last_reported":1736287717,"current_range_meters":35600,"station_id":"ce4bh012rcd13ifvqd10","pricing_plan_id":"cebpf4jnsgd1na2vs0mg"},{"bike_id":"39b43ba6-0256-4c8f-b96b-d9500d716617","system_id":"levelo_inurba_marseille","lat":43.26799,"lon":5.40259,"is_reserved":false,"is_disabled":false,"rental_uris":{"android":"levelo://app?vid=39b43ba6-0256-4c8f-b96b-d9500d716617","ios":"levelo://app?vid=39b43ba6-0256-4c8f-b96b-d9500d716617"},"vehicle_type_id":"4","last_reported":1736287717,"current_range_meters":38800,"station_id":"ce501612rcd8frsf0b60","pricing_plan_id":"cebpf4jnsgd1na2vs0mg"},{"bike_id":"beb0f8f6-6b97-4754-a562-6cc20c2e53f0","system_id":"levelo_inurba_marseille","lat":43.28955,"lon":5.36406,"is_reserved":false,"is_disabled":false,"rental_uris":{"android":"levelo://app?vid=beb0f8f6-6b97-4754-a562-6cc20c2e53f0","ios":"levelo://app?vid=beb0f8f6-6b97-4754-a562-6cc20c2e53f0"},"vehicle_type_id":"4","last_reported":1736287717,"current_range_meters":28800,"station_id":"ce4bhc92rcd13ifvqetg","pricing_plan_id":"cebpf4jnsgd1na2vs0mg"},{"bike_id":"005c2044-0c78-410b-b1cd-e1e9feaa0e05","system_id":"levelo_inurba_marseille","lat":43.23964,"lon":5.36629,"is_reserved":false,"is_disabled":false,"rental_uris":{"android":"levelo://app?vid=005c2044-0c78-410b-b1cd-e1e9feaa0e05","ios":"levelo://app?vid=005c2044-0c78-410b-b1cd-e1e9feaa0e05"},"vehicle_type_id":"4","last_reported":1736287717,"current_range_meters":16800,"station_id":"ce4bhi12rcd13ifvqfp0","pricing_plan_id":"cebpf4jnsgd1na2vs0mg"},{"bike_id":"db190856-6440-4075-89bd-6bb8e507459d","system_id":"levelo_inurba_marseille","lat":43.23958,"lon":5.36628,"is_reserved":false,"is_disabled":false,"rental_uris":{"android":"levelo://app?vid=db190856-6440-4075-89bd-6bb8e507459d","ios":"levelo://app?vid=db190856-6440-4075-89bd-6bb8e507459d"},"vehicle_type_id":"4","last_reported":1736287717,"current_range_meters":11600,"station_id":"ce4bhi12rcd13ifvqfp0","pricing_plan_id":"cebpf4jnsgd1na2vs0mg"},{"bike_id":"d9a07ef6-087e-4a9e-aa1e-dd5b0fa1016f","system_id":"levelo_inurba_marseille","lat":43.3137,"lon":5.38486,"is_reserved":false,"is_disabled":false,"rental_uris":{"android":"levelo://app?vid=d9a07ef6-087e-4a9e-aa1e-dd5b0fa1016f","ios":"levelo://app?vid=d9a07ef6-087e-4a9e-aa1e-dd5b0fa1016f"},"vehicle_type_id":"4","last_reported":1736287717,"current_range_meters":38000,"station_id":"ce4bgt92rcd13ifvqcf0","pricing_plan_id":"cebpf4jnsgd1na2vs0mg"},{"bike_id":"a21e9de8-e3a8-4916-92f6-5e859b5a9d2a","system_id":"levelo_inurba_marseille","lat":43.30438,"lon":5.38888,"is_reserved":false,"is_disabled":false,"rental_uris":{"android":"levelo://app?vid=a21e9de8-e3a8-4916-92f6-5e859b5a9d2a","ios":"levelo://app?vid=a21e9de8-e3a8-4916-92f6-5e859b5a9d2a"},"vehicle_type_id":"4","last_reported":1736287717,"current_range_meters":29600,"station_id":"ce4bgk12rcd13ifvqbi0","pricing_plan_id":"cebpf4jnsgd1na2vs0mg"},{"bike_id":"3ab628e7-3c3e-48ed-8b68-50e0ec1e2c0c","system_id":"levelo_inurba_marseille","lat":43.30262,"lon":5.4007,"is_reserved":false,"is_disabled":false,"rental_uris":{"android":"levelo://app?vid=3ab628e7-3c3e-48ed-8b68-50e0ec1e2c0c","ios":"levelo://app?vid=3ab628e7-3c3e-48ed-8b68-50e0ec1e2c0c"},"vehicle_type_id":"4","last_reported":1736287717,"current_range_meters":31200,"station_id":"ce4bgvh2rcd13ifvqcs0","pricing_plan_id":"cebpf4jnsgd1na2vs0mg"},{"bike_id":"94ae9d8d-339e-41f5-bf14-1e9df4322647","system_id":"levelo_inurba_marseille","lat":43.27501,"lon":5.42457,"is_reserved":false,"is_disabled":true,"rental_uris":{"android":"levelo://app?vid=94ae9d8d-339e-41f5-bf14-1e9df4322647","ios":"levelo://app?vid=94ae9d8d-339e-41f5-bf14-1e9df4322647"},"vehicle_type_id":"4","last_reported":1736287717,"current_range_meters":34800,"station_id":"ce4bhn92rcd13ifvqgrg","pricing_plan_id":"cebpf4jnsgd1na2vs0mg"},{"bike_id":"6a595de3-0911-46a9-bdbf-4cca5437105e","system_id":"levelo_inurba_marseille","lat":43.231995,"lon":5.355481,"is_reserved":false,"is_disabled":false,"rental_uris":{"android":"levelo://app?vid=6a595de3-0911-46a9-bdbf-4cca5437105e","ios":"levelo://app?vid=6a595de3-0911-46a9-bdbf-4cca5437105e"},"vehicle_type_id":"4","last_reported":1736287717,"current_range_meters":14400,"station_id":"ce4bhu92rcd13ifvqi70","pricing_plan_id":"cebpf4jnsgd1na2vs0mg"},{"bike_id":"641d8acc-50b2-4173-ab23-c70f2a11d28e","system_id":"levelo_inurba_marseille","lat":43.281529,"lon":5.426334,"is_reserved":false,"is_disabled":true,"rental_uris":{"android":"levelo://app?vid=641d8acc-50b2-4173-ab23-c70f2a11d28e","ios":"levelo://app?vid=641d8acc-50b2-4173-ab23-c70f2a11d28e"},"vehicle_type_id":"4","last_reported":1736287717,"current_range_meters":22400,"station_id":"ce4bhnh2rcd13ifvqgug","pricing_plan_id":"cebpf4jnsgd1na2vs0mg"},{"bike_id":"71070e26-a9d7-4eae-99da-f42f1907a4db","system_id":"levelo_inurba_marseille","lat":43.27566,"lon":5.38406,"is_reserved":false,"is_disabled":false,"rental_uris":{"android":"levelo://app?vid=71070e26-a9d7-4eae-99da-f42f1907a4db","ios":"levelo://app?vid=71070e26-a9d7-4eae-99da-f42f1907a4db"},"vehicle_type_id":"4","last_reported":1736287717,"current_range_meters":38400,"station_id":"ce4bhh92rcd13ifvqfi0","pricing_plan_id":"cebpf4jnsgd1na2vs0mg"},{"bike_id":"15e503f5-1d52-42d6-a98f-33a61fd8b554","system_id":"levelo_inurba_marseille","lat":43.28475,"lon":5.35887,"is_reserved":false,"is_disabled":true,"rental_uris":{"android":"levelo://app?vid=15e503f5-1d52-42d6-a98f-33a61fd8b554","ios":"levelo://app?vid=15e503f5-1d52-42d6-a98f-33a61fd8b554"},"vehicle_type_id":"4","last_reported":1736287717,"current_range_meters":14000,"station_id":"ce4bhah2rcd13ifvqei0","pricing_plan_id":"cebpf4jnsgd1na2vs0mg"},{"bike_id":"e82a2857-f125-41cf-b9da-ef3f3a76e29d","system_id":"levelo_inurba_marseille","lat":43.29519,"lon":5.39396,"is_reserved":false,"is_disabled":false,"rental_uris":{"android":"levelo://app?vid=e82a2857-f125-41cf-b9da-ef3f3a76e29d","ios":"levelo://app?vid=e82a2857-f125-41cf-b9da-ef3f3a76e29d"},"vehicle_type_id":"4","last_reported":1736287717,"current_range_meters":38800,"station_id":"ce4bh292rcd13ifvqdf0","pricing_plan_id":"cebpf4jnsgd1na2vs0mg"},{"bike_id":"2efc3d70-beec-4b72-95a6-75bd5ab3438d","system_id":"levelo_inurba_marseille","lat":43.30777,"lon":5.37656,"is_reserved":false,"is_disabled":false,"rental_uris":{"android":"levelo://app?vid=2efc3d70-beec-4b72-95a6-75bd5ab3438d","ios":"levelo://app?vid=2efc3d70-beec-4b72-95a6-75bd5ab3438d"},"vehicle_type_id":"4","last_reported":1736287717,"current_range_meters":38800,"station_id":"ce4bgv92rcd13ifvqcq0","pricing_plan_id":"cebpf4jnsgd1na2vs0mg"},{"bike_id":"44ab28fa-0b3d-469d-97ff-06319e1159ef","system_id":"levelo_inurba_marseille","lat":43.23969,"lon":5.36625,"is_reserved":false,"is_disabled":false,"rental_uris":{"android":"levelo://app?vid=44ab28fa-0b3d-469d-97ff-06319e1159ef","ios":"levelo://app?vid=44ab28fa-0b3d-469d-97ff-06319e1159ef"},"vehicle_type_id":"4","last_reported":1736287717,"current_range_meters":17600,"station_id":"ce4bhi12rcd13ifvqfp0","pricing_plan_id":"cebpf4jnsgd1na2vs0mg"},{"bike_id":"a5180145-a807-483d-a45b-ef2f16240458","system_id":"levelo_inurba_marseille","lat":43.30275,"lon":5.40085,"is_reserved":false,"is_disabled":false,"rental_uris":{"android":"levelo://app?vid=a5180145-a807-483d-a45b-ef2f16240458","ios":"levelo://app?vid=a5180145-a807-483d-a45b-ef2f16240458"},"vehicle_type_id":"4","last_reported":1736287717,"current_range_meters":39200,"station_id":"ce4bgvh2rcd13ifvqcs0","pricing_plan_id":"cebpf4jnsgd1na2vs0mg"},{"bike_id":"5da25934-6d18-47f1-9814-e42b3a4c77ef","system_id":"levelo_inurba_marseille","lat":43.25823,"lon":5.39426,"is_reserved":false,"is_disabled":false,"rental_uris":{"android":"levelo://app?vid=5da25934-6d18-47f1-9814-e42b3a4c77ef","ios":"levelo://app?vid=5da25934-6d18-47f1-9814-e42b3a4c77ef"},"vehicle_type_id":"4","last_reported":1736287717,"current_range_meters":38800,"station_id":"ce4bhip2rcd13ifvqft0","pricing_plan_id":"cebpf4jnsgd1na2vs0mg"},{"bike_id":"5f04354c-e3f4-4af5-80fc-24acd2acea67","system_id":"levelo_inurba_marseille","lat":43.30127,"lon":5.39857,"is_reserved":false,"is_disabled":false,"rental_uris":{"android":"levelo://app?vid=5f04354c-e3f4-4af5-80fc-24acd2acea67","ios":"levelo://app?vid=5f04354c-e3f4-4af5-80fc-24acd2acea67"},"vehicle_type_id":"4","last_reported":1736287717,"current_range_meters":27600,"station_id":"ce4bh0h2rcd13ifvqd40","pricing_plan_id":"cebpf4jnsgd1na2vs0mg"},{"bike_id":"21979858-6bd4-4623-93e3-10a15afddce5","system_id":"levelo_inurba_marseille","lat":43.292991,"lon":5.374633,"is_reserved":false,"is_disabled":true,"rental_uris":{"android":"levelo://app?vid=21979858-6bd4-4623-93e3-10a15afddce5","ios":"levelo://app?vid=21979858-6bd4-4623-93e3-10a15afddce5"},"vehicle_type_id":"4","last_reported":1736287717,"current_range_meters":34800,"station_id":"ce4bh5p2rcd13ifvqe4g","pricing_plan_id":"cebpf4jnsgd1na2vs0mg"},{"bike_id":"6d88bbf0-f428-4bd4-ab8a-2ee8d5e7c74e","system_id":"levelo_inurba_marseille","lat":43.230719,"lon":5.354928,"is_reserved":false,"is_disabled":false,"rental_uris":{"android":"levelo://app?vid=6d88bbf0-f428-4bd4-ab8a-2ee8d5e7c74e","ios":"levelo://app?vid=6d88bbf0-f428-4bd4-ab8a-2ee8d5e7c74e"},"vehicle_type_id":"4","last_reported":1736287717,"current_range_meters":36800,"station_id":"cpo3342slgdg3j2ifvpg","pricing_plan_id":"cebpf4jnsgd1na2vs0mg"},{"bike_id":"167c24b2-cea6-4450-aa93-c6475e41dac0","system_id":"levelo_inurba_marseille","lat":43.28222,"lon":5.39055,"is_reserved":false,"is_disabled":false,"rental_uris":{"android":"levelo://app?vid=167c24b2-cea6-4450-aa93-c6475e41dac0","ios":"levelo://app?vid=167c24b2-cea6-4450-aa93-c6475e41dac0"},"vehicle_type_id":"4","last_reported":1736287717,"current_range_meters":13600,"station_id":"","pricing_plan_id":"cebpf4jnsgd1na2vs0mg"},{"bike_id":"fc28be46-23fe-4f09-821c-8a3bd21ca77c","system_id":"levelo_inurba_marseille","lat":43.25574,"lon":5.38249,"is_reserved":false,"is_disabled":false,"rental_uris":{"android":"levelo://app?vid=fc28be46-23fe-4f09-821c-8a3bd21ca77c","ios":"levelo://app?vid=fc28be46-23fe-4f09-821c-8a3bd21ca77c"},"vehicle_type_id":"4","last_reported":1736287717,"current_range_meters":38800,"station_id":"ce4bhih2rcd13ifvqfs0","pricing_plan_id":"cebpf4jnsgd1na2vs0mg"},{"bike_id":"8b34244b-5aa5-4f74-9e9d-7caaa781b4fc","system_id":"levelo_inurba_marseille","lat":43.3029,"lon":5.36871,"is_reserved":false,"is_disabled":false,"rental_uris":{"android":"levelo://app?vid=8b34244b-5aa5-4f74-9e9d-7caaa781b4fc","ios":"levelo://app?vid=8b34244b-5aa5-4f74-9e9d-7caaa781b4fc"},"vehicle_type_id":"4","last_reported":1736287717,"current_range_meters":26800,"station_id":"ce4bgqh2rcd13ifvqc5g","pricing_plan_id":"cebpf4jnsgd1na2vs0mg"},{"bike_id":"06a8284e-b677-4fb3-943d-a46c2e71ed35","system_id":"levelo_inurba_marseille","lat":43.28039,"lon":5.36947,"is_reserved":false,"is_disabled":false,"rental_uris":{"android":"levelo://app?vid=06a8284e-b677-4fb3-943d-a46c2e71ed35","ios":"levelo://app?vid=06a8284e-b677-4fb3-943d-a46c2e71ed35"},"vehicle_type_id":"4","last_reported":1736287717,"current_range_meters":18000,"station_id":"ce4bha12rcd13ifvqef0","pricing_plan_id":"cebpf4jnsgd1na2vs0mg"},{"bike_id":"a7fe8214-3b2b-49d5-a483-40d9f4de4480","system_id":"levelo_inurba_marseille","lat":43.30547,"lon":5.38426,"is_reserved":false,"is_disabled":false,"rental_uris":{"android":"levelo://app?vid=a7fe8214-3b2b-49d5-a483-40d9f4de4480","ios":"levelo://app?vid=a7fe8214-3b2b-49d5-a483-40d9f4de4480"},"vehicle_type_id":"4","last_reported":1736287717,"current_range_meters":33200,"station_id":"ce4bgg92rcd13ifvqb30","pricing_plan_id":"cebpf4jnsgd1na2vs0mg"},{"bike_id":"768e9c78-d0a3-4809-a132-8653852c97b2","system_id":"levelo_inurba_marseille","lat":43.27496,"lon":5.42462,"is_reserved":false,"is_disabled":false,"rental_uris":{"android":"levelo://app?vid=768e9c78-d0a3-4809-a132-8653852c97b2","ios":"levelo://app?vid=768e9c78-d0a3-4809-a132-8653852c97b2"},"vehicle_type_id":"4","last_reported":1736287717,"current_range_meters":22800,"station_id":"ce4bhn92rcd13ifvqgrg","pricing_plan_id":"cebpf4jnsgd1na2vs0mg"},{"bike_id":"33fe8e28-aef5-4bae-82fb-f4e4f6a7553a","system_id":"levelo_inurba_marseille","lat":43.27986,"lon":5.41654,"is_reserved":false,"is_disabled":false,"rental_uris":{"android":"levelo://app?vid=33fe8e28-aef5-4bae-82fb-f4e4f6a7553a","ios":"levelo://app?vid=33fe8e28-aef5-4bae-82fb-f4e4f6a7553a"},"vehicle_type_id":"4","last_reported":1736287717,"current_range_meters":27600,"station_id":"ce4bho12rcd13ifvqh1g","pricing_plan_id":"cebpf4jnsgd1na2vs0mg"},{"bike_id":"3fb13664-6662-4481-a42c-e0f9830bd7f5","system_id":"levelo_inurba_marseille","lat":43.28111,"lon":5.37847,"is_reserved":false,"is_disabled":false,"rental_uris":{"android":"levelo://app?vid=3fb13664-6662-4481-a42c-e0f9830bd7f5","ios":"levelo://app?vid=3fb13664-6662-4481-a42c-e0f9830bd7f5"},"vehicle_type_id":"4","last_reported":1736287717,"current_range_meters":35200,"station_id":"ce4bha12rcd13ifvqee0","pricing_plan_id":"cebpf4jnsgd1na2vs0mg"},{"bike_id":"05171470-9655-4536-889b-43822d7bd8f5","system_id":"levelo_inurba_marseille","lat":43.31285,"lon":5.37378,"is_reserved":false,"is_disabled":false,"rental_uris":{"android":"levelo://app?vid=05171470-9655-4536-889b-43822d7bd8f5","ios":"levelo://app?vid=05171470-9655-4536-889b-43822d7bd8f5"},"vehicle_type_id":"4","last_reported":1736287717,"current_range_meters":6000,"station_id":"","pricing_plan_id":"cebpf4jnsgd1na2vs0mg"},{"bike_id":"3a4fd31b-2034-4305-bd96-b8ee7498ba97","system_id":"levelo_inurba_marseille","lat":43.28946,"lon":5.39631,"is_reserved":false,"is_disabled":false,"rental_uris":{"android":"levelo://app?vid=3a4fd31b-2034-4305-bd96-b8ee7498ba97","ios":"levelo://app?vid=3a4fd31b-2034-4305-bd96-b8ee7498ba97"},"vehicle_type_id":"4","last_reported":1736287717,"current_range_meters":11600,"station_id":"ce4bh3h2rcd13ifvqdn0","pricing_plan_id":"cebpf4jnsgd1na2vs0mg"},{"bike_id":"f4485267-9cb2-445f-b45d-ced2f7f46376","system_id":"levelo_inurba_marseille","lat":43.28666,"lon":5.36339,"is_reserved":false,"is_disabled":false,"rental_uris":{"android":"levelo://app?vid=f4485267-9cb2-445f-b45d-ced2f7f46376","ios":"levelo://app?vid=f4485267-9cb2-445f-b45d-ced2f7f46376"},"vehicle_type_id":"4","last_reported":1736287717,"current_range_meters":38400,"station_id":"ce4bhah2rcd13ifvqej0","pricing_plan_id":"cebpf4jnsgd1na2vs0mg"},{"bike_id":"d0f7f7c9-5d11-43e5-ac3d-598fa4404ec8","system_id":"levelo_inurba_marseille","lat":43.23181,"lon":5.39965,"is_reserved":false,"is_disabled":false,"rental_uris":{"android":"levelo://app?vid=d0f7f7c9-5d11-43e5-ac3d-598fa4404ec8","ios":"levelo://app?vid=d0f7f7c9-5d11-43e5-ac3d-598fa4404ec8"},"vehicle_type_id":"4","last_reported":1736287717,"current_range_meters":21600,"station_id":"ce4bhn12rcd13ifvqgqg","pricing_plan_id":"cebpf4jnsgd1na2vs0mg"},{"bike_id":"3cd8dc7e-334e-49ea-81a0-9f0c97db9f7e","system_id":"levelo_inurba_marseille","lat":43.29291,"lon":5.40129,"is_reserved":false,"is_disabled":false,"rental_uris":{"android":"levelo://app?vid=3cd8dc7e-334e-49ea-81a0-9f0c97db9f7e","ios":"levelo://app?vid=3cd8dc7e-334e-49ea-81a0-9f0c97db9f7e"},"vehicle_type_id":"4","last_reported":1736287717,"current_range_meters":34000,"station_id":"ce4bh312rcd13ifvqdk0","pricing_plan_id":"cebpf4jnsgd1na2vs0mg"},{"bike_id":"7cb6f5cc-452f-419e-9da1-f27fcae37391","system_id":"levelo_inurba_marseille","lat":43.28666,"lon":5.363456,"is_reserved":false,"is_disabled":false,"rental_uris":{"android":"levelo://app?vid=7cb6f5cc-452f-419e-9da1-f27fcae37391","ios":"levelo://app?vid=7cb6f5cc-452f-419e-9da1-f27fcae37391"},"vehicle_type_id":"4","last_reported":1736287717,"current_range_meters":39200,"station_id":"ce4bhah2rcd13ifvqej0","pricing_plan_id":"cebpf4jnsgd1na2vs0mg"},{"bike_id":"664c9e1f-b826-49b9-9392-47dc504cd46e","system_id":"levelo_inurba_marseille","lat":43.28701,"lon":5.39965,"is_reserved":false,"is_disabled":false,"rental_uris":{"android":"levelo://app?vid=664c9e1f-b826-49b9-9392-47dc504cd46e","ios":"levelo://app?vid=664c9e1f-b826-49b9-9392-47dc504cd46e"},"vehicle_type_id":"4","last_reported":1736287717,"current_range_meters":36000,"station_id":"ce4bho92rcd13ifvqh3g","pricing_plan_id":"cebpf4jnsgd1na2vs0mg"},{"bike_id":"b3e74576-3661-44a1-9920-c9d87eb9988a","system_id":"levelo_inurba_marseille","lat":43.32657,"lon":5.40991,"is_reserved":false,"is_disabled":false,"rental_uris":{"android":"levelo://app?vid=b3e74576-3661-44a1-9920-c9d87eb9988a","ios":"levelo://app?vid=b3e74576-3661-44a1-9920-c9d87eb9988a"},"vehicle_type_id":"4","last_reported":1736287717,"current_range_meters":38800,"station_id":"ce4bhpp2rcd13ifvqhgg","pricing_plan_id":"cebpf4jnsgd1na2vs0mg"},{"bike_id":"46601624-4642-4090-b267-fe48ebb0857a","system_id":"levelo_inurba_marseille","lat":43.30262,"lon":5.40054,"is_reserved":false,"is_disabled":false,"rental_uris":{"android":"levelo://app?vid=46601624-4642-4090-b267-fe48ebb0857a","ios":"levelo://app?vid=46601624-4642-4090-b267-fe48ebb0857a"},"vehicle_type_id":"4","last_reported":1736287717,"current_range_meters":37600,"station_id":"ce4bgvh2rcd13ifvqcs0","pricing_plan_id":"cebpf4jnsgd1na2vs0mg"},{"bike_id":"257c7a47-4074-4a91-b13c-b76f6fa570cc","system_id":"levelo_inurba_marseille","lat":43.25582,"lon":5.38245,"is_reserved":false,"is_disabled":false,"rental_uris":{"android":"levelo://app?vid=257c7a47-4074-4a91-b13c-b76f6fa570cc","ios":"levelo://app?vid=257c7a47-4074-4a91-b13c-b76f6fa570cc"},"vehicle_type_id":"4","last_reported":1736287717,"current_range_meters":30000,"station_id":"ce4bhih2rcd13ifvqfs0","pricing_plan_id":"cebpf4jnsgd1na2vs0mg"},{"bike_id":"cdfea266-e5fd-4018-a292-1ba3701f72dd","system_id":"levelo_inurba_marseille","lat":43.25495,"lon":5.3764,"is_reserved":false,"is_disabled":false,"rental_uris":{"android":"levelo://app?vid=cdfea266-e5fd-4018-a292-1ba3701f72dd","ios":"levelo://app?vid=cdfea266-e5fd-4018-a292-1ba3701f72dd"},"vehicle_type_id":"4","last_reported":1736287717,"current_range_meters":30000,"station_id":"ce4bhh12rcd13ifvqff0","pricing_plan_id":"cebpf4jnsgd1na2vs0mg"},{"bike_id":"b63170bb-b674-4596-92ad-67a5ae24f3da","system_id":"levelo_inurba_marseille","lat":43.29937,"lon":5.38149,"is_reserved":false,"is_disabled":false,"rental_uris":{"android":"levelo://app?vid=b63170bb-b674-4596-92ad-67a5ae24f3da","ios":"levelo://app?vid=b63170bb-b674-4596-92ad-67a5ae24f3da"},"vehicle_type_id":"4","last_reported":1736287717,"current_range_meters":36800,"station_id":"ce4bgj12rcd13ifvqbc0","pricing_plan_id":"cebpf4jnsgd1na2vs0mg"},{"bike_id":"d17d631b-7434-4c3f-a667-cb43ae2fd84f","system_id":"levelo_inurba_marseille","lat":43.28874,"lon":5.35864,"is_reserved":false,"is_disabled":false,"rental_uris":{"android":"levelo://app?vid=d17d631b-7434-4c3f-a667-cb43ae2fd84f","ios":"levelo://app?vid=d17d631b-7434-4c3f-a667-cb43ae2fd84f"},"vehicle_type_id":"4","last_reported":1736287717,"current_range_meters":39200,"station_id":"ce4bhb12rcd13ifvqem0","pricing_plan_id":"cebpf4jnsgd1na2vs0mg"},{"bike_id":"cf55238d-3e2d-485d-8238-c5609593f49b","system_id":"levelo_inurba_marseille","lat":43.26692,"lon":5.38267,"is_reserved":false,"is_disabled":true,"rental_uris":{"android":"levelo://app?vid=cf55238d-3e2d-485d-8238-c5609593f49b","ios":"levelo://app?vid=cf55238d-3e2d-485d-8238-c5609593f49b"},"vehicle_type_id":"4","last_reported":1736287717,"current_range_meters":24800,"station_id":"ce4bhg92rcd13ifvqf90","pricing_plan_id":"cebpf4jnsgd1na2vs0mg"},{"bike_id":"336be5b4-41be-4c93-8b79-276dcd225506","system_id":"levelo_inurba_marseille","lat":43.29213,"lon":5.36048,"is_reserved":false,"is_disabled":true,"rental_uris":{"android":"levelo://app?vid=336be5b4-41be-4c93-8b79-276dcd225506","ios":"levelo://app?vid=336be5b4-41be-4c93-8b79-276dcd225506"},"vehicle_type_id":"4","last_reported":1736287717,"current_range_meters":28400,"station_id":"ce4bhbh2rcd13ifvqeqg","pricing_plan_id":"cebpf4jnsgd1na2vs0mg"},{"bike_id":"e755b915-8295-4482-af40-2672f6d45ee4","system_id":"levelo_inurba_marseille","lat":43.29035,"lon":5.38642,"is_reserved":false,"is_disabled":false,"rental_uris":{"android":"levelo://app?vid=e755b915-8295-4482-af40-2672f6d45ee4","ios":"levelo://app?vid=e755b915-8295-4482-af40-2672f6d45ee4"},"vehicle_type_id":"4","last_reported":1736287717,"current_range_meters":21600,"station_id":"ce4bh4p2rcd13ifvqe0g","pricing_plan_id":"cebpf4jnsgd1na2vs0mg"},{"bike_id":"f69b77cd-6d5e-4725-bf20-65ce5cc10847","system_id":"levelo_inurba_marseille","lat":43.29883,"lon":5.39733,"is_reserved":false,"is_disabled":false,"rental_uris":{"android":"levelo://app?vid=f69b77cd-6d5e-4725-bf20-65ce5cc10847","ios":"levelo://app?vid=f69b77cd-6d5e-4725-bf20-65ce5cc10847"},"vehicle_type_id":"4","last_reported":1736287717,"current_range_meters":38800,"station_id":"ce4bh0h2rcd13ifvqd50","pricing_plan_id":"cebpf4jnsgd1na2vs0mg"},{"bike_id":"a9832cae-9c90-4e32-b592-d87dfcb6ad90","system_id":"levelo_inurba_marseille","lat":43.30879,"lon":5.3963,"is_reserved":false,"is_disabled":false,"rental_uris":{"android":"levelo://app?vid=a9832cae-9c90-4e32-b592-d87dfcb6ad90","ios":"levelo://app?vid=a9832cae-9c90-4e32-b592-d87dfcb6ad90"},"vehicle_type_id":"4","last_reported":1736287717,"current_range_meters":10000,"station_id":"ce4bh012rcd13ifvqcv0","pricing_plan_id":"cebpf4jnsgd1na2vs0mg"},{"bike_id":"359c99d3-e9a6-4317-9ff6-fe07a6e6fedd","system_id":"levelo_inurba_marseille","lat":43.32066,"lon":5.41553,"is_reserved":false,"is_disabled":false,"rental_uris":{"android":"levelo://app?vid=359c99d3-e9a6-4317-9ff6-fe07a6e6fedd","ios":"levelo://app?vid=359c99d3-e9a6-4317-9ff6-fe07a6e6fedd"},"vehicle_type_id":"4","last_reported":1736287717,"current_range_meters":38800,"station_id":"ce4bhq92rcd13ifvqhkg","pricing_plan_id":"cebpf4jnsgd1na2vs0mg"},{"bike_id":"311e38b6-ab5a-4a2c-8b41-6425f4338753","system_id":"levelo_inurba_marseille","lat":43.32363,"lon":5.38868,"is_reserved":false,"is_disabled":false,"rental_uris":{"android":"levelo://app?vid=311e38b6-ab5a-4a2c-8b41-6425f4338753","ios":"levelo://app?vid=311e38b6-ab5a-4a2c-8b41-6425f4338753"},"vehicle_type_id":"4","last_reported":1736287717,"current_range_meters":34000,"station_id":"ce4bhqp2rcd13ifvqhog","pricing_plan_id":"cebpf4jnsgd1na2vs0mg"},{"bike_id":"724307d7-78e5-46d8-b424-0dcb35bbdcfc","system_id":"levelo_inurba_marseille","lat":43.30931,"lon":5.40144,"is_reserved":false,"is_disabled":false,"rental_uris":{"android":"levelo://app?vid=724307d7-78e5-46d8-b424-0dcb35bbdcfc","ios":"levelo://app?vid=724307d7-78e5-46d8-b424-0dcb35bbdcfc"},"vehicle_type_id":"4","last_reported":1736287717,"current_range_meters":36800,"station_id":"ce4bgvp2rcd13ifvqct0","pricing_plan_id":"cebpf4jnsgd1na2vs0mg"},{"bike_id":"888a8d03-e6ea-46d6-ac93-b28aafef49da","system_id":"levelo_inurba_marseille","lat":43.284587,"lon":5.358767,"is_reserved":false,"is_disabled":false,"rental_uris":{"android":"levelo://app?vid=888a8d03-e6ea-46d6-ac93-b28aafef49da","ios":"levelo://app?vid=888a8d03-e6ea-46d6-ac93-b28aafef49da"},"vehicle_type_id":"4","last_reported":1736287717,"current_range_meters":20800,"station_id":"ce4bhah2rcd13ifvqei0","pricing_plan_id":"cebpf4jnsgd1na2vs0mg"},{"bike_id":"12195799-3bdd-4f45-bf33-c82043eac899","system_id":"levelo_inurba_marseille","lat":43.3189,"lon":5.40724,"is_reserved":false,"is_disabled":false,"rental_uris":{"android":"levelo://app?vid=12195799-3bdd-4f45-bf33-c82043eac899","ios":"levelo://app?vid=12195799-3bdd-4f45-bf33-c82043eac899"},"vehicle_type_id":"4","last_reported":1736287717,"current_range_meters":39200,"station_id":"ce4bhq12rcd13ifvqhig","pricing_plan_id":"cebpf4jnsgd1na2vs0mg"},{"bike_id":"daa5c66b-3e60-4a9f-9e8f-000065cc2082","system_id":"levelo_inurba_marseille","lat":43.30884,"lon":5.39626,"is_reserved":false,"is_disabled":false,"rental_uris":{"android":"levelo://app?vid=daa5c66b-3e60-4a9f-9e8f-000065cc2082","ios":"levelo://app?vid=daa5c66b-3e60-4a9f-9e8f-000065cc2082"},"vehicle_type_id":"4","last_reported":1736287717,"current_range_meters":24000,"station_id":"ce4bh012rcd13ifvqcv0","pricing_plan_id":"cebpf4jnsgd1na2vs0mg"},{"bike_id":"9571ed17-4581-4658-b5b9-d5fdfdd8240b","system_id":"levelo_inurba_marseille","lat":43.29015,"lon":5.38629,"is_reserved":false,"is_disabled":false,"rental_uris":{"android":"levelo://app?vid=9571ed17-4581-4658-b5b9-d5fdfdd8240b","ios":"levelo://app?vid=9571ed17-4581-4658-b5b9-d5fdfdd8240b"},"vehicle_type_id":"4","last_reported":1736287717,"current_range_meters":39200,"station_id":"ce4bh4p2rcd13ifvqe0g","pricing_plan_id":"cebpf4jnsgd1na2vs0mg"},{"bike_id":"a4dec33a-3574-46ab-bf07-5ce5a74a1fd6","system_id":"levelo_inurba_marseille","lat":43.2861,"lon":5.35108,"is_reserved":false,"is_disabled":false,"rental_uris":{"android":"levelo://app?vid=a4dec33a-3574-46ab-bf07-5ce5a74a1fd6","ios":"levelo://app?vid=a4dec33a-3574-46ab-bf07-5ce5a74a1fd6"},"vehicle_type_id":"4","last_reported":1736287717,"current_range_meters":28800,"station_id":"ce4bhch2rcd13ifvqeug","pricing_plan_id":"cebpf4jnsgd1na2vs0mg"},{"bike_id":"1ab3c24e-721d-44a5-82f0-e7490a066076","system_id":"levelo_inurba_marseille","lat":43.25863,"lon":5.3991,"is_reserved":false,"is_disabled":false,"rental_uris":{"android":"levelo://app?vid=1ab3c24e-721d-44a5-82f0-e7490a066076","ios":"levelo://app?vid=1ab3c24e-721d-44a5-82f0-e7490a066076"},"vehicle_type_id":"4","last_reported":1736287717,"current_range_meters":38000,"station_id":"ce4bhl92rcd13ifvqghg","pricing_plan_id":"cebpf4jnsgd1na2vs0mg"},{"bike_id":"f3d1f244-18c3-434d-87c1-4500012e65af","system_id":"levelo_inurba_marseille","lat":43.337444,"lon":5.374475,"is_reserved":false,"is_disabled":false,"rental_uris":{"android":"levelo://app?vid=f3d1f244-18c3-434d-87c1-4500012e65af","ios":"levelo://app?vid=f3d1f244-18c3-434d-87c1-4500012e65af"},"vehicle_type_id":"4","last_reported":1736287717,"current_range_meters":26000,"station_id":"","pricing_plan_id":"cebpf4jnsgd1na2vs0mg"},{"bike_id":"1e522e28-7523-4705-8e1d-17ba87fdcdd7","system_id":"levelo_inurba_marseille","lat":43.25829,"lon":5.39429,"is_reserved":false,"is_disabled":false,"rental_uris":{"android":"levelo://app?vid=1e522e28-7523-4705-8e1d-17ba87fdcdd7","ios":"levelo://app?vid=1e522e28-7523-4705-8e1d-17ba87fdcdd7"},"vehicle_type_id":"4","last_reported":1736287717,"current_range_meters":21600,"station_id":"ce4bhip2rcd13ifvqft0","pricing_plan_id":"cebpf4jnsgd1na2vs0mg"},{"bike_id":"356dccd7-af0b-4cb6-b4d9-acfab9c357f8","system_id":"levelo_inurba_marseille","lat":43.28706,"lon":5.37922,"is_reserved":false,"is_disabled":false,"rental_uris":{"android":"levelo://app?vid=356dccd7-af0b-4cb6-b4d9-acfab9c357f8","ios":"levelo://app?vid=356dccd7-af0b-4cb6-b4d9-acfab9c357f8"},"vehicle_type_id":"4","last_reported":1736287717,"current_range_meters":38800,"station_id":"ce4bh9p2rcd13ifvqec0","pricing_plan_id":"cebpf4jnsgd1na2vs0mg"},{"bike_id":"30add41c-1c89-4c0e-8350-e2c7f794d882","system_id":"levelo_inurba_marseille","lat":43.28546,"lon":5.39528,"is_reserved":false,"is_disabled":false,"rental_uris":{"android":"levelo://app?vid=30add41c-1c89-4c0e-8350-e2c7f794d882","ios":"levelo://app?vid=30add41c-1c89-4c0e-8350-e2c7f794d882"},"vehicle_type_id":"4","last_reported":1736287717,"current_range_meters":38800,"station_id":"ce4bh292rcd13ifvqdg0","pricing_plan_id":"cebpf4jnsgd1na2vs0mg"},{"bike_id":"39a66161-6256-4a44-9ff8-9ec79f8478c8","system_id":"levelo_inurba_marseille","lat":43.28625,"lon":5.35107,"is_reserved":false,"is_disabled":false,"rental_uris":{"android":"levelo://app?vid=39a66161-6256-4a44-9ff8-9ec79f8478c8","ios":"levelo://app?vid=39a66161-6256-4a44-9ff8-9ec79f8478c8"},"vehicle_type_id":"4","last_reported":1736287717,"current_range_meters":19600,"station_id":"ce4bhch2rcd13ifvqeug","pricing_plan_id":"cebpf4jnsgd1na2vs0mg"},{"bike_id":"b39644bc-bc3d-44b9-9efd-ad39a82efd47","system_id":"levelo_inurba_marseille","lat":43.29212,"lon":5.39267,"is_reserved":false,"is_disabled":false,"rental_uris":{"android":"levelo://app?vid=b39644bc-bc3d-44b9-9efd-ad39a82efd47","ios":"levelo://app?vid=b39644bc-bc3d-44b9-9efd-ad39a82efd47"},"vehicle_type_id":"4","last_reported":1736287717,"current_range_meters":27200,"station_id":"ce4bh192rcd13ifvqdd0","pricing_plan_id":"cebpf4jnsgd1na2vs0mg"},{"bike_id":"d45d0089-5e8c-41ac-a04c-9866c8dc94cc","system_id":"levelo_inurba_marseille","lat":43.23197,"lon":5.35546,"is_reserved":false,"is_disabled":false,"rental_uris":{"android":"levelo://app?vid=d45d0089-5e8c-41ac-a04c-9866c8dc94cc","ios":"levelo://app?vid=d45d0089-5e8c-41ac-a04c-9866c8dc94cc"},"vehicle_type_id":"4","last_reported":1736287717,"current_range_meters":38000,"station_id":"ce4bhu92rcd13ifvqi70","pricing_plan_id":"cebpf4jnsgd1na2vs0mg"},{"bike_id":"da60c4cf-490b-4e60-8141-e8f05bde3cfa","system_id":"levelo_inurba_marseille","lat":43.28616,"lon":5.35102,"is_reserved":false,"is_disabled":true,"rental_uris":{"android":"levelo://app?vid=da60c4cf-490b-4e60-8141-e8f05bde3cfa","ios":"levelo://app?vid=da60c4cf-490b-4e60-8141-e8f05bde3cfa"},"vehicle_type_id":"4","last_reported":1736287717,"current_range_meters":1600,"station_id":"ce4bhch2rcd13ifvqeug","pricing_plan_id":"cebpf4jnsgd1na2vs0mg"},{"bike_id":"aa33a53e-f806-43a8-ad7e-8e2bd9644426","system_id":"levelo_inurba_marseille","lat":43.32345,"lon":5.40629,"is_reserved":false,"is_disabled":true,"rental_uris":{"android":"levelo://app?vid=aa33a53e-f806-43a8-ad7e-8e2bd9644426","ios":"levelo://app?vid=aa33a53e-f806-43a8-ad7e-8e2bd9644426"},"vehicle_type_id":"4","last_reported":1736287717,"current_range_meters":0,"station_id":"ce4bhq92rcd13ifvqhjg","pricing_plan_id":"cebpf4jnsgd1na2vs0mg"},{"bike_id":"6ffd9d07-65c1-4ee7-9622-4023bc94e4c7","system_id":"levelo_inurba_marseille","lat":43.28568,"lon":5.39496,"is_reserved":false,"is_disabled":false,"rental_uris":{"android":"levelo://app?vid=6ffd9d07-65c1-4ee7-9622-4023bc94e4c7","ios":"levelo://app?vid=6ffd9d07-65c1-4ee7-9622-4023bc94e4c7"},"vehicle_type_id":"4","last_reported":1736287717,"current_range_meters":24800,"station_id":"ce4bh292rcd13ifvqdg0","pricing_plan_id":"cebpf4jnsgd1na2vs0mg"},{"bike_id":"28706a8a-e4d8-40e9-a34b-f308bb4cb4ca","system_id":"levelo_inurba_marseille","lat":43.31325,"lon":5.39699,"is_reserved":false,"is_disabled":false,"rental_uris":{"android":"levelo://app?vid=28706a8a-e4d8-40e9-a34b-f308bb4cb4ca","ios":"levelo://app?vid=28706a8a-e4d8-40e9-a34b-f308bb4cb4ca"},"vehicle_type_id":"4","last_reported":1736287717,"current_range_meters":39200,"station_id":"ce4bgvp2rcd13ifvqcu0","pricing_plan_id":"cebpf4jnsgd1na2vs0mg"},{"bike_id":"72e0e536-26f1-4692-9d71-00df2072ae44","system_id":"levelo_inurba_marseille","lat":43.24676,"lon":5.3816,"is_reserved":false,"is_disabled":false,"rental_uris":{"android":"levelo://app?vid=72e0e536-26f1-4692-9d71-00df2072ae44","ios":"levelo://app?vid=72e0e536-26f1-4692-9d71-00df2072ae44"},"vehicle_type_id":"4","last_reported":1736287717,"current_range_meters":18000,"station_id":"ce4bhih2rcd13ifvqfr0","pricing_plan_id":"cebpf4jnsgd1na2vs0mg"},{"bike_id":"4b7e1e60-d2fd-4d16-ab91-d577572c7207","system_id":"levelo_inurba_marseille","lat":43.28457,"lon":5.39203,"is_reserved":false,"is_disabled":false,"rental_uris":{"android":"levelo://app?vid=4b7e1e60-d2fd-4d16-ab91-d577572c7207","ios":"levelo://app?vid=4b7e1e60-d2fd-4d16-ab91-d577572c7207"},"vehicle_type_id":"4","last_reported":1736287717,"current_range_meters":17200,"station_id":"ce4bhoh2rcd13ifvqh5g","pricing_plan_id":"cebpf4jnsgd1na2vs0mg"},{"bike_id":"4040af94-3f70-4863-bf6a-de8d1807fa84","system_id":"levelo_inurba_marseille","lat":43.29918,"lon":5.37486,"is_reserved":false,"is_disabled":false,"rental_uris":{"android":"levelo://app?vid=4040af94-3f70-4863-bf6a-de8d1807fa84","ios":"levelo://app?vid=4040af94-3f70-4863-bf6a-de8d1807fa84"},"vehicle_type_id":"4","last_reported":1736287717,"current_range_meters":39200,"station_id":"ce4bgjh2rcd13ifvqbg0","pricing_plan_id":"cebpf4jnsgd1na2vs0mg"},{"bike_id":"be457d0e-e951-4c20-92b5-c162743063cd","system_id":"levelo_inurba_marseille","lat":43.33032,"lon":5.3905,"is_reserved":false,"is_disabled":false,"rental_uris":{"android":"levelo://app?vid=be457d0e-e951-4c20-92b5-c162743063cd","ios":"levelo://app?vid=be457d0e-e951-4c20-92b5-c162743063cd"},"vehicle_type_id":"4","last_reported":1736287717,"current_range_meters":14800,"station_id":"ce4bhr92rcd13ifvqhrg","pricing_plan_id":"cebpf4jnsgd1na2vs0mg"},{"bike_id":"5a610a92-ec66-4c09-b8f2-d292ab86e791","system_id":"levelo_inurba_marseille","lat":43.30149,"lon":5.37419,"is_reserved":false,"is_disabled":true,"rental_uris":{"android":"levelo://app?vid=5a610a92-ec66-4c09-b8f2-d292ab86e791","ios":"levelo://app?vid=5a610a92-ec66-4c09-b8f2-d292ab86e791"},"vehicle_type_id":"4","last_reported":1736287717,"current_range_meters":38400,"station_id":"ce4bgs92rcd13ifvqcc0","pricing_plan_id":"cebpf4jnsgd1na2vs0mg"},{"bike_id":"63e4fe09-ece1-455b-a47b-1454ab63f0cc","system_id":"levelo_inurba_marseille","lat":43.29031,"lon":5.38637,"is_reserved":false,"is_disabled":false,"rental_uris":{"android":"levelo://app?vid=63e4fe09-ece1-455b-a47b-1454ab63f0cc","ios":"levelo://app?vid=63e4fe09-ece1-455b-a47b-1454ab63f0cc"},"vehicle_type_id":"4","last_reported":1736287717,"current_range_meters":24800,"station_id":"ce4bh4p2rcd13ifvqe0g","pricing_plan_id":"cebpf4jnsgd1na2vs0mg"},{"bike_id":"a17bcdce-fbe1-45ba-9230-a6f804b11b05","system_id":"levelo_inurba_marseille","lat":43.28447,"lon":5.39228,"is_reserved":false,"is_disabled":false,"rental_uris":{"android":"levelo://app?vid=a17bcdce-fbe1-45ba-9230-a6f804b11b05","ios":"levelo://app?vid=a17bcdce-fbe1-45ba-9230-a6f804b11b05"},"vehicle_type_id":"4","last_reported":1736287717,"current_range_meters":14400,"station_id":"ce4bhoh2rcd13ifvqh5g","pricing_plan_id":"cebpf4jnsgd1na2vs0mg"},{"bike_id":"34c9a149-7d1b-4e58-a6b4-17edaa5a6718","system_id":"levelo_inurba_marseille","lat":43.330534,"lon":5.411899,"is_reserved":false,"is_disabled":false,"rental_uris":{"android":"levelo://app?vid=34c9a149-7d1b-4e58-a6b4-17edaa5a6718","ios":"levelo://app?vid=34c9a149-7d1b-4e58-a6b4-17edaa5a6718"},"vehicle_type_id":"4","last_reported":1736287717,"current_range_meters":22400,"station_id":"ce4bhq12rcd13ifvqhhg","pricing_plan_id":"cebpf4jnsgd1na2vs0mg"},{"bike_id":"d9d0ffde-9391-45f7-87f2-b2eb55ddba18","system_id":"levelo_inurba_marseille","lat":43.29627,"lon":5.37142,"is_reserved":false,"is_disabled":false,"rental_uris":{"android":"levelo://app?vid=d9d0ffde-9391-45f7-87f2-b2eb55ddba18","ios":"levelo://app?vid=d9d0ffde-9391-45f7-87f2-b2eb55ddba18"},"vehicle_type_id":"4","last_reported":1736287717,"current_range_meters":38800,"station_id":"ce4bgnh2rcd13ifvqc0g","pricing_plan_id":"cebpf4jnsgd1na2vs0mg"},{"bike_id":"4063b34e-f483-4c10-bdad-a759b3d89011","system_id":"levelo_inurba_marseille","lat":43.27834,"lon":5.4072,"is_reserved":false,"is_disabled":false,"rental_uris":{"android":"levelo://app?vid=4063b34e-f483-4c10-bdad-a759b3d89011","ios":"levelo://app?vid=4063b34e-f483-4c10-bdad-a759b3d89011"},"vehicle_type_id":"4","last_reported":1736287717,"current_range_meters":10800,"station_id":"ce4bhnh2rcd13ifvqgtg","pricing_plan_id":"cebpf4jnsgd1na2vs0mg"},{"bike_id":"1e4b11b9-aef6-4e3d-9c15-1a4a39f3f31a","system_id":"levelo_inurba_marseille","lat":43.2979,"lon":5.38112,"is_reserved":false,"is_disabled":true,"rental_uris":{"android":"levelo://app?vid=1e4b11b9-aef6-4e3d-9c15-1a4a39f3f31a","ios":"levelo://app?vid=1e4b11b9-aef6-4e3d-9c15-1a4a39f3f31a"},"vehicle_type_id":"4","last_reported":1736287717,"current_range_meters":36800,"station_id":"ce4bgip2rcd13ifvqbb0","pricing_plan_id":"cebpf4jnsgd1na2vs0mg"},{"bike_id":"b611d04a-68fa-4e69-89f5-f5abfb42c0c2","system_id":"levelo_inurba_marseille","lat":43.27371,"lon":5.36259,"is_reserved":false,"is_disabled":false,"rental_uris":{"android":"levelo://app?vid=b611d04a-68fa-4e69-89f5-f5abfb42c0c2","ios":"levelo://app?vid=b611d04a-68fa-4e69-89f5-f5abfb42c0c2"},"vehicle_type_id":"4","last_reported":1736287717,"current_range_meters":38400,"station_id":"ce4bhbh2rcd13ifvqeo0","pricing_plan_id":"cebpf4jnsgd1na2vs0mg"},{"bike_id":"e5bdb990-8fd8-4d6b-a4be-716d9b355fa0","system_id":"levelo_inurba_marseille","lat":43.33611,"lon":5.4103,"is_reserved":false,"is_disabled":false,"rental_uris":{"android":"levelo://app?vid=e5bdb990-8fd8-4d6b-a4be-716d9b355fa0","ios":"levelo://app?vid=e5bdb990-8fd8-4d6b-a4be-716d9b355fa0"},"vehicle_type_id":"4","last_reported":1736287717,"current_range_meters":37600,"station_id":"ce4bhqh2rcd13ifvqhmg","pricing_plan_id":"cebpf4jnsgd1na2vs0mg"},{"bike_id":"3f86cc4e-c4fd-40a8-a7f2-03738bc004c2","system_id":"levelo_inurba_marseille","lat":43.28462,"lon":5.35885,"is_reserved":false,"is_disabled":false,"rental_uris":{"android":"levelo://app?vid=3f86cc4e-c4fd-40a8-a7f2-03738bc004c2","ios":"levelo://app?vid=3f86cc4e-c4fd-40a8-a7f2-03738bc004c2"},"vehicle_type_id":"4","last_reported":1736287717,"current_range_meters":39200,"station_id":"ce4bhah2rcd13ifvqei0","pricing_plan_id":"cebpf4jnsgd1na2vs0mg"},{"bike_id":"60777f10-9e63-4db0-a47c-9d1377c2373f","system_id":"levelo_inurba_marseille","lat":43.294341,"lon":5.397544,"is_reserved":false,"is_disabled":false,"rental_uris":{"android":"levelo://app?vid=60777f10-9e63-4db0-a47c-9d1377c2373f","ios":"levelo://app?vid=60777f10-9e63-4db0-a47c-9d1377c2373f"},"vehicle_type_id":"4","last_reported":1736287717,"current_range_meters":36400,"station_id":"ce4bh3h2rcd13ifvqdo0","pricing_plan_id":"cebpf4jnsgd1na2vs0mg"},{"bike_id":"c83aa1f0-f576-4ae9-bd5a-2cd21c831de7","system_id":"levelo_inurba_marseille","lat":43.28935,"lon":5.36382,"is_reserved":false,"is_disabled":false,"rental_uris":{"android":"levelo://app?vid=c83aa1f0-f576-4ae9-bd5a-2cd21c831de7","ios":"levelo://app?vid=c83aa1f0-f576-4ae9-bd5a-2cd21c831de7"},"vehicle_type_id":"4","last_reported":1736287717,"current_range_meters":38800,"station_id":"ce4bhc92rcd13ifvqetg","pricing_plan_id":"cebpf4jnsgd1na2vs0mg"},{"bike_id":"bbf998ea-d252-4590-8711-16d78ff4b07c","system_id":"levelo_inurba_marseille","lat":43.24648,"lon":5.38889,"is_reserved":false,"is_disabled":false,"rental_uris":{"android":"levelo://app?vid=bbf998ea-d252-4590-8711-16d78ff4b07c","ios":"levelo://app?vid=bbf998ea-d252-4590-8711-16d78ff4b07c"},"vehicle_type_id":"4","last_reported":1736287717,"current_range_meters":24800,"station_id":"ce4bhg12rcd13ifvqf60","pricing_plan_id":"cebpf4jnsgd1na2vs0mg"},{"bike_id":"d427a48c-6a59-4af7-8159-825bb345dc4c","system_id":"levelo_inurba_marseille","lat":43.30647,"lon":5.40093,"is_reserved":false,"is_disabled":false,"rental_uris":{"android":"levelo://app?vid=d427a48c-6a59-4af7-8159-825bb345dc4c","ios":"levelo://app?vid=d427a48c-6a59-4af7-8159-825bb345dc4c"},"vehicle_type_id":"4","last_reported":1736287717,"current_range_meters":27200,"station_id":"ce4bh112rcd13ifvqda0","pricing_plan_id":"cebpf4jnsgd1na2vs0mg"},{"bike_id":"6b25d49c-a3a9-46f5-916b-3ae4947b87d3","system_id":"levelo_inurba_marseille","lat":43.30196,"lon":5.36627,"is_reserved":false,"is_disabled":false,"rental_uris":{"android":"levelo://app?vid=6b25d49c-a3a9-46f5-916b-3ae4947b87d3","ios":"levelo://app?vid=6b25d49c-a3a9-46f5-916b-3ae4947b87d3"},"vehicle_type_id":"4","last_reported":1736287717,"current_range_meters":28800,"station_id":"ce4bgrh2rcd13ifvqc8g","pricing_plan_id":"cebpf4jnsgd1na2vs0mg"},{"bike_id":"876bad65-6b50-4eed-b354-4c99b33882cf","system_id":"levelo_inurba_marseille","lat":43.31691,"lon":5.40471,"is_reserved":false,"is_disabled":false,"rental_uris":{"android":"levelo://app?vid=876bad65-6b50-4eed-b354-4c99b33882cf","ios":"levelo://app?vid=876bad65-6b50-4eed-b354-4c99b33882cf"},"vehicle_type_id":"4","last_reported":1736287717,"current_range_meters":22400,"station_id":"ce4bh012rcd13ifvqd00","pricing_plan_id":"cebpf4jnsgd1na2vs0mg"},{"bike_id":"1f3279ad-7688-4d1e-817a-428a5253b908","system_id":"levelo_inurba_marseille","lat":43.31326,"lon":5.39691,"is_reserved":false,"is_disabled":false,"rental_uris":{"android":"levelo://app?vid=1f3279ad-7688-4d1e-817a-428a5253b908","ios":"levelo://app?vid=1f3279ad-7688-4d1e-817a-428a5253b908"},"vehicle_type_id":"4","last_reported":1736287717,"current_range_meters":32800,"station_id":"ce4bgvp2rcd13ifvqcu0","pricing_plan_id":"cebpf4jnsgd1na2vs0mg"},{"bike_id":"7ea61dd7-f06d-4bd3-b948-c61499b73664","system_id":"levelo_inurba_marseille","lat":43.26563,"lon":5.39006,"is_reserved":false,"is_disabled":false,"rental_uris":{"android":"levelo://app?vid=7ea61dd7-f06d-4bd3-b948-c61499b73664","ios":"levelo://app?vid=7ea61dd7-f06d-4bd3-b948-c61499b73664"},"vehicle_type_id":"4","last_reported":1736287717,"current_range_meters":21600,"station_id":"ce4bhe12rcd13ifvqf30","pricing_plan_id":"cebpf4jnsgd1na2vs0mg"},{"bike_id":"7501b46c-f34a-4d33-9c30-ec6840e8af9c","system_id":"levelo_inurba_marseille","lat":43.2836,"lon":5.38122,"is_reserved":false,"is_disabled":true,"rental_uris":{"android":"levelo://app?vid=7501b46c-f34a-4d33-9c30-ec6840e8af9c","ios":"levelo://app?vid=7501b46c-f34a-4d33-9c30-ec6840e8af9c"},"vehicle_type_id":"4","last_reported":1736287717,"current_range_meters":22800,"station_id":"ce4bh412rcd13ifvqdr0","pricing_plan_id":"cebpf4jnsgd1na2vs0mg"},{"bike_id":"5ad5153a-9cc7-4301-b75f-a2dded67227b","system_id":"levelo_inurba_marseille","lat":43.28107,"lon":5.3783,"is_reserved":false,"is_disabled":false,"rental_uris":{"android":"levelo://app?vid=5ad5153a-9cc7-4301-b75f-a2dded67227b","ios":"levelo://app?vid=5ad5153a-9cc7-4301-b75f-a2dded67227b"},"vehicle_type_id":"4","last_reported":1736287717,"current_range_meters":39200,"station_id":"ce4bha12rcd13ifvqee0","pricing_plan_id":"cebpf4jnsgd1na2vs0mg"},{"bike_id":"bc2873b0-9774-491c-a2de-b95e350f7bdb","system_id":"levelo_inurba_marseille","lat":43.27751,"lon":5.39912,"is_reserved":false,"is_disabled":true,"rental_uris":{"android":"levelo://app?vid=bc2873b0-9774-491c-a2de-b95e350f7bdb","ios":"levelo://app?vid=bc2873b0-9774-491c-a2de-b95e350f7bdb"},"vehicle_type_id":"4","last_reported":1736287717,"current_range_meters":1200,"station_id":"","pricing_plan_id":"cebpf4jnsgd1na2vs0mg"},{"bike_id":"c00b7047-30e3-4fd6-ae7e-1d0066952646","system_id":"levelo_inurba_marseille","lat":43.29534,"lon":5.39036,"is_reserved":false,"is_disabled":false,"rental_uris":{"android":"levelo://app?vid=c00b7047-30e3-4fd6-ae7e-1d0066952646","ios":"levelo://app?vid=c00b7047-30e3-4fd6-ae7e-1d0066952646"},"vehicle_type_id":"4","last_reported":1736287717,"current_range_meters":37600,"station_id":"ce4bh3p2rcd13ifvqdp0","pricing_plan_id":"cebpf4jnsgd1na2vs0mg"},{"bike_id":"74942fe7-3e6e-4a0f-84df-8d76dcc310a7","system_id":"levelo_inurba_marseille","lat":43.29554,"lon":5.42274,"is_reserved":false,"is_disabled":true,"rental_uris":{"android":"levelo://app?vid=74942fe7-3e6e-4a0f-84df-8d76dcc310a7","ios":"levelo://app?vid=74942fe7-3e6e-4a0f-84df-8d76dcc310a7"},"vehicle_type_id":"4","last_reported":1736287717,"current_range_meters":4400,"station_id":"ce4bhph2rcd13ifvqhdg","pricing_plan_id":"cebpf4jnsgd1na2vs0mg"},{"bike_id":"d66fa23c-9061-45b0-afac-bee93436838c","system_id":"levelo_inurba_marseille","lat":43.31529,"lon":5.38036,"is_reserved":false,"is_disabled":false,"rental_uris":{"android":"levelo://app?vid=d66fa23c-9061-45b0-afac-bee93436838c","ios":"levelo://app?vid=d66fa23c-9061-45b0-afac-bee93436838c"},"vehicle_type_id":"4","last_reported":1736287717,"current_range_meters":24400,"station_id":"ce4bhsp2rcd13ifvqi50","pricing_plan_id":"cebpf4jnsgd1na2vs0mg"},{"bike_id":"1e297576-65d7-4d7e-82e0-d872b833f39a","system_id":"levelo_inurba_marseille","lat":43.30867,"lon":5.36908,"is_reserved":false,"is_disabled":false,"rental_uris":{"android":"levelo://app?vid=1e297576-65d7-4d7e-82e0-d872b833f39a","ios":"levelo://app?vid=1e297576-65d7-4d7e-82e0-d872b833f39a"},"vehicle_type_id":"4","last_reported":1736287717,"current_range_meters":24000,"station_id":"","pricing_plan_id":"cebpf4jnsgd1na2vs0mg"},{"bike_id":"dc05b672-3694-44a5-80f7-8b52b23fe0ed","system_id":"levelo_inurba_marseille","lat":43.25582,"lon":5.38247,"is_reserved":false,"is_disabled":false,"rental_uris":{"android":"levelo://app?vid=dc05b672-3694-44a5-80f7-8b52b23fe0ed","ios":"levelo://app?vid=dc05b672-3694-44a5-80f7-8b52b23fe0ed"},"vehicle_type_id":"4","last_reported":1736287717,"current_range_meters":38800,"station_id":"ce4bhih2rcd13ifvqfs0","pricing_plan_id":"cebpf4jnsgd1na2vs0mg"},{"bike_id":"f0892614-fdd7-41c0-bcbd-c7ac1dd83772","system_id":"levelo_inurba_marseille","lat":43.29306,"lon":5.37171,"is_reserved":false,"is_disabled":false,"rental_uris":{"android":"levelo://app?vid=f0892614-fdd7-41c0-bcbd-c7ac1dd83772","ios":"levelo://app?vid=f0892614-fdd7-41c0-bcbd-c7ac1dd83772"},"vehicle_type_id":"4","last_reported":1736287717,"current_range_meters":33600,"station_id":"ce4bgh92rcd13ifvqb40","pricing_plan_id":"cebpf4jnsgd1na2vs0mg"},{"bike_id":"f3068faf-6ea3-45c0-943e-8f5eb9fecb3c","system_id":"levelo_inurba_marseille","lat":43.23961,"lon":5.36634,"is_reserved":false,"is_disabled":false,"rental_uris":{"android":"levelo://app?vid=f3068faf-6ea3-45c0-943e-8f5eb9fecb3c","ios":"levelo://app?vid=f3068faf-6ea3-45c0-943e-8f5eb9fecb3c"},"vehicle_type_id":"4","last_reported":1736287717,"current_range_meters":36400,"station_id":"ce4bhi12rcd13ifvqfp0","pricing_plan_id":"cebpf4jnsgd1na2vs0mg"},{"bike_id":"6ab3cad9-47b9-4798-a758-202f34e11792","system_id":"levelo_inurba_marseille","lat":43.23184,"lon":5.39979,"is_reserved":false,"is_disabled":false,"rental_uris":{"android":"levelo://app?vid=6ab3cad9-47b9-4798-a758-202f34e11792","ios":"levelo://app?vid=6ab3cad9-47b9-4798-a758-202f34e11792"},"vehicle_type_id":"4","last_reported":1736287717,"current_range_meters":25600,"station_id":"ce4bhn12rcd13ifvqgqg","pricing_plan_id":"cebpf4jnsgd1na2vs0mg"},{"bike_id":"23a66e3f-8e17-4ad8-b689-a42d7cb5191e","system_id":"levelo_inurba_marseille","lat":43.27845,"lon":5.39254,"is_reserved":false,"is_disabled":true,"rental_uris":{"android":"levelo://app?vid=23a66e3f-8e17-4ad8-b689-a42d7cb5191e","ios":"levelo://app?vid=23a66e3f-8e17-4ad8-b689-a42d7cb5191e"},"vehicle_type_id":"4","last_reported":1736287717,"current_range_meters":4000,"station_id":"","pricing_plan_id":"cebpf4jnsgd1na2vs0mg"},{"bike_id":"2937c8f0-6f06-4c7f-8240-41ad44bc55fa","system_id":"levelo_inurba_marseille","lat":43.23165,"lon":5.39967,"is_reserved":false,"is_disabled":false,"rental_uris":{"android":"levelo://app?vid=2937c8f0-6f06-4c7f-8240-41ad44bc55fa","ios":"levelo://app?vid=2937c8f0-6f06-4c7f-8240-41ad44bc55fa"},"vehicle_type_id":"4","last_reported":1736287717,"current_range_meters":8800,"station_id":"ce4bhn12rcd13ifvqgqg","pricing_plan_id":"cebpf4jnsgd1na2vs0mg"},{"bike_id":"80fe25c3-d7ec-4c58-bd91-b8ddab80e5ef","system_id":"levelo_inurba_marseille","lat":43.29263,"lon":5.40903,"is_reserved":false,"is_disabled":false,"rental_uris":{"android":"levelo://app?vid=80fe25c3-d7ec-4c58-bd91-b8ddab80e5ef","ios":"levelo://app?vid=80fe25c3-d7ec-4c58-bd91-b8ddab80e5ef"},"vehicle_type_id":"4","last_reported":1736287717,"current_range_meters":36400,"station_id":"ce4bh192rcd13ifvqdc0","pricing_plan_id":"cebpf4jnsgd1na2vs0mg"},{"bike_id":"c67f86a7-d1e6-4e2d-a762-5d292001711c","system_id":"levelo_inurba_marseille","lat":43.3303,"lon":5.39041,"is_reserved":false,"is_disabled":false,"rental_uris":{"android":"levelo://app?vid=c67f86a7-d1e6-4e2d-a762-5d292001711c","ios":"levelo://app?vid=c67f86a7-d1e6-4e2d-a762-5d292001711c"},"vehicle_type_id":"4","last_reported":1736287717,"current_range_meters":38800,"station_id":"ce4bhr92rcd13ifvqhrg","pricing_plan_id":"cebpf4jnsgd1na2vs0mg"},{"bike_id":"8987b459-1a43-4a6f-a8f5-94a5f8ab7612","system_id":"levelo_inurba_marseille","lat":43.29191,"lon":5.39321,"is_reserved":false,"is_disabled":false,"rental_uris":{"android":"levelo://app?vid=8987b459-1a43-4a6f-a8f5-94a5f8ab7612","ios":"levelo://app?vid=8987b459-1a43-4a6f-a8f5-94a5f8ab7612"},"vehicle_type_id":"4","last_reported":1736287717,"current_range_meters":14000,"station_id":"ce4bh192rcd13ifvqdd0","pricing_plan_id":"cebpf4jnsgd1na2vs0mg"},{"bike_id":"6cb2454f-e31a-4981-a1bc-e8425a6d5cb8","system_id":"levelo_inurba_marseille","lat":43.292518,"lon":5.40903,"is_reserved":false,"is_disabled":false,"rental_uris":{"android":"levelo://app?vid=6cb2454f-e31a-4981-a1bc-e8425a6d5cb8","ios":"levelo://app?vid=6cb2454f-e31a-4981-a1bc-e8425a6d5cb8"},"vehicle_type_id":"4","last_reported":1736287717,"current_range_meters":38800,"station_id":"ce4bh192rcd13ifvqdc0","pricing_plan_id":"cebpf4jnsgd1na2vs0mg"},{"bike_id":"1345d40d-94bc-4aa7-8376-c7823ff8552c","system_id":"levelo_inurba_marseille","lat":43.3043,"lon":5.3975,"is_reserved":false,"is_disabled":false,"rental_uris":{"android":"levelo://app?vid=1345d40d-94bc-4aa7-8376-c7823ff8552c","ios":"levelo://app?vid=1345d40d-94bc-4aa7-8376-c7823ff8552c"},"vehicle_type_id":"4","last_reported":1736287717,"current_range_meters":35600,"station_id":"ce4bh092rcd13ifvqd20","pricing_plan_id":"cebpf4jnsgd1na2vs0mg"},{"bike_id":"b4c92795-30bd-48f5-b0ae-1c8ac5115428","system_id":"levelo_inurba_marseille","lat":43.28834,"lon":5.35884,"is_reserved":false,"is_disabled":false,"rental_uris":{"android":"levelo://app?vid=b4c92795-30bd-48f5-b0ae-1c8ac5115428","ios":"levelo://app?vid=b4c92795-30bd-48f5-b0ae-1c8ac5115428"},"vehicle_type_id":"4","last_reported":1736287717,"current_range_meters":39200,"station_id":"ce4bhb12rcd13ifvqem0","pricing_plan_id":"cebpf4jnsgd1na2vs0mg"},{"bike_id":"d014f699-d84d-436b-b3bf-8c059d18ea89","system_id":"levelo_inurba_marseille","lat":43.22926,"lon":5.35369,"is_reserved":false,"is_disabled":false,"rental_uris":{"android":"levelo://app?vid=d014f699-d84d-436b-b3bf-8c059d18ea89","ios":"levelo://app?vid=d014f699-d84d-436b-b3bf-8c059d18ea89"},"vehicle_type_id":"4","last_reported":1736287717,"current_range_meters":6800,"station_id":"cpo3532slgdg3j2ikp40","pricing_plan_id":"cebpf4jnsgd1na2vs0mg"},{"bike_id":"85db0274-aa0a-4f9a-b691-02cfca5d3623","system_id":"levelo_inurba_marseille","lat":43.29838,"lon":5.36279,"is_reserved":false,"is_disabled":false,"rental_uris":{"android":"levelo://app?vid=85db0274-aa0a-4f9a-b691-02cfca5d3623","ios":"levelo://app?vid=85db0274-aa0a-4f9a-b691-02cfca5d3623"},"vehicle_type_id":"4","last_reported":1736287717,"current_range_meters":38800,"station_id":"ce4bgpp2rcd13ifvqc3g","pricing_plan_id":"cebpf4jnsgd1na2vs0mg"},{"bike_id":"24cfb9bb-a233-4620-92eb-57873cc052c7","system_id":"levelo_inurba_marseille","lat":43.30133,"lon":5.38773,"is_reserved":false,"is_disabled":false,"rental_uris":{"android":"levelo://app?vid=24cfb9bb-a233-4620-92eb-57873cc052c7","ios":"levelo://app?vid=24cfb9bb-a233-4620-92eb-57873cc052c7"},"vehicle_type_id":"4","last_reported":1736287717,"current_range_meters":23200,"station_id":"ce4bhoh2rcd13ifvqh6g","pricing_plan_id":"cebpf4jnsgd1na2vs0mg"},{"bike_id":"a9f225cb-4f97-4cd9-a05e-6a35091f0868","system_id":"levelo_inurba_marseille","lat":43.29033,"lon":5.39964,"is_reserved":false,"is_disabled":false,"rental_uris":{"android":"levelo://app?vid=a9f225cb-4f97-4cd9-a05e-6a35091f0868","ios":"levelo://app?vid=a9f225cb-4f97-4cd9-a05e-6a35091f0868"},"vehicle_type_id":"4","last_reported":1736287717,"current_range_meters":28800,"station_id":"ce4bh392rcd13ifvqdm0","pricing_plan_id":"cebpf4jnsgd1na2vs0mg"},{"bike_id":"955387a8-4a47-4691-946f-78754c88504b","system_id":"levelo_inurba_marseille","lat":43.23192,"lon":5.35545,"is_reserved":false,"is_disabled":false,"rental_uris":{"android":"levelo://app?vid=955387a8-4a47-4691-946f-78754c88504b","ios":"levelo://app?vid=955387a8-4a47-4691-946f-78754c88504b"},"vehicle_type_id":"4","last_reported":1736287717,"current_range_meters":35600,"station_id":"ce4bhu92rcd13ifvqi70","pricing_plan_id":"cebpf4jnsgd1na2vs0mg"},{"bike_id":"d6666767-2a90-49d2-b19f-de337bd1f5a6","system_id":"levelo_inurba_marseille","lat":43.29166,"lon":5.37152,"is_reserved":false,"is_disabled":false,"rental_uris":{"android":"levelo://app?vid=d6666767-2a90-49d2-b19f-de337bd1f5a6","ios":"levelo://app?vid=d6666767-2a90-49d2-b19f-de337bd1f5a6"},"vehicle_type_id":"4","last_reported":1736287717,"current_range_meters":29600,"station_id":"ce4bha92rcd13ifvqeh0","pricing_plan_id":"cebpf4jnsgd1na2vs0mg"},{"bike_id":"85c233a5-ad6d-4af1-866c-c8c7aa0fe22f","system_id":"levelo_inurba_marseille","lat":43.27953,"lon":5.41043,"is_reserved":false,"is_disabled":false,"rental_uris":{"android":"levelo://app?vid=85c233a5-ad6d-4af1-866c-c8c7aa0fe22f","ios":"levelo://app?vid=85c233a5-ad6d-4af1-866c-c8c7aa0fe22f"},"vehicle_type_id":"4","last_reported":1736287717,"current_range_meters":19200,"station_id":"ce4bhnp2rcd13ifvqh0g","pricing_plan_id":"cebpf4jnsgd1na2vs0mg"},{"bike_id":"f949af9a-2683-4ec9-b4bf-168b31b3bcb2","system_id":"levelo_inurba_marseille","lat":43.24653,"lon":5.38912,"is_reserved":false,"is_disabled":false,"rental_uris":{"android":"levelo://app?vid=f949af9a-2683-4ec9-b4bf-168b31b3bcb2","ios":"levelo://app?vid=f949af9a-2683-4ec9-b4bf-168b31b3bcb2"},"vehicle_type_id":"4","last_reported":1736287717,"current_range_meters":17200,"station_id":"ce4bhg12rcd13ifvqf60","pricing_plan_id":"cebpf4jnsgd1na2vs0mg"},{"bike_id":"fca90e5a-922d-42ef-a0cf-05559f03df72","system_id":"levelo_inurba_marseille","lat":43.28707,"lon":5.37399,"is_reserved":false,"is_disabled":false,"rental_uris":{"android":"levelo://app?vid=fca90e5a-922d-42ef-a0cf-05559f03df72","ios":"levelo://app?vid=fca90e5a-922d-42ef-a0cf-05559f03df72"},"vehicle_type_id":"4","last_reported":1736287717,"current_range_meters":35200,"station_id":"ce4bh3p2rcd13ifvqdq0","pricing_plan_id":"cebpf4jnsgd1na2vs0mg"},{"bike_id":"6699c68e-3132-4815-93fd-766be48268a2","system_id":"levelo_inurba_marseille","lat":43.33907,"lon":5.39127,"is_reserved":false,"is_disabled":false,"rental_uris":{"android":"levelo://app?vid=6699c68e-3132-4815-93fd-766be48268a2","ios":"levelo://app?vid=6699c68e-3132-4815-93fd-766be48268a2"},"vehicle_type_id":"4","last_reported":1736287717,"current_range_meters":24400,"station_id":"","pricing_plan_id":"cebpf4jnsgd1na2vs0mg"},{"bike_id":"de06af8b-af0f-4f6f-87ba-de29a59b5256","system_id":"levelo_inurba_marseille","lat":43.29804,"lon":5.37106,"is_reserved":false,"is_disabled":false,"rental_uris":{"android":"levelo://app?vid=de06af8b-af0f-4f6f-87ba-de29a59b5256","ios":"levelo://app?vid=de06af8b-af0f-4f6f-87ba-de29a59b5256"},"vehicle_type_id":"4","last_reported":1736287717,"current_range_meters":39200,"station_id":"ce4bgop2rcd13ifvqc1g","pricing_plan_id":"cebpf4jnsgd1na2vs0mg"},{"bike_id":"3ef74af4-6751-46ae-b722-c9dd100a8e87","system_id":"levelo_inurba_marseille","lat":43.3068,"lon":5.40074,"is_reserved":false,"is_disabled":false,"rental_uris":{"android":"levelo://app?vid=3ef74af4-6751-46ae-b722-c9dd100a8e87","ios":"levelo://app?vid=3ef74af4-6751-46ae-b722-c9dd100a8e87"},"vehicle_type_id":"4","last_reported":1736287717,"current_range_meters":23200,"station_id":"ce4bh112rcd13ifvqda0","pricing_plan_id":"cebpf4jnsgd1na2vs0mg"},{"bike_id":"4422deb5-d0e7-4ba5-b3eb-ffb876d4d603","system_id":"levelo_inurba_marseille","lat":43.29017,"lon":5.35601,"is_reserved":false,"is_disabled":false,"rental_uris":{"android":"levelo://app?vid=4422deb5-d0e7-4ba5-b3eb-ffb876d4d603","ios":"levelo://app?vid=4422deb5-d0e7-4ba5-b3eb-ffb876d4d603"},"vehicle_type_id":"4","last_reported":1736287717,"current_range_meters":37600,"station_id":"ce4bhb92rcd13ifvqen0","pricing_plan_id":"cebpf4jnsgd1na2vs0mg"},{"bike_id":"a48d2ebf-c83d-4251-b56e-81e157062b4b","system_id":"levelo_inurba_marseille","lat":43.28629,"lon":5.35094,"is_reserved":false,"is_disabled":false,"rental_uris":{"android":"levelo://app?vid=a48d2ebf-c83d-4251-b56e-81e157062b4b","ios":"levelo://app?vid=a48d2ebf-c83d-4251-b56e-81e157062b4b"},"vehicle_type_id":"4","last_reported":1736287717,"current_range_meters":16400,"station_id":"ce4bhch2rcd13ifvqeug","pricing_plan_id":"cebpf4jnsgd1na2vs0mg"},{"bike_id":"7b76bfcb-063e-4666-9944-7a6281ebaa8f","system_id":"levelo_inurba_marseille","lat":43.29785,"lon":5.39329,"is_reserved":false,"is_disabled":false,"rental_uris":{"android":"levelo://app?vid=7b76bfcb-063e-4666-9944-7a6281ebaa8f","ios":"levelo://app?vid=7b76bfcb-063e-4666-9944-7a6281ebaa8f"},"vehicle_type_id":"4","last_reported":1736287717,"current_range_meters":27200,"station_id":"chh1huq6cuj3fo74tm60","pricing_plan_id":"cebpf4jnsgd1na2vs0mg"},{"bike_id":"a344e607-2212-45d5-b6de-a9033a6aa79f","system_id":"levelo_inurba_marseille","lat":43.26212,"lon":5.37925,"is_reserved":false,"is_disabled":false,"rental_uris":{"android":"levelo://app?vid=a344e607-2212-45d5-b6de-a9033a6aa79f","ios":"levelo://app?vid=a344e607-2212-45d5-b6de-a9033a6aa79f"},"vehicle_type_id":"4","last_reported":1736287717,"current_range_meters":37600,"station_id":"ce4bhjp2rcd13ifvqg90","pricing_plan_id":"cebpf4jnsgd1na2vs0mg"},{"bike_id":"04ca98df-519b-4517-af27-9d5b7993d561","system_id":"levelo_inurba_marseille","lat":43.29574,"lon":5.39973,"is_reserved":false,"is_disabled":false,"rental_uris":{"android":"levelo://app?vid=04ca98df-519b-4517-af27-9d5b7993d561","ios":"levelo://app?vid=04ca98df-519b-4517-af27-9d5b7993d561"},"vehicle_type_id":"4","last_reported":1736287717,"current_range_meters":30800,"station_id":"ce4bh312rcd13ifvqdj0","pricing_plan_id":"cebpf4jnsgd1na2vs0mg"},{"bike_id":"93a27ce6-741e-4b93-b4f2-c3e080fc2cb5","system_id":"levelo_inurba_marseille","lat":43.29612,"lon":5.3771,"is_reserved":false,"is_disabled":false,"rental_uris":{"android":"levelo://app?vid=93a27ce6-741e-4b93-b4f2-c3e080fc2cb5","ios":"levelo://app?vid=93a27ce6-741e-4b93-b4f2-c3e080fc2cb5"},"vehicle_type_id":"4","last_reported":1736287717,"current_range_meters":38800,"station_id":"ce4bgi92rcd13ifvqb90","pricing_plan_id":"cebpf4jnsgd1na2vs0mg"},{"bike_id":"b5b67869-f06d-4d65-8b50-e23c241a7aa3","system_id":"levelo_inurba_marseille","lat":43.31771,"lon":5.38907,"is_reserved":false,"is_disabled":false,"rental_uris":{"android":"levelo://app?vid=b5b67869-f06d-4d65-8b50-e23c241a7aa3","ios":"levelo://app?vid=b5b67869-f06d-4d65-8b50-e23c241a7aa3"},"vehicle_type_id":"4","last_reported":1736287717,"current_range_meters":10800,"station_id":"ce4bhqp2rcd13ifvqhng","pricing_plan_id":"cebpf4jnsgd1na2vs0mg"},{"bike_id":"761d165d-f444-4b88-8a90-c1b0c76f3158","system_id":"levelo_inurba_marseille","lat":43.25121,"lon":5.40323,"is_reserved":false,"is_disabled":false,"rental_uris":{"android":"levelo://app?vid=761d165d-f444-4b88-8a90-c1b0c76f3158","ios":"levelo://app?vid=761d165d-f444-4b88-8a90-c1b0c76f3158"},"vehicle_type_id":"4","last_reported":1736287717,"current_range_meters":38800,"station_id":"ce4bhlh2rcd13ifvqgig","pricing_plan_id":"cebpf4jnsgd1na2vs0mg"},{"bike_id":"2cac112a-19df-44f0-8ce7-3be7bf881544","system_id":"levelo_inurba_marseille","lat":43.28269,"lon":5.3507,"is_reserved":false,"is_disabled":false,"rental_uris":{"android":"levelo://app?vid=2cac112a-19df-44f0-8ce7-3be7bf881544","ios":"levelo://app?vid=2cac112a-19df-44f0-8ce7-3be7bf881544"},"vehicle_type_id":"4","last_reported":1736287717,"current_range_meters":36800,"station_id":"ce4bhbp2rcd13ifvqerg","pricing_plan_id":"cebpf4jnsgd1na2vs0mg"},{"bike_id":"ebef3c2c-525d-4acb-b33c-022596666309","system_id":"levelo_inurba_marseille","lat":43.30793,"lon":5.43523,"is_reserved":false,"is_disabled":false,"rental_uris":{"android":"levelo://app?vid=ebef3c2c-525d-4acb-b33c-022596666309","ios":"levelo://app?vid=ebef3c2c-525d-4acb-b33c-022596666309"},"vehicle_type_id":"4","last_reported":1736287717,"current_range_meters":38800,"station_id":"ce4bhph2rcd13ifvqheg","pricing_plan_id":"cebpf4jnsgd1na2vs0mg"},