{"last_updated":1713406619,"ttl":30,"version":"2.2","data":{"bikes":[{"bike_id":"32924bcc-4c02-4dde-99cc-5835be8615b6","system_id":"levelo_inurba_marseille","lat":43.31341,"lon":5.367098,"is_reserved":false,"is_disabled":false,"rental_uris":{"android":"levelo://app?vid=32924bcc-4c02-4dde-99cc-5835be8615b6","ios":"levelo://app?vid=32924bcc-4c02-4dde-99cc-5835be8615b6"},"vehicle_type_id":"4","last_reported":1713406619,"current_range_meters":27600,"station_id":"ce4bgr92rcd13ifvqc6g","pricing_plan_id":"cebpf4jnsgd1na2vs0mg"},{"bike_id":"c2c65387-6dd7-407c-9d39-ccb2589b18ab","system_id":"levelo_inurba_marseille","lat":43.313557,"lon":5.367097,"is_reserved":false,"is_disabled":false,"rental_uris":{"android":"levelo://app?vid=c2c65387-6dd7-407c-9d39-ccb2589b18ab","ios":"levelo://app?vid=c2c65387-6dd7-407c-9d39-ccb2589b18ab"},"vehicle_type_id":"4","last_reported":1713406619,"current_range_meters":0,"station_id":"ce4bgr92rcd13ifvqc6g","pricing_plan_id":"cebpf4jnsgd1na2vs0mg"},{"bike_id":"3ce30dcd-68e3-4de8-b7dc-2261e06ef242","system_id":"levelo_inurba_marseille","lat":43.312239,"lon":5.368562,"is_reserved":false,"is_disabled":false,"rental_uris":{"android":"levelo://app?vid=3ce30dcd-68e3-4de8-b7dc-2261e06ef242","ios":"levelo://app?vid=3ce30dcd-68e3-4de8-b7dc-2261e06ef242"},"vehicle_type_id":"4","last_reported":1713406619,"current_range_meters":28000,"station_id":"ce4bgl92rcd13ifvqbq0","pricing_plan_id":"cebpf4jnsgd1na2vs0mg"},{"bike_id":"7a76ac97-9ab4-48ee-a466-9be8d7b9f7b6","system_id":"levelo_inurba_marseille","lat":43.31339,"lon":5.37282,"is_reserved":false,"is_disabled":false,"rental_uris":{"android":"levelo://app?vid=7a76ac97-9ab4-48ee-a466-9be8d7b9f7b6","ios":"levelo://app?vid=7a76ac97-9ab4-48ee-a466-9be8d7b9f7b6"},"vehicle_type_id":"4","last_reported":1713406619,"current_range_meters":13200,"station_id":"","pricing_plan_id":"cebpf4jnsgd1na2vs0mg"},{"bike_id":"9b736704-6aa9-4eae-b4d6-288341ab055e","system_id":"levelo_inurba_marseille","lat":43.314811,"lon":5.373104,"is_reserved":false,"is_disabled":false,"rental_uris":{"android":"levelo://app?vid=9b736704-6aa9-4eae-b4d6-288341ab055e","ios":"levelo://app?vid=9b736704-6aa9-4eae-b4d6-288341ab055e"},"vehicle_type_id":"4","last_reported":1713406619,"current_range_meters":23600,"station_id":"ce4bgt12rcd13ifvqcd0","pricing_plan_id":"cebpf4jnsgd1na2vs0mg"},{"bike_id":"f92ec833-50df-4f90-89a9-1693f6f34bc1","system_id":"levelo_inurba_marseille","lat":43.309034,"lon":5.371783,"is_reserved":false,"is_disabled":false,"rental_uris":{"android":"levelo://app?vid=f92ec833-50df-4f90-89a9-1693f6f34bc1","ios":"levelo://app?vid=f92ec833-50df-4f90-89a9-1693f6f34bc1"},"vehicle_type_id":"4","last_reported":1713406619,"current_range_meters":29200,"station_id":"ce4bguh2rcd13ifvqckg","pricing_plan_id":"cebpf4jnsgd1na2vs0mg"},{"bike_id":"52f22b5a-486d-4c62-a4ac-137bfb2f235e","system_id":"levelo_inurba_marseille","lat":43.30554,"lon":5.36534,"is_reserved":false,"is_disabled":false,"rental_uris":{"android":"levelo://app?vid=52f22b5a-486d-4c62-a4ac-137bfb2f235e","ios":"levelo://app?vid=52f22b5a-486d-4c62-a4ac-137bfb2f235e"},"vehicle_type_id":"4","last_reported":1713406619,"current_range_meters":27600,"station_id":"","pricing_plan_id":"cebpf4jnsgd1na2vs0mg"},{"bike_id":"71b65339-6b13-4e47-9e85-3cfcd095267f","system_id":"levelo_inurba_marseille","lat":43.311125,"lon":5.377624,"is_reserved":false,"is_disabled":false,"rental_uris":{"android":"levelo://app?vid=71b65339-6b13-4e47-9e85-3cfcd095267f","ios":"levelo://app?vid=71b65339-6b13-4e47-9e85-3cfcd095267f"},"vehicle_type_id":"4","last_reported":1713406619,"current_range_meters":3200,"station_id":"ce4bgt92rcd13ifvqcg0","pricing_plan_id":"cebpf4jnsgd1na2vs0mg"},{"bike_id":"a0ea0108-eccb-4bd9-bfb8-c90709db79e5","system_id":"levelo_inurba_marseille","lat":43.311125,"lon":5.377624,"is_reserved":false,"is_disabled":false,"rental_uris":{"android":"levelo://app?vid=a0ea0108-eccb-4bd9-bfb8-c90709db79e5","ios":"levelo://app?vid=a0ea0108-eccb-4bd9-bfb8-c90709db79e5"},"vehicle_type_id":"4","last_reported":1713406619,"current_range_meters":14800,"station_id":"ce4bgt92rcd13ifvqcg0","pricing_plan_id":"cebpf4jnsgd1na2vs0mg"},{"bike_id":"894b6731-0d45-4ce5-aadb-37025b76f227","system_id":"levelo_inurba_marseille","lat":43.311125,"lon":5.377624,"is_reserved":false,"is_disabled":false,"rental_uris":{"android":"levelo://app?vid=894b6731-0d45-4ce5-aadb-37025b76f227","ios":"levelo://app?vid=894b6731-0d45-4ce5-aadb-37025b76f227"},"vehicle_type_id":"4","last_reported":1713406619,"current_range_meters":31600,"station_id":"ce4bgt92rcd13ifvqcg0","pricing_plan_id":"cebpf4jnsgd1na2vs0mg"},{"bike_id":"b32cd1f0-9d32-4d04-9aab-dc79dcdcf347","system_id":"levelo_inurba_marseille","lat":43.311125,"lon":5.377624,"is_reserved":false,"is_disabled":false,"rental_uris":{"android":"levelo://app?vid=b32cd1f0-9d32-4d04-9aab-dc79dcdcf347","ios":"levelo://app?vid=b32cd1f0-9d32-4d04-9aab-dc79dcdcf347"},"vehicle_type_id":"4","last_reported":1713406619,"current_range_meters":400,"station_id":"ce4bgt92rcd13ifvqcg0","pricing_plan_id":"cebpf4jnsgd1na2vs0mg"},{"bike_id":"fed46b09-96cf-42f4-a23c-5791360d3cf1","system_id":"levelo_inurba_marseille","lat":43.311125,"lon":5.377624,"is_reserved":false,"is_disabled":false,"rental_uris":{"android":"levelo://app?vid=fed46b09-96cf-42f4-a23c-5791360d3cf1","ios":"levelo://app?vid=fed46b09-96cf-42f4-a23c-5791360d3cf1"},"vehicle_type_id":"4","last_reported":1713406619,"current_range_meters":21600,"station_id":"ce4bgt92rcd13ifvqcg0","pricing_plan_id":"cebpf4jnsgd1na2vs0mg"},{"bike_id":"38c3a9aa-a319-4559-8849-56585697adb0","system_id":"levelo_inurba_marseille","lat":43.311125,"lon":5.377624,"is_reserved":false,"is_disabled":false,"rental_uris":{"android":"levelo://app?vid=38c3a9aa-a319-4559-8849-56585697adb0","ios":"levelo://app?vid=38c3a9aa-a319-4559-8849-56585697adb0"},"vehicle_type_id":"4","last_reported":1713406619,"current_range_meters":15200,"station_id":"ce4bgt92rcd13ifvqcg0","pricing_plan_id":"cebpf4jnsgd1na2vs0mg"},{"bike_id":"a93ef0b5-1df3-4ddf-81e3-5ea5d79a76b7","system_id":"levelo_inurba_marseille","lat":43.311125,"lon":5.377624,"is_reserved":false,"is_disabled":false,"rental_uris":{"android":"levelo://app?vid=a93ef0b5-1df3-4ddf-81e3-5ea5d79a76b7","ios":"levelo://app?vid=a93ef0b5-1df3-4ddf-81e3-5ea5d79a76b7"},"vehicle_type_id":"4","last_reported":1713406619,"current_range_meters":8400,"station_id":"ce4bgt92rcd13ifvqcg0","pricing_plan_id":"cebpf4jnsgd1na2vs0mg"},{"bike_id":"f0bbb6fb-3a67-4378-8549-f528ad275a39","system_id":"levelo_inurba_marseille","lat":43.311125,"lon":5.377624,"is_reserved":false,"is_disabled":false,"rental_uris":{"android":"levelo://app?vid=f0bbb6fb-3a67-4378-8549-f528ad275a39","ios":"levelo://app?vid=f0bbb6fb-3a67-4378-8549-f528ad275a39"},"vehicle_type_id":"4","last_reported":1713406619,"current_range_meters":12000,"station_id":"ce4bgt92rcd13ifvqcg0","pricing_plan_id":"cebpf4jnsgd1na2vs0mg"},{"bike_id":"c2e36661-c659-4756-9e9f-325fb13793d9","system_id":"levelo_inurba_marseille","lat":43.307945,"lon":5.376487,"is_reserved":false,"is_disabled":false,"rental_uris":{"android":"levelo://app?vid=c2e36661-c659-4756-9e9f-325fb13793d9","ios":"levelo://app?vid=c2e36661-c659-4756-9e9f-325fb13793d9"},"vehicle_type_id":"4","last_reported":1713406619,"current_range_meters":27200,"station_id":"ce4bgv92rcd13ifvqcq0","pricing_plan_id":"cebpf4jnsgd1na2vs0mg"},{"bike_id":"2e3d672a-0b12-4d62-8e87-9c5d1383fe2e","system_id":"levelo_inurba_marseille","lat":43.307945,"lon":5.376487,"is_reserved":false,"is_disabled":false,"rental_uris":{"android":"levelo://app?vid=2e3d672a-0b12-4d62-8e87-9c5d1383fe2e","ios":"levelo://app?vid=2e3d672a-0b12-4d62-8e87-9c5d1383fe2e"},"vehicle_type_id":"4","last_reported":1713406619,"current_range_meters":21600,"station_id":"ce4bgv92rcd13ifvqcq0","pricing_plan_id":"cebpf4jnsgd1na2vs0mg"},{"bike_id":"98dc295f-7d11-4ad2-b1b5-4774b9812056","system_id":"levelo_inurba_marseille","lat":43.307945,"lon":5.376487,"is_reserved":false,"is_disabled":false,"rental_uris":{"android":"levelo://app?vid=98dc295f-7d11-4ad2-b1b5-4774b9812056","ios":"levelo://app?vid=98dc295f-7d11-4ad2-b1b5-4774b9812056"},"vehicle_type_id":"4","last_reported":1713406619,"current_range_meters":29600,"station_id":"ce4bgv92rcd13ifvqcq0","pricing_plan_id":"cebpf4jnsgd1na2vs0mg"},{"bike_id":"725c7966-6a0d-4cb2-a7a5-8a033ae93a39","system_id":"levelo_inurba_marseille","lat":43.307945,"lon":5.376487,"is_reserved":false,"is_disabled":false,"rental_uris":{"android":"levelo://app?vid=725c7966-6a0d-4cb2-a7a5-8a033ae93a39","ios":"levelo://app?vid=725c7966-6a0d-4cb2-a7a5-8a033ae93a39"},"vehicle_type_id":"4","last_reported":1713406619,"current_range_meters":19200,"station_id":"ce4bgv92rcd13ifvqcq0","pricing_plan_id":"cebpf4jnsgd1na2vs0mg"},{"bike_id":"626a3c29-e7b9-4e6c-a60a-c0f949579455","system_id":"levelo_inurba_marseille","lat":43.307945,"lon":5.376487,"is_reserved":false,"is_disabled":false,"rental_uris":{"android":"levelo://app?vid=626a3c29-e7b9-4e6c-a60a-c0f949579455","ios":"levelo://app?vid=626a3c29-e7b9-4e6c-a60a-c0f949579455"},"vehicle_type_id":"4","last_reported":1713406619,"current_range_meters":31600,"station_id":"ce4bgv92rcd13ifvqcq0","pricing_plan_id":"cebpf4jnsgd1na2vs0mg"},{"bike_id":"18261d5a-9ef6-47cc-ab16-374e50fe7fcf","system_id":"levelo_inurba_marseille","lat":43.307945,"lon":5.376487,"is_reserved":false,"is_disabled":false,"rental_uris":{"android":"levelo://app?vid=18261d5a-9ef6-47cc-ab16-374e50fe7fcf","ios":"levelo://app?vid=18261d5a-9ef6-47cc-ab16-374e50fe7fcf"},"vehicle_type_id":"4","last_reported":1713406619,"current_range_meters":14400,"station_id":"ce4bgv92rcd13ifvqcq0","pricing_plan_id":"cebpf4jnsgd1na2vs0mg"},{"bike_id":"ce86f89b-8fdd-4b4c-be51-e70968fbc93b","system_id":"levelo_inurba_marseille","lat":43.307945,"lon":5.376487,"is_reserved":false,"is_disabled":false,"rental_uris":{"android":"levelo://app?vid=ce86f89b-8fdd-4b4c-be51-e70968fbc93b","ios":"levelo://app?vid=ce86f89b-8fdd-4b4c-be51-e70968fbc93b"},"vehicle_type_id":"4","last_reported":1713406619,"current_range_meters":22000,"station_id":"ce4bgv92rcd13ifvqcq0","pricing_plan_id":"cebpf4jnsgd1na2vs0mg"},{"bike_id":"6fec9a18-8870-442d-80e1-1ea3f2e0ece0","system_id":"levelo_inurba_marseille","lat":43.307945,"lon":5.376487,"is_reserved":false,"is_disabled":false,"rental_uris":{"android":"levelo://app?vid=6fec9a18-8870-442d-80e1-1ea3f2e0ece0","ios":"levelo://app?vid=6fec9a18-8870-442d-80e1-1ea3f2e0ece0"},"vehicle_type_id":"4","last_reported":1713406619,"current_range_meters":20400,"station_id":"ce4bgv92rcd13ifvqcq0","pricing_plan_id":"cebpf4jnsgd1na2vs0mg"},{"bike_id":"dce50096-3eff-4eb0-b498-d3d562e93e2f","system_id":"levelo_inurba_marseille","lat":43.307945,"lon":5.376487,"is_reserved":false,"is_disabled":false,"rental_uris":{"android":"levelo://app?vid=dce50096-3eff-4eb0-b498-d3d562e93e2f","ios":"levelo://app?vid=dce50096-3eff-4eb0-b498-d3d562e93e2f"},"vehicle_type_id":"4","last_reported":1713406619,"current_range_meters":31600,"station_id":"ce4bgv92rcd13ifvqcq0","pricing_plan_id":"cebpf4jnsgd1na2vs0mg"},{"bike_id":"5564a857-42ce-402e-86ae-f7cb78395768","system_id":"levelo_inurba_marseille","lat":43.307945,"lon":5.376487,"is_reserved":false,"is_disabled":false,"rental_uris":{"android":"levelo://app?vid=5564a857-42ce-402e-86ae-f7cb78395768","ios":"levelo://app?vid=5564a857-42ce-402e-86ae-f7cb78395768"},"vehicle_type_id":"4","last_reported":1713406619,"current_range_meters":30800,"station_id":"ce4bgv92rcd13ifvqcq0","pricing_plan_id":"cebpf4jnsgd1na2vs0mg"},{"bike_id":"4c1d3d42-2aa7-4df6-adf6-5165eefcd157","system_id":"levelo_inurba_marseille","lat":43.317075,"lon":5.377367,"is_reserved":false,"is_disabled":false,"rental_uris":{"android":"levelo://app?vid=4c1d3d42-2aa7-4df6-adf6-5165eefcd157","ios":"levelo://app?vid=4c1d3d42-2aa7-4df6-adf6-5165eefcd157"},"vehicle_type_id":"4","last_reported":1713406619,"current_range_meters":0,"station_id":"ce4bgth2rcd13ifvqch0","pricing_plan_id":"cebpf4jnsgd1na2vs0mg"},{"bike_id":"fbb8464a-713c-4a0a-b06c-9116a7fc2e59","system_id":"levelo_inurba_marseille","lat":43.317075,"lon":5.377367,"is_reserved":false,"is_disabled":false,"rental_uris":{"android":"levelo://app?vid=fbb8464a-713c-4a0a-b06c-9116a7fc2e59","ios":"levelo://app?vid=fbb8464a-713c-4a0a-b06c-9116a7fc2e59"},"vehicle_type_id":"4","last_reported":1713406619,"current_range_meters":15600,"station_id":"ce4bgth2rcd13ifvqch0","pricing_plan_id":"cebpf4jnsgd1na2vs0mg"},{"bike_id":"5f44488a-88ec-49b2-bee6-3c0626c0fbac","system_id":"levelo_inurba_marseille","lat":43.317075,"lon":5.377367,"is_reserved":false,"is_disabled":false,"rental_uris":{"android":"levelo://app?vid=5f44488a-88ec-49b2-bee6-3c0626c0fbac","ios":"levelo://app?vid=5f44488a-88ec-49b2-bee6-3c0626c0fbac"},"vehicle_type_id":"4","last_reported":1713406619,"current_range_meters":6000,"station_id":"ce4bgth2rcd13ifvqch0","pricing_plan_id":"cebpf4jnsgd1na2vs0mg"},{"bike_id":"e00f5c9c-82f1-4595-be09-fbbeee63189b","system_id":"levelo_inurba_marseille","lat":43.317075,"lon":5.377367,"is_reserved":false,"is_disabled":false,"rental_uris":{"android":"levelo://app?vid=e00f5c9c-82f1-4595-be09-fbbeee63189b","ios":"levelo://app?vid=e00f5c9c-82f1-4595-be09-fbbeee63189b"},"vehicle_type_id":"4","last_reported":1713406619,"current_range_meters":31600,"station_id":"ce4bgth2rcd13ifvqch0","pricing_plan_id":"cebpf4jnsgd1na2vs0mg"},{"bike_id":"e07c981e-638b-4ba6-ac96-fe5ee9e5a164","system_id":"levelo_inurba_marseille","lat":43.317075,"lon":5.377367,"is_reserved":false,"is_disabled":false,"rental_uris":{"android":"levelo://app?vid=e07c981e-638b-4ba6-ac96-fe5ee9e5a164","ios":"levelo://app?vid=e07c981e-638b-4ba6-ac96-fe5ee9e5a164"},"vehicle_type_id":"4","last_reported":1713406619,"current_range_meters":31600,"station_id":"ce4bgth2rcd13ifvqch0","pricing_plan_id":"cebpf4jnsgd1na2vs0mg"},{"bike_id":"8e1342a2-de23-4fa6-a10f-010afc912687","system_id":"levelo_inurba_marseille","lat":43.317075,"lon":5.377367,"is_reserved":false,"is_disabled":false,"rental_uris":{"android":"levelo://app?vid=8e1342a2-de23-4fa6-a10f-010afc912687","ios":"levelo://app?vid=8e1342a2-de23-4fa6-a10f-010afc912687"},"vehicle_type_id":"4","last_reported":1713406619,"current_range_meters":28000,"station_id":"ce4bgth2rcd13ifvqch0","pricing_plan_id":"cebpf4jnsgd1na2vs0mg"},{"bike_id":"25b0ebe0-b1c8-4c4d-83b0-c0f1a79bb675","system_id":"levelo_inurba_marseille","lat":43.317075,"lon":5.377367,"is_reserved":false,"is_disabled":false,"rental_uris":{"android":"levelo://app?vid=25b0ebe0-b1c8-4c4d-83b0-c0f1a79bb675","ios":"levelo://app?vid=25b0ebe0-b1c8-4c4d-83b0-c0f1a79bb675"},"vehicle_type_id":"4","last_reported":1713406619,"current_range_meters":31200,"station_id":"ce4bgth2rcd13ifvqch0","pricing_plan_id":"cebpf4jnsgd1na2vs0mg"},{"bike_id":"bee8e9da-0701-47bf-afcd-9c04190ff22c","system_id":"levelo_inurba_marseille","lat":43.317075,"lon":5.377367,"is_reserved":false,"is_disabled":false,"rental_uris":{"android":"levelo://app?vid=bee8e9da-0701-47bf-afcd-9c04190ff22c","ios":"levelo://app?vid=bee8e9da-0701-47bf-afcd-9c04190ff22c"},"vehicle_type_id":"4","last_reported":1713406619,"current_range_meters":30800,"station_id":"ce4bgth2rcd13ifvqch0","pricing_plan_id":"cebpf4jnsgd1na2vs0mg"},{"bike_id":"a0122f39-059f-47d9-915c-cb3c6166cbb8","system_id":"levelo_inurba_marseille","lat":43.303046,"lon":5.368981,"is_reserved":false,"is_disabled":false,"rental_uris":{"android":"levelo://app?vid=a0122f39-059f-47d9-915c-cb3c6166cbb8","ios":"levelo://app?vid=a0122f39-059f-47d9-915c-cb3c6166cbb8"},"vehicle_type_id":"4","last_reported":1713406619,"current_range_meters":23600,"station_id":"ce4bgqh2rcd13ifvqc5g","pricing_plan_id":"cebpf4jnsgd1na2vs0mg"},{"bike_id":"f7e14073-5083-4173-aafd-eab0c6d0df23","system_id":"levelo_inurba_marseille","lat":43.315289,"lon":5.380349,"is_reserved":false,"is_disabled":false,"rental_uris":{"android":"levelo://app?vid=f7e14073-5083-4173-aafd-eab0c6d0df23","ios":"levelo://app?vid=f7e14073-5083-4173-aafd-eab0c6d0df23"},"vehicle_type_id":"4","last_reported":1713406619,"current_range_meters":10000,"station_id":"ce4bhsp2rcd13ifvqi50","pricing_plan_id":"cebpf4jnsgd1na2vs0mg"},{"bike_id":"6259b3f4-c079-4a8f-9977-927bf520d560","system_id":"levelo_inurba_marseille","lat":43.315289,"lon":5.380349,"is_reserved":false,"is_disabled":false,"rental_uris":{"android":"levelo://app?vid=6259b3f4-c079-4a8f-9977-927bf520d560","ios":"levelo://app?vid=6259b3f4-c079-4a8f-9977-927bf520d560"},"vehicle_type_id":"4","last_reported":1713406619,"current_range_meters":26400,"station_id":"ce4bhsp2rcd13ifvqi50","pricing_plan_id":"cebpf4jnsgd1na2vs0mg"},{"bike_id":"16474930-bc4b-4b29-97a7-b37aa97a5c25","system_id":"levelo_inurba_marseille","lat":43.315289,"lon":5.380349,"is_reserved":false,"is_disabled":false,"rental_uris":{"android":"levelo://app?vid=16474930-bc4b-4b29-97a7-b37aa97a5c25","ios":"levelo://app?vid=16474930-bc4b-4b29-97a7-b37aa97a5c25"},"vehicle_type_id":"4","last_reported":1713406619,"current_range_meters":29200,"station_id":"ce4bhsp2rcd13ifvqi50","pricing_plan_id":"cebpf4jnsgd1na2vs0mg"},{"bike_id":"8730e1ec-78f5-457b-a871-67ce03bf68c5","system_id":"levelo_inurba_marseille","lat":43.315289,"lon":5.380349,"is_reserved":false,"is_disabled":false,"rental_uris":{"android":"levelo://app?vid=8730e1ec-78f5-457b-a871-67ce03bf68c5","ios":"levelo://app?vid=8730e1ec-78f5-457b-a871-67ce03bf68c5"},"vehicle_type_id":"4","last_reported":1713406619,"current_range_meters":14000,"station_id":"ce4bhsp2rcd13ifvqi50","pricing_plan_id":"cebpf4jnsgd1na2vs0mg"},{"bike_id":"01359525-8ee3-4431-83ce-9dc5da79037f","system_id":"levelo_inurba_marseille","lat":43.315289,"lon":5.380349,"is_reserved":false,"is_disabled":false,"rental_uris":{"android":"levelo://app?vid=01359525-8ee3-4431-83ce-9dc5da79037f","ios":"levelo://app?vid=01359525-8ee3-4431-83ce-9dc5da79037f"},"vehicle_type_id":"4","last_reported":1713406619,"current_range_meters":6000,"station_id":"ce4bhsp2rcd13ifvqi50","pricing_plan_id":"cebpf4jnsgd1na2vs0mg"},{"bike_id":"7529893d-ffa0-42d1-b02b-f3d0b37ec505","system_id":"levelo_inurba_marseille","lat":43.315293,"lon":5.380349,"is_reserved":false,"is_disabled":false,"rental_uris":{"android":"levelo://app?vid=7529893d-ffa0-42d1-b02b-f3d0b37ec505","ios":"levelo://app?vid=7529893d-ffa0-42d1-b02b-f3d0b37ec505"},"vehicle_type_id":"4","last_reported":1713406619,"current_range_meters":20400,"station_id":"ce4bhsp2rcd13ifvqi50","pricing_plan_id":"cebpf4jnsgd1na2vs0mg"},{"bike_id":"94842842-001c-43cc-899a-74cd3b120cb3","system_id":"levelo_inurba_marseille","lat":43.301939,"lon":5.366286,"is_reserved":false,"is_disabled":false,"rental_uris":{"android":"levelo://app?vid=94842842-001c-43cc-899a-74cd3b120cb3","ios":"levelo://app?vid=94842842-001c-43cc-899a-74cd3b120cb3"},"vehicle_type_id":"4","last_reported":1713406619,"current_range_meters":28000,"station_id":"ce4bgrh2rcd13ifvqc8g","pricing_plan_id":"cebpf4jnsgd1na2vs0mg"},{"bike_id":"a72eb945-537c-4eac-85d8-e93f9f05406a","system_id":"levelo_inurba_marseille","lat":43.308012,"lon":5.381511,"is_reserved":false,"is_disabled":false,"rental_uris":{"android":"levelo://app?vid=a72eb945-537c-4eac-85d8-e93f9f05406a","ios":"levelo://app?vid=a72eb945-537c-4eac-85d8-e93f9f05406a"},"vehicle_type_id":"4","last_reported":1713406619,"current_range_meters":18400,"station_id":"ce4bgt12rcd13ifvqce0","pricing_plan_id":"cebpf4jnsgd1na2vs0mg"},{"bike_id":"545f804c-508f-4edd-a677-84fc933c8716","system_id":"levelo_inurba_marseille","lat":43.308012,"lon":5.381511,"is_reserved":false,"is_disabled":false,"rental_uris":{"android":"levelo://app?vid=545f804c-508f-4edd-a677-84fc933c8716","ios":"levelo://app?vid=545f804c-508f-4edd-a677-84fc933c8716"},"vehicle_type_id":"4","last_reported":1713406619,"current_range_meters":31200,"station_id":"ce4bgt12rcd13ifvqce0","pricing_plan_id":"cebpf4jnsgd1na2vs0mg"},{"bike_id":"192d3e40-06f9-4aab-84fd-2ff8d5caf743","system_id":"levelo_inurba_marseille","lat":43.308012,"lon":5.381511,"is_reserved":false,"is_disabled":false,"rental_uris":{"android":"levelo://app?vid=192d3e40-06f9-4aab-84fd-2ff8d5caf743","ios":"levelo://app?vid=192d3e40-06f9-4aab-84fd-2ff8d5caf743"},"vehicle_type_id":"4","last_reported":1713406619,"current_range_meters":9200,"station_id":"ce4bgt12rcd13ifvqce0","pricing_plan_id":"cebpf4jnsgd1na2vs0mg"},{"bike_id":"638a1709-0a41-438e-bc96-58a9d9b53f58","system_id":"levelo_inurba_marseille","lat":43.308012,"lon":5.381511,"is_reserved":false,"is_disabled":false,"rental_uris":{"android":"levelo://app?vid=638a1709-0a41-438e-bc96-58a9d9b53f58","ios":"levelo://app?vid=638a1709-0a41-438e-bc96-58a9d9b53f58"},"vehicle_type_id":"4","last_reported":1713406619,"current_range_meters":15200,"station_id":"ce4bgt12rcd13ifvqce0","pricing_plan_id":"cebpf4jnsgd1na2vs0mg"},{"bike_id":"2c010bec-e312-4e1a-8094-47f9f393f242","system_id":"levelo_inurba_marseille","lat":43.308012,"lon":5.381511,"is_reserved":false,"is_disabled":false,"rental_uris":{"android":"levelo://app?vid=2c010bec-e312-4e1a-8094-47f9f393f242","ios":"levelo://app?vid=2c010bec-e312-4e1a-8094-47f9f393f242"},"vehicle_type_id":"4","last_reported":1713406619,"current_range_meters":12800,"station_id":"ce4bgt12rcd13ifvqce0","pricing_plan_id":"cebpf4jnsgd1na2vs0mg"},{"bike_id":"b8be221b-c3e8-4422-a5c5-35906dc0244e","system_id":"levelo_inurba_marseille","lat":43.308012,"lon":5.381511,"is_reserved":false,"is_disabled":false,"rental_uris":{"android":"levelo://app?vid=b8be221b-c3e8-4422-a5c5-35906dc0244e","ios":"levelo://app?vid=b8be221b-c3e8-4422-a5c5-35906dc0244e"},"vehicle_type_id":"4","last_reported":1713406619,"current_range_meters":16400,"station_id":"ce4bgt12rcd13ifvqce0","pricing_plan_id":"cebpf4jnsgd1na2vs0mg"},{"bike_id":"24902cf2-e17e-4e65-9431-95ba9170c960","system_id":"levelo_inurba_marseille","lat":43.308012,"lon":5.381511,"is_reserved":false,"is_disabled":false,"rental_uris":{"android":"levelo://app?vid=24902cf2-e17e-4e65-9431-95ba9170c960","ios":"levelo://app?vid=24902cf2-e17e-4e65-9431-95ba9170c960"},"vehicle_type_id":"4","last_reported":1713406619,"current_range_meters":28800,"station_id":"ce4bgt12rcd13ifvqce0","pricing_plan_id":"cebpf4jnsgd1na2vs0mg"},{"bike_id":"d3849f9b-c9d4-4732-b88c-4db639dc0928","system_id":"levelo_inurba_marseille","lat":43.308012,"lon":5.381511,"is_reserved":false,"is_disabled":false,"rental_uris":{"android":"levelo://app?vid=d3849f9b-c9d4-4732-b88c-4db639dc0928","ios":"levelo://app?vid=d3849f9b-c9d4-4732-b88c-4db639dc0928"},"vehicle_type_id":"4","last_reported":1713406619,"current_range_meters":30800,"station_id":"ce4bgt12rcd13ifvqce0","pricing_plan_id":"cebpf4jnsgd1na2vs0mg"},{"bike_id":"49d45052-902a-4d07-90c2-5e73607f7f11","system_id":"levelo_inurba_marseille","lat":43.308012,"lon":5.381511,"is_reserved":false,"is_disabled":false,"rental_uris":{"android":"levelo://app?vid=49d45052-902a-4d07-90c2-5e73607f7f11","ios":"levelo://app?vid=49d45052-902a-4d07-90c2-5e73607f7f11"},"vehicle_type_id":"4","last_reported":1713406619,"current_range_meters":24000,"station_id":"ce4bgt12rcd13ifvqce0","pricing_plan_id":"cebpf4jnsgd1na2vs0mg"},{"bike_id":"6b2ac776-9495-4cd4-bbae-eac90b27dc61","system_id":"levelo_inurba_marseille","lat":43.308012,"lon":5.381511,"is_reserved":false,"is_disabled":false,"rental_uris":{"android":"levelo://app?vid=6b2ac776-9495-4cd4-bbae-eac90b27dc61","ios":"levelo://app?vid=6b2ac776-9495-4cd4-bbae-eac90b27dc61"},"vehicle_type_id":"4","last_reported":1713406619,"current_range_meters":24000,"station_id":"ce4bgt12rcd13ifvqce0","pricing_plan_id":"cebpf4jnsgd1na2vs0mg"},{"bike_id":"474525dc-99c8-49dd-a4ec-bf353f39ecc7","system_id":"levelo_inurba_marseille","lat":43.308012,"lon":5.381511,"is_reserved":false,"is_disabled":false,"rental_uris":{"android":"levelo://app?vid=474525dc-99c8-49dd-a4ec-bf353f39ecc7","ios":"levelo://app?vid=474525dc-99c8-49dd-a4ec-bf353f39ecc7"},"vehicle_type_id":"4","last_reported":1713406619,"current_range_meters":30000,"station_id":"ce4bgt12rcd13ifvqce0","pricing_plan_id":"cebpf4jnsgd1na2vs0mg"},{"bike_id":"6926ec13-b9a7-410c-a415-deb6fdd28a30","system_id":"levelo_inurba_marseille","lat":43.308012,"lon":5.381511,"is_reserved":false,"is_disabled":false,"rental_uris":{"android":"levelo://app?vid=6926ec13-b9a7-410c-a415-deb6fdd28a30","ios":"levelo://app?vid=6926ec13-b9a7-410c-a415-deb6fdd28a30"},"vehicle_type_id":"4","last_reported":1713406619,"current_range_meters":31200,"station_id":"ce4bgt12rcd13ifvqce0","pricing_plan_id":"cebpf4jnsgd1na2vs0mg"},{"bike_id":"ecd4b182-114b-4587-a468-4e71ebfe5f55","system_id":"levelo_inurba_marseille","lat":43.304606,"lon":5.379026,"is_reserved":false,"is_disabled":false,"rental_uris":{"android":"levelo://app?vid=ecd4b182-114b-4587-a468-4e71ebfe5f55","ios":"levelo://app?vid=ecd4b182-114b-4587-a468-4e71ebfe5f55"},"vehicle_type_id":"4","last_reported":1713406619,"current_range_meters":26800,"station_id":"ce4bgup2rcd13ifvqcn0","pricing_plan_id":"cebpf4jnsgd1na2vs0mg"},{"bike_id":"63e2984b-285e-4eaa-a63d-55ee5f73429f","system_id":"levelo_inurba_marseille","lat":43.304606,"lon":5.379026,"is_reserved":false,"is_disabled":false,"rental_uris":{"android":"levelo://app?vid=63e2984b-285e-4eaa-a63d-55ee5f73429f","ios":"levelo://app?vid=63e2984b-285e-4eaa-a63d-55ee5f73429f"},"vehicle_type_id":"4","last_reported":1713406619,"current_range_meters":24000,"station_id":"ce4bgup2rcd13ifvqcn0","pricing_plan_id":"cebpf4jnsgd1na2vs0mg"},{"bike_id":"b828851b-3419-4410-9971-d3d8642d1d82","system_id":"levelo_inurba_marseille","lat":43.304606,"lon":5.379026,"is_reserved":false,"is_disabled":false,"rental_uris":{"android":"levelo://app?vid=b828851b-3419-4410-9971-d3d8642d1d82","ios":"levelo://app?vid=b828851b-3419-4410-9971-d3d8642d1d82"},"vehicle_type_id":"4","last_reported":1713406619,"current_range_meters":26000,"station_id":"ce4bgup2rcd13ifvqcn0","pricing_plan_id":"cebpf4jnsgd1na2vs0mg"},{"bike_id":"2361f870-47a0-4ae4-a065-afb3cf02f8b1","system_id":"levelo_inurba_marseille","lat":43.324771,"lon":5.36557,"is_reserved":false,"is_disabled":false,"rental_uris":{"android":"levelo://app?vid=2361f870-47a0-4ae4-a065-afb3cf02f8b1","ios":"levelo://app?vid=2361f870-47a0-4ae4-a065-afb3cf02f8b1"},"vehicle_type_id":"4","last_reported":1713406619,"current_range_meters":16400,"station_id":"ce4bhs12rcd13ifvqhvg","pricing_plan_id":"cebpf4jnsgd1na2vs0mg"},{"bike_id":"bada93fb-f3e7-4072-b03f-debca43b0142","system_id":"levelo_inurba_marseille","lat":43.324849,"lon":5.36567,"is_reserved":false,"is_disabled":false,"rental_uris":{"android":"levelo://app?vid=bada93fb-f3e7-4072-b03f-debca43b0142","ios":"levelo://app?vid=bada93fb-f3e7-4072-b03f-debca43b0142"},"vehicle_type_id":"4","last_reported":1713406619,"current_range_meters":0,"station_id":"ce4bhs12rcd13ifvqhvg","pricing_plan_id":"cebpf4jnsgd1na2vs0mg"},{"bike_id":"6850d3ac-6118-46b8-87a3-283cb8f13775","system_id":"levelo_inurba_marseille","lat":43.324771,"lon":5.36557,"is_reserved":false,"is_disabled":false,"rental_uris":{"android":"levelo://app?vid=6850d3ac-6118-46b8-87a3-283cb8f13775","ios":"levelo://app?vid=6850d3ac-6118-46b8-87a3-283cb8f13775"},"vehicle_type_id":"4","last_reported":1713406619,"current_range_meters":8400,"station_id":"ce4bhs12rcd13ifvqhvg","pricing_plan_id":"cebpf4jnsgd1na2vs0mg"},{"bike_id":"11a65fcd-a55c-49fa-8f59-be683102caef","system_id":"levelo_inurba_marseille","lat":43.324771,"lon":5.36557,"is_reserved":false,"is_disabled":false,"rental_uris":{"android":"levelo://app?vid=11a65fcd-a55c-49fa-8f59-be683102caef","ios":"levelo://app?vid=11a65fcd-a55c-49fa-8f59-be683102caef"},"vehicle_type_id":"4","last_reported":1713406619,"current_range_meters":21200,"station_id":"ce4bhs12rcd13ifvqhvg","pricing_plan_id":"cebpf4jnsgd1na2vs0mg"},{"bike_id":"159e6d69-ec2a-4b11-9a20-0e798b3d4e6d","system_id":"levelo_inurba_marseille","lat":43.324771,"lon":5.36557,"is_reserved":false,"is_disabled":false,"rental_uris":{"android":"levelo://app?vid=159e6d69-ec2a-4b11-9a20-0e798b3d4e6d","ios":"levelo://app?vid=159e6d69-ec2a-4b11-9a20-0e798b3d4e6d"},"vehicle_type_id":"4","last_reported":1713406619,"current_range_meters":11600,"station_id":"ce4bhs12rcd13ifvqhvg","pricing_plan_id":"cebpf4jnsgd1na2vs0mg"},{"bike_id":"a51b9dbd-b6b4-4e62-aede-beb536c98b5a","system_id":"levelo_inurba_marseille","lat":43.32488,"lon":5.36564,"is_reserved":false,"is_disabled":false,"rental_uris":{"android":"levelo://app?vid=a51b9dbd-b6b4-4e62-aede-beb536c98b5a","ios":"levelo://app?vid=a51b9dbd-b6b4-4e62-aede-beb536c98b5a"},"vehicle_type_id":"4","last_reported":1713406619,"current_range_meters":5200,"station_id":"ce4bhs12rcd13ifvqhvg","pricing_plan_id":"cebpf4jnsgd1na2vs0mg"},{"bike_id":"3f3749f1-51e6-424f-93ee-c752c0129ac2","system_id":"levelo_inurba_marseille","lat":43.3107,"lon":5.38349,"is_reserved":false,"is_disabled":false,"rental_uris":{"android":"levelo://app?vid=3f3749f1-51e6-424f-93ee-c752c0129ac2","ios":"levelo://app?vid=3f3749f1-51e6-424f-93ee-c752c0129ac2"},"vehicle_type_id":"4","last_reported":1713406619,"current_range_meters":25200,"station_id":"ce4bgv92rcd13ifvqcr0","pricing_plan_id":"cebpf4jnsgd1na2vs0mg"},{"bike_id":"3775dccd-f336-4e1c-a7af-b5e7212131c4","system_id":"levelo_inurba_marseille","lat":43.310736,"lon":5.383502,"is_reserved":false,"is_disabled":false,"rental_uris":{"android":"levelo://app?vid=3775dccd-f336-4e1c-a7af-b5e7212131c4","ios":"levelo://app?vid=3775dccd-f336-4e1c-a7af-b5e7212131c4"},"vehicle_type_id":"4","last_reported":1713406619,"current_range_meters":8400,"station_id":"ce4bgv92rcd13ifvqcr0","pricing_plan_id":"cebpf4jnsgd1na2vs0mg"},{"bike_id":"6cf43bf3-1c06-4d14-b68a-25d857fbb77b","system_id":"levelo_inurba_marseille","lat":43.310804,"lon":5.38359,"is_reserved":false,"is_disabled":false,"rental_uris":{"android":"levelo://app?vid=6cf43bf3-1c06-4d14-b68a-25d857fbb77b","ios":"levelo://app?vid=6cf43bf3-1c06-4d14-b68a-25d857fbb77b"},"vehicle_type_id":"4","last_reported":1713406619,"current_range_meters":22000,"station_id":"ce4bgv92rcd13ifvqcr0","pricing_plan_id":"cebpf4jnsgd1na2vs0mg"},{"bike_id":"6b397788-44c3-4436-8d8c-81f5dcbaeee3","system_id":"levelo_inurba_marseille","lat":43.310756,"lon":5.383526,"is_reserved":false,"is_disabled":false,"rental_uris":{"android":"levelo://app?vid=6b397788-44c3-4436-8d8c-81f5dcbaeee3","ios":"levelo://app?vid=6b397788-44c3-4436-8d8c-81f5dcbaeee3"},"vehicle_type_id":"4","last_reported":1713406619,"current_range_meters":24400,"station_id":"ce4bgv92rcd13ifvqcr0","pricing_plan_id":"cebpf4jnsgd1na2vs0mg"},{"bike_id":"b8feb9d2-3951-40e7-a9aa-7b5fd456b9c5","system_id":"levelo_inurba_marseille","lat":43.310753,"lon":5.383529,"is_reserved":false,"is_disabled":false,"rental_uris":{"android":"levelo://app?vid=b8feb9d2-3951-40e7-a9aa-7b5fd456b9c5","ios":"levelo://app?vid=b8feb9d2-3951-40e7-a9aa-7b5fd456b9c5"},"vehicle_type_id":"4","last_reported":1713406619,"current_range_meters":8400,"station_id":"ce4bgv92rcd13ifvqcr0","pricing_plan_id":"cebpf4jnsgd1na2vs0mg"},{"bike_id":"d986bd22-f831-4a7d-a74f-59573012fbf0","system_id":"levelo_inurba_marseille","lat":43.310799,"lon":5.383549,"is_reserved":false,"is_disabled":false,"rental_uris":{"android":"levelo://app?vid=d986bd22-f831-4a7d-a74f-59573012fbf0","ios":"levelo://app?vid=d986bd22-f831-4a7d-a74f-59573012fbf0"},"vehicle_type_id":"4","last_reported":1713406619,"current_range_meters":10000,"station_id":"ce4bgv92rcd13ifvqcr0","pricing_plan_id":"cebpf4jnsgd1na2vs0mg"},{"bike_id":"c8ef666f-2eb9-491a-b20f-ba5989588f8b","system_id":"levelo_inurba_marseille","lat":43.31075,"lon":5.383561,"is_reserved":false,"is_disabled":false,"rental_uris":{"android":"levelo://app?vid=c8ef666f-2eb9-491a-b20f-ba5989588f8b","ios":"levelo://app?vid=c8ef666f-2eb9-491a-b20f-ba5989588f8b"},"vehicle_type_id":"4","last_reported":1713406619,"current_range_meters":10000,"station_id":"ce4bgv92rcd13ifvqcr0","pricing_plan_id":"cebpf4jnsgd1na2vs0mg"},{"bike_id":"e67c0558-e798-46fe-86f9-b9dd68d14f0f","system_id":"levelo_inurba_marseille","lat":43.310804,"lon":5.38359,"is_reserved":false,"is_disabled":false,"rental_uris":{"android":"levelo://app?vid=e67c0558-e798-46fe-86f9-b9dd68d14f0f","ios":"levelo://app?vid=e67c0558-e798-46fe-86f9-b9dd68d14f0f"},"vehicle_type_id":"4","last_reported":1713406619,"current_range_meters":6400,"station_id":"ce4bgv92rcd13ifvqcr0","pricing_plan_id":"cebpf4jnsgd1na2vs0mg"},{"bike_id":"df918760-362b-4ab6-8fdf-1e3ec1b0f0cc","system_id":"levelo_inurba_marseille","lat":43.30143,"lon":5.37413,"is_reserved":false,"is_disabled":false,"rental_uris":{"android":"levelo://app?vid=df918760-362b-4ab6-8fdf-1e3ec1b0f0cc","ios":"levelo://app?vid=df918760-362b-4ab6-8fdf-1e3ec1b0f0cc"},"vehicle_type_id":"4","last_reported":1713406619,"current_range_meters":26000,"station_id":"ce4bgs92rcd13ifvqcc0","pricing_plan_id":"cebpf4jnsgd1na2vs0mg"},{"bike_id":"bc128b29-1771-4339-828a-559cc67e793b","system_id":"levelo_inurba_marseille","lat":43.30143,"lon":5.37413,"is_reserved":false,"is_disabled":false,"rental_uris":{"android":"levelo://app?vid=bc128b29-1771-4339-828a-559cc67e793b","ios":"levelo://app?vid=bc128b29-1771-4339-828a-559cc67e793b"},"vehicle_type_id":"4","last_reported":1713406619,"current_range_meters":15600,"station_id":"ce4bgs92rcd13ifvqcc0","pricing_plan_id":"cebpf4jnsgd1na2vs0mg"},{"bike_id":"b5eb34c2-4f19-444f-ace6-937d52151e93","system_id":"levelo_inurba_marseille","lat":43.301429,"lon":5.37413,"is_reserved":false,"is_disabled":false,"rental_uris":{"android":"levelo://app?vid=b5eb34c2-4f19-444f-ace6-937d52151e93","ios":"levelo://app?vid=b5eb34c2-4f19-444f-ace6-937d52151e93"},"vehicle_type_id":"4","last_reported":1713406619,"current_range_meters":18400,"station_id":"ce4bgs92rcd13ifvqcc0","pricing_plan_id":"cebpf4jnsgd1na2vs0mg"},{"bike_id":"cbb8e265-99e5-4ec1-8793-1300e44f81d2","system_id":"levelo_inurba_marseille","lat":43.301429,"lon":5.37413,"is_reserved":false,"is_disabled":false,"rental_uris":{"android":"levelo://app?vid=cbb8e265-99e5-4ec1-8793-1300e44f81d2","ios":"levelo://app?vid=cbb8e265-99e5-4ec1-8793-1300e44f81d2"},"vehicle_type_id":"4","last_reported":1713406619,"current_range_meters":27200,"station_id":"ce4bgs92rcd13ifvqcc0","pricing_plan_id":"cebpf4jnsgd1na2vs0mg"},{"bike_id":"5e0422c4-4db2-4cd5-8ec6-f1a5f73617e2","system_id":"levelo_inurba_marseille","lat":43.30561,"lon":5.381355,"is_reserved":false,"is_disabled":false,"rental_uris":{"android":"levelo://app?vid=5e0422c4-4db2-4cd5-8ec6-f1a5f73617e2","ios":"levelo://app?vid=5e0422c4-4db2-4cd5-8ec6-f1a5f73617e2"},"vehicle_type_id":"4","last_reported":1713406619,"current_range_meters":16800,"station_id":"","pricing_plan_id":"cebpf4jnsgd1na2vs0mg"},{"bike_id":"5dd9c5dd-3617-4911-b3a9-d6856f9c0118","system_id":"levelo_inurba_marseille","lat":43.319935,"lon":5.381699,"is_reserved":false,"is_disabled":false,"rental_uris":{"android":"levelo://app?vid=5dd9c5dd-3617-4911-b3a9-d6856f9c0118","ios":"levelo://app?vid=5dd9c5dd-3617-4911-b3a9-d6856f9c0118"},"vehicle_type_id":"4","last_reported":1713406619,"current_range_meters":21200,"station_id":"ce4bhr12rcd13ifvqhpg","pricing_plan_id":"cebpf4jnsgd1na2vs0mg"},{"bike_id":"a7f1b00f-26ff-404c-8811-6a3369faeea1","system_id":"levelo_inurba_marseille","lat":43.31996,"lon":5.38144,"is_reserved":false,"is_disabled":false,"rental_uris":{"android":"levelo://app?vid=a7f1b00f-26ff-404c-8811-6a3369faeea1","ios":"levelo://app?vid=a7f1b00f-26ff-404c-8811-6a3369faeea1"},"vehicle_type_id":"4","last_reported":1713406619,"current_range_meters":18400,"station_id":"ce4bhr12rcd13ifvqhpg","pricing_plan_id":"cebpf4jnsgd1na2vs0mg"},{"bike_id":"8608e23e-7f9a-414f-ad7e-86dba4433338","system_id":"levelo_inurba_marseille","lat":43.319935,"lon":5.381699,"is_reserved":false,"is_disabled":false,"rental_uris":{"android":"levelo://app?vid=8608e23e-7f9a-414f-ad7e-86dba4433338","ios":"levelo://app?vid=8608e23e-7f9a-414f-ad7e-86dba4433338"},"vehicle_type_id":"4","last_reported":1713406619,"current_range_meters":11200,"station_id":"ce4bhr12rcd13ifvqhpg","pricing_plan_id":"cebpf4jnsgd1na2vs0mg"},{"bike_id":"334e3407-4f9b-4b57-a5ef-39033f25d948","system_id":"levelo_inurba_marseille","lat":43.319935,"lon":5.381699,"is_reserved":false,"is_disabled":false,"rental_uris":{"android":"levelo://app?vid=334e3407-4f9b-4b57-a5ef-39033f25d948","ios":"levelo://app?vid=334e3407-4f9b-4b57-a5ef-39033f25d948"},"vehicle_type_id":"4","last_reported":1713406619,"current_range_meters":18800,"station_id":"ce4bhr12rcd13ifvqhpg","pricing_plan_id":"cebpf4jnsgd1na2vs0mg"},{"bike_id":"eb084826-c14b-4714-abc5-e75cc896773b","system_id":"levelo_inurba_marseille","lat":43.319935,"lon":5.381699,"is_reserved":false,"is_disabled":false,"rental_uris":{"android":"levelo://app?vid=eb084826-c14b-4714-abc5-e75cc896773b","ios":"levelo://app?vid=eb084826-c14b-4714-abc5-e75cc896773b"},"vehicle_type_id":"4","last_reported":1713406619,"current_range_meters":8000,"station_id":"ce4bhr12rcd13ifvqhpg","pricing_plan_id":"cebpf4jnsgd1na2vs0mg"},{"bike_id":"f1a17ac3-bf0f-4378-ae6f-719bc9a96880","system_id":"levelo_inurba_marseille","lat":43.319935,"lon":5.381699,"is_reserved":false,"is_disabled":false,"rental_uris":{"android":"levelo://app?vid=f1a17ac3-bf0f-4378-ae6f-719bc9a96880","ios":"levelo://app?vid=f1a17ac3-bf0f-4378-ae6f-719bc9a96880"},"vehicle_type_id":"4","last_reported":1713406619,"current_range_meters":0,"station_id":"ce4bhr12rcd13ifvqhpg","pricing_plan_id":"cebpf4jnsgd1na2vs0mg"},{"bike_id":"ce7fa476-bb4f-43d3-8318-023d7f9567ab","system_id":"levelo_inurba_marseille","lat":43.319935,"lon":5.381699,"is_reserved":false,"is_disabled":false,"rental_uris":{"android":"levelo://app?vid=ce7fa476-bb4f-43d3-8318-023d7f9567ab","ios":"levelo://app?vid=ce7fa476-bb4f-43d3-8318-023d7f9567ab"},"vehicle_type_id":"4","last_reported":1713406619,"current_range_meters":18000,"station_id":"ce4bhr12rcd13ifvqhpg","pricing_plan_id":"cebpf4jnsgd1na2vs0mg"},{"bike_id":"d212c281-3522-420a-b06f-b80966290c73","system_id":"levelo_inurba_marseille","lat":43.319935,"lon":5.381699,"is_reserved":false,"is_disabled":false,"rental_uris":{"android":"levelo://app?vid=d212c281-3522-420a-b06f-b80966290c73","ios":"levelo://app?vid=d212c281-3522-420a-b06f-b80966290c73"},"vehicle_type_id":"4","last_reported":1713406619,"current_range_meters":22000,"station_id":"ce4bhr12rcd13ifvqhpg","pricing_plan_id":"cebpf4jnsgd1na2vs0mg"},{"bike_id":"fc2df9fc-0879-4333-955e-d7f8d52b1a38","system_id":"levelo_inurba_marseille","lat":43.319935,"lon":5.381699,"is_reserved":false,"is_disabled":false,"rental_uris":{"android":"levelo://app?vid=fc2df9fc-0879-4333-955e-d7f8d52b1a38","ios":"levelo://app?vid=fc2df9fc-0879-4333-955e-d7f8d52b1a38"},"vehicle_type_id":"4","last_reported":1713406619,"current_range_meters":0,"station_id":"ce4bhr12rcd13ifvqhpg","pricing_plan_id":"cebpf4jnsgd1na2vs0mg"},{"bike_id":"8ce762a3-5d5b-4cf2-afa1-d3fa5bbc8b07","system_id":"levelo_inurba_marseille","lat":43.31997,"lon":5.38148,"is_reserved":false,"is_disabled":false,"rental_uris":{"android":"levelo://app?vid=8ce762a3-5d5b-4cf2-afa1-d3fa5bbc8b07","ios":"levelo://app?vid=8ce762a3-5d5b-4cf2-afa1-d3fa5bbc8b07"},"vehicle_type_id":"4","last_reported":1713406619,"current_range_meters":7600,"station_id":"ce4bhr12rcd13ifvqhpg","pricing_plan_id":"cebpf4jnsgd1na2vs0mg"},{"bike_id":"f020809e-e197-4eb4-9e13-8310c8f35000","system_id":"levelo_inurba_marseille","lat":43.31996,"lon":5.38149,"is_reserved":false,"is_disabled":false,"rental_uris":{"android":"levelo://app?vid=f020809e-e197-4eb4-9e13-8310c8f35000","ios":"levelo://app?vid=f020809e-e197-4eb4-9e13-8310c8f35000"},"vehicle_type_id":"4","last_reported":1713406619,"current_range_meters":8000,"station_id":"ce4bhr12rcd13ifvqhpg","pricing_plan_id":"cebpf4jnsgd1na2vs0mg"},{"bike_id":"b81b1e3e-2172-4dfd-8720-aafb0057bf12","system_id":"levelo_inurba_marseille","lat":43.319935,"lon":5.381699,"is_reserved":false,"is_disabled":false,"rental_uris":{"android":"levelo://app?vid=b81b1e3e-2172-4dfd-8720-aafb0057bf12","ios":"levelo://app?vid=b81b1e3e-2172-4dfd-8720-aafb0057bf12"},"vehicle_type_id":"4","last_reported":1713406619,"current_range_meters":6800,"station_id":"ce4bhr12rcd13ifvqhpg","pricing_plan_id":"cebpf4jnsgd1na2vs0mg"},{"bike_id":"592f0002-f51e-454a-948b-76b054acb9a8","system_id":"levelo_inurba_marseille","lat":43.319935,"lon":5.381699,"is_reserved":false,"is_disabled":false,"rental_uris":{"android":"levelo://app?vid=592f0002-f51e-454a-948b-76b054acb9a8","ios":"levelo://app?vid=592f0002-f51e-454a-948b-76b054acb9a8"},"vehicle_type_id":"4","last_reported":1713406619,"current_range_meters":13600,"station_id":"ce4bhr12rcd13ifvqhpg","pricing_plan_id":"cebpf4jnsgd1na2vs0mg"},{"bike_id":"59326216-105b-4494-ae65-c27520b117a9","system_id":"levelo_inurba_marseille","lat":43.31359,"lon":5.38488,"is_reserved":false,"is_disabled":false,"rental_uris":{"android":"levelo://app?vid=59326216-105b-4494-ae65-c27520b117a9","ios":"levelo://app?vid=59326216-105b-4494-ae65-c27520b117a9"},"vehicle_type_id":"4","last_reported":1713406619,"current_range_meters":24000,"station_id":"ce4bgt92rcd13ifvqcf0","pricing_plan_id":"cebpf4jnsgd1na2vs0mg"},{"bike_id":"c5d11722-a3ba-4286-a346-933900f5d4cb","system_id":"levelo_inurba_marseille","lat":43.313571,"lon":5.384829,"is_reserved":false,"is_disabled":false,"rental_uris":{"android":"levelo://app?vid=c5d11722-a3ba-4286-a346-933900f5d4cb","ios":"levelo://app?vid=c5d11722-a3ba-4286-a346-933900f5d4cb"},"vehicle_type_id":"4","last_reported":1713406619,"current_range_meters":400,"station_id":"ce4bgt92rcd13ifvqcf0","pricing_plan_id":"cebpf4jnsgd1na2vs0mg"},{"bike_id":"61117519-e495-4571-9706-33730fba2ac1","system_id":"levelo_inurba_marseille","lat":43.313583,"lon":5.384917,"is_reserved":false,"is_disabled":false,"rental_uris":{"android":"levelo://app?vid=61117519-e495-4571-9706-33730fba2ac1","ios":"levelo://app?vid=61117519-e495-4571-9706-33730fba2ac1"},"vehicle_type_id":"4","last_reported":1713406619,"current_range_meters":0,"station_id":"ce4bgt92rcd13ifvqcf0","pricing_plan_id":"cebpf4jnsgd1na2vs0mg"},{"bike_id":"275b68fe-e7ea-4550-8753-d75713c84adc","system_id":"levelo_inurba_marseille","lat":43.28573,"lon":5.394992,"is_reserved":false,"is_disabled":false,"rental_uris":{"android":"levelo://app?vid=275b68fe-e7ea-4550-8753-d75713c84adc","ios":"levelo://app?vid=275b68fe-e7ea-4550-8753-d75713c84adc"},"vehicle_type_id":"4","last_reported":1713406619,"current_range_meters":9600,"station_id":"ce4bh292rcd13ifvqdg0","pricing_plan_id":"cebpf4jnsgd1na2vs0mg"},{"bike_id":"1cc39bba-192c-4bcc-b37f-24dc500d85ff","system_id":"levelo_inurba_marseille","lat":43.31371,"lon":5.38495,"is_reserved":false,"is_disabled":false,"rental_uris":{"android":"levelo://app?vid=1cc39bba-192c-4bcc-b37f-24dc500d85ff","ios":"levelo://app?vid=1cc39bba-192c-4bcc-b37f-24dc500d85ff"},"vehicle_type_id":"4","last_reported":1713406619,"current_range_meters":4400,"station_id":"ce4bgt92rcd13ifvqcf0","pricing_plan_id":"cebpf4jnsgd1na2vs0mg"},{"bike_id":"7a6e1c2e-307f-44da-ab4b-7057ef8b4cbd","system_id":"levelo_inurba_marseille","lat":43.313571,"lon":5.384829,"is_reserved":false,"is_disabled":false,"rental_uris":{"android":"levelo://app?vid=7a6e1c2e-307f-44da-ab4b-7057ef8b4cbd","ios":"levelo://app?vid=7a6e1c2e-307f-44da-ab4b-7057ef8b4cbd"},"vehicle_type_id":"4","last_reported":1713406619,"current_range_meters":31600,"station_id":"ce4bgt92rcd13ifvqcf0","pricing_plan_id":"cebpf4jnsgd1na2vs0mg"},{"bike_id":"79b1484c-7ca2-4a8d-b15b-2987062d3cb2","system_id":"levelo_inurba_marseille","lat":43.300134,"lon":5.376593,"is_reserved":false,"is_disabled":false,"rental_uris":{"android":"levelo://app?vid=79b1484c-7ca2-4a8d-b15b-2987062d3cb2","ios":"levelo://app?vid=79b1484c-7ca2-4a8d-b15b-2987062d3cb2"},"vehicle_type_id":"4","last_reported":1713406619,"current_range_meters":23200,"station_id":"","pricing_plan_id":"cebpf4jnsgd1na2vs0mg"},{"bike_id":"7e6b49b2-fa4e-440c-ac28-31113f559575","system_id":"levelo_inurba_marseille","lat":43.305364,"lon":5.384119,"is_reserved":false,"is_disabled":false,"rental_uris":{"android":"levelo://app?vid=7e6b49b2-fa4e-440c-ac28-31113f559575","ios":"levelo://app?vid=7e6b49b2-fa4e-440c-ac28-31113f559575"},"vehicle_type_id":"4","last_reported":1713406619,"current_range_meters":29600,"station_id":"ce4bgg92rcd13ifvqb30","pricing_plan_id":"cebpf4jnsgd1na2vs0mg"},{"bike_id":"b5f51ae7-de95-4aba-9ac4-367ffbba61bc","system_id":"levelo_inurba_marseille","lat":43.305368,"lon":5.384253,"is_reserved":false,"is_disabled":false,"rental_uris":{"android":"levelo://app?vid=b5f51ae7-de95-4aba-9ac4-367ffbba61bc","ios":"levelo://app?vid=b5f51ae7-de95-4aba-9ac4-367ffbba61bc"},"vehicle_type_id":"4","last_reported":1713406619,"current_range_meters":7200,"station_id":"ce4bgg92rcd13ifvqb30","pricing_plan_id":"cebpf4jnsgd1na2vs0mg"},{"bike_id":"a42cbd15-030c-4824-bb76-c8c8d94b1bce","system_id":"levelo_inurba_marseille","lat":43.299243,"lon":5.37481,"is_reserved":false,"is_disabled":false,"rental_uris":{"android":"levelo://app?vid=a42cbd15-030c-4824-bb76-c8c8d94b1bce","ios":"levelo://app?vid=a42cbd15-030c-4824-bb76-c8c8d94b1bce"},"vehicle_type_id":"4","last_reported":1713406619,"current_range_meters":29600,"station_id":"ce4bgjh2rcd13ifvqbg0","pricing_plan_id":"cebpf4jnsgd1na2vs0mg"},{"bike_id":"5acfa26c-b39f-4340-8510-64c51d57caea","system_id":"levelo_inurba_marseille","lat":43.305364,"lon":5.384119,"is_reserved":false,"is_disabled":false,"rental_uris":{"android":"levelo://app?vid=5acfa26c-b39f-4340-8510-64c51d57caea","ios":"levelo://app?vid=5acfa26c-b39f-4340-8510-64c51d57caea"},"vehicle_type_id":"4","last_reported":1713406619,"current_range_meters":10800,"station_id":"ce4bgg92rcd13ifvqb30","pricing_plan_id":"cebpf4jnsgd1na2vs0mg"},{"bike_id":"9495cdd6-a3a7-4039-b2c0-df6d71a79c2b","system_id":"levelo_inurba_marseille","lat":43.30537,"lon":5.384298,"is_reserved":false,"is_disabled":false,"rental_uris":{"android":"levelo://app?vid=9495cdd6-a3a7-4039-b2c0-df6d71a79c2b","ios":"levelo://app?vid=9495cdd6-a3a7-4039-b2c0-df6d71a79c2b"},"vehicle_type_id":"4","last_reported":1713406619,"current_range_meters":27600,"station_id":"ce4bgg92rcd13ifvqb30","pricing_plan_id":"cebpf4jnsgd1na2vs0mg"},{"bike_id":"a0974152-73ef-43d9-932e-a10f37c71249","system_id":"levelo_inurba_marseille","lat":43.305364,"lon":5.384119,"is_reserved":false,"is_disabled":false,"rental_uris":{"android":"levelo://app?vid=a0974152-73ef-43d9-932e-a10f37c71249","ios":"levelo://app?vid=a0974152-73ef-43d9-932e-a10f37c71249"},"vehicle_type_id":"4","last_reported":1713406619,"current_range_meters":19200,"station_id":"ce4bgg92rcd13ifvqb30","pricing_plan_id":"cebpf4jnsgd1na2vs0mg"},{"bike_id":"23cb9c28-3521-4b1e-b6ac-6e3e07878e0a","system_id":"levelo_inurba_marseille","lat":43.311722,"lon":5.387247,"is_reserved":false,"is_disabled":false,"rental_uris":{"android":"levelo://app?vid=23cb9c28-3521-4b1e-b6ac-6e3e07878e0a","ios":"levelo://app?vid=23cb9c28-3521-4b1e-b6ac-6e3e07878e0a"},"vehicle_type_id":"4","last_reported":1713406619,"current_range_meters":3600,"station_id":"ce4bgv12rcd13ifvqcp0","pricing_plan_id":"cebpf4jnsgd1na2vs0mg"},{"bike_id":"5d68dce7-1331-4ece-b036-52951989ec9f","system_id":"levelo_inurba_marseille","lat":43.311722,"lon":5.387247,"is_reserved":false,"is_disabled":false,"rental_uris":{"android":"levelo://app?vid=5d68dce7-1331-4ece-b036-52951989ec9f","ios":"levelo://app?vid=5d68dce7-1331-4ece-b036-52951989ec9f"},"vehicle_type_id":"4","last_reported":1713406619,"current_range_meters":13200,"station_id":"ce4bgv12rcd13ifvqcp0","pricing_plan_id":"cebpf4jnsgd1na2vs0mg"},{"bike_id":"80ea55d7-c610-4883-a8a9-1fc39ca82327","system_id":"levelo_inurba_marseille","lat":43.311722,"lon":5.387247,"is_reserved":false,"is_disabled":false,"rental_uris":{"android":"levelo://app?vid=80ea55d7-c610-4883-a8a9-1fc39ca82327","ios":"levelo://app?vid=80ea55d7-c610-4883-a8a9-1fc39ca82327"},"vehicle_type_id":"4","last_reported":1713406619,"current_range_meters":28800,"station_id":"ce4bgv12rcd13ifvqcp0","pricing_plan_id":"cebpf4jnsgd1na2vs0mg"},{"bike_id":"2a2aa7ff-9df2-4cc8-9a50-8eaf52cc284d","system_id":"levelo_inurba_marseille","lat":43.311722,"lon":5.387247,"is_reserved":false,"is_disabled":false,"rental_uris":{"android":"levelo://app?vid=2a2aa7ff-9df2-4cc8-9a50-8eaf52cc284d","ios":"levelo://app?vid=2a2aa7ff-9df2-4cc8-9a50-8eaf52cc284d"},"vehicle_type_id":"4","last_reported":1713406619,"current_range_meters":13600,"station_id":"ce4bgv12rcd13ifvqcp0","pricing_plan_id":"cebpf4jnsgd1na2vs0mg"},{"bike_id":"eb5d2e3f-6aeb-4cc7-bf56-c58962f1f89a","system_id":"levelo_inurba_marseille","lat":43.311722,"lon":5.387247,"is_reserved":false,"is_disabled":false,"rental_uris":{"android":"levelo://app?vid=eb5d2e3f-6aeb-4cc7-bf56-c58962f1f89a","ios":"levelo://app?vid=eb5d2e3f-6aeb-4cc7-bf56-c58962f1f89a"},"vehicle_type_id":"4","last_reported":1713406619,"current_range_meters":16800,"station_id":"ce4bgv12rcd13ifvqcp0","pricing_plan_id":"cebpf4jnsgd1na2vs0mg"},{"bike_id":"399494aa-8c1e-4905-ac13-95b182cb9832","system_id":"levelo_inurba_marseille","lat":43.311722,"lon":5.387247,"is_reserved":false,"is_disabled":false,"rental_uris":{"android":"levelo://app?vid=399494aa-8c1e-4905-ac13-95b182cb9832","ios":"levelo://app?vid=399494aa-8c1e-4905-ac13-95b182cb9832"},"vehicle_type_id":"4","last_reported":1713406619,"current_range_meters":29600,"station_id":"ce4bgv12rcd13ifvqcp0","pricing_plan_id":"cebpf4jnsgd1na2vs0mg"},{"bike_id":"57307002-853c-46c5-8e8f-e598386fde1a","system_id":"levelo_inurba_marseille","lat":43.311722,"lon":5.387247,"is_reserved":false,"is_disabled":false,"rental_uris":{"android":"levelo://app?vid=57307002-853c-46c5-8e8f-e598386fde1a","ios":"levelo://app?vid=57307002-853c-46c5-8e8f-e598386fde1a"},"vehicle_type_id":"4","last_reported":1713406619,"current_range_meters":13200,"station_id":"ce4bgv12rcd13ifvqcp0","pricing_plan_id":"cebpf4jnsgd1na2vs0mg"},{"bike_id":"4bf84e78-46ef-4b35-a381-92b53adea192","system_id":"levelo_inurba_marseille","lat":43.311722,"lon":5.387247,"is_reserved":false,"is_disabled":false,"rental_uris":{"android":"levelo://app?vid=4bf84e78-46ef-4b35-a381-92b53adea192","ios":"levelo://app?vid=4bf84e78-46ef-4b35-a381-92b53adea192"},"vehicle_type_id":"4","last_reported":1713406619,"current_range_meters":20800,"station_id":"ce4bgv12rcd13ifvqcp0","pricing_plan_id":"cebpf4jnsgd1na2vs0mg"},{"bike_id":"7db24ac4-818e-44a7-8111-4b628b79bbb7","system_id":"levelo_inurba_marseille","lat":43.311722,"lon":5.387247,"is_reserved":false,"is_disabled":false,"rental_uris":{"android":"levelo://app?vid=7db24ac4-818e-44a7-8111-4b628b79bbb7","ios":"levelo://app?vid=7db24ac4-818e-44a7-8111-4b628b79bbb7"},"vehicle_type_id":"4","last_reported":1713406619,"current_range_meters":10800,"station_id":"ce4bgv12rcd13ifvqcp0","pricing_plan_id":"cebpf4jnsgd1na2vs0mg"},{"bike_id":"a53f48aa-c571-4df0-8068-c2cd012503f0","system_id":"levelo_inurba_marseille","lat":43.311722,"lon":5.387247,"is_reserved":false,"is_disabled":false,"rental_uris":{"android":"levelo://app?vid=a53f48aa-c571-4df0-8068-c2cd012503f0","ios":"levelo://app?vid=a53f48aa-c571-4df0-8068-c2cd012503f0"},"vehicle_type_id":"4","last_reported":1713406619,"current_range_meters":15600,"station_id":"ce4bgv12rcd13ifvqcp0","pricing_plan_id":"cebpf4jnsgd1na2vs0mg"},{"bike_id":"eb048834-5330-4cb5-872c-81ec68b930ba","system_id":"levelo_inurba_marseille","lat":43.311722,"lon":5.387247,"is_reserved":false,"is_disabled":false,"rental_uris":{"android":"levelo://app?vid=eb048834-5330-4cb5-872c-81ec68b930ba","ios":"levelo://app?vid=eb048834-5330-4cb5-872c-81ec68b930ba"},"vehicle_type_id":"4","last_reported":1713406619,"current_range_meters":14000,"station_id":"ce4bgv12rcd13ifvqcp0","pricing_plan_id":"cebpf4jnsgd1na2vs0mg"},{"bike_id":"25245ad1-bee3-407f-83e1-b7057fd74cc3","system_id":"levelo_inurba_marseille","lat":43.311722,"lon":5.387247,"is_reserved":false,"is_disabled":false,"rental_uris":{"android":"levelo://app?vid=25245ad1-bee3-407f-83e1-b7057fd74cc3","ios":"levelo://app?vid=25245ad1-bee3-407f-83e1-b7057fd74cc3"},"vehicle_type_id":"4","last_reported":1713406619,"current_range_meters":29600,"station_id":"ce4bgv12rcd13ifvqcp0","pricing_plan_id":"cebpf4jnsgd1na2vs0mg"},{"bike_id":"9bae45e8-39f7-4ab2-a678-f93338934f20","system_id":"levelo_inurba_marseille","lat":43.299243,"lon":5.37481,"is_reserved":false,"is_disabled":false,"rental_uris":{"android":"levelo://app?vid=9bae45e8-39f7-4ab2-a678-f93338934f20","ios":"levelo://app?vid=9bae45e8-39f7-4ab2-a678-f93338934f20"},"vehicle_type_id":"4","last_reported":1713406619,"current_range_meters":27600,"station_id":"ce4bgjh2rcd13ifvqbg0","pricing_plan_id":"cebpf4jnsgd1na2vs0mg"},{"bike_id":"e75c7033-9141-42b2-943d-4aa8c7127bdb","system_id":"levelo_inurba_marseille","lat":43.311722,"lon":5.387247,"is_reserved":false,"is_disabled":false,"rental_uris":{"android":"levelo://app?vid=e75c7033-9141-42b2-943d-4aa8c7127bdb","ios":"levelo://app?vid=e75c7033-9141-42b2-943d-4aa8c7127bdb"},"vehicle_type_id":"4","last_reported":1713406619,"current_range_meters":400,"station_id":"ce4bgv12rcd13ifvqcp0","pricing_plan_id":"cebpf4jnsgd1na2vs0mg"},{"bike_id":"9378f875-7fd4-470c-8e4c-232c723155e0","system_id":"levelo_inurba_marseille","lat":43.311722,"lon":5.387247,"is_reserved":false,"is_disabled":false,"rental_uris":{"android":"levelo://app?vid=9378f875-7fd4-470c-8e4c-232c723155e0","ios":"levelo://app?vid=9378f875-7fd4-470c-8e4c-232c723155e0"},"vehicle_type_id":"4","last_reported":1713406619,"current_range_meters":0,"station_id":"ce4bgv12rcd13ifvqcp0","pricing_plan_id":"cebpf4jnsgd1na2vs0mg"},{"bike_id":"a83036df-6765-4995-bb58-54f547f9d9ca","system_id":"levelo_inurba_marseille","lat":43.311722,"lon":5.387247,"is_reserved":false,"is_disabled":false,"rental_uris":{"android":"levelo://app?vid=a83036df-6765-4995-bb58-54f547f9d9ca","ios":"levelo://app?vid=a83036df-6765-4995-bb58-54f547f9d9ca"},"vehicle_type_id":"4","last_reported":1713406619,"current_range_meters":24800,"station_id":"ce4bgv12rcd13ifvqcp0","pricing_plan_id":"cebpf4jnsgd1na2vs0mg"},{"bike_id":"21903368-4969-43fc-b6e9-406d36da2d44","system_id":"levelo_inurba_marseille","lat":43.297774,"lon":5.370875,"is_reserved":false,"is_disabled":false,"rental_uris":{"android":"levelo://app?vid=21903368-4969-43fc-b6e9-406d36da2d44","ios":"levelo://app?vid=21903368-4969-43fc-b6e9-406d36da2d44"},"vehicle_type_id":"4","last_reported":1713406619,"current_range_meters":26400,"station_id":"ce4bgop2rcd13ifvqc1g","pricing_plan_id":"cebpf4jnsgd1na2vs0mg"},{"bike_id":"9dd4cde9-fae7-4a06-998a-59f9587228c3","system_id":"levelo_inurba_marseille","lat":43.297774,"lon":5.370875,"is_reserved":false,"is_disabled":false,"rental_uris":{"android":"levelo://app?vid=9dd4cde9-fae7-4a06-998a-59f9587228c3","ios":"levelo://app?vid=9dd4cde9-fae7-4a06-998a-59f9587228c3"},"vehicle_type_id":"4","last_reported":1713406619,"current_range_meters":26800,"station_id":"ce4bgop2rcd13ifvqc1g","pricing_plan_id":"cebpf4jnsgd1na2vs0mg"},{"bike_id":"1524fe5d-e3b6-4c01-a81e-8ed1f8a8420e","system_id":"levelo_inurba_marseille","lat":43.297794,"lon":5.370888,"is_reserved":false,"is_disabled":false,"rental_uris":{"android":"levelo://app?vid=1524fe5d-e3b6-4c01-a81e-8ed1f8a8420e","ios":"levelo://app?vid=1524fe5d-e3b6-4c01-a81e-8ed1f8a8420e"},"vehicle_type_id":"4","last_reported":1713406619,"current_range_meters":26000,"station_id":"ce4bgop2rcd13ifvqc1g","pricing_plan_id":"cebpf4jnsgd1na2vs0mg"},{"bike_id":"e6ab72cf-f560-4717-91c1-42b63f3ee6c8","system_id":"levelo_inurba_marseille","lat":43.322872,"lon":5.382756,"is_reserved":false,"is_disabled":false,"rental_uris":{"android":"levelo://app?vid=e6ab72cf-f560-4717-91c1-42b63f3ee6c8","ios":"levelo://app?vid=e6ab72cf-f560-4717-91c1-42b63f3ee6c8"},"vehicle_type_id":"4","last_reported":1713406619,"current_range_meters":31200,"station_id":"ce4bhr12rcd13ifvqhqg","pricing_plan_id":"cebpf4jnsgd1na2vs0mg"},{"bike_id":"be087829-a49d-47d1-82b5-5993f22d13ee","system_id":"levelo_inurba_marseille","lat":43.322872,"lon":5.382756,"is_reserved":false,"is_disabled":false,"rental_uris":{"android":"levelo://app?vid=be087829-a49d-47d1-82b5-5993f22d13ee","ios":"levelo://app?vid=be087829-a49d-47d1-82b5-5993f22d13ee"},"vehicle_type_id":"4","last_reported":1713406619,"current_range_meters":28800,"station_id":"ce4bhr12rcd13ifvqhqg","pricing_plan_id":"cebpf4jnsgd1na2vs0mg"},{"bike_id":"7d5fd475-d045-43ea-a449-bbf319400056","system_id":"levelo_inurba_marseille","lat":43.302137,"lon":5.382043,"is_reserved":false,"is_disabled":false,"rental_uris":{"android":"levelo://app?vid=7d5fd475-d045-43ea-a449-bbf319400056","ios":"levelo://app?vid=7d5fd475-d045-43ea-a449-bbf319400056"},"vehicle_type_id":"4","last_reported":1713406619,"current_range_meters":5600,"station_id":"","pricing_plan_id":"cebpf4jnsgd1na2vs0mg"},{"bike_id":"3791d0fc-3fbc-4499-8da1-29f4627ac9c5","system_id":"levelo_inurba_marseille","lat":43.322872,"lon":5.382756,"is_reserved":false,"is_disabled":false,"rental_uris":{"android":"levelo://app?vid=3791d0fc-3fbc-4499-8da1-29f4627ac9c5","ios":"levelo://app?vid=3791d0fc-3fbc-4499-8da1-29f4627ac9c5"},"vehicle_type_id":"4","last_reported":1713406619,"current_range_meters":0,"station_id":"ce4bhr12rcd13ifvqhqg","pricing_plan_id":"cebpf4jnsgd1na2vs0mg"},{"bike_id":"273624cd-ceb0-4ac9-9ac5-f846ca8b3853","system_id":"levelo_inurba_marseille","lat":43.322872,"lon":5.382756,"is_reserved":false,"is_disabled":false,"rental_uris":{"android":"levelo://app?vid=273624cd-ceb0-4ac9-9ac5-f846ca8b3853","ios":"levelo://app?vid=273624cd-ceb0-4ac9-9ac5-f846ca8b3853"},"vehicle_type_id":"4","last_reported":1713406619,"current_range_meters":0,"station_id":"ce4bhr12rcd13ifvqhqg","pricing_plan_id":"cebpf4jnsgd1na2vs0mg"},{"bike_id":"6c4d1a0b-97b3-4e86-87c5-6e727d67c919","system_id":"levelo_inurba_marseille","lat":43.322872,"lon":5.382756,"is_reserved":false,"is_disabled":false,"rental_uris":{"android":"levelo://app?vid=6c4d1a0b-97b3-4e86-87c5-6e727d67c919","ios":"levelo://app?vid=6c4d1a0b-97b3-4e86-87c5-6e727d67c919"},"vehicle_type_id":"4","last_reported":1713406619,"current_range_meters":31600,"station_id":"ce4bhr12rcd13ifvqhqg","pricing_plan_id":"cebpf4jnsgd1na2vs0mg"},{"bike_id":"50c48fd1-1d17-430a-a7e2-4475109305e2","system_id":"levelo_inurba_marseille","lat":43.322872,"lon":5.382756,"is_reserved":false,"is_disabled":false,"rental_uris":{"android":"levelo://app?vid=50c48fd1-1d17-430a-a7e2-4475109305e2","ios":"levelo://app?vid=50c48fd1-1d17-430a-a7e2-4475109305e2"},"vehicle_type_id":"4","last_reported":1713406619,"current_range_meters":18800,"station_id":"ce4bhr12rcd13ifvqhqg","pricing_plan_id":"cebpf4jnsgd1na2vs0mg"},{"bike_id":"a14c8af8-9dae-46b0-bcd9-aff2a3893f4f","system_id":"levelo_inurba_marseille","lat":43.297163,"lon":5.365866,"is_reserved":false,"is_disabled":false,"rental_uris":{"android":"levelo://app?vid=a14c8af8-9dae-46b0-bcd9-aff2a3893f4f","ios":"levelo://app?vid=a14c8af8-9dae-46b0-bcd9-aff2a3893f4f"},"vehicle_type_id":"4","last_reported":1713406619,"current_range_meters":26400,"station_id":"ce4bgn12rcd13ifvqbt0","pricing_plan_id":"cebpf4jnsgd1na2vs0mg"},{"bike_id":"f67fe519-a40b-4686-be09-ab176fb8d42c","system_id":"levelo_inurba_marseille","lat":43.321585,"lon":5.386754,"is_reserved":false,"is_disabled":false,"rental_uris":{"android":"levelo://app?vid=f67fe519-a40b-4686-be09-ab176fb8d42c","ios":"levelo://app?vid=f67fe519-a40b-4686-be09-ab176fb8d42c"},"vehicle_type_id":"4","last_reported":1713406619,"current_range_meters":11600,"station_id":"","pricing_plan_id":"cebpf4jnsgd1na2vs0mg"},{"bike_id":"ac711500-1ad8-467d-af67-d95c0f047302","system_id":"levelo_inurba_marseille","lat":43.299028,"lon":5.381509,"is_reserved":false,"is_disabled":false,"rental_uris":{"android":"levelo://app?vid=ac711500-1ad8-467d-af67-d95c0f047302","ios":"levelo://app?vid=ac711500-1ad8-467d-af67-d95c0f047302"},"vehicle_type_id":"4","last_reported":1713406619,"current_range_meters":18800,"station_id":"ce4bgj12rcd13ifvqbc0","pricing_plan_id":"cebpf4jnsgd1na2vs0mg"},{"bike_id":"bfdeaaba-fe35-46de-b925-88b134a23a26","system_id":"levelo_inurba_marseille","lat":43.298793,"lon":5.381045,"is_reserved":false,"is_disabled":false,"rental_uris":{"android":"levelo://app?vid=bfdeaaba-fe35-46de-b925-88b134a23a26","ios":"levelo://app?vid=bfdeaaba-fe35-46de-b925-88b134a23a26"},"vehicle_type_id":"4","last_reported":1713406619,"current_range_meters":18800,"station_id":"ce4bgj12rcd13ifvqbc0","pricing_plan_id":"cebpf4jnsgd1na2vs0mg"},{"bike_id":"013d14a6-fbcd-4005-9664-ae1ba0340a05","system_id":"levelo_inurba_marseille","lat":43.299028,"lon":5.381509,"is_reserved":false,"is_disabled":false,"rental_uris":{"android":"levelo://app?vid=013d14a6-fbcd-4005-9664-ae1ba0340a05","ios":"levelo://app?vid=013d14a6-fbcd-4005-9664-ae1ba0340a05"},"vehicle_type_id":"4","last_reported":1713406619,"current_range_meters":29600,"station_id":"ce4bgj12rcd13ifvqbc0","pricing_plan_id":"cebpf4jnsgd1na2vs0mg"},{"bike_id":"98a4f470-96ac-44a1-aa9b-51184520d1f3","system_id":"levelo_inurba_marseille","lat":43.309589,"lon":5.390258,"is_reserved":false,"is_disabled":false,"rental_uris":{"android":"levelo://app?vid=98a4f470-96ac-44a1-aa9b-51184520d1f3","ios":"levelo://app?vid=98a4f470-96ac-44a1-aa9b-51184520d1f3"},"vehicle_type_id":"4","last_reported":1713406619,"current_range_meters":6000,"station_id":"ce4bgup2rcd13ifvqco0","pricing_plan_id":"cebpf4jnsgd1na2vs0mg"},{"bike_id":"0d91e0b9-89a2-4c49-8e61-b7d378399a95","system_id":"levelo_inurba_marseille","lat":43.309589,"lon":5.390258,"is_reserved":false,"is_disabled":false,"rental_uris":{"android":"levelo://app?vid=0d91e0b9-89a2-4c49-8e61-b7d378399a95","ios":"levelo://app?vid=0d91e0b9-89a2-4c49-8e61-b7d378399a95"},"vehicle_type_id":"4","last_reported":1713406619,"current_range_meters":30000,"station_id":"ce4bgup2rcd13ifvqco0","pricing_plan_id":"cebpf4jnsgd1na2vs0mg"},{"bike_id":"7fb82ba5-712e-4a9d-a5d1-567dd3ed5c30","system_id":"levelo_inurba_marseille","lat":43.317557,"lon":5.390173,"is_reserved":false,"is_disabled":false,"rental_uris":{"android":"levelo://app?vid=7fb82ba5-712e-4a9d-a5d1-567dd3ed5c30","ios":"levelo://app?vid=7fb82ba5-712e-4a9d-a5d1-567dd3ed5c30"},"vehicle_type_id":"4","last_reported":1713406619,"current_range_meters":26800,"station_id":"ce4bhqp2rcd13ifvqhng","pricing_plan_id":"cebpf4jnsgd1na2vs0mg"},{"bike_id":"e54f94e2-93db-45a9-b19c-080c7d1aac30","system_id":"levelo_inurba_marseille","lat":43.317557,"lon":5.390173,"is_reserved":false,"is_disabled":false,"rental_uris":{"android":"levelo://app?vid=e54f94e2-93db-45a9-b19c-080c7d1aac30","ios":"levelo://app?vid=e54f94e2-93db-45a9-b19c-080c7d1aac30"},"vehicle_type_id":"4","last_reported":1713406619,"current_range_meters":27600,"station_id":"ce4bhqp2rcd13ifvqhng","pricing_plan_id":"cebpf4jnsgd1na2vs0mg"},{"bike_id":"601dddc7-88aa-4f6e-90ee-b56834b033b9","system_id":"levelo_inurba_marseille","lat":43.309589,"lon":5.390258,"is_reserved":false,"is_disabled":false,"rental_uris":{"android":"levelo://app?vid=601dddc7-88aa-4f6e-90ee-b56834b033b9","ios":"levelo://app?vid=601dddc7-88aa-4f6e-90ee-b56834b033b9"},"vehicle_type_id":"4","last_reported":1713406619,"current_range_meters":10800,"station_id":"ce4bgup2rcd13ifvqco0","pricing_plan_id":"cebpf4jnsgd1na2vs0mg"},{"bike_id":"0ad9583c-f24b-4141-b175-4061c995c09c","system_id":"levelo_inurba_marseille","lat":43.317557,"lon":5.390173,"is_reserved":false,"is_disabled":false,"rental_uris":{"android":"levelo://app?vid=0ad9583c-f24b-4141-b175-4061c995c09c","ios":"levelo://app?vid=0ad9583c-f24b-4141-b175-4061c995c09c"},"vehicle_type_id":"4","last_reported":1713406619,"current_range_meters":22400,"station_id":"ce4bhqp2rcd13ifvqhng","pricing_plan_id":"cebpf4jnsgd1na2vs0mg"},{"bike_id":"ede677a0-b099-4607-ac12-f0ca932a1398","system_id":"levelo_inurba_marseille","lat":43.317557,"lon":5.390173,"is_reserved":false,"is_disabled":false,"rental_uris":{"android":"levelo://app?vid=ede677a0-b099-4607-ac12-f0ca932a1398","ios":"levelo://app?vid=ede677a0-b099-4607-ac12-f0ca932a1398"},"vehicle_type_id":"4","last_reported":1713406619,"current_range_meters":30000,"station_id":"ce4bhqp2rcd13ifvqhng","pricing_plan_id":"cebpf4jnsgd1na2vs0mg"},{"bike_id":"e6245ced-6502-4282-bc2f-4c0ec54f7906","system_id":"levelo_inurba_marseille","lat":43.317557,"lon":5.390173,"is_reserved":false,"is_disabled":false,"rental_uris":{"android":"levelo://app?vid=e6245ced-6502-4282-bc2f-4c0ec54f7906","ios":"levelo://app?vid=e6245ced-6502-4282-bc2f-4c0ec54f7906"},"vehicle_type_id":"4","last_reported":1713406619,"current_range_meters":31600,"station_id":"ce4bhqp2rcd13ifvqhng","pricing_plan_id":"cebpf4jnsgd1na2vs0mg"},{"bike_id":"4eb574d4-43ac-46fe-ac30-8c2643c65202","system_id":"levelo_inurba_marseille","lat":43.304369,"lon":5.38885,"is_reserved":false,"is_disabled":false,"rental_uris":{"android":"levelo://app?vid=4eb574d4-43ac-46fe-ac30-8c2643c65202","ios":"levelo://app?vid=4eb574d4-43ac-46fe-ac30-8c2643c65202"},"vehicle_type_id":"4","last_reported":1713406619,"current_range_meters":31200,"station_id":"ce4bgk12rcd13ifvqbi0","pricing_plan_id":"cebpf4jnsgd1na2vs0mg"},{"bike_id":"e77b428b-cf06-4118-b349-8b8c2ae525b7","system_id":"levelo_inurba_marseille","lat":43.3044,"lon":5.388883,"is_reserved":false,"is_disabled":false,"rental_uris":{"android":"levelo://app?vid=e77b428b-cf06-4118-b349-8b8c2ae525b7","ios":"levelo://app?vid=e77b428b-cf06-4118-b349-8b8c2ae525b7"},"vehicle_type_id":"4","last_reported":1713406619,"current_range_meters":25600,"station_id":"ce4bgk12rcd13ifvqbi0","pricing_plan_id":"cebpf4jnsgd1na2vs0mg"},{"bike_id":"6c109972-b4d3-4228-8afb-28f5d051f94a","system_id":"levelo_inurba_marseille","lat":43.304278,"lon":5.388868,"is_reserved":false,"is_disabled":false,"rental_uris":{"android":"levelo://app?vid=6c109972-b4d3-4228-8afb-28f5d051f94a","ios":"levelo://app?vid=6c109972-b4d3-4228-8afb-28f5d051f94a"},"vehicle_type_id":"4","last_reported":1713406619,"current_range_meters":25200,"station_id":"ce4bgk12rcd13ifvqbi0","pricing_plan_id":"cebpf4jnsgd1na2vs0mg"},{"bike_id":"c14fbef5-3575-4829-9d17-0a3d7f85eb41","system_id":"levelo_inurba_marseille","lat":43.30436,"lon":5.38889,"is_reserved":false,"is_disabled":false,"rental_uris":{"android":"levelo://app?vid=c14fbef5-3575-4829-9d17-0a3d7f85eb41","ios":"levelo://app?vid=c14fbef5-3575-4829-9d17-0a3d7f85eb41"},"vehicle_type_id":"4","last_reported":1713406619,"current_range_meters":23200,"station_id":"ce4bgk12rcd13ifvqbi0","pricing_plan_id":"cebpf4jnsgd1na2vs0mg"},{"bike_id":"1609b739-13c5-407d-8c5d-4931ed2016a4","system_id":"levelo_inurba_marseille","lat":43.30425,"lon":5.388843,"is_reserved":false,"is_disabled":false,"rental_uris":{"android":"levelo://app?vid=1609b739-13c5-407d-8c5d-4931ed2016a4","ios":"levelo://app?vid=1609b739-13c5-407d-8c5d-4931ed2016a4"},"vehicle_type_id":"4","last_reported":1713406619,"current_range_meters":22400,"station_id":"ce4bgk12rcd13ifvqbi0","pricing_plan_id":"cebpf4jnsgd1na2vs0mg"},{"bike_id":"b3072c5a-cbe3-4d90-adc4-ce0e997de046","system_id":"levelo_inurba_marseille","lat":43.304278,"lon":5.388868,"is_reserved":false,"is_disabled":false,"rental_uris":{"android":"levelo://app?vid=b3072c5a-cbe3-4d90-adc4-ce0e997de046","ios":"levelo://app?vid=b3072c5a-cbe3-4d90-adc4-ce0e997de046"},"vehicle_type_id":"4","last_reported":1713406619,"current_range_meters":26000,"station_id":"ce4bgk12rcd13ifvqbi0","pricing_plan_id":"cebpf4jnsgd1na2vs0mg"},{"bike_id":"4a1b6299-b899-41e6-8c81-fa154c18c529","system_id":"levelo_inurba_marseille","lat":43.304306,"lon":5.388902,"is_reserved":false,"is_disabled":false,"rental_uris":{"android":"levelo://app?vid=4a1b6299-b899-41e6-8c81-fa154c18c529","ios":"levelo://app?vid=4a1b6299-b899-41e6-8c81-fa154c18c529"},"vehicle_type_id":"4","last_reported":1713406619,"current_range_meters":30800,"station_id":"ce4bgk12rcd13ifvqbi0","pricing_plan_id":"cebpf4jnsgd1na2vs0mg"},{"bike_id":"5a11c1a0-b0a1-4c79-a6be-adec026ea403","system_id":"levelo_inurba_marseille","lat":43.30429,"lon":5.3889,"is_reserved":false,"is_disabled":false,"rental_uris":{"android":"levelo://app?vid=5a11c1a0-b0a1-4c79-a6be-adec026ea403","ios":"levelo://app?vid=5a11c1a0-b0a1-4c79-a6be-adec026ea403"},"vehicle_type_id":"4","last_reported":1713406619,"current_range_meters":30400,"station_id":"ce4bgk12rcd13ifvqbi0","pricing_plan_id":"cebpf4jnsgd1na2vs0mg"},{"bike_id":"a17d38b2-ecf0-471e-b0e2-b9758ff96ef1","system_id":"levelo_inurba_marseille","lat":43.30418,"lon":5.38895,"is_reserved":false,"is_disabled":false,"rental_uris":{"android":"levelo://app?vid=a17d38b2-ecf0-471e-b0e2-b9758ff96ef1","ios":"levelo://app?vid=a17d38b2-ecf0-471e-b0e2-b9758ff96ef1"},"vehicle_type_id":"4","last_reported":1713406619,"current_range_meters":20000,"station_id":"ce4bgk12rcd13ifvqbi0","pricing_plan_id":"cebpf4jnsgd1na2vs0mg"},{"bike_id":"899fb601-44ca-4449-a205-2cfbdf408918","system_id":"levelo_inurba_marseille","lat":43.298768,"lon":5.43643,"is_reserved":false,"is_disabled":false,"rental_uris":{"android":"levelo://app?vid=899fb601-44ca-4449-a205-2cfbdf408918","ios":"levelo://app?vid=899fb601-44ca-4449-a205-2cfbdf408918"},"vehicle_type_id":"4","last_reported":1713406619,"current_range_meters":5200,"station_id":"ce4bhpp2rcd13ifvqhfg","pricing_plan_id":"cebpf4jnsgd1na2vs0mg"},{"bike_id":"dd595330-b0e3-4c5a-8a62-89cbcb63a270","system_id":"levelo_inurba_marseille","lat":43.32367,"lon":5.388836,"is_reserved":false,"is_disabled":false,"rental_uris":{"android":"levelo://app?vid=dd595330-b0e3-4c5a-8a62-89cbcb63a270","ios":"levelo://app?vid=dd595330-b0e3-4c5a-8a62-89cbcb63a270"},"vehicle_type_id":"4","last_reported":1713406619,"current_range_meters":400,"station_id":"ce4bhqp2rcd13ifvqhog","pricing_plan_id":"cebpf4jnsgd1na2vs0mg"},{"bike_id":"ee3f6774-dd2d-4629-83b9-e1175c492c7c","system_id":"levelo_inurba_marseille","lat":43.32367,"lon":5.388836,"is_reserved":false,"is_disabled":false,"rental_uris":{"android":"levelo://app?vid=ee3f6774-dd2d-4629-83b9-e1175c492c7c","ios":"levelo://app?vid=ee3f6774-dd2d-4629-83b9-e1175c492c7c"},"vehicle_type_id":"4","last_reported":1713406619,"current_range_meters":7200,"station_id":"ce4bhqp2rcd13ifvqhog","pricing_plan_id":"cebpf4jnsgd1na2vs0mg"},{"bike_id":"d5e2c2be-0e81-4de5-a72b-de510e6c7980","system_id":"levelo_inurba_marseille","lat":43.32367,"lon":5.388836,"is_reserved":false,"is_disabled":false,"rental_uris":{"android":"levelo://app?vid=d5e2c2be-0e81-4de5-a72b-de510e6c7980","ios":"levelo://app?vid=d5e2c2be-0e81-4de5-a72b-de510e6c7980"},"vehicle_type_id":"4","last_reported":1713406619,"current_range_meters":17600,"station_id":"ce4bhqp2rcd13ifvqhog","pricing_plan_id":"cebpf4jnsgd1na2vs0mg"},{"bike_id":"f7837371-7930-4090-af57-0f8eb7df0223","system_id":"levelo_inurba_marseille","lat":43.32367,"lon":5.388836,"is_reserved":false,"is_disabled":false,"rental_uris":{"android":"levelo://app?vid=f7837371-7930-4090-af57-0f8eb7df0223","ios":"levelo://app?vid=f7837371-7930-4090-af57-0f8eb7df0223"},"vehicle_type_id":"4","last_reported":1713406619,"current_range_meters":27200,"station_id":"ce4bhqp2rcd13ifvqhog","pricing_plan_id":"cebpf4jnsgd1na2vs0mg"},{"bike_id":"2507d039-283c-4515-bced-f26a28c54abf","system_id":"levelo_inurba_marseille","lat":43.32367,"lon":5.388836,"is_reserved":false,"is_disabled":false,"rental_uris":{"android":"levelo://app?vid=2507d039-283c-4515-bced-f26a28c54abf","ios":"levelo://app?vid=2507d039-283c-4515-bced-f26a28c54abf"},"vehicle_type_id":"4","last_reported":1713406619,"current_range_meters":21200,"station_id":"ce4bhqp2rcd13ifvqhog","pricing_plan_id":"cebpf4jnsgd1na2vs0mg"},{"bike_id":"09d08a2f-0282-4533-91b2-c080b4032c15","system_id":"levelo_inurba_marseille","lat":43.32371,"lon":5.3888,"is_reserved":false,"is_disabled":false,"rental_uris":{"android":"levelo://app?vid=09d08a2f-0282-4533-91b2-c080b4032c15","ios":"levelo://app?vid=09d08a2f-0282-4533-91b2-c080b4032c15"},"vehicle_type_id":"4","last_reported":1713406619,"current_range_meters":15200,"station_id":"ce4bhqp2rcd13ifvqhog","pricing_plan_id":"cebpf4jnsgd1na2vs0mg"},{"bike_id":"47cea0d7-d32f-4905-99ee-66d9522440d5","system_id":"levelo_inurba_marseille","lat":43.32367,"lon":5.388836,"is_reserved":false,"is_disabled":false,"rental_uris":{"android":"levelo://app?vid=47cea0d7-d32f-4905-99ee-66d9522440d5","ios":"levelo://app?vid=47cea0d7-d32f-4905-99ee-66d9522440d5"},"vehicle_type_id":"4","last_reported":1713406619,"current_range_meters":14000,"station_id":"ce4bhqp2rcd13ifvqhog","pricing_plan_id":"cebpf4jnsgd1na2vs0mg"},{"bike_id":"5c49d390-3d20-4baf-a763-62af3ad53292","system_id":"levelo_inurba_marseille","lat":43.323675,"lon":5.388858,"is_reserved":false,"is_disabled":false,"rental_uris":{"android":"levelo://app?vid=5c49d390-3d20-4baf-a763-62af3ad53292","ios":"levelo://app?vid=5c49d390-3d20-4baf-a763-62af3ad53292"},"vehicle_type_id":"4","last_reported":1713406619,"current_range_meters":9600,"station_id":"ce4bhqp2rcd13ifvqhog","pricing_plan_id":"cebpf4jnsgd1na2vs0mg"},{"bike_id":"03ace55f-451f-42d7-a4ec-f10c52eee8a2","system_id":"levelo_inurba_marseille","lat":43.293249,"lon":5.371578,"is_reserved":false,"is_disabled":false,"rental_uris":{"android":"levelo://app?vid=03ace55f-451f-42d7-a4ec-f10c52eee8a2","ios":"levelo://app?vid=03ace55f-451f-42d7-a4ec-f10c52eee8a2"},"vehicle_type_id":"4","last_reported":1713406619,"current_range_meters":0,"station_id":"ce4bgh92rcd13ifvqb40","pricing_plan_id":"cebpf4jnsgd1na2vs0mg"},{"bike_id":"6d52a126-ef27-41b1-b33a-2fe54b65ab3b","system_id":"levelo_inurba_marseille","lat":43.292749,"lon":5.368402,"is_reserved":false,"is_disabled":false,"rental_uris":{"android":"levelo://app?vid=6d52a126-ef27-41b1-b33a-2fe54b65ab3b","ios":"levelo://app?vid=6d52a126-ef27-41b1-b33a-2fe54b65ab3b"},"vehicle_type_id":"4","last_reported":1713406619,"current_range_meters":10000,"station_id":"ce4bhbp2rcd13ifvqesg","pricing_plan_id":"cebpf4jnsgd1na2vs0mg"},{"bike_id":"9f974488-e2e1-4a05-87a7-d3fd89efb1a5","system_id":"levelo_inurba_marseille","lat":43.292749,"lon":5.368402,"is_reserved":false,"is_disabled":false,"rental_uris":{"android":"levelo://app?vid=9f974488-e2e1-4a05-87a7-d3fd89efb1a5","ios":"levelo://app?vid=9f974488-e2e1-4a05-87a7-d3fd89efb1a5"},"vehicle_type_id":"4","last_reported":1713406619,"current_range_meters":400,"station_id":"ce4bhbp2rcd13ifvqesg","pricing_plan_id":"cebpf4jnsgd1na2vs0mg"},{"bike_id":"823e639c-4de7-43fc-9ce4-5b651dc02ce5","system_id":"levelo_inurba_marseille","lat":43.326168,"lon":5.387538,"is_reserved":false,"is_disabled":false,"rental_uris":{"android":"levelo://app?vid=823e639c-4de7-43fc-9ce4-5b651dc02ce5","ios":"levelo://app?vid=823e639c-4de7-43fc-9ce4-5b651dc02ce5"},"vehicle_type_id":"4","last_reported":1713406619,"current_range_meters":31200,"station_id":"","pricing_plan_id":"cebpf4jnsgd1na2vs0mg"},{"bike_id":"4c606fe2-1de1-4bf4-bcf4-05a8cb4f0a8f","system_id":"levelo_inurba_marseille","lat":43.300852,"lon":5.390859,"is_reserved":false,"is_disabled":false,"rental_uris":{"android":"levelo://app?vid=4c606fe2-1de1-4bf4-bcf4-05a8cb4f0a8f","ios":"levelo://app?vid=4c606fe2-1de1-4bf4-bcf4-05a8cb4f0a8f"},"vehicle_type_id":"4","last_reported":1713406619,"current_range_meters":31600,"station_id":"ce4bh192rcd13ifvqdb0","pricing_plan_id":"cebpf4jnsgd1na2vs0mg"},{"bike_id":"ae295116-979d-4dc1-9139-85f92973388c","system_id":"levelo_inurba_marseille","lat":43.300852,"lon":5.390859,"is_reserved":false,"is_disabled":false,"rental_uris":{"android":"levelo://app?vid=ae295116-979d-4dc1-9139-85f92973388c","ios":"levelo://app?vid=ae295116-979d-4dc1-9139-85f92973388c"},"vehicle_type_id":"4","last_reported":1713406619,"current_range_meters":30000,"station_id":"ce4bh192rcd13ifvqdb0","pricing_plan_id":"cebpf4jnsgd1na2vs0mg"},{"bike_id":"b6f20881-1e32-40d2-9f28-f52b62242345","system_id":"levelo_inurba_marseille","lat":43.300852,"lon":5.390859,"is_reserved":false,"is_disabled":false,"rental_uris":{"android":"levelo://app?vid=b6f20881-1e32-40d2-9f28-f52b62242345","ios":"levelo://app?vid=b6f20881-1e32-40d2-9f28-f52b62242345"},"vehicle_type_id":"4","last_reported":1713406619,"current_range_meters":10000,"station_id":"ce4bh192rcd13ifvqdb0","pricing_plan_id":"cebpf4jnsgd1na2vs0mg"},{"bike_id":"ed6f1c16-6a48-4ea0-af18-3fe43f518988","system_id":"levelo_inurba_marseille","lat":43.30886,"lon":5.39624,"is_reserved":false,"is_disabled":false,"rental_uris":{"android":"levelo://app?vid=ed6f1c16-6a48-4ea0-af18-3fe43f518988","ios":"levelo://app?vid=ed6f1c16-6a48-4ea0-af18-3fe43f518988"},"vehicle_type_id":"4","last_reported":1713406619,"current_range_meters":21600,"station_id":"ce4bh012rcd13ifvqcv0","pricing_plan_id":"cebpf4jnsgd1na2vs0mg"},{"bike_id":"aa17a180-6f3a-4c78-b0e3-13d68a831381","system_id":"levelo_inurba_marseille","lat":43.308885,"lon":5.396257,"is_reserved":false,"is_disabled":false,"rental_uris":{"android":"levelo://app?vid=aa17a180-6f3a-4c78-b0e3-13d68a831381","ios":"levelo://app?vid=aa17a180-6f3a-4c78-b0e3-13d68a831381"},"vehicle_type_id":"4","last_reported":1713406619,"current_range_meters":30800,"station_id":"ce4bh012rcd13ifvqcv0","pricing_plan_id":"cebpf4jnsgd1na2vs0mg"},{"bike_id":"ccd5edea-581f-4ddf-86be-84d4c168e1be","system_id":"levelo_inurba_marseille","lat":43.309038,"lon":5.396546,"is_reserved":false,"is_disabled":false,"rental_uris":{"android":"levelo://app?vid=ccd5edea-581f-4ddf-86be-84d4c168e1be","ios":"levelo://app?vid=ccd5edea-581f-4ddf-86be-84d4c168e1be"},"vehicle_type_id":"4","last_reported":1713406619,"current_range_meters":16400,"station_id":"ce4bh012rcd13ifvqcv0","pricing_plan_id":"cebpf4jnsgd1na2vs0mg"},{"bike_id":"f0d35847-9d5d-44d1-8728-a7b8550e0eaa","system_id":"levelo_inurba_marseille","lat":43.309047,"lon":5.396551,"is_reserved":false,"is_disabled":false,"rental_uris":{"android":"levelo://app?vid=f0d35847-9d5d-44d1-8728-a7b8550e0eaa","ios":"levelo://app?vid=f0d35847-9d5d-44d1-8728-a7b8550e0eaa"},"vehicle_type_id":"4","last_reported":1713406619,"current_range_meters":26800,"station_id":"ce4bh012rcd13ifvqcv0","pricing_plan_id":"cebpf4jnsgd1na2vs0mg"},{"bike_id":"268a4c5a-7ac6-48b5-8c49-8f3d9014bbb2","system_id":"levelo_inurba_marseille","lat":43.308868,"lon":5.396327,"is_reserved":false,"is_disabled":false,"rental_uris":{"android":"levelo://app?vid=268a4c5a-7ac6-48b5-8c49-8f3d9014bbb2","ios":"levelo://app?vid=268a4c5a-7ac6-48b5-8c49-8f3d9014bbb2"},"vehicle_type_id":"4","last_reported":1713406619,"current_range_meters":31200,"station_id":"ce4bh012rcd13ifvqcv0","pricing_plan_id":"cebpf4jnsgd1na2vs0mg"},{"bike_id":"bc90888b-7181-4876-a18d-4447338ba724","system_id":"levelo_inurba_marseille","lat":43.309038,"lon":5.396546,"is_reserved":false,"is_disabled":false,"rental_uris":{"android":"levelo://app?vid=bc90888b-7181-4876-a18d-4447338ba724","ios":"levelo://app?vid=bc90888b-7181-4876-a18d-4447338ba724"},"vehicle_type_id":"4","last_reported":1713406619,"current_range_meters":7200,"station_id":"ce4bh012rcd13ifvqcv0","pricing_plan_id":"cebpf4jnsgd1na2vs0mg"},{"bike_id":"40d72b7c-d32a-471b-85c5-289dbc70fc4f","system_id":"levelo_inurba_marseille","lat":43.308924,"lon":5.396356,"is_reserved":false,"is_disabled":false,"rental_uris":{"android":"levelo://app?vid=40d72b7c-d32a-471b-85c5-289dbc70fc4f","ios":"levelo://app?vid=40d72b7c-d32a-471b-85c5-289dbc70fc4f"},"vehicle_type_id":"4","last_reported":1713406619,"current_range_meters":20800,"station_id":"ce4bh012rcd13ifvqcv0","pricing_plan_id":"cebpf4jnsgd1na2vs0mg"},{"bike_id":"8fd7b976-5c21-44b7-a776-6533455a81f6","system_id":"levelo_inurba_marseille","lat":43.309038,"lon":5.396546,"is_reserved":false,"is_disabled":false,"rental_uris":{"android":"levelo://app?vid=8fd7b976-5c21-44b7-a776-6533455a81f6","ios":"levelo://app?vid=8fd7b976-5c21-44b7-a776-6533455a81f6"},"vehicle_type_id":"4","last_reported":1713406619,"current_range_meters":31200,"station_id":"ce4bh012rcd13ifvqcv0","pricing_plan_id":"cebpf4jnsgd1na2vs0mg"},{"bike_id":"a1c1a92d-82a8-458a-8b25-f5a502544865","system_id":"levelo_inurba_marseille","lat":43.309038,"lon":5.396546,"is_reserved":false,"is_disabled":false,"rental_uris":{"android":"levelo://app?vid=a1c1a92d-82a8-458a-8b25-f5a502544865","ios":"levelo://app?vid=a1c1a92d-82a8-458a-8b25-f5a502544865"},"vehicle_type_id":"4","last_reported":1713406619,"current_range_meters":6400,"station_id":"ce4bh012rcd13ifvqcv0","pricing_plan_id":"cebpf4jnsgd1na2vs0mg"},{"bike_id":"7a4c1bb2-6820-4aa2-a4c4-49c71281615f","system_id":"levelo_inurba_marseille","lat":43.309038,"lon":5.396546,"is_reserved":false,"is_disabled":false,"rental_uris":{"android":"levelo://app?vid=7a4c1bb2-6820-4aa2-a4c4-49c71281615f","ios":"levelo://app?vid=7a4c1bb2-6820-4aa2-a4c4-49c71281615f"},"vehicle_type_id":"4","last_reported":1713406619,"current_range_meters":30800,"station_id":"ce4bh012rcd13ifvqcv0","pricing_plan_id":"cebpf4jnsgd1na2vs0mg"},{"bike_id":"67dee715-c539-4842-844e-946648ada5ce","system_id":"levelo_inurba_marseille","lat":43.291994,"lon":5.357886,"is_reserved":false,"is_disabled":false,"rental_uris":{"android":"levelo://app?vid=67dee715-c539-4842-844e-946648ada5ce","ios":"levelo://app?vid=67dee715-c539-4842-844e-946648ada5ce"},"vehicle_type_id":"4","last_reported":1713406619,"current_range_meters":20800,"station_id":"ce4bhb12rcd13ifvqel0","pricing_plan_id":"cebpf4jnsgd1na2vs0mg"},{"bike_id":"9fa474a5-81bf-4bb5-803b-50c696430964","system_id":"levelo_inurba_marseille","lat":43.309038,"lon":5.396546,"is_reserved":false,"is_disabled":false,"rental_uris":{"android":"levelo://app?vid=9fa474a5-81bf-4bb5-803b-50c696430964","ios":"levelo://app?vid=9fa474a5-81bf-4bb5-803b-50c696430964"},"vehicle_type_id":"4","last_reported":1713406619,"current_range_meters":11200,"station_id":"ce4bh012rcd13ifvqcv0","pricing_plan_id":"cebpf4jnsgd1na2vs0mg"},{"bike_id":"403c3eb4-f29e-458b-aa8b-0bcd36f03df8","system_id":"levelo_inurba_marseille","lat":43.309038,"lon":5.396546,"is_reserved":false,"is_disabled":false,"rental_uris":{"android":"levelo://app?vid=403c3eb4-f29e-458b-aa8b-0bcd36f03df8","ios":"levelo://app?vid=403c3eb4-f29e-458b-aa8b-0bcd36f03df8"},"vehicle_type_id":"4","last_reported":1713406619,"current_range_meters":14000,"station_id":"ce4bh012rcd13ifvqcv0","pricing_plan_id":"cebpf4jnsgd1na2vs0mg"},{"bike_id":"8fd255d1-80cb-43aa-8b55-dbb14a4de3c7","system_id":"levelo_inurba_marseille","lat":43.309038,"lon":5.396546,"is_reserved":false,"is_disabled":false,"rental_uris":{"android":"levelo://app?vid=8fd255d1-80cb-43aa-8b55-dbb14a4de3c7","ios":"levelo://app?vid=8fd255d1-80cb-43aa-8b55-dbb14a4de3c7"},"vehicle_type_id":"4","last_reported":1713406619,"current_range_meters":14800,"station_id":"ce4bh012rcd13ifvqcv0","pricing_plan_id":"cebpf4jnsgd1na2vs0mg"},{"bike_id":"802b576a-8419-404c-a30c-ac5216bf02fe","system_id":"levelo_inurba_marseille","lat":43.309038,"lon":5.396546,"is_reserved":false,"is_disabled":false,"rental_uris":{"android":"levelo://app?vid=802b576a-8419-404c-a30c-ac5216bf02fe","ios":"levelo://app?vid=802b576a-8419-404c-a30c-ac5216bf02fe"},"vehicle_type_id":"4","last_reported":1713406619,"current_range_meters":31200,"station_id":"ce4bh012rcd13ifvqcv0","pricing_plan_id":"cebpf4jnsgd1na2vs0mg"},{"bike_id":"57e2721c-d1a6-4596-9f5e-aa32afa21f10","system_id":"levelo_inurba_marseille","lat":43.309038,"lon":5.396546,"is_reserved":false,"is_disabled":false,"rental_uris":{"android":"levelo://app?vid=57e2721c-d1a6-4596-9f5e-aa32afa21f10","ios":"levelo://app?vid=57e2721c-d1a6-4596-9f5e-aa32afa21f10"},"vehicle_type_id":"4","last_reported":1713406619,"current_range_meters":12400,"station_id":"ce4bh012rcd13ifvqcv0","pricing_plan_id":"cebpf4jnsgd1na2vs0mg"},{"bike_id":"cd5c3be6-2076-4c0a-8ecb-3e1acd9ea4c6","system_id":"levelo_inurba_marseille","lat":43.291916,"lon":5.358108,"is_reserved":false,"is_disabled":false,"rental_uris":{"android":"levelo://app?vid=cd5c3be6-2076-4c0a-8ecb-3e1acd9ea4c6","ios":"levelo://app?vid=cd5c3be6-2076-4c0a-8ecb-3e1acd9ea4c6"},"vehicle_type_id":"4","last_reported":1713406619,"current_range_meters":18800,"station_id":"ce4bhb12rcd13ifvqel0","pricing_plan_id":"cebpf4jnsgd1na2vs0mg"},{"bike_id":"3964d1cc-c736-40a1-97dd-7344ddf29ac3","system_id":"levelo_inurba_marseille","lat":43.308866,"lon":5.396397,"is_reserved":false,"is_disabled":false,"rental_uris":{"android":"levelo://app?vid=3964d1cc-c736-40a1-97dd-7344ddf29ac3","ios":"levelo://app?vid=3964d1cc-c736-40a1-97dd-7344ddf29ac3"},"vehicle_type_id":"4","last_reported":1713406619,"current_range_meters":16400,"station_id":"ce4bh012rcd13ifvqcv0","pricing_plan_id":"cebpf4jnsgd1na2vs0mg"},{"bike_id":"df264216-8ecc-46d1-b205-2fba065284b5","system_id":"levelo_inurba_marseille","lat":43.313291,"lon":5.396838,"is_reserved":false,"is_disabled":false,"rental_uris":{"android":"levelo://app?vid=df264216-8ecc-46d1-b205-2fba065284b5","ios":"levelo://app?vid=df264216-8ecc-46d1-b205-2fba065284b5"},"vehicle_type_id":"4","last_reported":1713406619,"current_range_meters":8400,"station_id":"ce4bgvp2rcd13ifvqcu0","pricing_plan_id":"cebpf4jnsgd1na2vs0mg"},{"bike_id":"facdf649-88e1-435b-9784-e19130e99b37","system_id":"levelo_inurba_marseille","lat":43.313291,"lon":5.396838,"is_reserved":false,"is_disabled":false,"rental_uris":{"android":"levelo://app?vid=facdf649-88e1-435b-9784-e19130e99b37","ios":"levelo://app?vid=facdf649-88e1-435b-9784-e19130e99b37"},"vehicle_type_id":"4","last_reported":1713406619,"current_range_meters":21200,"station_id":"ce4bgvp2rcd13ifvqcu0","pricing_plan_id":"cebpf4jnsgd1na2vs0mg"},{"bike_id":"7bd5ce11-917a-4ae8-9321-307340f9c864","system_id":"levelo_inurba_marseille","lat":43.313291,"lon":5.396838,"is_reserved":false,"is_disabled":false,"rental_uris":{"android":"levelo://app?vid=7bd5ce11-917a-4ae8-9321-307340f9c864","ios":"levelo://app?vid=7bd5ce11-917a-4ae8-9321-307340f9c864"},"vehicle_type_id":"4","last_reported":1713406619,"current_range_meters":12400,"station_id":"ce4bgvp2rcd13ifvqcu0","pricing_plan_id":"cebpf4jnsgd1na2vs0mg"},{"bike_id":"4b9bf3d7-1ecd-454c-a1b1-0fcbddc5fd8e","system_id":"levelo_inurba_marseille","lat":43.313291,"lon":5.396838,"is_reserved":false,"is_disabled":false,"rental_uris":{"android":"levelo://app?vid=4b9bf3d7-1ecd-454c-a1b1-0fcbddc5fd8e","ios":"levelo://app?vid=4b9bf3d7-1ecd-454c-a1b1-0fcbddc5fd8e"},"vehicle_type_id":"4","last_reported":1713406619,"current_range_meters":4800,"station_id":"ce4bgvp2rcd13ifvqcu0","pricing_plan_id":"cebpf4jnsgd1na2vs0mg"},{"bike_id":"60e64a94-26b1-477b-ac63-c81beb040e12","system_id":"levelo_inurba_marseille","lat":43.313291,"lon":5.396838,"is_reserved":false,"is_disabled":false,"rental_uris":{"android":"levelo://app?vid=60e64a94-26b1-477b-ac63-c81beb040e12","ios":"levelo://app?vid=60e64a94-26b1-477b-ac63-c81beb040e12"},"vehicle_type_id":"4","last_reported":1713406619,"current_range_meters":31200,"station_id":"ce4bgvp2rcd13ifvqcu0","pricing_plan_id":"cebpf4jnsgd1na2vs0mg"},{"bike_id":"f6d135eb-a6f2-4448-92e9-3450ff575fdc","system_id":"levelo_inurba_marseille","lat":43.309038,"lon":5.396546,"is_reserved":false,"is_disabled":false,"rental_uris":{"android":"levelo://app?vid=f6d135eb-a6f2-4448-92e9-3450ff575fdc","ios":"levelo://app?vid=f6d135eb-a6f2-4448-92e9-3450ff575fdc"},"vehicle_type_id":"4","last_reported":1713406619,"current_range_meters":17200,"station_id":"ce4bh012rcd13ifvqcv0","pricing_plan_id":"cebpf4jnsgd1na2vs0mg"},{"bike_id":"8ec13e4a-329b-46bd-bc92-80b1acb220fb","system_id":"levelo_inurba_marseille","lat":43.30892,"lon":5.396482,"is_reserved":false,"is_disabled":false,"rental_uris":{"android":"levelo://app?vid=8ec13e4a-329b-46bd-bc92-80b1acb220fb","ios":"levelo://app?vid=8ec13e4a-329b-46bd-bc92-80b1acb220fb"},"vehicle_type_id":"4","last_reported":1713406619,"current_range_meters":22800,"station_id":"ce4bh012rcd13ifvqcv0","pricing_plan_id":"cebpf4jnsgd1na2vs0mg"},{"bike_id":"f138e66e-b881-45f3-910e-cc9c80501305","system_id":"levelo_inurba_marseille","lat":43.313291,"lon":5.396838,"is_reserved":false,"is_disabled":false,"rental_uris":{"android":"levelo://app?vid=f138e66e-b881-45f3-910e-cc9c80501305","ios":"levelo://app?vid=f138e66e-b881-45f3-910e-cc9c80501305"},"vehicle_type_id":"4","last_reported":1713406619,"current_range_meters":24400,"station_id":"ce4bgvp2rcd13ifvqcu0","pricing_plan_id":"cebpf4jnsgd1na2vs0mg"},{"bike_id":"819d184c-cd29-4b3d-8040-6f6e9f93ab00","system_id":"levelo_inurba_marseille","lat":43.313291,"lon":5.396838,"is_reserved":false,"is_disabled":false,"rental_uris":{"android":"levelo://app?vid=819d184c-cd29-4b3d-8040-6f6e9f93ab00","ios":"levelo://app?vid=819d184c-cd29-4b3d-8040-6f6e9f93ab00"},"vehicle_type_id":"4","last_reported":1713406619,"current_range_meters":3200,"station_id":"ce4bgvp2rcd13ifvqcu0","pricing_plan_id":"cebpf4jnsgd1na2vs0mg"},{"bike_id":"4ba0d20f-de57-4796-a0f3-c16acc72ee2c","system_id":"levelo_inurba_marseille","lat":43.291994,"lon":5.357886,"is_reserved":false,"is_disabled":false,"rental_uris":{"android":"levelo://app?vid=4ba0d20f-de57-4796-a0f3-c16acc72ee2c","ios":"levelo://app?vid=4ba0d20f-de57-4796-a0f3-c16acc72ee2c"},"vehicle_type_id":"4","last_reported":1713406619,"current_range_meters":23600,"station_id":"ce4bhb12rcd13ifvqel0","pricing_plan_id":"cebpf4jnsgd1na2vs0mg"},{"bike_id":"7d97512a-f172-4cda-8999-092e7ac396ac","system_id":"levelo_inurba_marseille","lat":43.309038,"lon":5.396546,"is_reserved":false,"is_disabled":false,"rental_uris":{"android":"levelo://app?vid=7d97512a-f172-4cda-8999-092e7ac396ac","ios":"levelo://app?vid=7d97512a-f172-4cda-8999-092e7ac396ac"},"vehicle_type_id":"4","last_reported":1713406619,"current_range_meters":20800,"station_id":"ce4bh012rcd13ifvqcv0","pricing_plan_id":"cebpf4jnsgd1na2vs0mg"},{"bike_id":"5506b65e-5b2e-40af-b561-60d4037e9def","system_id":"levelo_inurba_marseille","lat":43.29529,"lon":5.385581,"is_reserved":false,"is_disabled":false,"rental_uris":{"android":"levelo://app?vid=5506b65e-5b2e-40af-b561-60d4037e9def","ios":"levelo://app?vid=5506b65e-5b2e-40af-b561-60d4037e9def"},"vehicle_type_id":"4","last_reported":1713406619,"current_range_meters":27200,"station_id":"ce4bgih2rcd13ifvqba0","pricing_plan_id":"cebpf4jnsgd1na2vs0mg"},{"bike_id":"5172d7c6-ec89-483d-bc6a-53794c661b3f","system_id":"levelo_inurba_marseille","lat":43.29529,"lon":5.385581,"is_reserved":false,"is_disabled":false,"rental_uris":{"android":"levelo://app?vid=5172d7c6-ec89-483d-bc6a-53794c661b3f","ios":"levelo://app?vid=5172d7c6-ec89-483d-bc6a-53794c661b3f"},"vehicle_type_id":"4","last_reported":1713406619,"current_range_meters":25200,"station_id":"ce4bgih2rcd13ifvqba0","pricing_plan_id":"cebpf4jnsgd1na2vs0mg"},{"bike_id":"a116ed84-a377-4c96-a8f4-cf9e11c32458","system_id":"levelo_inurba_marseille","lat":43.2899,"lon":5.36628,"is_reserved":false,"is_disabled":false,"rental_uris":{"android":"levelo://app?vid=a116ed84-a377-4c96-a8f4-cf9e11c32458","ios":"levelo://app?vid=a116ed84-a377-4c96-a8f4-cf9e11c32458"},"vehicle_type_id":"4","last_reported":1713406619,"current_range_meters":2000,"station_id":"","pricing_plan_id":"cebpf4jnsgd1na2vs0mg"},{"bike_id":"38613420-b56d-4afd-b2ab-4235cc940500","system_id":"levelo_inurba_marseille","lat":43.290624,"lon":5.359245,"is_reserved":false,"is_disabled":false,"rental_uris":{"android":"levelo://app?vid=38613420-b56d-4afd-b2ab-4235cc940500","ios":"levelo://app?vid=38613420-b56d-4afd-b2ab-4235cc940500"},"vehicle_type_id":"4","last_reported":1713406619,"current_range_meters":31200,"station_id":"ce4bha92rcd13ifvqeg0","pricing_plan_id":"cebpf4jnsgd1na2vs0mg"},{"bike_id":"6ca7db07-1ae7-412f-8e75-03b007e5a53b","system_id":"levelo_inurba_marseille","lat":43.290624,"lon":5.359245,"is_reserved":false,"is_disabled":false,"rental_uris":{"android":"levelo://app?vid=6ca7db07-1ae7-412f-8e75-03b007e5a53b","ios":"levelo://app?vid=6ca7db07-1ae7-412f-8e75-03b007e5a53b"},"vehicle_type_id":"4","last_reported":1713406619,"current_range_meters":29200,"station_id":"ce4bha92rcd13ifvqeg0","pricing_plan_id":"cebpf4jnsgd1na2vs0mg"},{"bike_id":"bda6e2cb-ec80-4472-b5b7-c5a14e54fcac","system_id":"levelo_inurba_marseille","lat":43.290624,"lon":5.359245,"is_reserved":false,"is_disabled":false,"rental_uris":{"android":"levelo://app?vid=bda6e2cb-ec80-4472-b5b7-c5a14e54fcac","ios":"levelo://app?vid=bda6e2cb-ec80-4472-b5b7-c5a14e54fcac"},"vehicle_type_id":"4","last_reported":1713406619,"current_range_meters":23200,"station_id":"ce4bha92rcd13ifvqeg0","pricing_plan_id":"cebpf4jnsgd1na2vs0mg"},{"bike_id":"53d54651-b68b-4c7a-9bc3-28c5a4f98f7a","system_id":"levelo_inurba_marseille","lat":43.290624,"lon":5.359245,"is_reserved":false,"is_disabled":false,"rental_uris":{"android":"levelo://app?vid=53d54651-b68b-4c7a-9bc3-28c5a4f98f7a","ios":"levelo://app?vid=53d54651-b68b-4c7a-9bc3-28c5a4f98f7a"},"vehicle_type_id":"4","last_reported":1713406619,"current_range_meters":24000,"station_id":"ce4bha92rcd13ifvqeg0","pricing_plan_id":"cebpf4jnsgd1na2vs0mg"},{"bike_id":"2afcf7bf-a146-4549-aceb-716998525c6f","system_id":"levelo_inurba_marseille","lat":43.290631,"lon":5.359244,"is_reserved":false,"is_disabled":false,"rental_uris":{"android":"levelo://app?vid=2afcf7bf-a146-4549-aceb-716998525c6f","ios":"levelo://app?vid=2afcf7bf-a146-4549-aceb-716998525c6f"},"vehicle_type_id":"4","last_reported":1713406619,"current_range_meters":31600,"station_id":"ce4bha92rcd13ifvqeg0","pricing_plan_id":"cebpf4jnsgd1na2vs0mg"},{"bike_id":"5d947340-f5c3-491e-bc79-816e0f44653e","system_id":"levelo_inurba_marseille","lat":43.290631,"lon":5.359244,"is_reserved":false,"is_disabled":false,"rental_uris":{"android":"levelo://app?vid=5d947340-f5c3-491e-bc79-816e0f44653e","ios":"levelo://app?vid=5d947340-f5c3-491e-bc79-816e0f44653e"},"vehicle_type_id":"4","last_reported":1713406619,"current_range_meters":29200,"station_id":"ce4bha92rcd13ifvqeg0","pricing_plan_id":"cebpf4jnsgd1na2vs0mg"},{"bike_id":"a3b10eef-12b7-4602-8204-4eb9b7d86663","system_id":"levelo_inurba_marseille","lat":43.290624,"lon":5.359245,"is_reserved":false,"is_disabled":false,"rental_uris":{"android":"levelo://app?vid=a3b10eef-12b7-4602-8204-4eb9b7d86663","ios":"levelo://app?vid=a3b10eef-12b7-4602-8204-4eb9b7d86663"},"vehicle_type_id":"4","last_reported":1713406619,"current_range_meters":18800,"station_id":"ce4bha92rcd13ifvqeg0","pricing_plan_id":"cebpf4jnsgd1na2vs0mg"},{"bike_id":"927521d3-ecb2-4cb8-a425-654f7a8930be","system_id":"levelo_inurba_marseille","lat":43.290624,"lon":5.359245,"is_reserved":false,"is_disabled":false,"rental_uris":{"android":"levelo://app?vid=927521d3-ecb2-4cb8-a425-654f7a8930be","ios":"levelo://app?vid=927521d3-ecb2-4cb8-a425-654f7a8930be"},"vehicle_type_id":"4","last_reported":1713406619,"current_range_meters":22000,"station_id":"ce4bha92rcd13ifvqeg0","pricing_plan_id":"cebpf4jnsgd1na2vs0mg"},{"bike_id":"edc29c41-3ad6-4bcf-9214-28692b56db77","system_id":"levelo_inurba_marseille","lat":43.290624,"lon":5.359245,"is_reserved":false,"is_disabled":false,"rental_uris":{"android":"levelo://app?vid=edc29c41-3ad6-4bcf-9214-28692b56db77","ios":"levelo://app?vid=edc29c41-3ad6-4bcf-9214-28692b56db77"},"vehicle_type_id":"4","last_reported":1713406619,"current_range_meters":31600,"station_id":"ce4bha92rcd13ifvqeg0","pricing_plan_id":"cebpf4jnsgd1na2vs0mg"},{"bike_id":"1233a182-f6d1-46b2-8f49-e4dd613afbcf","system_id":"levelo_inurba_marseille","lat":43.290631,"lon":5.359244,"is_reserved":false,"is_disabled":false,"rental_uris":{"android":"levelo://app?vid=1233a182-f6d1-46b2-8f49-e4dd613afbcf","ios":"levelo://app?vid=1233a182-f6d1-46b2-8f49-e4dd613afbcf"},"vehicle_type_id":"4","last_reported":1713406619,"current_range_meters":19600,"station_id":"ce4bha92rcd13ifvqeg0","pricing_plan_id":"cebpf4jnsgd1na2vs0mg"},{"bike_id":"651ac3cd-5772-4db6-82e4-efada5176bab","system_id":"levelo_inurba_marseille","lat":43.290624,"lon":5.359245,"is_reserved":false,"is_disabled":false,"rental_uris":{"android":"levelo://app?vid=651ac3cd-5772-4db6-82e4-efada5176bab","ios":"levelo://app?vid=651ac3cd-5772-4db6-82e4-efada5176bab"},"vehicle_type_id":"4","last_reported":1713406619,"current_range_meters":23600,"station_id":"ce4bha92rcd13ifvqeg0","pricing_plan_id":"cebpf4jnsgd1na2vs0mg"},{"bike_id":"1fd2eadb-dc4c-4c30-ae8d-8eb5ba9ed886","system_id":"levelo_inurba_marseille","lat":43.290631,"lon":5.359244,"is_reserved":false,"is_disabled":false,"rental_uris":{"android":"levelo://app?vid=1fd2eadb-dc4c-4c30-ae8d-8eb5ba9ed886","ios":"levelo://app?vid=1fd2eadb-dc4c-4c30-ae8d-8eb5ba9ed886"},"vehicle_type_id":"4","last_reported":1713406619,"current_range_meters":12800,"station_id":"ce4bha92rcd13ifvqeg0","pricing_plan_id":"cebpf4jnsgd1na2vs0mg"},{"bike_id":"d4c31041-a05a-4f6b-ad35-7a1b4ff0ffb6","system_id":"levelo_inurba_marseille","lat":43.290631,"lon":5.359244,"is_reserved":false,"is_disabled":false,"rental_uris":{"android":"levelo://app?vid=d4c31041-a05a-4f6b-ad35-7a1b4ff0ffb6","ios":"levelo://app?vid=d4c31041-a05a-4f6b-ad35-7a1b4ff0ffb6"},"vehicle_type_id":"4","last_reported":1713406619,"current_range_meters":25600,"station_id":"ce4bha92rcd13ifvqeg0","pricing_plan_id":"cebpf4jnsgd1na2vs0mg"},{"bike_id":"6b684bc4-3aa0-485c-8a8c-1d05c852aae2","system_id":"levelo_inurba_marseille","lat":43.290624,"lon":5.359245,"is_reserved":false,"is_disabled":false,"rental_uris":{"android":"levelo://app?vid=6b684bc4-3aa0-485c-8a8c-1d05c852aae2","ios":"levelo://app?vid=6b684bc4-3aa0-485c-8a8c-1d05c852aae2"},"vehicle_type_id":"4","last_reported":1713406619,"current_range_meters":4400,"station_id":"ce4bha92rcd13ifvqeg0","pricing_plan_id":"cebpf4jnsgd1na2vs0mg"},{"bike_id":"538246eb-1c4f-4146-bfde-8d55858cac2e","system_id":"levelo_inurba_marseille","lat":43.290631,"lon":5.359244,"is_reserved":false,"is_disabled":false,"rental_uris":{"android":"levelo://app?vid=538246eb-1c4f-4146-bfde-8d55858cac2e","ios":"levelo://app?vid=538246eb-1c4f-4146-bfde-8d55858cac2e"},"vehicle_type_id":"4","last_reported":1713406619,"current_range_meters":15200,"station_id":"ce4bha92rcd13ifvqeg0","pricing_plan_id":"cebpf4jnsgd1na2vs0mg"},{"bike_id":"a50f04ea-88a2-449d-941d-5d7f5bcbba37","system_id":"levelo_inurba_marseille","lat":43.290319,"lon":5.375732,"is_reserved":false,"is_disabled":false,"rental_uris":{"android":"levelo://app?vid=a50f04ea-88a2-449d-941d-5d7f5bcbba37","ios":"levelo://app?vid=a50f04ea-88a2-449d-941d-5d7f5bcbba37"},"vehicle_type_id":"4","last_reported":1713406619,"current_range_meters":26400,"station_id":"ce4bh692rcd13ifvqe90","pricing_plan_id":"cebpf4jnsgd1na2vs0mg"},{"bike_id":"c8df44fc-21c1-4f4a-8a58-c043abb5baed","system_id":"levelo_inurba_marseille","lat":43.294154,"lon":5.386299,"is_reserved":false,"is_disabled":false,"rental_uris":{"android":"levelo://app?vid=c8df44fc-21c1-4f4a-8a58-c043abb5baed","ios":"levelo://app?vid=c8df44fc-21c1-4f4a-8a58-c043abb5baed"},"vehicle_type_id":"4","last_reported":1713406619,"current_range_meters":22800,"station_id":"","pricing_plan_id":"cebpf4jnsgd1na2vs0mg"},{"bike_id":"23ff9eb8-15c8-443b-b74d-247a9d383ea5","system_id":"levelo_inurba_marseille","lat":43.289468,"lon":5.363719,"is_reserved":false,"is_disabled":false,"rental_uris":{"android":"levelo://app?vid=23ff9eb8-15c8-443b-b74d-247a9d383ea5","ios":"levelo://app?vid=23ff9eb8-15c8-443b-b74d-247a9d383ea5"},"vehicle_type_id":"4","last_reported":1713406619,"current_range_meters":31600,"station_id":"ce4bhc92rcd13ifvqetg","pricing_plan_id":"cebpf4jnsgd1na2vs0mg"},{"bike_id":"81a2b8de-b334-4545-ac04-924c49f718fb","system_id":"levelo_inurba_marseille","lat":43.289184,"lon":5.366408,"is_reserved":false,"is_disabled":false,"rental_uris":{"android":"levelo://app?vid=81a2b8de-b334-4545-ac04-924c49f718fb","ios":"levelo://app?vid=81a2b8de-b334-4545-ac04-924c49f718fb"},"vehicle_type_id":"4","last_reported":1713406619,"current_range_meters":13600,"station_id":"ce4bhap2rcd13ifvqek0","pricing_plan_id":"cebpf4jnsgd1na2vs0mg"},{"bike_id":"559b6df3-4100-4c86-b9be-bd15ddd08c5e","system_id":"levelo_inurba_marseille","lat":43.289468,"lon":5.363719,"is_reserved":false,"is_disabled":false,"rental_uris":{"android":"levelo://app?vid=559b6df3-4100-4c86-b9be-bd15ddd08c5e","ios":"levelo://app?vid=559b6df3-4100-4c86-b9be-bd15ddd08c5e"},"vehicle_type_id":"4","last_reported":1713406619,"current_range_meters":13200,"station_id":"ce4bhc92rcd13ifvqetg","pricing_plan_id":"cebpf4jnsgd1na2vs0mg"},{"bike_id":"f39b2ad2-d6b0-4b30-bc0a-48adf9e7565d","system_id":"levelo_inurba_marseille","lat":43.289468,"lon":5.363719,"is_reserved":false,"is_disabled":false,"rental_uris":{"android":"levelo://app?vid=f39b2ad2-d6b0-4b30-bc0a-48adf9e7565d","ios":"levelo://app?vid=f39b2ad2-d6b0-4b30-bc0a-48adf9e7565d"},"vehicle_type_id":"4","last_reported":1713406619,"current_range_meters":18400,"station_id":"ce4bhc92rcd13ifvqetg","pricing_plan_id":"cebpf4jnsgd1na2vs0mg"},