{"last_updated":1740855994,"ttl":60,"version":"2.2","data":{"bikes":[{"bike_id":"38f26121-4acd-4351-b3d6-a82d4e21fdd3","system_id":"levelo_inurba_marseille","lat":43.28935,"lon":5.36639,"is_reserved":false,"is_disabled":false,"rental_uris":{"android":"levelo://app?vid=38f26121-4acd-4351-b3d6-a82d4e21fdd3","ios":"levelo://app?vid=38f26121-4acd-4351-b3d6-a82d4e21fdd3"},"vehicle_type_id":"4","last_reported":1740855995,"current_range_meters":2800,"station_id":"ce4bhap2rcd13ifvqek0","pricing_plan_id":"cebpf4jnsgd1na2vs0mg"},{"bike_id":"4e814bd0-5fb4-45fe-ad56-df460f3eed3e","system_id":"levelo_inurba_marseille","lat":43.28619,"lon":5.35104,"is_reserved":false,"is_disabled":false,"rental_uris":{"android":"levelo://app?vid=4e814bd0-5fb4-45fe-ad56-df460f3eed3e","ios":"levelo://app?vid=4e814bd0-5fb4-45fe-ad56-df460f3eed3e"},"vehicle_type_id":"4","last_reported":1740855995,"current_range_meters":3600,"station_id":"ce4bhch2rcd13ifvqeug","pricing_plan_id":"cebpf4jnsgd1na2vs0mg"},{"bike_id":"87b985b0-b21a-457b-876e-995bf2ff8f5e","system_id":"levelo_inurba_marseille","lat":43.32107,"lon":5.368,"is_reserved":false,"is_disabled":false,"rental_uris":{"android":"levelo://app?vid=87b985b0-b21a-457b-876e-995bf2ff8f5e","ios":"levelo://app?vid=87b985b0-b21a-457b-876e-995bf2ff8f5e"},"vehicle_type_id":"4","last_reported":1740855995,"current_range_meters":3600,"station_id":"ce4bhrh2rcd13ifvqhug","pricing_plan_id":"cebpf4jnsgd1na2vs0mg"},{"bike_id":"b04c65e5-66d7-4157-8f06-49b7a58abf34","system_id":"levelo_inurba_marseille","lat":43.25013,"lon":5.38937,"is_reserved":false,"is_disabled":false,"rental_uris":{"android":"levelo://app?vid=b04c65e5-66d7-4157-8f06-49b7a58abf34","ios":"levelo://app?vid=b04c65e5-66d7-4157-8f06-49b7a58abf34"},"vehicle_type_id":"4","last_reported":1740855995,"current_range_meters":3600,"station_id":"ce4bhgp2rcd13ifvqfd0","pricing_plan_id":"cebpf4jnsgd1na2vs0mg"},{"bike_id":"6b56bba2-ec40-4381-9c2b-d70858695d62","system_id":"levelo_inurba_marseille","lat":43.286072,"lon":5.370633,"is_reserved":false,"is_disabled":false,"rental_uris":{"android":"levelo://app?vid=6b56bba2-ec40-4381-9c2b-d70858695d62","ios":"levelo://app?vid=6b56bba2-ec40-4381-9c2b-d70858695d62"},"vehicle_type_id":"4","last_reported":1740855995,"current_range_meters":4000,"station_id":"ce4bh0p2rcd13ifvqd80","pricing_plan_id":"cebpf4jnsgd1na2vs0mg"},{"bike_id":"e29ec3ad-0568-49ab-8b14-3ee4a0985259","system_id":"levelo_inurba_marseille","lat":43.29171,"lon":5.37159,"is_reserved":false,"is_disabled":false,"rental_uris":{"android":"levelo://app?vid=e29ec3ad-0568-49ab-8b14-3ee4a0985259","ios":"levelo://app?vid=e29ec3ad-0568-49ab-8b14-3ee4a0985259"},"vehicle_type_id":"4","last_reported":1740855995,"current_range_meters":4000,"station_id":"ce4bha92rcd13ifvqeh0","pricing_plan_id":"cebpf4jnsgd1na2vs0mg"},{"bike_id":"2c3e8cc9-ba56-4d6b-a80a-44a9f8233e23","system_id":"levelo_inurba_marseille","lat":43.27565,"lon":5.38411,"is_reserved":false,"is_disabled":false,"rental_uris":{"android":"levelo://app?vid=2c3e8cc9-ba56-4d6b-a80a-44a9f8233e23","ios":"levelo://app?vid=2c3e8cc9-ba56-4d6b-a80a-44a9f8233e23"},"vehicle_type_id":"4","last_reported":1740855995,"current_range_meters":4400,"station_id":"ce4bhh92rcd13ifvqfi0","pricing_plan_id":"cebpf4jnsgd1na2vs0mg"},{"bike_id":"49e0a034-277f-4658-83cf-83e39377ef50","system_id":"levelo_inurba_marseille","lat":43.2949,"lon":5.37941,"is_reserved":false,"is_disabled":false,"rental_uris":{"android":"levelo://app?vid=49e0a034-277f-4658-83cf-83e39377ef50","ios":"levelo://app?vid=49e0a034-277f-4658-83cf-83e39377ef50"},"vehicle_type_id":"4","last_reported":1740855995,"current_range_meters":4400,"station_id":"","pricing_plan_id":"cebpf4jnsgd1na2vs0mg"},{"bike_id":"6692bac1-0462-42fc-b0b1-f08a529b21dd","system_id":"levelo_inurba_marseille","lat":43.28408,"lon":5.37517,"is_reserved":false,"is_disabled":false,"rental_uris":{"android":"levelo://app?vid=6692bac1-0462-42fc-b0b1-f08a529b21dd","ios":"levelo://app?vid=6692bac1-0462-42fc-b0b1-f08a529b21dd"},"vehicle_type_id":"4","last_reported":1740855995,"current_range_meters":4800,"station_id":"ce4bh412rcd13ifvqds0","pricing_plan_id":"cebpf4jnsgd1na2vs0mg"},{"bike_id":"4bdf5053-9822-4d6b-af08-02a286bbd0e9","system_id":"levelo_inurba_marseille","lat":43.28403,"lon":5.37506,"is_reserved":false,"is_disabled":false,"rental_uris":{"android":"levelo://app?vid=4bdf5053-9822-4d6b-af08-02a286bbd0e9","ios":"levelo://app?vid=4bdf5053-9822-4d6b-af08-02a286bbd0e9"},"vehicle_type_id":"4","last_reported":1740855995,"current_range_meters":4800,"station_id":"ce4bh412rcd13ifvqds0","pricing_plan_id":"cebpf4jnsgd1na2vs0mg"},{"bike_id":"bed4b083-1606-44bf-9af2-257efa1b1d7c","system_id":"levelo_inurba_marseille","lat":43.24158,"lon":5.36407,"is_reserved":false,"is_disabled":false,"rental_uris":{"android":"levelo://app?vid=bed4b083-1606-44bf-9af2-257efa1b1d7c","ios":"levelo://app?vid=bed4b083-1606-44bf-9af2-257efa1b1d7c"},"vehicle_type_id":"4","last_reported":1740855995,"current_range_meters":5600,"station_id":"cpo36qri1sfpv3e86is0","pricing_plan_id":"cebpf4jnsgd1na2vs0mg"},{"bike_id":"557a341a-423f-4e31-8cda-08384ee7580d","system_id":"levelo_inurba_marseille","lat":43.27076,"lon":5.42278,"is_reserved":false,"is_disabled":false,"rental_uris":{"android":"levelo://app?vid=557a341a-423f-4e31-8cda-08384ee7580d","ios":"levelo://app?vid=557a341a-423f-4e31-8cda-08384ee7580d"},"vehicle_type_id":"4","last_reported":1740855995,"current_range_meters":5600,"station_id":"ce4bhk92rcd13ifvqgb0","pricing_plan_id":"cebpf4jnsgd1na2vs0mg"},{"bike_id":"83162bd3-1be2-447d-9fcb-1f3a629909e7","system_id":"levelo_inurba_marseille","lat":43.293,"lon":5.37463,"is_reserved":false,"is_disabled":false,"rental_uris":{"android":"levelo://app?vid=83162bd3-1be2-447d-9fcb-1f3a629909e7","ios":"levelo://app?vid=83162bd3-1be2-447d-9fcb-1f3a629909e7"},"vehicle_type_id":"4","last_reported":1740855995,"current_range_meters":5600,"station_id":"ce4bgi12rcd13ifvqb70","pricing_plan_id":"cebpf4jnsgd1na2vs0mg"},{"bike_id":"20f8f531-6cd6-43cc-861d-35ddb4570b7d","system_id":"levelo_inurba_marseille","lat":43.2929,"lon":5.37448,"is_reserved":false,"is_disabled":false,"rental_uris":{"android":"levelo://app?vid=20f8f531-6cd6-43cc-861d-35ddb4570b7d","ios":"levelo://app?vid=20f8f531-6cd6-43cc-861d-35ddb4570b7d"},"vehicle_type_id":"4","last_reported":1740855995,"current_range_meters":6000,"station_id":"ce4bgi12rcd13ifvqb70","pricing_plan_id":"cebpf4jnsgd1na2vs0mg"},{"bike_id":"fdc16b4b-576e-4621-99df-2d2d12f43605","system_id":"levelo_inurba_marseille","lat":43.30555,"lon":5.3656,"is_reserved":false,"is_disabled":false,"rental_uris":{"android":"levelo://app?vid=fdc16b4b-576e-4621-99df-2d2d12f43605","ios":"levelo://app?vid=fdc16b4b-576e-4621-99df-2d2d12f43605"},"vehicle_type_id":"4","last_reported":1740855995,"current_range_meters":6000,"station_id":"ce4bgs12rcd13ifvqcag","pricing_plan_id":"cebpf4jnsgd1na2vs0mg"},{"bike_id":"838eaa3f-19eb-4d92-b608-8b375bcab5b0","system_id":"levelo_inurba_marseille","lat":43.30144,"lon":5.37414,"is_reserved":false,"is_disabled":false,"rental_uris":{"android":"levelo://app?vid=838eaa3f-19eb-4d92-b608-8b375bcab5b0","ios":"levelo://app?vid=838eaa3f-19eb-4d92-b608-8b375bcab5b0"},"vehicle_type_id":"4","last_reported":1740855995,"current_range_meters":6000,"station_id":"ce4bgs92rcd13ifvqcc0","pricing_plan_id":"cebpf4jnsgd1na2vs0mg"},{"bike_id":"09fc9958-419a-4dcd-99aa-c4ba66e62ab9","system_id":"levelo_inurba_marseille","lat":43.2849,"lon":5.38563,"is_reserved":false,"is_disabled":false,"rental_uris":{"android":"levelo://app?vid=09fc9958-419a-4dcd-99aa-c4ba66e62ab9","ios":"levelo://app?vid=09fc9958-419a-4dcd-99aa-c4ba66e62ab9"},"vehicle_type_id":"4","last_reported":1740855995,"current_range_meters":6000,"station_id":"ce4bh8p2rcd13ifvqeb0","pricing_plan_id":"cebpf4jnsgd1na2vs0mg"},{"bike_id":"60d93683-8b60-4b78-a2d2-4b09c58ff8d7","system_id":"levelo_inurba_marseille","lat":43.25868,"lon":5.39894,"is_reserved":false,"is_disabled":false,"rental_uris":{"android":"levelo://app?vid=60d93683-8b60-4b78-a2d2-4b09c58ff8d7","ios":"levelo://app?vid=60d93683-8b60-4b78-a2d2-4b09c58ff8d7"},"vehicle_type_id":"4","last_reported":1740855995,"current_range_meters":6400,"station_id":"","pricing_plan_id":"cebpf4jnsgd1na2vs0mg"},{"bike_id":"d36301ff-065c-4644-9520-d9e8e53fafb9","system_id":"levelo_inurba_marseille","lat":43.27231,"lon":5.39169,"is_reserved":false,"is_disabled":false,"rental_uris":{"android":"levelo://app?vid=d36301ff-065c-4644-9520-d9e8e53fafb9","ios":"levelo://app?vid=d36301ff-065c-4644-9520-d9e8e53fafb9"},"vehicle_type_id":"4","last_reported":1740855995,"current_range_meters":6400,"station_id":"ce4bhhp2rcd13ifvqfm0","pricing_plan_id":"cebpf4jnsgd1na2vs0mg"},{"bike_id":"8dbd79ab-8d7e-44ba-9f11-4afd7e562df1","system_id":"levelo_inurba_marseille","lat":43.250247,"lon":5.38916,"is_reserved":false,"is_disabled":false,"rental_uris":{"android":"levelo://app?vid=8dbd79ab-8d7e-44ba-9f11-4afd7e562df1","ios":"levelo://app?vid=8dbd79ab-8d7e-44ba-9f11-4afd7e562df1"},"vehicle_type_id":"4","last_reported":1740855995,"current_range_meters":6400,"station_id":"ce4bhgp2rcd13ifvqfd0","pricing_plan_id":"cebpf4jnsgd1na2vs0mg"},{"bike_id":"d685bb6f-ce3e-46c1-b2b1-c3c459bcbc48","system_id":"levelo_inurba_marseille","lat":43.28404,"lon":5.37517,"is_reserved":false,"is_disabled":false,"rental_uris":{"android":"levelo://app?vid=d685bb6f-ce3e-46c1-b2b1-c3c459bcbc48","ios":"levelo://app?vid=d685bb6f-ce3e-46c1-b2b1-c3c459bcbc48"},"vehicle_type_id":"4","last_reported":1740855995,"current_range_meters":6800,"station_id":"ce4bh412rcd13ifvqds0","pricing_plan_id":"cebpf4jnsgd1na2vs0mg"},{"bike_id":"576bf4de-0033-46bf-9e74-74d91d945d5e","system_id":"levelo_inurba_marseille","lat":43.31205,"lon":5.36831,"is_reserved":false,"is_disabled":false,"rental_uris":{"android":"levelo://app?vid=576bf4de-0033-46bf-9e74-74d91d945d5e","ios":"levelo://app?vid=576bf4de-0033-46bf-9e74-74d91d945d5e"},"vehicle_type_id":"4","last_reported":1740855995,"current_range_meters":6800,"station_id":"ce4bgl92rcd13ifvqbq0","pricing_plan_id":"cebpf4jnsgd1na2vs0mg"},{"bike_id":"0af39bb8-919f-49f8-b283-18091d5ae3d2","system_id":"levelo_inurba_marseille","lat":43.28157,"lon":5.42651,"is_reserved":false,"is_disabled":false,"rental_uris":{"android":"levelo://app?vid=0af39bb8-919f-49f8-b283-18091d5ae3d2","ios":"levelo://app?vid=0af39bb8-919f-49f8-b283-18091d5ae3d2"},"vehicle_type_id":"4","last_reported":1740855995,"current_range_meters":6800,"station_id":"ce4bhnh2rcd13ifvqgug","pricing_plan_id":"cebpf4jnsgd1na2vs0mg"},{"bike_id":"063d67b9-bb0a-4d19-af6c-865388a43621","system_id":"levelo_inurba_marseille","lat":43.30602,"lon":5.37225,"is_reserved":false,"is_disabled":false,"rental_uris":{"android":"levelo://app?vid=063d67b9-bb0a-4d19-af6c-865388a43621","ios":"levelo://app?vid=063d67b9-bb0a-4d19-af6c-865388a43621"},"vehicle_type_id":"4","last_reported":1740855995,"current_range_meters":6800,"station_id":"ce4bgqh2rcd13ifvqc4g","pricing_plan_id":"cebpf4jnsgd1na2vs0mg"},{"bike_id":"be047da3-12fb-470e-9d78-68641c40dc2c","system_id":"levelo_inurba_marseille","lat":43.28661,"lon":5.40966,"is_reserved":false,"is_disabled":false,"rental_uris":{"android":"levelo://app?vid=be047da3-12fb-470e-9d78-68641c40dc2c","ios":"levelo://app?vid=be047da3-12fb-470e-9d78-68641c40dc2c"},"vehicle_type_id":"4","last_reported":1740855995,"current_range_meters":6800,"station_id":"","pricing_plan_id":"cebpf4jnsgd1na2vs0mg"},{"bike_id":"6931600f-efee-49ad-84d8-de84b431cbdc","system_id":"levelo_inurba_marseille","lat":43.30261,"lon":5.40085,"is_reserved":false,"is_disabled":false,"rental_uris":{"android":"levelo://app?vid=6931600f-efee-49ad-84d8-de84b431cbdc","ios":"levelo://app?vid=6931600f-efee-49ad-84d8-de84b431cbdc"},"vehicle_type_id":"4","last_reported":1740855995,"current_range_meters":7200,"station_id":"ce4bgvh2rcd13ifvqcs0","pricing_plan_id":"cebpf4jnsgd1na2vs0mg"},{"bike_id":"cf60237b-18d5-4849-8d5b-702fc0ffcafc","system_id":"levelo_inurba_marseille","lat":43.2781,"lon":5.4071,"is_reserved":false,"is_disabled":false,"rental_uris":{"android":"levelo://app?vid=cf60237b-18d5-4849-8d5b-702fc0ffcafc","ios":"levelo://app?vid=cf60237b-18d5-4849-8d5b-702fc0ffcafc"},"vehicle_type_id":"4","last_reported":1740855995,"current_range_meters":7200,"station_id":"ce4bhnh2rcd13ifvqgtg","pricing_plan_id":"cebpf4jnsgd1na2vs0mg"},{"bike_id":"5f8dff2b-dc32-4614-a8aa-6e7bbb078d3f","system_id":"levelo_inurba_marseille","lat":43.28411,"lon":5.37506,"is_reserved":false,"is_disabled":false,"rental_uris":{"android":"levelo://app?vid=5f8dff2b-dc32-4614-a8aa-6e7bbb078d3f","ios":"levelo://app?vid=5f8dff2b-dc32-4614-a8aa-6e7bbb078d3f"},"vehicle_type_id":"4","last_reported":1740855995,"current_range_meters":7200,"station_id":"ce4bh412rcd13ifvqds0","pricing_plan_id":"cebpf4jnsgd1na2vs0mg"},{"bike_id":"a5fd71ea-4807-4e2d-a716-448c8cd70326","system_id":"levelo_inurba_marseille","lat":43.26576,"lon":5.37262,"is_reserved":false,"is_disabled":false,"rental_uris":{"android":"levelo://app?vid=a5fd71ea-4807-4e2d-a716-448c8cd70326","ios":"levelo://app?vid=a5fd71ea-4807-4e2d-a716-448c8cd70326"},"vehicle_type_id":"4","last_reported":1740855995,"current_range_meters":7200,"station_id":"ce4bhg12rcd13ifvqf70","pricing_plan_id":"cebpf4jnsgd1na2vs0mg"},{"bike_id":"e8e574a6-d13a-4906-9b60-657faa08b971","system_id":"levelo_inurba_marseille","lat":43.26828,"lon":5.40262,"is_reserved":false,"is_disabled":false,"rental_uris":{"android":"levelo://app?vid=e8e574a6-d13a-4906-9b60-657faa08b971","ios":"levelo://app?vid=e8e574a6-d13a-4906-9b60-657faa08b971"},"vehicle_type_id":"4","last_reported":1740855995,"current_range_meters":7200,"station_id":"ce501612rcd8frsf0b60","pricing_plan_id":"cebpf4jnsgd1na2vs0mg"},{"bike_id":"6d488a3b-9a8d-4341-982c-47ae406df338","system_id":"levelo_inurba_marseille","lat":43.30176,"lon":5.39815,"is_reserved":false,"is_disabled":false,"rental_uris":{"android":"levelo://app?vid=6d488a3b-9a8d-4341-982c-47ae406df338","ios":"levelo://app?vid=6d488a3b-9a8d-4341-982c-47ae406df338"},"vehicle_type_id":"4","last_reported":1740855995,"current_range_meters":7200,"station_id":"","pricing_plan_id":"cebpf4jnsgd1na2vs0mg"},{"bike_id":"4705d312-f56d-46d9-bbe9-2693493b5bb3","system_id":"levelo_inurba_marseille","lat":43.24385,"lon":5.37057,"is_reserved":false,"is_disabled":false,"rental_uris":{"android":"levelo://app?vid=4705d312-f56d-46d9-bbe9-2693493b5bb3","ios":"levelo://app?vid=4705d312-f56d-46d9-bbe9-2693493b5bb3"},"vehicle_type_id":"4","last_reported":1740855995,"current_range_meters":8000,"station_id":"ce4bhhh2rcd13ifvqfk0","pricing_plan_id":"cebpf4jnsgd1na2vs0mg"},{"bike_id":"62b12a83-e85f-4351-a240-b88e48bc1e02","system_id":"levelo_inurba_marseille","lat":43.27821,"lon":5.40709,"is_reserved":false,"is_disabled":false,"rental_uris":{"android":"levelo://app?vid=62b12a83-e85f-4351-a240-b88e48bc1e02","ios":"levelo://app?vid=62b12a83-e85f-4351-a240-b88e48bc1e02"},"vehicle_type_id":"4","last_reported":1740855995,"current_range_meters":8000,"station_id":"ce4bhnh2rcd13ifvqgtg","pricing_plan_id":"cebpf4jnsgd1na2vs0mg"},{"bike_id":"68fe3e03-e289-4b20-90e8-16c9ff429710","system_id":"levelo_inurba_marseille","lat":43.29277,"lon":5.36843,"is_reserved":false,"is_disabled":false,"rental_uris":{"android":"levelo://app?vid=68fe3e03-e289-4b20-90e8-16c9ff429710","ios":"levelo://app?vid=68fe3e03-e289-4b20-90e8-16c9ff429710"},"vehicle_type_id":"4","last_reported":1740855995,"current_range_meters":8000,"station_id":"ce4bhbp2rcd13ifvqesg","pricing_plan_id":"cebpf4jnsgd1na2vs0mg"},{"bike_id":"49cf196d-46c2-4b6a-b1ce-adef85481502","system_id":"levelo_inurba_marseille","lat":43.24166,"lon":5.36391,"is_reserved":false,"is_disabled":false,"rental_uris":{"android":"levelo://app?vid=49cf196d-46c2-4b6a-b1ce-adef85481502","ios":"levelo://app?vid=49cf196d-46c2-4b6a-b1ce-adef85481502"},"vehicle_type_id":"4","last_reported":1740855995,"current_range_meters":8000,"station_id":"cpo36qri1sfpv3e86is0","pricing_plan_id":"cebpf4jnsgd1na2vs0mg"},{"bike_id":"a3d1ad85-61ed-42f1-9165-e8598c98f358","system_id":"levelo_inurba_marseille","lat":43.291,"lon":5.38138,"is_reserved":false,"is_disabled":false,"rental_uris":{"android":"levelo://app?vid=a3d1ad85-61ed-42f1-9165-e8598c98f358","ios":"levelo://app?vid=a3d1ad85-61ed-42f1-9165-e8598c98f358"},"vehicle_type_id":"4","last_reported":1740855995,"current_range_meters":8000,"station_id":"ce4bh512rcd13ifvqe2g","pricing_plan_id":"cebpf4jnsgd1na2vs0mg"},{"bike_id":"e6d1c30e-b54e-43ea-91e8-4498df5535b0","system_id":"levelo_inurba_marseille","lat":43.288558,"lon":5.358607,"is_reserved":false,"is_disabled":false,"rental_uris":{"android":"levelo://app?vid=e6d1c30e-b54e-43ea-91e8-4498df5535b0","ios":"levelo://app?vid=e6d1c30e-b54e-43ea-91e8-4498df5535b0"},"vehicle_type_id":"4","last_reported":1740855995,"current_range_meters":7200,"station_id":"ce4bhb12rcd13ifvqem0","pricing_plan_id":"cebpf4jnsgd1na2vs0mg"},{"bike_id":"dbed5bb7-c05f-4b3a-8702-cb82157ba9d1","system_id":"levelo_inurba_marseille","lat":43.28459,"lon":5.35893,"is_reserved":false,"is_disabled":false,"rental_uris":{"android":"levelo://app?vid=dbed5bb7-c05f-4b3a-8702-cb82157ba9d1","ios":"levelo://app?vid=dbed5bb7-c05f-4b3a-8702-cb82157ba9d1"},"vehicle_type_id":"4","last_reported":1740855995,"current_range_meters":8000,"station_id":"ce4bhah2rcd13ifvqei0","pricing_plan_id":"cebpf4jnsgd1na2vs0mg"},{"bike_id":"afc6b13c-a7a7-4c95-aa8c-34d48af845fe","system_id":"levelo_inurba_marseille","lat":43.28607,"lon":5.37072,"is_reserved":false,"is_disabled":false,"rental_uris":{"android":"levelo://app?vid=afc6b13c-a7a7-4c95-aa8c-34d48af845fe","ios":"levelo://app?vid=afc6b13c-a7a7-4c95-aa8c-34d48af845fe"},"vehicle_type_id":"4","last_reported":1740855995,"current_range_meters":8400,"station_id":"ce4bht12rcd13ifvqi60","pricing_plan_id":"cebpf4jnsgd1na2vs0mg"},{"bike_id":"186bbb84-cf2f-4dfe-bb72-d3f931f17007","system_id":"levelo_inurba_marseille","lat":43.30605,"lon":5.37235,"is_reserved":false,"is_disabled":false,"rental_uris":{"android":"levelo://app?vid=186bbb84-cf2f-4dfe-bb72-d3f931f17007","ios":"levelo://app?vid=186bbb84-cf2f-4dfe-bb72-d3f931f17007"},"vehicle_type_id":"4","last_reported":1740855995,"current_range_meters":8400,"station_id":"ce4bgqh2rcd13ifvqc4g","pricing_plan_id":"cebpf4jnsgd1na2vs0mg"},{"bike_id":"f7888e25-446f-4da8-96e6-65d5daad9223","system_id":"levelo_inurba_marseille","lat":43.28446,"lon":5.35014,"is_reserved":false,"is_disabled":false,"rental_uris":{"android":"levelo://app?vid=f7888e25-446f-4da8-96e6-65d5daad9223","ios":"levelo://app?vid=f7888e25-446f-4da8-96e6-65d5daad9223"},"vehicle_type_id":"4","last_reported":1740855995,"current_range_meters":8400,"station_id":"ce4bhbh2rcd13ifvqepg","pricing_plan_id":"cebpf4jnsgd1na2vs0mg"},{"bike_id":"79c347c7-01a5-4182-99c2-981de3f2f0ec","system_id":"levelo_inurba_marseille","lat":43.29305,"lon":5.37448,"is_reserved":false,"is_disabled":false,"rental_uris":{"android":"levelo://app?vid=79c347c7-01a5-4182-99c2-981de3f2f0ec","ios":"levelo://app?vid=79c347c7-01a5-4182-99c2-981de3f2f0ec"},"vehicle_type_id":"4","last_reported":1740855995,"current_range_meters":8800,"station_id":"ce4bgi12rcd13ifvqb70","pricing_plan_id":"cebpf4jnsgd1na2vs0mg"},{"bike_id":"bddf37d4-a2ae-4c74-bcad-602e7e9ee614","system_id":"levelo_inurba_marseille","lat":43.24674,"lon":5.38171,"is_reserved":false,"is_disabled":false,"rental_uris":{"android":"levelo://app?vid=bddf37d4-a2ae-4c74-bcad-602e7e9ee614","ios":"levelo://app?vid=bddf37d4-a2ae-4c74-bcad-602e7e9ee614"},"vehicle_type_id":"4","last_reported":1740855995,"current_range_meters":8800,"station_id":"ce4bhih2rcd13ifvqfr0","pricing_plan_id":"cebpf4jnsgd1na2vs0mg"},{"bike_id":"364b209e-752e-45ea-b26c-06b2552c1833","system_id":"levelo_inurba_marseille","lat":43.23191,"lon":5.35574,"is_reserved":false,"is_disabled":false,"rental_uris":{"android":"levelo://app?vid=364b209e-752e-45ea-b26c-06b2552c1833","ios":"levelo://app?vid=364b209e-752e-45ea-b26c-06b2552c1833"},"vehicle_type_id":"4","last_reported":1740855995,"current_range_meters":8800,"station_id":"ce4bhu92rcd13ifvqi70","pricing_plan_id":"cebpf4jnsgd1na2vs0mg"},{"bike_id":"e6d11301-60bf-411d-8f90-d57ce8f52a11","system_id":"levelo_inurba_marseille","lat":43.30605,"lon":5.37224,"is_reserved":false,"is_disabled":false,"rental_uris":{"android":"levelo://app?vid=e6d11301-60bf-411d-8f90-d57ce8f52a11","ios":"levelo://app?vid=e6d11301-60bf-411d-8f90-d57ce8f52a11"},"vehicle_type_id":"4","last_reported":1740855995,"current_range_meters":8800,"station_id":"ce4bgqh2rcd13ifvqc4g","pricing_plan_id":"cebpf4jnsgd1na2vs0mg"},{"bike_id":"4b6e9ee7-c4c7-4c15-b9c2-ed9e2413491d","system_id":"levelo_inurba_marseille","lat":43.29271,"lon":5.3845,"is_reserved":false,"is_disabled":false,"rental_uris":{"android":"levelo://app?vid=4b6e9ee7-c4c7-4c15-b9c2-ed9e2413491d","ios":"levelo://app?vid=4b6e9ee7-c4c7-4c15-b9c2-ed9e2413491d"},"vehicle_type_id":"4","last_reported":1740855995,"current_range_meters":8800,"station_id":"ce4bh692rcd13ifvqea0","pricing_plan_id":"cebpf4jnsgd1na2vs0mg"},{"bike_id":"49e9cdc7-76a5-4b66-ae2d-61c73beb73a8","system_id":"levelo_inurba_marseille","lat":43.24166,"lon":5.36416,"is_reserved":false,"is_disabled":false,"rental_uris":{"android":"levelo://app?vid=49e9cdc7-76a5-4b66-ae2d-61c73beb73a8","ios":"levelo://app?vid=49e9cdc7-76a5-4b66-ae2d-61c73beb73a8"},"vehicle_type_id":"4","last_reported":1740855995,"current_range_meters":8800,"station_id":"cpo36qri1sfpv3e86is0","pricing_plan_id":"cebpf4jnsgd1na2vs0mg"},{"bike_id":"6937ef5f-28e8-4526-b3bb-0260140c4dea","system_id":"levelo_inurba_marseille","lat":43.30533,"lon":5.36541,"is_reserved":false,"is_disabled":false,"rental_uris":{"android":"levelo://app?vid=6937ef5f-28e8-4526-b3bb-0260140c4dea","ios":"levelo://app?vid=6937ef5f-28e8-4526-b3bb-0260140c4dea"},"vehicle_type_id":"4","last_reported":1740855995,"current_range_meters":8800,"station_id":"ce4bgs12rcd13ifvqcag","pricing_plan_id":"cebpf4jnsgd1na2vs0mg"},{"bike_id":"9b596371-d612-49f2-b81f-de4bef0d4e5a","system_id":"levelo_inurba_marseille","lat":43.24155,"lon":5.36415,"is_reserved":false,"is_disabled":false,"rental_uris":{"android":"levelo://app?vid=9b596371-d612-49f2-b81f-de4bef0d4e5a","ios":"levelo://app?vid=9b596371-d612-49f2-b81f-de4bef0d4e5a"},"vehicle_type_id":"4","last_reported":1740855995,"current_range_meters":8800,"station_id":"cpo36qri1sfpv3e86is0","pricing_plan_id":"cebpf4jnsgd1na2vs0mg"},{"bike_id":"21eb704d-0d59-430c-ac00-3e753c001e9e","system_id":"levelo_inurba_marseille","lat":43.27821,"lon":5.40721,"is_reserved":false,"is_disabled":false,"rental_uris":{"android":"levelo://app?vid=21eb704d-0d59-430c-ac00-3e753c001e9e","ios":"levelo://app?vid=21eb704d-0d59-430c-ac00-3e753c001e9e"},"vehicle_type_id":"4","last_reported":1740855995,"current_range_meters":8800,"station_id":"ce4bhnh2rcd13ifvqgtg","pricing_plan_id":"cebpf4jnsgd1na2vs0mg"},{"bike_id":"9ea57ff6-fb6d-44d4-aacc-987d553187e5","system_id":"levelo_inurba_marseille","lat":43.29275,"lon":5.3684,"is_reserved":false,"is_disabled":false,"rental_uris":{"android":"levelo://app?vid=9ea57ff6-fb6d-44d4-aacc-987d553187e5","ios":"levelo://app?vid=9ea57ff6-fb6d-44d4-aacc-987d553187e5"},"vehicle_type_id":"4","last_reported":1740855995,"current_range_meters":8800,"station_id":"ce4bhbp2rcd13ifvqesg","pricing_plan_id":"cebpf4jnsgd1na2vs0mg"},{"bike_id":"7f7c455d-31c3-4413-8821-eca6cd5cb252","system_id":"levelo_inurba_marseille","lat":43.27816,"lon":5.40717,"is_reserved":false,"is_disabled":false,"rental_uris":{"android":"levelo://app?vid=7f7c455d-31c3-4413-8821-eca6cd5cb252","ios":"levelo://app?vid=7f7c455d-31c3-4413-8821-eca6cd5cb252"},"vehicle_type_id":"4","last_reported":1740855995,"current_range_meters":8800,"station_id":"ce4bhnh2rcd13ifvqgtg","pricing_plan_id":"cebpf4jnsgd1na2vs0mg"},{"bike_id":"593edb3c-7add-4a3d-9dbe-95cef549de0d","system_id":"levelo_inurba_marseille","lat":43.23065,"lon":5.35484,"is_reserved":false,"is_disabled":false,"rental_uris":{"android":"levelo://app?vid=593edb3c-7add-4a3d-9dbe-95cef549de0d","ios":"levelo://app?vid=593edb3c-7add-4a3d-9dbe-95cef549de0d"},"vehicle_type_id":"4","last_reported":1740855995,"current_range_meters":8800,"station_id":"cpo3342slgdg3j2ifvpg","pricing_plan_id":"cebpf4jnsgd1na2vs0mg"},{"bike_id":"59aefcfd-cb49-414f-a2b4-58f76bb5ab27","system_id":"levelo_inurba_marseille","lat":43.30388,"lon":5.42857,"is_reserved":false,"is_disabled":false,"rental_uris":{"android":"levelo://app?vid=59aefcfd-cb49-414f-a2b4-58f76bb5ab27","ios":"levelo://app?vid=59aefcfd-cb49-414f-a2b4-58f76bb5ab27"},"vehicle_type_id":"4","last_reported":1740855995,"current_range_meters":9200,"station_id":"","pricing_plan_id":"cebpf4jnsgd1na2vs0mg"},{"bike_id":"03a21d1c-b84b-414f-a2dd-d400086a40f9","system_id":"levelo_inurba_marseille","lat":43.27945,"lon":5.41046,"is_reserved":false,"is_disabled":false,"rental_uris":{"android":"levelo://app?vid=03a21d1c-b84b-414f-a2dd-d400086a40f9","ios":"levelo://app?vid=03a21d1c-b84b-414f-a2dd-d400086a40f9"},"vehicle_type_id":"4","last_reported":1740855995,"current_range_meters":9200,"station_id":"ce4bhnp2rcd13ifvqh0g","pricing_plan_id":"cebpf4jnsgd1na2vs0mg"},{"bike_id":"c0e60b5b-0165-469f-8dcf-aab439223c7d","system_id":"levelo_inurba_marseille","lat":43.30294,"lon":5.39204,"is_reserved":false,"is_disabled":false,"rental_uris":{"android":"levelo://app?vid=c0e60b5b-0165-469f-8dcf-aab439223c7d","ios":"levelo://app?vid=c0e60b5b-0165-469f-8dcf-aab439223c7d"},"vehicle_type_id":"4","last_reported":1740855995,"current_range_meters":9200,"station_id":"ce4bgkh2rcd13ifvqbk0","pricing_plan_id":"cebpf4jnsgd1na2vs0mg"},{"bike_id":"6b0ed7a7-7fbf-4882-9121-83d16d8dc9a6","system_id":"levelo_inurba_marseille","lat":43.28413,"lon":5.37517,"is_reserved":false,"is_disabled":false,"rental_uris":{"android":"levelo://app?vid=6b0ed7a7-7fbf-4882-9121-83d16d8dc9a6","ios":"levelo://app?vid=6b0ed7a7-7fbf-4882-9121-83d16d8dc9a6"},"vehicle_type_id":"4","last_reported":1740855995,"current_range_meters":9200,"station_id":"ce4bh412rcd13ifvqds0","pricing_plan_id":"cebpf4jnsgd1na2vs0mg"},{"bike_id":"691bd32e-ca61-4973-a114-2d3e93c5fbe8","system_id":"levelo_inurba_marseille","lat":43.24183,"lon":5.39732,"is_reserved":false,"is_disabled":false,"rental_uris":{"android":"levelo://app?vid=691bd32e-ca61-4973-a114-2d3e93c5fbe8","ios":"levelo://app?vid=691bd32e-ca61-4973-a114-2d3e93c5fbe8"},"vehicle_type_id":"4","last_reported":1740855995,"current_range_meters":9200,"station_id":"ce4bhn12rcd13ifvqgpg","pricing_plan_id":"cebpf4jnsgd1na2vs0mg"},{"bike_id":"3f392c0b-3904-4643-a350-dfb6930b9fd7","system_id":"levelo_inurba_marseille","lat":43.28571,"lon":5.39495,"is_reserved":false,"is_disabled":false,"rental_uris":{"android":"levelo://app?vid=3f392c0b-3904-4643-a350-dfb6930b9fd7","ios":"levelo://app?vid=3f392c0b-3904-4643-a350-dfb6930b9fd7"},"vehicle_type_id":"4","last_reported":1740855995,"current_range_meters":9600,"station_id":"ce4bh292rcd13ifvqdg0","pricing_plan_id":"cebpf4jnsgd1na2vs0mg"},{"bike_id":"11eeaa41-65fd-4096-aabf-ea952f76267a","system_id":"levelo_inurba_marseille","lat":43.34139,"lon":5.40927,"is_reserved":false,"is_disabled":false,"rental_uris":{"android":"levelo://app?vid=11eeaa41-65fd-4096-aabf-ea952f76267a","ios":"levelo://app?vid=11eeaa41-65fd-4096-aabf-ea952f76267a"},"vehicle_type_id":"4","last_reported":1740855995,"current_range_meters":9200,"station_id":"ce4bhqh2rcd13ifvqhlg","pricing_plan_id":"cebpf4jnsgd1na2vs0mg"},{"bike_id":"c65e2549-0bd4-4200-87e8-04da94f3c3c4","system_id":"levelo_inurba_marseille","lat":43.28418,"lon":5.34983,"is_reserved":false,"is_disabled":false,"rental_uris":{"android":"levelo://app?vid=c65e2549-0bd4-4200-87e8-04da94f3c3c4","ios":"levelo://app?vid=c65e2549-0bd4-4200-87e8-04da94f3c3c4"},"vehicle_type_id":"4","last_reported":1740855995,"current_range_meters":9600,"station_id":"ce4bhbh2rcd13ifvqepg","pricing_plan_id":"cebpf4jnsgd1na2vs0mg"},{"bike_id":"53ebed9a-fd1a-4d94-96e3-0c8bc5887ace","system_id":"levelo_inurba_marseille","lat":43.31422,"lon":5.39411,"is_reserved":false,"is_disabled":false,"rental_uris":{"android":"levelo://app?vid=53ebed9a-fd1a-4d94-96e3-0c8bc5887ace","ios":"levelo://app?vid=53ebed9a-fd1a-4d94-96e3-0c8bc5887ace"},"vehicle_type_id":"4","last_reported":1740855995,"current_range_meters":9600,"station_id":"","pricing_plan_id":"cebpf4jnsgd1na2vs0mg"},{"bike_id":"f5443542-4898-4bcc-9583-8e43fb93489f","system_id":"levelo_inurba_marseille","lat":43.28115,"lon":5.37841,"is_reserved":false,"is_disabled":false,"rental_uris":{"android":"levelo://app?vid=f5443542-4898-4bcc-9583-8e43fb93489f","ios":"levelo://app?vid=f5443542-4898-4bcc-9583-8e43fb93489f"},"vehicle_type_id":"4","last_reported":1740855995,"current_range_meters":9600,"station_id":"ce4bha12rcd13ifvqee0","pricing_plan_id":"cebpf4jnsgd1na2vs0mg"},{"bike_id":"b777b4cf-3a59-4bd6-bbe8-877c47f15172","system_id":"levelo_inurba_marseille","lat":43.29294,"lon":5.36857,"is_reserved":false,"is_disabled":false,"rental_uris":{"android":"levelo://app?vid=b777b4cf-3a59-4bd6-bbe8-877c47f15172","ios":"levelo://app?vid=b777b4cf-3a59-4bd6-bbe8-877c47f15172"},"vehicle_type_id":"4","last_reported":1740855995,"current_range_meters":9600,"station_id":"ce4bhbp2rcd13ifvqesg","pricing_plan_id":"cebpf4jnsgd1na2vs0mg"},{"bike_id":"ac0f1826-dbd4-4f4f-a81e-65229bdcc821","system_id":"levelo_inurba_marseille","lat":43.26498,"lon":5.39541,"is_reserved":false,"is_disabled":false,"rental_uris":{"android":"levelo://app?vid=ac0f1826-dbd4-4f4f-a81e-65229bdcc821","ios":"levelo://app?vid=ac0f1826-dbd4-4f4f-a81e-65229bdcc821"},"vehicle_type_id":"4","last_reported":1740855995,"current_range_meters":9600,"station_id":"ce4bhi12rcd13ifvqfq0","pricing_plan_id":"cebpf4jnsgd1na2vs0mg"},{"bike_id":"d145d3eb-50b2-4f77-a940-afcd60fc869b","system_id":"levelo_inurba_marseille","lat":43.24382,"lon":5.37057,"is_reserved":false,"is_disabled":false,"rental_uris":{"android":"levelo://app?vid=d145d3eb-50b2-4f77-a940-afcd60fc869b","ios":"levelo://app?vid=d145d3eb-50b2-4f77-a940-afcd60fc869b"},"vehicle_type_id":"4","last_reported":1740855995,"current_range_meters":10000,"station_id":"ce4bhhh2rcd13ifvqfk0","pricing_plan_id":"cebpf4jnsgd1na2vs0mg"},{"bike_id":"4bd4b995-1984-49fc-b229-218c3bec2a20","system_id":"levelo_inurba_marseille","lat":43.28428,"lon":5.34997,"is_reserved":false,"is_disabled":false,"rental_uris":{"android":"levelo://app?vid=4bd4b995-1984-49fc-b229-218c3bec2a20","ios":"levelo://app?vid=4bd4b995-1984-49fc-b229-218c3bec2a20"},"vehicle_type_id":"4","last_reported":1740855995,"current_range_meters":10000,"station_id":"ce4bhbh2rcd13ifvqepg","pricing_plan_id":"cebpf4jnsgd1na2vs0mg"},{"bike_id":"06b48c7b-b23c-4a46-b007-dd3e94572a2a","system_id":"levelo_inurba_marseille","lat":43.30321,"lon":5.36907,"is_reserved":false,"is_disabled":false,"rental_uris":{"android":"levelo://app?vid=06b48c7b-b23c-4a46-b007-dd3e94572a2a","ios":"levelo://app?vid=06b48c7b-b23c-4a46-b007-dd3e94572a2a"},"vehicle_type_id":"4","last_reported":1740855995,"current_range_meters":10000,"station_id":"ce4bgqh2rcd13ifvqc5g","pricing_plan_id":"cebpf4jnsgd1na2vs0mg"},{"bike_id":"c1680bf3-a159-40f5-a36a-7ae00f9bf0fb","system_id":"levelo_inurba_marseille","lat":43.29433,"lon":5.3863,"is_reserved":false,"is_disabled":false,"rental_uris":{"android":"levelo://app?vid=c1680bf3-a159-40f5-a36a-7ae00f9bf0fb","ios":"levelo://app?vid=c1680bf3-a159-40f5-a36a-7ae00f9bf0fb"},"vehicle_type_id":"4","last_reported":1740855995,"current_range_meters":10000,"station_id":"ce4bh2h2rcd13ifvqdh0","pricing_plan_id":"cebpf4jnsgd1na2vs0mg"},{"bike_id":"3ac217b6-b9a1-426b-a8ad-0c83aae1a807","system_id":"levelo_inurba_marseille","lat":43.2872,"lon":5.36087,"is_reserved":false,"is_disabled":false,"rental_uris":{"android":"levelo://app?vid=3ac217b6-b9a1-426b-a8ad-0c83aae1a807","ios":"levelo://app?vid=3ac217b6-b9a1-426b-a8ad-0c83aae1a807"},"vehicle_type_id":"4","last_reported":1740855995,"current_range_meters":10000,"station_id":"cki0cbj6b192h4jlfktg","pricing_plan_id":"cebpf4jnsgd1na2vs0mg"},{"bike_id":"48b99982-0af0-4535-926e-bd5b708812d5","system_id":"levelo_inurba_marseille","lat":43.27945,"lon":5.41038,"is_reserved":false,"is_disabled":false,"rental_uris":{"android":"levelo://app?vid=48b99982-0af0-4535-926e-bd5b708812d5","ios":"levelo://app?vid=48b99982-0af0-4535-926e-bd5b708812d5"},"vehicle_type_id":"4","last_reported":1740855995,"current_range_meters":10800,"station_id":"ce4bhnp2rcd13ifvqh0g","pricing_plan_id":"cebpf4jnsgd1na2vs0mg"},{"bike_id":"331d8231-4ea9-4594-bb6b-337f1c1933fc","system_id":"levelo_inurba_marseille","lat":43.2898,"lon":5.37852,"is_reserved":false,"is_disabled":false,"rental_uris":{"android":"levelo://app?vid=331d8231-4ea9-4594-bb6b-337f1c1933fc","ios":"levelo://app?vid=331d8231-4ea9-4594-bb6b-337f1c1933fc"},"vehicle_type_id":"4","last_reported":1740855995,"current_range_meters":10800,"station_id":"ce4bh9p2rcd13ifvqed0","pricing_plan_id":"cebpf4jnsgd1na2vs0mg"},{"bike_id":"f480da84-1887-4ade-84fb-1c0d19a4cdd8","system_id":"levelo_inurba_marseille","lat":43.32368,"lon":5.38887,"is_reserved":false,"is_disabled":false,"rental_uris":{"android":"levelo://app?vid=f480da84-1887-4ade-84fb-1c0d19a4cdd8","ios":"levelo://app?vid=f480da84-1887-4ade-84fb-1c0d19a4cdd8"},"vehicle_type_id":"4","last_reported":1740855995,"current_range_meters":10800,"station_id":"ce4bhqp2rcd13ifvqhog","pricing_plan_id":"cebpf4jnsgd1na2vs0mg"},{"bike_id":"43e1e04c-280b-4d54-bbb9-c3921d8e975b","system_id":"levelo_inurba_marseille","lat":43.29299,"lon":5.36873,"is_reserved":false,"is_disabled":false,"rental_uris":{"android":"levelo://app?vid=43e1e04c-280b-4d54-bbb9-c3921d8e975b","ios":"levelo://app?vid=43e1e04c-280b-4d54-bbb9-c3921d8e975b"},"vehicle_type_id":"4","last_reported":1740855995,"current_range_meters":10800,"station_id":"ce4bhbp2rcd13ifvqesg","pricing_plan_id":"cebpf4jnsgd1na2vs0mg"},{"bike_id":"51939b71-f2de-40f6-8634-9084c265b4cc","system_id":"levelo_inurba_marseille","lat":43.24074,"lon":5.37759,"is_reserved":false,"is_disabled":false,"rental_uris":{"android":"levelo://app?vid=51939b71-f2de-40f6-8634-9084c265b4cc","ios":"levelo://app?vid=51939b71-f2de-40f6-8634-9084c265b4cc"},"vehicle_type_id":"4","last_reported":1740855995,"current_range_meters":10800,"station_id":"ce4bhnp2rcd13ifvqgvg","pricing_plan_id":"cebpf4jnsgd1na2vs0mg"},{"bike_id":"fd4ceb47-7745-40bf-b9f8-cbc3ab65ca1f","system_id":"levelo_inurba_marseille","lat":43.23185,"lon":5.39987,"is_reserved":false,"is_disabled":false,"rental_uris":{"android":"levelo://app?vid=fd4ceb47-7745-40bf-b9f8-cbc3ab65ca1f","ios":"levelo://app?vid=fd4ceb47-7745-40bf-b9f8-cbc3ab65ca1f"},"vehicle_type_id":"4","last_reported":1740855995,"current_range_meters":10800,"station_id":"ce4bhn12rcd13ifvqgqg","pricing_plan_id":"cebpf4jnsgd1na2vs0mg"},{"bike_id":"161d70e9-e213-4bf5-bde1-9c3d7296d89c","system_id":"levelo_inurba_marseille","lat":43.2781,"lon":5.39198,"is_reserved":false,"is_disabled":false,"rental_uris":{"android":"levelo://app?vid=161d70e9-e213-4bf5-bde1-9c3d7296d89c","ios":"levelo://app?vid=161d70e9-e213-4bf5-bde1-9c3d7296d89c"},"vehicle_type_id":"4","last_reported":1740855995,"current_range_meters":10800,"station_id":"ce4bhjp2rcd13ifvqga0","pricing_plan_id":"cebpf4jnsgd1na2vs0mg"},{"bike_id":"9af472b6-792c-46c6-99df-8de48e2848d1","system_id":"levelo_inurba_marseille","lat":43.24541,"lon":5.39531,"is_reserved":false,"is_disabled":false,"rental_uris":{"android":"levelo://app?vid=9af472b6-792c-46c6-99df-8de48e2848d1","ios":"levelo://app?vid=9af472b6-792c-46c6-99df-8de48e2848d1"},"vehicle_type_id":"4","last_reported":1740855995,"current_range_meters":10800,"station_id":"ce4bhlp2rcd13ifvqgjg","pricing_plan_id":"cebpf4jnsgd1na2vs0mg"},{"bike_id":"3298d640-a866-40fd-ae33-0cd65ccd33ee","system_id":"levelo_inurba_marseille","lat":43.29527,"lon":5.38546,"is_reserved":false,"is_disabled":false,"rental_uris":{"android":"levelo://app?vid=3298d640-a866-40fd-ae33-0cd65ccd33ee","ios":"levelo://app?vid=3298d640-a866-40fd-ae33-0cd65ccd33ee"},"vehicle_type_id":"4","last_reported":1740855995,"current_range_meters":10800,"station_id":"ce4bgih2rcd13ifvqba0","pricing_plan_id":"cebpf4jnsgd1na2vs0mg"},{"bike_id":"e87ab4e9-6037-4b78-a2ee-cfcfdb553482","system_id":"levelo_inurba_marseille","lat":43.24387,"lon":5.37057,"is_reserved":false,"is_disabled":false,"rental_uris":{"android":"levelo://app?vid=e87ab4e9-6037-4b78-a2ee-cfcfdb553482","ios":"levelo://app?vid=e87ab4e9-6037-4b78-a2ee-cfcfdb553482"},"vehicle_type_id":"4","last_reported":1740855995,"current_range_meters":10800,"station_id":"ce4bhhh2rcd13ifvqfk0","pricing_plan_id":"cebpf4jnsgd1na2vs0mg"},{"bike_id":"875e0e4e-acc7-4916-a21e-8a4a106acaf9","system_id":"levelo_inurba_marseille","lat":43.31275,"lon":5.40171,"is_reserved":false,"is_disabled":true,"rental_uris":{"android":"levelo://app?vid=875e0e4e-acc7-4916-a21e-8a4a106acaf9","ios":"levelo://app?vid=875e0e4e-acc7-4916-a21e-8a4a106acaf9"},"vehicle_type_id":"4","last_reported":1740855995,"current_range_meters":10800,"station_id":"ce4bh092rcd13ifvqd30","pricing_plan_id":"cebpf4jnsgd1na2vs0mg"},{"bike_id":"2667b23c-67ae-471f-a157-93cd2283f666","system_id":"levelo_inurba_marseille","lat":43.29617,"lon":5.38109,"is_reserved":false,"is_disabled":false,"rental_uris":{"android":"levelo://app?vid=2667b23c-67ae-471f-a157-93cd2283f666","ios":"levelo://app?vid=2667b23c-67ae-471f-a157-93cd2283f666"},"vehicle_type_id":"4","last_reported":1740855995,"current_range_meters":10800,"station_id":"ce4bgl12rcd13ifvqbo0","pricing_plan_id":"cebpf4jnsgd1na2vs0mg"},{"bike_id":"0693b9d6-4a9d-4e38-bfa2-80f934bcc2e3","system_id":"levelo_inurba_marseille","lat":43.24155,"lon":5.36428,"is_reserved":false,"is_disabled":false,"rental_uris":{"android":"levelo://app?vid=0693b9d6-4a9d-4e38-bfa2-80f934bcc2e3","ios":"levelo://app?vid=0693b9d6-4a9d-4e38-bfa2-80f934bcc2e3"},"vehicle_type_id":"4","last_reported":1740855995,"current_range_meters":11200,"station_id":"cpo36qri1sfpv3e86is0","pricing_plan_id":"cebpf4jnsgd1na2vs0mg"},{"bike_id":"665eee40-9d14-40ac-8759-9f53cd1ee10d","system_id":"levelo_inurba_marseille","lat":43.302147,"lon":5.394724,"is_reserved":false,"is_disabled":false,"rental_uris":{"android":"levelo://app?vid=665eee40-9d14-40ac-8759-9f53cd1ee10d","ios":"levelo://app?vid=665eee40-9d14-40ac-8759-9f53cd1ee10d"},"vehicle_type_id":"4","last_reported":1740855995,"current_range_meters":11200,"station_id":"ce4bh0p2rcd13ifvqd70","pricing_plan_id":"cebpf4jnsgd1na2vs0mg"},{"bike_id":"5d581bbf-c03d-40c4-8c08-d40ad9eeaa19","system_id":"levelo_inurba_marseille","lat":43.29097,"lon":5.42696,"is_reserved":false,"is_disabled":false,"rental_uris":{"android":"levelo://app?vid=5d581bbf-c03d-40c4-8c08-d40ad9eeaa19","ios":"levelo://app?vid=5d581bbf-c03d-40c4-8c08-d40ad9eeaa19"},"vehicle_type_id":"4","last_reported":1740855995,"current_range_meters":11200,"station_id":"","pricing_plan_id":"cebpf4jnsgd1na2vs0mg"},{"bike_id":"4015c440-7267-44b4-8be2-f4b87cb51aa9","system_id":"levelo_inurba_marseille","lat":43.25624,"lon":5.38233,"is_reserved":false,"is_disabled":false,"rental_uris":{"android":"levelo://app?vid=4015c440-7267-44b4-8be2-f4b87cb51aa9","ios":"levelo://app?vid=4015c440-7267-44b4-8be2-f4b87cb51aa9"},"vehicle_type_id":"4","last_reported":1740855995,"current_range_meters":11200,"station_id":"","pricing_plan_id":"cebpf4jnsgd1na2vs0mg"},{"bike_id":"4df11988-4f91-471f-93f7-5709d818f530","system_id":"levelo_inurba_marseille","lat":43.29279,"lon":5.36852,"is_reserved":false,"is_disabled":false,"rental_uris":{"android":"levelo://app?vid=4df11988-4f91-471f-93f7-5709d818f530","ios":"levelo://app?vid=4df11988-4f91-471f-93f7-5709d818f530"},"vehicle_type_id":"4","last_reported":1740855995,"current_range_meters":11200,"station_id":"ce4bhbp2rcd13ifvqesg","pricing_plan_id":"cebpf4jnsgd1na2vs0mg"},{"bike_id":"f502074e-8a5d-4d7f-aa68-e20579afbb3c","system_id":"levelo_inurba_marseille","lat":43.2909,"lon":5.38162,"is_reserved":false,"is_disabled":false,"rental_uris":{"android":"levelo://app?vid=f502074e-8a5d-4d7f-aa68-e20579afbb3c","ios":"levelo://app?vid=f502074e-8a5d-4d7f-aa68-e20579afbb3c"},"vehicle_type_id":"4","last_reported":1740855995,"current_range_meters":11600,"station_id":"ce4bh512rcd13ifvqe2g","pricing_plan_id":"cebpf4jnsgd1na2vs0mg"},{"bike_id":"e3ea0c82-575d-4f15-b57c-6eebd57f815a","system_id":"levelo_inurba_marseille","lat":43.27324,"lon":5.39105,"is_reserved":false,"is_disabled":true,"rental_uris":{"android":"levelo://app?vid=e3ea0c82-575d-4f15-b57c-6eebd57f815a","ios":"levelo://app?vid=e3ea0c82-575d-4f15-b57c-6eebd57f815a"},"vehicle_type_id":"4","last_reported":1740855995,"current_range_meters":11600,"station_id":"ce4bhgp2rcd13ifvqfe0","pricing_plan_id":"cebpf4jnsgd1na2vs0mg"},{"bike_id":"3454c7e6-0dab-463f-a073-b411b5de3e35","system_id":"levelo_inurba_marseille","lat":43.25491,"lon":5.37649,"is_reserved":false,"is_disabled":false,"rental_uris":{"android":"levelo://app?vid=3454c7e6-0dab-463f-a073-b411b5de3e35","ios":"levelo://app?vid=3454c7e6-0dab-463f-a073-b411b5de3e35"},"vehicle_type_id":"4","last_reported":1740855995,"current_range_meters":11200,"station_id":"ce4bhh12rcd13ifvqff0","pricing_plan_id":"cebpf4jnsgd1na2vs0mg"},{"bike_id":"7852c807-2496-4d53-b1e3-bad49b42bd51","system_id":"levelo_inurba_marseille","lat":43.30419,"lon":5.41276,"is_reserved":false,"is_disabled":false,"rental_uris":{"android":"levelo://app?vid=7852c807-2496-4d53-b1e3-bad49b42bd51","ios":"levelo://app?vid=7852c807-2496-4d53-b1e3-bad49b42bd51"},"vehicle_type_id":"4","last_reported":1740855995,"current_range_meters":11600,"station_id":"ce4bhop2rcd13ifvqh8g","pricing_plan_id":"cebpf4jnsgd1na2vs0mg"},{"bike_id":"364da244-0443-4187-a98a-bc7b7ca7b9dc","system_id":"levelo_inurba_marseille","lat":43.29547,"lon":5.4228,"is_reserved":false,"is_disabled":false,"rental_uris":{"android":"levelo://app?vid=364da244-0443-4187-a98a-bc7b7ca7b9dc","ios":"levelo://app?vid=364da244-0443-4187-a98a-bc7b7ca7b9dc"},"vehicle_type_id":"4","last_reported":1740855995,"current_range_meters":12000,"station_id":"ce4bhph2rcd13ifvqhdg","pricing_plan_id":"cebpf4jnsgd1na2vs0mg"},{"bike_id":"3d326c83-df55-456d-a39d-f1c118f8a994","system_id":"levelo_inurba_marseille","lat":43.30256,"lon":5.40078,"is_reserved":false,"is_disabled":true,"rental_uris":{"android":"levelo://app?vid=3d326c83-df55-456d-a39d-f1c118f8a994","ios":"levelo://app?vid=3d326c83-df55-456d-a39d-f1c118f8a994"},"vehicle_type_id":"4","last_reported":1740855995,"current_range_meters":12000,"station_id":"ce4bgvh2rcd13ifvqcs0","pricing_plan_id":"cebpf4jnsgd1na2vs0mg"},{"bike_id":"1697087c-3a15-4d2b-8fbc-57126afe45c3","system_id":"levelo_inurba_marseille","lat":43.23157,"lon":5.43708,"is_reserved":false,"is_disabled":false,"rental_uris":{"android":"levelo://app?vid=1697087c-3a15-4d2b-8fbc-57126afe45c3","ios":"levelo://app?vid=1697087c-3a15-4d2b-8fbc-57126afe45c3"},"vehicle_type_id":"4","last_reported":1740855995,"current_range_meters":12400,"station_id":"ce4bhmp2rcd13ifvqgog","pricing_plan_id":"cebpf4jnsgd1na2vs0mg"},{"bike_id":"98d30ac8-3bd7-4aef-a008-2521b117e221","system_id":"levelo_inurba_marseille","lat":43.265632,"lon":5.389975,"is_reserved":false,"is_disabled":false,"rental_uris":{"android":"levelo://app?vid=98d30ac8-3bd7-4aef-a008-2521b117e221","ios":"levelo://app?vid=98d30ac8-3bd7-4aef-a008-2521b117e221"},"vehicle_type_id":"4","last_reported":1740855995,"current_range_meters":12400,"station_id":"ce4bhe12rcd13ifvqf30","pricing_plan_id":"cebpf4jnsgd1na2vs0mg"},{"bike_id":"fb18759c-f3ca-4612-8704-baf08a44bab2","system_id":"levelo_inurba_marseille","lat":43.28425,"lon":5.34977,"is_reserved":false,"is_disabled":false,"rental_uris":{"android":"levelo://app?vid=fb18759c-f3ca-4612-8704-baf08a44bab2","ios":"levelo://app?vid=fb18759c-f3ca-4612-8704-baf08a44bab2"},"vehicle_type_id":"4","last_reported":1740855995,"current_range_meters":12400,"station_id":"ce4bhbh2rcd13ifvqepg","pricing_plan_id":"cebpf4jnsgd1na2vs0mg"},{"bike_id":"63c397fe-d712-409b-ba49-04542c9b3bbe","system_id":"levelo_inurba_marseille","lat":43.29543,"lon":5.38548,"is_reserved":false,"is_disabled":false,"rental_uris":{"android":"levelo://app?vid=63c397fe-d712-409b-ba49-04542c9b3bbe","ios":"levelo://app?vid=63c397fe-d712-409b-ba49-04542c9b3bbe"},"vehicle_type_id":"4","last_reported":1740855995,"current_range_meters":12400,"station_id":"ce4bgih2rcd13ifvqba0","pricing_plan_id":"cebpf4jnsgd1na2vs0mg"},{"bike_id":"e0cc9d45-8215-4805-ac81-3096a81371ce","system_id":"levelo_inurba_marseille","lat":43.28411,"lon":5.34981,"is_reserved":false,"is_disabled":false,"rental_uris":{"android":"levelo://app?vid=e0cc9d45-8215-4805-ac81-3096a81371ce","ios":"levelo://app?vid=e0cc9d45-8215-4805-ac81-3096a81371ce"},"vehicle_type_id":"4","last_reported":1740855995,"current_range_meters":12400,"station_id":"ce4bhbh2rcd13ifvqepg","pricing_plan_id":"cebpf4jnsgd1na2vs0mg"},{"bike_id":"2615bd4c-fea5-4b07-99b2-48a21ae71195","system_id":"levelo_inurba_marseille","lat":43.32647,"lon":5.4101,"is_reserved":false,"is_disabled":false,"rental_uris":{"android":"levelo://app?vid=2615bd4c-fea5-4b07-99b2-48a21ae71195","ios":"levelo://app?vid=2615bd4c-fea5-4b07-99b2-48a21ae71195"},"vehicle_type_id":"4","last_reported":1740855995,"current_range_meters":12400,"station_id":"ce4bhpp2rcd13ifvqhgg","pricing_plan_id":"cebpf4jnsgd1na2vs0mg"},{"bike_id":"6015de34-6311-4ebf-bdfc-52388031928c","system_id":"levelo_inurba_marseille","lat":43.27607,"lon":5.36126,"is_reserved":false,"is_disabled":false,"rental_uris":{"android":"levelo://app?vid=6015de34-6311-4ebf-bdfc-52388031928c","ios":"levelo://app?vid=6015de34-6311-4ebf-bdfc-52388031928c"},"vehicle_type_id":"4","last_reported":1740855995,"current_range_meters":12000,"station_id":"ce4bgj92rcd13ifvqbe0","pricing_plan_id":"cebpf4jnsgd1na2vs0mg"},{"bike_id":"7e58cfdc-7224-4730-9bee-79c92aeac5a3","system_id":"levelo_inurba_marseille","lat":43.27172,"lon":5.40992,"is_reserved":false,"is_disabled":false,"rental_uris":{"android":"levelo://app?vid=7e58cfdc-7224-4730-9bee-79c92aeac5a3","ios":"levelo://app?vid=7e58cfdc-7224-4730-9bee-79c92aeac5a3"},"vehicle_type_id":"4","last_reported":1740855995,"current_range_meters":12800,"station_id":"ce4bhl12rcd13ifvqgf0","pricing_plan_id":"cebpf4jnsgd1na2vs0mg"},{"bike_id":"e0a413a7-bc6b-4647-8e86-c0926ac098ec","system_id":"levelo_inurba_marseille","lat":43.29303,"lon":5.36838,"is_reserved":false,"is_disabled":false,"rental_uris":{"android":"levelo://app?vid=e0a413a7-bc6b-4647-8e86-c0926ac098ec","ios":"levelo://app?vid=e0a413a7-bc6b-4647-8e86-c0926ac098ec"},"vehicle_type_id":"4","last_reported":1740855995,"current_range_meters":12800,"station_id":"ce4bhbp2rcd13ifvqesg","pricing_plan_id":"cebpf4jnsgd1na2vs0mg"},{"bike_id":"8235333d-301f-40af-bcff-249a4ee0b3a0","system_id":"levelo_inurba_marseille","lat":43.296006,"lon":5.380985,"is_reserved":false,"is_disabled":false,"rental_uris":{"android":"levelo://app?vid=8235333d-301f-40af-bcff-249a4ee0b3a0","ios":"levelo://app?vid=8235333d-301f-40af-bcff-249a4ee0b3a0"},"vehicle_type_id":"4","last_reported":1740855995,"current_range_meters":12800,"station_id":"ce4bgl12rcd13ifvqbo0","pricing_plan_id":"cebpf4jnsgd1na2vs0mg"},{"bike_id":"aef5791a-5631-4d72-905c-9846593f34da","system_id":"levelo_inurba_marseille","lat":43.28446,"lon":5.39208,"is_reserved":false,"is_disabled":false,"rental_uris":{"android":"levelo://app?vid=aef5791a-5631-4d72-905c-9846593f34da","ios":"levelo://app?vid=aef5791a-5631-4d72-905c-9846593f34da"},"vehicle_type_id":"4","last_reported":1740855995,"current_range_meters":12400,"station_id":"ce4bhoh2rcd13ifvqh5g","pricing_plan_id":"cebpf4jnsgd1na2vs0mg"},{"bike_id":"5d7c7708-0760-4884-8883-b9dd9eef0e36","system_id":"levelo_inurba_marseille","lat":43.2979,"lon":5.38113,"is_reserved":false,"is_disabled":false,"rental_uris":{"android":"levelo://app?vid=5d7c7708-0760-4884-8883-b9dd9eef0e36","ios":"levelo://app?vid=5d7c7708-0760-4884-8883-b9dd9eef0e36"},"vehicle_type_id":"4","last_reported":1740855995,"current_range_meters":13600,"station_id":"ce4bgip2rcd13ifvqbb0","pricing_plan_id":"cebpf4jnsgd1na2vs0mg"},{"bike_id":"feebd7ba-f323-4a6c-8812-f3b6267eba75","system_id":"levelo_inurba_marseille","lat":43.31361,"lon":5.38499,"is_reserved":false,"is_disabled":false,"rental_uris":{"android":"levelo://app?vid=feebd7ba-f323-4a6c-8812-f3b6267eba75","ios":"levelo://app?vid=feebd7ba-f323-4a6c-8812-f3b6267eba75"},"vehicle_type_id":"4","last_reported":1740855995,"current_range_meters":12800,"station_id":"ce4bgt92rcd13ifvqcf0","pricing_plan_id":"cebpf4jnsgd1na2vs0mg"},{"bike_id":"eff3710d-b96e-459b-bdd8-b2e985ecba8e","system_id":"levelo_inurba_marseille","lat":43.32658,"lon":5.40997,"is_reserved":false,"is_disabled":false,"rental_uris":{"android":"levelo://app?vid=eff3710d-b96e-459b-bdd8-b2e985ecba8e","ios":"levelo://app?vid=eff3710d-b96e-459b-bdd8-b2e985ecba8e"},"vehicle_type_id":"4","last_reported":1740855995,"current_range_meters":13600,"station_id":"ce4bhpp2rcd13ifvqhgg","pricing_plan_id":"cebpf4jnsgd1na2vs0mg"},{"bike_id":"439261ef-9548-4714-8f80-154fdd7dad7c","system_id":"levelo_inurba_marseille","lat":43.27616,"lon":5.36111,"is_reserved":false,"is_disabled":false,"rental_uris":{"android":"levelo://app?vid=439261ef-9548-4714-8f80-154fdd7dad7c","ios":"levelo://app?vid=439261ef-9548-4714-8f80-154fdd7dad7c"},"vehicle_type_id":"4","last_reported":1740855995,"current_range_meters":13600,"station_id":"ce4bgj92rcd13ifvqbe0","pricing_plan_id":"cebpf4jnsgd1na2vs0mg"},{"bike_id":"cf03d938-85b5-4e82-bd24-cbd5f9120c54","system_id":"levelo_inurba_marseille","lat":43.31331,"lon":5.39673,"is_reserved":false,"is_disabled":false,"rental_uris":{"android":"levelo://app?vid=cf03d938-85b5-4e82-bd24-cbd5f9120c54","ios":"levelo://app?vid=cf03d938-85b5-4e82-bd24-cbd5f9120c54"},"vehicle_type_id":"4","last_reported":1740855995,"current_range_meters":14000,"station_id":"ce4bgvp2rcd13ifvqcu0","pricing_plan_id":"cebpf4jnsgd1na2vs0mg"},{"bike_id":"0895c1b8-8c3a-490f-8314-29718b9cdf4b","system_id":"levelo_inurba_marseille","lat":43.23201,"lon":5.35559,"is_reserved":false,"is_disabled":false,"rental_uris":{"android":"levelo://app?vid=0895c1b8-8c3a-490f-8314-29718b9cdf4b","ios":"levelo://app?vid=0895c1b8-8c3a-490f-8314-29718b9cdf4b"},"vehicle_type_id":"4","last_reported":1740855995,"current_range_meters":14000,"station_id":"ce4bhu92rcd13ifvqi70","pricing_plan_id":"cebpf4jnsgd1na2vs0mg"},{"bike_id":"8180e023-b3d1-4bf5-874d-4a6f178d2fe3","system_id":"levelo_inurba_marseille","lat":43.32042,"lon":5.41546,"is_reserved":false,"is_disabled":false,"rental_uris":{"android":"levelo://app?vid=8180e023-b3d1-4bf5-874d-4a6f178d2fe3","ios":"levelo://app?vid=8180e023-b3d1-4bf5-874d-4a6f178d2fe3"},"vehicle_type_id":"4","last_reported":1740855995,"current_range_meters":14000,"station_id":"ce4bhq92rcd13ifvqhkg","pricing_plan_id":"cebpf4jnsgd1na2vs0mg"},{"bike_id":"f711a177-8c95-4e96-bcaf-e6e0dc33f59e","system_id":"levelo_inurba_marseille","lat":43.2439,"lon":5.37058,"is_reserved":false,"is_disabled":false,"rental_uris":{"android":"levelo://app?vid=f711a177-8c95-4e96-bcaf-e6e0dc33f59e","ios":"levelo://app?vid=f711a177-8c95-4e96-bcaf-e6e0dc33f59e"},"vehicle_type_id":"4","last_reported":1740855995,"current_range_meters":14000,"station_id":"ce4bhhh2rcd13ifvqfk0","pricing_plan_id":"cebpf4jnsgd1na2vs0mg"},{"bike_id":"4be7107a-e40e-49fb-94ff-1f0cc576b224","system_id":"levelo_inurba_marseille","lat":43.28968,"lon":5.37823,"is_reserved":false,"is_disabled":false,"rental_uris":{"android":"levelo://app?vid=4be7107a-e40e-49fb-94ff-1f0cc576b224","ios":"levelo://app?vid=4be7107a-e40e-49fb-94ff-1f0cc576b224"},"vehicle_type_id":"4","last_reported":1740855995,"current_range_meters":14000,"station_id":"ce4bh9p2rcd13ifvqed0","pricing_plan_id":"cebpf4jnsgd1na2vs0mg"},{"bike_id":"34dff025-e9dc-446f-828b-1c1aeb6138cd","system_id":"levelo_inurba_marseille","lat":43.26923,"lon":5.40248,"is_reserved":false,"is_disabled":false,"rental_uris":{"android":"levelo://app?vid=34dff025-e9dc-446f-828b-1c1aeb6138cd","ios":"levelo://app?vid=34dff025-e9dc-446f-828b-1c1aeb6138cd"},"vehicle_type_id":"4","last_reported":1740855995,"current_range_meters":14400,"station_id":"cjm6bp8fraef2m0cb0m0","pricing_plan_id":"cebpf4jnsgd1na2vs0mg"},{"bike_id":"d209a64c-8321-4da2-9770-8cca5ce1ceb9","system_id":"levelo_inurba_marseille","lat":43.26216,"lon":5.37439,"is_reserved":false,"is_disabled":false,"rental_uris":{"android":"levelo://app?vid=d209a64c-8321-4da2-9770-8cca5ce1ceb9","ios":"levelo://app?vid=d209a64c-8321-4da2-9770-8cca5ce1ceb9"},"vehicle_type_id":"4","last_reported":1740855995,"current_range_meters":14400,"station_id":"ce4bhgp2rcd13ifvqfc0","pricing_plan_id":"cebpf4jnsgd1na2vs0mg"},{"bike_id":"f13d8a3c-6790-4e4a-8b85-f14df523a4eb","system_id":"levelo_inurba_marseille","lat":43.26208,"lon":5.37441,"is_reserved":false,"is_disabled":false,"rental_uris":{"android":"levelo://app?vid=f13d8a3c-6790-4e4a-8b85-f14df523a4eb","ios":"levelo://app?vid=f13d8a3c-6790-4e4a-8b85-f14df523a4eb"},"vehicle_type_id":"4","last_reported":1740855995,"current_range_meters":14400,"station_id":"ce4bhgp2rcd13ifvqfc0","pricing_plan_id":"cebpf4jnsgd1na2vs0mg"},{"bike_id":"a5aa6482-5579-4b3c-ad52-ced6e8c2502a","system_id":"levelo_inurba_marseille","lat":43.257,"lon":5.41086,"is_reserved":false,"is_disabled":false,"rental_uris":{"android":"levelo://app?vid=a5aa6482-5579-4b3c-ad52-ced6e8c2502a","ios":"levelo://app?vid=a5aa6482-5579-4b3c-ad52-ced6e8c2502a"},"vehicle_type_id":"4","last_reported":1740855995,"current_range_meters":14000,"station_id":"ce4bhkp2rcd13ifvqgd0","pricing_plan_id":"cebpf4jnsgd1na2vs0mg"},{"bike_id":"76a9c493-87af-4f76-8427-270441870081","system_id":"levelo_inurba_marseille","lat":43.2862,"lon":5.35115,"is_reserved":false,"is_disabled":false,"rental_uris":{"android":"levelo://app?vid=76a9c493-87af-4f76-8427-270441870081","ios":"levelo://app?vid=76a9c493-87af-4f76-8427-270441870081"},"vehicle_type_id":"4","last_reported":1740855995,"current_range_meters":14400,"station_id":"ce4bhch2rcd13ifvqeug","pricing_plan_id":"cebpf4jnsgd1na2vs0mg"},{"bike_id":"218457ac-5064-4483-b256-7af7da02f0cd","system_id":"levelo_inurba_marseille","lat":43.27938,"lon":5.38678,"is_reserved":false,"is_disabled":true,"rental_uris":{"android":"levelo://app?vid=218457ac-5064-4483-b256-7af7da02f0cd","ios":"levelo://app?vid=218457ac-5064-4483-b256-7af7da02f0cd"},"vehicle_type_id":"4","last_reported":1740855995,"current_range_meters":14400,"station_id":"ce4bhg12rcd13ifvqf80","pricing_plan_id":"cebpf4jnsgd1na2vs0mg"},{"bike_id":"3f5697b9-4add-4531-ae0d-ef285d6d2520","system_id":"levelo_inurba_marseille","lat":43.29275,"lon":5.36845,"is_reserved":false,"is_disabled":false,"rental_uris":{"android":"levelo://app?vid=3f5697b9-4add-4531-ae0d-ef285d6d2520","ios":"levelo://app?vid=3f5697b9-4add-4531-ae0d-ef285d6d2520"},"vehicle_type_id":"4","last_reported":1740855995,"current_range_meters":14400,"station_id":"ce4bhbp2rcd13ifvqesg","pricing_plan_id":"cebpf4jnsgd1na2vs0mg"},{"bike_id":"f2d7cf94-2436-4fd3-8181-d05c4ed5ac59","system_id":"levelo_inurba_marseille","lat":43.31326,"lon":5.39695,"is_reserved":false,"is_disabled":false,"rental_uris":{"android":"levelo://app?vid=f2d7cf94-2436-4fd3-8181-d05c4ed5ac59","ios":"levelo://app?vid=f2d7cf94-2436-4fd3-8181-d05c4ed5ac59"},"vehicle_type_id":"4","last_reported":1740855995,"current_range_meters":14800,"station_id":"ce4bgvp2rcd13ifvqcu0","pricing_plan_id":"cebpf4jnsgd1na2vs0mg"},{"bike_id":"27d57ba8-cb2b-4da3-bcfc-1efd3956d0fa","system_id":"levelo_inurba_marseille","lat":43.29561,"lon":5.42299,"is_reserved":false,"is_disabled":false,"rental_uris":{"android":"levelo://app?vid=27d57ba8-cb2b-4da3-bcfc-1efd3956d0fa","ios":"levelo://app?vid=27d57ba8-cb2b-4da3-bcfc-1efd3956d0fa"},"vehicle_type_id":"4","last_reported":1740855995,"current_range_meters":14800,"station_id":"ce4bhph2rcd13ifvqhdg","pricing_plan_id":"cebpf4jnsgd1na2vs0mg"},{"bike_id":"0d32b7e9-733c-48e2-ab81-132efa92e887","system_id":"levelo_inurba_marseille","lat":43.30546,"lon":5.36546,"is_reserved":false,"is_disabled":false,"rental_uris":{"android":"levelo://app?vid=0d32b7e9-733c-48e2-ab81-132efa92e887","ios":"levelo://app?vid=0d32b7e9-733c-48e2-ab81-132efa92e887"},"vehicle_type_id":"4","last_reported":1740855995,"current_range_meters":14800,"station_id":"ce4bgs12rcd13ifvqcag","pricing_plan_id":"cebpf4jnsgd1na2vs0mg"},{"bike_id":"f1317508-b318-42b3-b6cc-485d3729a439","system_id":"levelo_inurba_marseille","lat":43.26226,"lon":5.37897,"is_reserved":false,"is_disabled":false,"rental_uris":{"android":"levelo://app?vid=f1317508-b318-42b3-b6cc-485d3729a439","ios":"levelo://app?vid=f1317508-b318-42b3-b6cc-485d3729a439"},"vehicle_type_id":"4","last_reported":1740855995,"current_range_meters":14800,"station_id":"ce4bhjp2rcd13ifvqg90","pricing_plan_id":"cebpf4jnsgd1na2vs0mg"},{"bike_id":"20d46fcb-4529-4896-b225-392c7b6d1f52","system_id":"levelo_inurba_marseille","lat":43.29181,"lon":5.39324,"is_reserved":false,"is_disabled":true,"rental_uris":{"android":"levelo://app?vid=20d46fcb-4529-4896-b225-392c7b6d1f52","ios":"levelo://app?vid=20d46fcb-4529-4896-b225-392c7b6d1f52"},"vehicle_type_id":"4","last_reported":1740855995,"current_range_meters":14800,"station_id":"ce4bh192rcd13ifvqdd0","pricing_plan_id":"cebpf4jnsgd1na2vs0mg"},{"bike_id":"55cd9d41-a7db-4ad2-b2fa-5f40a97efe68","system_id":"levelo_inurba_marseille","lat":43.31726,"lon":5.42394,"is_reserved":false,"is_disabled":false,"rental_uris":{"android":"levelo://app?vid=55cd9d41-a7db-4ad2-b2fa-5f40a97efe68","ios":"levelo://app?vid=55cd9d41-a7db-4ad2-b2fa-5f40a97efe68"},"vehicle_type_id":"4","last_reported":1740855995,"current_range_meters":15200,"station_id":"ce4bhp92rcd13ifvqhbg","pricing_plan_id":"cebpf4jnsgd1na2vs0mg"},{"bike_id":"1ea7a632-51c6-4bad-bf6d-ba2c50a0cffe","system_id":"levelo_inurba_marseille","lat":43.29299,"lon":5.37176,"is_reserved":false,"is_disabled":false,"rental_uris":{"android":"levelo://app?vid=1ea7a632-51c6-4bad-bf6d-ba2c50a0cffe","ios":"levelo://app?vid=1ea7a632-51c6-4bad-bf6d-ba2c50a0cffe"},"vehicle_type_id":"4","last_reported":1740855995,"current_range_meters":15200,"station_id":"ce4bgh92rcd13ifvqb40","pricing_plan_id":"cebpf4jnsgd1na2vs0mg"},{"bike_id":"4574d4c9-63f4-4000-9ac7-c1db590aaec7","system_id":"levelo_inurba_marseille","lat":43.29263,"lon":5.3843,"is_reserved":false,"is_disabled":false,"rental_uris":{"android":"levelo://app?vid=4574d4c9-63f4-4000-9ac7-c1db590aaec7","ios":"levelo://app?vid=4574d4c9-63f4-4000-9ac7-c1db590aaec7"},"vehicle_type_id":"4","last_reported":1740855995,"current_range_meters":15200,"station_id":"ce4bh692rcd13ifvqea0","pricing_plan_id":"cebpf4jnsgd1na2vs0mg"},{"bike_id":"e4a47d34-6558-4b5e-a7a1-035bc2169dc0","system_id":"levelo_inurba_marseille","lat":43.30608,"lon":5.37224,"is_reserved":false,"is_disabled":false,"rental_uris":{"android":"levelo://app?vid=e4a47d34-6558-4b5e-a7a1-035bc2169dc0","ios":"levelo://app?vid=e4a47d34-6558-4b5e-a7a1-035bc2169dc0"},"vehicle_type_id":"4","last_reported":1740855995,"current_range_meters":15200,"station_id":"ce4bgqh2rcd13ifvqc4g","pricing_plan_id":"cebpf4jnsgd1na2vs0mg"},{"bike_id":"256c5bcd-a812-4eef-b7c9-4012378e2d24","system_id":"levelo_inurba_marseille","lat":43.2928,"lon":5.36839,"is_reserved":false,"is_disabled":false,"rental_uris":{"android":"levelo://app?vid=256c5bcd-a812-4eef-b7c9-4012378e2d24","ios":"levelo://app?vid=256c5bcd-a812-4eef-b7c9-4012378e2d24"},"vehicle_type_id":"4","last_reported":1740855995,"current_range_meters":15200,"station_id":"ce4bhbp2rcd13ifvqesg","pricing_plan_id":"cebpf4jnsgd1na2vs0mg"},{"bike_id":"a5f64b14-3fee-4730-b597-dd02316d59aa","system_id":"levelo_inurba_marseille","lat":43.29077,"lon":5.37163,"is_reserved":false,"is_disabled":false,"rental_uris":{"android":"levelo://app?vid=a5f64b14-3fee-4730-b597-dd02316d59aa","ios":"levelo://app?vid=a5f64b14-3fee-4730-b597-dd02316d59aa"},"vehicle_type_id":"4","last_reported":1740855995,"current_range_meters":15200,"station_id":"ce4bh5p2rcd13ifvqe4g","pricing_plan_id":"cebpf4jnsgd1na2vs0mg"},{"bike_id":"bea35f6c-935e-4935-97f9-9ab9873c3b0b","system_id":"levelo_inurba_marseille","lat":43.28665,"lon":5.38658,"is_reserved":false,"is_disabled":false,"rental_uris":{"android":"levelo://app?vid=bea35f6c-935e-4935-97f9-9ab9873c3b0b","ios":"levelo://app?vid=bea35f6c-935e-4935-97f9-9ab9873c3b0b"},"vehicle_type_id":"4","last_reported":1740855995,"current_range_meters":16000,"station_id":"ce4bh492rcd13ifvqdug","pricing_plan_id":"cebpf4jnsgd1na2vs0mg"},{"bike_id":"28094c26-ebf7-4f10-9752-a86036fd897f","system_id":"levelo_inurba_marseille","lat":43.28426,"lon":5.34976,"is_reserved":false,"is_disabled":false,"rental_uris":{"android":"levelo://app?vid=28094c26-ebf7-4f10-9752-a86036fd897f","ios":"levelo://app?vid=28094c26-ebf7-4f10-9752-a86036fd897f"},"vehicle_type_id":"4","last_reported":1740855995,"current_range_meters":16000,"station_id":"ce4bhbh2rcd13ifvqepg","pricing_plan_id":"cebpf4jnsgd1na2vs0mg"},{"bike_id":"ed8bb562-d048-4d97-a62c-052cc210d3b2","system_id":"levelo_inurba_marseille","lat":43.31702,"lon":5.43702,"is_reserved":false,"is_disabled":false,"rental_uris":{"android":"levelo://app?vid=ed8bb562-d048-4d97-a62c-052cc210d3b2","ios":"levelo://app?vid=ed8bb562-d048-4d97-a62c-052cc210d3b2"},"vehicle_type_id":"4","last_reported":1740855995,"current_range_meters":16000,"station_id":"ce4bhp92rcd13ifvqhcg","pricing_plan_id":"cebpf4jnsgd1na2vs0mg"},{"bike_id":"d62205d3-e971-4410-8135-2b756e783391","system_id":"levelo_inurba_marseille","lat":43.2318,"lon":5.39983,"is_reserved":false,"is_disabled":false,"rental_uris":{"android":"levelo://app?vid=d62205d3-e971-4410-8135-2b756e783391","ios":"levelo://app?vid=d62205d3-e971-4410-8135-2b756e783391"},"vehicle_type_id":"4","last_reported":1740855995,"current_range_meters":16000,"station_id":"ce4bhn12rcd13ifvqgqg","pricing_plan_id":"cebpf4jnsgd1na2vs0mg"},{"bike_id":"f3ad00dc-3847-4960-884e-4246f65fa3c4","system_id":"levelo_inurba_marseille","lat":43.23189,"lon":5.4,"is_reserved":false,"is_disabled":false,"rental_uris":{"android":"levelo://app?vid=f3ad00dc-3847-4960-884e-4246f65fa3c4","ios":"levelo://app?vid=f3ad00dc-3847-4960-884e-4246f65fa3c4"},"vehicle_type_id":"4","last_reported":1740855995,"current_range_meters":16000,"station_id":"ce4bhn12rcd13ifvqgqg","pricing_plan_id":"cebpf4jnsgd1na2vs0mg"},{"bike_id":"59d7a272-679b-4e64-9999-2c649294dd61","system_id":"levelo_inurba_marseille","lat":43.27063,"lon":5.4226,"is_reserved":false,"is_disabled":false,"rental_uris":{"android":"levelo://app?vid=59d7a272-679b-4e64-9999-2c649294dd61","ios":"levelo://app?vid=59d7a272-679b-4e64-9999-2c649294dd61"},"vehicle_type_id":"4","last_reported":1740855995,"current_range_meters":16000,"station_id":"ce4bhk92rcd13ifvqgb0","pricing_plan_id":"cebpf4jnsgd1na2vs0mg"},{"bike_id":"448be146-7d8e-4cbb-94e4-c736335f2d30","system_id":"levelo_inurba_marseille","lat":43.28418,"lon":5.34995,"is_reserved":false,"is_disabled":false,"rental_uris":{"android":"levelo://app?vid=448be146-7d8e-4cbb-94e4-c736335f2d30","ios":"levelo://app?vid=448be146-7d8e-4cbb-94e4-c736335f2d30"},"vehicle_type_id":"4","last_reported":1740855995,"current_range_meters":16000,"station_id":"ce4bhbh2rcd13ifvqepg","pricing_plan_id":"cebpf4jnsgd1na2vs0mg"},{"bike_id":"abdce9a5-165a-430d-93c6-b1980bc72eea","system_id":"levelo_inurba_marseille","lat":43.31325,"lon":5.39695,"is_reserved":false,"is_disabled":false,"rental_uris":{"android":"levelo://app?vid=abdce9a5-165a-430d-93c6-b1980bc72eea","ios":"levelo://app?vid=abdce9a5-165a-430d-93c6-b1980bc72eea"},"vehicle_type_id":"4","last_reported":1740855995,"current_range_meters":16000,"station_id":"ce4bgvp2rcd13ifvqcu0","pricing_plan_id":"cebpf4jnsgd1na2vs0mg"},{"bike_id":"01af45f0-40f6-4dbb-8674-926a2ca03f64","system_id":"levelo_inurba_marseille","lat":43.29043,"lon":5.37483,"is_reserved":false,"is_disabled":false,"rental_uris":{"android":"levelo://app?vid=01af45f0-40f6-4dbb-8674-926a2ca03f64","ios":"levelo://app?vid=01af45f0-40f6-4dbb-8674-926a2ca03f64"},"vehicle_type_id":"4","last_reported":1740855995,"current_range_meters":16000,"station_id":"","pricing_plan_id":"cebpf4jnsgd1na2vs0mg"},{"bike_id":"e4aac1b1-835a-4679-bef8-2d57e180562a","system_id":"levelo_inurba_marseille","lat":43.26762,"lon":5.39466,"is_reserved":false,"is_disabled":false,"rental_uris":{"android":"levelo://app?vid=e4aac1b1-835a-4679-bef8-2d57e180562a","ios":"levelo://app?vid=e4aac1b1-835a-4679-bef8-2d57e180562a"},"vehicle_type_id":"4","last_reported":1740855995,"current_range_meters":16000,"station_id":"ce4bhh12rcd13ifvqfg0","pricing_plan_id":"cebpf4jnsgd1na2vs0mg"},{"bike_id":"c272f144-1302-4356-8d7d-046dcce3b360","system_id":"levelo_inurba_marseille","lat":43.26211,"lon":5.37942,"is_reserved":false,"is_disabled":false,"rental_uris":{"android":"levelo://app?vid=c272f144-1302-4356-8d7d-046dcce3b360","ios":"levelo://app?vid=c272f144-1302-4356-8d7d-046dcce3b360"},"vehicle_type_id":"4","last_reported":1740855995,"current_range_meters":16000,"station_id":"ce4bhjp2rcd13ifvqg90","pricing_plan_id":"cebpf4jnsgd1na2vs0mg"},{"bike_id":"e2b1a97c-05f9-4994-8c76-5c4c26614832","system_id":"levelo_inurba_marseille","lat":43.2656,"lon":5.37321,"is_reserved":false,"is_disabled":false,"rental_uris":{"android":"levelo://app?vid=e2b1a97c-05f9-4994-8c76-5c4c26614832","ios":"levelo://app?vid=e2b1a97c-05f9-4994-8c76-5c4c26614832"},"vehicle_type_id":"4","last_reported":1740855995,"current_range_meters":16400,"station_id":"ce4bhg12rcd13ifvqf70","pricing_plan_id":"cebpf4jnsgd1na2vs0mg"},{"bike_id":"badd0b82-6b48-41c9-bfbe-17d9453893b8","system_id":"levelo_inurba_marseille","lat":43.29262,"lon":5.37595,"is_reserved":false,"is_disabled":false,"rental_uris":{"android":"levelo://app?vid=badd0b82-6b48-41c9-bfbe-17d9453893b8","ios":"levelo://app?vid=badd0b82-6b48-41c9-bfbe-17d9453893b8"},"vehicle_type_id":"4","last_reported":1740855995,"current_range_meters":16400,"station_id":"ce4bgi12rcd13ifvqb80","pricing_plan_id":"cebpf4jnsgd1na2vs0mg"},{"bike_id":"953cc1e5-7e17-4c1d-b0f2-bff801d3a91c","system_id":"levelo_inurba_marseille","lat":43.29258,"lon":5.38451,"is_reserved":false,"is_disabled":true,"rental_uris":{"android":"levelo://app?vid=953cc1e5-7e17-4c1d-b0f2-bff801d3a91c","ios":"levelo://app?vid=953cc1e5-7e17-4c1d-b0f2-bff801d3a91c"},"vehicle_type_id":"4","last_reported":1740855995,"current_range_meters":16400,"station_id":"ce4bh692rcd13ifvqea0","pricing_plan_id":"cebpf4jnsgd1na2vs0mg"},{"bike_id":"1ff34d4d-5de2-4d1c-a6dc-bf8261c720e1","system_id":"levelo_inurba_marseille","lat":43.27916,"lon":5.39591,"is_reserved":false,"is_disabled":false,"rental_uris":{"android":"levelo://app?vid=1ff34d4d-5de2-4d1c-a6dc-bf8261c720e1","ios":"levelo://app?vid=1ff34d4d-5de2-4d1c-a6dc-bf8261c720e1"},"vehicle_type_id":"4","last_reported":1740855995,"current_range_meters":16400,"station_id":"ce4bhf92rcd13ifvqf40","pricing_plan_id":"cebpf4jnsgd1na2vs0mg"},{"bike_id":"671ccf8a-3e46-43c4-bd76-4373d8752478","system_id":"levelo_inurba_marseille","lat":43.29244,"lon":5.38462,"is_reserved":false,"is_disabled":false,"rental_uris":{"android":"levelo://app?vid=671ccf8a-3e46-43c4-bd76-4373d8752478","ios":"levelo://app?vid=671ccf8a-3e46-43c4-bd76-4373d8752478"},"vehicle_type_id":"4","last_reported":1740855995,"current_range_meters":16400,"station_id":"ce4bh692rcd13ifvqea0","pricing_plan_id":"cebpf4jnsgd1na2vs0mg"},{"bike_id":"49645587-4897-47af-80cb-ea0df5af90cc","system_id":"levelo_inurba_marseille","lat":43.26226,"lon":5.37421,"is_reserved":false,"is_disabled":false,"rental_uris":{"android":"levelo://app?vid=49645587-4897-47af-80cb-ea0df5af90cc","ios":"levelo://app?vid=49645587-4897-47af-80cb-ea0df5af90cc"},"vehicle_type_id":"4","last_reported":1740855995,"current_range_meters":16400,"station_id":"","pricing_plan_id":"cebpf4jnsgd1na2vs0mg"},{"bike_id":"108f28dc-1ae4-4848-8724-5972674773e6","system_id":"levelo_inurba_marseille","lat":43.24391,"lon":5.37062,"is_reserved":false,"is_disabled":false,"rental_uris":{"android":"levelo://app?vid=108f28dc-1ae4-4848-8724-5972674773e6","ios":"levelo://app?vid=108f28dc-1ae4-4848-8724-5972674773e6"},"vehicle_type_id":"4","last_reported":1740855995,"current_range_meters":16400,"station_id":"ce4bhhh2rcd13ifvqfk0","pricing_plan_id":"cebpf4jnsgd1na2vs0mg"},{"bike_id":"3d3e1218-9db2-47a8-a44c-42be77ca5680","system_id":"levelo_inurba_marseille","lat":43.29294,"lon":5.36851,"is_reserved":false,"is_disabled":false,"rental_uris":{"android":"levelo://app?vid=3d3e1218-9db2-47a8-a44c-42be77ca5680","ios":"levelo://app?vid=3d3e1218-9db2-47a8-a44c-42be77ca5680"},"vehicle_type_id":"4","last_reported":1740855995,"current_range_meters":16400,"station_id":"ce4bhbp2rcd13ifvqesg","pricing_plan_id":"cebpf4jnsgd1na2vs0mg"},{"bike_id":"5abf9b24-130d-48f8-9a73-cdc9ea141170","system_id":"levelo_inurba_marseille","lat":43.30143,"lon":5.3807,"is_reserved":false,"is_disabled":false,"rental_uris":{"android":"levelo://app?vid=5abf9b24-130d-48f8-9a73-cdc9ea141170","ios":"levelo://app?vid=5abf9b24-130d-48f8-9a73-cdc9ea141170"},"vehicle_type_id":"4","last_reported":1740855995,"current_range_meters":16400,"station_id":"ce4bgjp2rcd13ifvqbh0","pricing_plan_id":"cebpf4jnsgd1na2vs0mg"},{"bike_id":"3c9c65ff-a2a8-4c52-a6f4-62bcc77556ef","system_id":"levelo_inurba_marseille","lat":43.24154,"lon":5.36403,"is_reserved":false,"is_disabled":false,"rental_uris":{"android":"levelo://app?vid=3c9c65ff-a2a8-4c52-a6f4-62bcc77556ef","ios":"levelo://app?vid=3c9c65ff-a2a8-4c52-a6f4-62bcc77556ef"},"vehicle_type_id":"4","last_reported":1740855995,"current_range_meters":16400,"station_id":"cpo36qri1sfpv3e86is0","pricing_plan_id":"cebpf4jnsgd1na2vs0mg"},{"bike_id":"5a6c5c08-7531-42ae-9090-f417135aedae","system_id":"levelo_inurba_marseille","lat":43.29567,"lon":5.39964,"is_reserved":false,"is_disabled":false,"rental_uris":{"android":"levelo://app?vid=5a6c5c08-7531-42ae-9090-f417135aedae","ios":"levelo://app?vid=5a6c5c08-7531-42ae-9090-f417135aedae"},"vehicle_type_id":"4","last_reported":1740855995,"current_range_meters":16800,"station_id":"ce4bh312rcd13ifvqdj0","pricing_plan_id":"cebpf4jnsgd1na2vs0mg"},{"bike_id":"c55a2b5f-0954-4e06-bb68-763b7bf2d253","system_id":"levelo_inurba_marseille","lat":43.31364,"lon":5.36719,"is_reserved":false,"is_disabled":false,"rental_uris":{"android":"levelo://app?vid=c55a2b5f-0954-4e06-bb68-763b7bf2d253","ios":"levelo://app?vid=c55a2b5f-0954-4e06-bb68-763b7bf2d253"},"vehicle_type_id":"4","last_reported":1740855995,"current_range_meters":16800,"station_id":"ce4bgr92rcd13ifvqc6g","pricing_plan_id":"cebpf4jnsgd1na2vs0mg"},{"bike_id":"620a5eb3-daee-44ad-a3ba-f984dc8c768a","system_id":"levelo_inurba_marseille","lat":43.30188,"lon":5.36613,"is_reserved":false,"is_disabled":true,"rental_uris":{"android":"levelo://app?vid=620a5eb3-daee-44ad-a3ba-f984dc8c768a","ios":"levelo://app?vid=620a5eb3-daee-44ad-a3ba-f984dc8c768a"},"vehicle_type_id":"4","last_reported":1740855995,"current_range_meters":16800,"station_id":"ce4bgrh2rcd13ifvqc8g","pricing_plan_id":"cebpf4jnsgd1na2vs0mg"},{"bike_id":"e07db3e3-7e0a-4f21-9f30-827f957bfb41","system_id":"levelo_inurba_marseille","lat":43.28677,"lon":5.38682,"is_reserved":false,"is_disabled":false,"rental_uris":{"android":"levelo://app?vid=e07db3e3-7e0a-4f21-9f30-827f957bfb41","ios":"levelo://app?vid=e07db3e3-7e0a-4f21-9f30-827f957bfb41"},"vehicle_type_id":"4","last_reported":1740855995,"current_range_meters":16800,"station_id":"ce4bh492rcd13ifvqdug","pricing_plan_id":"cebpf4jnsgd1na2vs0mg"},{"bike_id":"9e5520b4-bf3a-4c93-8806-f068ef30cd9f","system_id":"levelo_inurba_marseille","lat":43.27383,"lon":5.36256,"is_reserved":false,"is_disabled":false,"rental_uris":{"android":"levelo://app?vid=9e5520b4-bf3a-4c93-8806-f068ef30cd9f","ios":"levelo://app?vid=9e5520b4-bf3a-4c93-8806-f068ef30cd9f"},"vehicle_type_id":"4","last_reported":1740855995,"current_range_meters":16800,"station_id":"ce4bhbh2rcd13ifvqeo0","pricing_plan_id":"cebpf4jnsgd1na2vs0mg"},{"bike_id":"d0338d15-401f-4f02-ad15-e1eebf71fa48","system_id":"levelo_inurba_marseille","lat":43.29599,"lon":5.38078,"is_reserved":false,"is_disabled":false,"rental_uris":{"android":"levelo://app?vid=d0338d15-401f-4f02-ad15-e1eebf71fa48","ios":"levelo://app?vid=d0338d15-401f-4f02-ad15-e1eebf71fa48"},"vehicle_type_id":"4","last_reported":1740855995,"current_range_meters":16800,"station_id":"ce4bgl12rcd13ifvqbo0","pricing_plan_id":"cebpf4jnsgd1na2vs0mg"},{"bike_id":"1a19f09d-0b6a-4b64-9d93-aa6bb1c37f46","system_id":"levelo_inurba_marseille","lat":43.29601,"lon":5.38101,"is_reserved":false,"is_disabled":false,"rental_uris":{"android":"levelo://app?vid=1a19f09d-0b6a-4b64-9d93-aa6bb1c37f46","ios":"levelo://app?vid=1a19f09d-0b6a-4b64-9d93-aa6bb1c37f46"},"vehicle_type_id":"4","last_reported":1740855995,"current_range_meters":16800,"station_id":"ce4bgl12rcd13ifvqbo0","pricing_plan_id":"cebpf4jnsgd1na2vs0mg"},{"bike_id":"8c528749-43df-40d6-b9b4-e80d7e8bda23","system_id":"levelo_inurba_marseille","lat":43.26553,"lon":5.37284,"is_reserved":false,"is_disabled":false,"rental_uris":{"android":"levelo://app?vid=8c528749-43df-40d6-b9b4-e80d7e8bda23","ios":"levelo://app?vid=8c528749-43df-40d6-b9b4-e80d7e8bda23"},"vehicle_type_id":"4","last_reported":1740855995,"current_range_meters":16800,"station_id":"ce4bhg12rcd13ifvqf70","pricing_plan_id":"cebpf4jnsgd1na2vs0mg"},{"bike_id":"76d58a2e-82e7-4e1d-a98f-c6152e9b38bc","system_id":"levelo_inurba_marseille","lat":43.27317,"lon":5.39088,"is_reserved":false,"is_disabled":false,"rental_uris":{"android":"levelo://app?vid=76d58a2e-82e7-4e1d-a98f-c6152e9b38bc","ios":"levelo://app?vid=76d58a2e-82e7-4e1d-a98f-c6152e9b38bc"},"vehicle_type_id":"4","last_reported":1740855995,"current_range_meters":16800,"station_id":"ce4bhgp2rcd13ifvqfe0","pricing_plan_id":"cebpf4jnsgd1na2vs0mg"},{"bike_id":"905eedcf-e019-4fba-9805-54fac3cf5bf4","system_id":"levelo_inurba_marseille","lat":43.30596,"lon":5.3723,"is_reserved":false,"is_disabled":false,"rental_uris":{"android":"levelo://app?vid=905eedcf-e019-4fba-9805-54fac3cf5bf4","ios":"levelo://app?vid=905eedcf-e019-4fba-9805-54fac3cf5bf4"},"vehicle_type_id":"4","last_reported":1740855995,"current_range_meters":16800,"station_id":"ce4bgqh2rcd13ifvqc4g","pricing_plan_id":"cebpf4jnsgd1na2vs0mg"},{"bike_id":"03f102ca-7771-4c46-9959-1d5bc7938eae","system_id":"levelo_inurba_marseille","lat":43.33023,"lon":5.39044,"is_reserved":false,"is_disabled":false,"rental_uris":{"android":"levelo://app?vid=03f102ca-7771-4c46-9959-1d5bc7938eae","ios":"levelo://app?vid=03f102ca-7771-4c46-9959-1d5bc7938eae"},"vehicle_type_id":"4","last_reported":1740855995,"current_range_meters":16400,"station_id":"ce4bhr92rcd13ifvqhrg","pricing_plan_id":"cebpf4jnsgd1na2vs0mg"},{"bike_id":"7b91e40e-f4ca-4ff7-90c0-5fc487711818","system_id":"levelo_inurba_marseille","lat":43.28355,"lon":5.38106,"is_reserved":false,"is_disabled":false,"rental_uris":{"android":"levelo://app?vid=7b91e40e-f4ca-4ff7-90c0-5fc487711818","ios":"levelo://app?vid=7b91e40e-f4ca-4ff7-90c0-5fc487711818"},"vehicle_type_id":"4","last_reported":1740855995,"current_range_meters":17200,"station_id":"ce4bh412rcd13ifvqdr0","pricing_plan_id":"cebpf4jnsgd1na2vs0mg"},{"bike_id":"f8774b53-6aad-4c74-8fcb-de09dc38caee","system_id":"levelo_inurba_marseille","lat":43.27389,"lon":5.36262,"is_reserved":false,"is_disabled":true,"rental_uris":{"android":"levelo://app?vid=f8774b53-6aad-4c74-8fcb-de09dc38caee","ios":"levelo://app?vid=f8774b53-6aad-4c74-8fcb-de09dc38caee"},"vehicle_type_id":"4","last_reported":1740855995,"current_range_meters":17200,"station_id":"ce4bhbh2rcd13ifvqeo0","pricing_plan_id":"cebpf4jnsgd1na2vs0mg"},{"bike_id":"91470621-d7b5-4632-8189-89cd0fb32d4a","system_id":"levelo_inurba_marseille","lat":43.29279,"lon":5.36847,"is_reserved":false,"is_disabled":false,"rental_uris":{"android":"levelo://app?vid=91470621-d7b5-4632-8189-89cd0fb32d4a","ios":"levelo://app?vid=91470621-d7b5-4632-8189-89cd0fb32d4a"},"vehicle_type_id":"4","last_reported":1740855995,"current_range_meters":17200,"station_id":"ce4bhbp2rcd13ifvqesg","pricing_plan_id":"cebpf4jnsgd1na2vs0mg"},{"bike_id":"57cd94f2-e7d7-48fa-948e-308f17077047","system_id":"levelo_inurba_marseille","lat":43.29077,"lon":5.38157,"is_reserved":false,"is_disabled":false,"rental_uris":{"android":"levelo://app?vid=57cd94f2-e7d7-48fa-948e-308f17077047","ios":"levelo://app?vid=57cd94f2-e7d7-48fa-948e-308f17077047"},"vehicle_type_id":"4","last_reported":1740855995,"current_range_meters":17200,"station_id":"ce4bh512rcd13ifvqe2g","pricing_plan_id":"cebpf4jnsgd1na2vs0mg"},{"bike_id":"73022eae-0e6a-4873-bca7-f9caf82bcade","system_id":"levelo_inurba_marseille","lat":43.28431,"lon":5.35002,"is_reserved":false,"is_disabled":false,"rental_uris":{"android":"levelo://app?vid=73022eae-0e6a-4873-bca7-f9caf82bcade","ios":"levelo://app?vid=73022eae-0e6a-4873-bca7-f9caf82bcade"},"vehicle_type_id":"4","last_reported":1740855995,"current_range_meters":17200,"station_id":"ce4bhbh2rcd13ifvqepg","pricing_plan_id":"cebpf4jnsgd1na2vs0mg"},{"bike_id":"04021774-e3f3-45f5-a094-97d71f70a1e8","system_id":"levelo_inurba_marseille","lat":43.30147,"lon":5.37414,"is_reserved":false,"is_disabled":false,"rental_uris":{"android":"levelo://app?vid=04021774-e3f3-45f5-a094-97d71f70a1e8","ios":"levelo://app?vid=04021774-e3f3-45f5-a094-97d71f70a1e8"},"vehicle_type_id":"4","last_reported":1740855995,"current_range_meters":17200,"station_id":"ce4bgs92rcd13ifvqcc0","pricing_plan_id":"cebpf4jnsgd1na2vs0mg"},{"bike_id":"e03517ba-1a18-49bb-84b4-fddfeeba135b","system_id":"levelo_inurba_marseille","lat":43.23182,"lon":5.39986,"is_reserved":false,"is_disabled":false,"rental_uris":{"android":"levelo://app?vid=e03517ba-1a18-49bb-84b4-fddfeeba135b","ios":"levelo://app?vid=e03517ba-1a18-49bb-84b4-fddfeeba135b"},"vehicle_type_id":"4","last_reported":1740855995,"current_range_meters":17600,"station_id":"ce4bhn12rcd13ifvqgqg","pricing_plan_id":"cebpf4jnsgd1na2vs0mg"},{"bike_id":"ff6e3c92-a910-438d-a0ff-0f167d72ca37","system_id":"levelo_inurba_marseille","lat":43.2845,"lon":5.35898,"is_reserved":false,"is_disabled":false,"rental_uris":{"android":"levelo://app?vid=ff6e3c92-a910-438d-a0ff-0f167d72ca37","ios":"levelo://app?vid=ff6e3c92-a910-438d-a0ff-0f167d72ca37"},"vehicle_type_id":"4","last_reported":1740855995,"current_range_meters":17600,"station_id":"ce4bhah2rcd13ifvqei0","pricing_plan_id":"cebpf4jnsgd1na2vs0mg"},{"bike_id":"048ed5c8-0402-4cc6-b32c-bc70026d156b","system_id":"levelo_inurba_marseille","lat":43.29281,"lon":5.36838,"is_reserved":false,"is_disabled":false,"rental_uris":{"android":"levelo://app?vid=048ed5c8-0402-4cc6-b32c-bc70026d156b","ios":"levelo://app?vid=048ed5c8-0402-4cc6-b32c-bc70026d156b"},"vehicle_type_id":"4","last_reported":1740855995,"current_range_meters":17600,"station_id":"ce4bhbp2rcd13ifvqesg","pricing_plan_id":"cebpf4jnsgd1na2vs0mg"},{"bike_id":"96090500-e92b-4618-a8ce-3e71815df01c","system_id":"levelo_inurba_marseille","lat":43.31074,"lon":5.38257,"is_reserved":false,"is_disabled":false,"rental_uris":{"android":"levelo://app?vid=96090500-e92b-4618-a8ce-3e71815df01c","ios":"levelo://app?vid=96090500-e92b-4618-a8ce-3e71815df01c"},"vehicle_type_id":"4","last_reported":1740855995,"current_range_meters":17600,"station_id":"","pricing_plan_id":"cebpf4jnsgd1na2vs0mg"},{"bike_id":"82ce3d8e-f85f-4f5a-a45f-96b5ebaa8cc4","system_id":"levelo_inurba_marseille","lat":43.29617,"lon":5.37185,"is_reserved":false,"is_disabled":false,"rental_uris":{"android":"levelo://app?vid=82ce3d8e-f85f-4f5a-a45f-96b5ebaa8cc4","ios":"levelo://app?vid=82ce3d8e-f85f-4f5a-a45f-96b5ebaa8cc4"},"vehicle_type_id":"4","last_reported":1740855995,"current_range_meters":17600,"station_id":"ce4bgnh2rcd13ifvqc0g","pricing_plan_id":"cebpf4jnsgd1na2vs0mg"},{"bike_id":"1296fdc9-92b3-4b5b-b71d-44efde6c37d5","system_id":"levelo_inurba_marseille","lat":43.29529,"lon":5.3855,"is_reserved":false,"is_disabled":false,"rental_uris":{"android":"levelo://app?vid=1296fdc9-92b3-4b5b-b71d-44efde6c37d5","ios":"levelo://app?vid=1296fdc9-92b3-4b5b-b71d-44efde6c37d5"},"vehicle_type_id":"4","last_reported":1740855995,"current_range_meters":18000,"station_id":"ce4bgih2rcd13ifvqba0","pricing_plan_id":"cebpf4jnsgd1na2vs0mg"},{"bike_id":"d0a0d08e-79c4-4ebf-b1c4-1349b845fa37","system_id":"levelo_inurba_marseille","lat":43.30904,"lon":5.36845,"is_reserved":false,"is_disabled":false,"rental_uris":{"android":"levelo://app?vid=d0a0d08e-79c4-4ebf-b1c4-1349b845fa37","ios":"levelo://app?vid=d0a0d08e-79c4-4ebf-b1c4-1349b845fa37"},"vehicle_type_id":"4","last_reported":1740855995,"current_range_meters":18000,"station_id":"ce4bgn92rcd13ifvqbvg","pricing_plan_id":"cebpf4jnsgd1na2vs0mg"},{"bike_id":"ac179dc8-c007-4192-8231-1712dffa8b94","system_id":"levelo_inurba_marseille","lat":43.29306,"lon":5.3716,"is_reserved":false,"is_disabled":false,"rental_uris":{"android":"levelo://app?vid=ac179dc8-c007-4192-8231-1712dffa8b94","ios":"levelo://app?vid=ac179dc8-c007-4192-8231-1712dffa8b94"},"vehicle_type_id":"4","last_reported":1740855995,"current_range_meters":20400,"station_id":"ce4bgh92rcd13ifvqb40","pricing_plan_id":"cebpf4jnsgd1na2vs0mg"},{"bike_id":"2e1f3441-09c9-482c-9bca-6d7de0773985","system_id":"levelo_inurba_marseille","lat":43.313258,"lon":5.39694,"is_reserved":false,"is_disabled":false,"rental_uris":{"android":"levelo://app?vid=2e1f3441-09c9-482c-9bca-6d7de0773985","ios":"levelo://app?vid=2e1f3441-09c9-482c-9bca-6d7de0773985"},"vehicle_type_id":"4","last_reported":1740855995,"current_range_meters":18000,"station_id":"ce4bgvp2rcd13ifvqcu0","pricing_plan_id":"cebpf4jnsgd1na2vs0mg"},{"bike_id":"18ed809a-93be-4ceb-a90d-b4661309b51d","system_id":"levelo_inurba_marseille","lat":43.30946,"lon":5.37418,"is_reserved":false,"is_disabled":false,"rental_uris":{"android":"levelo://app?vid=18ed809a-93be-4ceb-a90d-b4661309b51d","ios":"levelo://app?vid=18ed809a-93be-4ceb-a90d-b4661309b51d"},"vehicle_type_id":"4","last_reported":1740855995,"current_range_meters":18800,"station_id":"","pricing_plan_id":"cebpf4jnsgd1na2vs0mg"},{"bike_id":"606bdd66-5162-4f4c-bf53-fba710dcc40d","system_id":"levelo_inurba_marseille","lat":43.24397,"lon":5.37078,"is_reserved":false,"is_disabled":true,"rental_uris":{"android":"levelo://app?vid=606bdd66-5162-4f4c-bf53-fba710dcc40d","ios":"levelo://app?vid=606bdd66-5162-4f4c-bf53-fba710dcc40d"},"vehicle_type_id":"4","last_reported":1740855995,"current_range_meters":18800,"station_id":"ce4bhhh2rcd13ifvqfk0","pricing_plan_id":"cebpf4jnsgd1na2vs0mg"},{"bike_id":"d66b749a-0808-469e-b143-0787b08d816b","system_id":"levelo_inurba_marseille","lat":43.26209,"lon":5.37438,"is_reserved":false,"is_disabled":false,"rental_uris":{"android":"levelo://app?vid=d66b749a-0808-469e-b143-0787b08d816b","ios":"levelo://app?vid=d66b749a-0808-469e-b143-0787b08d816b"},"vehicle_type_id":"4","last_reported":1740855995,"current_range_meters":18800,"station_id":"ce4bhgp2rcd13ifvqfc0","pricing_plan_id":"cebpf4jnsgd1na2vs0mg"},{"bike_id":"0ef53640-d017-41fd-9253-5a11c3b9ca62","system_id":"levelo_inurba_marseille","lat":43.28477,"lon":5.38402,"is_reserved":false,"is_disabled":false,"rental_uris":{"android":"levelo://app?vid=0ef53640-d017-41fd-9253-5a11c3b9ca62","ios":"levelo://app?vid=0ef53640-d017-41fd-9253-5a11c3b9ca62"},"vehicle_type_id":"4","last_reported":1740855995,"current_range_meters":18800,"station_id":"ce4bh512rcd13ifvqe3g","pricing_plan_id":"cebpf4jnsgd1na2vs0mg"},{"bike_id":"be3e7718-6dfd-4a6a-bfbb-7bffed2b3bb6","system_id":"levelo_inurba_marseille","lat":43.28465,"lon":5.35886,"is_reserved":false,"is_disabled":false,"rental_uris":{"android":"levelo://app?vid=be3e7718-6dfd-4a6a-bfbb-7bffed2b3bb6","ios":"levelo://app?vid=be3e7718-6dfd-4a6a-bfbb-7bffed2b3bb6"},"vehicle_type_id":"4","last_reported":1740855995,"current_range_meters":18000,"station_id":"ce4bhah2rcd13ifvqei0","pricing_plan_id":"cebpf4jnsgd1na2vs0mg"},{"bike_id":"649829b2-c1cd-427e-8261-58cadc14e1d8","system_id":"levelo_inurba_marseille","lat":43.27375,"lon":5.36255,"is_reserved":false,"is_disabled":false,"rental_uris":{"android":"levelo://app?vid=649829b2-c1cd-427e-8261-58cadc14e1d8","ios":"levelo://app?vid=649829b2-c1cd-427e-8261-58cadc14e1d8"},"vehicle_type_id":"4","last_reported":1740855995,"current_range_meters":18800,"station_id":"ce4bhbh2rcd13ifvqeo0","pricing_plan_id":"cebpf4jnsgd1na2vs0mg"},{"bike_id":"ecd235a2-35f0-4db7-b394-17a0733accda","system_id":"levelo_inurba_marseille","lat":43.31119,"lon":5.38851,"is_reserved":false,"is_disabled":false,"rental_uris":{"android":"levelo://app?vid=ecd235a2-35f0-4db7-b394-17a0733accda","ios":"levelo://app?vid=ecd235a2-35f0-4db7-b394-17a0733accda"},"vehicle_type_id":"4","last_reported":1740855995,"current_range_meters":18800,"station_id":"","pricing_plan_id":"cebpf4jnsgd1na2vs0mg"},{"bike_id":"c5b35fc3-133b-4fcd-9bc1-000b1b46221f","system_id":"levelo_inurba_marseille","lat":43.241631,"lon":5.363998,"is_reserved":false,"is_disabled":false,"rental_uris":{"android":"levelo://app?vid=c5b35fc3-133b-4fcd-9bc1-000b1b46221f","ios":"levelo://app?vid=c5b35fc3-133b-4fcd-9bc1-000b1b46221f"},"vehicle_type_id":"4","last_reported":1740855995,"current_range_meters":19200,"station_id":"cpo36qri1sfpv3e86is0","pricing_plan_id":"cebpf4jnsgd1na2vs0mg"},{"bike_id":"065424a0-bcf9-4cf7-ba75-1479728388b3","system_id":"levelo_inurba_marseille","lat":43.30435,"lon":5.38898,"is_reserved":false,"is_disabled":false,"rental_uris":{"android":"levelo://app?vid=065424a0-bcf9-4cf7-ba75-1479728388b3","ios":"levelo://app?vid=065424a0-bcf9-4cf7-ba75-1479728388b3"},"vehicle_type_id":"4","last_reported":1740855995,"current_range_meters":19200,"station_id":"ce4bgk12rcd13ifvqbi0","pricing_plan_id":"cebpf4jnsgd1na2vs0mg"},{"bike_id":"e1ca5680-f829-4f7f-8ad0-c95921ad1f3b","system_id":"levelo_inurba_marseille","lat":43.27829,"lon":5.39205,"is_reserved":false,"is_disabled":false,"rental_uris":{"android":"levelo://app?vid=e1ca5680-f829-4f7f-8ad0-c95921ad1f3b","ios":"levelo://app?vid=e1ca5680-f829-4f7f-8ad0-c95921ad1f3b"},"vehicle_type_id":"4","last_reported":1740855995,"current_range_meters":18800,"station_id":"ce4bhjp2rcd13ifvqga0","pricing_plan_id":"cebpf4jnsgd1na2vs0mg"},{"bike_id":"35de5d9e-453d-4b6e-a49a-d72de279088a","system_id":"levelo_inurba_marseille","lat":43.26186,"lon":5.37473,"is_reserved":false,"is_disabled":false,"rental_uris":{"android":"levelo://app?vid=35de5d9e-453d-4b6e-a49a-d72de279088a","ios":"levelo://app?vid=35de5d9e-453d-4b6e-a49a-d72de279088a"},"vehicle_type_id":"4","last_reported":1740855995,"current_range_meters":19200,"station_id":"ce4bhgp2rcd13ifvqfc0","pricing_plan_id":"cebpf4jnsgd1na2vs0mg"},{"bike_id":"ba3ffe84-718e-4c4f-8c48-5b233fda7ffb","system_id":"levelo_inurba_marseille","lat":43.29795,"lon":5.38112,"is_reserved":false,"is_disabled":false,"rental_uris":{"android":"levelo://app?vid=ba3ffe84-718e-4c4f-8c48-5b233fda7ffb","ios":"levelo://app?vid=ba3ffe84-718e-4c4f-8c48-5b233fda7ffb"},"vehicle_type_id":"4","last_reported":1740855995,"current_range_meters":19200,"station_id":"ce4bgnh2rcd13ifvqc0g","pricing_plan_id":"cebpf4jnsgd1na2vs0mg"},{"bike_id":"cc9351c4-7429-4314-a267-2e490567aafb","system_id":"levelo_inurba_marseille","lat":43.2931,"lon":5.37171,"is_reserved":false,"is_disabled":false,"rental_uris":{"android":"levelo://app?vid=cc9351c4-7429-4314-a267-2e490567aafb","ios":"levelo://app?vid=cc9351c4-7429-4314-a267-2e490567aafb"},"vehicle_type_id":"4","last_reported":1740855995,"current_range_meters":19200,"station_id":"ce4bgh92rcd13ifvqb40","pricing_plan_id":"cebpf4jnsgd1na2vs0mg"},{"bike_id":"a232154e-04e4-43f3-8aad-b4ea50c9ee35","system_id":"levelo_inurba_marseille","lat":43.3014,"lon":5.37415,"is_reserved":false,"is_disabled":false,"rental_uris":{"android":"levelo://app?vid=a232154e-04e4-43f3-8aad-b4ea50c9ee35","ios":"levelo://app?vid=a232154e-04e4-43f3-8aad-b4ea50c9ee35"},"vehicle_type_id":"4","last_reported":1740855995,"current_range_meters":19200,"station_id":"ce4bgs92rcd13ifvqcc0","pricing_plan_id":"cebpf4jnsgd1na2vs0mg"},{"bike_id":"3cf39e80-44f4-48a5-b674-da9fd0e1b66d","system_id":"levelo_inurba_marseille","lat":43.29576,"lon":5.37524,"is_reserved":false,"is_disabled":false,"rental_uris":{"android":"levelo://app?vid=3cf39e80-44f4-48a5-b674-da9fd0e1b66d","ios":"levelo://app?vid=3cf39e80-44f4-48a5-b674-da9fd0e1b66d"},"vehicle_type_id":"4","last_reported":1740855995,"current_range_meters":19200,"station_id":"ce4bgh92rcd13ifvqb50","pricing_plan_id":"cebpf4jnsgd1na2vs0mg"},{"bike_id":"489d0402-f617-4851-bace-1a9acc20825c","system_id":"levelo_inurba_marseille","lat":43.29097,"lon":5.38148,"is_reserved":false,"is_disabled":false,"rental_uris":{"android":"levelo://app?vid=489d0402-f617-4851-bace-1a9acc20825c","ios":"levelo://app?vid=489d0402-f617-4851-bace-1a9acc20825c"},"vehicle_type_id":"4","last_reported":1740855995,"current_range_meters":19200,"station_id":"ce4bh512rcd13ifvqe2g","pricing_plan_id":"cebpf4jnsgd1na2vs0mg"},{"bike_id":"40bf705d-275a-4fb0-88f4-318afdf6579a","system_id":"levelo_inurba_marseille","lat":43.28374,"lon":5.38628,"is_reserved":false,"is_disabled":false,"rental_uris":{"android":"levelo://app?vid=40bf705d-275a-4fb0-88f4-318afdf6579a","ios":"levelo://app?vid=40bf705d-275a-4fb0-88f4-318afdf6579a"},"vehicle_type_id":"4","last_reported":1740855995,"current_range_meters":19200,"station_id":"ce4bh492rcd13ifvqdvg","pricing_plan_id":"cebpf4jnsgd1na2vs0mg"},{"bike_id":"219c3b0b-00a7-466e-b12d-57038ccef4f4","system_id":"levelo_inurba_marseille","lat":43.26216,"lon":5.37449,"is_reserved":false,"is_disabled":false,"rental_uris":{"android":"levelo://app?vid=219c3b0b-00a7-466e-b12d-57038ccef4f4","ios":"levelo://app?vid=219c3b0b-00a7-466e-b12d-57038ccef4f4"},"vehicle_type_id":"4","last_reported":1740855995,"current_range_meters":19200,"station_id":"ce4bhgp2rcd13ifvqfc0","pricing_plan_id":"cebpf4jnsgd1na2vs0mg"},{"bike_id":"b863bc21-ecc3-4be8-b58d-8f3ecf2d3213","system_id":"levelo_inurba_marseille","lat":43.29441,"lon":5.39765,"is_reserved":false,"is_disabled":true,"rental_uris":{"android":"levelo://app?vid=b863bc21-ecc3-4be8-b58d-8f3ecf2d3213","ios":"levelo://app?vid=b863bc21-ecc3-4be8-b58d-8f3ecf2d3213"},"vehicle_type_id":"4","last_reported":1740855995,"current_range_meters":19200,"station_id":"ce4bh3h2rcd13ifvqdo0","pricing_plan_id":"cebpf4jnsgd1na2vs0mg"},{"bike_id":"cc836fe0-3cfd-4fe9-beb4-1fec15d76872","system_id":"levelo_inurba_marseille","lat":43.3043,"lon":5.37325,"is_reserved":false,"is_disabled":false,"rental_uris":{"android":"levelo://app?vid=cc836fe0-3cfd-4fe9-beb4-1fec15d76872","ios":"levelo://app?vid=cc836fe0-3cfd-4fe9-beb4-1fec15d76872"},"vehicle_type_id":"4","last_reported":1740855995,"current_range_meters":19200,"station_id":"","pricing_plan_id":"cebpf4jnsgd1na2vs0mg"},{"bike_id":"84501776-1256-40e9-8aa8-0f19f750b1d1","system_id":"levelo_inurba_marseille","lat":43.30541,"lon":5.36542,"is_reserved":false,"is_disabled":false,"rental_uris":{"android":"levelo://app?vid=84501776-1256-40e9-8aa8-0f19f750b1d1","ios":"levelo://app?vid=84501776-1256-40e9-8aa8-0f19f750b1d1"},"vehicle_type_id":"4","last_reported":1740855995,"current_range_meters":19600,"station_id":"ce4bgs12rcd13ifvqcag","pricing_plan_id":"cebpf4jnsgd1na2vs0mg"},{"bike_id":"e8aaf1a5-65df-449f-90b5-d41424a294b4","system_id":"levelo_inurba_marseille","lat":43.29532,"lon":5.39408,"is_reserved":false,"is_disabled":false,"rental_uris":{"android":"levelo://app?vid=e8aaf1a5-65df-449f-90b5-d41424a294b4","ios":"levelo://app?vid=e8aaf1a5-65df-449f-90b5-d41424a294b4"},"vehicle_type_id":"4","last_reported":1740855995,"current_range_meters":19200,"station_id":"ce4bh292rcd13ifvqdf0","pricing_plan_id":"cebpf4jnsgd1na2vs0mg"},{"bike_id":"5e814625-ea8c-4d84-b949-f4ebde66e9eb","system_id":"levelo_inurba_marseille","lat":43.29533,"lon":5.38548,"is_reserved":false,"is_disabled":false,"rental_uris":{"android":"levelo://app?vid=5e814625-ea8c-4d84-b949-f4ebde66e9eb","ios":"levelo://app?vid=5e814625-ea8c-4d84-b949-f4ebde66e9eb"},"vehicle_type_id":"4","last_reported":1740855995,"current_range_meters":19600,"station_id":"ce4bgih2rcd13ifvqba0","pricing_plan_id":"cebpf4jnsgd1na2vs0mg"},{"bike_id":"528abe8d-c7d9-4e16-96c8-22e9bee35503","system_id":"levelo_inurba_marseille","lat":43.30594,"lon":5.37216,"is_reserved":false,"is_disabled":false,"rental_uris":{"android":"levelo://app?vid=528abe8d-c7d9-4e16-96c8-22e9bee35503","ios":"levelo://app?vid=528abe8d-c7d9-4e16-96c8-22e9bee35503"},"vehicle_type_id":"4","last_reported":1740855995,"current_range_meters":19600,"station_id":"ce4bgqh2rcd13ifvqc4g","pricing_plan_id":"cebpf4jnsgd1na2vs0mg"},{"bike_id":"3bde88fa-0ee2-44f6-85a7-4a9a2f73597c","system_id":"levelo_inurba_marseille","lat":43.27812,"lon":5.40719,"is_reserved":false,"is_disabled":false,"rental_uris":{"android":"levelo://app?vid=3bde88fa-0ee2-44f6-85a7-4a9a2f73597c","ios":"levelo://app?vid=3bde88fa-0ee2-44f6-85a7-4a9a2f73597c"},"vehicle_type_id":"4","last_reported":1740855995,"current_range_meters":19600,"station_id":"ce4bhnh2rcd13ifvqgtg","pricing_plan_id":"cebpf4jnsgd1na2vs0mg"},{"bike_id":"476112c9-3c40-48ac-9bab-1099ff64d6be","system_id":"levelo_inurba_marseille","lat":43.30152,"lon":5.38082,"is_reserved":false,"is_disabled":false,"rental_uris":{"android":"levelo://app?vid=476112c9-3c40-48ac-9bab-1099ff64d6be","ios":"levelo://app?vid=476112c9-3c40-48ac-9bab-1099ff64d6be"},"vehicle_type_id":"4","last_reported":1740855995,"current_range_meters":19600,"station_id":"ce4bgjp2rcd13ifvqbh0","pricing_plan_id":"cebpf4jnsgd1na2vs0mg"},{"bike_id":"d29e82e5-442b-4177-903e-3742ab7d0a8c","system_id":"levelo_inurba_marseille","lat":43.30029,"lon":5.37418,"is_reserved":false,"is_disabled":false,"rental_uris":{"android":"levelo://app?vid=d29e82e5-442b-4177-903e-3742ab7d0a8c","ios":"levelo://app?vid=d29e82e5-442b-4177-903e-3742ab7d0a8c"},"vehicle_type_id":"4","last_reported":1740855995,"current_range_meters":19600,"station_id":"","pricing_plan_id":"cebpf4jnsgd1na2vs0mg"},{"bike_id":"670122a3-157a-4ef1-82d1-a5574649dac0","system_id":"levelo_inurba_marseille","lat":43.2396,"lon":5.36628,"is_reserved":false,"is_disabled":false,"rental_uris":{"android":"levelo://app?vid=670122a3-157a-4ef1-82d1-a5574649dac0","ios":"levelo://app?vid=670122a3-157a-4ef1-82d1-a5574649dac0"},"vehicle_type_id":"4","last_reported":1740855995,"current_range_meters":19600,"station_id":"ce4bhi12rcd13ifvqfp0","pricing_plan_id":"cebpf4jnsgd1na2vs0mg"},{"bike_id":"4e186009-d517-4928-b5f7-9c6188957187","system_id":"levelo_inurba_marseille","lat":43.27811,"lon":5.40713,"is_reserved":false,"is_disabled":false,"rental_uris":{"android":"levelo://app?vid=4e186009-d517-4928-b5f7-9c6188957187","ios":"levelo://app?vid=4e186009-d517-4928-b5f7-9c6188957187"},"vehicle_type_id":"4","last_reported":1740855995,"current_range_meters":19600,"station_id":"ce4bhnh2rcd13ifvqgtg","pricing_plan_id":"cebpf4jnsgd1na2vs0mg"},{"bike_id":"1ac3ecbb-b716-4c89-ad52-d1b572820d0c","system_id":"levelo_inurba_marseille","lat":43.28155,"lon":5.42641,"is_reserved":false,"is_disabled":false,"rental_uris":{"android":"levelo://app?vid=1ac3ecbb-b716-4c89-ad52-d1b572820d0c","ios":"levelo://app?vid=1ac3ecbb-b716-4c89-ad52-d1b572820d0c"},"vehicle_type_id":"4","last_reported":1740855995,"current_range_meters":19600,"station_id":"ce4bhnh2rcd13ifvqgug","pricing_plan_id":"cebpf4jnsgd1na2vs0mg"},{"bike_id":"cf01ad0c-6787-46bc-b89e-84420da8cd12","system_id":"levelo_inurba_marseille","lat":43.29278,"lon":5.40116,"is_reserved":false,"is_disabled":false,"rental_uris":{"android":"levelo://app?vid=cf01ad0c-6787-46bc-b89e-84420da8cd12","ios":"levelo://app?vid=cf01ad0c-6787-46bc-b89e-84420da8cd12"},"vehicle_type_id":"4","last_reported":1740855995,"current_range_meters":19600,"station_id":"ce4bh312rcd13ifvqdk0","pricing_plan_id":"cebpf4jnsgd1na2vs0mg"},{"bike_id":"b13b5400-9a8e-4793-8c6e-16abefe2c447","system_id":"levelo_inurba_marseille","lat":43.30144,"lon":5.37414,"is_reserved":false,"is_disabled":false,"rental_uris":{"android":"levelo://app?vid=b13b5400-9a8e-4793-8c6e-16abefe2c447","ios":"levelo://app?vid=b13b5400-9a8e-4793-8c6e-16abefe2c447"},"vehicle_type_id":"4","last_reported":1740855995,"current_range_meters":19600,"station_id":"ce4bgs92rcd13ifvqcc0","pricing_plan_id":"cebpf4jnsgd1na2vs0mg"},{"bike_id":"0b85d778-5f42-41f6-99e6-93c2062ce94d","system_id":"levelo_inurba_marseille","lat":43.317,"lon":5.43713,"is_reserved":false,"is_disabled":false,"rental_uris":{"android":"levelo://app?vid=0b85d778-5f42-41f6-99e6-93c2062ce94d","ios":"levelo://app?vid=0b85d778-5f42-41f6-99e6-93c2062ce94d"},"vehicle_type_id":"4","last_reported":1740855995,"current_range_meters":20000,"station_id":"ce4bhp92rcd13ifvqhcg","pricing_plan_id":"cebpf4jnsgd1na2vs0mg"},{"bike_id":"c07eeea1-1e72-4fa2-88aa-9a92211d0a4e","system_id":"levelo_inurba_marseille","lat":43.27889,"lon":5.37995,"is_reserved":false,"is_disabled":false,"rental_uris":{"android":"levelo://app?vid=c07eeea1-1e72-4fa2-88aa-9a92211d0a4e","ios":"levelo://app?vid=c07eeea1-1e72-4fa2-88aa-9a92211d0a4e"},"vehicle_type_id":"4","last_reported":1740855995,"current_range_meters":20000,"station_id":"ce4bhf92rcd13ifvqf50","pricing_plan_id":"cebpf4jnsgd1na2vs0mg"},{"bike_id":"4d259d46-c42f-4c5f-871e-8f36f4e65aad","system_id":"levelo_inurba_marseille","lat":43.305369,"lon":5.36715,"is_reserved":false,"is_disabled":false,"rental_uris":{"android":"levelo://app?vid=4d259d46-c42f-4c5f-871e-8f36f4e65aad","ios":"levelo://app?vid=4d259d46-c42f-4c5f-871e-8f36f4e65aad"},"vehicle_type_id":"4","last_reported":1740855995,"current_range_meters":19600,"station_id":"ce4bgrp2rcd13ifvqc9g","pricing_plan_id":"cebpf4jnsgd1na2vs0mg"},{"bike_id":"d02eed16-251a-462a-8c04-a515ca31cada","system_id":"levelo_inurba_marseille","lat":43.2942,"lon":5.38629,"is_reserved":false,"is_disabled":false,"rental_uris":{"android":"levelo://app?vid=d02eed16-251a-462a-8c04-a515ca31cada","ios":"levelo://app?vid=d02eed16-251a-462a-8c04-a515ca31cada"},"vehicle_type_id":"4","last_reported":1740855995,"current_range_meters":20000,"station_id":"ce4bh2h2rcd13ifvqdh0","pricing_plan_id":"cebpf4jnsgd1na2vs0mg"},{"bike_id":"586d2074-428c-42e6-8d1a-a32a5008ad65","system_id":"levelo_inurba_marseille","lat":43.27562,"lon":5.38423,"is_reserved":false,"is_disabled":false,"rental_uris":{"android":"levelo://app?vid=586d2074-428c-42e6-8d1a-a32a5008ad65","ios":"levelo://app?vid=586d2074-428c-42e6-8d1a-a32a5008ad65"},"vehicle_type_id":"4","last_reported":1740855995,"current_range_meters":20000,"station_id":"ce4bhh92rcd13ifvqfi0","pricing_plan_id":"cebpf4jnsgd1na2vs0mg"},{"bike_id":"0bd32094-c0c7-4baa-bba4-5759fe1cba94","system_id":"levelo_inurba_marseille","lat":43.25715,"lon":5.40997,"is_reserved":false,"is_disabled":false,"rental_uris":{"android":"levelo://app?vid=0bd32094-c0c7-4baa-bba4-5759fe1cba94","ios":"levelo://app?vid=0bd32094-c0c7-4baa-bba4-5759fe1cba94"},"vehicle_type_id":"4","last_reported":1740855995,"current_range_meters":20000,"station_id":"ce4bhkp2rcd13ifvqgd0","pricing_plan_id":"cebpf4jnsgd1na2vs0mg"},{"bike_id":"e1a21c64-4b61-4991-abfc-bf55277dab20","system_id":"levelo_inurba_marseille","lat":43.28398,"lon":5.37515,"is_reserved":false,"is_disabled":false,"rental_uris":{"android":"levelo://app?vid=e1a21c64-4b61-4991-abfc-bf55277dab20","ios":"levelo://app?vid=e1a21c64-4b61-4991-abfc-bf55277dab20"},"vehicle_type_id":"4","last_reported":1740855995,"current_range_meters":20000,"station_id":"ce4bh412rcd13ifvqds0","pricing_plan_id":"cebpf4jnsgd1na2vs0mg"},{"bike_id":"266c76e0-bc5a-49d2-9d26-bcf5a3d9e8bd","system_id":"levelo_inurba_marseille","lat":43.30921,"lon":5.36838,"is_reserved":false,"is_disabled":false,"rental_uris":{"android":"levelo://app?vid=266c76e0-bc5a-49d2-9d26-bcf5a3d9e8bd","ios":"levelo://app?vid=266c76e0-bc5a-49d2-9d26-bcf5a3d9e8bd"},"vehicle_type_id":"4","last_reported":1740855995,"current_range_meters":20000,"station_id":"ce4bgn92rcd13ifvqbvg","pricing_plan_id":"cebpf4jnsgd1na2vs0mg"},{"bike_id":"66acdb82-87e9-45d8-9417-aeb263add328","system_id":"levelo_inurba_marseille","lat":43.30432,"lon":5.38888,"is_reserved":false,"is_disabled":false,"rental_uris":{"android":"levelo://app?vid=66acdb82-87e9-45d8-9417-aeb263add328","ios":"levelo://app?vid=66acdb82-87e9-45d8-9417-aeb263add328"},"vehicle_type_id":"4","last_reported":1740855995,"current_range_meters":20000,"station_id":"ce4bgk12rcd13ifvqbi0","pricing_plan_id":"cebpf4jnsgd1na2vs0mg"},