{"last_updated":1731399126,"ttl":60,"version":"2.2","data":{"bikes":[{"bike_id":"2afb4c00-67cc-42f1-ae32-502f5aecb4b2","system_id":"levelo_inurba_marseille","lat":43.24079,"lon":5.37734,"is_reserved":false,"is_disabled":false,"rental_uris":{"android":"levelo://app?vid=2afb4c00-67cc-42f1-ae32-502f5aecb4b2","ios":"levelo://app?vid=2afb4c00-67cc-42f1-ae32-502f5aecb4b2"},"vehicle_type_id":"4","last_reported":1731399126,"current_range_meters":30000,"station_id":"ce4bhnp2rcd13ifvqgvg","pricing_plan_id":"cebpf4jnsgd1na2vs0mg"},{"bike_id":"55f338da-564d-4339-bcb5-5d0a4b68c4e6","system_id":"levelo_inurba_marseille","lat":43.31072,"lon":5.40092,"is_reserved":false,"is_disabled":false,"rental_uris":{"android":"levelo://app?vid=55f338da-564d-4339-bcb5-5d0a4b68c4e6","ios":"levelo://app?vid=55f338da-564d-4339-bcb5-5d0a4b68c4e6"},"vehicle_type_id":"4","last_reported":1731399126,"current_range_meters":6000,"station_id":"","pricing_plan_id":"cebpf4jnsgd1na2vs0mg"},{"bike_id":"6a970c6e-55f9-4555-92d6-30cb08773f0a","system_id":"levelo_inurba_marseille","lat":43.336,"lon":5.41012,"is_reserved":false,"is_disabled":false,"rental_uris":{"android":"levelo://app?vid=6a970c6e-55f9-4555-92d6-30cb08773f0a","ios":"levelo://app?vid=6a970c6e-55f9-4555-92d6-30cb08773f0a"},"vehicle_type_id":"4","last_reported":1731399126,"current_range_meters":30400,"station_id":"ce4bhqh2rcd13ifvqhmg","pricing_plan_id":"cebpf4jnsgd1na2vs0mg"},{"bike_id":"ca7b51c1-41f7-48c3-b99c-ac6c08ca46fd","system_id":"levelo_inurba_marseille","lat":43.27489,"lon":5.42453,"is_reserved":false,"is_disabled":false,"rental_uris":{"android":"levelo://app?vid=ca7b51c1-41f7-48c3-b99c-ac6c08ca46fd","ios":"levelo://app?vid=ca7b51c1-41f7-48c3-b99c-ac6c08ca46fd"},"vehicle_type_id":"4","last_reported":1731399126,"current_range_meters":28400,"station_id":"ce4bhn92rcd13ifvqgrg","pricing_plan_id":"cebpf4jnsgd1na2vs0mg"},{"bike_id":"fcb09439-4032-4ae2-a973-a9cbd659ad1f","system_id":"levelo_inurba_marseille","lat":43.29912,"lon":5.37473,"is_reserved":false,"is_disabled":false,"rental_uris":{"android":"levelo://app?vid=fcb09439-4032-4ae2-a973-a9cbd659ad1f","ios":"levelo://app?vid=fcb09439-4032-4ae2-a973-a9cbd659ad1f"},"vehicle_type_id":"4","last_reported":1731399126,"current_range_meters":23200,"station_id":"ce4bgjh2rcd13ifvqbg0","pricing_plan_id":"cebpf4jnsgd1na2vs0mg"},{"bike_id":"46a734c9-731d-4b21-a099-1ea1e56e747b","system_id":"levelo_inurba_marseille","lat":43.25575,"lon":5.38244,"is_reserved":false,"is_disabled":false,"rental_uris":{"android":"levelo://app?vid=46a734c9-731d-4b21-a099-1ea1e56e747b","ios":"levelo://app?vid=46a734c9-731d-4b21-a099-1ea1e56e747b"},"vehicle_type_id":"4","last_reported":1731399126,"current_range_meters":33600,"station_id":"ce4bhih2rcd13ifvqfs0","pricing_plan_id":"cebpf4jnsgd1na2vs0mg"},{"bike_id":"6ac7e8f3-ecae-451a-bf85-b68ad0a05e2c","system_id":"levelo_inurba_marseille","lat":43.24069,"lon":5.37756,"is_reserved":false,"is_disabled":false,"rental_uris":{"android":"levelo://app?vid=6ac7e8f3-ecae-451a-bf85-b68ad0a05e2c","ios":"levelo://app?vid=6ac7e8f3-ecae-451a-bf85-b68ad0a05e2c"},"vehicle_type_id":"4","last_reported":1731399126,"current_range_meters":22000,"station_id":"ce4bhnp2rcd13ifvqgvg","pricing_plan_id":"cebpf4jnsgd1na2vs0mg"},{"bike_id":"aaf50b0b-324a-4540-83b6-3089507d0d50","system_id":"levelo_inurba_marseille","lat":43.29975,"lon":5.38495,"is_reserved":false,"is_disabled":false,"rental_uris":{"android":"levelo://app?vid=aaf50b0b-324a-4540-83b6-3089507d0d50","ios":"levelo://app?vid=aaf50b0b-324a-4540-83b6-3089507d0d50"},"vehicle_type_id":"4","last_reported":1731399126,"current_range_meters":35200,"station_id":"ce4bgj92rcd13ifvqbd0","pricing_plan_id":"cebpf4jnsgd1na2vs0mg"},{"bike_id":"a657f16a-2bc0-48c9-8fd8-a5c59151be64","system_id":"levelo_inurba_marseille","lat":43.28711,"lon":5.3794,"is_reserved":false,"is_disabled":false,"rental_uris":{"android":"levelo://app?vid=a657f16a-2bc0-48c9-8fd8-a5c59151be64","ios":"levelo://app?vid=a657f16a-2bc0-48c9-8fd8-a5c59151be64"},"vehicle_type_id":"4","last_reported":1731399126,"current_range_meters":33200,"station_id":"ce4bh9p2rcd13ifvqec0","pricing_plan_id":"cebpf4jnsgd1na2vs0mg"},{"bike_id":"a8bf9178-1fc7-4cf1-8534-0454319d3cc8","system_id":"levelo_inurba_marseille","lat":43.30913,"lon":5.36851,"is_reserved":false,"is_disabled":false,"rental_uris":{"android":"levelo://app?vid=a8bf9178-1fc7-4cf1-8534-0454319d3cc8","ios":"levelo://app?vid=a8bf9178-1fc7-4cf1-8534-0454319d3cc8"},"vehicle_type_id":"4","last_reported":1731399126,"current_range_meters":39200,"station_id":"ce4bgn92rcd13ifvqbvg","pricing_plan_id":"cebpf4jnsgd1na2vs0mg"},{"bike_id":"49effbc6-1aad-46bf-8c53-c4b5d41bdb91","system_id":"levelo_inurba_marseille","lat":43.31346,"lon":5.36704,"is_reserved":false,"is_disabled":false,"rental_uris":{"android":"levelo://app?vid=49effbc6-1aad-46bf-8c53-c4b5d41bdb91","ios":"levelo://app?vid=49effbc6-1aad-46bf-8c53-c4b5d41bdb91"},"vehicle_type_id":"4","last_reported":1731399126,"current_range_meters":30000,"station_id":"ce4bgr92rcd13ifvqc6g","pricing_plan_id":"cebpf4jnsgd1na2vs0mg"},{"bike_id":"3e392b66-91b0-4ce2-b24e-779ddf9eacb4","system_id":"levelo_inurba_marseille","lat":43.32478,"lon":5.3657,"is_reserved":false,"is_disabled":false,"rental_uris":{"android":"levelo://app?vid=3e392b66-91b0-4ce2-b24e-779ddf9eacb4","ios":"levelo://app?vid=3e392b66-91b0-4ce2-b24e-779ddf9eacb4"},"vehicle_type_id":"4","last_reported":1731399126,"current_range_meters":27200,"station_id":"ce4bhs12rcd13ifvqhvg","pricing_plan_id":"cebpf4jnsgd1na2vs0mg"},{"bike_id":"54dc11b8-b928-4e53-b8e7-2cddb0a8e43a","system_id":"levelo_inurba_marseille","lat":43.24071,"lon":5.37752,"is_reserved":false,"is_disabled":false,"rental_uris":{"android":"levelo://app?vid=54dc11b8-b928-4e53-b8e7-2cddb0a8e43a","ios":"levelo://app?vid=54dc11b8-b928-4e53-b8e7-2cddb0a8e43a"},"vehicle_type_id":"4","last_reported":1731399126,"current_range_meters":27200,"station_id":"ce4bhnp2rcd13ifvqgvg","pricing_plan_id":"cebpf4jnsgd1na2vs0mg"},{"bike_id":"ce87ee49-8e2f-4b62-afc9-3c4a0031b9a3","system_id":"levelo_inurba_marseille","lat":43.30957,"lon":5.39039,"is_reserved":false,"is_disabled":false,"rental_uris":{"android":"levelo://app?vid=ce87ee49-8e2f-4b62-afc9-3c4a0031b9a3","ios":"levelo://app?vid=ce87ee49-8e2f-4b62-afc9-3c4a0031b9a3"},"vehicle_type_id":"4","last_reported":1731399126,"current_range_meters":25200,"station_id":"ce4bgup2rcd13ifvqco0","pricing_plan_id":"cebpf4jnsgd1na2vs0mg"},{"bike_id":"aad201f8-4768-4529-bb34-9edba7f0114d","system_id":"levelo_inurba_marseille","lat":43.26954,"lon":5.38619,"is_reserved":false,"is_disabled":false,"rental_uris":{"android":"levelo://app?vid=aad201f8-4768-4529-bb34-9edba7f0114d","ios":"levelo://app?vid=aad201f8-4768-4529-bb34-9edba7f0114d"},"vehicle_type_id":"4","last_reported":1731399126,"current_range_meters":36000,"station_id":"ce4bhh92rcd13ifvqfh0","pricing_plan_id":"cebpf4jnsgd1na2vs0mg"},{"bike_id":"277ad6b8-54fe-4577-9ebc-85b6613b3c4f","system_id":"levelo_inurba_marseille","lat":43.31339,"lon":5.36724,"is_reserved":false,"is_disabled":false,"rental_uris":{"android":"levelo://app?vid=277ad6b8-54fe-4577-9ebc-85b6613b3c4f","ios":"levelo://app?vid=277ad6b8-54fe-4577-9ebc-85b6613b3c4f"},"vehicle_type_id":"4","last_reported":1731399126,"current_range_meters":24000,"station_id":"ce4bgr92rcd13ifvqc6g","pricing_plan_id":"cebpf4jnsgd1na2vs0mg"},{"bike_id":"1b95f4e9-51ad-4d6c-92dd-b686e4369237","system_id":"levelo_inurba_marseille","lat":43.28351,"lon":5.38105,"is_reserved":false,"is_disabled":false,"rental_uris":{"android":"levelo://app?vid=1b95f4e9-51ad-4d6c-92dd-b686e4369237","ios":"levelo://app?vid=1b95f4e9-51ad-4d6c-92dd-b686e4369237"},"vehicle_type_id":"4","last_reported":1731399126,"current_range_meters":12400,"station_id":"ce4bh412rcd13ifvqdr0","pricing_plan_id":"cebpf4jnsgd1na2vs0mg"},{"bike_id":"d9ebbf26-a8b9-49e9-a05c-0532faeb36dd","system_id":"levelo_inurba_marseille","lat":43.25945,"lon":5.40903,"is_reserved":false,"is_disabled":false,"rental_uris":{"android":"levelo://app?vid=d9ebbf26-a8b9-49e9-a05c-0532faeb36dd","ios":"levelo://app?vid=d9ebbf26-a8b9-49e9-a05c-0532faeb36dd"},"vehicle_type_id":"4","last_reported":1731399126,"current_range_meters":22000,"station_id":"ce4bhm92rcd13ifvqglg","pricing_plan_id":"cebpf4jnsgd1na2vs0mg"},{"bike_id":"e6ea7628-653f-486a-a82c-a3cafa77bbcc","system_id":"levelo_inurba_marseille","lat":43.27496,"lon":5.42447,"is_reserved":false,"is_disabled":false,"rental_uris":{"android":"levelo://app?vid=e6ea7628-653f-486a-a82c-a3cafa77bbcc","ios":"levelo://app?vid=e6ea7628-653f-486a-a82c-a3cafa77bbcc"},"vehicle_type_id":"4","last_reported":1731399126,"current_range_meters":18800,"station_id":"ce4bhn92rcd13ifvqgrg","pricing_plan_id":"cebpf4jnsgd1na2vs0mg"},{"bike_id":"a6cebce8-5cc9-4e63-856d-8b5d14b3f2bb","system_id":"levelo_inurba_marseille","lat":43.24083,"lon":5.37752,"is_reserved":false,"is_disabled":false,"rental_uris":{"android":"levelo://app?vid=a6cebce8-5cc9-4e63-856d-8b5d14b3f2bb","ios":"levelo://app?vid=a6cebce8-5cc9-4e63-856d-8b5d14b3f2bb"},"vehicle_type_id":"4","last_reported":1731399126,"current_range_meters":8400,"station_id":"ce4bhnp2rcd13ifvqgvg","pricing_plan_id":"cebpf4jnsgd1na2vs0mg"},{"bike_id":"c7cc186c-26e9-4fb6-a862-d1d2e220d488","system_id":"levelo_inurba_marseille","lat":43.29056,"lon":5.37174,"is_reserved":false,"is_disabled":false,"rental_uris":{"android":"levelo://app?vid=c7cc186c-26e9-4fb6-a862-d1d2e220d488","ios":"levelo://app?vid=c7cc186c-26e9-4fb6-a862-d1d2e220d488"},"vehicle_type_id":"4","last_reported":1731399126,"current_range_meters":31200,"station_id":"ce4bh5p2rcd13ifvqe4g","pricing_plan_id":"cebpf4jnsgd1na2vs0mg"},{"bike_id":"7b62d9a1-4410-4919-b265-e09aff197a53","system_id":"levelo_inurba_marseille","lat":43.27068,"lon":5.42276,"is_reserved":false,"is_disabled":false,"rental_uris":{"android":"levelo://app?vid=7b62d9a1-4410-4919-b265-e09aff197a53","ios":"levelo://app?vid=7b62d9a1-4410-4919-b265-e09aff197a53"},"vehicle_type_id":"4","last_reported":1731399126,"current_range_meters":38400,"station_id":"ce4bhk92rcd13ifvqgb0","pricing_plan_id":"cebpf4jnsgd1na2vs0mg"},{"bike_id":"0f65f64b-4d8a-4ab9-939e-f1bff231c6d8","system_id":"levelo_inurba_marseille","lat":43.27425,"lon":5.39423,"is_reserved":false,"is_disabled":false,"rental_uris":{"android":"levelo://app?vid=0f65f64b-4d8a-4ab9-939e-f1bff231c6d8","ios":"levelo://app?vid=0f65f64b-4d8a-4ab9-939e-f1bff231c6d8"},"vehicle_type_id":"4","last_reported":1731399126,"current_range_meters":8000,"station_id":"ce4bhdp2rcd13ifvqf20","pricing_plan_id":"cebpf4jnsgd1na2vs0mg"},{"bike_id":"5f9f9b90-d6a2-486d-a813-43efd2f0b193","system_id":"levelo_inurba_marseille","lat":43.31342,"lon":5.36727,"is_reserved":false,"is_disabled":false,"rental_uris":{"android":"levelo://app?vid=5f9f9b90-d6a2-486d-a813-43efd2f0b193","ios":"levelo://app?vid=5f9f9b90-d6a2-486d-a813-43efd2f0b193"},"vehicle_type_id":"4","last_reported":1731399126,"current_range_meters":17200,"station_id":"ce4bgr92rcd13ifvqc6g","pricing_plan_id":"cebpf4jnsgd1na2vs0mg"},{"bike_id":"b0864b2f-248e-47d9-ac2d-dc9ee7e07860","system_id":"levelo_inurba_marseille","lat":43.27176,"lon":5.40993,"is_reserved":false,"is_disabled":false,"rental_uris":{"android":"levelo://app?vid=b0864b2f-248e-47d9-ac2d-dc9ee7e07860","ios":"levelo://app?vid=b0864b2f-248e-47d9-ac2d-dc9ee7e07860"},"vehicle_type_id":"4","last_reported":1731399126,"current_range_meters":35200,"station_id":"ce4bhl12rcd13ifvqgf0","pricing_plan_id":"cebpf4jnsgd1na2vs0mg"},{"bike_id":"e7133749-b15c-4df4-9175-2ff925b0dfa9","system_id":"levelo_inurba_marseille","lat":43.29714,"lon":5.37694,"is_reserved":false,"is_disabled":false,"rental_uris":{"android":"levelo://app?vid=e7133749-b15c-4df4-9175-2ff925b0dfa9","ios":"levelo://app?vid=e7133749-b15c-4df4-9175-2ff925b0dfa9"},"vehicle_type_id":"4","last_reported":1731399126,"current_range_meters":39200,"station_id":"ce4bgkh2rcd13ifvqbl0","pricing_plan_id":"cebpf4jnsgd1na2vs0mg"},{"bike_id":"eb8c3cc5-fe7b-45af-aab6-4f9d0cd7ba0b","system_id":"levelo_inurba_marseille","lat":43.26687,"lon":5.38275,"is_reserved":false,"is_disabled":false,"rental_uris":{"android":"levelo://app?vid=eb8c3cc5-fe7b-45af-aab6-4f9d0cd7ba0b","ios":"levelo://app?vid=eb8c3cc5-fe7b-45af-aab6-4f9d0cd7ba0b"},"vehicle_type_id":"4","last_reported":1731399126,"current_range_meters":38000,"station_id":"ce4bhg92rcd13ifvqf90","pricing_plan_id":"cebpf4jnsgd1na2vs0mg"},{"bike_id":"8bbbf9fc-c8a4-45d7-bcfe-0ca6b12b20d0","system_id":"levelo_inurba_marseille","lat":43.29974,"lon":5.37173,"is_reserved":false,"is_disabled":false,"rental_uris":{"android":"levelo://app?vid=8bbbf9fc-c8a4-45d7-bcfe-0ca6b12b20d0","ios":"levelo://app?vid=8bbbf9fc-c8a4-45d7-bcfe-0ca6b12b20d0"},"vehicle_type_id":"4","last_reported":1731399126,"current_range_meters":33600,"station_id":"ce4bgr92rcd13ifvqc7g","pricing_plan_id":"cebpf4jnsgd1na2vs0mg"},{"bike_id":"86a1e8ec-924c-482f-a632-e7f0600dca6f","system_id":"levelo_inurba_marseille","lat":43.33615,"lon":5.41011,"is_reserved":false,"is_disabled":false,"rental_uris":{"android":"levelo://app?vid=86a1e8ec-924c-482f-a632-e7f0600dca6f","ios":"levelo://app?vid=86a1e8ec-924c-482f-a632-e7f0600dca6f"},"vehicle_type_id":"4","last_reported":1731399126,"current_range_meters":38000,"station_id":"ce4bhqh2rcd13ifvqhmg","pricing_plan_id":"cebpf4jnsgd1na2vs0mg"},{"bike_id":"cc30ec2e-04f0-477f-b0af-00115eb1e7f0","system_id":"levelo_inurba_marseille","lat":43.25931,"lon":5.40917,"is_reserved":false,"is_disabled":false,"rental_uris":{"android":"levelo://app?vid=cc30ec2e-04f0-477f-b0af-00115eb1e7f0","ios":"levelo://app?vid=cc30ec2e-04f0-477f-b0af-00115eb1e7f0"},"vehicle_type_id":"4","last_reported":1731399126,"current_range_meters":22800,"station_id":"ce4bhm92rcd13ifvqglg","pricing_plan_id":"cebpf4jnsgd1na2vs0mg"},{"bike_id":"3b03b7e5-6c8f-45ab-848a-3b2b10553b2c","system_id":"levelo_inurba_marseille","lat":43.240765,"lon":5.377555,"is_reserved":false,"is_disabled":false,"rental_uris":{"android":"levelo://app?vid=3b03b7e5-6c8f-45ab-848a-3b2b10553b2c","ios":"levelo://app?vid=3b03b7e5-6c8f-45ab-848a-3b2b10553b2c"},"vehicle_type_id":"4","last_reported":1731399126,"current_range_meters":5600,"station_id":"ce4bhnp2rcd13ifvqgvg","pricing_plan_id":"cebpf4jnsgd1na2vs0mg"},{"bike_id":"43bd4df6-40bb-4eee-a218-cdd879e9efdd","system_id":"levelo_inurba_marseille","lat":43.31232,"lon":5.36866,"is_reserved":false,"is_disabled":false,"rental_uris":{"android":"levelo://app?vid=43bd4df6-40bb-4eee-a218-cdd879e9efdd","ios":"levelo://app?vid=43bd4df6-40bb-4eee-a218-cdd879e9efdd"},"vehicle_type_id":"4","last_reported":1731399126,"current_range_meters":28400,"station_id":"ce4bgl92rcd13ifvqbq0","pricing_plan_id":"cebpf4jnsgd1na2vs0mg"},{"bike_id":"d46ec40f-cc3d-4fe6-b9e7-3cb07f3c1980","system_id":"levelo_inurba_marseille","lat":43.2668,"lon":5.38267,"is_reserved":false,"is_disabled":false,"rental_uris":{"android":"levelo://app?vid=d46ec40f-cc3d-4fe6-b9e7-3cb07f3c1980","ios":"levelo://app?vid=d46ec40f-cc3d-4fe6-b9e7-3cb07f3c1980"},"vehicle_type_id":"4","last_reported":1731399126,"current_range_meters":39200,"station_id":"ce4bhg92rcd13ifvqf90","pricing_plan_id":"cebpf4jnsgd1na2vs0mg"},{"bike_id":"36019b4c-12eb-4a40-878e-1cad7b7b78c8","system_id":"levelo_inurba_marseille","lat":43.29318,"lon":5.37169,"is_reserved":false,"is_disabled":false,"rental_uris":{"android":"levelo://app?vid=36019b4c-12eb-4a40-878e-1cad7b7b78c8","ios":"levelo://app?vid=36019b4c-12eb-4a40-878e-1cad7b7b78c8"},"vehicle_type_id":"4","last_reported":1731399126,"current_range_meters":38800,"station_id":"ce4bgh92rcd13ifvqb40","pricing_plan_id":"cebpf4jnsgd1na2vs0mg"},{"bike_id":"840ac333-bee4-41ab-aaf2-93275627fa12","system_id":"levelo_inurba_marseille","lat":43.29032,"lon":5.39969,"is_reserved":false,"is_disabled":false,"rental_uris":{"android":"levelo://app?vid=840ac333-bee4-41ab-aaf2-93275627fa12","ios":"levelo://app?vid=840ac333-bee4-41ab-aaf2-93275627fa12"},"vehicle_type_id":"4","last_reported":1731399126,"current_range_meters":23200,"station_id":"ce4bh392rcd13ifvqdm0","pricing_plan_id":"cebpf4jnsgd1na2vs0mg"},{"bike_id":"302c7a4a-1892-46ac-a271-7b679b601e84","system_id":"levelo_inurba_marseille","lat":43.29041,"lon":5.37558,"is_reserved":false,"is_disabled":false,"rental_uris":{"android":"levelo://app?vid=302c7a4a-1892-46ac-a271-7b679b601e84","ios":"levelo://app?vid=302c7a4a-1892-46ac-a271-7b679b601e84"},"vehicle_type_id":"4","last_reported":1731399126,"current_range_meters":35600,"station_id":"ce4bh692rcd13ifvqe90","pricing_plan_id":"cebpf4jnsgd1na2vs0mg"},{"bike_id":"791689bc-b073-4cdc-9869-27b338165735","system_id":"levelo_inurba_marseille","lat":43.326545,"lon":5.409896,"is_reserved":false,"is_disabled":false,"rental_uris":{"android":"levelo://app?vid=791689bc-b073-4cdc-9869-27b338165735","ios":"levelo://app?vid=791689bc-b073-4cdc-9869-27b338165735"},"vehicle_type_id":"4","last_reported":1731399126,"current_range_meters":39200,"station_id":"ce4bhpp2rcd13ifvqhgg","pricing_plan_id":"cebpf4jnsgd1na2vs0mg"},{"bike_id":"c1cc651f-2df8-4565-8656-8338acf2e8bc","system_id":"levelo_inurba_marseille","lat":43.31358,"lon":5.385,"is_reserved":false,"is_disabled":false,"rental_uris":{"android":"levelo://app?vid=c1cc651f-2df8-4565-8656-8338acf2e8bc","ios":"levelo://app?vid=c1cc651f-2df8-4565-8656-8338acf2e8bc"},"vehicle_type_id":"4","last_reported":1731399126,"current_range_meters":16000,"station_id":"ce4bgt92rcd13ifvqcf0","pricing_plan_id":"cebpf4jnsgd1na2vs0mg"},{"bike_id":"a7d71a95-aff9-47f9-8c01-defabf3b40db","system_id":"levelo_inurba_marseille","lat":43.28156,"lon":5.42638,"is_reserved":false,"is_disabled":false,"rental_uris":{"android":"levelo://app?vid=a7d71a95-aff9-47f9-8c01-defabf3b40db","ios":"levelo://app?vid=a7d71a95-aff9-47f9-8c01-defabf3b40db"},"vehicle_type_id":"4","last_reported":1731399126,"current_range_meters":8000,"station_id":"ce4bhnh2rcd13ifvqgug","pricing_plan_id":"cebpf4jnsgd1na2vs0mg"},{"bike_id":"0efa8546-84a6-4c0c-ab60-ffc695fb3d4b","system_id":"levelo_inurba_marseille","lat":43.30548,"lon":5.36701,"is_reserved":false,"is_disabled":false,"rental_uris":{"android":"levelo://app?vid=0efa8546-84a6-4c0c-ab60-ffc695fb3d4b","ios":"levelo://app?vid=0efa8546-84a6-4c0c-ab60-ffc695fb3d4b"},"vehicle_type_id":"4","last_reported":1731399126,"current_range_meters":36400,"station_id":"ce4bgrp2rcd13ifvqc9g","pricing_plan_id":"cebpf4jnsgd1na2vs0mg"},{"bike_id":"deb34d52-7ab2-4229-8baf-6d69813a9afd","system_id":"levelo_inurba_marseille","lat":43.30139,"lon":5.37406,"is_reserved":false,"is_disabled":false,"rental_uris":{"android":"levelo://app?vid=deb34d52-7ab2-4229-8baf-6d69813a9afd","ios":"levelo://app?vid=deb34d52-7ab2-4229-8baf-6d69813a9afd"},"vehicle_type_id":"4","last_reported":1731399126,"current_range_meters":37600,"station_id":"ce4bgs92rcd13ifvqcc0","pricing_plan_id":"cebpf4jnsgd1na2vs0mg"},{"bike_id":"ec5899ca-f462-4f0a-af00-68e188e1cdc1","system_id":"levelo_inurba_marseille","lat":43.25938,"lon":5.40907,"is_reserved":false,"is_disabled":false,"rental_uris":{"android":"levelo://app?vid=ec5899ca-f462-4f0a-af00-68e188e1cdc1","ios":"levelo://app?vid=ec5899ca-f462-4f0a-af00-68e188e1cdc1"},"vehicle_type_id":"4","last_reported":1731399126,"current_range_meters":30000,"station_id":"ce4bhm92rcd13ifvqglg","pricing_plan_id":"cebpf4jnsgd1na2vs0mg"},{"bike_id":"ac866058-58cc-424f-a2d8-5116ec51e77c","system_id":"levelo_inurba_marseille","lat":43.29024,"lon":5.39974,"is_reserved":false,"is_disabled":false,"rental_uris":{"android":"levelo://app?vid=ac866058-58cc-424f-a2d8-5116ec51e77c","ios":"levelo://app?vid=ac866058-58cc-424f-a2d8-5116ec51e77c"},"vehicle_type_id":"4","last_reported":1731399126,"current_range_meters":19600,"station_id":"ce4bh392rcd13ifvqdm0","pricing_plan_id":"cebpf4jnsgd1na2vs0mg"},{"bike_id":"86c6ff49-2b5b-4afb-8125-7091456fb85f","system_id":"levelo_inurba_marseille","lat":43.292914,"lon":5.371724,"is_reserved":false,"is_disabled":false,"rental_uris":{"android":"levelo://app?vid=86c6ff49-2b5b-4afb-8125-7091456fb85f","ios":"levelo://app?vid=86c6ff49-2b5b-4afb-8125-7091456fb85f"},"vehicle_type_id":"4","last_reported":1731399126,"current_range_meters":38400,"station_id":"","pricing_plan_id":"cebpf4jnsgd1na2vs0mg"},{"bike_id":"602f2eb5-bdd1-4969-b311-c4de74662184","system_id":"levelo_inurba_marseille","lat":43.28938,"lon":5.39637,"is_reserved":false,"is_disabled":false,"rental_uris":{"android":"levelo://app?vid=602f2eb5-bdd1-4969-b311-c4de74662184","ios":"levelo://app?vid=602f2eb5-bdd1-4969-b311-c4de74662184"},"vehicle_type_id":"4","last_reported":1731399126,"current_range_meters":10800,"station_id":"ce4bh3h2rcd13ifvqdn0","pricing_plan_id":"cebpf4jnsgd1na2vs0mg"},{"bike_id":"6164db9c-3a81-4961-a02f-9655d7f824b0","system_id":"levelo_inurba_marseille","lat":43.304016,"lon":5.410526,"is_reserved":false,"is_disabled":false,"rental_uris":{"android":"levelo://app?vid=6164db9c-3a81-4961-a02f-9655d7f824b0","ios":"levelo://app?vid=6164db9c-3a81-4961-a02f-9655d7f824b0"},"vehicle_type_id":"4","last_reported":1731399126,"current_range_meters":32400,"station_id":"ce4bhop2rcd13ifvqh8g","pricing_plan_id":"cebpf4jnsgd1na2vs0mg"},{"bike_id":"4a19371a-296c-4821-8792-54911128b33e","system_id":"levelo_inurba_marseille","lat":43.29041,"lon":5.39977,"is_reserved":false,"is_disabled":false,"rental_uris":{"android":"levelo://app?vid=4a19371a-296c-4821-8792-54911128b33e","ios":"levelo://app?vid=4a19371a-296c-4821-8792-54911128b33e"},"vehicle_type_id":"4","last_reported":1731399126,"current_range_meters":30400,"station_id":"ce4bh392rcd13ifvqdm0","pricing_plan_id":"cebpf4jnsgd1na2vs0mg"},{"bike_id":"4c62d813-e09c-46f8-96c5-40ef2aa6b1c6","system_id":"levelo_inurba_marseille","lat":43.29024,"lon":5.39982,"is_reserved":false,"is_disabled":false,"rental_uris":{"android":"levelo://app?vid=4c62d813-e09c-46f8-96c5-40ef2aa6b1c6","ios":"levelo://app?vid=4c62d813-e09c-46f8-96c5-40ef2aa6b1c6"},"vehicle_type_id":"4","last_reported":1731399126,"current_range_meters":30000,"station_id":"ce4bh392rcd13ifvqdm0","pricing_plan_id":"cebpf4jnsgd1na2vs0mg"},{"bike_id":"48a996fa-88bc-4c10-ba89-2fc4c9f9f1d0","system_id":"levelo_inurba_marseille","lat":43.2396,"lon":5.36626,"is_reserved":false,"is_disabled":false,"rental_uris":{"android":"levelo://app?vid=48a996fa-88bc-4c10-ba89-2fc4c9f9f1d0","ios":"levelo://app?vid=48a996fa-88bc-4c10-ba89-2fc4c9f9f1d0"},"vehicle_type_id":"4","last_reported":1731399126,"current_range_meters":39200,"station_id":"ce4bhi12rcd13ifvqfp0","pricing_plan_id":"cebpf4jnsgd1na2vs0mg"},{"bike_id":"b43bc25a-1ddd-4cbc-974b-6e2d2028c52f","system_id":"levelo_inurba_marseille","lat":43.29266,"lon":5.38461,"is_reserved":false,"is_disabled":false,"rental_uris":{"android":"levelo://app?vid=b43bc25a-1ddd-4cbc-974b-6e2d2028c52f","ios":"levelo://app?vid=b43bc25a-1ddd-4cbc-974b-6e2d2028c52f"},"vehicle_type_id":"4","last_reported":1731399126,"current_range_meters":37600,"station_id":"ce4bh692rcd13ifvqea0","pricing_plan_id":"cebpf4jnsgd1na2vs0mg"},{"bike_id":"a84e591d-f7dd-47d1-ba5c-c92513c224ee","system_id":"levelo_inurba_marseille","lat":43.28937,"lon":5.39634,"is_reserved":false,"is_disabled":false,"rental_uris":{"android":"levelo://app?vid=a84e591d-f7dd-47d1-ba5c-c92513c224ee","ios":"levelo://app?vid=a84e591d-f7dd-47d1-ba5c-c92513c224ee"},"vehicle_type_id":"4","last_reported":1731399126,"current_range_meters":26800,"station_id":"ce4bh3h2rcd13ifvqdn0","pricing_plan_id":"cebpf4jnsgd1na2vs0mg"},{"bike_id":"be4ee817-43d9-4bdb-be75-8642c45e5e28","system_id":"levelo_inurba_marseille","lat":43.24075,"lon":5.3776,"is_reserved":false,"is_disabled":false,"rental_uris":{"android":"levelo://app?vid=be4ee817-43d9-4bdb-be75-8642c45e5e28","ios":"levelo://app?vid=be4ee817-43d9-4bdb-be75-8642c45e5e28"},"vehicle_type_id":"4","last_reported":1731399126,"current_range_meters":7200,"station_id":"ce4bhnp2rcd13ifvqgvg","pricing_plan_id":"cebpf4jnsgd1na2vs0mg"},{"bike_id":"72f2459d-a66f-4594-a47a-d7559414586e","system_id":"levelo_inurba_marseille","lat":43.29308,"lon":5.37178,"is_reserved":false,"is_disabled":false,"rental_uris":{"android":"levelo://app?vid=72f2459d-a66f-4594-a47a-d7559414586e","ios":"levelo://app?vid=72f2459d-a66f-4594-a47a-d7559414586e"},"vehicle_type_id":"4","last_reported":1731399126,"current_range_meters":6400,"station_id":"ce4bgh92rcd13ifvqb40","pricing_plan_id":"cebpf4jnsgd1na2vs0mg"},{"bike_id":"d0ef08cf-1a61-4d5a-9612-ccfee90a1e32","system_id":"levelo_inurba_marseille","lat":43.24814,"lon":5.37458,"is_reserved":false,"is_disabled":false,"rental_uris":{"android":"levelo://app?vid=d0ef08cf-1a61-4d5a-9612-ccfee90a1e32","ios":"levelo://app?vid=d0ef08cf-1a61-4d5a-9612-ccfee90a1e32"},"vehicle_type_id":"4","last_reported":1731399126,"current_range_meters":37600,"station_id":"ce4bhgh2rcd13ifvqfb0","pricing_plan_id":"cebpf4jnsgd1na2vs0mg"},{"bike_id":"cc849dc6-c1c3-477a-ad2b-2f8888b16a17","system_id":"levelo_inurba_marseille","lat":43.2955,"lon":5.42281,"is_reserved":false,"is_disabled":false,"rental_uris":{"android":"levelo://app?vid=cc849dc6-c1c3-477a-ad2b-2f8888b16a17","ios":"levelo://app?vid=cc849dc6-c1c3-477a-ad2b-2f8888b16a17"},"vehicle_type_id":"4","last_reported":1731399126,"current_range_meters":29600,"station_id":"ce4bhph2rcd13ifvqhdg","pricing_plan_id":"cebpf4jnsgd1na2vs0mg"},{"bike_id":"40ee769d-1238-4013-8434-6704bade4ce4","system_id":"levelo_inurba_marseille","lat":43.33606,"lon":5.4103,"is_reserved":false,"is_disabled":false,"rental_uris":{"android":"levelo://app?vid=40ee769d-1238-4013-8434-6704bade4ce4","ios":"levelo://app?vid=40ee769d-1238-4013-8434-6704bade4ce4"},"vehicle_type_id":"4","last_reported":1731399126,"current_range_meters":32800,"station_id":"ce4bhqh2rcd13ifvqhmg","pricing_plan_id":"cebpf4jnsgd1na2vs0mg"},{"bike_id":"2f085ddc-4d69-4c79-9514-8165bb5c8a06","system_id":"levelo_inurba_marseille","lat":43.30554,"lon":5.36541,"is_reserved":false,"is_disabled":false,"rental_uris":{"android":"levelo://app?vid=2f085ddc-4d69-4c79-9514-8165bb5c8a06","ios":"levelo://app?vid=2f085ddc-4d69-4c79-9514-8165bb5c8a06"},"vehicle_type_id":"4","last_reported":1731399126,"current_range_meters":29600,"station_id":"ce4bgs12rcd13ifvqcag","pricing_plan_id":"cebpf4jnsgd1na2vs0mg"},{"bike_id":"b101fd27-9e23-4f31-abdd-6393677f4589","system_id":"levelo_inurba_marseille","lat":43.24074,"lon":5.37758,"is_reserved":false,"is_disabled":false,"rental_uris":{"android":"levelo://app?vid=b101fd27-9e23-4f31-abdd-6393677f4589","ios":"levelo://app?vid=b101fd27-9e23-4f31-abdd-6393677f4589"},"vehicle_type_id":"4","last_reported":1731399126,"current_range_meters":36400,"station_id":"ce4bhnp2rcd13ifvqgvg","pricing_plan_id":"cebpf4jnsgd1na2vs0mg"},{"bike_id":"0c0c226c-4311-40bc-966e-4d8a46b2c5c4","system_id":"levelo_inurba_marseille","lat":43.24073,"lon":5.37757,"is_reserved":false,"is_disabled":false,"rental_uris":{"android":"levelo://app?vid=0c0c226c-4311-40bc-966e-4d8a46b2c5c4","ios":"levelo://app?vid=0c0c226c-4311-40bc-966e-4d8a46b2c5c4"},"vehicle_type_id":"4","last_reported":1731399126,"current_range_meters":18000,"station_id":"ce4bhnp2rcd13ifvqgvg","pricing_plan_id":"cebpf4jnsgd1na2vs0mg"},{"bike_id":"ed39f7b9-0b8a-4672-ad2f-ed6ad22a9745","system_id":"levelo_inurba_marseille","lat":43.33601,"lon":5.41038,"is_reserved":false,"is_disabled":false,"rental_uris":{"android":"levelo://app?vid=ed39f7b9-0b8a-4672-ad2f-ed6ad22a9745","ios":"levelo://app?vid=ed39f7b9-0b8a-4672-ad2f-ed6ad22a9745"},"vehicle_type_id":"4","last_reported":1731399126,"current_range_meters":19600,"station_id":"ce4bhqh2rcd13ifvqhmg","pricing_plan_id":"cebpf4jnsgd1na2vs0mg"},{"bike_id":"83d27623-227b-45b4-b121-38b16d39aef2","system_id":"levelo_inurba_marseille","lat":43.24543,"lon":5.39528,"is_reserved":false,"is_disabled":false,"rental_uris":{"android":"levelo://app?vid=83d27623-227b-45b4-b121-38b16d39aef2","ios":"levelo://app?vid=83d27623-227b-45b4-b121-38b16d39aef2"},"vehicle_type_id":"4","last_reported":1731399126,"current_range_meters":31200,"station_id":"ce4bhlp2rcd13ifvqgjg","pricing_plan_id":"cebpf4jnsgd1na2vs0mg"},{"bike_id":"edbaf3ce-6eb0-4353-891d-35d879a61734","system_id":"levelo_inurba_marseille","lat":43.3229,"lon":5.38273,"is_reserved":false,"is_disabled":false,"rental_uris":{"android":"levelo://app?vid=edbaf3ce-6eb0-4353-891d-35d879a61734","ios":"levelo://app?vid=edbaf3ce-6eb0-4353-891d-35d879a61734"},"vehicle_type_id":"4","last_reported":1731399126,"current_range_meters":33200,"station_id":"ce4bhr12rcd13ifvqhqg","pricing_plan_id":"cebpf4jnsgd1na2vs0mg"},{"bike_id":"29c01c91-58dc-4ed0-a5c3-e829489caba9","system_id":"levelo_inurba_marseille","lat":43.30947,"lon":5.39039,"is_reserved":false,"is_disabled":false,"rental_uris":{"android":"levelo://app?vid=29c01c91-58dc-4ed0-a5c3-e829489caba9","ios":"levelo://app?vid=29c01c91-58dc-4ed0-a5c3-e829489caba9"},"vehicle_type_id":"4","last_reported":1731399126,"current_range_meters":30000,"station_id":"ce4bgup2rcd13ifvqco0","pricing_plan_id":"cebpf4jnsgd1na2vs0mg"},{"bike_id":"e7f46eb4-6b70-41c0-b2ec-d4f5352531c8","system_id":"levelo_inurba_marseille","lat":43.275,"lon":5.42445,"is_reserved":false,"is_disabled":false,"rental_uris":{"android":"levelo://app?vid=e7f46eb4-6b70-41c0-b2ec-d4f5352531c8","ios":"levelo://app?vid=e7f46eb4-6b70-41c0-b2ec-d4f5352531c8"},"vehicle_type_id":"4","last_reported":1731399126,"current_range_meters":35200,"station_id":"ce4bhn92rcd13ifvqgrg","pricing_plan_id":"cebpf4jnsgd1na2vs0mg"},{"bike_id":"9e463de3-d076-4eb4-920d-8d7f44b93168","system_id":"levelo_inurba_marseille","lat":43.276139,"lon":5.36104,"is_reserved":false,"is_disabled":false,"rental_uris":{"android":"levelo://app?vid=9e463de3-d076-4eb4-920d-8d7f44b93168","ios":"levelo://app?vid=9e463de3-d076-4eb4-920d-8d7f44b93168"},"vehicle_type_id":"4","last_reported":1731399126,"current_range_meters":38000,"station_id":"ce4bgj92rcd13ifvqbe0","pricing_plan_id":"cebpf4jnsgd1na2vs0mg"},{"bike_id":"c2c0c158-e994-4346-894a-aa2c5884f6bb","system_id":"levelo_inurba_marseille","lat":43.25489,"lon":5.37652,"is_reserved":false,"is_disabled":false,"rental_uris":{"android":"levelo://app?vid=c2c0c158-e994-4346-894a-aa2c5884f6bb","ios":"levelo://app?vid=c2c0c158-e994-4346-894a-aa2c5884f6bb"},"vehicle_type_id":"4","last_reported":1731399126,"current_range_meters":36800,"station_id":"ce4bhh12rcd13ifvqff0","pricing_plan_id":"cebpf4jnsgd1na2vs0mg"},{"bike_id":"176b11c1-0ad5-4d87-86c1-568c22801886","system_id":"levelo_inurba_marseille","lat":43.2904,"lon":5.37542,"is_reserved":false,"is_disabled":false,"rental_uris":{"android":"levelo://app?vid=176b11c1-0ad5-4d87-86c1-568c22801886","ios":"levelo://app?vid=176b11c1-0ad5-4d87-86c1-568c22801886"},"vehicle_type_id":"4","last_reported":1731399126,"current_range_meters":32400,"station_id":"ce4bh692rcd13ifvqe90","pricing_plan_id":"cebpf4jnsgd1na2vs0mg"},{"bike_id":"6e10a7c4-8d89-4533-93b6-d9e04eb0b330","system_id":"levelo_inurba_marseille","lat":43.3091,"lon":5.36852,"is_reserved":false,"is_disabled":false,"rental_uris":{"android":"levelo://app?vid=6e10a7c4-8d89-4533-93b6-d9e04eb0b330","ios":"levelo://app?vid=6e10a7c4-8d89-4533-93b6-d9e04eb0b330"},"vehicle_type_id":"4","last_reported":1731399126,"current_range_meters":27200,"station_id":"ce4bgn92rcd13ifvqbvg","pricing_plan_id":"cebpf4jnsgd1na2vs0mg"},{"bike_id":"aa3ec2fd-0efd-439c-b6af-32c66c48e006","system_id":"levelo_inurba_marseille","lat":43.24069,"lon":5.37764,"is_reserved":false,"is_disabled":false,"rental_uris":{"android":"levelo://app?vid=aa3ec2fd-0efd-439c-b6af-32c66c48e006","ios":"levelo://app?vid=aa3ec2fd-0efd-439c-b6af-32c66c48e006"},"vehicle_type_id":"4","last_reported":1731399126,"current_range_meters":15200,"station_id":"ce4bhnp2rcd13ifvqgvg","pricing_plan_id":"cebpf4jnsgd1na2vs0mg"},{"bike_id":"dd2b8768-f22e-480b-8778-9d9e6cf2b8b7","system_id":"levelo_inurba_marseille","lat":43.27437,"lon":5.39411,"is_reserved":false,"is_disabled":false,"rental_uris":{"android":"levelo://app?vid=dd2b8768-f22e-480b-8778-9d9e6cf2b8b7","ios":"levelo://app?vid=dd2b8768-f22e-480b-8778-9d9e6cf2b8b7"},"vehicle_type_id":"4","last_reported":1731399126,"current_range_meters":30800,"station_id":"ce4bhdp2rcd13ifvqf20","pricing_plan_id":"cebpf4jnsgd1na2vs0mg"},{"bike_id":"eb101efd-ef01-4c68-9587-f7629a0e8c98","system_id":"levelo_inurba_marseille","lat":43.34138,"lon":5.40906,"is_reserved":false,"is_disabled":false,"rental_uris":{"android":"levelo://app?vid=eb101efd-ef01-4c68-9587-f7629a0e8c98","ios":"levelo://app?vid=eb101efd-ef01-4c68-9587-f7629a0e8c98"},"vehicle_type_id":"4","last_reported":1731399126,"current_range_meters":23200,"station_id":"ce4bhqh2rcd13ifvqhlg","pricing_plan_id":"cebpf4jnsgd1na2vs0mg"},{"bike_id":"49b84d54-e9a8-414b-8f96-35ff1ec47098","system_id":"levelo_inurba_marseille","lat":43.24067,"lon":5.37763,"is_reserved":false,"is_disabled":false,"rental_uris":{"android":"levelo://app?vid=49b84d54-e9a8-414b-8f96-35ff1ec47098","ios":"levelo://app?vid=49b84d54-e9a8-414b-8f96-35ff1ec47098"},"vehicle_type_id":"4","last_reported":1731399126,"current_range_meters":25600,"station_id":"ce4bhnp2rcd13ifvqgvg","pricing_plan_id":"cebpf4jnsgd1na2vs0mg"},{"bike_id":"8af6838a-5ba9-411f-a20f-25a00328e0bc","system_id":"levelo_inurba_marseille","lat":43.25939,"lon":5.40907,"is_reserved":false,"is_disabled":false,"rental_uris":{"android":"levelo://app?vid=8af6838a-5ba9-411f-a20f-25a00328e0bc","ios":"levelo://app?vid=8af6838a-5ba9-411f-a20f-25a00328e0bc"},"vehicle_type_id":"4","last_reported":1731399126,"current_range_meters":8000,"station_id":"ce4bhm92rcd13ifvqglg","pricing_plan_id":"cebpf4jnsgd1na2vs0mg"},{"bike_id":"46e398fd-7ee1-407b-992c-4526ab590e8d","system_id":"levelo_inurba_marseille","lat":43.27177,"lon":5.40997,"is_reserved":false,"is_disabled":false,"rental_uris":{"android":"levelo://app?vid=46e398fd-7ee1-407b-992c-4526ab590e8d","ios":"levelo://app?vid=46e398fd-7ee1-407b-992c-4526ab590e8d"},"vehicle_type_id":"4","last_reported":1731399126,"current_range_meters":36000,"station_id":"ce4bhl12rcd13ifvqgf0","pricing_plan_id":"cebpf4jnsgd1na2vs0mg"},{"bike_id":"5d5336c7-9cee-434d-a908-9eb965076091","system_id":"levelo_inurba_marseille","lat":43.29281,"lon":5.36841,"is_reserved":false,"is_disabled":false,"rental_uris":{"android":"levelo://app?vid=5d5336c7-9cee-434d-a908-9eb965076091","ios":"levelo://app?vid=5d5336c7-9cee-434d-a908-9eb965076091"},"vehicle_type_id":"4","last_reported":1731399126,"current_range_meters":38800,"station_id":"ce4bhbp2rcd13ifvqesg","pricing_plan_id":"cebpf4jnsgd1na2vs0mg"},{"bike_id":"f5f7adb1-08a0-41e5-84f8-4eacbb87fa6f","system_id":"levelo_inurba_marseille","lat":43.23958,"lon":5.36638,"is_reserved":false,"is_disabled":false,"rental_uris":{"android":"levelo://app?vid=f5f7adb1-08a0-41e5-84f8-4eacbb87fa6f","ios":"levelo://app?vid=f5f7adb1-08a0-41e5-84f8-4eacbb87fa6f"},"vehicle_type_id":"4","last_reported":1731399126,"current_range_meters":36800,"station_id":"ce4bhi12rcd13ifvqfp0","pricing_plan_id":"cebpf4jnsgd1na2vs0mg"},{"bike_id":"cd3763b4-c6c9-439a-8c88-6b6d78464d6e","system_id":"levelo_inurba_marseille","lat":43.337444,"lon":5.374475,"is_reserved":false,"is_disabled":false,"rental_uris":{"android":"levelo://app?vid=cd3763b4-c6c9-439a-8c88-6b6d78464d6e","ios":"levelo://app?vid=cd3763b4-c6c9-439a-8c88-6b6d78464d6e"},"vehicle_type_id":"4","last_reported":1731399126,"current_range_meters":33200,"station_id":"","pricing_plan_id":"cebpf4jnsgd1na2vs0mg"},{"bike_id":"92458f41-bfe8-46d5-a2b8-66b90a905a47","system_id":"levelo_inurba_marseille","lat":43.3414,"lon":5.40912,"is_reserved":false,"is_disabled":false,"rental_uris":{"android":"levelo://app?vid=92458f41-bfe8-46d5-a2b8-66b90a905a47","ios":"levelo://app?vid=92458f41-bfe8-46d5-a2b8-66b90a905a47"},"vehicle_type_id":"4","last_reported":1731399126,"current_range_meters":35600,"station_id":"ce4bhqh2rcd13ifvqhlg","pricing_plan_id":"cebpf4jnsgd1na2vs0mg"},{"bike_id":"4ff31215-b27c-4216-a47b-49f90acf9dde","system_id":"levelo_inurba_marseille","lat":43.29034,"lon":5.39974,"is_reserved":false,"is_disabled":false,"rental_uris":{"android":"levelo://app?vid=4ff31215-b27c-4216-a47b-49f90acf9dde","ios":"levelo://app?vid=4ff31215-b27c-4216-a47b-49f90acf9dde"},"vehicle_type_id":"4","last_reported":1731399126,"current_range_meters":26800,"station_id":"ce4bh392rcd13ifvqdm0","pricing_plan_id":"cebpf4jnsgd1na2vs0mg"},{"bike_id":"002ea831-86df-4729-a086-c17469923863","system_id":"levelo_inurba_marseille","lat":43.24082,"lon":5.37754,"is_reserved":false,"is_disabled":false,"rental_uris":{"android":"levelo://app?vid=002ea831-86df-4729-a086-c17469923863","ios":"levelo://app?vid=002ea831-86df-4729-a086-c17469923863"},"vehicle_type_id":"4","last_reported":1731399126,"current_range_meters":33200,"station_id":"ce4bhnp2rcd13ifvqgvg","pricing_plan_id":"cebpf4jnsgd1na2vs0mg"},{"bike_id":"eedf0c2a-a7d8-44a6-ab26-4773ad682f4a","system_id":"levelo_inurba_marseille","lat":43.30533,"lon":5.36537,"is_reserved":false,"is_disabled":false,"rental_uris":{"android":"levelo://app?vid=eedf0c2a-a7d8-44a6-ab26-4773ad682f4a","ios":"levelo://app?vid=eedf0c2a-a7d8-44a6-ab26-4773ad682f4a"},"vehicle_type_id":"4","last_reported":1731399126,"current_range_meters":28400,"station_id":"ce4bgs12rcd13ifvqcag","pricing_plan_id":"cebpf4jnsgd1na2vs0mg"},{"bike_id":"fe96562b-5601-498a-af19-9d68eb44f05f","system_id":"levelo_inurba_marseille","lat":43.32538,"lon":5.41429,"is_reserved":false,"is_disabled":false,"rental_uris":{"android":"levelo://app?vid=fe96562b-5601-498a-af19-9d68eb44f05f","ios":"levelo://app?vid=fe96562b-5601-498a-af19-9d68eb44f05f"},"vehicle_type_id":"4","last_reported":1731399126,"current_range_meters":38800,"station_id":"ce4bhq12rcd13ifvqhhg","pricing_plan_id":"cebpf4jnsgd1na2vs0mg"},{"bike_id":"51e4106b-ae7d-4ceb-b87d-0c30ad9b3b74","system_id":"levelo_inurba_marseille","lat":43.33613,"lon":5.41022,"is_reserved":false,"is_disabled":false,"rental_uris":{"android":"levelo://app?vid=51e4106b-ae7d-4ceb-b87d-0c30ad9b3b74","ios":"levelo://app?vid=51e4106b-ae7d-4ceb-b87d-0c30ad9b3b74"},"vehicle_type_id":"4","last_reported":1731399126,"current_range_meters":38400,"station_id":"ce4bhqh2rcd13ifvqhmg","pricing_plan_id":"cebpf4jnsgd1na2vs0mg"},{"bike_id":"34c4e5fd-d09b-481c-889a-20f2df0a03b0","system_id":"levelo_inurba_marseille","lat":43.28156,"lon":5.42642,"is_reserved":false,"is_disabled":false,"rental_uris":{"android":"levelo://app?vid=34c4e5fd-d09b-481c-889a-20f2df0a03b0","ios":"levelo://app?vid=34c4e5fd-d09b-481c-889a-20f2df0a03b0"},"vehicle_type_id":"4","last_reported":1731399126,"current_range_meters":38400,"station_id":"ce4bhnh2rcd13ifvqgug","pricing_plan_id":"cebpf4jnsgd1na2vs0mg"},{"bike_id":"e4b422ee-c56c-42a5-8df2-24e8624e43d7","system_id":"levelo_inurba_marseille","lat":43.25936,"lon":5.40907,"is_reserved":false,"is_disabled":false,"rental_uris":{"android":"levelo://app?vid=e4b422ee-c56c-42a5-8df2-24e8624e43d7","ios":"levelo://app?vid=e4b422ee-c56c-42a5-8df2-24e8624e43d7"},"vehicle_type_id":"4","last_reported":1731399126,"current_range_meters":36000,"station_id":"ce4bhm92rcd13ifvqglg","pricing_plan_id":"cebpf4jnsgd1na2vs0mg"},{"bike_id":"693d290c-191b-4a92-b699-a1a8f33fc5db","system_id":"levelo_inurba_marseille","lat":43.295345,"lon":5.385465,"is_reserved":false,"is_disabled":false,"rental_uris":{"android":"levelo://app?vid=693d290c-191b-4a92-b699-a1a8f33fc5db","ios":"levelo://app?vid=693d290c-191b-4a92-b699-a1a8f33fc5db"},"vehicle_type_id":"4","last_reported":1731399126,"current_range_meters":37600,"station_id":"ce4bgop2rcd13ifvqc1g","pricing_plan_id":"cebpf4jnsgd1na2vs0mg"},{"bike_id":"179ef5db-524e-49c2-8579-82888fe5a674","system_id":"levelo_inurba_marseille","lat":43.31346,"lon":5.36725,"is_reserved":false,"is_disabled":false,"rental_uris":{"android":"levelo://app?vid=179ef5db-524e-49c2-8579-82888fe5a674","ios":"levelo://app?vid=179ef5db-524e-49c2-8579-82888fe5a674"},"vehicle_type_id":"4","last_reported":1731399126,"current_range_meters":39200,"station_id":"ce4bgr92rcd13ifvqc6g","pricing_plan_id":"cebpf4jnsgd1na2vs0mg"},{"bike_id":"c1cf26bf-1f25-4767-ba81-38705b5e7c9b","system_id":"levelo_inurba_marseille","lat":43.30294,"lon":5.37699,"is_reserved":false,"is_disabled":false,"rental_uris":{"android":"levelo://app?vid=c1cf26bf-1f25-4767-ba81-38705b5e7c9b","ios":"levelo://app?vid=c1cf26bf-1f25-4767-ba81-38705b5e7c9b"},"vehicle_type_id":"4","last_reported":1731399126,"current_range_meters":22800,"station_id":"ce4bguh2rcd13ifvqcj0","pricing_plan_id":"cebpf4jnsgd1na2vs0mg"},{"bike_id":"ce5c4408-a498-477d-a7ac-bb317a01e832","system_id":"levelo_inurba_marseille","lat":43.28707,"lon":5.37928,"is_reserved":false,"is_disabled":false,"rental_uris":{"android":"levelo://app?vid=ce5c4408-a498-477d-a7ac-bb317a01e832","ios":"levelo://app?vid=ce5c4408-a498-477d-a7ac-bb317a01e832"},"vehicle_type_id":"4","last_reported":1731399126,"current_range_meters":30000,"station_id":"ce4bh9p2rcd13ifvqec0","pricing_plan_id":"cebpf4jnsgd1na2vs0mg"},{"bike_id":"b6649fd5-6529-4736-962c-37237ff042d4","system_id":"levelo_inurba_marseille","lat":43.26564,"lon":5.38999,"is_reserved":false,"is_disabled":false,"rental_uris":{"android":"levelo://app?vid=b6649fd5-6529-4736-962c-37237ff042d4","ios":"levelo://app?vid=b6649fd5-6529-4736-962c-37237ff042d4"},"vehicle_type_id":"4","last_reported":1731399126,"current_range_meters":36800,"station_id":"ce4bhe12rcd13ifvqf30","pricing_plan_id":"cebpf4jnsgd1na2vs0mg"},{"bike_id":"c5fbd54c-1338-4a6e-a2bb-558c73be5fd0","system_id":"levelo_inurba_marseille","lat":43.28979,"lon":5.37837,"is_reserved":false,"is_disabled":false,"rental_uris":{"android":"levelo://app?vid=c5fbd54c-1338-4a6e-a2bb-558c73be5fd0","ios":"levelo://app?vid=c5fbd54c-1338-4a6e-a2bb-558c73be5fd0"},"vehicle_type_id":"4","last_reported":1731399126,"current_range_meters":26000,"station_id":"ce4bh9p2rcd13ifvqed0","pricing_plan_id":"cebpf4jnsgd1na2vs0mg"},{"bike_id":"6be11af8-ae51-43fa-b143-e3077cde111f","system_id":"levelo_inurba_marseille","lat":43.26956,"lon":5.3863,"is_reserved":false,"is_disabled":false,"rental_uris":{"android":"levelo://app?vid=6be11af8-ae51-43fa-b143-e3077cde111f","ios":"levelo://app?vid=6be11af8-ae51-43fa-b143-e3077cde111f"},"vehicle_type_id":"4","last_reported":1731399126,"current_range_meters":38800,"station_id":"ce4bhh92rcd13ifvqfh0","pricing_plan_id":"cebpf4jnsgd1na2vs0mg"},{"bike_id":"1d75d4ce-da07-47a0-83ad-027ef32b7b53","system_id":"levelo_inurba_marseille","lat":43.27403,"lon":5.38939,"is_reserved":false,"is_disabled":false,"rental_uris":{"android":"levelo://app?vid=1d75d4ce-da07-47a0-83ad-027ef32b7b53","ios":"levelo://app?vid=1d75d4ce-da07-47a0-83ad-027ef32b7b53"},"vehicle_type_id":"4","last_reported":1731399126,"current_range_meters":16000,"station_id":"","pricing_plan_id":"cebpf4jnsgd1na2vs0mg"},{"bike_id":"0b006fb3-804d-41b0-9b56-41fc325ad39f","system_id":"levelo_inurba_marseille","lat":43.27488,"lon":5.42456,"is_reserved":false,"is_disabled":false,"rental_uris":{"android":"levelo://app?vid=0b006fb3-804d-41b0-9b56-41fc325ad39f","ios":"levelo://app?vid=0b006fb3-804d-41b0-9b56-41fc325ad39f"},"vehicle_type_id":"4","last_reported":1731399126,"current_range_meters":38800,"station_id":"ce4bhn92rcd13ifvqgrg","pricing_plan_id":"cebpf4jnsgd1na2vs0mg"},{"bike_id":"d881a04b-7487-46c8-bcc3-e9689650446f","system_id":"levelo_inurba_marseille","lat":43.26191,"lon":5.3745,"is_reserved":false,"is_disabled":false,"rental_uris":{"android":"levelo://app?vid=d881a04b-7487-46c8-bcc3-e9689650446f","ios":"levelo://app?vid=d881a04b-7487-46c8-bcc3-e9689650446f"},"vehicle_type_id":"4","last_reported":1731399126,"current_range_meters":38000,"station_id":"ce4bhgp2rcd13ifvqfc0","pricing_plan_id":"cebpf4jnsgd1na2vs0mg"},{"bike_id":"14f63860-a6d5-45f4-b937-f276623be314","system_id":"levelo_inurba_marseille","lat":43.2958,"lon":5.36736,"is_reserved":false,"is_disabled":false,"rental_uris":{"android":"levelo://app?vid=14f63860-a6d5-45f4-b937-f276623be314","ios":"levelo://app?vid=14f63860-a6d5-45f4-b937-f276623be314"},"vehicle_type_id":"4","last_reported":1731399126,"current_range_meters":19200,"station_id":"ce4bgph2rcd13ifvqc2g","pricing_plan_id":"cebpf4jnsgd1na2vs0mg"},{"bike_id":"4be7edbe-5982-45b2-a3b1-2e4ca0a06526","system_id":"levelo_inurba_marseille","lat":43.24072,"lon":5.37754,"is_reserved":false,"is_disabled":false,"rental_uris":{"android":"levelo://app?vid=4be7edbe-5982-45b2-a3b1-2e4ca0a06526","ios":"levelo://app?vid=4be7edbe-5982-45b2-a3b1-2e4ca0a06526"},"vehicle_type_id":"4","last_reported":1731399126,"current_range_meters":39200,"station_id":"ce4bhnp2rcd13ifvqgvg","pricing_plan_id":"cebpf4jnsgd1na2vs0mg"},{"bike_id":"36eeb58a-a7f6-473b-bbae-38abfebe226c","system_id":"levelo_inurba_marseille","lat":43.30903,"lon":5.36854,"is_reserved":false,"is_disabled":false,"rental_uris":{"android":"levelo://app?vid=36eeb58a-a7f6-473b-bbae-38abfebe226c","ios":"levelo://app?vid=36eeb58a-a7f6-473b-bbae-38abfebe226c"},"vehicle_type_id":"4","last_reported":1731399126,"current_range_meters":27200,"station_id":"ce4bgn92rcd13ifvqbvg","pricing_plan_id":"cebpf4jnsgd1na2vs0mg"},{"bike_id":"550f848b-ada4-405a-a9af-7b11afaa578c","system_id":"levelo_inurba_marseille","lat":43.25938,"lon":5.40896,"is_reserved":false,"is_disabled":false,"rental_uris":{"android":"levelo://app?vid=550f848b-ada4-405a-a9af-7b11afaa578c","ios":"levelo://app?vid=550f848b-ada4-405a-a9af-7b11afaa578c"},"vehicle_type_id":"4","last_reported":1731399126,"current_range_meters":34800,"station_id":"ce4bhm92rcd13ifvqglg","pricing_plan_id":"cebpf4jnsgd1na2vs0mg"},{"bike_id":"8fa421b0-0fd3-44f0-8b0e-2347348fad2e","system_id":"levelo_inurba_marseille","lat":43.2465,"lon":5.38891,"is_reserved":false,"is_disabled":false,"rental_uris":{"android":"levelo://app?vid=8fa421b0-0fd3-44f0-8b0e-2347348fad2e","ios":"levelo://app?vid=8fa421b0-0fd3-44f0-8b0e-2347348fad2e"},"vehicle_type_id":"4","last_reported":1731399126,"current_range_meters":39200,"station_id":"ce4bhg12rcd13ifvqf60","pricing_plan_id":"cebpf4jnsgd1na2vs0mg"},{"bike_id":"348da5c4-c4fe-4df0-98e3-b5f3b4a4d069","system_id":"levelo_inurba_marseille","lat":43.29623,"lon":5.37171,"is_reserved":false,"is_disabled":false,"rental_uris":{"android":"levelo://app?vid=348da5c4-c4fe-4df0-98e3-b5f3b4a4d069","ios":"levelo://app?vid=348da5c4-c4fe-4df0-98e3-b5f3b4a4d069"},"vehicle_type_id":"4","last_reported":1731399126,"current_range_meters":38400,"station_id":"ce4bgnh2rcd13ifvqc0g","pricing_plan_id":"cebpf4jnsgd1na2vs0mg"},{"bike_id":"c2cda817-43f0-435f-bd1d-0ba8e14369aa","system_id":"levelo_inurba_marseille","lat":43.24075,"lon":5.37761,"is_reserved":false,"is_disabled":false,"rental_uris":{"android":"levelo://app?vid=c2cda817-43f0-435f-bd1d-0ba8e14369aa","ios":"levelo://app?vid=c2cda817-43f0-435f-bd1d-0ba8e14369aa"},"vehicle_type_id":"4","last_reported":1731399126,"current_range_meters":35600,"station_id":"ce4bhnp2rcd13ifvqgvg","pricing_plan_id":"cebpf4jnsgd1na2vs0mg"},{"bike_id":"baaa39cf-465b-4418-99fd-ba295674b398","system_id":"levelo_inurba_marseille","lat":43.314771,"lon":5.373124,"is_reserved":false,"is_disabled":false,"rental_uris":{"android":"levelo://app?vid=baaa39cf-465b-4418-99fd-ba295674b398","ios":"levelo://app?vid=baaa39cf-465b-4418-99fd-ba295674b398"},"vehicle_type_id":"4","last_reported":1731399126,"current_range_meters":30000,"station_id":"ce4bgt12rcd13ifvqcd0","pricing_plan_id":"cebpf4jnsgd1na2vs0mg"},{"bike_id":"3f437964-ab70-4ad4-8866-b043fda0ebd3","system_id":"levelo_inurba_marseille","lat":43.30786,"lon":5.37642,"is_reserved":false,"is_disabled":false,"rental_uris":{"android":"levelo://app?vid=3f437964-ab70-4ad4-8866-b043fda0ebd3","ios":"levelo://app?vid=3f437964-ab70-4ad4-8866-b043fda0ebd3"},"vehicle_type_id":"4","last_reported":1731399126,"current_range_meters":35600,"station_id":"ce4bgv92rcd13ifvqcq0","pricing_plan_id":"cebpf4jnsgd1na2vs0mg"},{"bike_id":"3de661d5-1b69-41ad-8414-baf2d38948e3","system_id":"levelo_inurba_marseille","lat":43.29307,"lon":5.37195,"is_reserved":false,"is_disabled":false,"rental_uris":{"android":"levelo://app?vid=3de661d5-1b69-41ad-8414-baf2d38948e3","ios":"levelo://app?vid=3de661d5-1b69-41ad-8414-baf2d38948e3"},"vehicle_type_id":"4","last_reported":1731399126,"current_range_meters":38000,"station_id":"ce4bgh92rcd13ifvqb40","pricing_plan_id":"cebpf4jnsgd1na2vs0mg"},{"bike_id":"9c9e0c5a-2fcf-4a2b-a3ec-94e915bc3bba","system_id":"levelo_inurba_marseille","lat":43.30549,"lon":5.367,"is_reserved":false,"is_disabled":false,"rental_uris":{"android":"levelo://app?vid=9c9e0c5a-2fcf-4a2b-a3ec-94e915bc3bba","ios":"levelo://app?vid=9c9e0c5a-2fcf-4a2b-a3ec-94e915bc3bba"},"vehicle_type_id":"4","last_reported":1731399126,"current_range_meters":35600,"station_id":"ce4bgrp2rcd13ifvqc9g","pricing_plan_id":"cebpf4jnsgd1na2vs0mg"},{"bike_id":"784616cb-3dcc-4a17-ae25-f5786a0d223a","system_id":"levelo_inurba_marseille","lat":43.337444,"lon":5.374475,"is_reserved":false,"is_disabled":false,"rental_uris":{"android":"levelo://app?vid=784616cb-3dcc-4a17-ae25-f5786a0d223a","ios":"levelo://app?vid=784616cb-3dcc-4a17-ae25-f5786a0d223a"},"vehicle_type_id":"4","last_reported":1731399126,"current_range_meters":33600,"station_id":"","pricing_plan_id":"cebpf4jnsgd1na2vs0mg"},{"bike_id":"da885111-535b-4329-b013-a1bab5dd6158","system_id":"levelo_inurba_marseille","lat":43.2408,"lon":5.37757,"is_reserved":false,"is_disabled":false,"rental_uris":{"android":"levelo://app?vid=da885111-535b-4329-b013-a1bab5dd6158","ios":"levelo://app?vid=da885111-535b-4329-b013-a1bab5dd6158"},"vehicle_type_id":"4","last_reported":1731399126,"current_range_meters":34000,"station_id":"ce4bhnp2rcd13ifvqgvg","pricing_plan_id":"cebpf4jnsgd1na2vs0mg"},{"bike_id":"cd624a46-7c22-4a05-8916-495388cc6377","system_id":"levelo_inurba_marseille","lat":43.30899,"lon":5.36862,"is_reserved":false,"is_disabled":false,"rental_uris":{"android":"levelo://app?vid=cd624a46-7c22-4a05-8916-495388cc6377","ios":"levelo://app?vid=cd624a46-7c22-4a05-8916-495388cc6377"},"vehicle_type_id":"4","last_reported":1731399126,"current_range_meters":33200,"station_id":"ce4bgn92rcd13ifvqbvg","pricing_plan_id":"cebpf4jnsgd1na2vs0mg"},{"bike_id":"bbfcbce8-7188-4bb5-8aac-7d52bbdbdcf7","system_id":"levelo_inurba_marseille","lat":43.26025,"lon":5.37555,"is_reserved":false,"is_disabled":false,"rental_uris":{"android":"levelo://app?vid=bbfcbce8-7188-4bb5-8aac-7d52bbdbdcf7","ios":"levelo://app?vid=bbfcbce8-7188-4bb5-8aac-7d52bbdbdcf7"},"vehicle_type_id":"4","last_reported":1731399126,"current_range_meters":25600,"station_id":"ce4bhgh2rcd13ifvqfa0","pricing_plan_id":"cebpf4jnsgd1na2vs0mg"},{"bike_id":"a981cddb-35b3-4b69-a3bf-cfde7e96370a","system_id":"levelo_inurba_marseille","lat":43.2315,"lon":5.43716,"is_reserved":false,"is_disabled":false,"rental_uris":{"android":"levelo://app?vid=a981cddb-35b3-4b69-a3bf-cfde7e96370a","ios":"levelo://app?vid=a981cddb-35b3-4b69-a3bf-cfde7e96370a"},"vehicle_type_id":"4","last_reported":1731399126,"current_range_meters":40000,"station_id":"ce4bhmp2rcd13ifvqgog","pricing_plan_id":"cebpf4jnsgd1na2vs0mg"},{"bike_id":"9b418ee2-e5cb-47ca-a8a0-5edbaa5c3582","system_id":"levelo_inurba_marseille","lat":43.29324,"lon":5.37173,"is_reserved":false,"is_disabled":false,"rental_uris":{"android":"levelo://app?vid=9b418ee2-e5cb-47ca-a8a0-5edbaa5c3582","ios":"levelo://app?vid=9b418ee2-e5cb-47ca-a8a0-5edbaa5c3582"},"vehicle_type_id":"4","last_reported":1731399126,"current_range_meters":36800,"station_id":"ce4bgh92rcd13ifvqb40","pricing_plan_id":"cebpf4jnsgd1na2vs0mg"},{"bike_id":"21d240de-d0d6-4de1-967d-3ce181de475e","system_id":"levelo_inurba_marseille","lat":43.31344,"lon":5.36731,"is_reserved":false,"is_disabled":false,"rental_uris":{"android":"levelo://app?vid=21d240de-d0d6-4de1-967d-3ce181de475e","ios":"levelo://app?vid=21d240de-d0d6-4de1-967d-3ce181de475e"},"vehicle_type_id":"4","last_reported":1731399126,"current_range_meters":8800,"station_id":"ce4bgr92rcd13ifvqc6g","pricing_plan_id":"cebpf4jnsgd1na2vs0mg"},{"bike_id":"0e2a69ec-b7ef-44c0-a22a-09843c03940d","system_id":"levelo_inurba_marseille","lat":43.26957,"lon":5.38634,"is_reserved":false,"is_disabled":false,"rental_uris":{"android":"levelo://app?vid=0e2a69ec-b7ef-44c0-a22a-09843c03940d","ios":"levelo://app?vid=0e2a69ec-b7ef-44c0-a22a-09843c03940d"},"vehicle_type_id":"4","last_reported":1731399126,"current_range_meters":19600,"station_id":"ce4bhh92rcd13ifvqfh0","pricing_plan_id":"cebpf4jnsgd1na2vs0mg"},{"bike_id":"492b92a4-5f6a-4461-b9e9-e47a37f2982b","system_id":"levelo_inurba_marseille","lat":43.30527,"lon":5.36722,"is_reserved":false,"is_disabled":false,"rental_uris":{"android":"levelo://app?vid=492b92a4-5f6a-4461-b9e9-e47a37f2982b","ios":"levelo://app?vid=492b92a4-5f6a-4461-b9e9-e47a37f2982b"},"vehicle_type_id":"4","last_reported":1731399126,"current_range_meters":16000,"station_id":"ce4bgrp2rcd13ifvqc9g","pricing_plan_id":"cebpf4jnsgd1na2vs0mg"},{"bike_id":"181fa628-fd06-4339-88f4-5d411c857699","system_id":"levelo_inurba_marseille","lat":43.27069,"lon":5.42281,"is_reserved":false,"is_disabled":false,"rental_uris":{"android":"levelo://app?vid=181fa628-fd06-4339-88f4-5d411c857699","ios":"levelo://app?vid=181fa628-fd06-4339-88f4-5d411c857699"},"vehicle_type_id":"4","last_reported":1731399126,"current_range_meters":32800,"station_id":"ce4bhk92rcd13ifvqgb0","pricing_plan_id":"cebpf4jnsgd1na2vs0mg"},{"bike_id":"dedebbd7-cd48-4e0f-ba6c-d883239ca2dd","system_id":"levelo_inurba_marseille","lat":43.25587,"lon":5.3823,"is_reserved":false,"is_disabled":false,"rental_uris":{"android":"levelo://app?vid=dedebbd7-cd48-4e0f-ba6c-d883239ca2dd","ios":"levelo://app?vid=dedebbd7-cd48-4e0f-ba6c-d883239ca2dd"},"vehicle_type_id":"4","last_reported":1731399126,"current_range_meters":32400,"station_id":"ce4bhih2rcd13ifvqfs0","pricing_plan_id":"cebpf4jnsgd1na2vs0mg"},{"bike_id":"66e87406-2b0a-40a2-ac3f-a3194ab98cae","system_id":"levelo_inurba_marseille","lat":43.30913,"lon":5.36844,"is_reserved":false,"is_disabled":false,"rental_uris":{"android":"levelo://app?vid=66e87406-2b0a-40a2-ac3f-a3194ab98cae","ios":"levelo://app?vid=66e87406-2b0a-40a2-ac3f-a3194ab98cae"},"vehicle_type_id":"4","last_reported":1731399126,"current_range_meters":18800,"station_id":"ce4bgn92rcd13ifvqbvg","pricing_plan_id":"cebpf4jnsgd1na2vs0mg"},{"bike_id":"bd5d2367-1e38-44d1-9328-f8a27f959ddf","system_id":"levelo_inurba_marseille","lat":43.3053,"lon":5.36533,"is_reserved":false,"is_disabled":false,"rental_uris":{"android":"levelo://app?vid=bd5d2367-1e38-44d1-9328-f8a27f959ddf","ios":"levelo://app?vid=bd5d2367-1e38-44d1-9328-f8a27f959ddf"},"vehicle_type_id":"4","last_reported":1731399126,"current_range_meters":32800,"station_id":"ce4bgs12rcd13ifvqcag","pricing_plan_id":"cebpf4jnsgd1na2vs0mg"},{"bike_id":"e0dd5ad8-53cf-4379-b894-58b137568b15","system_id":"levelo_inurba_marseille","lat":43.22927,"lon":5.35378,"is_reserved":false,"is_disabled":false,"rental_uris":{"android":"levelo://app?vid=e0dd5ad8-53cf-4379-b894-58b137568b15","ios":"levelo://app?vid=e0dd5ad8-53cf-4379-b894-58b137568b15"},"vehicle_type_id":"4","last_reported":1731399126,"current_range_meters":36800,"station_id":"cpo3532slgdg3j2ikp40","pricing_plan_id":"cebpf4jnsgd1na2vs0mg"},{"bike_id":"d058b0a7-21d8-421e-a180-3e38f1bbb765","system_id":"levelo_inurba_marseille","lat":43.31339,"lon":5.36724,"is_reserved":false,"is_disabled":false,"rental_uris":{"android":"levelo://app?vid=d058b0a7-21d8-421e-a180-3e38f1bbb765","ios":"levelo://app?vid=d058b0a7-21d8-421e-a180-3e38f1bbb765"},"vehicle_type_id":"4","last_reported":1731399126,"current_range_meters":35600,"station_id":"ce4bgr92rcd13ifvqc6g","pricing_plan_id":"cebpf4jnsgd1na2vs0mg"},{"bike_id":"0ff30c97-d032-4bd2-b806-0ba1b23f1458","system_id":"levelo_inurba_marseille","lat":43.29896,"lon":5.43662,"is_reserved":false,"is_disabled":false,"rental_uris":{"android":"levelo://app?vid=0ff30c97-d032-4bd2-b806-0ba1b23f1458","ios":"levelo://app?vid=0ff30c97-d032-4bd2-b806-0ba1b23f1458"},"vehicle_type_id":"4","last_reported":1731399126,"current_range_meters":39200,"station_id":"ce4bhpp2rcd13ifvqhfg","pricing_plan_id":"cebpf4jnsgd1na2vs0mg"},{"bike_id":"81bbffab-2294-4802-a46f-42950b37b5d6","system_id":"levelo_inurba_marseille","lat":43.239549,"lon":5.366278,"is_reserved":false,"is_disabled":false,"rental_uris":{"android":"levelo://app?vid=81bbffab-2294-4802-a46f-42950b37b5d6","ios":"levelo://app?vid=81bbffab-2294-4802-a46f-42950b37b5d6"},"vehicle_type_id":"4","last_reported":1731399126,"current_range_meters":37600,"station_id":"ce4bhi12rcd13ifvqfp0","pricing_plan_id":"cebpf4jnsgd1na2vs0mg"},{"bike_id":"b6459786-f7ad-4308-8fc7-9d430346d23e","system_id":"levelo_inurba_marseille","lat":43.28344,"lon":5.3811,"is_reserved":false,"is_disabled":false,"rental_uris":{"android":"levelo://app?vid=b6459786-f7ad-4308-8fc7-9d430346d23e","ios":"levelo://app?vid=b6459786-f7ad-4308-8fc7-9d430346d23e"},"vehicle_type_id":"4","last_reported":1731399126,"current_range_meters":38000,"station_id":"ce4bh412rcd13ifvqdr0","pricing_plan_id":"cebpf4jnsgd1na2vs0mg"},{"bike_id":"99812fb9-8728-4d46-a1fb-c4c76320fd59","system_id":"levelo_inurba_marseille","lat":43.26562,"lon":5.38999,"is_reserved":false,"is_disabled":false,"rental_uris":{"android":"levelo://app?vid=99812fb9-8728-4d46-a1fb-c4c76320fd59","ios":"levelo://app?vid=99812fb9-8728-4d46-a1fb-c4c76320fd59"},"vehicle_type_id":"4","last_reported":1731399126,"current_range_meters":38400,"station_id":"ce4bhe12rcd13ifvqf30","pricing_plan_id":"cebpf4jnsgd1na2vs0mg"},{"bike_id":"fc89740e-f101-4656-ab3e-647f87a39db3","system_id":"levelo_inurba_marseille","lat":43.28938,"lon":5.39626,"is_reserved":false,"is_disabled":false,"rental_uris":{"android":"levelo://app?vid=fc89740e-f101-4656-ab3e-647f87a39db3","ios":"levelo://app?vid=fc89740e-f101-4656-ab3e-647f87a39db3"},"vehicle_type_id":"4","last_reported":1731399126,"current_range_meters":5600,"station_id":"ce4bh3h2rcd13ifvqdn0","pricing_plan_id":"cebpf4jnsgd1na2vs0mg"},{"bike_id":"00e272f2-84fd-4928-b4f9-6dcf50a03a04","system_id":"levelo_inurba_marseille","lat":43.29621,"lon":5.37164,"is_reserved":false,"is_disabled":false,"rental_uris":{"android":"levelo://app?vid=00e272f2-84fd-4928-b4f9-6dcf50a03a04","ios":"levelo://app?vid=00e272f2-84fd-4928-b4f9-6dcf50a03a04"},"vehicle_type_id":"4","last_reported":1731399126,"current_range_meters":25600,"station_id":"ce4bgnh2rcd13ifvqc0g","pricing_plan_id":"cebpf4jnsgd1na2vs0mg"},{"bike_id":"137f766a-7cbc-43f8-a29d-03733ce188cf","system_id":"levelo_inurba_marseille","lat":43.337444,"lon":5.374475,"is_reserved":false,"is_disabled":false,"rental_uris":{"android":"levelo://app?vid=137f766a-7cbc-43f8-a29d-03733ce188cf","ios":"levelo://app?vid=137f766a-7cbc-43f8-a29d-03733ce188cf"},"vehicle_type_id":"4","last_reported":1731399126,"current_range_meters":38800,"station_id":"","pricing_plan_id":"cebpf4jnsgd1na2vs0mg"},{"bike_id":"9a8c6aaa-8799-4518-a592-7f9af9a7287d","system_id":"levelo_inurba_marseille","lat":43.278351,"lon":5.383119,"is_reserved":false,"is_disabled":false,"rental_uris":{"android":"levelo://app?vid=9a8c6aaa-8799-4518-a592-7f9af9a7287d","ios":"levelo://app?vid=9a8c6aaa-8799-4518-a592-7f9af9a7287d"},"vehicle_type_id":"4","last_reported":1731399126,"current_range_meters":31200,"station_id":"ce4bhih2rcd13ifvqfs0","pricing_plan_id":"cebpf4jnsgd1na2vs0mg"},{"bike_id":"59ecdad5-4d72-4cb9-97fa-a7266a6ca899","system_id":"levelo_inurba_marseille","lat":43.273193,"lon":5.390609,"is_reserved":false,"is_disabled":false,"rental_uris":{"android":"levelo://app?vid=59ecdad5-4d72-4cb9-97fa-a7266a6ca899","ios":"levelo://app?vid=59ecdad5-4d72-4cb9-97fa-a7266a6ca899"},"vehicle_type_id":"4","last_reported":1731399126,"current_range_meters":8800,"station_id":"ce4bhi12rcd13ifvqfp0","pricing_plan_id":"cebpf4jnsgd1na2vs0mg"},{"bike_id":"2782d62c-5db7-48b5-b1c9-aae6d82c7531","system_id":"levelo_inurba_marseille","lat":43.31996,"lon":5.3816,"is_reserved":false,"is_disabled":false,"rental_uris":{"android":"levelo://app?vid=2782d62c-5db7-48b5-b1c9-aae6d82c7531","ios":"levelo://app?vid=2782d62c-5db7-48b5-b1c9-aae6d82c7531"},"vehicle_type_id":"4","last_reported":1731399126,"current_range_meters":32800,"station_id":"ce4bhr12rcd13ifvqhpg","pricing_plan_id":"cebpf4jnsgd1na2vs0mg"},{"bike_id":"d1bc247d-59f1-4f79-b760-0b5489bee37e","system_id":"levelo_inurba_marseille","lat":43.25727,"lon":5.41105,"is_reserved":false,"is_disabled":false,"rental_uris":{"android":"levelo://app?vid=d1bc247d-59f1-4f79-b760-0b5489bee37e","ios":"levelo://app?vid=d1bc247d-59f1-4f79-b760-0b5489bee37e"},"vehicle_type_id":"4","last_reported":1731399126,"current_range_meters":20000,"station_id":"ce4bhkp2rcd13ifvqgd0","pricing_plan_id":"cebpf4jnsgd1na2vs0mg"},{"bike_id":"3c599d78-96ef-467f-aad7-b2108f28d38a","system_id":"levelo_inurba_marseille","lat":43.26957,"lon":5.38628,"is_reserved":false,"is_disabled":false,"rental_uris":{"android":"levelo://app?vid=3c599d78-96ef-467f-aad7-b2108f28d38a","ios":"levelo://app?vid=3c599d78-96ef-467f-aad7-b2108f28d38a"},"vehicle_type_id":"4","last_reported":1731399126,"current_range_meters":31200,"station_id":"ce4bhh92rcd13ifvqfh0","pricing_plan_id":"cebpf4jnsgd1na2vs0mg"},{"bike_id":"737da3e9-6241-4705-99e9-ca27d529ee45","system_id":"levelo_inurba_marseille","lat":43.28719,"lon":5.37937,"is_reserved":false,"is_disabled":false,"rental_uris":{"android":"levelo://app?vid=737da3e9-6241-4705-99e9-ca27d529ee45","ios":"levelo://app?vid=737da3e9-6241-4705-99e9-ca27d529ee45"},"vehicle_type_id":"4","last_reported":1731399126,"current_range_meters":37600,"station_id":"ce4bh9p2rcd13ifvqec0","pricing_plan_id":"cebpf4jnsgd1na2vs0mg"},{"bike_id":"9181c5f3-2257-401d-b99d-a63e014ee85d","system_id":"levelo_inurba_marseille","lat":43.26994,"lon":5.38685,"is_reserved":false,"is_disabled":false,"rental_uris":{"android":"levelo://app?vid=9181c5f3-2257-401d-b99d-a63e014ee85d","ios":"levelo://app?vid=9181c5f3-2257-401d-b99d-a63e014ee85d"},"vehicle_type_id":"4","last_reported":1731399126,"current_range_meters":24000,"station_id":"","pricing_plan_id":"cebpf4jnsgd1na2vs0mg"},{"bike_id":"ca470591-2acf-4dcf-8a9b-56688197c9a2","system_id":"levelo_inurba_marseille","lat":43.28659,"lon":5.3635,"is_reserved":false,"is_disabled":false,"rental_uris":{"android":"levelo://app?vid=ca470591-2acf-4dcf-8a9b-56688197c9a2","ios":"levelo://app?vid=ca470591-2acf-4dcf-8a9b-56688197c9a2"},"vehicle_type_id":"4","last_reported":1731399126,"current_range_meters":32400,"station_id":"ce4bhah2rcd13ifvqej0","pricing_plan_id":"cebpf4jnsgd1na2vs0mg"},{"bike_id":"7e2d6b0a-03f5-4568-877c-d48b8a01c6b6","system_id":"levelo_inurba_marseille","lat":43.30488,"lon":5.37434,"is_reserved":false,"is_disabled":false,"rental_uris":{"android":"levelo://app?vid=7e2d6b0a-03f5-4568-877c-d48b8a01c6b6","ios":"levelo://app?vid=7e2d6b0a-03f5-4568-877c-d48b8a01c6b6"},"vehicle_type_id":"4","last_reported":1731399126,"current_range_meters":24000,"station_id":"ce4bgqh2rcd13ifvqc4g","pricing_plan_id":"cebpf4jnsgd1na2vs0mg"},{"bike_id":"c82de6bc-afc0-4dff-a091-f29850463deb","system_id":"levelo_inurba_marseille","lat":43.33603,"lon":5.41031,"is_reserved":false,"is_disabled":false,"rental_uris":{"android":"levelo://app?vid=c82de6bc-afc0-4dff-a091-f29850463deb","ios":"levelo://app?vid=c82de6bc-afc0-4dff-a091-f29850463deb"},"vehicle_type_id":"4","last_reported":1731399126,"current_range_meters":38000,"station_id":"ce4bhqh2rcd13ifvqhmg","pricing_plan_id":"cebpf4jnsgd1na2vs0mg"},{"bike_id":"b7fee71f-fba8-498a-aa2a-878f5bb4c213","system_id":"levelo_inurba_marseille","lat":43.28346,"lon":5.38105,"is_reserved":false,"is_disabled":false,"rental_uris":{"android":"levelo://app?vid=b7fee71f-fba8-498a-aa2a-878f5bb4c213","ios":"levelo://app?vid=b7fee71f-fba8-498a-aa2a-878f5bb4c213"},"vehicle_type_id":"4","last_reported":1731399126,"current_range_meters":6000,"station_id":"ce4bh412rcd13ifvqdr0","pricing_plan_id":"cebpf4jnsgd1na2vs0mg"},{"bike_id":"0e8f53fe-60ea-4ce9-8ac9-1ac16df54000","system_id":"levelo_inurba_marseille","lat":43.28448,"lon":5.39196,"is_reserved":false,"is_disabled":false,"rental_uris":{"android":"levelo://app?vid=0e8f53fe-60ea-4ce9-8ac9-1ac16df54000","ios":"levelo://app?vid=0e8f53fe-60ea-4ce9-8ac9-1ac16df54000"},"vehicle_type_id":"4","last_reported":1731399126,"current_range_meters":25200,"station_id":"ce4bhoh2rcd13ifvqh5g","pricing_plan_id":"cebpf4jnsgd1na2vs0mg"},{"bike_id":"e09d4ca8-d2f3-4f9e-b3f7-79f8da28af34","system_id":"levelo_inurba_marseille","lat":43.28447,"lon":5.39204,"is_reserved":false,"is_disabled":false,"rental_uris":{"android":"levelo://app?vid=e09d4ca8-d2f3-4f9e-b3f7-79f8da28af34","ios":"levelo://app?vid=e09d4ca8-d2f3-4f9e-b3f7-79f8da28af34"},"vehicle_type_id":"4","last_reported":1731399126,"current_range_meters":22000,"station_id":"ce4bhoh2rcd13ifvqh5g","pricing_plan_id":"cebpf4jnsgd1na2vs0mg"},{"bike_id":"97cea09e-a49b-4593-aeb0-ff6c14e24ca5","system_id":"levelo_inurba_marseille","lat":43.32541,"lon":5.41434,"is_reserved":false,"is_disabled":false,"rental_uris":{"android":"levelo://app?vid=97cea09e-a49b-4593-aeb0-ff6c14e24ca5","ios":"levelo://app?vid=97cea09e-a49b-4593-aeb0-ff6c14e24ca5"},"vehicle_type_id":"4","last_reported":1731399126,"current_range_meters":12800,"station_id":"ce4bhq12rcd13ifvqhhg","pricing_plan_id":"cebpf4jnsgd1na2vs0mg"},{"bike_id":"90d04b64-9faa-4eac-976a-1e912da98cdd","system_id":"levelo_inurba_marseille","lat":43.26956,"lon":5.38638,"is_reserved":false,"is_disabled":false,"rental_uris":{"android":"levelo://app?vid=90d04b64-9faa-4eac-976a-1e912da98cdd","ios":"levelo://app?vid=90d04b64-9faa-4eac-976a-1e912da98cdd"},"vehicle_type_id":"4","last_reported":1731399126,"current_range_meters":22800,"station_id":"ce4bhh92rcd13ifvqfh0","pricing_plan_id":"cebpf4jnsgd1na2vs0mg"},{"bike_id":"41bc15f4-beff-4b4b-8a90-8df4586b1f36","system_id":"levelo_inurba_marseille","lat":43.26958,"lon":5.38629,"is_reserved":false,"is_disabled":false,"rental_uris":{"android":"levelo://app?vid=41bc15f4-beff-4b4b-8a90-8df4586b1f36","ios":"levelo://app?vid=41bc15f4-beff-4b4b-8a90-8df4586b1f36"},"vehicle_type_id":"4","last_reported":1731399126,"current_range_meters":29600,"station_id":"ce4bhh92rcd13ifvqfh0","pricing_plan_id":"cebpf4jnsgd1na2vs0mg"},{"bike_id":"0389f6ba-9b11-4bae-aa59-6c887bee55e5","system_id":"levelo_inurba_marseille","lat":43.32248,"lon":5.38647,"is_reserved":false,"is_disabled":false,"rental_uris":{"android":"levelo://app?vid=0389f6ba-9b11-4bae-aa59-6c887bee55e5","ios":"levelo://app?vid=0389f6ba-9b11-4bae-aa59-6c887bee55e5"},"vehicle_type_id":"4","last_reported":1731399126,"current_range_meters":29600,"station_id":"","pricing_plan_id":"cebpf4jnsgd1na2vs0mg"},{"bike_id":"0f51005a-d816-498c-9985-fee40ab1f5df","system_id":"levelo_inurba_marseille","lat":43.29046,"lon":5.39965,"is_reserved":false,"is_disabled":false,"rental_uris":{"android":"levelo://app?vid=0f51005a-d816-498c-9985-fee40ab1f5df","ios":"levelo://app?vid=0f51005a-d816-498c-9985-fee40ab1f5df"},"vehicle_type_id":"4","last_reported":1731399126,"current_range_meters":30000,"station_id":"ce4bh392rcd13ifvqdm0","pricing_plan_id":"cebpf4jnsgd1na2vs0mg"},{"bike_id":"4db6509a-1df7-4a1c-8033-ced3716572ca","system_id":"levelo_inurba_marseille","lat":43.28937,"lon":5.36639,"is_reserved":false,"is_disabled":false,"rental_uris":{"android":"levelo://app?vid=4db6509a-1df7-4a1c-8033-ced3716572ca","ios":"levelo://app?vid=4db6509a-1df7-4a1c-8033-ced3716572ca"},"vehicle_type_id":"4","last_reported":1731399126,"current_range_meters":18800,"station_id":"ce4bhap2rcd13ifvqek0","pricing_plan_id":"cebpf4jnsgd1na2vs0mg"},{"bike_id":"6a6bc5de-7288-497d-bcb4-215b164e88d4","system_id":"levelo_inurba_marseille","lat":43.30549,"lon":5.3655,"is_reserved":false,"is_disabled":false,"rental_uris":{"android":"levelo://app?vid=6a6bc5de-7288-497d-bcb4-215b164e88d4","ios":"levelo://app?vid=6a6bc5de-7288-497d-bcb4-215b164e88d4"},"vehicle_type_id":"4","last_reported":1731399126,"current_range_meters":28400,"station_id":"ce4bgs12rcd13ifvqcag","pricing_plan_id":"cebpf4jnsgd1na2vs0mg"},{"bike_id":"68abcea4-b254-472c-83f6-01826308fdb8","system_id":"levelo_inurba_marseille","lat":43.25934,"lon":5.40912,"is_reserved":false,"is_disabled":false,"rental_uris":{"android":"levelo://app?vid=68abcea4-b254-472c-83f6-01826308fdb8","ios":"levelo://app?vid=68abcea4-b254-472c-83f6-01826308fdb8"},"vehicle_type_id":"4","last_reported":1731399126,"current_range_meters":28000,"station_id":"ce4bhm92rcd13ifvqglg","pricing_plan_id":"cebpf4jnsgd1na2vs0mg"},{"bike_id":"47aea41a-bbe0-424b-9b57-bc3ae1f79104","system_id":"levelo_inurba_marseille","lat":43.28332,"lon":5.38096,"is_reserved":false,"is_disabled":false,"rental_uris":{"android":"levelo://app?vid=47aea41a-bbe0-424b-9b57-bc3ae1f79104","ios":"levelo://app?vid=47aea41a-bbe0-424b-9b57-bc3ae1f79104"},"vehicle_type_id":"4","last_reported":1731399126,"current_range_meters":21600,"station_id":"ce4bh412rcd13ifvqdr0","pricing_plan_id":"cebpf4jnsgd1na2vs0mg"},{"bike_id":"4ff97317-fbad-43fd-9ff4-cb7af7570ad5","system_id":"levelo_inurba_marseille","lat":43.29844,"lon":5.36268,"is_reserved":false,"is_disabled":false,"rental_uris":{"android":"levelo://app?vid=4ff97317-fbad-43fd-9ff4-cb7af7570ad5","ios":"levelo://app?vid=4ff97317-fbad-43fd-9ff4-cb7af7570ad5"},"vehicle_type_id":"4","last_reported":1731399126,"current_range_meters":20400,"station_id":"ce4bgpp2rcd13ifvqc3g","pricing_plan_id":"cebpf4jnsgd1na2vs0mg"},{"bike_id":"dea8e24b-36b5-4c6f-a7a1-18720dbf8f12","system_id":"levelo_inurba_marseille","lat":43.32468,"lon":5.36576,"is_reserved":false,"is_disabled":false,"rental_uris":{"android":"levelo://app?vid=dea8e24b-36b5-4c6f-a7a1-18720dbf8f12","ios":"levelo://app?vid=dea8e24b-36b5-4c6f-a7a1-18720dbf8f12"},"vehicle_type_id":"4","last_reported":1731399126,"current_range_meters":37600,"station_id":"ce4bhs12rcd13ifvqhvg","pricing_plan_id":"cebpf4jnsgd1na2vs0mg"},{"bike_id":"1f81c4d4-3355-46d5-acd3-aad47be887f7","system_id":"levelo_inurba_marseille","lat":43.30539,"lon":5.36549,"is_reserved":false,"is_disabled":false,"rental_uris":{"android":"levelo://app?vid=1f81c4d4-3355-46d5-acd3-aad47be887f7","ios":"levelo://app?vid=1f81c4d4-3355-46d5-acd3-aad47be887f7"},"vehicle_type_id":"4","last_reported":1731399126,"current_range_meters":15200,"station_id":"ce4bgs12rcd13ifvqcag","pricing_plan_id":"cebpf4jnsgd1na2vs0mg"},{"bike_id":"3d538f50-8563-4193-82a5-d417b677c48f","system_id":"levelo_inurba_marseille","lat":43.30544,"lon":5.3653,"is_reserved":false,"is_disabled":false,"rental_uris":{"android":"levelo://app?vid=3d538f50-8563-4193-82a5-d417b677c48f","ios":"levelo://app?vid=3d538f50-8563-4193-82a5-d417b677c48f"},"vehicle_type_id":"4","last_reported":1731399126,"current_range_meters":33600,"station_id":"ce4bgs12rcd13ifvqcag","pricing_plan_id":"cebpf4jnsgd1na2vs0mg"},{"bike_id":"2736195e-df05-4cae-9145-08820a97c3a9","system_id":"levelo_inurba_marseille","lat":43.304644,"lon":5.379173,"is_reserved":false,"is_disabled":false,"rental_uris":{"android":"levelo://app?vid=2736195e-df05-4cae-9145-08820a97c3a9","ios":"levelo://app?vid=2736195e-df05-4cae-9145-08820a97c3a9"},"vehicle_type_id":"4","last_reported":1731399126,"current_range_meters":18800,"station_id":"ce4bhqh2rcd13ifvqhmg","pricing_plan_id":"cebpf4jnsgd1na2vs0mg"},{"bike_id":"566a5334-3f8f-47bc-a4cb-b69269b5f3f2","system_id":"levelo_inurba_marseille","lat":43.27974,"lon":5.38729,"is_reserved":false,"is_disabled":false,"rental_uris":{"android":"levelo://app?vid=566a5334-3f8f-47bc-a4cb-b69269b5f3f2","ios":"levelo://app?vid=566a5334-3f8f-47bc-a4cb-b69269b5f3f2"},"vehicle_type_id":"4","last_reported":1731399126,"current_range_meters":28800,"station_id":"ce4bhg12rcd13ifvqf80","pricing_plan_id":"cebpf4jnsgd1na2vs0mg"},{"bike_id":"a67b3801-5871-4230-a233-740ee104b0e7","system_id":"levelo_inurba_marseille","lat":43.291952,"lon":5.393122,"is_reserved":false,"is_disabled":false,"rental_uris":{"android":"levelo://app?vid=a67b3801-5871-4230-a233-740ee104b0e7","ios":"levelo://app?vid=a67b3801-5871-4230-a233-740ee104b0e7"},"vehicle_type_id":"4","last_reported":1731399126,"current_range_meters":39200,"station_id":"ce4bh192rcd13ifvqdd0","pricing_plan_id":"cebpf4jnsgd1na2vs0mg"},{"bike_id":"0133f3d4-648e-4961-8fb8-2cbdab02ac87","system_id":"levelo_inurba_marseille","lat":43.27995,"lon":5.40016,"is_reserved":false,"is_disabled":false,"rental_uris":{"android":"levelo://app?vid=0133f3d4-648e-4961-8fb8-2cbdab02ac87","ios":"levelo://app?vid=0133f3d4-648e-4961-8fb8-2cbdab02ac87"},"vehicle_type_id":"4","last_reported":1731399126,"current_range_meters":38800,"station_id":"ce4bho92rcd13ifvqh4g","pricing_plan_id":"cebpf4jnsgd1na2vs0mg"},{"bike_id":"d18f8d32-e2b0-45ff-9de1-befe5676c05f","system_id":"levelo_inurba_marseille","lat":43.29841,"lon":5.36268,"is_reserved":false,"is_disabled":false,"rental_uris":{"android":"levelo://app?vid=d18f8d32-e2b0-45ff-9de1-befe5676c05f","ios":"levelo://app?vid=d18f8d32-e2b0-45ff-9de1-befe5676c05f"},"vehicle_type_id":"4","last_reported":1731399126,"current_range_meters":26800,"station_id":"ce4bgpp2rcd13ifvqc3g","pricing_plan_id":"cebpf4jnsgd1na2vs0mg"},{"bike_id":"ba5fe0a7-7074-4ad3-96d0-8e959047e691","system_id":"levelo_inurba_marseille","lat":43.289356,"lon":5.396554,"is_reserved":false,"is_disabled":false,"rental_uris":{"android":"levelo://app?vid=ba5fe0a7-7074-4ad3-96d0-8e959047e691","ios":"levelo://app?vid=ba5fe0a7-7074-4ad3-96d0-8e959047e691"},"vehicle_type_id":"4","last_reported":1731399126,"current_range_meters":33200,"station_id":"ce4bh3h2rcd13ifvqdn0","pricing_plan_id":"cebpf4jnsgd1na2vs0mg"},{"bike_id":"ebd4f82c-11dc-4dc9-8fd9-d0a742def808","system_id":"levelo_inurba_marseille","lat":43.24073,"lon":5.3776,"is_reserved":false,"is_disabled":false,"rental_uris":{"android":"levelo://app?vid=ebd4f82c-11dc-4dc9-8fd9-d0a742def808","ios":"levelo://app?vid=ebd4f82c-11dc-4dc9-8fd9-d0a742def808"},"vehicle_type_id":"4","last_reported":1731399126,"current_range_meters":24800,"station_id":"ce4bhnp2rcd13ifvqgvg","pricing_plan_id":"cebpf4jnsgd1na2vs0mg"},{"bike_id":"15277027-93da-4568-96f8-0eeff0818321","system_id":"levelo_inurba_marseille","lat":43.30428,"lon":5.38882,"is_reserved":false,"is_disabled":false,"rental_uris":{"android":"levelo://app?vid=15277027-93da-4568-96f8-0eeff0818321","ios":"levelo://app?vid=15277027-93da-4568-96f8-0eeff0818321"},"vehicle_type_id":"4","last_reported":1731399126,"current_range_meters":27600,"station_id":"ce4bgk12rcd13ifvqbi0","pricing_plan_id":"cebpf4jnsgd1na2vs0mg"},{"bike_id":"3a380d17-df8f-4b0b-9249-c031a1e66b20","system_id":"levelo_inurba_marseille","lat":43.25572,"lon":5.38235,"is_reserved":false,"is_disabled":false,"rental_uris":{"android":"levelo://app?vid=3a380d17-df8f-4b0b-9249-c031a1e66b20","ios":"levelo://app?vid=3a380d17-df8f-4b0b-9249-c031a1e66b20"},"vehicle_type_id":"4","last_reported":1731399126,"current_range_meters":34800,"station_id":"ce4bhih2rcd13ifvqfs0","pricing_plan_id":"cebpf4jnsgd1na2vs0mg"},{"bike_id":"7fa701f8-28e9-4392-83a5-d7fa78230954","system_id":"levelo_inurba_marseille","lat":43.30426,"lon":5.38898,"is_reserved":false,"is_disabled":false,"rental_uris":{"android":"levelo://app?vid=7fa701f8-28e9-4392-83a5-d7fa78230954","ios":"levelo://app?vid=7fa701f8-28e9-4392-83a5-d7fa78230954"},"vehicle_type_id":"4","last_reported":1731399126,"current_range_meters":34800,"station_id":"ce4bgk12rcd13ifvqbi0","pricing_plan_id":"cebpf4jnsgd1na2vs0mg"},{"bike_id":"49c3b6c0-239d-4ec0-b4be-3e242388a28b","system_id":"levelo_inurba_marseille","lat":43.30538,"lon":5.38424,"is_reserved":false,"is_disabled":false,"rental_uris":{"android":"levelo://app?vid=49c3b6c0-239d-4ec0-b4be-3e242388a28b","ios":"levelo://app?vid=49c3b6c0-239d-4ec0-b4be-3e242388a28b"},"vehicle_type_id":"4","last_reported":1731399126,"current_range_meters":28400,"station_id":"ce4bgg92rcd13ifvqb30","pricing_plan_id":"cebpf4jnsgd1na2vs0mg"},{"bike_id":"ab6a8b2e-1d37-4a8a-acab-d5ef823cba97","system_id":"levelo_inurba_marseille","lat":43.27424,"lon":5.39407,"is_reserved":false,"is_disabled":false,"rental_uris":{"android":"levelo://app?vid=ab6a8b2e-1d37-4a8a-acab-d5ef823cba97","ios":"levelo://app?vid=ab6a8b2e-1d37-4a8a-acab-d5ef823cba97"},"vehicle_type_id":"4","last_reported":1731399126,"current_range_meters":34000,"station_id":"ce4bhdp2rcd13ifvqf20","pricing_plan_id":"cebpf4jnsgd1na2vs0mg"},{"bike_id":"9ced07d2-d6e3-402e-ad71-da7fcc490ca5","system_id":"levelo_inurba_marseille","lat":43.30269,"lon":5.37694,"is_reserved":false,"is_disabled":false,"rental_uris":{"android":"levelo://app?vid=9ced07d2-d6e3-402e-ad71-da7fcc490ca5","ios":"levelo://app?vid=9ced07d2-d6e3-402e-ad71-da7fcc490ca5"},"vehicle_type_id":"4","last_reported":1731399126,"current_range_meters":39200,"station_id":"ce4bguh2rcd13ifvqcj0","pricing_plan_id":"cebpf4jnsgd1na2vs0mg"},{"bike_id":"2378accb-a52b-46e1-ba25-fa30d663430a","system_id":"levelo_inurba_marseille","lat":43.28939,"lon":5.39634,"is_reserved":false,"is_disabled":false,"rental_uris":{"android":"levelo://app?vid=2378accb-a52b-46e1-ba25-fa30d663430a","ios":"levelo://app?vid=2378accb-a52b-46e1-ba25-fa30d663430a"},"vehicle_type_id":"4","last_reported":1731399126,"current_range_meters":38000,"station_id":"ce4bh3h2rcd13ifvqdn0","pricing_plan_id":"cebpf4jnsgd1na2vs0mg"},{"bike_id":"b5eaa8fb-1337-4fe0-8acb-2b259c1be3e8","system_id":"levelo_inurba_marseille","lat":43.278687,"lon":5.387789,"is_reserved":false,"is_disabled":false,"rental_uris":{"android":"levelo://app?vid=b5eaa8fb-1337-4fe0-8acb-2b259c1be3e8","ios":"levelo://app?vid=b5eaa8fb-1337-4fe0-8acb-2b259c1be3e8"},"vehicle_type_id":"4","last_reported":1731399126,"current_range_meters":25200,"station_id":"ce4bh692rcd13ifvqea0","pricing_plan_id":"cebpf4jnsgd1na2vs0mg"},{"bike_id":"307f472c-576c-4d90-a06d-9ae8a20dafea","system_id":"levelo_inurba_marseille","lat":43.31356,"lon":5.36713,"is_reserved":false,"is_disabled":false,"rental_uris":{"android":"levelo://app?vid=307f472c-576c-4d90-a06d-9ae8a20dafea","ios":"levelo://app?vid=307f472c-576c-4d90-a06d-9ae8a20dafea"},"vehicle_type_id":"4","last_reported":1731399126,"current_range_meters":36400,"station_id":"ce4bgr92rcd13ifvqc6g","pricing_plan_id":"cebpf4jnsgd1na2vs0mg"},{"bike_id":"73d8d45d-7c7f-4b6c-b465-6f303315b183","system_id":"levelo_inurba_marseille","lat":43.29373,"lon":5.37849,"is_reserved":false,"is_disabled":false,"rental_uris":{"android":"levelo://app?vid=73d8d45d-7c7f-4b6c-b465-6f303315b183","ios":"levelo://app?vid=73d8d45d-7c7f-4b6c-b465-6f303315b183"},"vehicle_type_id":"4","last_reported":1731399126,"current_range_meters":39200,"station_id":"ce4bgjh2rcd13ifvqbf0","pricing_plan_id":"cebpf4jnsgd1na2vs0mg"},{"bike_id":"1635c8d8-84ce-459a-ba20-229e40167949","system_id":"levelo_inurba_marseille","lat":43.31698,"lon":5.40475,"is_reserved":false,"is_disabled":false,"rental_uris":{"android":"levelo://app?vid=1635c8d8-84ce-459a-ba20-229e40167949","ios":"levelo://app?vid=1635c8d8-84ce-459a-ba20-229e40167949"},"vehicle_type_id":"4","last_reported":1731399126,"current_range_meters":38800,"station_id":"ce4bh012rcd13ifvqd00","pricing_plan_id":"cebpf4jnsgd1na2vs0mg"},{"bike_id":"b2f3adca-b446-441d-a1ab-5903c30fd432","system_id":"levelo_inurba_marseille","lat":43.33772,"lon":5.37447,"is_reserved":false,"is_disabled":false,"rental_uris":{"android":"levelo://app?vid=b2f3adca-b446-441d-a1ab-5903c30fd432","ios":"levelo://app?vid=b2f3adca-b446-441d-a1ab-5903c30fd432"},"vehicle_type_id":"4","last_reported":1731399126,"current_range_meters":7200,"station_id":"","pricing_plan_id":"cebpf4jnsgd1na2vs0mg"},{"bike_id":"bce4c657-e704-4214-a3a0-452a574cb588","system_id":"levelo_inurba_marseille","lat":43.30274,"lon":5.37698,"is_reserved":false,"is_disabled":false,"rental_uris":{"android":"levelo://app?vid=bce4c657-e704-4214-a3a0-452a574cb588","ios":"levelo://app?vid=bce4c657-e704-4214-a3a0-452a574cb588"},"vehicle_type_id":"4","last_reported":1731399126,"current_range_meters":30400,"station_id":"ce4bguh2rcd13ifvqcj0","pricing_plan_id":"cebpf4jnsgd1na2vs0mg"},{"bike_id":"a42cc05a-66dc-4c74-b6e4-cb1bfc1972ae","system_id":"levelo_inurba_marseille","lat":43.23965,"lon":5.36634,"is_reserved":false,"is_disabled":false,"rental_uris":{"android":"levelo://app?vid=a42cc05a-66dc-4c74-b6e4-cb1bfc1972ae","ios":"levelo://app?vid=a42cc05a-66dc-4c74-b6e4-cb1bfc1972ae"},"vehicle_type_id":"4","last_reported":1731399126,"current_range_meters":6800,"station_id":"ce4bhi12rcd13ifvqfp0","pricing_plan_id":"cebpf4jnsgd1na2vs0mg"},{"bike_id":"ca5db060-c02c-4c9c-85b8-fa89c45fc361","system_id":"levelo_inurba_marseille","lat":43.28152,"lon":5.42643,"is_reserved":false,"is_disabled":false,"rental_uris":{"android":"levelo://app?vid=ca5db060-c02c-4c9c-85b8-fa89c45fc361","ios":"levelo://app?vid=ca5db060-c02c-4c9c-85b8-fa89c45fc361"},"vehicle_type_id":"4","last_reported":1731399126,"current_range_meters":38800,"station_id":"ce4bhnh2rcd13ifvqgug","pricing_plan_id":"cebpf4jnsgd1na2vs0mg"},{"bike_id":"39c92a6d-0353-4eed-a491-34d313dd0cef","system_id":"levelo_inurba_marseille","lat":43.33769,"lon":5.37444,"is_reserved":false,"is_disabled":false,"rental_uris":{"android":"levelo://app?vid=39c92a6d-0353-4eed-a491-34d313dd0cef","ios":"levelo://app?vid=39c92a6d-0353-4eed-a491-34d313dd0cef"},"vehicle_type_id":"4","last_reported":1731399126,"current_range_meters":38400,"station_id":"","pricing_plan_id":"cebpf4jnsgd1na2vs0mg"},{"bike_id":"1174db90-b436-4737-8473-4b00cd6cf36a","system_id":"levelo_inurba_marseille","lat":43.2929,"lon":5.37469,"is_reserved":false,"is_disabled":false,"rental_uris":{"android":"levelo://app?vid=1174db90-b436-4737-8473-4b00cd6cf36a","ios":"levelo://app?vid=1174db90-b436-4737-8473-4b00cd6cf36a"},"vehicle_type_id":"4","last_reported":1731399126,"current_range_meters":28000,"station_id":"ce4bgi12rcd13ifvqb70","pricing_plan_id":"cebpf4jnsgd1na2vs0mg"},{"bike_id":"1cb296ca-e768-4ff4-9ba6-d9720f6d8c12","system_id":"levelo_inurba_marseille","lat":43.24082,"lon":5.37747,"is_reserved":false,"is_disabled":false,"rental_uris":{"android":"levelo://app?vid=1cb296ca-e768-4ff4-9ba6-d9720f6d8c12","ios":"levelo://app?vid=1cb296ca-e768-4ff4-9ba6-d9720f6d8c12"},"vehicle_type_id":"4","last_reported":1731399126,"current_range_meters":35600,"station_id":"ce4bhnp2rcd13ifvqgvg","pricing_plan_id":"cebpf4jnsgd1na2vs0mg"},{"bike_id":"bc37fb3b-ced5-410e-b787-d44ff3640141","system_id":"levelo_inurba_marseille","lat":43.249939,"lon":5.389354,"is_reserved":false,"is_disabled":false,"rental_uris":{"android":"levelo://app?vid=bc37fb3b-ced5-410e-b787-d44ff3640141","ios":"levelo://app?vid=bc37fb3b-ced5-410e-b787-d44ff3640141"},"vehicle_type_id":"4","last_reported":1731399126,"current_range_meters":32000,"station_id":"ce4bhgp2rcd13ifvqfd0","pricing_plan_id":"cebpf4jnsgd1na2vs0mg"},{"bike_id":"e8c085d8-09e1-431a-bbb8-5e4873879e38","system_id":"levelo_inurba_marseille","lat":43.27491,"lon":5.4245,"is_reserved":false,"is_disabled":false,"rental_uris":{"android":"levelo://app?vid=e8c085d8-09e1-431a-bbb8-5e4873879e38","ios":"levelo://app?vid=e8c085d8-09e1-431a-bbb8-5e4873879e38"},"vehicle_type_id":"4","last_reported":1731399126,"current_range_meters":29600,"station_id":"ce4bhn92rcd13ifvqgrg","pricing_plan_id":"cebpf4jnsgd1na2vs0mg"},{"bike_id":"e029f39c-9b59-4309-85cc-cfaac8b31b8c","system_id":"levelo_inurba_marseille","lat":43.30945,"lon":5.39034,"is_reserved":false,"is_disabled":false,"rental_uris":{"android":"levelo://app?vid=e029f39c-9b59-4309-85cc-cfaac8b31b8c","ios":"levelo://app?vid=e029f39c-9b59-4309-85cc-cfaac8b31b8c"},"vehicle_type_id":"4","last_reported":1731399126,"current_range_meters":25200,"station_id":"ce4bgup2rcd13ifvqco0","pricing_plan_id":"cebpf4jnsgd1na2vs0mg"},{"bike_id":"49377339-d23f-4c98-ace2-764b666b50da","system_id":"levelo_inurba_marseille","lat":43.28339,"lon":5.38107,"is_reserved":false,"is_disabled":false,"rental_uris":{"android":"levelo://app?vid=49377339-d23f-4c98-ace2-764b666b50da","ios":"levelo://app?vid=49377339-d23f-4c98-ace2-764b666b50da"},"vehicle_type_id":"4","last_reported":1731399126,"current_range_meters":14400,"station_id":"ce4bh412rcd13ifvqdr0","pricing_plan_id":"cebpf4jnsgd1na2vs0mg"},{"bike_id":"15f53ea7-506e-4fb8-b4f2-3505e6827869","system_id":"levelo_inurba_marseille","lat":43.27819,"lon":5.40699,"is_reserved":false,"is_disabled":false,"rental_uris":{"android":"levelo://app?vid=15f53ea7-506e-4fb8-b4f2-3505e6827869","ios":"levelo://app?vid=15f53ea7-506e-4fb8-b4f2-3505e6827869"},"vehicle_type_id":"4","last_reported":1731399126,"current_range_meters":35600,"station_id":"ce4bhnh2rcd13ifvqgtg","pricing_plan_id":"cebpf4jnsgd1na2vs0mg"},{"bike_id":"9d59599d-1ddc-4584-9619-36b075aff25d","system_id":"levelo_inurba_marseille","lat":43.2408,"lon":5.37756,"is_reserved":false,"is_disabled":false,"rental_uris":{"android":"levelo://app?vid=9d59599d-1ddc-4584-9619-36b075aff25d","ios":"levelo://app?vid=9d59599d-1ddc-4584-9619-36b075aff25d"},"vehicle_type_id":"4","last_reported":1731399126,"current_range_meters":37600,"station_id":"ce4bhnp2rcd13ifvqgvg","pricing_plan_id":"cebpf4jnsgd1na2vs0mg"},{"bike_id":"b72ca6e7-47e9-42be-9a97-b74e22acdc0e","system_id":"levelo_inurba_marseille","lat":43.32102,"lon":5.36777,"is_reserved":false,"is_disabled":false,"rental_uris":{"android":"levelo://app?vid=b72ca6e7-47e9-42be-9a97-b74e22acdc0e","ios":"levelo://app?vid=b72ca6e7-47e9-42be-9a97-b74e22acdc0e"},"vehicle_type_id":"4","last_reported":1731399126,"current_range_meters":25600,"station_id":"ce4bhrh2rcd13ifvqhug","pricing_plan_id":"cebpf4jnsgd1na2vs0mg"},{"bike_id":"5b46ce18-e7d5-4e30-8def-85cfb1b5102d","system_id":"levelo_inurba_marseille","lat":43.23143,"lon":5.43721,"is_reserved":false,"is_disabled":false,"rental_uris":{"android":"levelo://app?vid=5b46ce18-e7d5-4e30-8def-85cfb1b5102d","ios":"levelo://app?vid=5b46ce18-e7d5-4e30-8def-85cfb1b5102d"},"vehicle_type_id":"4","last_reported":1731399126,"current_range_meters":40000,"station_id":"ce4bhmp2rcd13ifvqgog","pricing_plan_id":"cebpf4jnsgd1na2vs0mg"},{"bike_id":"3cfaac27-cb69-4455-9273-12c2dc2bf05a","system_id":"levelo_inurba_marseille","lat":43.31342,"lon":5.36727,"is_reserved":false,"is_disabled":false,"rental_uris":{"android":"levelo://app?vid=3cfaac27-cb69-4455-9273-12c2dc2bf05a","ios":"levelo://app?vid=3cfaac27-cb69-4455-9273-12c2dc2bf05a"},"vehicle_type_id":"4","last_reported":1731399126,"current_range_meters":21600,"station_id":"ce4bgr92rcd13ifvqc6g","pricing_plan_id":"cebpf4jnsgd1na2vs0mg"},{"bike_id":"dad0856d-cf38-41ce-9c69-fc14f6a6fe3c","system_id":"levelo_inurba_marseille","lat":43.30537,"lon":5.36529,"is_reserved":false,"is_disabled":false,"rental_uris":{"android":"levelo://app?vid=dad0856d-cf38-41ce-9c69-fc14f6a6fe3c","ios":"levelo://app?vid=dad0856d-cf38-41ce-9c69-fc14f6a6fe3c"},"vehicle_type_id":"4","last_reported":1731399126,"current_range_meters":35200,"station_id":"ce4bgs12rcd13ifvqcag","pricing_plan_id":"cebpf4jnsgd1na2vs0mg"},{"bike_id":"d200f736-33ff-4949-a4fa-9c168ba1cf59","system_id":"levelo_inurba_marseille","lat":43.28415,"lon":5.34982,"is_reserved":false,"is_disabled":false,"rental_uris":{"android":"levelo://app?vid=d200f736-33ff-4949-a4fa-9c168ba1cf59","ios":"levelo://app?vid=d200f736-33ff-4949-a4fa-9c168ba1cf59"},"vehicle_type_id":"4","last_reported":1731399126,"current_range_meters":36800,"station_id":"ce4bhbh2rcd13ifvqepg","pricing_plan_id":"cebpf4jnsgd1na2vs0mg"},{"bike_id":"0c2e330b-f220-4a8a-9740-e952a241c54f","system_id":"levelo_inurba_marseille","lat":43.30541,"lon":5.36563,"is_reserved":false,"is_disabled":false,"rental_uris":{"android":"levelo://app?vid=0c2e330b-f220-4a8a-9740-e952a241c54f","ios":"levelo://app?vid=0c2e330b-f220-4a8a-9740-e952a241c54f"},"vehicle_type_id":"4","last_reported":1731399126,"current_range_meters":6000,"station_id":"ce4bgs12rcd13ifvqcag","pricing_plan_id":"cebpf4jnsgd1na2vs0mg"},{"bike_id":"0c58b14f-e7be-4aa0-b757-97314fb11420","system_id":"levelo_inurba_marseille","lat":43.29631,"lon":5.40592,"is_reserved":false,"is_disabled":false,"rental_uris":{"android":"levelo://app?vid=0c58b14f-e7be-4aa0-b757-97314fb11420","ios":"levelo://app?vid=0c58b14f-e7be-4aa0-b757-97314fb11420"},"vehicle_type_id":"4","last_reported":1731399126,"current_range_meters":26800,"station_id":"ce4bh0h2rcd13ifvqd60","pricing_plan_id":"cebpf4jnsgd1na2vs0mg"},{"bike_id":"0828155a-0414-43d7-8cd8-ac8c3b8ed352","system_id":"levelo_inurba_marseille","lat":43.24081,"lon":5.37751,"is_reserved":false,"is_disabled":false,"rental_uris":{"android":"levelo://app?vid=0828155a-0414-43d7-8cd8-ac8c3b8ed352","ios":"levelo://app?vid=0828155a-0414-43d7-8cd8-ac8c3b8ed352"},"vehicle_type_id":"4","last_reported":1731399126,"current_range_meters":36400,"station_id":"ce4bhnp2rcd13ifvqgvg","pricing_plan_id":"cebpf4jnsgd1na2vs0mg"},{"bike_id":"2c507cd7-54ef-475c-8faa-961482f8a251","system_id":"levelo_inurba_marseille","lat":43.29558,"lon":5.42291,"is_reserved":false,"is_disabled":false,"rental_uris":{"android":"levelo://app?vid=2c507cd7-54ef-475c-8faa-961482f8a251","ios":"levelo://app?vid=2c507cd7-54ef-475c-8faa-961482f8a251"},"vehicle_type_id":"4","last_reported":1731399126,"current_range_meters":24000,"station_id":"ce4bhph2rcd13ifvqhdg","pricing_plan_id":"cebpf4jnsgd1na2vs0mg"},{"bike_id":"10430b98-70dd-4941-99e2-a72d91b7a2fb","system_id":"levelo_inurba_marseille","lat":43.29625,"lon":5.37166,"is_reserved":false,"is_disabled":false,"rental_uris":{"android":"levelo://app?vid=10430b98-70dd-4941-99e2-a72d91b7a2fb","ios":"levelo://app?vid=10430b98-70dd-4941-99e2-a72d91b7a2fb"},"vehicle_type_id":"4","last_reported":1731399126,"current_range_meters":24800,"station_id":"ce4bgnh2rcd13ifvqc0g","pricing_plan_id":"cebpf4jnsgd1na2vs0mg"},{"bike_id":"3ee03585-6871-46ae-8e29-826fc8ed046b","system_id":"levelo_inurba_marseille","lat":43.30914,"lon":5.36852,"is_reserved":false,"is_disabled":false,"rental_uris":{"android":"levelo://app?vid=3ee03585-6871-46ae-8e29-826fc8ed046b","ios":"levelo://app?vid=3ee03585-6871-46ae-8e29-826fc8ed046b"},"vehicle_type_id":"4","last_reported":1731399126,"current_range_meters":38800,"station_id":"ce4bgn92rcd13ifvqbvg","pricing_plan_id":"cebpf4jnsgd1na2vs0mg"},{"bike_id":"bbf9823c-0b18-4994-a232-2b7ce0a92a74","system_id":"levelo_inurba_marseille","lat":43.32484,"lon":5.36553,"is_reserved":false,"is_disabled":false,"rental_uris":{"android":"levelo://app?vid=bbf9823c-0b18-4994-a232-2b7ce0a92a74","ios":"levelo://app?vid=bbf9823c-0b18-4994-a232-2b7ce0a92a74"},"vehicle_type_id":"4","last_reported":1731399126,"current_range_meters":28000,"station_id":"ce4bhs12rcd13ifvqhvg","pricing_plan_id":"cebpf4jnsgd1na2vs0mg"},{"bike_id":"eb49ccaa-375f-419a-9352-0eef087bb961","system_id":"levelo_inurba_marseille","lat":43.26934,"lon":5.3863,"is_reserved":false,"is_disabled":false,"rental_uris":{"android":"levelo://app?vid=eb49ccaa-375f-419a-9352-0eef087bb961","ios":"levelo://app?vid=eb49ccaa-375f-419a-9352-0eef087bb961"},"vehicle_type_id":"4","last_reported":1731399126,"current_range_meters":35600,"station_id":"ce4bhh92rcd13ifvqfh0","pricing_plan_id":"cebpf4jnsgd1na2vs0mg"},{"bike_id":"218d87a8-fb65-4209-8609-267cc1d63387","system_id":"levelo_inurba_marseille","lat":43.337444,"lon":5.374475,"is_reserved":false,"is_disabled":false,"rental_uris":{"android":"levelo://app?vid=218d87a8-fb65-4209-8609-267cc1d63387","ios":"levelo://app?vid=218d87a8-fb65-4209-8609-267cc1d63387"},"vehicle_type_id":"4","last_reported":1731399126,"current_range_meters":38800,"station_id":"","pricing_plan_id":"cebpf4jnsgd1na2vs0mg"},{"bike_id":"8fbfdc0c-2098-4868-9d11-25fc4d45d7cf","system_id":"levelo_inurba_marseille","lat":43.29972,"lon":5.38484,"is_reserved":false,"is_disabled":false,"rental_uris":{"android":"levelo://app?vid=8fbfdc0c-2098-4868-9d11-25fc4d45d7cf","ios":"levelo://app?vid=8fbfdc0c-2098-4868-9d11-25fc4d45d7cf"},"vehicle_type_id":"4","last_reported":1731399126,"current_range_meters":39200,"station_id":"ce4bgj92rcd13ifvqbd0","pricing_plan_id":"cebpf4jnsgd1na2vs0mg"},{"bike_id":"21ad9fdc-3dd8-44b2-b899-89ee0b06ebdb","system_id":"levelo_inurba_marseille","lat":43.301056,"lon":5.398496,"is_reserved":false,"is_disabled":false,"rental_uris":{"android":"levelo://app?vid=21ad9fdc-3dd8-44b2-b899-89ee0b06ebdb","ios":"levelo://app?vid=21ad9fdc-3dd8-44b2-b899-89ee0b06ebdb"},"vehicle_type_id":"4","last_reported":1731399126,"current_range_meters":37600,"station_id":"ce4bh192rcd13ifvqdc0","pricing_plan_id":"cebpf4jnsgd1na2vs0mg"},{"bike_id":"56336af0-3345-4d21-acc8-14daad65336a","system_id":"levelo_inurba_marseille","lat":43.2815,"lon":5.42639,"is_reserved":false,"is_disabled":false,"rental_uris":{"android":"levelo://app?vid=56336af0-3345-4d21-acc8-14daad65336a","ios":"levelo://app?vid=56336af0-3345-4d21-acc8-14daad65336a"},"vehicle_type_id":"4","last_reported":1731399126,"current_range_meters":37600,"station_id":"ce4bhnh2rcd13ifvqgug","pricing_plan_id":"cebpf4jnsgd1na2vs0mg"},{"bike_id":"c02a192e-5825-44fe-a0c9-fd04411f4ff2","system_id":"levelo_inurba_marseille","lat":43.25006,"lon":5.38918,"is_reserved":false,"is_disabled":false,"rental_uris":{"android":"levelo://app?vid=c02a192e-5825-44fe-a0c9-fd04411f4ff2","ios":"levelo://app?vid=c02a192e-5825-44fe-a0c9-fd04411f4ff2"},"vehicle_type_id":"4","last_reported":1731399126,"current_range_meters":20800,"station_id":"ce4bhgp2rcd13ifvqfd0","pricing_plan_id":"cebpf4jnsgd1na2vs0mg"},{"bike_id":"8564a029-0f18-40bc-864c-912d4bb23313","system_id":"levelo_inurba_marseille","lat":43.244325,"lon":5.378855,"is_reserved":false,"is_disabled":false,"rental_uris":{"android":"levelo://app?vid=8564a029-0f18-40bc-864c-912d4bb23313","ios":"levelo://app?vid=8564a029-0f18-40bc-864c-912d4bb23313"},"vehicle_type_id":"4","last_reported":1731399126,"current_range_meters":36400,"station_id":"","pricing_plan_id":"cebpf4jnsgd1na2vs0mg"},{"bike_id":"de45b8a6-e737-4952-88b8-fec7e8bddb90","system_id":"levelo_inurba_marseille","lat":43.30823,"lon":5.38137,"is_reserved":false,"is_disabled":false,"rental_uris":{"android":"levelo://app?vid=de45b8a6-e737-4952-88b8-fec7e8bddb90","ios":"levelo://app?vid=de45b8a6-e737-4952-88b8-fec7e8bddb90"},"vehicle_type_id":"4","last_reported":1731399126,"current_range_meters":38000,"station_id":"ce4bgt12rcd13ifvqce0","pricing_plan_id":"cebpf4jnsgd1na2vs0mg"},{"bike_id":"feb86f62-2c80-4064-8e38-33c5534046da","system_id":"levelo_inurba_marseille","lat":43.28197,"lon":5.39898,"is_reserved":false,"is_disabled":false,"rental_uris":{"android":"levelo://app?vid=feb86f62-2c80-4064-8e38-33c5534046da","ios":"levelo://app?vid=feb86f62-2c80-4064-8e38-33c5534046da"},"vehicle_type_id":"4","last_reported":1731399126,"current_range_meters":11600,"station_id":"","pricing_plan_id":"cebpf4jnsgd1na2vs0mg"},{"bike_id":"c755ce56-b797-4db4-b77f-66af599d7c95","system_id":"levelo_inurba_marseille","lat":43.24066,"lon":5.37755,"is_reserved":false,"is_disabled":false,"rental_uris":{"android":"levelo://app?vid=c755ce56-b797-4db4-b77f-66af599d7c95","ios":"levelo://app?vid=c755ce56-b797-4db4-b77f-66af599d7c95"},"vehicle_type_id":"4","last_reported":1731399126,"current_range_meters":14400,"station_id":"ce4bhnp2rcd13ifvqgvg","pricing_plan_id":"cebpf4jnsgd1na2vs0mg"},{"bike_id":"4dc5e1e2-d322-40f8-83b8-59ab13539203","system_id":"levelo_inurba_marseille","lat":43.23196,"lon":5.35546,"is_reserved":false,"is_disabled":false,"rental_uris":{"android":"levelo://app?vid=4dc5e1e2-d322-40f8-83b8-59ab13539203","ios":"levelo://app?vid=4dc5e1e2-d322-40f8-83b8-59ab13539203"},"vehicle_type_id":"4","last_reported":1731399126,"current_range_meters":38000,"station_id":"ce4bhu92rcd13ifvqi70","pricing_plan_id":"cebpf4jnsgd1na2vs0mg"},{"bike_id":"d3377a1e-52db-45c8-af35-1e82c98e5fba","system_id":"levelo_inurba_marseille","lat":43.24067,"lon":5.37767,"is_reserved":false,"is_disabled":false,"rental_uris":{"android":"levelo://app?vid=d3377a1e-52db-45c8-af35-1e82c98e5fba","ios":"levelo://app?vid=d3377a1e-52db-45c8-af35-1e82c98e5fba"},"vehicle_type_id":"4","last_reported":1731399126,"current_range_meters":34800,"station_id":"ce4bhnp2rcd13ifvqgvg","pricing_plan_id":"cebpf4jnsgd1na2vs0mg"},{"bike_id":"b62b7999-8514-4f79-8030-c5d8a718b393","system_id":"levelo_inurba_marseille","lat":43.24997,"lon":5.38931,"is_reserved":false,"is_disabled":false,"rental_uris":{"android":"levelo://app?vid=b62b7999-8514-4f79-8030-c5d8a718b393","ios":"levelo://app?vid=b62b7999-8514-4f79-8030-c5d8a718b393"},"vehicle_type_id":"4","last_reported":1731399126,"current_range_meters":20000,"station_id":"ce4bhgp2rcd13ifvqfd0","pricing_plan_id":"cebpf4jnsgd1na2vs0mg"},{"bike_id":"ef9ddb39-107a-4a54-b8c7-8686fd28396f","system_id":"levelo_inurba_marseille","lat":43.32362,"lon":5.36756,"is_reserved":false,"is_disabled":false,"rental_uris":{"android":"levelo://app?vid=ef9ddb39-107a-4a54-b8c7-8686fd28396f","ios":"levelo://app?vid=ef9ddb39-107a-4a54-b8c7-8686fd28396f"},"vehicle_type_id":"4","last_reported":1731399126,"current_range_meters":16000,"station_id":"ce4bhsh2rcd13ifvqi2g","pricing_plan_id":"cebpf4jnsgd1na2vs0mg"},{"bike_id":"eddb510e-20da-4247-b2a4-8caf3fea846d","system_id":"levelo_inurba_marseille","lat":43.26577,"lon":5.38999,"is_reserved":false,"is_disabled":false,"rental_uris":{"android":"levelo://app?vid=eddb510e-20da-4247-b2a4-8caf3fea846d","ios":"levelo://app?vid=eddb510e-20da-4247-b2a4-8caf3fea846d"},"vehicle_type_id":"4","last_reported":1731399126,"current_range_meters":17600,"station_id":"ce4bhe12rcd13ifvqf30","pricing_plan_id":"cebpf4jnsgd1na2vs0mg"},{"bike_id":"60d209e1-4c3b-4fd1-a226-45744e3f9541","system_id":"levelo_inurba_marseille","lat":43.25934,"lon":5.40915,"is_reserved":false,"is_disabled":false,"rental_uris":{"android":"levelo://app?vid=60d209e1-4c3b-4fd1-a226-45744e3f9541","ios":"levelo://app?vid=60d209e1-4c3b-4fd1-a226-45744e3f9541"},"vehicle_type_id":"4","last_reported":1731399126,"current_range_meters":8000,"station_id":"ce4bhm92rcd13ifvqglg","pricing_plan_id":"cebpf4jnsgd1na2vs0mg"},{"bike_id":"1048326d-15a3-47bb-b1ed-5e1e84213221","system_id":"levelo_inurba_marseille","lat":43.23149,"lon":5.4373,"is_reserved":false,"is_disabled":false,"rental_uris":{"android":"levelo://app?vid=1048326d-15a3-47bb-b1ed-5e1e84213221","ios":"levelo://app?vid=1048326d-15a3-47bb-b1ed-5e1e84213221"},"vehicle_type_id":"4","last_reported":1731399126,"current_range_meters":28400,"station_id":"ce4bhmp2rcd13ifvqgog","pricing_plan_id":"cebpf4jnsgd1na2vs0mg"},{"bike_id":"85e3fadf-e6dc-4025-881e-d8621c729c36","system_id":"levelo_inurba_marseille","lat":43.27814,"lon":5.40713,"is_reserved":false,"is_disabled":false,"rental_uris":{"android":"levelo://app?vid=85e3fadf-e6dc-4025-881e-d8621c729c36","ios":"levelo://app?vid=85e3fadf-e6dc-4025-881e-d8621c729c36"},"vehicle_type_id":"4","last_reported":1731399126,"current_range_meters":27600,"station_id":"ce4bhnh2rcd13ifvqgtg","pricing_plan_id":"cebpf4jnsgd1na2vs0mg"},{"bike_id":"c8c521a6-f295-4ccf-a1fb-99b3da96c3f4","system_id":"levelo_inurba_marseille","lat":43.24389,"lon":5.37061,"is_reserved":false,"is_disabled":false,"rental_uris":{"android":"levelo://app?vid=c8c521a6-f295-4ccf-a1fb-99b3da96c3f4","ios":"levelo://app?vid=c8c521a6-f295-4ccf-a1fb-99b3da96c3f4"},"vehicle_type_id":"4","last_reported":1731399126,"current_range_meters":3600,"station_id":"ce4bhhh2rcd13ifvqfk0","pricing_plan_id":"cebpf4jnsgd1na2vs0mg"},{"bike_id":"b49fba33-9ed1-4d28-982c-bd04a3fc6f79","system_id":"levelo_inurba_marseille","lat":43.29983,"lon":5.38489,"is_reserved":false,"is_disabled":false,"rental_uris":{"android":"levelo://app?vid=b49fba33-9ed1-4d28-982c-bd04a3fc6f79","ios":"levelo://app?vid=b49fba33-9ed1-4d28-982c-bd04a3fc6f79"},"vehicle_type_id":"4","last_reported":1731399126,"current_range_meters":36800,"station_id":"ce4bgj92rcd13ifvqbd0","pricing_plan_id":"cebpf4jnsgd1na2vs0mg"},{"bike_id":"9fc4ae71-fb45-4cb9-b04d-6391ce3281bb","system_id":"levelo_inurba_marseille","lat":43.28941,"lon":5.39632,"is_reserved":false,"is_disabled":false,"rental_uris":{"android":"levelo://app?vid=9fc4ae71-fb45-4cb9-b04d-6391ce3281bb","ios":"levelo://app?vid=9fc4ae71-fb45-4cb9-b04d-6391ce3281bb"},"vehicle_type_id":"4","last_reported":1731399126,"current_range_meters":38000,"station_id":"ce4bh3h2rcd13ifvqdn0","pricing_plan_id":"cebpf4jnsgd1na2vs0mg"},{"bike_id":"f303ae1b-2ca2-4508-96f1-394c97712783","system_id":"levelo_inurba_marseille","lat":43.24075,"lon":5.37755,"is_reserved":false,"is_disabled":false,"rental_uris":{"android":"levelo://app?vid=f303ae1b-2ca2-4508-96f1-394c97712783","ios":"levelo://app?vid=f303ae1b-2ca2-4508-96f1-394c97712783"},"vehicle_type_id":"4","last_reported":1731399126,"current_range_meters":36400,"station_id":"ce4bhnp2rcd13ifvqgvg","pricing_plan_id":"cebpf4jnsgd1na2vs0mg"},