{"last_updated":1761595717,"ttl":60,"version":"2.2","data":{"bikes":[{"bike_id":"69880247-38f2-48e7-ab49-326f3d5eca30","system_id":"levelo_inurba_marseille","lat":43.21184,"lon":5.35076,"is_reserved":false,"is_disabled":false,"rental_uris":{"android":"levelo://app?vid=69880247-38f2-48e7-ab49-326f3d5eca30","ios":"levelo://app?vid=69880247-38f2-48e7-ab49-326f3d5eca30"},"vehicle_type_id":"4","last_reported":1761595717,"current_range_meters":2800,"station_id":"st_cvj6sg6p6f1abm77japg","pricing_plan_id":"cebpf4jnsgd1na2vs0mg"},{"bike_id":"047d4078-e34e-478c-941d-3d3059846df9","system_id":"levelo_inurba_marseille","lat":43.2944,"lon":5.38659,"is_reserved":false,"is_disabled":false,"rental_uris":{"android":"levelo://app?vid=047d4078-e34e-478c-941d-3d3059846df9","ios":"levelo://app?vid=047d4078-e34e-478c-941d-3d3059846df9"},"vehicle_type_id":"4","last_reported":1761595717,"current_range_meters":2800,"station_id":"","pricing_plan_id":"cebpf4jnsgd1na2vs0mg"},{"bike_id":"e1318b76-706b-416c-9fe5-6f649192bfc1","system_id":"levelo_inurba_marseille","lat":43.29028,"lon":5.38141,"is_reserved":false,"is_disabled":false,"rental_uris":{"android":"levelo://app?vid=e1318b76-706b-416c-9fe5-6f649192bfc1","ios":"levelo://app?vid=e1318b76-706b-416c-9fe5-6f649192bfc1"},"vehicle_type_id":"4","last_reported":1761595717,"current_range_meters":3200,"station_id":"ce4bh4p2rcd13ifvqe1g","pricing_plan_id":"cebpf4jnsgd1na2vs0mg"},{"bike_id":"e8a883c1-ae58-45f0-97a7-d9368c4b611d","system_id":"levelo_inurba_marseille","lat":43.28542,"lon":5.44098,"is_reserved":false,"is_disabled":false,"rental_uris":{"android":"levelo://app?vid=e8a883c1-ae58-45f0-97a7-d9368c4b611d","ios":"levelo://app?vid=e8a883c1-ae58-45f0-97a7-d9368c4b611d"},"vehicle_type_id":"4","last_reported":1761595717,"current_range_meters":3200,"station_id":"st_d3j3df2ikq2c7380ej80","pricing_plan_id":"cebpf4jnsgd1na2vs0mg"},{"bike_id":"46711933-2b5f-4420-aa89-75a898b38a7f","system_id":"levelo_inurba_marseille","lat":43.26562,"lon":5.39013,"is_reserved":false,"is_disabled":false,"rental_uris":{"android":"levelo://app?vid=46711933-2b5f-4420-aa89-75a898b38a7f","ios":"levelo://app?vid=46711933-2b5f-4420-aa89-75a898b38a7f"},"vehicle_type_id":"4","last_reported":1761595717,"current_range_meters":3600,"station_id":"ce4bhe12rcd13ifvqf30","pricing_plan_id":"cebpf4jnsgd1na2vs0mg"},{"bike_id":"c0e5f16c-9106-4dfe-a59f-4fd3357d5b8c","system_id":"levelo_inurba_marseille","lat":43.28937,"lon":5.36629,"is_reserved":false,"is_disabled":false,"rental_uris":{"android":"levelo://app?vid=c0e5f16c-9106-4dfe-a59f-4fd3357d5b8c","ios":"levelo://app?vid=c0e5f16c-9106-4dfe-a59f-4fd3357d5b8c"},"vehicle_type_id":"4","last_reported":1761595717,"current_range_meters":3600,"station_id":"ce4bhap2rcd13ifvqek0","pricing_plan_id":"cebpf4jnsgd1na2vs0mg"},{"bike_id":"43f205a2-e983-4614-8736-553bf1acc168","system_id":"levelo_inurba_marseille","lat":43.23782,"lon":5.36635,"is_reserved":false,"is_disabled":false,"rental_uris":{"android":"levelo://app?vid=43f205a2-e983-4614-8736-553bf1acc168","ios":"levelo://app?vid=43f205a2-e983-4614-8736-553bf1acc168"},"vehicle_type_id":"4","last_reported":1761595717,"current_range_meters":3600,"station_id":"st_d3nk18o9ro0c73en2l3g","pricing_plan_id":"cebpf4jnsgd1na2vs0mg"},{"bike_id":"2193387b-8da5-412c-886d-5efb9917a898","system_id":"levelo_inurba_marseille","lat":43.30143,"lon":5.37426,"is_reserved":false,"is_disabled":false,"rental_uris":{"android":"levelo://app?vid=2193387b-8da5-412c-886d-5efb9917a898","ios":"levelo://app?vid=2193387b-8da5-412c-886d-5efb9917a898"},"vehicle_type_id":"4","last_reported":1761595717,"current_range_meters":4000,"station_id":"ce4bgs92rcd13ifvqcc0","pricing_plan_id":"cebpf4jnsgd1na2vs0mg"},{"bike_id":"11de6fcc-7d8e-4443-a1ba-15f1685ac212","system_id":"levelo_inurba_marseille","lat":43.335693,"lon":5.410365,"is_reserved":false,"is_disabled":false,"rental_uris":{"android":"levelo://app?vid=11de6fcc-7d8e-4443-a1ba-15f1685ac212","ios":"levelo://app?vid=11de6fcc-7d8e-4443-a1ba-15f1685ac212"},"vehicle_type_id":"4","last_reported":1761595717,"current_range_meters":4000,"station_id":"ce4bhqh2rcd13ifvqhmg","pricing_plan_id":"cebpf4jnsgd1na2vs0mg"},{"bike_id":"b2dc8ab5-1f33-4a2c-8a99-3e2cff53764e","system_id":"levelo_inurba_marseille","lat":43.28409,"lon":5.37522,"is_reserved":false,"is_disabled":false,"rental_uris":{"android":"levelo://app?vid=b2dc8ab5-1f33-4a2c-8a99-3e2cff53764e","ios":"levelo://app?vid=b2dc8ab5-1f33-4a2c-8a99-3e2cff53764e"},"vehicle_type_id":"4","last_reported":1761595717,"current_range_meters":4400,"station_id":"ce4bh412rcd13ifvqds0","pricing_plan_id":"cebpf4jnsgd1na2vs0mg"},{"bike_id":"37a959fb-0a01-4caa-a022-0eba517172d9","system_id":"levelo_inurba_marseille","lat":43.304272,"lon":5.388947,"is_reserved":false,"is_disabled":false,"rental_uris":{"android":"levelo://app?vid=37a959fb-0a01-4caa-a022-0eba517172d9","ios":"levelo://app?vid=37a959fb-0a01-4caa-a022-0eba517172d9"},"vehicle_type_id":"4","last_reported":1761595717,"current_range_meters":4400,"station_id":"ce4bhpp2rcd13ifvqhgg","pricing_plan_id":"cebpf4jnsgd1na2vs0mg"},{"bike_id":"1f42dc70-96f8-4dc5-99d4-871995964945","system_id":"levelo_inurba_marseille","lat":43.26683,"lon":5.38272,"is_reserved":false,"is_disabled":false,"rental_uris":{"android":"levelo://app?vid=1f42dc70-96f8-4dc5-99d4-871995964945","ios":"levelo://app?vid=1f42dc70-96f8-4dc5-99d4-871995964945"},"vehicle_type_id":"4","last_reported":1761595717,"current_range_meters":4400,"station_id":"ce4bhg92rcd13ifvqf90","pricing_plan_id":"cebpf4jnsgd1na2vs0mg"},{"bike_id":"b5b62287-d3ee-447e-9fe2-9f2b8112a684","system_id":"levelo_inurba_marseille","lat":43.21183,"lon":5.35074,"is_reserved":false,"is_disabled":true,"rental_uris":{"android":"levelo://app?vid=b5b62287-d3ee-447e-9fe2-9f2b8112a684","ios":"levelo://app?vid=b5b62287-d3ee-447e-9fe2-9f2b8112a684"},"vehicle_type_id":"4","last_reported":1761595717,"current_range_meters":4800,"station_id":"","pricing_plan_id":"cebpf4jnsgd1na2vs0mg"},{"bike_id":"6685b72d-bc6c-4473-970f-cfe39ccfd2f4","system_id":"levelo_inurba_marseille","lat":43.28354,"lon":5.38096,"is_reserved":false,"is_disabled":false,"rental_uris":{"android":"levelo://app?vid=6685b72d-bc6c-4473-970f-cfe39ccfd2f4","ios":"levelo://app?vid=6685b72d-bc6c-4473-970f-cfe39ccfd2f4"},"vehicle_type_id":"4","last_reported":1761595717,"current_range_meters":5600,"station_id":"ce4bh412rcd13ifvqdr0","pricing_plan_id":"cebpf4jnsgd1na2vs0mg"},{"bike_id":"733a8b6c-f6e2-44cb-babb-fea62f65413b","system_id":"levelo_inurba_marseille","lat":43.3372,"lon":5.39195,"is_reserved":false,"is_disabled":false,"rental_uris":{"android":"levelo://app?vid=733a8b6c-f6e2-44cb-babb-fea62f65413b","ios":"levelo://app?vid=733a8b6c-f6e2-44cb-babb-fea62f65413b"},"vehicle_type_id":"4","last_reported":1761595717,"current_range_meters":6000,"station_id":"ce4bhr92rcd13ifvqhsg","pricing_plan_id":"cebpf4jnsgd1na2vs0mg"},{"bike_id":"e1aa20f8-799a-4567-bfd0-31e71eee617f","system_id":"levelo_inurba_marseille","lat":43.31437,"lon":5.38885,"is_reserved":false,"is_disabled":true,"rental_uris":{"android":"levelo://app?vid=e1aa20f8-799a-4567-bfd0-31e71eee617f","ios":"levelo://app?vid=e1aa20f8-799a-4567-bfd0-31e71eee617f"},"vehicle_type_id":"4","last_reported":1761595717,"current_range_meters":6000,"station_id":"","pricing_plan_id":"cebpf4jnsgd1na2vs0mg"},{"bike_id":"54bf9a02-fb6b-478d-be2d-4e66ca8f4ac3","system_id":"levelo_inurba_marseille","lat":43.24069,"lon":5.37763,"is_reserved":false,"is_disabled":false,"rental_uris":{"android":"levelo://app?vid=54bf9a02-fb6b-478d-be2d-4e66ca8f4ac3","ios":"levelo://app?vid=54bf9a02-fb6b-478d-be2d-4e66ca8f4ac3"},"vehicle_type_id":"4","last_reported":1761595717,"current_range_meters":6000,"station_id":"ce4bhnp2rcd13ifvqgvg","pricing_plan_id":"cebpf4jnsgd1na2vs0mg"},{"bike_id":"25d1018a-4ed7-4817-9beb-fd563905ac08","system_id":"levelo_inurba_marseille","lat":43.27916,"lon":5.39582,"is_reserved":false,"is_disabled":false,"rental_uris":{"android":"levelo://app?vid=25d1018a-4ed7-4817-9beb-fd563905ac08","ios":"levelo://app?vid=25d1018a-4ed7-4817-9beb-fd563905ac08"},"vehicle_type_id":"4","last_reported":1761595717,"current_range_meters":6000,"station_id":"ce4bhf92rcd13ifvqf40","pricing_plan_id":"cebpf4jnsgd1na2vs0mg"},{"bike_id":"38049873-4ce3-4ce7-af67-7bce37a23dc9","system_id":"levelo_inurba_marseille","lat":43.32659,"lon":5.40996,"is_reserved":false,"is_disabled":false,"rental_uris":{"android":"levelo://app?vid=38049873-4ce3-4ce7-af67-7bce37a23dc9","ios":"levelo://app?vid=38049873-4ce3-4ce7-af67-7bce37a23dc9"},"vehicle_type_id":"4","last_reported":1761595717,"current_range_meters":6000,"station_id":"ce4bhpp2rcd13ifvqhgg","pricing_plan_id":"cebpf4jnsgd1na2vs0mg"},{"bike_id":"5c37ddd6-9570-4165-9d7e-03460784cff6","system_id":"levelo_inurba_marseille","lat":43.29539,"lon":5.38544,"is_reserved":false,"is_disabled":false,"rental_uris":{"android":"levelo://app?vid=5c37ddd6-9570-4165-9d7e-03460784cff6","ios":"levelo://app?vid=5c37ddd6-9570-4165-9d7e-03460784cff6"},"vehicle_type_id":"4","last_reported":1761595717,"current_range_meters":6000,"station_id":"ce4bgih2rcd13ifvqba0","pricing_plan_id":"cebpf4jnsgd1na2vs0mg"},{"bike_id":"b0ec3244-4c1d-453f-9318-d6aeaa7b396d","system_id":"levelo_inurba_marseille","lat":43.31239,"lon":5.36868,"is_reserved":false,"is_disabled":false,"rental_uris":{"android":"levelo://app?vid=b0ec3244-4c1d-453f-9318-d6aeaa7b396d","ios":"levelo://app?vid=b0ec3244-4c1d-453f-9318-d6aeaa7b396d"},"vehicle_type_id":"4","last_reported":1761595717,"current_range_meters":6000,"station_id":"ce4bgl92rcd13ifvqbq0","pricing_plan_id":"cebpf4jnsgd1na2vs0mg"},{"bike_id":"a537508a-4540-4fa9-9a2b-0cfec6c68464","system_id":"levelo_inurba_marseille","lat":43.32476,"lon":5.36567,"is_reserved":false,"is_disabled":false,"rental_uris":{"android":"levelo://app?vid=a537508a-4540-4fa9-9a2b-0cfec6c68464","ios":"levelo://app?vid=a537508a-4540-4fa9-9a2b-0cfec6c68464"},"vehicle_type_id":"4","last_reported":1761595717,"current_range_meters":6000,"station_id":"ce4bhs12rcd13ifvqhvg","pricing_plan_id":"cebpf4jnsgd1na2vs0mg"},{"bike_id":"4ade9d83-f2d5-4d19-a54e-74fbd9ec2b53","system_id":"levelo_inurba_marseille","lat":43.32109,"lon":5.3871,"is_reserved":false,"is_disabled":false,"rental_uris":{"android":"levelo://app?vid=4ade9d83-f2d5-4d19-a54e-74fbd9ec2b53","ios":"levelo://app?vid=4ade9d83-f2d5-4d19-a54e-74fbd9ec2b53"},"vehicle_type_id":"4","last_reported":1761595717,"current_range_meters":6400,"station_id":"","pricing_plan_id":"cebpf4jnsgd1na2vs0mg"},{"bike_id":"4c0cc699-7645-4e7e-90a0-b85a345c9829","system_id":"levelo_inurba_marseille","lat":43.28445,"lon":5.39227,"is_reserved":false,"is_disabled":false,"rental_uris":{"android":"levelo://app?vid=4c0cc699-7645-4e7e-90a0-b85a345c9829","ios":"levelo://app?vid=4c0cc699-7645-4e7e-90a0-b85a345c9829"},"vehicle_type_id":"4","last_reported":1761595717,"current_range_meters":6400,"station_id":"ce4bhoh2rcd13ifvqh5g","pricing_plan_id":"cebpf4jnsgd1na2vs0mg"},{"bike_id":"d371fca9-f15c-4b31-9965-5bfd428f2f86","system_id":"levelo_inurba_marseille","lat":43.24805,"lon":5.37455,"is_reserved":false,"is_disabled":false,"rental_uris":{"android":"levelo://app?vid=d371fca9-f15c-4b31-9965-5bfd428f2f86","ios":"levelo://app?vid=d371fca9-f15c-4b31-9965-5bfd428f2f86"},"vehicle_type_id":"4","last_reported":1761595717,"current_range_meters":6800,"station_id":"ce4bhgh2rcd13ifvqfb0","pricing_plan_id":"cebpf4jnsgd1na2vs0mg"},{"bike_id":"082e1df6-b1d5-4263-bc06-c58783199e6b","system_id":"levelo_inurba_marseille","lat":43.28431,"lon":5.37548,"is_reserved":false,"is_disabled":false,"rental_uris":{"android":"levelo://app?vid=082e1df6-b1d5-4263-bc06-c58783199e6b","ios":"levelo://app?vid=082e1df6-b1d5-4263-bc06-c58783199e6b"},"vehicle_type_id":"4","last_reported":1761595717,"current_range_meters":6800,"station_id":"ce4bh412rcd13ifvqds0","pricing_plan_id":"cebpf4jnsgd1na2vs0mg"},{"bike_id":"4f97e0fb-89f1-4ff0-8dca-a87a0897b7dd","system_id":"levelo_inurba_marseille","lat":43.3073,"lon":5.42442,"is_reserved":false,"is_disabled":false,"rental_uris":{"android":"levelo://app?vid=4f97e0fb-89f1-4ff0-8dca-a87a0897b7dd","ios":"levelo://app?vid=4f97e0fb-89f1-4ff0-8dca-a87a0897b7dd"},"vehicle_type_id":"4","last_reported":1761595717,"current_range_meters":6800,"station_id":"st_cvj6ca6bvosntc0bfgr0","pricing_plan_id":"cebpf4jnsgd1na2vs0mg"},{"bike_id":"c0b81f28-bbba-4247-a74b-c55a34b31846","system_id":"levelo_inurba_marseille","lat":43.33258,"lon":5.41086,"is_reserved":false,"is_disabled":false,"rental_uris":{"android":"levelo://app?vid=c0b81f28-bbba-4247-a74b-c55a34b31846","ios":"levelo://app?vid=c0b81f28-bbba-4247-a74b-c55a34b31846"},"vehicle_type_id":"4","last_reported":1761595717,"current_range_meters":7200,"station_id":"","pricing_plan_id":"cebpf4jnsgd1na2vs0mg"},{"bike_id":"45fc7de7-aaff-49db-8fab-5a374d680f7e","system_id":"levelo_inurba_marseille","lat":43.29306,"lon":5.37173,"is_reserved":false,"is_disabled":false,"rental_uris":{"android":"levelo://app?vid=45fc7de7-aaff-49db-8fab-5a374d680f7e","ios":"levelo://app?vid=45fc7de7-aaff-49db-8fab-5a374d680f7e"},"vehicle_type_id":"4","last_reported":1761595717,"current_range_meters":7200,"station_id":"ce4bgh92rcd13ifvqb40","pricing_plan_id":"cebpf4jnsgd1na2vs0mg"},{"bike_id":"8751bf01-4bd1-4a18-826b-0e0beaa85a4e","system_id":"levelo_inurba_marseille","lat":43.29254,"lon":5.38448,"is_reserved":false,"is_disabled":false,"rental_uris":{"android":"levelo://app?vid=8751bf01-4bd1-4a18-826b-0e0beaa85a4e","ios":"levelo://app?vid=8751bf01-4bd1-4a18-826b-0e0beaa85a4e"},"vehicle_type_id":"4","last_reported":1761595717,"current_range_meters":7200,"station_id":"ce4bh692rcd13ifvqea0","pricing_plan_id":"cebpf4jnsgd1na2vs0mg"},{"bike_id":"fd815979-c1a7-4168-a716-1dd21f98d446","system_id":"levelo_inurba_marseille","lat":43.30142,"lon":5.39878,"is_reserved":false,"is_disabled":false,"rental_uris":{"android":"levelo://app?vid=fd815979-c1a7-4168-a716-1dd21f98d446","ios":"levelo://app?vid=fd815979-c1a7-4168-a716-1dd21f98d446"},"vehicle_type_id":"4","last_reported":1761595717,"current_range_meters":7200,"station_id":"ce4bh0h2rcd13ifvqd40","pricing_plan_id":"cebpf4jnsgd1na2vs0mg"},{"bike_id":"55774e84-3c0d-4b39-ab06-d37212db6fea","system_id":"levelo_inurba_marseille","lat":43.29192,"lon":5.39314,"is_reserved":false,"is_disabled":false,"rental_uris":{"android":"levelo://app?vid=55774e84-3c0d-4b39-ab06-d37212db6fea","ios":"levelo://app?vid=55774e84-3c0d-4b39-ab06-d37212db6fea"},"vehicle_type_id":"4","last_reported":1761595717,"current_range_meters":7200,"station_id":"ce4bh192rcd13ifvqdd0","pricing_plan_id":"cebpf4jnsgd1na2vs0mg"},{"bike_id":"c9f673e6-c742-4d08-9599-688c17549a01","system_id":"levelo_inurba_marseille","lat":43.29575,"lon":5.36737,"is_reserved":false,"is_disabled":false,"rental_uris":{"android":"levelo://app?vid=c9f673e6-c742-4d08-9599-688c17549a01","ios":"levelo://app?vid=c9f673e6-c742-4d08-9599-688c17549a01"},"vehicle_type_id":"4","last_reported":1761595717,"current_range_meters":7200,"station_id":"ce4bgph2rcd13ifvqc2g","pricing_plan_id":"cebpf4jnsgd1na2vs0mg"},{"bike_id":"3496652c-9ee4-4d0f-8501-e13df3c02251","system_id":"levelo_inurba_marseille","lat":43.28931,"lon":5.36625,"is_reserved":false,"is_disabled":false,"rental_uris":{"android":"levelo://app?vid=3496652c-9ee4-4d0f-8501-e13df3c02251","ios":"levelo://app?vid=3496652c-9ee4-4d0f-8501-e13df3c02251"},"vehicle_type_id":"4","last_reported":1761595717,"current_range_meters":7200,"station_id":"ce4bhap2rcd13ifvqek0","pricing_plan_id":"cebpf4jnsgd1na2vs0mg"},{"bike_id":"6d963d41-87a3-45a6-a6ac-202ab0814d9b","system_id":"levelo_inurba_marseille","lat":43.2807,"lon":5.39643,"is_reserved":false,"is_disabled":false,"rental_uris":{"android":"levelo://app?vid=6d963d41-87a3-45a6-a6ac-202ab0814d9b","ios":"levelo://app?vid=6d963d41-87a3-45a6-a6ac-202ab0814d9b"},"vehicle_type_id":"4","last_reported":1761595717,"current_range_meters":7200,"station_id":"ce4bho12rcd13ifvqh2g","pricing_plan_id":"cebpf4jnsgd1na2vs0mg"},{"bike_id":"9948659e-658b-41a7-8ddd-fded695845c9","system_id":"levelo_inurba_marseille","lat":43.24804,"lon":5.3745,"is_reserved":false,"is_disabled":false,"rental_uris":{"android":"levelo://app?vid=9948659e-658b-41a7-8ddd-fded695845c9","ios":"levelo://app?vid=9948659e-658b-41a7-8ddd-fded695845c9"},"vehicle_type_id":"4","last_reported":1761595717,"current_range_meters":7200,"station_id":"ce4bhgh2rcd13ifvqfb0","pricing_plan_id":"cebpf4jnsgd1na2vs0mg"},{"bike_id":"02273f3b-4237-49fe-bcd2-c7180e36fb13","system_id":"levelo_inurba_marseille","lat":43.3169,"lon":5.40466,"is_reserved":false,"is_disabled":false,"rental_uris":{"android":"levelo://app?vid=02273f3b-4237-49fe-bcd2-c7180e36fb13","ios":"levelo://app?vid=02273f3b-4237-49fe-bcd2-c7180e36fb13"},"vehicle_type_id":"4","last_reported":1761595717,"current_range_meters":7200,"station_id":"ce4bh012rcd13ifvqd00","pricing_plan_id":"cebpf4jnsgd1na2vs0mg"},{"bike_id":"b50f62db-e10a-4da2-94d0-3e27f82e0cec","system_id":"levelo_inurba_marseille","lat":43.23781,"lon":5.36624,"is_reserved":false,"is_disabled":false,"rental_uris":{"android":"levelo://app?vid=b50f62db-e10a-4da2-94d0-3e27f82e0cec","ios":"levelo://app?vid=b50f62db-e10a-4da2-94d0-3e27f82e0cec"},"vehicle_type_id":"4","last_reported":1761595717,"current_range_meters":8000,"station_id":"st_d3nk18o9ro0c73en2l3g","pricing_plan_id":"cebpf4jnsgd1na2vs0mg"},{"bike_id":"aefafc35-1dc5-402c-9aa8-034b1f17dc14","system_id":"levelo_inurba_marseille","lat":43.29307,"lon":5.37181,"is_reserved":false,"is_disabled":false,"rental_uris":{"android":"levelo://app?vid=aefafc35-1dc5-402c-9aa8-034b1f17dc14","ios":"levelo://app?vid=aefafc35-1dc5-402c-9aa8-034b1f17dc14"},"vehicle_type_id":"4","last_reported":1761595717,"current_range_meters":8000,"station_id":"ce4bgh92rcd13ifvqb40","pricing_plan_id":"cebpf4jnsgd1na2vs0mg"},{"bike_id":"41d45b45-3a52-4b5a-b2b3-1e62d5490ada","system_id":"levelo_inurba_marseille","lat":43.28533,"lon":5.4412,"is_reserved":false,"is_disabled":false,"rental_uris":{"android":"levelo://app?vid=41d45b45-3a52-4b5a-b2b3-1e62d5490ada","ios":"levelo://app?vid=41d45b45-3a52-4b5a-b2b3-1e62d5490ada"},"vehicle_type_id":"4","last_reported":1761595717,"current_range_meters":8000,"station_id":"st_d3j3df2ikq2c7380ej80","pricing_plan_id":"cebpf4jnsgd1na2vs0mg"},{"bike_id":"d6e8c59e-ae6f-414c-ac0d-f2e9506cb6ac","system_id":"levelo_inurba_marseille","lat":43.295166,"lon":5.390425,"is_reserved":false,"is_disabled":false,"rental_uris":{"android":"levelo://app?vid=d6e8c59e-ae6f-414c-ac0d-f2e9506cb6ac","ios":"levelo://app?vid=d6e8c59e-ae6f-414c-ac0d-f2e9506cb6ac"},"vehicle_type_id":"4","last_reported":1761595717,"current_range_meters":8000,"station_id":"ce4bh3p2rcd13ifvqdp0","pricing_plan_id":"cebpf4jnsgd1na2vs0mg"},{"bike_id":"2e619179-19cb-4583-80a9-97bad33f6f1a","system_id":"levelo_inurba_marseille","lat":43.301178,"lon":5.398681,"is_reserved":false,"is_disabled":false,"rental_uris":{"android":"levelo://app?vid=2e619179-19cb-4583-80a9-97bad33f6f1a","ios":"levelo://app?vid=2e619179-19cb-4583-80a9-97bad33f6f1a"},"vehicle_type_id":"4","last_reported":1761595717,"current_range_meters":8000,"station_id":"ce4bh0h2rcd13ifvqd40","pricing_plan_id":"cebpf4jnsgd1na2vs0mg"},{"bike_id":"51417bc5-d921-46a1-9f2e-9fd4dafc80b4","system_id":"levelo_inurba_marseille","lat":43.29272,"lon":5.36852,"is_reserved":false,"is_disabled":false,"rental_uris":{"android":"levelo://app?vid=51417bc5-d921-46a1-9f2e-9fd4dafc80b4","ios":"levelo://app?vid=51417bc5-d921-46a1-9f2e-9fd4dafc80b4"},"vehicle_type_id":"4","last_reported":1761595717,"current_range_meters":8000,"station_id":"ce4bhbp2rcd13ifvqesg","pricing_plan_id":"cebpf4jnsgd1na2vs0mg"},{"bike_id":"4138d7f9-1746-48a7-a043-b88e6a819d33","system_id":"levelo_inurba_marseille","lat":43.292713,"lon":5.409008,"is_reserved":false,"is_disabled":false,"rental_uris":{"android":"levelo://app?vid=4138d7f9-1746-48a7-a043-b88e6a819d33","ios":"levelo://app?vid=4138d7f9-1746-48a7-a043-b88e6a819d33"},"vehicle_type_id":"4","last_reported":1761595717,"current_range_meters":8400,"station_id":"ce4bh192rcd13ifvqdc0","pricing_plan_id":"cebpf4jnsgd1na2vs0mg"},{"bike_id":"7406011a-9224-4f71-a100-25b93e88e0bd","system_id":"levelo_inurba_marseille","lat":43.270757,"lon":5.422819,"is_reserved":false,"is_disabled":false,"rental_uris":{"android":"levelo://app?vid=7406011a-9224-4f71-a100-25b93e88e0bd","ios":"levelo://app?vid=7406011a-9224-4f71-a100-25b93e88e0bd"},"vehicle_type_id":"4","last_reported":1761595717,"current_range_meters":8400,"station_id":"ce4bhk92rcd13ifvqgb0","pricing_plan_id":"cebpf4jnsgd1na2vs0mg"},{"bike_id":"64b75b4a-3497-4861-8cc2-90dd62cd9f5e","system_id":"levelo_inurba_marseille","lat":43.29317,"lon":5.43424,"is_reserved":false,"is_disabled":false,"rental_uris":{"android":"levelo://app?vid=64b75b4a-3497-4861-8cc2-90dd62cd9f5e","ios":"levelo://app?vid=64b75b4a-3497-4861-8cc2-90dd62cd9f5e"},"vehicle_type_id":"4","last_reported":1761595717,"current_range_meters":8400,"station_id":"","pricing_plan_id":"cebpf4jnsgd1na2vs0mg"},{"bike_id":"e4ccce50-4824-4895-aa8c-033835526f23","system_id":"levelo_inurba_marseille","lat":43.31876,"lon":5.39985,"is_reserved":false,"is_disabled":false,"rental_uris":{"android":"levelo://app?vid=e4ccce50-4824-4895-aa8c-033835526f23","ios":"levelo://app?vid=e4ccce50-4824-4895-aa8c-033835526f23"},"vehicle_type_id":"4","last_reported":1761595717,"current_range_meters":8400,"station_id":"","pricing_plan_id":"cebpf4jnsgd1na2vs0mg"},{"bike_id":"b4161da3-6410-487c-842a-c71723a5ee6e","system_id":"levelo_inurba_marseille","lat":43.23483,"lon":5.35956,"is_reserved":false,"is_disabled":false,"rental_uris":{"android":"levelo://app?vid=b4161da3-6410-487c-842a-c71723a5ee6e","ios":"levelo://app?vid=b4161da3-6410-487c-842a-c71723a5ee6e"},"vehicle_type_id":"4","last_reported":1761595717,"current_range_meters":8400,"station_id":"","pricing_plan_id":"cebpf4jnsgd1na2vs0mg"},{"bike_id":"de5cece4-6186-4ccb-b70e-a25e8bd3fc86","system_id":"levelo_inurba_marseille","lat":43.337444,"lon":5.374475,"is_reserved":false,"is_disabled":false,"rental_uris":{"android":"levelo://app?vid=de5cece4-6186-4ccb-b70e-a25e8bd3fc86","ios":"levelo://app?vid=de5cece4-6186-4ccb-b70e-a25e8bd3fc86"},"vehicle_type_id":"4","last_reported":1761595717,"current_range_meters":8400,"station_id":"","pricing_plan_id":"cebpf4jnsgd1na2vs0mg"},{"bike_id":"455990a8-5c6b-4725-bcca-4220ddf18698","system_id":"levelo_inurba_marseille","lat":43.27557,"lon":5.38418,"is_reserved":false,"is_disabled":false,"rental_uris":{"android":"levelo://app?vid=455990a8-5c6b-4725-bcca-4220ddf18698","ios":"levelo://app?vid=455990a8-5c6b-4725-bcca-4220ddf18698"},"vehicle_type_id":"4","last_reported":1761595717,"current_range_meters":8400,"station_id":"ce4bhh92rcd13ifvqfi0","pricing_plan_id":"cebpf4jnsgd1na2vs0mg"},{"bike_id":"8847af5d-c1ad-4d8d-a5c1-273c3b41c105","system_id":"levelo_inurba_marseille","lat":43.32242,"lon":5.41963,"is_reserved":false,"is_disabled":false,"rental_uris":{"android":"levelo://app?vid=8847af5d-c1ad-4d8d-a5c1-273c3b41c105","ios":"levelo://app?vid=8847af5d-c1ad-4d8d-a5c1-273c3b41c105"},"vehicle_type_id":"4","last_reported":1761595717,"current_range_meters":8800,"station_id":"","pricing_plan_id":"cebpf4jnsgd1na2vs0mg"},{"bike_id":"de0ca7a8-116a-46c8-8c50-6b445a473423","system_id":"levelo_inurba_marseille","lat":43.28869,"lon":5.42508,"is_reserved":false,"is_disabled":false,"rental_uris":{"android":"levelo://app?vid=de0ca7a8-116a-46c8-8c50-6b445a473423","ios":"levelo://app?vid=de0ca7a8-116a-46c8-8c50-6b445a473423"},"vehicle_type_id":"4","last_reported":1761595717,"current_range_meters":8800,"station_id":"st_d3b462108ojc7389ooeg","pricing_plan_id":"cebpf4jnsgd1na2vs0mg"},{"bike_id":"181c6647-346f-4909-bf21-a334207cddf0","system_id":"levelo_inurba_marseille","lat":43.30428,"lon":5.39751,"is_reserved":false,"is_disabled":false,"rental_uris":{"android":"levelo://app?vid=181c6647-346f-4909-bf21-a334207cddf0","ios":"levelo://app?vid=181c6647-346f-4909-bf21-a334207cddf0"},"vehicle_type_id":"4","last_reported":1761595717,"current_range_meters":8800,"station_id":"ce4bh092rcd13ifvqd20","pricing_plan_id":"cebpf4jnsgd1na2vs0mg"},{"bike_id":"086893c1-cc9f-4895-ade0-39b1ff1221f0","system_id":"levelo_inurba_marseille","lat":43.29034,"lon":5.37569,"is_reserved":false,"is_disabled":false,"rental_uris":{"android":"levelo://app?vid=086893c1-cc9f-4895-ade0-39b1ff1221f0","ios":"levelo://app?vid=086893c1-cc9f-4895-ade0-39b1ff1221f0"},"vehicle_type_id":"4","last_reported":1761595717,"current_range_meters":8800,"station_id":"ce4bh692rcd13ifvqe90","pricing_plan_id":"cebpf4jnsgd1na2vs0mg"},{"bike_id":"6575e432-d687-48b7-8be5-0e48adbc6752","system_id":"levelo_inurba_marseille","lat":43.32284,"lon":5.38275,"is_reserved":false,"is_disabled":false,"rental_uris":{"android":"levelo://app?vid=6575e432-d687-48b7-8be5-0e48adbc6752","ios":"levelo://app?vid=6575e432-d687-48b7-8be5-0e48adbc6752"},"vehicle_type_id":"4","last_reported":1761595717,"current_range_meters":8800,"station_id":"ce4bhr12rcd13ifvqhqg","pricing_plan_id":"cebpf4jnsgd1na2vs0mg"},{"bike_id":"d9bb607d-1ecc-49cc-9f82-e52383a3bc84","system_id":"levelo_inurba_marseille","lat":43.2932,"lon":5.41159,"is_reserved":false,"is_disabled":false,"rental_uris":{"android":"levelo://app?vid=d9bb607d-1ecc-49cc-9f82-e52383a3bc84","ios":"levelo://app?vid=d9bb607d-1ecc-49cc-9f82-e52383a3bc84"},"vehicle_type_id":"4","last_reported":1761595717,"current_range_meters":9200,"station_id":"","pricing_plan_id":"cebpf4jnsgd1na2vs0mg"},{"bike_id":"934c9f09-3f5e-42f2-a81e-1d96833db145","system_id":"levelo_inurba_marseille","lat":43.29193,"lon":5.40272,"is_reserved":false,"is_disabled":false,"rental_uris":{"android":"levelo://app?vid=934c9f09-3f5e-42f2-a81e-1d96833db145","ios":"levelo://app?vid=934c9f09-3f5e-42f2-a81e-1d96833db145"},"vehicle_type_id":"4","last_reported":1761595717,"current_range_meters":9200,"station_id":"","pricing_plan_id":"cebpf4jnsgd1na2vs0mg"},{"bike_id":"7348219f-62a2-4f61-9dc3-4c6ae6e126f0","system_id":"levelo_inurba_marseille","lat":43.33749,"lon":5.37429,"is_reserved":false,"is_disabled":false,"rental_uris":{"android":"levelo://app?vid=7348219f-62a2-4f61-9dc3-4c6ae6e126f0","ios":"levelo://app?vid=7348219f-62a2-4f61-9dc3-4c6ae6e126f0"},"vehicle_type_id":"4","last_reported":1761595717,"current_range_meters":9600,"station_id":"","pricing_plan_id":"cebpf4jnsgd1na2vs0mg"},{"bike_id":"32961a75-7360-4c5a-9908-e2591d50a08d","system_id":"levelo_inurba_marseille","lat":43.28575,"lon":5.39505,"is_reserved":false,"is_disabled":false,"rental_uris":{"android":"levelo://app?vid=32961a75-7360-4c5a-9908-e2591d50a08d","ios":"levelo://app?vid=32961a75-7360-4c5a-9908-e2591d50a08d"},"vehicle_type_id":"4","last_reported":1761595717,"current_range_meters":9600,"station_id":"ce4bh292rcd13ifvqdg0","pricing_plan_id":"cebpf4jnsgd1na2vs0mg"},{"bike_id":"74ad1e51-e842-41b7-aab9-70c940e25f55","system_id":"levelo_inurba_marseille","lat":43.21747,"lon":5.34599,"is_reserved":false,"is_disabled":true,"rental_uris":{"android":"levelo://app?vid=74ad1e51-e842-41b7-aab9-70c940e25f55","ios":"levelo://app?vid=74ad1e51-e842-41b7-aab9-70c940e25f55"},"vehicle_type_id":"4","last_reported":1761595717,"current_range_meters":9600,"station_id":"st_cvj6r9ubvosntc0bgbag","pricing_plan_id":"cebpf4jnsgd1na2vs0mg"},{"bike_id":"96e135e9-3840-4218-9e65-152a5c604a6f","system_id":"levelo_inurba_marseille","lat":43.28852,"lon":5.4252,"is_reserved":false,"is_disabled":false,"rental_uris":{"android":"levelo://app?vid=96e135e9-3840-4218-9e65-152a5c604a6f","ios":"levelo://app?vid=96e135e9-3840-4218-9e65-152a5c604a6f"},"vehicle_type_id":"4","last_reported":1761595717,"current_range_meters":9600,"station_id":"st_d3b462108ojc7389ooeg","pricing_plan_id":"cebpf4jnsgd1na2vs0mg"},{"bike_id":"e18d5454-41be-42f0-93d8-50b22e2bef5b","system_id":"levelo_inurba_marseille","lat":43.30139,"lon":5.43074,"is_reserved":false,"is_disabled":false,"rental_uris":{"android":"levelo://app?vid=e18d5454-41be-42f0-93d8-50b22e2bef5b","ios":"levelo://app?vid=e18d5454-41be-42f0-93d8-50b22e2bef5b"},"vehicle_type_id":"4","last_reported":1761595717,"current_range_meters":10000,"station_id":"st_d3js3co5814s73ftftug","pricing_plan_id":"cebpf4jnsgd1na2vs0mg"},{"bike_id":"71fe0d6a-f99e-45a0-9c75-e294b78524b2","system_id":"levelo_inurba_marseille","lat":43.23059,"lon":5.35487,"is_reserved":false,"is_disabled":false,"rental_uris":{"android":"levelo://app?vid=71fe0d6a-f99e-45a0-9c75-e294b78524b2","ios":"levelo://app?vid=71fe0d6a-f99e-45a0-9c75-e294b78524b2"},"vehicle_type_id":"4","last_reported":1761595717,"current_range_meters":10000,"station_id":"cpo3342slgdg3j2ifvpg","pricing_plan_id":"cebpf4jnsgd1na2vs0mg"},{"bike_id":"ac8b7b2d-6b7a-4d54-9d40-e2a426c544a8","system_id":"levelo_inurba_marseille","lat":43.2406,"lon":5.37755,"is_reserved":false,"is_disabled":false,"rental_uris":{"android":"levelo://app?vid=ac8b7b2d-6b7a-4d54-9d40-e2a426c544a8","ios":"levelo://app?vid=ac8b7b2d-6b7a-4d54-9d40-e2a426c544a8"},"vehicle_type_id":"4","last_reported":1761595717,"current_range_meters":10000,"station_id":"ce4bhnp2rcd13ifvqgvg","pricing_plan_id":"cebpf4jnsgd1na2vs0mg"},{"bike_id":"520a923d-8393-46c2-9fe4-754780c4305a","system_id":"levelo_inurba_marseille","lat":43.29501,"lon":5.43295,"is_reserved":false,"is_disabled":false,"rental_uris":{"android":"levelo://app?vid=520a923d-8393-46c2-9fe4-754780c4305a","ios":"levelo://app?vid=520a923d-8393-46c2-9fe4-754780c4305a"},"vehicle_type_id":"4","last_reported":1761595717,"current_range_meters":10000,"station_id":"st_d3j5ugp08ojc73fj9d10","pricing_plan_id":"cebpf4jnsgd1na2vs0mg"},{"bike_id":"5565ca67-4d36-4bef-8d09-d66f41c399cf","system_id":"levelo_inurba_marseille","lat":43.24946,"lon":5.40505,"is_reserved":false,"is_disabled":false,"rental_uris":{"android":"levelo://app?vid=5565ca67-4d36-4bef-8d09-d66f41c399cf","ios":"levelo://app?vid=5565ca67-4d36-4bef-8d09-d66f41c399cf"},"vehicle_type_id":"4","last_reported":1761595717,"current_range_meters":10000,"station_id":"st_d2ngiaodas8pm72gd1h0","pricing_plan_id":"cebpf4jnsgd1na2vs0mg"},{"bike_id":"9e685c9f-0235-4e19-83f6-4c9a17642d8f","system_id":"levelo_inurba_marseille","lat":43.29528,"lon":5.38546,"is_reserved":false,"is_disabled":false,"rental_uris":{"android":"levelo://app?vid=9e685c9f-0235-4e19-83f6-4c9a17642d8f","ios":"levelo://app?vid=9e685c9f-0235-4e19-83f6-4c9a17642d8f"},"vehicle_type_id":"4","last_reported":1761595717,"current_range_meters":10000,"station_id":"ce4bgih2rcd13ifvqba0","pricing_plan_id":"cebpf4jnsgd1na2vs0mg"},{"bike_id":"9e766c0e-118a-4b7d-8f04-112f1f817cd3","system_id":"levelo_inurba_marseille","lat":43.28984,"lon":5.37833,"is_reserved":false,"is_disabled":true,"rental_uris":{"android":"levelo://app?vid=9e766c0e-118a-4b7d-8f04-112f1f817cd3","ios":"levelo://app?vid=9e766c0e-118a-4b7d-8f04-112f1f817cd3"},"vehicle_type_id":"4","last_reported":1761595717,"current_range_meters":10000,"station_id":"ce4bh9p2rcd13ifvqed0","pricing_plan_id":"cebpf4jnsgd1na2vs0mg"},{"bike_id":"641ce5a1-a2af-42f5-86d3-02a2312cb1fe","system_id":"levelo_inurba_marseille","lat":43.29621,"lon":5.38085,"is_reserved":false,"is_disabled":false,"rental_uris":{"android":"levelo://app?vid=641ce5a1-a2af-42f5-86d3-02a2312cb1fe","ios":"levelo://app?vid=641ce5a1-a2af-42f5-86d3-02a2312cb1fe"},"vehicle_type_id":"4","last_reported":1761595717,"current_range_meters":10800,"station_id":"ce4bgl12rcd13ifvqbo0","pricing_plan_id":"cebpf4jnsgd1na2vs0mg"},{"bike_id":"c896b697-d7c3-47ea-81cb-50811f76c96f","system_id":"levelo_inurba_marseille","lat":43.25084,"lon":5.39524,"is_reserved":false,"is_disabled":false,"rental_uris":{"android":"levelo://app?vid=c896b697-d7c3-47ea-81cb-50811f76c96f","ios":"levelo://app?vid=c896b697-d7c3-47ea-81cb-50811f76c96f"},"vehicle_type_id":"4","last_reported":1761595717,"current_range_meters":10800,"station_id":"ce4bhm12rcd13ifvqgkg","pricing_plan_id":"cebpf4jnsgd1na2vs0mg"},{"bike_id":"406b8f41-1aa5-4261-bb3e-9c1ad9e1fb8d","system_id":"levelo_inurba_marseille","lat":43.28569,"lon":5.3949,"is_reserved":false,"is_disabled":false,"rental_uris":{"android":"levelo://app?vid=406b8f41-1aa5-4261-bb3e-9c1ad9e1fb8d","ios":"levelo://app?vid=406b8f41-1aa5-4261-bb3e-9c1ad9e1fb8d"},"vehicle_type_id":"4","last_reported":1761595717,"current_range_meters":10800,"station_id":"ce4bh292rcd13ifvqdg0","pricing_plan_id":"cebpf4jnsgd1na2vs0mg"},{"bike_id":"b10b85fd-4111-46e6-94a8-4c0ec79c5695","system_id":"levelo_inurba_marseille","lat":43.3136,"lon":5.38487,"is_reserved":false,"is_disabled":false,"rental_uris":{"android":"levelo://app?vid=b10b85fd-4111-46e6-94a8-4c0ec79c5695","ios":"levelo://app?vid=b10b85fd-4111-46e6-94a8-4c0ec79c5695"},"vehicle_type_id":"4","last_reported":1761595717,"current_range_meters":10800,"station_id":"ce4bgt92rcd13ifvqcf0","pricing_plan_id":"cebpf4jnsgd1na2vs0mg"},{"bike_id":"b2bba6c7-819a-4309-a94c-2e061167d050","system_id":"levelo_inurba_marseille","lat":43.29261,"lon":5.38429,"is_reserved":false,"is_disabled":false,"rental_uris":{"android":"levelo://app?vid=b2bba6c7-819a-4309-a94c-2e061167d050","ios":"levelo://app?vid=b2bba6c7-819a-4309-a94c-2e061167d050"},"vehicle_type_id":"4","last_reported":1761595717,"current_range_meters":10800,"station_id":"ce4bh692rcd13ifvqea0","pricing_plan_id":"cebpf4jnsgd1na2vs0mg"},{"bike_id":"40a975df-2eb1-4286-8953-6b8d8b152d50","system_id":"levelo_inurba_marseille","lat":43.31269,"lon":5.40171,"is_reserved":false,"is_disabled":false,"rental_uris":{"android":"levelo://app?vid=40a975df-2eb1-4286-8953-6b8d8b152d50","ios":"levelo://app?vid=40a975df-2eb1-4286-8953-6b8d8b152d50"},"vehicle_type_id":"4","last_reported":1761595717,"current_range_meters":11200,"station_id":"ce4bh092rcd13ifvqd30","pricing_plan_id":"cebpf4jnsgd1na2vs0mg"},{"bike_id":"a5e97cf5-21a8-40b7-8e91-21aa332d6351","system_id":"levelo_inurba_marseille","lat":43.301175,"lon":5.43125,"is_reserved":false,"is_disabled":false,"rental_uris":{"android":"levelo://app?vid=a5e97cf5-21a8-40b7-8e91-21aa332d6351","ios":"levelo://app?vid=a5e97cf5-21a8-40b7-8e91-21aa332d6351"},"vehicle_type_id":"4","last_reported":1761595717,"current_range_meters":11200,"station_id":"st_d3js3co5814s73ftftug","pricing_plan_id":"cebpf4jnsgd1na2vs0mg"},{"bike_id":"87714ba9-f19c-42f4-8a0d-af43e013261e","system_id":"levelo_inurba_marseille","lat":43.2931,"lon":5.37176,"is_reserved":false,"is_disabled":false,"rental_uris":{"android":"levelo://app?vid=87714ba9-f19c-42f4-8a0d-af43e013261e","ios":"levelo://app?vid=87714ba9-f19c-42f4-8a0d-af43e013261e"},"vehicle_type_id":"4","last_reported":1761595717,"current_range_meters":11200,"station_id":"ce4bgh92rcd13ifvqb40","pricing_plan_id":"cebpf4jnsgd1na2vs0mg"},{"bike_id":"492ac165-7ea0-42a6-8c3a-c5690dd7f402","system_id":"levelo_inurba_marseille","lat":43.317107,"lon":5.437087,"is_reserved":false,"is_disabled":false,"rental_uris":{"android":"levelo://app?vid=492ac165-7ea0-42a6-8c3a-c5690dd7f402","ios":"levelo://app?vid=492ac165-7ea0-42a6-8c3a-c5690dd7f402"},"vehicle_type_id":"4","last_reported":1761595717,"current_range_meters":11200,"station_id":"ce4bhp92rcd13ifvqhcg","pricing_plan_id":"cebpf4jnsgd1na2vs0mg"},{"bike_id":"8a4ab39d-93e0-412c-bb90-9a783af9b3e2","system_id":"levelo_inurba_marseille","lat":43.286663,"lon":5.363441,"is_reserved":false,"is_disabled":false,"rental_uris":{"android":"levelo://app?vid=8a4ab39d-93e0-412c-bb90-9a783af9b3e2","ios":"levelo://app?vid=8a4ab39d-93e0-412c-bb90-9a783af9b3e2"},"vehicle_type_id":"4","last_reported":1761595717,"current_range_meters":11200,"station_id":"ce4bhah2rcd13ifvqej0","pricing_plan_id":"cebpf4jnsgd1na2vs0mg"},{"bike_id":"59a6d0ec-ca2e-42be-8d74-76fae27eb845","system_id":"levelo_inurba_marseille","lat":43.30536,"lon":5.36519,"is_reserved":false,"is_disabled":false,"rental_uris":{"android":"levelo://app?vid=59a6d0ec-ca2e-42be-8d74-76fae27eb845","ios":"levelo://app?vid=59a6d0ec-ca2e-42be-8d74-76fae27eb845"},"vehicle_type_id":"4","last_reported":1761595717,"current_range_meters":11600,"station_id":"ce4bgs12rcd13ifvqcag","pricing_plan_id":"cebpf4jnsgd1na2vs0mg"},{"bike_id":"f6c67015-35e5-40f3-8e3f-a9cbc37730e1","system_id":"levelo_inurba_marseille","lat":43.30939,"lon":5.40133,"is_reserved":false,"is_disabled":false,"rental_uris":{"android":"levelo://app?vid=f6c67015-35e5-40f3-8e3f-a9cbc37730e1","ios":"levelo://app?vid=f6c67015-35e5-40f3-8e3f-a9cbc37730e1"},"vehicle_type_id":"4","last_reported":1761595717,"current_range_meters":11600,"station_id":"ce4bgvp2rcd13ifvqct0","pricing_plan_id":"cebpf4jnsgd1na2vs0mg"},{"bike_id":"3eec1dc0-8652-41f6-b33e-6cdb07f1c2c8","system_id":"levelo_inurba_marseille","lat":43.23191,"lon":5.39974,"is_reserved":false,"is_disabled":false,"rental_uris":{"android":"levelo://app?vid=3eec1dc0-8652-41f6-b33e-6cdb07f1c2c8","ios":"levelo://app?vid=3eec1dc0-8652-41f6-b33e-6cdb07f1c2c8"},"vehicle_type_id":"4","last_reported":1761595717,"current_range_meters":11600,"station_id":"ce4bhn12rcd13ifvqgqg","pricing_plan_id":"cebpf4jnsgd1na2vs0mg"},{"bike_id":"57060bea-0865-4fc6-a43c-99f0e3c5c11a","system_id":"levelo_inurba_marseille","lat":43.286102,"lon":5.35107,"is_reserved":false,"is_disabled":false,"rental_uris":{"android":"levelo://app?vid=57060bea-0865-4fc6-a43c-99f0e3c5c11a","ios":"levelo://app?vid=57060bea-0865-4fc6-a43c-99f0e3c5c11a"},"vehicle_type_id":"4","last_reported":1761595717,"current_range_meters":11600,"station_id":"","pricing_plan_id":"cebpf4jnsgd1na2vs0mg"},{"bike_id":"1f2bc55c-51b6-4a97-99d8-d71d54126807","system_id":"levelo_inurba_marseille","lat":43.30312,"lon":5.36904,"is_reserved":false,"is_disabled":false,"rental_uris":{"android":"levelo://app?vid=1f2bc55c-51b6-4a97-99d8-d71d54126807","ios":"levelo://app?vid=1f2bc55c-51b6-4a97-99d8-d71d54126807"},"vehicle_type_id":"4","last_reported":1761595717,"current_range_meters":11600,"station_id":"ce4bgqh2rcd13ifvqc5g","pricing_plan_id":"cebpf4jnsgd1na2vs0mg"},{"bike_id":"f5adc0f6-8f78-420c-a3cc-2381696afa4a","system_id":"levelo_inurba_marseille","lat":43.28856,"lon":5.42515,"is_reserved":false,"is_disabled":false,"rental_uris":{"android":"levelo://app?vid=f5adc0f6-8f78-420c-a3cc-2381696afa4a","ios":"levelo://app?vid=f5adc0f6-8f78-420c-a3cc-2381696afa4a"},"vehicle_type_id":"4","last_reported":1761595717,"current_range_meters":11600,"station_id":"st_d3b462108ojc7389ooeg","pricing_plan_id":"cebpf4jnsgd1na2vs0mg"},{"bike_id":"b83891d3-7971-45ae-9af3-651a6e6209e2","system_id":"levelo_inurba_marseille","lat":43.23192,"lon":5.35548,"is_reserved":false,"is_disabled":true,"rental_uris":{"android":"levelo://app?vid=b83891d3-7971-45ae-9af3-651a6e6209e2","ios":"levelo://app?vid=b83891d3-7971-45ae-9af3-651a6e6209e2"},"vehicle_type_id":"4","last_reported":1761595717,"current_range_meters":12000,"station_id":"ce4bhu92rcd13ifvqi70","pricing_plan_id":"cebpf4jnsgd1na2vs0mg"},{"bike_id":"33536d63-32c5-4dda-b600-be1d3fbb9bcc","system_id":"levelo_inurba_marseille","lat":43.2119,"lon":5.35072,"is_reserved":false,"is_disabled":true,"rental_uris":{"android":"levelo://app?vid=33536d63-32c5-4dda-b600-be1d3fbb9bcc","ios":"levelo://app?vid=33536d63-32c5-4dda-b600-be1d3fbb9bcc"},"vehicle_type_id":"4","last_reported":1761595717,"current_range_meters":12000,"station_id":"","pricing_plan_id":"cebpf4jnsgd1na2vs0mg"},{"bike_id":"d0c081ad-3486-48c9-8966-70405df77a5b","system_id":"levelo_inurba_marseille","lat":43.22951,"lon":5.35375,"is_reserved":false,"is_disabled":false,"rental_uris":{"android":"levelo://app?vid=d0c081ad-3486-48c9-8966-70405df77a5b","ios":"levelo://app?vid=d0c081ad-3486-48c9-8966-70405df77a5b"},"vehicle_type_id":"4","last_reported":1761595717,"current_range_meters":12000,"station_id":"cpo3532slgdg3j2ikp40","pricing_plan_id":"cebpf4jnsgd1na2vs0mg"},{"bike_id":"bbbf3dbb-fbe2-4b7e-bfad-c027ca4e1c25","system_id":"levelo_inurba_marseille","lat":43.28481,"lon":5.48381,"is_reserved":false,"is_disabled":false,"rental_uris":{"android":"levelo://app?vid=bbbf3dbb-fbe2-4b7e-bfad-c027ca4e1c25","ios":"levelo://app?vid=bbbf3dbb-fbe2-4b7e-bfad-c027ca4e1c25"},"vehicle_type_id":"4","last_reported":1761595717,"current_range_meters":12000,"station_id":"st_d3svhcjqgbts73a3dn0g","pricing_plan_id":"cebpf4jnsgd1na2vs0mg"},{"bike_id":"1dc9ba42-c81c-4960-a8c6-a1d1249c6591","system_id":"levelo_inurba_marseille","lat":43.30733,"lon":5.4244,"is_reserved":false,"is_disabled":false,"rental_uris":{"android":"levelo://app?vid=1dc9ba42-c81c-4960-a8c6-a1d1249c6591","ios":"levelo://app?vid=1dc9ba42-c81c-4960-a8c6-a1d1249c6591"},"vehicle_type_id":"4","last_reported":1761595717,"current_range_meters":12000,"station_id":"st_cvj6ca6bvosntc0bfgr0","pricing_plan_id":"cebpf4jnsgd1na2vs0mg"},{"bike_id":"3abfb477-e317-490a-a407-164ef4d69634","system_id":"levelo_inurba_marseille","lat":43.28414,"lon":5.37519,"is_reserved":false,"is_disabled":false,"rental_uris":{"android":"levelo://app?vid=3abfb477-e317-490a-a407-164ef4d69634","ios":"levelo://app?vid=3abfb477-e317-490a-a407-164ef4d69634"},"vehicle_type_id":"4","last_reported":1761595717,"current_range_meters":12000,"station_id":"ce4bh412rcd13ifvqds0","pricing_plan_id":"cebpf4jnsgd1na2vs0mg"},{"bike_id":"5ed572e0-3991-486d-bfc1-f8ad0e0babca","system_id":"levelo_inurba_marseille","lat":43.28226,"lon":5.3907,"is_reserved":false,"is_disabled":false,"rental_uris":{"android":"levelo://app?vid=5ed572e0-3991-486d-bfc1-f8ad0e0babca","ios":"levelo://app?vid=5ed572e0-3991-486d-bfc1-f8ad0e0babca"},"vehicle_type_id":"4","last_reported":1761595717,"current_range_meters":12400,"station_id":"ce4bhn92rcd13ifvqgsg","pricing_plan_id":"cebpf4jnsgd1na2vs0mg"},{"bike_id":"2319520a-fc10-4ea5-a5ca-d3a4702f6c7b","system_id":"levelo_inurba_marseille","lat":43.299,"lon":5.43661,"is_reserved":false,"is_disabled":true,"rental_uris":{"android":"levelo://app?vid=2319520a-fc10-4ea5-a5ca-d3a4702f6c7b","ios":"levelo://app?vid=2319520a-fc10-4ea5-a5ca-d3a4702f6c7b"},"vehicle_type_id":"4","last_reported":1761595717,"current_range_meters":12400,"station_id":"ce4bhpp2rcd13ifvqhfg","pricing_plan_id":"cebpf4jnsgd1na2vs0mg"},{"bike_id":"89dc8d2c-2ca5-41a0-bdca-cb4530a7a44d","system_id":"levelo_inurba_marseille","lat":43.30642,"lon":5.40084,"is_reserved":false,"is_disabled":false,"rental_uris":{"android":"levelo://app?vid=89dc8d2c-2ca5-41a0-bdca-cb4530a7a44d","ios":"levelo://app?vid=89dc8d2c-2ca5-41a0-bdca-cb4530a7a44d"},"vehicle_type_id":"4","last_reported":1761595717,"current_range_meters":12400,"station_id":"ce4bh112rcd13ifvqda0","pricing_plan_id":"cebpf4jnsgd1na2vs0mg"},{"bike_id":"569bc549-be69-43dd-980a-c0df23c0523d","system_id":"levelo_inurba_marseille","lat":43.28936,"lon":5.3664,"is_reserved":false,"is_disabled":false,"rental_uris":{"android":"levelo://app?vid=569bc549-be69-43dd-980a-c0df23c0523d","ios":"levelo://app?vid=569bc549-be69-43dd-980a-c0df23c0523d"},"vehicle_type_id":"4","last_reported":1761595717,"current_range_meters":12400,"station_id":"ce4bhap2rcd13ifvqek0","pricing_plan_id":"cebpf4jnsgd1na2vs0mg"},{"bike_id":"e92a5181-3093-4535-adde-2230374de0aa","system_id":"levelo_inurba_marseille","lat":43.31342,"lon":5.37686,"is_reserved":false,"is_disabled":false,"rental_uris":{"android":"levelo://app?vid=e92a5181-3093-4535-adde-2230374de0aa","ios":"levelo://app?vid=e92a5181-3093-4535-adde-2230374de0aa"},"vehicle_type_id":"4","last_reported":1761595717,"current_range_meters":12400,"station_id":"","pricing_plan_id":"cebpf4jnsgd1na2vs0mg"},{"bike_id":"d5abe95c-fd45-42a3-9908-abd96eb97080","system_id":"levelo_inurba_marseille","lat":43.29259,"lon":5.3844,"is_reserved":false,"is_disabled":false,"rental_uris":{"android":"levelo://app?vid=d5abe95c-fd45-42a3-9908-abd96eb97080","ios":"levelo://app?vid=d5abe95c-fd45-42a3-9908-abd96eb97080"},"vehicle_type_id":"4","last_reported":1761595717,"current_range_meters":12400,"station_id":"ce4bh692rcd13ifvqea0","pricing_plan_id":"cebpf4jnsgd1na2vs0mg"},{"bike_id":"6b27b53b-ade4-4e59-9555-b40b30fb2fb2","system_id":"levelo_inurba_marseille","lat":43.253358,"lon":5.42175,"is_reserved":false,"is_disabled":false,"rental_uris":{"android":"levelo://app?vid=6b27b53b-ade4-4e59-9555-b40b30fb2fb2","ios":"levelo://app?vid=6b27b53b-ade4-4e59-9555-b40b30fb2fb2"},"vehicle_type_id":"4","last_reported":1761595717,"current_range_meters":12400,"station_id":"st_d2m65c5bi1j21697t3ng","pricing_plan_id":"cebpf4jnsgd1na2vs0mg"},{"bike_id":"cb7f068c-39ce-4be0-b9b9-05a5ac0d4c21","system_id":"levelo_inurba_marseille","lat":43.2462,"lon":5.43153,"is_reserved":false,"is_disabled":false,"rental_uris":{"android":"levelo://app?vid=cb7f068c-39ce-4be0-b9b9-05a5ac0d4c21","ios":"levelo://app?vid=cb7f068c-39ce-4be0-b9b9-05a5ac0d4c21"},"vehicle_type_id":"4","last_reported":1761595717,"current_range_meters":12400,"station_id":"st_d2m6c4gdas8pm72e190g","pricing_plan_id":"cebpf4jnsgd1na2vs0mg"},{"bike_id":"20f45349-3f98-403d-8636-0b1f40024741","system_id":"levelo_inurba_marseille","lat":43.27497,"lon":5.42452,"is_reserved":false,"is_disabled":false,"rental_uris":{"android":"levelo://app?vid=20f45349-3f98-403d-8636-0b1f40024741","ios":"levelo://app?vid=20f45349-3f98-403d-8636-0b1f40024741"},"vehicle_type_id":"4","last_reported":1761595717,"current_range_meters":12800,"station_id":"ce4bhn92rcd13ifvqgrg","pricing_plan_id":"cebpf4jnsgd1na2vs0mg"},{"bike_id":"72692e77-b537-477c-ba7d-fdff69794bfb","system_id":"levelo_inurba_marseille","lat":43.25333,"lon":5.42171,"is_reserved":false,"is_disabled":false,"rental_uris":{"android":"levelo://app?vid=72692e77-b537-477c-ba7d-fdff69794bfb","ios":"levelo://app?vid=72692e77-b537-477c-ba7d-fdff69794bfb"},"vehicle_type_id":"4","last_reported":1761595717,"current_range_meters":12800,"station_id":"st_d2m65c5bi1j21697t3ng","pricing_plan_id":"cebpf4jnsgd1na2vs0mg"},{"bike_id":"fe84f64e-7d86-4a32-beff-349b4ab179be","system_id":"levelo_inurba_marseille","lat":43.3073,"lon":5.42451,"is_reserved":false,"is_disabled":false,"rental_uris":{"android":"levelo://app?vid=fe84f64e-7d86-4a32-beff-349b4ab179be","ios":"levelo://app?vid=fe84f64e-7d86-4a32-beff-349b4ab179be"},"vehicle_type_id":"4","last_reported":1761595717,"current_range_meters":12800,"station_id":"st_cvj6ca6bvosntc0bfgr0","pricing_plan_id":"cebpf4jnsgd1na2vs0mg"},{"bike_id":"0af31ed8-174b-477a-afb8-84ea9d12bd29","system_id":"levelo_inurba_marseille","lat":43.27949,"lon":5.41051,"is_reserved":false,"is_disabled":false,"rental_uris":{"android":"levelo://app?vid=0af31ed8-174b-477a-afb8-84ea9d12bd29","ios":"levelo://app?vid=0af31ed8-174b-477a-afb8-84ea9d12bd29"},"vehicle_type_id":"4","last_reported":1761595717,"current_range_meters":12800,"station_id":"ce4bhnp2rcd13ifvqh0g","pricing_plan_id":"cebpf4jnsgd1na2vs0mg"},{"bike_id":"f3673a60-efd2-465f-aa18-cb0baaf105f7","system_id":"levelo_inurba_marseille","lat":43.32082,"lon":5.38728,"is_reserved":false,"is_disabled":false,"rental_uris":{"android":"levelo://app?vid=f3673a60-efd2-465f-aa18-cb0baaf105f7","ios":"levelo://app?vid=f3673a60-efd2-465f-aa18-cb0baaf105f7"},"vehicle_type_id":"4","last_reported":1761595717,"current_range_meters":12800,"station_id":"","pricing_plan_id":"cebpf4jnsgd1na2vs0mg"},{"bike_id":"64457180-0458-4262-8d27-1d5e4cba4c96","system_id":"levelo_inurba_marseille","lat":43.23185,"lon":5.39996,"is_reserved":false,"is_disabled":false,"rental_uris":{"android":"levelo://app?vid=64457180-0458-4262-8d27-1d5e4cba4c96","ios":"levelo://app?vid=64457180-0458-4262-8d27-1d5e4cba4c96"},"vehicle_type_id":"4","last_reported":1761595717,"current_range_meters":12800,"station_id":"ce4bhn12rcd13ifvqgqg","pricing_plan_id":"cebpf4jnsgd1na2vs0mg"},{"bike_id":"a55f95be-82b4-405e-8454-dd34ab6f538e","system_id":"levelo_inurba_marseille","lat":43.28662,"lon":5.36369,"is_reserved":false,"is_disabled":false,"rental_uris":{"android":"levelo://app?vid=a55f95be-82b4-405e-8454-dd34ab6f538e","ios":"levelo://app?vid=a55f95be-82b4-405e-8454-dd34ab6f538e"},"vehicle_type_id":"4","last_reported":1761595717,"current_range_meters":12800,"station_id":"ce4bhah2rcd13ifvqej0","pricing_plan_id":"cebpf4jnsgd1na2vs0mg"},{"bike_id":"0d30d321-a5c1-4df9-bb01-58285c66b73b","system_id":"levelo_inurba_marseille","lat":43.29226,"lon":5.3575,"is_reserved":false,"is_disabled":true,"rental_uris":{"android":"levelo://app?vid=0d30d321-a5c1-4df9-bb01-58285c66b73b","ios":"levelo://app?vid=0d30d321-a5c1-4df9-bb01-58285c66b73b"},"vehicle_type_id":"4","last_reported":1761595717,"current_range_meters":12800,"station_id":"ce4bhb12rcd13ifvqel0","pricing_plan_id":"cebpf4jnsgd1na2vs0mg"},{"bike_id":"763dedad-f3f7-4198-bc42-a8f8d4bc1d9e","system_id":"levelo_inurba_marseille","lat":43.22925,"lon":5.35386,"is_reserved":false,"is_disabled":false,"rental_uris":{"android":"levelo://app?vid=763dedad-f3f7-4198-bc42-a8f8d4bc1d9e","ios":"levelo://app?vid=763dedad-f3f7-4198-bc42-a8f8d4bc1d9e"},"vehicle_type_id":"4","last_reported":1761595717,"current_range_meters":12800,"station_id":"cpo3532slgdg3j2ikp40","pricing_plan_id":"cebpf4jnsgd1na2vs0mg"},{"bike_id":"005ddf72-64fb-44ba-8917-da7f874c1da2","system_id":"levelo_inurba_marseille","lat":43.29531,"lon":5.38545,"is_reserved":false,"is_disabled":false,"rental_uris":{"android":"levelo://app?vid=005ddf72-64fb-44ba-8917-da7f874c1da2","ios":"levelo://app?vid=005ddf72-64fb-44ba-8917-da7f874c1da2"},"vehicle_type_id":"4","last_reported":1761595717,"current_range_meters":13600,"station_id":"ce4bgih2rcd13ifvqba0","pricing_plan_id":"cebpf4jnsgd1na2vs0mg"},{"bike_id":"b17ca849-bd3b-47c5-a34b-d8a71fa265cb","system_id":"levelo_inurba_marseille","lat":43.30929,"lon":5.40144,"is_reserved":false,"is_disabled":false,"rental_uris":{"android":"levelo://app?vid=b17ca849-bd3b-47c5-a34b-d8a71fa265cb","ios":"levelo://app?vid=b17ca849-bd3b-47c5-a34b-d8a71fa265cb"},"vehicle_type_id":"4","last_reported":1761595717,"current_range_meters":13600,"station_id":"ce4bgvp2rcd13ifvqct0","pricing_plan_id":"cebpf4jnsgd1na2vs0mg"},{"bike_id":"8c71c05b-dd29-470b-8b05-4159f459865a","system_id":"levelo_inurba_marseille","lat":43.276698,"lon":5.388754,"is_reserved":false,"is_disabled":false,"rental_uris":{"android":"levelo://app?vid=8c71c05b-dd29-470b-8b05-4159f459865a","ios":"levelo://app?vid=8c71c05b-dd29-470b-8b05-4159f459865a"},"vehicle_type_id":"4","last_reported":1761595717,"current_range_meters":13600,"station_id":"ce4bhi12rcd13ifvqfo0","pricing_plan_id":"cebpf4jnsgd1na2vs0mg"},{"bike_id":"4c888f7a-a3cd-4aff-ab0b-fe318b78464b","system_id":"levelo_inurba_marseille","lat":43.21755,"lon":5.34597,"is_reserved":false,"is_disabled":false,"rental_uris":{"android":"levelo://app?vid=4c888f7a-a3cd-4aff-ab0b-fe318b78464b","ios":"levelo://app?vid=4c888f7a-a3cd-4aff-ab0b-fe318b78464b"},"vehicle_type_id":"4","last_reported":1761595717,"current_range_meters":13600,"station_id":"st_cvj6r9ubvosntc0bgbag","pricing_plan_id":"cebpf4jnsgd1na2vs0mg"},{"bike_id":"16badfcf-3710-406e-8068-e3b2a6d01b84","system_id":"levelo_inurba_marseille","lat":43.29803,"lon":5.38098,"is_reserved":false,"is_disabled":false,"rental_uris":{"android":"levelo://app?vid=16badfcf-3710-406e-8068-e3b2a6d01b84","ios":"levelo://app?vid=16badfcf-3710-406e-8068-e3b2a6d01b84"},"vehicle_type_id":"4","last_reported":1761595717,"current_range_meters":14000,"station_id":"ce4bgip2rcd13ifvqbb0","pricing_plan_id":"cebpf4jnsgd1na2vs0mg"},{"bike_id":"1880ebb9-7edb-463e-976b-226e958b9ebe","system_id":"levelo_inurba_marseille","lat":43.31097,"lon":5.37487,"is_reserved":false,"is_disabled":false,"rental_uris":{"android":"levelo://app?vid=1880ebb9-7edb-463e-976b-226e958b9ebe","ios":"levelo://app?vid=1880ebb9-7edb-463e-976b-226e958b9ebe"},"vehicle_type_id":"4","last_reported":1761595717,"current_range_meters":14000,"station_id":"ce4bgt12rcd13ifvqce0","pricing_plan_id":"cebpf4jnsgd1na2vs0mg"},{"bike_id":"2283896b-c941-41b3-a4e2-ac2bcf8551df","system_id":"levelo_inurba_marseille","lat":43.30637,"lon":5.4006,"is_reserved":false,"is_disabled":false,"rental_uris":{"android":"levelo://app?vid=2283896b-c941-41b3-a4e2-ac2bcf8551df","ios":"levelo://app?vid=2283896b-c941-41b3-a4e2-ac2bcf8551df"},"vehicle_type_id":"4","last_reported":1761595717,"current_range_meters":14000,"station_id":"ce4bh112rcd13ifvqda0","pricing_plan_id":"cebpf4jnsgd1na2vs0mg"},{"bike_id":"bef3e10d-fb48-460d-9a15-5b4c0901d3ba","system_id":"levelo_inurba_marseille","lat":43.29041,"lon":5.37569,"is_reserved":false,"is_disabled":false,"rental_uris":{"android":"levelo://app?vid=bef3e10d-fb48-460d-9a15-5b4c0901d3ba","ios":"levelo://app?vid=bef3e10d-fb48-460d-9a15-5b4c0901d3ba"},"vehicle_type_id":"4","last_reported":1761595717,"current_range_meters":14000,"station_id":"ce4bh692rcd13ifvqe90","pricing_plan_id":"cebpf4jnsgd1na2vs0mg"},{"bike_id":"8c21c3d3-555f-432c-bf40-fd3016901d5a","system_id":"levelo_inurba_marseille","lat":43.305588,"lon":5.384009,"is_reserved":false,"is_disabled":false,"rental_uris":{"android":"levelo://app?vid=8c21c3d3-555f-432c-bf40-fd3016901d5a","ios":"levelo://app?vid=8c21c3d3-555f-432c-bf40-fd3016901d5a"},"vehicle_type_id":"4","last_reported":1761595717,"current_range_meters":14000,"station_id":"ce4bgg92rcd13ifvqb30","pricing_plan_id":"cebpf4jnsgd1na2vs0mg"},{"bike_id":"eea3c3c3-734f-4fd3-8061-ed84cfe47b38","system_id":"levelo_inurba_marseille","lat":43.32571,"lon":5.39132,"is_reserved":false,"is_disabled":false,"rental_uris":{"android":"levelo://app?vid=eea3c3c3-734f-4fd3-8061-ed84cfe47b38","ios":"levelo://app?vid=eea3c3c3-734f-4fd3-8061-ed84cfe47b38"},"vehicle_type_id":"4","last_reported":1761595717,"current_range_meters":14000,"station_id":"","pricing_plan_id":"cebpf4jnsgd1na2vs0mg"},{"bike_id":"6702790c-1f90-41b6-a1bb-95e4a81982bb","system_id":"levelo_inurba_marseille","lat":43.292579,"lon":5.384383,"is_reserved":false,"is_disabled":false,"rental_uris":{"android":"levelo://app?vid=6702790c-1f90-41b6-a1bb-95e4a81982bb","ios":"levelo://app?vid=6702790c-1f90-41b6-a1bb-95e4a81982bb"},"vehicle_type_id":"4","last_reported":1761595717,"current_range_meters":14000,"station_id":"ce4bh692rcd13ifvqea0","pricing_plan_id":"cebpf4jnsgd1na2vs0mg"},{"bike_id":"a3100ff0-76ab-498b-bebf-b9c52f3d2538","system_id":"levelo_inurba_marseille","lat":43.28572,"lon":5.48368,"is_reserved":false,"is_disabled":false,"rental_uris":{"android":"levelo://app?vid=a3100ff0-76ab-498b-bebf-b9c52f3d2538","ios":"levelo://app?vid=a3100ff0-76ab-498b-bebf-b9c52f3d2538"},"vehicle_type_id":"4","last_reported":1761595717,"current_range_meters":14000,"station_id":"","pricing_plan_id":"cebpf4jnsgd1na2vs0mg"},{"bike_id":"9b6d0296-0f10-40be-ad10-d11e74b09c3e","system_id":"levelo_inurba_marseille","lat":43.25114,"lon":5.40323,"is_reserved":false,"is_disabled":false,"rental_uris":{"android":"levelo://app?vid=9b6d0296-0f10-40be-ad10-d11e74b09c3e","ios":"levelo://app?vid=9b6d0296-0f10-40be-ad10-d11e74b09c3e"},"vehicle_type_id":"4","last_reported":1761595717,"current_range_meters":14000,"station_id":"ce4bhlh2rcd13ifvqgig","pricing_plan_id":"cebpf4jnsgd1na2vs0mg"},{"bike_id":"ff806bd2-c7e9-493a-9703-ad992684e451","system_id":"levelo_inurba_marseille","lat":43.296263,"lon":5.377142,"is_reserved":false,"is_disabled":false,"rental_uris":{"android":"levelo://app?vid=ff806bd2-c7e9-493a-9703-ad992684e451","ios":"levelo://app?vid=ff806bd2-c7e9-493a-9703-ad992684e451"},"vehicle_type_id":"4","last_reported":1761595717,"current_range_meters":14400,"station_id":"","pricing_plan_id":"cebpf4jnsgd1na2vs0mg"},{"bike_id":"e69a4458-3feb-4bed-8e61-19a9dc18a3e6","system_id":"levelo_inurba_marseille","lat":43.29556,"lon":5.42243,"is_reserved":false,"is_disabled":false,"rental_uris":{"android":"levelo://app?vid=e69a4458-3feb-4bed-8e61-19a9dc18a3e6","ios":"levelo://app?vid=e69a4458-3feb-4bed-8e61-19a9dc18a3e6"},"vehicle_type_id":"4","last_reported":1761595717,"current_range_meters":14400,"station_id":"ce4bhph2rcd13ifvqhdg","pricing_plan_id":"cebpf4jnsgd1na2vs0mg"},{"bike_id":"a507e789-f440-40a8-85cf-09841d81676c","system_id":"levelo_inurba_marseille","lat":43.22529,"lon":5.34837,"is_reserved":false,"is_disabled":false,"rental_uris":{"android":"levelo://app?vid=a507e789-f440-40a8-85cf-09841d81676c","ios":"levelo://app?vid=a507e789-f440-40a8-85cf-09841d81676c"},"vehicle_type_id":"4","last_reported":1761595717,"current_range_meters":14400,"station_id":"","pricing_plan_id":"cebpf4jnsgd1na2vs0mg"},{"bike_id":"54317329-1b14-4957-8f07-2baa7436d39c","system_id":"levelo_inurba_marseille","lat":43.28622,"lon":5.35102,"is_reserved":false,"is_disabled":false,"rental_uris":{"android":"levelo://app?vid=54317329-1b14-4957-8f07-2baa7436d39c","ios":"levelo://app?vid=54317329-1b14-4957-8f07-2baa7436d39c"},"vehicle_type_id":"4","last_reported":1761595717,"current_range_meters":14800,"station_id":"ce4bhch2rcd13ifvqeug","pricing_plan_id":"cebpf4jnsgd1na2vs0mg"},{"bike_id":"6c585561-4c2e-41e3-a06c-bbe123b248dd","system_id":"levelo_inurba_marseille","lat":43.307861,"lon":5.376541,"is_reserved":false,"is_disabled":false,"rental_uris":{"android":"levelo://app?vid=6c585561-4c2e-41e3-a06c-bbe123b248dd","ios":"levelo://app?vid=6c585561-4c2e-41e3-a06c-bbe123b248dd"},"vehicle_type_id":"4","last_reported":1761595717,"current_range_meters":14800,"station_id":"ce4bhp12rcd13ifvqh9g","pricing_plan_id":"cebpf4jnsgd1na2vs0mg"},{"bike_id":"30fb2cde-d9fd-40ac-bedf-d73a6980ec0f","system_id":"levelo_inurba_marseille","lat":43.302969,"lon":5.368839,"is_reserved":false,"is_disabled":false,"rental_uris":{"android":"levelo://app?vid=30fb2cde-d9fd-40ac-bedf-d73a6980ec0f","ios":"levelo://app?vid=30fb2cde-d9fd-40ac-bedf-d73a6980ec0f"},"vehicle_type_id":"4","last_reported":1761595717,"current_range_meters":14800,"station_id":"","pricing_plan_id":"cebpf4jnsgd1na2vs0mg"},{"bike_id":"21dbf7f2-eb19-4663-b1c0-879822879492","system_id":"levelo_inurba_marseille","lat":43.337631,"lon":5.374577,"is_reserved":false,"is_disabled":false,"rental_uris":{"android":"levelo://app?vid=21dbf7f2-eb19-4663-b1c0-879822879492","ios":"levelo://app?vid=21dbf7f2-eb19-4663-b1c0-879822879492"},"vehicle_type_id":"4","last_reported":1761595717,"current_range_meters":14800,"station_id":"","pricing_plan_id":"cebpf4jnsgd1na2vs0mg"},{"bike_id":"03ea6d81-2e2c-4160-a0d2-a85cd36eeb7a","system_id":"levelo_inurba_marseille","lat":43.288701,"lon":5.424632,"is_reserved":false,"is_disabled":false,"rental_uris":{"android":"levelo://app?vid=03ea6d81-2e2c-4160-a0d2-a85cd36eeb7a","ios":"levelo://app?vid=03ea6d81-2e2c-4160-a0d2-a85cd36eeb7a"},"vehicle_type_id":"4","last_reported":1761595717,"current_range_meters":14800,"station_id":"st_d3b462108ojc7389ooeg","pricing_plan_id":"cebpf4jnsgd1na2vs0mg"},{"bike_id":"c36d6923-e898-4369-b223-9bd47a9c0292","system_id":"levelo_inurba_marseille","lat":43.288485,"lon":5.393117,"is_reserved":false,"is_disabled":false,"rental_uris":{"android":"levelo://app?vid=c36d6923-e898-4369-b223-9bd47a9c0292","ios":"levelo://app?vid=c36d6923-e898-4369-b223-9bd47a9c0292"},"vehicle_type_id":"4","last_reported":1761595717,"current_range_meters":15200,"station_id":"ce4bh2p2rcd13ifvqdi0","pricing_plan_id":"cebpf4jnsgd1na2vs0mg"},{"bike_id":"d9c89d14-ffce-46f4-8ae6-64b1c7d2adfc","system_id":"levelo_inurba_marseille","lat":43.29529,"lon":5.38537,"is_reserved":false,"is_disabled":false,"rental_uris":{"android":"levelo://app?vid=d9c89d14-ffce-46f4-8ae6-64b1c7d2adfc","ios":"levelo://app?vid=d9c89d14-ffce-46f4-8ae6-64b1c7d2adfc"},"vehicle_type_id":"4","last_reported":1761595717,"current_range_meters":15200,"station_id":"ce4bgih2rcd13ifvqba0","pricing_plan_id":"cebpf4jnsgd1na2vs0mg"},{"bike_id":"d962fb9a-4f39-4899-8933-9e6dd4158eaa","system_id":"levelo_inurba_marseille","lat":43.29757,"lon":5.42783,"is_reserved":false,"is_disabled":false,"rental_uris":{"android":"levelo://app?vid=d962fb9a-4f39-4899-8933-9e6dd4158eaa","ios":"levelo://app?vid=d962fb9a-4f39-4899-8933-9e6dd4158eaa"},"vehicle_type_id":"4","last_reported":1761595717,"current_range_meters":16000,"station_id":"st_d3md5207bmas73dh9klg","pricing_plan_id":"cebpf4jnsgd1na2vs0mg"},{"bike_id":"181a8267-f2ec-4a14-93ec-90aee60a9a01","system_id":"levelo_inurba_marseille","lat":43.29488,"lon":5.43307,"is_reserved":false,"is_disabled":false,"rental_uris":{"android":"levelo://app?vid=181a8267-f2ec-4a14-93ec-90aee60a9a01","ios":"levelo://app?vid=181a8267-f2ec-4a14-93ec-90aee60a9a01"},"vehicle_type_id":"4","last_reported":1761595717,"current_range_meters":16000,"station_id":"st_d3j5ugp08ojc73fj9d10","pricing_plan_id":"cebpf4jnsgd1na2vs0mg"},{"bike_id":"18088c08-6235-47bd-9f7a-926c56c478c9","system_id":"levelo_inurba_marseille","lat":43.299106,"lon":5.381437,"is_reserved":false,"is_disabled":false,"rental_uris":{"android":"levelo://app?vid=18088c08-6235-47bd-9f7a-926c56c478c9","ios":"levelo://app?vid=18088c08-6235-47bd-9f7a-926c56c478c9"},"vehicle_type_id":"4","last_reported":1761595717,"current_range_meters":16000,"station_id":"ce4bgj12rcd13ifvqbc0","pricing_plan_id":"cebpf4jnsgd1na2vs0mg"},{"bike_id":"cc8ad398-cc5a-44f3-b34b-30d744a6e155","system_id":"levelo_inurba_marseille","lat":43.28,"lon":5.40006,"is_reserved":false,"is_disabled":false,"rental_uris":{"android":"levelo://app?vid=cc8ad398-cc5a-44f3-b34b-30d744a6e155","ios":"levelo://app?vid=cc8ad398-cc5a-44f3-b34b-30d744a6e155"},"vehicle_type_id":"4","last_reported":1761595717,"current_range_meters":16000,"station_id":"ce4bho92rcd13ifvqh4g","pricing_plan_id":"cebpf4jnsgd1na2vs0mg"},{"bike_id":"f0eb90ee-1135-4753-8042-a8905f5cd276","system_id":"levelo_inurba_marseille","lat":43.26571,"lon":5.38993,"is_reserved":false,"is_disabled":false,"rental_uris":{"android":"levelo://app?vid=f0eb90ee-1135-4753-8042-a8905f5cd276","ios":"levelo://app?vid=f0eb90ee-1135-4753-8042-a8905f5cd276"},"vehicle_type_id":"4","last_reported":1761595717,"current_range_meters":16000,"station_id":"ce4bhe12rcd13ifvqf30","pricing_plan_id":"cebpf4jnsgd1na2vs0mg"},{"bike_id":"9fbd96ee-563a-43f7-87fd-6fffaeedac55","system_id":"levelo_inurba_marseille","lat":43.25858,"lon":5.39915,"is_reserved":false,"is_disabled":true,"rental_uris":{"android":"levelo://app?vid=9fbd96ee-563a-43f7-87fd-6fffaeedac55","ios":"levelo://app?vid=9fbd96ee-563a-43f7-87fd-6fffaeedac55"},"vehicle_type_id":"4","last_reported":1761595717,"current_range_meters":16000,"station_id":"ce4bhl92rcd13ifvqghg","pricing_plan_id":"cebpf4jnsgd1na2vs0mg"},{"bike_id":"b1a13ed2-a977-4f71-b206-ab34a7f83b41","system_id":"levelo_inurba_marseille","lat":43.32357,"lon":5.38889,"is_reserved":false,"is_disabled":false,"rental_uris":{"android":"levelo://app?vid=b1a13ed2-a977-4f71-b206-ab34a7f83b41","ios":"levelo://app?vid=b1a13ed2-a977-4f71-b206-ab34a7f83b41"},"vehicle_type_id":"4","last_reported":1761595717,"current_range_meters":16000,"station_id":"ce4bhqp2rcd13ifvqhog","pricing_plan_id":"cebpf4jnsgd1na2vs0mg"},{"bike_id":"0045d293-fc25-4f9a-9434-47036bd87e67","system_id":"levelo_inurba_marseille","lat":43.229289,"lon":5.35376,"is_reserved":false,"is_disabled":false,"rental_uris":{"android":"levelo://app?vid=0045d293-fc25-4f9a-9434-47036bd87e67","ios":"levelo://app?vid=0045d293-fc25-4f9a-9434-47036bd87e67"},"vehicle_type_id":"4","last_reported":1761595717,"current_range_meters":16000,"station_id":"cpo3532slgdg3j2ikp40","pricing_plan_id":"cebpf4jnsgd1na2vs0mg"},{"bike_id":"507a6194-3500-47da-bba0-ad801aa7b875","system_id":"levelo_inurba_marseille","lat":43.24386,"lon":5.37042,"is_reserved":false,"is_disabled":false,"rental_uris":{"android":"levelo://app?vid=507a6194-3500-47da-bba0-ad801aa7b875","ios":"levelo://app?vid=507a6194-3500-47da-bba0-ad801aa7b875"},"vehicle_type_id":"4","last_reported":1761595717,"current_range_meters":16000,"station_id":"ce4bhhh2rcd13ifvqfk0","pricing_plan_id":"cebpf4jnsgd1na2vs0mg"},{"bike_id":"78825769-cf11-48fc-beea-f2658330aaa5","system_id":"levelo_inurba_marseille","lat":43.29534,"lon":5.38547,"is_reserved":false,"is_disabled":false,"rental_uris":{"android":"levelo://app?vid=78825769-cf11-48fc-beea-f2658330aaa5","ios":"levelo://app?vid=78825769-cf11-48fc-beea-f2658330aaa5"},"vehicle_type_id":"4","last_reported":1761595717,"current_range_meters":16400,"station_id":"ce4bgih2rcd13ifvqba0","pricing_plan_id":"cebpf4jnsgd1na2vs0mg"},{"bike_id":"7b1b6fda-acbf-4bcc-9c4e-eb02a7bb672a","system_id":"levelo_inurba_marseille","lat":43.24177,"lon":5.36394,"is_reserved":false,"is_disabled":false,"rental_uris":{"android":"levelo://app?vid=7b1b6fda-acbf-4bcc-9c4e-eb02a7bb672a","ios":"levelo://app?vid=7b1b6fda-acbf-4bcc-9c4e-eb02a7bb672a"},"vehicle_type_id":"4","last_reported":1761595717,"current_range_meters":16400,"station_id":"cpo36qri1sfpv3e86is0","pricing_plan_id":"cebpf4jnsgd1na2vs0mg"},{"bike_id":"61582872-d791-4b1e-b140-850838a7e879","system_id":"levelo_inurba_marseille","lat":43.24184,"lon":5.36376,"is_reserved":false,"is_disabled":false,"rental_uris":{"android":"levelo://app?vid=61582872-d791-4b1e-b140-850838a7e879","ios":"levelo://app?vid=61582872-d791-4b1e-b140-850838a7e879"},"vehicle_type_id":"4","last_reported":1761595717,"current_range_meters":16400,"station_id":"cpo36qri1sfpv3e86is0","pricing_plan_id":"cebpf4jnsgd1na2vs0mg"},{"bike_id":"58012e02-1dfc-4c26-8333-19cf7b33c295","system_id":"levelo_inurba_marseille","lat":43.27813,"lon":5.39567,"is_reserved":false,"is_disabled":false,"rental_uris":{"android":"levelo://app?vid=58012e02-1dfc-4c26-8333-19cf7b33c295","ios":"levelo://app?vid=58012e02-1dfc-4c26-8333-19cf7b33c295"},"vehicle_type_id":"4","last_reported":1761595717,"current_range_meters":16400,"station_id":"","pricing_plan_id":"cebpf4jnsgd1na2vs0mg"},{"bike_id":"d7b556e6-ac3d-4fe4-b136-c7cd05c756e3","system_id":"levelo_inurba_marseille","lat":43.23061,"lon":5.35491,"is_reserved":false,"is_disabled":false,"rental_uris":{"android":"levelo://app?vid=d7b556e6-ac3d-4fe4-b136-c7cd05c756e3","ios":"levelo://app?vid=d7b556e6-ac3d-4fe4-b136-c7cd05c756e3"},"vehicle_type_id":"4","last_reported":1761595717,"current_range_meters":16400,"station_id":"cpo3342slgdg3j2ifvpg","pricing_plan_id":"cebpf4jnsgd1na2vs0mg"},{"bike_id":"14d52b4a-e6a2-4837-b6c6-2a5a2f52badf","system_id":"levelo_inurba_marseille","lat":43.27996,"lon":5.40012,"is_reserved":false,"is_disabled":false,"rental_uris":{"android":"levelo://app?vid=14d52b4a-e6a2-4837-b6c6-2a5a2f52badf","ios":"levelo://app?vid=14d52b4a-e6a2-4837-b6c6-2a5a2f52badf"},"vehicle_type_id":"4","last_reported":1761595717,"current_range_meters":16400,"station_id":"ce4bho92rcd13ifvqh4g","pricing_plan_id":"cebpf4jnsgd1na2vs0mg"},{"bike_id":"b0c4da9f-e4e0-46d5-9e69-2ec15f088753","system_id":"levelo_inurba_marseille","lat":43.23192,"lon":5.35552,"is_reserved":false,"is_disabled":false,"rental_uris":{"android":"levelo://app?vid=b0c4da9f-e4e0-46d5-9e69-2ec15f088753","ios":"levelo://app?vid=b0c4da9f-e4e0-46d5-9e69-2ec15f088753"},"vehicle_type_id":"4","last_reported":1761595717,"current_range_meters":16400,"station_id":"ce4bhu92rcd13ifvqi70","pricing_plan_id":"cebpf4jnsgd1na2vs0mg"},{"bike_id":"5a57344f-3a76-4abf-856e-ac0b366fdcb4","system_id":"levelo_inurba_marseille","lat":43.302477,"lon":5.400853,"is_reserved":false,"is_disabled":false,"rental_uris":{"android":"levelo://app?vid=5a57344f-3a76-4abf-856e-ac0b366fdcb4","ios":"levelo://app?vid=5a57344f-3a76-4abf-856e-ac0b366fdcb4"},"vehicle_type_id":"4","last_reported":1761595717,"current_range_meters":16400,"station_id":"ce4bgvh2rcd13ifvqcs0","pricing_plan_id":"cebpf4jnsgd1na2vs0mg"},{"bike_id":"b3065010-854a-4eef-9c5d-427fb25325e0","system_id":"levelo_inurba_marseille","lat":43.29707,"lon":5.36617,"is_reserved":false,"is_disabled":false,"rental_uris":{"android":"levelo://app?vid=b3065010-854a-4eef-9c5d-427fb25325e0","ios":"levelo://app?vid=b3065010-854a-4eef-9c5d-427fb25325e0"},"vehicle_type_id":"4","last_reported":1761595717,"current_range_meters":16400,"station_id":"ce4bgn12rcd13ifvqbt0","pricing_plan_id":"cebpf4jnsgd1na2vs0mg"},{"bike_id":"266488d3-4677-4b2c-b163-8d1ad61d8414","system_id":"levelo_inurba_marseille","lat":43.28475,"lon":5.38418,"is_reserved":false,"is_disabled":true,"rental_uris":{"android":"levelo://app?vid=266488d3-4677-4b2c-b163-8d1ad61d8414","ios":"levelo://app?vid=266488d3-4677-4b2c-b163-8d1ad61d8414"},"vehicle_type_id":"4","last_reported":1761595717,"current_range_meters":16400,"station_id":"ce4bh512rcd13ifvqe3g","pricing_plan_id":"cebpf4jnsgd1na2vs0mg"},{"bike_id":"d5ca831f-8041-403e-ada8-7b4196c3d5be","system_id":"levelo_inurba_marseille","lat":43.293714,"lon":5.379385,"is_reserved":false,"is_disabled":false,"rental_uris":{"android":"levelo://app?vid=d5ca831f-8041-403e-ada8-7b4196c3d5be","ios":"levelo://app?vid=d5ca831f-8041-403e-ada8-7b4196c3d5be"},"vehicle_type_id":"4","last_reported":1761595717,"current_range_meters":16400,"station_id":"","pricing_plan_id":"cebpf4jnsgd1na2vs0mg"},{"bike_id":"364ec611-e1a4-43b1-a99d-a63129c79f5f","system_id":"levelo_inurba_marseille","lat":43.29275,"lon":5.40112,"is_reserved":false,"is_disabled":false,"rental_uris":{"android":"levelo://app?vid=364ec611-e1a4-43b1-a99d-a63129c79f5f","ios":"levelo://app?vid=364ec611-e1a4-43b1-a99d-a63129c79f5f"},"vehicle_type_id":"4","last_reported":1761595717,"current_range_meters":16800,"station_id":"ce4bh312rcd13ifvqdk0","pricing_plan_id":"cebpf4jnsgd1na2vs0mg"},{"bike_id":"883bc9b4-cfb9-4127-8706-5d33bb052860","system_id":"levelo_inurba_marseille","lat":43.24806,"lon":5.37452,"is_reserved":false,"is_disabled":false,"rental_uris":{"android":"levelo://app?vid=883bc9b4-cfb9-4127-8706-5d33bb052860","ios":"levelo://app?vid=883bc9b4-cfb9-4127-8706-5d33bb052860"},"vehicle_type_id":"4","last_reported":1761595717,"current_range_meters":16800,"station_id":"ce4bhgh2rcd13ifvqfb0","pricing_plan_id":"cebpf4jnsgd1na2vs0mg"},{"bike_id":"29283b19-8cb7-4629-bfcd-37dcb369e8b8","system_id":"levelo_inurba_marseille","lat":43.28935,"lon":5.36632,"is_reserved":false,"is_disabled":false,"rental_uris":{"android":"levelo://app?vid=29283b19-8cb7-4629-bfcd-37dcb369e8b8","ios":"levelo://app?vid=29283b19-8cb7-4629-bfcd-37dcb369e8b8"},"vehicle_type_id":"4","last_reported":1761595717,"current_range_meters":16800,"station_id":"ce4bhap2rcd13ifvqek0","pricing_plan_id":"cebpf4jnsgd1na2vs0mg"},{"bike_id":"91da3e64-181c-4dc8-9432-5be84c9bed00","system_id":"levelo_inurba_marseille","lat":43.29894,"lon":5.3814,"is_reserved":false,"is_disabled":false,"rental_uris":{"android":"levelo://app?vid=91da3e64-181c-4dc8-9432-5be84c9bed00","ios":"levelo://app?vid=91da3e64-181c-4dc8-9432-5be84c9bed00"},"vehicle_type_id":"4","last_reported":1761595717,"current_range_meters":16800,"station_id":"ce4bgj12rcd13ifvqbc0","pricing_plan_id":"cebpf4jnsgd1na2vs0mg"},{"bike_id":"21781a70-201c-4092-a5e0-70fe14e2283d","system_id":"levelo_inurba_marseille","lat":43.28574,"lon":5.39491,"is_reserved":false,"is_disabled":false,"rental_uris":{"android":"levelo://app?vid=21781a70-201c-4092-a5e0-70fe14e2283d","ios":"levelo://app?vid=21781a70-201c-4092-a5e0-70fe14e2283d"},"vehicle_type_id":"4","last_reported":1761595717,"current_range_meters":16800,"station_id":"ce4bh292rcd13ifvqdg0","pricing_plan_id":"cebpf4jnsgd1na2vs0mg"},{"bike_id":"beed7228-71af-4a12-8caf-df545ecd7273","system_id":"levelo_inurba_marseille","lat":43.29198,"lon":5.4027,"is_reserved":false,"is_disabled":false,"rental_uris":{"android":"levelo://app?vid=beed7228-71af-4a12-8caf-df545ecd7273","ios":"levelo://app?vid=beed7228-71af-4a12-8caf-df545ecd7273"},"vehicle_type_id":"4","last_reported":1761595717,"current_range_meters":16800,"station_id":"","pricing_plan_id":"cebpf4jnsgd1na2vs0mg"},{"bike_id":"a630ed88-3f05-4926-bbab-8387ab6b6a28","system_id":"levelo_inurba_marseille","lat":43.23154,"lon":5.43685,"is_reserved":false,"is_disabled":true,"rental_uris":{"android":"levelo://app?vid=a630ed88-3f05-4926-bbab-8387ab6b6a28","ios":"levelo://app?vid=a630ed88-3f05-4926-bbab-8387ab6b6a28"},"vehicle_type_id":"4","last_reported":1761595717,"current_range_meters":16800,"station_id":"ce4bhmp2rcd13ifvqgog","pricing_plan_id":"cebpf4jnsgd1na2vs0mg"},{"bike_id":"3b0f9c2a-612b-413e-9861-d462687c9342","system_id":"levelo_inurba_marseille","lat":43.31333,"lon":5.39704,"is_reserved":false,"is_disabled":false,"rental_uris":{"android":"levelo://app?vid=3b0f9c2a-612b-413e-9861-d462687c9342","ios":"levelo://app?vid=3b0f9c2a-612b-413e-9861-d462687c9342"},"vehicle_type_id":"4","last_reported":1761595717,"current_range_meters":16800,"station_id":"ce4bgvp2rcd13ifvqcu0","pricing_plan_id":"cebpf4jnsgd1na2vs0mg"},{"bike_id":"99f71ea2-5580-4c1d-b149-5fed2b68821c","system_id":"levelo_inurba_marseille","lat":43.28162,"lon":5.42676,"is_reserved":false,"is_disabled":false,"rental_uris":{"android":"levelo://app?vid=99f71ea2-5580-4c1d-b149-5fed2b68821c","ios":"levelo://app?vid=99f71ea2-5580-4c1d-b149-5fed2b68821c"},"vehicle_type_id":"4","last_reported":1761595717,"current_range_meters":17200,"station_id":"ce4bhnh2rcd13ifvqgug","pricing_plan_id":"cebpf4jnsgd1na2vs0mg"},{"bike_id":"74cd8338-a4b2-42fe-9981-9f2d2909db46","system_id":"levelo_inurba_marseille","lat":43.29525,"lon":5.39044,"is_reserved":false,"is_disabled":false,"rental_uris":{"android":"levelo://app?vid=74cd8338-a4b2-42fe-9981-9f2d2909db46","ios":"levelo://app?vid=74cd8338-a4b2-42fe-9981-9f2d2909db46"},"vehicle_type_id":"4","last_reported":1761595717,"current_range_meters":17200,"station_id":"ce4bh3p2rcd13ifvqdp0","pricing_plan_id":"cebpf4jnsgd1na2vs0mg"},{"bike_id":"4d166009-4ea7-4ae0-b0d1-9b30d6cb8a98","system_id":"levelo_inurba_marseille","lat":43.31528,"lon":5.38034,"is_reserved":false,"is_disabled":false,"rental_uris":{"android":"levelo://app?vid=4d166009-4ea7-4ae0-b0d1-9b30d6cb8a98","ios":"levelo://app?vid=4d166009-4ea7-4ae0-b0d1-9b30d6cb8a98"},"vehicle_type_id":"4","last_reported":1761595717,"current_range_meters":17200,"station_id":"ce4bhsp2rcd13ifvqi50","pricing_plan_id":"cebpf4jnsgd1na2vs0mg"},{"bike_id":"db88a8a5-5637-4384-a6d7-41d8f099747a","system_id":"levelo_inurba_marseille","lat":43.312379,"lon":5.368484,"is_reserved":false,"is_disabled":false,"rental_uris":{"android":"levelo://app?vid=db88a8a5-5637-4384-a6d7-41d8f099747a","ios":"levelo://app?vid=db88a8a5-5637-4384-a6d7-41d8f099747a"},"vehicle_type_id":"4","last_reported":1761595717,"current_range_meters":17200,"station_id":"ce4bgr92rcd13ifvqc6g","pricing_plan_id":"cebpf4jnsgd1na2vs0mg"},{"bike_id":"ff8ca43b-8d86-4cca-ac3a-983d7a1a8e33","system_id":"levelo_inurba_marseille","lat":43.29279,"lon":5.36849,"is_reserved":false,"is_disabled":false,"rental_uris":{"android":"levelo://app?vid=ff8ca43b-8d86-4cca-ac3a-983d7a1a8e33","ios":"levelo://app?vid=ff8ca43b-8d86-4cca-ac3a-983d7a1a8e33"},"vehicle_type_id":"4","last_reported":1761595717,"current_range_meters":17200,"station_id":"ce4bhbp2rcd13ifvqesg","pricing_plan_id":"cebpf4jnsgd1na2vs0mg"},{"bike_id":"b34ce697-5782-42d3-bc76-87bf1f6b5538","system_id":"levelo_inurba_marseille","lat":43.29596,"lon":5.38101,"is_reserved":false,"is_disabled":false,"rental_uris":{"android":"levelo://app?vid=b34ce697-5782-42d3-bc76-87bf1f6b5538","ios":"levelo://app?vid=b34ce697-5782-42d3-bc76-87bf1f6b5538"},"vehicle_type_id":"4","last_reported":1761595717,"current_range_meters":17200,"station_id":"ce4bgl12rcd13ifvqbo0","pricing_plan_id":"cebpf4jnsgd1na2vs0mg"},{"bike_id":"70c57b2c-44e1-4b66-921d-a18927a7fdf5","system_id":"levelo_inurba_marseille","lat":43.2603,"lon":5.37548,"is_reserved":false,"is_disabled":false,"rental_uris":{"android":"levelo://app?vid=70c57b2c-44e1-4b66-921d-a18927a7fdf5","ios":"levelo://app?vid=70c57b2c-44e1-4b66-921d-a18927a7fdf5"},"vehicle_type_id":"4","last_reported":1761595717,"current_range_meters":17200,"station_id":"ce4bhgh2rcd13ifvqfa0","pricing_plan_id":"cebpf4jnsgd1na2vs0mg"},{"bike_id":"e1ca1064-3ac1-495e-b8d2-df8047d11b2e","system_id":"levelo_inurba_marseille","lat":43.28487,"lon":5.48375,"is_reserved":false,"is_disabled":false,"rental_uris":{"android":"levelo://app?vid=e1ca1064-3ac1-495e-b8d2-df8047d11b2e","ios":"levelo://app?vid=e1ca1064-3ac1-495e-b8d2-df8047d11b2e"},"vehicle_type_id":"4","last_reported":1761595717,"current_range_meters":17200,"station_id":"st_d3svhcjqgbts73a3dn0g","pricing_plan_id":"cebpf4jnsgd1na2vs0mg"},{"bike_id":"303b1117-b58b-4d7f-be67-2161ed08ebe7","system_id":"levelo_inurba_marseille","lat":43.28925,"lon":5.36635,"is_reserved":false,"is_disabled":false,"rental_uris":{"android":"levelo://app?vid=303b1117-b58b-4d7f-be67-2161ed08ebe7","ios":"levelo://app?vid=303b1117-b58b-4d7f-be67-2161ed08ebe7"},"vehicle_type_id":"4","last_reported":1761595717,"current_range_meters":17600,"station_id":"ce4bhap2rcd13ifvqek0","pricing_plan_id":"cebpf4jnsgd1na2vs0mg"},{"bike_id":"310e927d-d5b8-4a6f-82be-2d623690659d","system_id":"levelo_inurba_marseille","lat":43.31302,"lon":5.37776,"is_reserved":false,"is_disabled":false,"rental_uris":{"android":"levelo://app?vid=310e927d-d5b8-4a6f-82be-2d623690659d","ios":"levelo://app?vid=310e927d-d5b8-4a6f-82be-2d623690659d"},"vehicle_type_id":"4","last_reported":1761595717,"current_range_meters":17600,"station_id":"","pricing_plan_id":"cebpf4jnsgd1na2vs0mg"},{"bike_id":"9ee0e642-84d1-4894-9db4-3748b343ad41","system_id":"levelo_inurba_marseille","lat":43.29795,"lon":5.38103,"is_reserved":false,"is_disabled":false,"rental_uris":{"android":"levelo://app?vid=9ee0e642-84d1-4894-9db4-3748b343ad41","ios":"levelo://app?vid=9ee0e642-84d1-4894-9db4-3748b343ad41"},"vehicle_type_id":"4","last_reported":1761595717,"current_range_meters":17600,"station_id":"ce4bgip2rcd13ifvqbb0","pricing_plan_id":"cebpf4jnsgd1na2vs0mg"},{"bike_id":"9199c4e4-9055-4bcd-ab08-08feb765f3b6","system_id":"levelo_inurba_marseille","lat":43.282416,"lon":5.379112,"is_reserved":false,"is_disabled":false,"rental_uris":{"android":"levelo://app?vid=9199c4e4-9055-4bcd-ab08-08feb765f3b6","ios":"levelo://app?vid=9199c4e4-9055-4bcd-ab08-08feb765f3b6"},"vehicle_type_id":"4","last_reported":1761595717,"current_range_meters":17600,"station_id":"ce4bha12rcd13ifvqee0","pricing_plan_id":"cebpf4jnsgd1na2vs0mg"},{"bike_id":"2494bb61-c5b2-4e8c-8a6f-16c2d1512e23","system_id":"levelo_inurba_marseille","lat":43.23195,"lon":5.39992,"is_reserved":false,"is_disabled":false,"rental_uris":{"android":"levelo://app?vid=2494bb61-c5b2-4e8c-8a6f-16c2d1512e23","ios":"levelo://app?vid=2494bb61-c5b2-4e8c-8a6f-16c2d1512e23"},"vehicle_type_id":"4","last_reported":1761595717,"current_range_meters":17600,"station_id":"ce4bhn12rcd13ifvqgqg","pricing_plan_id":"cebpf4jnsgd1na2vs0mg"},{"bike_id":"b0547b29-ebbb-4a2f-9050-9346c06dcd7d","system_id":"levelo_inurba_marseille","lat":43.27566,"lon":5.38412,"is_reserved":false,"is_disabled":false,"rental_uris":{"android":"levelo://app?vid=b0547b29-ebbb-4a2f-9050-9346c06dcd7d","ios":"levelo://app?vid=b0547b29-ebbb-4a2f-9050-9346c06dcd7d"},"vehicle_type_id":"4","last_reported":1761595717,"current_range_meters":17600,"station_id":"ce4bhh92rcd13ifvqfi0","pricing_plan_id":"cebpf4jnsgd1na2vs0mg"},{"bike_id":"9df4bd16-2f06-4dee-8231-b915403f329d","system_id":"levelo_inurba_marseille","lat":43.25114,"lon":5.40321,"is_reserved":false,"is_disabled":false,"rental_uris":{"android":"levelo://app?vid=9df4bd16-2f06-4dee-8231-b915403f329d","ios":"levelo://app?vid=9df4bd16-2f06-4dee-8231-b915403f329d"},"vehicle_type_id":"4","last_reported":1761595717,"current_range_meters":17600,"station_id":"ce4bhlh2rcd13ifvqgig","pricing_plan_id":"cebpf4jnsgd1na2vs0mg"},{"bike_id":"0cb31705-eb96-4557-ab4a-e877714da55c","system_id":"levelo_inurba_marseille","lat":43.31168,"lon":5.38723,"is_reserved":false,"is_disabled":false,"rental_uris":{"android":"levelo://app?vid=0cb31705-eb96-4557-ab4a-e877714da55c","ios":"levelo://app?vid=0cb31705-eb96-4557-ab4a-e877714da55c"},"vehicle_type_id":"4","last_reported":1761595717,"current_range_meters":17600,"station_id":"ce4bgv12rcd13ifvqcp0","pricing_plan_id":"cebpf4jnsgd1na2vs0mg"},{"bike_id":"32a444c0-ff8d-4a61-8c24-5fa13742cb61","system_id":"levelo_inurba_marseille","lat":43.2865,"lon":5.38673,"is_reserved":false,"is_disabled":false,"rental_uris":{"android":"levelo://app?vid=32a444c0-ff8d-4a61-8c24-5fa13742cb61","ios":"levelo://app?vid=32a444c0-ff8d-4a61-8c24-5fa13742cb61"},"vehicle_type_id":"4","last_reported":1761595717,"current_range_meters":18000,"station_id":"ce4bh492rcd13ifvqdug","pricing_plan_id":"cebpf4jnsgd1na2vs0mg"},{"bike_id":"681d38b5-a75b-4764-af13-b68c82b21e57","system_id":"levelo_inurba_marseille","lat":43.27916,"lon":5.39568,"is_reserved":false,"is_disabled":false,"rental_uris":{"android":"levelo://app?vid=681d38b5-a75b-4764-af13-b68c82b21e57","ios":"levelo://app?vid=681d38b5-a75b-4764-af13-b68c82b21e57"},"vehicle_type_id":"4","last_reported":1761595717,"current_range_meters":18000,"station_id":"ce4bhf92rcd13ifvqf40","pricing_plan_id":"cebpf4jnsgd1na2vs0mg"},{"bike_id":"d5a49dbd-284f-44d1-bf21-988be425a5e5","system_id":"levelo_inurba_marseille","lat":43.25588,"lon":5.38239,"is_reserved":false,"is_disabled":true,"rental_uris":{"android":"levelo://app?vid=d5a49dbd-284f-44d1-bf21-988be425a5e5","ios":"levelo://app?vid=d5a49dbd-284f-44d1-bf21-988be425a5e5"},"vehicle_type_id":"4","last_reported":1761595717,"current_range_meters":18000,"station_id":"ce4bhih2rcd13ifvqfs0","pricing_plan_id":"cebpf4jnsgd1na2vs0mg"},{"bike_id":"dccef0b1-edb3-49b5-866c-43e10e5763cc","system_id":"levelo_inurba_marseille","lat":43.28832,"lon":5.4385,"is_reserved":false,"is_disabled":false,"rental_uris":{"android":"levelo://app?vid=dccef0b1-edb3-49b5-866c-43e10e5763cc","ios":"levelo://app?vid=dccef0b1-edb3-49b5-866c-43e10e5763cc"},"vehicle_type_id":"4","last_reported":1761595717,"current_range_meters":18000,"station_id":"","pricing_plan_id":"cebpf4jnsgd1na2vs0mg"},{"bike_id":"8957da31-2549-4ab6-abc0-615293ac1acd","system_id":"levelo_inurba_marseille","lat":43.26571,"lon":5.39011,"is_reserved":false,"is_disabled":true,"rental_uris":{"android":"levelo://app?vid=8957da31-2549-4ab6-abc0-615293ac1acd","ios":"levelo://app?vid=8957da31-2549-4ab6-abc0-615293ac1acd"},"vehicle_type_id":"4","last_reported":1761595717,"current_range_meters":18000,"station_id":"ce4bhe12rcd13ifvqf30","pricing_plan_id":"cebpf4jnsgd1na2vs0mg"},{"bike_id":"dced2bcc-e95f-44ce-b7d8-7bb47def612a","system_id":"levelo_inurba_marseille","lat":43.23056,"lon":5.35485,"is_reserved":false,"is_disabled":false,"rental_uris":{"android":"levelo://app?vid=dced2bcc-e95f-44ce-b7d8-7bb47def612a","ios":"levelo://app?vid=dced2bcc-e95f-44ce-b7d8-7bb47def612a"},"vehicle_type_id":"4","last_reported":1761595717,"current_range_meters":18000,"station_id":"cpo3342slgdg3j2ifvpg","pricing_plan_id":"cebpf4jnsgd1na2vs0mg"},{"bike_id":"0e92e58a-a68d-4440-a2a1-0e87cddba988","system_id":"levelo_inurba_marseille","lat":43.2466,"lon":5.38166,"is_reserved":false,"is_disabled":false,"rental_uris":{"android":"levelo://app?vid=0e92e58a-a68d-4440-a2a1-0e87cddba988","ios":"levelo://app?vid=0e92e58a-a68d-4440-a2a1-0e87cddba988"},"vehicle_type_id":"4","last_reported":1761595717,"current_range_meters":18000,"station_id":"ce4bhih2rcd13ifvqfr0","pricing_plan_id":"cebpf4jnsgd1na2vs0mg"},{"bike_id":"2be3bf9b-39f4-4c37-8c01-9e9bcabe1c53","system_id":"levelo_inurba_marseille","lat":43.33741,"lon":5.37444,"is_reserved":false,"is_disabled":false,"rental_uris":{"android":"levelo://app?vid=2be3bf9b-39f4-4c37-8c01-9e9bcabe1c53","ios":"levelo://app?vid=2be3bf9b-39f4-4c37-8c01-9e9bcabe1c53"},"vehicle_type_id":"4","last_reported":1761595717,"current_range_meters":18000,"station_id":"","pricing_plan_id":"cebpf4jnsgd1na2vs0mg"},{"bike_id":"f490b8db-0660-4c12-ae72-f0ba5726287c","system_id":"levelo_inurba_marseille","lat":43.31113,"lon":5.37769,"is_reserved":false,"is_disabled":false,"rental_uris":{"android":"levelo://app?vid=f490b8db-0660-4c12-ae72-f0ba5726287c","ios":"levelo://app?vid=f490b8db-0660-4c12-ae72-f0ba5726287c"},"vehicle_type_id":"4","last_reported":1761595717,"current_range_meters":18000,"station_id":"ce4bgt92rcd13ifvqcg0","pricing_plan_id":"cebpf4jnsgd1na2vs0mg"},{"bike_id":"2eb71a92-bc1d-465c-b19a-1d2d11b65026","system_id":"levelo_inurba_marseille","lat":43.31267,"lon":5.36777,"is_reserved":false,"is_disabled":false,"rental_uris":{"android":"levelo://app?vid=2eb71a92-bc1d-465c-b19a-1d2d11b65026","ios":"levelo://app?vid=2eb71a92-bc1d-465c-b19a-1d2d11b65026"},"vehicle_type_id":"4","last_reported":1761595717,"current_range_meters":18000,"station_id":"","pricing_plan_id":"cebpf4jnsgd1na2vs0mg"},{"bike_id":"2f1672b1-3a1a-46c0-9536-6ee5f8fac4c8","system_id":"levelo_inurba_marseille","lat":43.311737,"lon":5.38721,"is_reserved":false,"is_disabled":false,"rental_uris":{"android":"levelo://app?vid=2f1672b1-3a1a-46c0-9536-6ee5f8fac4c8","ios":"levelo://app?vid=2f1672b1-3a1a-46c0-9536-6ee5f8fac4c8"},"vehicle_type_id":"4","last_reported":1761595717,"current_range_meters":18000,"station_id":"ce4bgv12rcd13ifvqcp0","pricing_plan_id":"cebpf4jnsgd1na2vs0mg"},{"bike_id":"87a515db-426d-4f18-b2c3-ba5fadd6c431","system_id":"levelo_inurba_marseille","lat":43.3094,"lon":5.40151,"is_reserved":false,"is_disabled":false,"rental_uris":{"android":"levelo://app?vid=87a515db-426d-4f18-b2c3-ba5fadd6c431","ios":"levelo://app?vid=87a515db-426d-4f18-b2c3-ba5fadd6c431"},"vehicle_type_id":"4","last_reported":1761595717,"current_range_meters":18000,"station_id":"ce4bgvp2rcd13ifvqct0","pricing_plan_id":"cebpf4jnsgd1na2vs0mg"},{"bike_id":"a72ba818-7371-4726-9234-a81be08b4f21","system_id":"levelo_inurba_marseille","lat":43.29072,"lon":5.38142,"is_reserved":false,"is_disabled":true,"rental_uris":{"android":"levelo://app?vid=a72ba818-7371-4726-9234-a81be08b4f21","ios":"levelo://app?vid=a72ba818-7371-4726-9234-a81be08b4f21"},"vehicle_type_id":"4","last_reported":1761595717,"current_range_meters":18800,"station_id":"ce4bh512rcd13ifvqe2g","pricing_plan_id":"cebpf4jnsgd1na2vs0mg"},{"bike_id":"c420e2ed-1a72-4c80-84bb-0fa9299f0c7d","system_id":"levelo_inurba_marseille","lat":43.28483,"lon":5.38561,"is_reserved":false,"is_disabled":false,"rental_uris":{"android":"levelo://app?vid=c420e2ed-1a72-4c80-84bb-0fa9299f0c7d","ios":"levelo://app?vid=c420e2ed-1a72-4c80-84bb-0fa9299f0c7d"},"vehicle_type_id":"4","last_reported":1761595717,"current_range_meters":18800,"station_id":"ce4bh8p2rcd13ifvqeb0","pricing_plan_id":"cebpf4jnsgd1na2vs0mg"},{"bike_id":"316ded5d-28c9-4663-be5c-04dc90d5b34c","system_id":"levelo_inurba_marseille","lat":43.28431,"lon":5.38792,"is_reserved":false,"is_disabled":false,"rental_uris":{"android":"levelo://app?vid=316ded5d-28c9-4663-be5c-04dc90d5b34c","ios":"levelo://app?vid=316ded5d-28c9-4663-be5c-04dc90d5b34c"},"vehicle_type_id":"4","last_reported":1761595717,"current_range_meters":18800,"station_id":"","pricing_plan_id":"cebpf4jnsgd1na2vs0mg"},{"bike_id":"f4ae8a8d-d71a-4e48-9339-66550bde7b84","system_id":"levelo_inurba_marseille","lat":43.296782,"lon":5.378637,"is_reserved":false,"is_disabled":false,"rental_uris":{"android":"levelo://app?vid=f4ae8a8d-d71a-4e48-9339-66550bde7b84","ios":"levelo://app?vid=f4ae8a8d-d71a-4e48-9339-66550bde7b84"},"vehicle_type_id":"4","last_reported":1761595717,"current_range_meters":18800,"station_id":"","pricing_plan_id":"cebpf4jnsgd1na2vs0mg"},{"bike_id":"12180334-6f1c-4ce8-941e-69512912c808","system_id":"levelo_inurba_marseille","lat":43.28967,"lon":5.37838,"is_reserved":false,"is_disabled":false,"rental_uris":{"android":"levelo://app?vid=12180334-6f1c-4ce8-941e-69512912c808","ios":"levelo://app?vid=12180334-6f1c-4ce8-941e-69512912c808"},"vehicle_type_id":"4","last_reported":1761595717,"current_range_meters":18800,"station_id":"ce4bh9p2rcd13ifvqed0","pricing_plan_id":"cebpf4jnsgd1na2vs0mg"},{"bike_id":"dc2bd6e0-d305-44b3-b209-f37f02144b4a","system_id":"levelo_inurba_marseille","lat":43.2694,"lon":5.38917,"is_reserved":false,"is_disabled":false,"rental_uris":{"android":"levelo://app?vid=dc2bd6e0-d305-44b3-b209-f37f02144b4a","ios":"levelo://app?vid=dc2bd6e0-d305-44b3-b209-f37f02144b4a"},"vehicle_type_id":"4","last_reported":1761595717,"current_range_meters":18800,"station_id":"ce4bhhh2rcd13ifvqfl0","pricing_plan_id":"cebpf4jnsgd1na2vs0mg"},{"bike_id":"d5f89094-52f0-47a0-97dd-59b004bfd03c","system_id":"levelo_inurba_marseille","lat":43.25509,"lon":5.37651,"is_reserved":false,"is_disabled":false,"rental_uris":{"android":"levelo://app?vid=d5f89094-52f0-47a0-97dd-59b004bfd03c","ios":"levelo://app?vid=d5f89094-52f0-47a0-97dd-59b004bfd03c"},"vehicle_type_id":"4","last_reported":1761595717,"current_range_meters":18800,"station_id":"ce4bhh12rcd13ifvqff0","pricing_plan_id":"cebpf4jnsgd1na2vs0mg"},{"bike_id":"5ccebb53-eefb-4d21-a011-0adb204e3ed1","system_id":"levelo_inurba_marseille","lat":43.28258,"lon":5.35053,"is_reserved":false,"is_disabled":false,"rental_uris":{"android":"levelo://app?vid=5ccebb53-eefb-4d21-a011-0adb204e3ed1","ios":"levelo://app?vid=5ccebb53-eefb-4d21-a011-0adb204e3ed1"},"vehicle_type_id":"4","last_reported":1761595717,"current_range_meters":18800,"station_id":"ce4bhbp2rcd13ifvqerg","pricing_plan_id":"cebpf4jnsgd1na2vs0mg"},{"bike_id":"49ed0d39-51fe-4cd4-8527-50556baa8749","system_id":"levelo_inurba_marseille","lat":43.22529,"lon":5.34831,"is_reserved":false,"is_disabled":false,"rental_uris":{"android":"levelo://app?vid=49ed0d39-51fe-4cd4-8527-50556baa8749","ios":"levelo://app?vid=49ed0d39-51fe-4cd4-8527-50556baa8749"},"vehicle_type_id":"4","last_reported":1761595717,"current_range_meters":18800,"station_id":"","pricing_plan_id":"cebpf4jnsgd1na2vs0mg"},{"bike_id":"3547a514-e027-417e-ba5a-4f0a24021838","system_id":"levelo_inurba_marseille","lat":43.28861,"lon":5.42525,"is_reserved":false,"is_disabled":false,"rental_uris":{"android":"levelo://app?vid=3547a514-e027-417e-ba5a-4f0a24021838","ios":"levelo://app?vid=3547a514-e027-417e-ba5a-4f0a24021838"},"vehicle_type_id":"4","last_reported":1761595717,"current_range_meters":18800,"station_id":"st_d3b462108ojc7389ooeg","pricing_plan_id":"cebpf4jnsgd1na2vs0mg"},{"bike_id":"ae8ebe94-fc0f-4409-8f77-39eb5c613a67","system_id":"levelo_inurba_marseille","lat":43.337444,"lon":5.374475,"is_reserved":false,"is_disabled":false,"rental_uris":{"android":"levelo://app?vid=ae8ebe94-fc0f-4409-8f77-39eb5c613a67","ios":"levelo://app?vid=ae8ebe94-fc0f-4409-8f77-39eb5c613a67"},"vehicle_type_id":"4","last_reported":1761595717,"current_range_meters":19200,"station_id":"","pricing_plan_id":"cebpf4jnsgd1na2vs0mg"},{"bike_id":"2b8d2fc2-98f4-494a-9dd7-23d53ea58801","system_id":"levelo_inurba_marseille","lat":43.3089,"lon":5.3721,"is_reserved":false,"is_disabled":false,"rental_uris":{"android":"levelo://app?vid=2b8d2fc2-98f4-494a-9dd7-23d53ea58801","ios":"levelo://app?vid=2b8d2fc2-98f4-494a-9dd7-23d53ea58801"},"vehicle_type_id":"4","last_reported":1761595717,"current_range_meters":19200,"station_id":"ce4bguh2rcd13ifvqckg","pricing_plan_id":"cebpf4jnsgd1na2vs0mg"},{"bike_id":"85377363-cbd4-45ea-ab32-d8f5e1c2d1e3","system_id":"levelo_inurba_marseille","lat":43.24798,"lon":5.37452,"is_reserved":false,"is_disabled":true,"rental_uris":{"android":"levelo://app?vid=85377363-cbd4-45ea-ab32-d8f5e1c2d1e3","ios":"levelo://app?vid=85377363-cbd4-45ea-ab32-d8f5e1c2d1e3"},"vehicle_type_id":"4","last_reported":1761595717,"current_range_meters":19200,"station_id":"ce4bhgh2rcd13ifvqfb0","pricing_plan_id":"cebpf4jnsgd1na2vs0mg"},{"bike_id":"5ce9bf87-766f-4e87-8278-f1edb00a1ed1","system_id":"levelo_inurba_marseille","lat":43.28074,"lon":5.39635,"is_reserved":false,"is_disabled":false,"rental_uris":{"android":"levelo://app?vid=5ce9bf87-766f-4e87-8278-f1edb00a1ed1","ios":"levelo://app?vid=5ce9bf87-766f-4e87-8278-f1edb00a1ed1"},"vehicle_type_id":"4","last_reported":1761595717,"current_range_meters":19200,"station_id":"ce4bho12rcd13ifvqh2g","pricing_plan_id":"cebpf4jnsgd1na2vs0mg"},{"bike_id":"4623ab64-da47-41ba-9b64-f7581d644a30","system_id":"levelo_inurba_marseille","lat":43.29783,"lon":5.3807,"is_reserved":false,"is_disabled":false,"rental_uris":{"android":"levelo://app?vid=4623ab64-da47-41ba-9b64-f7581d644a30","ios":"levelo://app?vid=4623ab64-da47-41ba-9b64-f7581d644a30"},"vehicle_type_id":"4","last_reported":1761595717,"current_range_meters":19200,"station_id":"ce4bgip2rcd13ifvqbb0","pricing_plan_id":"cebpf4jnsgd1na2vs0mg"},{"bike_id":"3b0678cb-7fae-44f4-a635-05630a40fbea","system_id":"levelo_inurba_marseille","lat":43.29278,"lon":5.3844,"is_reserved":false,"is_disabled":false,"rental_uris":{"android":"levelo://app?vid=3b0678cb-7fae-44f4-a635-05630a40fbea","ios":"levelo://app?vid=3b0678cb-7fae-44f4-a635-05630a40fbea"},"vehicle_type_id":"4","last_reported":1761595717,"current_range_meters":19200,"station_id":"ce4bh692rcd13ifvqea0","pricing_plan_id":"cebpf4jnsgd1na2vs0mg"},{"bike_id":"87878ea2-b2bc-4e11-a8d9-1e17965dfb23","system_id":"levelo_inurba_marseille","lat":43.30921,"lon":5.40143,"is_reserved":false,"is_disabled":false,"rental_uris":{"android":"levelo://app?vid=87878ea2-b2bc-4e11-a8d9-1e17965dfb23","ios":"levelo://app?vid=87878ea2-b2bc-4e11-a8d9-1e17965dfb23"},"vehicle_type_id":"4","last_reported":1761595717,"current_range_meters":19200,"station_id":"ce4bgvp2rcd13ifvqct0","pricing_plan_id":"cebpf4jnsgd1na2vs0mg"},{"bike_id":"7ef1c635-05bd-452a-889d-91b6aef98c6f","system_id":"levelo_inurba_marseille","lat":43.28951,"lon":5.36379,"is_reserved":false,"is_disabled":false,"rental_uris":{"android":"levelo://app?vid=7ef1c635-05bd-452a-889d-91b6aef98c6f","ios":"levelo://app?vid=7ef1c635-05bd-452a-889d-91b6aef98c6f"},"vehicle_type_id":"4","last_reported":1761595717,"current_range_meters":19200,"station_id":"ce4bhc92rcd13ifvqetg","pricing_plan_id":"cebpf4jnsgd1na2vs0mg"},{"bike_id":"32d7653e-b033-4183-b4c0-f44169bb9067","system_id":"levelo_inurba_marseille","lat":43.32711,"lon":5.39207,"is_reserved":false,"is_disabled":false,"rental_uris":{"android":"levelo://app?vid=32d7653e-b033-4183-b4c0-f44169bb9067","ios":"levelo://app?vid=32d7653e-b033-4183-b4c0-f44169bb9067"},"vehicle_type_id":"4","last_reported":1761595717,"current_range_meters":19200,"station_id":"","pricing_plan_id":"cebpf4jnsgd1na2vs0mg"},{"bike_id":"58c092d3-7571-4d93-83e7-a7559bcc69aa","system_id":"levelo_inurba_marseille","lat":43.26555,"lon":5.37279,"is_reserved":false,"is_disabled":false,"rental_uris":{"android":"levelo://app?vid=58c092d3-7571-4d93-83e7-a7559bcc69aa","ios":"levelo://app?vid=58c092d3-7571-4d93-83e7-a7559bcc69aa"},"vehicle_type_id":"4","last_reported":1761595717,"current_range_meters":19200,"station_id":"ce4bhg12rcd13ifvqf70","pricing_plan_id":"cebpf4jnsgd1na2vs0mg"},{"bike_id":"d38f0814-870f-434c-8d94-93ec17e8ddef","system_id":"levelo_inurba_marseille","lat":43.29797,"lon":5.39337,"is_reserved":false,"is_disabled":false,"rental_uris":{"android":"levelo://app?vid=d38f0814-870f-434c-8d94-93ec17e8ddef","ios":"levelo://app?vid=d38f0814-870f-434c-8d94-93ec17e8ddef"},"vehicle_type_id":"4","last_reported":1761595717,"current_range_meters":19200,"station_id":"chh1huq6cuj3fo74tm60","pricing_plan_id":"cebpf4jnsgd1na2vs0mg"},{"bike_id":"4abf8525-6d54-46af-b310-c9c3a2c8c704","system_id":"levelo_inurba_marseille","lat":43.2509,"lon":5.39522,"is_reserved":false,"is_disabled":false,"rental_uris":{"android":"levelo://app?vid=4abf8525-6d54-46af-b310-c9c3a2c8c704","ios":"levelo://app?vid=4abf8525-6d54-46af-b310-c9c3a2c8c704"},"vehicle_type_id":"4","last_reported":1761595717,"current_range_meters":19200,"station_id":"ce4bhm12rcd13ifvqgkg","pricing_plan_id":"cebpf4jnsgd1na2vs0mg"},{"bike_id":"32509414-e7d3-4d26-a37a-0abbd1a52e84","system_id":"levelo_inurba_marseille","lat":43.30089,"lon":5.39083,"is_reserved":false,"is_disabled":false,"rental_uris":{"android":"levelo://app?vid=32509414-e7d3-4d26-a37a-0abbd1a52e84","ios":"levelo://app?vid=32509414-e7d3-4d26-a37a-0abbd1a52e84"},"vehicle_type_id":"4","last_reported":1761595717,"current_range_meters":19600,"station_id":"ce4bh192rcd13ifvqdb0","pricing_plan_id":"cebpf4jnsgd1na2vs0mg"},{"bike_id":"f43afc40-0737-4064-80c3-ac94f7fceeba","system_id":"levelo_inurba_marseille","lat":43.28844,"lon":5.3585,"is_reserved":false,"is_disabled":false,"rental_uris":{"android":"levelo://app?vid=f43afc40-0737-4064-80c3-ac94f7fceeba","ios":"levelo://app?vid=f43afc40-0737-4064-80c3-ac94f7fceeba"},"vehicle_type_id":"4","last_reported":1761595717,"current_range_meters":19600,"station_id":"ce4bhb12rcd13ifvqem0","pricing_plan_id":"cebpf4jnsgd1na2vs0mg"},{"bike_id":"73f640e6-215e-43a0-b027-b615d67f95f7","system_id":"levelo_inurba_marseille","lat":43.30145,"lon":5.39875,"is_reserved":false,"is_disabled":false,"rental_uris":{"android":"levelo://app?vid=73f640e6-215e-43a0-b027-b615d67f95f7","ios":"levelo://app?vid=73f640e6-215e-43a0-b027-b615d67f95f7"},"vehicle_type_id":"4","last_reported":1761595717,"current_range_meters":19600,"station_id":"ce4bh0h2rcd13ifvqd40","pricing_plan_id":"cebpf4jnsgd1na2vs0mg"},{"bike_id":"021e2773-71f7-4902-84c6-5e91af9a8aba","system_id":"levelo_inurba_marseille","lat":43.29579,"lon":5.39591,"is_reserved":false,"is_disabled":false,"rental_uris":{"android":"levelo://app?vid=021e2773-71f7-4902-84c6-5e91af9a8aba","ios":"levelo://app?vid=021e2773-71f7-4902-84c6-5e91af9a8aba"},"vehicle_type_id":"4","last_reported":1761595717,"current_range_meters":19600,"station_id":"","pricing_plan_id":"cebpf4jnsgd1na2vs0mg"},{"bike_id":"92ed2e15-b637-4b7a-9790-111750e1c951","system_id":"levelo_inurba_marseille","lat":43.28853,"lon":5.35853,"is_reserved":false,"is_disabled":false,"rental_uris":{"android":"levelo://app?vid=92ed2e15-b637-4b7a-9790-111750e1c951","ios":"levelo://app?vid=92ed2e15-b637-4b7a-9790-111750e1c951"},"vehicle_type_id":"4","last_reported":1761595717,"current_range_meters":19600,"station_id":"ce4bhb12rcd13ifvqem0","pricing_plan_id":"cebpf4jnsgd1na2vs0mg"},{"bike_id":"492b7da5-bfe7-4417-8613-82321ea9e78a","system_id":"levelo_inurba_marseille","lat":43.294819,"lon":5.433253,"is_reserved":false,"is_disabled":false,"rental_uris":{"android":"levelo://app?vid=492b7da5-bfe7-4417-8613-82321ea9e78a","ios":"levelo://app?vid=492b7da5-bfe7-4417-8613-82321ea9e78a"},"vehicle_type_id":"4","last_reported":1761595717,"current_range_meters":19600,"station_id":"st_d3j5ugp08ojc73fj9d10","pricing_plan_id":"cebpf4jnsgd1na2vs0mg"},{"bike_id":"eaed6499-9973-47d4-9735-9e2c2bd97da4","system_id":"levelo_inurba_marseille","lat":43.28544,"lon":5.44101,"is_reserved":false,"is_disabled":false,"rental_uris":{"android":"levelo://app?vid=eaed6499-9973-47d4-9735-9e2c2bd97da4","ios":"levelo://app?vid=eaed6499-9973-47d4-9735-9e2c2bd97da4"},"vehicle_type_id":"4","last_reported":1761595717,"current_range_meters":19600,"station_id":"st_d3j3df2ikq2c7380ej80","pricing_plan_id":"cebpf4jnsgd1na2vs0mg"},{"bike_id":"02dd205b-e97c-4104-9683-066d2523fd3f","system_id":"levelo_inurba_marseille","lat":43.23066,"lon":5.35485,"is_reserved":false,"is_disabled":false,"rental_uris":{"android":"levelo://app?vid=02dd205b-e97c-4104-9683-066d2523fd3f","ios":"levelo://app?vid=02dd205b-e97c-4104-9683-066d2523fd3f"},"vehicle_type_id":"4","last_reported":1761595717,"current_range_meters":19600,"station_id":"cpo3342slgdg3j2ifvpg","pricing_plan_id":"cebpf4jnsgd1na2vs0mg"},{"bike_id":"0120ce96-ab9e-4fa7-8a66-5a46650c664a","system_id":"levelo_inurba_marseille","lat":43.29894,"lon":5.38139,"is_reserved":false,"is_disabled":false,"rental_uris":{"android":"levelo://app?vid=0120ce96-ab9e-4fa7-8a66-5a46650c664a","ios":"levelo://app?vid=0120ce96-ab9e-4fa7-8a66-5a46650c664a"},"vehicle_type_id":"4","last_reported":1761595717,"current_range_meters":19600,"station_id":"ce4bgj12rcd13ifvqbc0","pricing_plan_id":"cebpf4jnsgd1na2vs0mg"},{"bike_id":"c5357aaa-f358-42dd-a7b4-114e2fddc718","system_id":"levelo_inurba_marseille","lat":43.24789,"lon":5.37458,"is_reserved":false,"is_disabled":false,"rental_uris":{"android":"levelo://app?vid=c5357aaa-f358-42dd-a7b4-114e2fddc718","ios":"levelo://app?vid=c5357aaa-f358-42dd-a7b4-114e2fddc718"},"vehicle_type_id":"4","last_reported":1761595717,"current_range_meters":20000,"station_id":"ce4bhgh2rcd13ifvqfb0","pricing_plan_id":"cebpf4jnsgd1na2vs0mg"},{"bike_id":"e00a5637-7ff1-4c27-b189-efba53dc7fa3","system_id":"levelo_inurba_marseille","lat":43.25089,"lon":5.39518,"is_reserved":false,"is_disabled":false,"rental_uris":{"android":"levelo://app?vid=e00a5637-7ff1-4c27-b189-efba53dc7fa3","ios":"levelo://app?vid=e00a5637-7ff1-4c27-b189-efba53dc7fa3"},"vehicle_type_id":"4","last_reported":1761595717,"current_range_meters":20000,"station_id":"ce4bhm12rcd13ifvqgkg","pricing_plan_id":"cebpf4jnsgd1na2vs0mg"},{"bike_id":"b17f37ed-d0e9-484f-abe5-5af2b605975d","system_id":"levelo_inurba_marseille","lat":43.29573,"lon":5.3998,"is_reserved":false,"is_disabled":false,"rental_uris":{"android":"levelo://app?vid=b17f37ed-d0e9-484f-abe5-5af2b605975d","ios":"levelo://app?vid=b17f37ed-d0e9-484f-abe5-5af2b605975d"},"vehicle_type_id":"4","last_reported":1761595717,"current_range_meters":20000,"station_id":"ce4bh312rcd13ifvqdj0","pricing_plan_id":"cebpf4jnsgd1na2vs0mg"},