{"last_updated":1730311965,"ttl":60,"version":"2.2","data":{"bikes":[{"bike_id":"44715be6-d9a2-4d96-b597-08ce001869fc","system_id":"levelo_inurba_marseille","lat":43.33022,"lon":5.39046,"is_reserved":false,"is_disabled":false,"rental_uris":{"android":"levelo://app?vid=44715be6-d9a2-4d96-b597-08ce001869fc","ios":"levelo://app?vid=44715be6-d9a2-4d96-b597-08ce001869fc"},"vehicle_type_id":"4","last_reported":1730311965,"current_range_meters":19200,"station_id":"ce4bhr92rcd13ifvqhrg","pricing_plan_id":"cebpf4jnsgd1na2vs0mg"},{"bike_id":"5754751f-aef2-450a-baa1-25615aec4aa5","system_id":"levelo_inurba_marseille","lat":43.28445,"lon":5.392,"is_reserved":false,"is_disabled":false,"rental_uris":{"android":"levelo://app?vid=5754751f-aef2-450a-baa1-25615aec4aa5","ios":"levelo://app?vid=5754751f-aef2-450a-baa1-25615aec4aa5"},"vehicle_type_id":"4","last_reported":1730311965,"current_range_meters":19600,"station_id":"ce4bhoh2rcd13ifvqh5g","pricing_plan_id":"cebpf4jnsgd1na2vs0mg"},{"bike_id":"97dbf3f2-1285-42c6-91e1-621071f6688d","system_id":"levelo_inurba_marseille","lat":43.29303,"lon":5.37467,"is_reserved":false,"is_disabled":false,"rental_uris":{"android":"levelo://app?vid=97dbf3f2-1285-42c6-91e1-621071f6688d","ios":"levelo://app?vid=97dbf3f2-1285-42c6-91e1-621071f6688d"},"vehicle_type_id":"4","last_reported":1730311965,"current_range_meters":6400,"station_id":"ce4bgi12rcd13ifvqb70","pricing_plan_id":"cebpf4jnsgd1na2vs0mg"},{"bike_id":"0de6ca80-f2d2-47d7-817f-04e1396a1291","system_id":"levelo_inurba_marseille","lat":43.29419,"lon":5.3862,"is_reserved":false,"is_disabled":false,"rental_uris":{"android":"levelo://app?vid=0de6ca80-f2d2-47d7-817f-04e1396a1291","ios":"levelo://app?vid=0de6ca80-f2d2-47d7-817f-04e1396a1291"},"vehicle_type_id":"4","last_reported":1730311965,"current_range_meters":17600,"station_id":"ce4bh2h2rcd13ifvqdh0","pricing_plan_id":"cebpf4jnsgd1na2vs0mg"},{"bike_id":"6351ae34-5bfb-4585-a45e-d5957ee1b2d8","system_id":"levelo_inurba_marseille","lat":43.27815,"lon":5.40721,"is_reserved":false,"is_disabled":false,"rental_uris":{"android":"levelo://app?vid=6351ae34-5bfb-4585-a45e-d5957ee1b2d8","ios":"levelo://app?vid=6351ae34-5bfb-4585-a45e-d5957ee1b2d8"},"vehicle_type_id":"4","last_reported":1730311965,"current_range_meters":39200,"station_id":"ce4bhnh2rcd13ifvqgtg","pricing_plan_id":"cebpf4jnsgd1na2vs0mg"},{"bike_id":"df1d4e22-eee4-4498-9b42-7ffbda26b493","system_id":"levelo_inurba_marseille","lat":43.22936,"lon":5.35382,"is_reserved":false,"is_disabled":false,"rental_uris":{"android":"levelo://app?vid=df1d4e22-eee4-4498-9b42-7ffbda26b493","ios":"levelo://app?vid=df1d4e22-eee4-4498-9b42-7ffbda26b493"},"vehicle_type_id":"4","last_reported":1730311965,"current_range_meters":38800,"station_id":"cpo3532slgdg3j2ikp40","pricing_plan_id":"cebpf4jnsgd1na2vs0mg"},{"bike_id":"ca881efa-3da9-4275-b02e-ade35ca4fb22","system_id":"levelo_inurba_marseille","lat":43.29018,"lon":5.38135,"is_reserved":false,"is_disabled":false,"rental_uris":{"android":"levelo://app?vid=ca881efa-3da9-4275-b02e-ade35ca4fb22","ios":"levelo://app?vid=ca881efa-3da9-4275-b02e-ade35ca4fb22"},"vehicle_type_id":"4","last_reported":1730311965,"current_range_meters":39200,"station_id":"ce4bh4p2rcd13ifvqe1g","pricing_plan_id":"cebpf4jnsgd1na2vs0mg"},{"bike_id":"5b948c2c-3cd6-492d-a1e8-48da2bd34cbf","system_id":"levelo_inurba_marseille","lat":43.2985,"lon":5.36284,"is_reserved":false,"is_disabled":false,"rental_uris":{"android":"levelo://app?vid=5b948c2c-3cd6-492d-a1e8-48da2bd34cbf","ios":"levelo://app?vid=5b948c2c-3cd6-492d-a1e8-48da2bd34cbf"},"vehicle_type_id":"4","last_reported":1730311965,"current_range_meters":38800,"station_id":"ce4bgpp2rcd13ifvqc3g","pricing_plan_id":"cebpf4jnsgd1na2vs0mg"},{"bike_id":"d95e1778-c026-4417-abab-07f94db85611","system_id":"levelo_inurba_marseille","lat":43.29304,"lon":5.37459,"is_reserved":false,"is_disabled":false,"rental_uris":{"android":"levelo://app?vid=d95e1778-c026-4417-abab-07f94db85611","ios":"levelo://app?vid=d95e1778-c026-4417-abab-07f94db85611"},"vehicle_type_id":"4","last_reported":1730311965,"current_range_meters":27200,"station_id":"ce4bgi12rcd13ifvqb70","pricing_plan_id":"cebpf4jnsgd1na2vs0mg"},{"bike_id":"3895f96b-3979-4778-905b-b04cdcc53508","system_id":"levelo_inurba_marseille","lat":43.290309,"lon":5.386572,"is_reserved":false,"is_disabled":false,"rental_uris":{"android":"levelo://app?vid=3895f96b-3979-4778-905b-b04cdcc53508","ios":"levelo://app?vid=3895f96b-3979-4778-905b-b04cdcc53508"},"vehicle_type_id":"4","last_reported":1730311965,"current_range_meters":22400,"station_id":"ce4bgkh2rcd13ifvqbk0","pricing_plan_id":"cebpf4jnsgd1na2vs0mg"},{"bike_id":"bbf8f708-5e9b-41bf-bc19-afef39d244c3","system_id":"levelo_inurba_marseille","lat":43.27499,"lon":5.42448,"is_reserved":false,"is_disabled":false,"rental_uris":{"android":"levelo://app?vid=bbf8f708-5e9b-41bf-bc19-afef39d244c3","ios":"levelo://app?vid=bbf8f708-5e9b-41bf-bc19-afef39d244c3"},"vehicle_type_id":"4","last_reported":1730311965,"current_range_meters":16000,"station_id":"ce4bhn92rcd13ifvqgrg","pricing_plan_id":"cebpf4jnsgd1na2vs0mg"},{"bike_id":"4075e605-7e2d-4335-883e-4292dc011012","system_id":"levelo_inurba_marseille","lat":43.23962,"lon":5.36629,"is_reserved":false,"is_disabled":false,"rental_uris":{"android":"levelo://app?vid=4075e605-7e2d-4335-883e-4292dc011012","ios":"levelo://app?vid=4075e605-7e2d-4335-883e-4292dc011012"},"vehicle_type_id":"4","last_reported":1730311965,"current_range_meters":8400,"station_id":"ce4bhi12rcd13ifvqfp0","pricing_plan_id":"cebpf4jnsgd1na2vs0mg"},{"bike_id":"f36ac6bc-4990-4266-8eae-a54ce3193ffd","system_id":"levelo_inurba_marseille","lat":43.27498,"lon":5.42451,"is_reserved":false,"is_disabled":false,"rental_uris":{"android":"levelo://app?vid=f36ac6bc-4990-4266-8eae-a54ce3193ffd","ios":"levelo://app?vid=f36ac6bc-4990-4266-8eae-a54ce3193ffd"},"vehicle_type_id":"4","last_reported":1730311965,"current_range_meters":4400,"station_id":"ce4bhn92rcd13ifvqgrg","pricing_plan_id":"cebpf4jnsgd1na2vs0mg"},{"bike_id":"4e8e8b0c-c95f-48b9-bc23-1cc87d87bb95","system_id":"levelo_inurba_marseille","lat":43.30222,"lon":5.39472,"is_reserved":false,"is_disabled":false,"rental_uris":{"android":"levelo://app?vid=4e8e8b0c-c95f-48b9-bc23-1cc87d87bb95","ios":"levelo://app?vid=4e8e8b0c-c95f-48b9-bc23-1cc87d87bb95"},"vehicle_type_id":"4","last_reported":1730311965,"current_range_meters":22400,"station_id":"ce4bh0p2rcd13ifvqd70","pricing_plan_id":"cebpf4jnsgd1na2vs0mg"},{"bike_id":"fe0ef06d-c05e-44fd-bf8e-329a7ae18c7c","system_id":"levelo_inurba_marseille","lat":43.29535,"lon":5.39038,"is_reserved":false,"is_disabled":false,"rental_uris":{"android":"levelo://app?vid=fe0ef06d-c05e-44fd-bf8e-329a7ae18c7c","ios":"levelo://app?vid=fe0ef06d-c05e-44fd-bf8e-329a7ae18c7c"},"vehicle_type_id":"4","last_reported":1730311965,"current_range_meters":2000,"station_id":"ce4bh3p2rcd13ifvqdp0","pricing_plan_id":"cebpf4jnsgd1na2vs0mg"},{"bike_id":"7c6568a7-49ec-403d-a8c7-e1c8431a9b5f","system_id":"levelo_inurba_marseille","lat":43.31359,"lon":5.38495,"is_reserved":false,"is_disabled":false,"rental_uris":{"android":"levelo://app?vid=7c6568a7-49ec-403d-a8c7-e1c8431a9b5f","ios":"levelo://app?vid=7c6568a7-49ec-403d-a8c7-e1c8431a9b5f"},"vehicle_type_id":"4","last_reported":1730311965,"current_range_meters":32800,"station_id":"ce4bgt92rcd13ifvqcf0","pricing_plan_id":"cebpf4jnsgd1na2vs0mg"},{"bike_id":"ab866aa2-b8a0-4a82-bdaa-086274d2735c","system_id":"levelo_inurba_marseille","lat":43.30902,"lon":5.37198,"is_reserved":false,"is_disabled":false,"rental_uris":{"android":"levelo://app?vid=ab866aa2-b8a0-4a82-bdaa-086274d2735c","ios":"levelo://app?vid=ab866aa2-b8a0-4a82-bdaa-086274d2735c"},"vehicle_type_id":"4","last_reported":1730311965,"current_range_meters":21600,"station_id":"ce4bguh2rcd13ifvqckg","pricing_plan_id":"cebpf4jnsgd1na2vs0mg"},{"bike_id":"0a52d1c1-8f6f-4b50-aac6-8604eb20db08","system_id":"levelo_inurba_marseille","lat":43.29189,"lon":5.39319,"is_reserved":false,"is_disabled":false,"rental_uris":{"android":"levelo://app?vid=0a52d1c1-8f6f-4b50-aac6-8604eb20db08","ios":"levelo://app?vid=0a52d1c1-8f6f-4b50-aac6-8604eb20db08"},"vehicle_type_id":"4","last_reported":1730311965,"current_range_meters":33600,"station_id":"ce4bh192rcd13ifvqdd0","pricing_plan_id":"cebpf4jnsgd1na2vs0mg"},{"bike_id":"8bdd3ce0-1e5f-45e2-aca4-a41cacc51905","system_id":"levelo_inurba_marseille","lat":43.30896,"lon":5.37184,"is_reserved":false,"is_disabled":false,"rental_uris":{"android":"levelo://app?vid=8bdd3ce0-1e5f-45e2-aca4-a41cacc51905","ios":"levelo://app?vid=8bdd3ce0-1e5f-45e2-aca4-a41cacc51905"},"vehicle_type_id":"4","last_reported":1730311965,"current_range_meters":3200,"station_id":"ce4bguh2rcd13ifvqckg","pricing_plan_id":"cebpf4jnsgd1na2vs0mg"},{"bike_id":"5531097d-d00b-4d5b-9ead-fc5a22eb778a","system_id":"levelo_inurba_marseille","lat":43.2927,"lon":5.3844,"is_reserved":false,"is_disabled":false,"rental_uris":{"android":"levelo://app?vid=5531097d-d00b-4d5b-9ead-fc5a22eb778a","ios":"levelo://app?vid=5531097d-d00b-4d5b-9ead-fc5a22eb778a"},"vehicle_type_id":"4","last_reported":1730311965,"current_range_meters":5600,"station_id":"ce4bh692rcd13ifvqea0","pricing_plan_id":"cebpf4jnsgd1na2vs0mg"},{"bike_id":"e1bf10c8-9a43-4d89-bca4-38c0c64f2715","system_id":"levelo_inurba_marseille","lat":43.290009,"lon":5.356191,"is_reserved":false,"is_disabled":false,"rental_uris":{"android":"levelo://app?vid=e1bf10c8-9a43-4d89-bca4-38c0c64f2715","ios":"levelo://app?vid=e1bf10c8-9a43-4d89-bca4-38c0c64f2715"},"vehicle_type_id":"4","last_reported":1730311965,"current_range_meters":8000,"station_id":"ce4bhb92rcd13ifvqen0","pricing_plan_id":"cebpf4jnsgd1na2vs0mg"},{"bike_id":"7453b1a8-93f1-4692-8261-659392084231","system_id":"levelo_inurba_marseille","lat":43.2707,"lon":5.42277,"is_reserved":false,"is_disabled":false,"rental_uris":{"android":"levelo://app?vid=7453b1a8-93f1-4692-8261-659392084231","ios":"levelo://app?vid=7453b1a8-93f1-4692-8261-659392084231"},"vehicle_type_id":"4","last_reported":1730311965,"current_range_meters":10000,"station_id":"ce4bhk92rcd13ifvqgb0","pricing_plan_id":"cebpf4jnsgd1na2vs0mg"},{"bike_id":"a8ba3306-3080-4b05-b7a6-fb2337ca2d02","system_id":"levelo_inurba_marseille","lat":43.27069,"lon":5.4228,"is_reserved":false,"is_disabled":false,"rental_uris":{"android":"levelo://app?vid=a8ba3306-3080-4b05-b7a6-fb2337ca2d02","ios":"levelo://app?vid=a8ba3306-3080-4b05-b7a6-fb2337ca2d02"},"vehicle_type_id":"4","last_reported":1730311965,"current_range_meters":8400,"station_id":"ce4bhk92rcd13ifvqgb0","pricing_plan_id":"cebpf4jnsgd1na2vs0mg"},{"bike_id":"e5fb6027-a407-478b-bdd4-8b3e44ef0bcc","system_id":"levelo_inurba_marseille","lat":43.2926,"lon":5.38441,"is_reserved":false,"is_disabled":false,"rental_uris":{"android":"levelo://app?vid=e5fb6027-a407-478b-bdd4-8b3e44ef0bcc","ios":"levelo://app?vid=e5fb6027-a407-478b-bdd4-8b3e44ef0bcc"},"vehicle_type_id":"4","last_reported":1730311965,"current_range_meters":36000,"station_id":"ce4bh692rcd13ifvqea0","pricing_plan_id":"cebpf4jnsgd1na2vs0mg"},{"bike_id":"50e03f4d-2a63-4ff2-9f9a-60f49e4a3a4d","system_id":"levelo_inurba_marseille","lat":43.31217,"lon":5.36864,"is_reserved":false,"is_disabled":false,"rental_uris":{"android":"levelo://app?vid=50e03f4d-2a63-4ff2-9f9a-60f49e4a3a4d","ios":"levelo://app?vid=50e03f4d-2a63-4ff2-9f9a-60f49e4a3a4d"},"vehicle_type_id":"4","last_reported":1730311965,"current_range_meters":28400,"station_id":"ce4bgl92rcd13ifvqbq0","pricing_plan_id":"cebpf4jnsgd1na2vs0mg"},{"bike_id":"42e61598-64ce-4f84-97eb-90c09ebd9abe","system_id":"levelo_inurba_marseille","lat":43.23191,"lon":5.39995,"is_reserved":false,"is_disabled":false,"rental_uris":{"android":"levelo://app?vid=42e61598-64ce-4f84-97eb-90c09ebd9abe","ios":"levelo://app?vid=42e61598-64ce-4f84-97eb-90c09ebd9abe"},"vehicle_type_id":"4","last_reported":1730311965,"current_range_meters":20800,"station_id":"ce4bhn12rcd13ifvqgqg","pricing_plan_id":"cebpf4jnsgd1na2vs0mg"},{"bike_id":"a9d7e6e9-c401-45bf-95b8-6d2f12471466","system_id":"levelo_inurba_marseille","lat":43.29532,"lon":5.3854,"is_reserved":false,"is_disabled":false,"rental_uris":{"android":"levelo://app?vid=a9d7e6e9-c401-45bf-95b8-6d2f12471466","ios":"levelo://app?vid=a9d7e6e9-c401-45bf-95b8-6d2f12471466"},"vehicle_type_id":"4","last_reported":1730311965,"current_range_meters":6000,"station_id":"ce4bgih2rcd13ifvqba0","pricing_plan_id":"cebpf4jnsgd1na2vs0mg"},{"bike_id":"ed6af00b-5716-4d0b-95ea-43fd800a0cc8","system_id":"levelo_inurba_marseille","lat":43.30911,"lon":5.36846,"is_reserved":false,"is_disabled":false,"rental_uris":{"android":"levelo://app?vid=ed6af00b-5716-4d0b-95ea-43fd800a0cc8","ios":"levelo://app?vid=ed6af00b-5716-4d0b-95ea-43fd800a0cc8"},"vehicle_type_id":"4","last_reported":1730311965,"current_range_meters":30800,"station_id":"ce4bgn92rcd13ifvqbvg","pricing_plan_id":"cebpf4jnsgd1na2vs0mg"},{"bike_id":"a65b7600-bc14-4cb1-bd98-91e0257743b9","system_id":"levelo_inurba_marseille","lat":43.24071,"lon":5.37754,"is_reserved":false,"is_disabled":false,"rental_uris":{"android":"levelo://app?vid=a65b7600-bc14-4cb1-bd98-91e0257743b9","ios":"levelo://app?vid=a65b7600-bc14-4cb1-bd98-91e0257743b9"},"vehicle_type_id":"4","last_reported":1730311965,"current_range_meters":8800,"station_id":"ce4bhnp2rcd13ifvqgvg","pricing_plan_id":"cebpf4jnsgd1na2vs0mg"},{"bike_id":"85a42184-42a5-4549-b2a6-c9b657f791f6","system_id":"levelo_inurba_marseille","lat":43.29271,"lon":5.38445,"is_reserved":false,"is_disabled":false,"rental_uris":{"android":"levelo://app?vid=85a42184-42a5-4549-b2a6-c9b657f791f6","ios":"levelo://app?vid=85a42184-42a5-4549-b2a6-c9b657f791f6"},"vehicle_type_id":"4","last_reported":1730311965,"current_range_meters":9600,"station_id":"ce4bh692rcd13ifvqea0","pricing_plan_id":"cebpf4jnsgd1na2vs0mg"},{"bike_id":"70bb78fe-4bef-4d56-a833-affc0bdfc9f3","system_id":"levelo_inurba_marseille","lat":43.23196,"lon":5.35555,"is_reserved":false,"is_disabled":false,"rental_uris":{"android":"levelo://app?vid=70bb78fe-4bef-4d56-a833-affc0bdfc9f3","ios":"levelo://app?vid=70bb78fe-4bef-4d56-a833-affc0bdfc9f3"},"vehicle_type_id":"4","last_reported":1730311965,"current_range_meters":40000,"station_id":"ce4bhu92rcd13ifvqi70","pricing_plan_id":"cebpf4jnsgd1na2vs0mg"},{"bike_id":"c24b1b71-8503-4383-b487-f7f9a744b14c","system_id":"levelo_inurba_marseille","lat":43.290283,"lon":5.386551,"is_reserved":false,"is_disabled":false,"rental_uris":{"android":"levelo://app?vid=c24b1b71-8503-4383-b487-f7f9a744b14c","ios":"levelo://app?vid=c24b1b71-8503-4383-b487-f7f9a744b14c"},"vehicle_type_id":"4","last_reported":1730311965,"current_range_meters":36800,"station_id":"ce4bh4p2rcd13ifvqe0g","pricing_plan_id":"cebpf4jnsgd1na2vs0mg"},{"bike_id":"670c207f-4e7a-4837-bb16-952be3b6fa69","system_id":"levelo_inurba_marseille","lat":43.29513,"lon":5.39401,"is_reserved":false,"is_disabled":false,"rental_uris":{"android":"levelo://app?vid=670c207f-4e7a-4837-bb16-952be3b6fa69","ios":"levelo://app?vid=670c207f-4e7a-4837-bb16-952be3b6fa69"},"vehicle_type_id":"4","last_reported":1730311965,"current_range_meters":8400,"station_id":"ce4bh292rcd13ifvqdf0","pricing_plan_id":"cebpf4jnsgd1na2vs0mg"},{"bike_id":"dacc2c28-0d92-455a-bc27-97f14e35045e","system_id":"levelo_inurba_marseille","lat":43.29531,"lon":5.38542,"is_reserved":false,"is_disabled":false,"rental_uris":{"android":"levelo://app?vid=dacc2c28-0d92-455a-bc27-97f14e35045e","ios":"levelo://app?vid=dacc2c28-0d92-455a-bc27-97f14e35045e"},"vehicle_type_id":"4","last_reported":1730311965,"current_range_meters":32000,"station_id":"ce4bgih2rcd13ifvqba0","pricing_plan_id":"cebpf4jnsgd1na2vs0mg"},{"bike_id":"5c244c3d-8fd7-4c95-b825-2f7fe2f15994","system_id":"levelo_inurba_marseille","lat":43.23195,"lon":5.35553,"is_reserved":false,"is_disabled":false,"rental_uris":{"android":"levelo://app?vid=5c244c3d-8fd7-4c95-b825-2f7fe2f15994","ios":"levelo://app?vid=5c244c3d-8fd7-4c95-b825-2f7fe2f15994"},"vehicle_type_id":"4","last_reported":1730311965,"current_range_meters":40000,"station_id":"ce4bhu92rcd13ifvqi70","pricing_plan_id":"cebpf4jnsgd1na2vs0mg"},{"bike_id":"7d1fe817-f784-45b3-a7f6-2e79abcfa29c","system_id":"levelo_inurba_marseille","lat":43.337444,"lon":5.374475,"is_reserved":false,"is_disabled":false,"rental_uris":{"android":"levelo://app?vid=7d1fe817-f784-45b3-a7f6-2e79abcfa29c","ios":"levelo://app?vid=7d1fe817-f784-45b3-a7f6-2e79abcfa29c"},"vehicle_type_id":"4","last_reported":1730311965,"current_range_meters":38400,"station_id":"","pricing_plan_id":"cebpf4jnsgd1na2vs0mg"},{"bike_id":"ca63b70d-762a-4999-b6f5-8d5bbd1cd3a9","system_id":"levelo_inurba_marseille","lat":43.29191,"lon":5.3581,"is_reserved":false,"is_disabled":false,"rental_uris":{"android":"levelo://app?vid=ca63b70d-762a-4999-b6f5-8d5bbd1cd3a9","ios":"levelo://app?vid=ca63b70d-762a-4999-b6f5-8d5bbd1cd3a9"},"vehicle_type_id":"4","last_reported":1730311965,"current_range_meters":4400,"station_id":"ce4bhb12rcd13ifvqel0","pricing_plan_id":"cebpf4jnsgd1na2vs0mg"},{"bike_id":"571906f3-40eb-4776-ab76-482a90517a08","system_id":"levelo_inurba_marseille","lat":43.30541,"lon":5.38427,"is_reserved":false,"is_disabled":false,"rental_uris":{"android":"levelo://app?vid=571906f3-40eb-4776-ab76-482a90517a08","ios":"levelo://app?vid=571906f3-40eb-4776-ab76-482a90517a08"},"vehicle_type_id":"4","last_reported":1730311965,"current_range_meters":7200,"station_id":"ce4bgg92rcd13ifvqb30","pricing_plan_id":"cebpf4jnsgd1na2vs0mg"},{"bike_id":"c05331ae-b46a-4ca2-a2ab-37871a7c6791","system_id":"levelo_inurba_marseille","lat":43.28717,"lon":5.37947,"is_reserved":false,"is_disabled":false,"rental_uris":{"android":"levelo://app?vid=c05331ae-b46a-4ca2-a2ab-37871a7c6791","ios":"levelo://app?vid=c05331ae-b46a-4ca2-a2ab-37871a7c6791"},"vehicle_type_id":"4","last_reported":1730311965,"current_range_meters":26800,"station_id":"ce4bh9p2rcd13ifvqec0","pricing_plan_id":"cebpf4jnsgd1na2vs0mg"},{"bike_id":"4a8628e4-59e8-40c2-bd38-f6282f230a47","system_id":"levelo_inurba_marseille","lat":43.29591,"lon":5.38094,"is_reserved":false,"is_disabled":false,"rental_uris":{"android":"levelo://app?vid=4a8628e4-59e8-40c2-bd38-f6282f230a47","ios":"levelo://app?vid=4a8628e4-59e8-40c2-bd38-f6282f230a47"},"vehicle_type_id":"4","last_reported":1730311965,"current_range_meters":4000,"station_id":"ce4bgl12rcd13ifvqbo0","pricing_plan_id":"cebpf4jnsgd1na2vs0mg"},{"bike_id":"1a5d5284-46cf-4207-8167-7bfc47014091","system_id":"levelo_inurba_marseille","lat":43.25831,"lon":5.39438,"is_reserved":false,"is_disabled":false,"rental_uris":{"android":"levelo://app?vid=1a5d5284-46cf-4207-8167-7bfc47014091","ios":"levelo://app?vid=1a5d5284-46cf-4207-8167-7bfc47014091"},"vehicle_type_id":"4","last_reported":1730311965,"current_range_meters":11200,"station_id":"ce4bhip2rcd13ifvqft0","pricing_plan_id":"cebpf4jnsgd1na2vs0mg"},{"bike_id":"b7cc8da0-2725-4bc2-9bf9-72af2c1e90e7","system_id":"levelo_inurba_marseille","lat":43.28276,"lon":5.35082,"is_reserved":false,"is_disabled":false,"rental_uris":{"android":"levelo://app?vid=b7cc8da0-2725-4bc2-9bf9-72af2c1e90e7","ios":"levelo://app?vid=b7cc8da0-2725-4bc2-9bf9-72af2c1e90e7"},"vehicle_type_id":"4","last_reported":1730311965,"current_range_meters":38800,"station_id":"ce4bhbp2rcd13ifvqerg","pricing_plan_id":"cebpf4jnsgd1na2vs0mg"},{"bike_id":"92adf987-4779-4b78-ad9c-8e29ab9175f3","system_id":"levelo_inurba_marseille","lat":43.23195,"lon":5.35542,"is_reserved":false,"is_disabled":false,"rental_uris":{"android":"levelo://app?vid=92adf987-4779-4b78-ad9c-8e29ab9175f3","ios":"levelo://app?vid=92adf987-4779-4b78-ad9c-8e29ab9175f3"},"vehicle_type_id":"4","last_reported":1730311965,"current_range_meters":11200,"station_id":"ce4bhu92rcd13ifvqi70","pricing_plan_id":"cebpf4jnsgd1na2vs0mg"},{"bike_id":"0d9e2dc0-7e48-44a4-9d02-16fb20798af5","system_id":"levelo_inurba_marseille","lat":43.23177,"lon":5.39986,"is_reserved":false,"is_disabled":false,"rental_uris":{"android":"levelo://app?vid=0d9e2dc0-7e48-44a4-9d02-16fb20798af5","ios":"levelo://app?vid=0d9e2dc0-7e48-44a4-9d02-16fb20798af5"},"vehicle_type_id":"4","last_reported":1730311965,"current_range_meters":16400,"station_id":"ce4bhn12rcd13ifvqgqg","pricing_plan_id":"cebpf4jnsgd1na2vs0mg"},{"bike_id":"ce2310f1-0848-4180-8bb1-c79c12d253ca","system_id":"levelo_inurba_marseille","lat":43.3375,"lon":5.37452,"is_reserved":false,"is_disabled":false,"rental_uris":{"android":"levelo://app?vid=ce2310f1-0848-4180-8bb1-c79c12d253ca","ios":"levelo://app?vid=ce2310f1-0848-4180-8bb1-c79c12d253ca"},"vehicle_type_id":"4","last_reported":1730311965,"current_range_meters":35200,"station_id":"","pricing_plan_id":"cebpf4jnsgd1na2vs0mg"},{"bike_id":"c784c62e-2ba1-4644-a243-f0dcaa3f554e","system_id":"levelo_inurba_marseille","lat":43.27616,"lon":5.3611,"is_reserved":false,"is_disabled":false,"rental_uris":{"android":"levelo://app?vid=c784c62e-2ba1-4644-a243-f0dcaa3f554e","ios":"levelo://app?vid=c784c62e-2ba1-4644-a243-f0dcaa3f554e"},"vehicle_type_id":"4","last_reported":1730311965,"current_range_meters":38400,"station_id":"ce4bgj92rcd13ifvqbe0","pricing_plan_id":"cebpf4jnsgd1na2vs0mg"},{"bike_id":"002dc367-d8ea-46cb-b916-10403bf80fbe","system_id":"levelo_inurba_marseille","lat":43.24846,"lon":5.3817,"is_reserved":false,"is_disabled":false,"rental_uris":{"android":"levelo://app?vid=002dc367-d8ea-46cb-b916-10403bf80fbe","ios":"levelo://app?vid=002dc367-d8ea-46cb-b916-10403bf80fbe"},"vehicle_type_id":"4","last_reported":1730311965,"current_range_meters":2800,"station_id":"","pricing_plan_id":"cebpf4jnsgd1na2vs0mg"},{"bike_id":"23022d2f-0e40-4eff-9608-2ce8f17a88ca","system_id":"levelo_inurba_marseille","lat":43.29421,"lon":5.38622,"is_reserved":false,"is_disabled":false,"rental_uris":{"android":"levelo://app?vid=23022d2f-0e40-4eff-9608-2ce8f17a88ca","ios":"levelo://app?vid=23022d2f-0e40-4eff-9608-2ce8f17a88ca"},"vehicle_type_id":"4","last_reported":1730311965,"current_range_meters":35600,"station_id":"ce4bh2h2rcd13ifvqdh0","pricing_plan_id":"cebpf4jnsgd1na2vs0mg"},{"bike_id":"732b37a6-efdd-47ef-8967-40ea3129b214","system_id":"levelo_inurba_marseille","lat":43.26499,"lon":5.39542,"is_reserved":false,"is_disabled":false,"rental_uris":{"android":"levelo://app?vid=732b37a6-efdd-47ef-8967-40ea3129b214","ios":"levelo://app?vid=732b37a6-efdd-47ef-8967-40ea3129b214"},"vehicle_type_id":"4","last_reported":1730311965,"current_range_meters":2800,"station_id":"ce4bhi12rcd13ifvqfq0","pricing_plan_id":"cebpf4jnsgd1na2vs0mg"},{"bike_id":"269a4193-03a6-4fe1-93c0-2b8610ca1e7f","system_id":"levelo_inurba_marseille","lat":43.24393,"lon":5.37059,"is_reserved":false,"is_disabled":false,"rental_uris":{"android":"levelo://app?vid=269a4193-03a6-4fe1-93c0-2b8610ca1e7f","ios":"levelo://app?vid=269a4193-03a6-4fe1-93c0-2b8610ca1e7f"},"vehicle_type_id":"4","last_reported":1730311965,"current_range_meters":16800,"station_id":"ce4bhhh2rcd13ifvqfk0","pricing_plan_id":"cebpf4jnsgd1na2vs0mg"},{"bike_id":"ec6bf2c6-81ba-4965-828b-92e734ee6e46","system_id":"levelo_inurba_marseille","lat":43.23191,"lon":5.35555,"is_reserved":false,"is_disabled":false,"rental_uris":{"android":"levelo://app?vid=ec6bf2c6-81ba-4965-828b-92e734ee6e46","ios":"levelo://app?vid=ec6bf2c6-81ba-4965-828b-92e734ee6e46"},"vehicle_type_id":"4","last_reported":1730311965,"current_range_meters":28000,"station_id":"ce4bhu92rcd13ifvqi70","pricing_plan_id":"cebpf4jnsgd1na2vs0mg"},{"bike_id":"7579fcfc-954e-4570-bc27-015419bda3ea","system_id":"levelo_inurba_marseille","lat":43.28935,"lon":5.36393,"is_reserved":false,"is_disabled":false,"rental_uris":{"android":"levelo://app?vid=7579fcfc-954e-4570-bc27-015419bda3ea","ios":"levelo://app?vid=7579fcfc-954e-4570-bc27-015419bda3ea"},"vehicle_type_id":"4","last_reported":1730311965,"current_range_meters":14000,"station_id":"ce4bhc92rcd13ifvqetg","pricing_plan_id":"cebpf4jnsgd1na2vs0mg"},{"bike_id":"dfc15097-286b-4a19-888e-24b66d859567","system_id":"levelo_inurba_marseille","lat":43.26819,"lon":5.41116,"is_reserved":false,"is_disabled":false,"rental_uris":{"android":"levelo://app?vid=dfc15097-286b-4a19-888e-24b66d859567","ios":"levelo://app?vid=dfc15097-286b-4a19-888e-24b66d859567"},"vehicle_type_id":"4","last_reported":1730311965,"current_range_meters":14000,"station_id":"","pricing_plan_id":"cebpf4jnsgd1na2vs0mg"},{"bike_id":"d491b133-8b8a-4429-862c-f3651ad64e53","system_id":"levelo_inurba_marseille","lat":43.25582,"lon":5.38241,"is_reserved":false,"is_disabled":false,"rental_uris":{"android":"levelo://app?vid=d491b133-8b8a-4429-862c-f3651ad64e53","ios":"levelo://app?vid=d491b133-8b8a-4429-862c-f3651ad64e53"},"vehicle_type_id":"4","last_reported":1730311965,"current_range_meters":40000,"station_id":"ce4bhih2rcd13ifvqfs0","pricing_plan_id":"cebpf4jnsgd1na2vs0mg"},{"bike_id":"6ad783cb-41da-4545-85fe-6fd00e6a9ab3","system_id":"levelo_inurba_marseille","lat":43.29021,"lon":5.3863,"is_reserved":false,"is_disabled":false,"rental_uris":{"android":"levelo://app?vid=6ad783cb-41da-4545-85fe-6fd00e6a9ab3","ios":"levelo://app?vid=6ad783cb-41da-4545-85fe-6fd00e6a9ab3"},"vehicle_type_id":"4","last_reported":1730311965,"current_range_meters":30800,"station_id":"ce4bh4p2rcd13ifvqe0g","pricing_plan_id":"cebpf4jnsgd1na2vs0mg"},{"bike_id":"319156f6-71f8-41c1-b028-2ea5fd7c4b95","system_id":"levelo_inurba_marseille","lat":43.27172,"lon":5.40993,"is_reserved":false,"is_disabled":false,"rental_uris":{"android":"levelo://app?vid=319156f6-71f8-41c1-b028-2ea5fd7c4b95","ios":"levelo://app?vid=319156f6-71f8-41c1-b028-2ea5fd7c4b95"},"vehicle_type_id":"4","last_reported":1730311965,"current_range_meters":31200,"station_id":"ce4bhl12rcd13ifvqgf0","pricing_plan_id":"cebpf4jnsgd1na2vs0mg"},{"bike_id":"e07927bd-2afb-49cf-8c8f-42062479d58a","system_id":"levelo_inurba_marseille","lat":43.29265,"lon":5.38446,"is_reserved":false,"is_disabled":false,"rental_uris":{"android":"levelo://app?vid=e07927bd-2afb-49cf-8c8f-42062479d58a","ios":"levelo://app?vid=e07927bd-2afb-49cf-8c8f-42062479d58a"},"vehicle_type_id":"4","last_reported":1730311965,"current_range_meters":6400,"station_id":"ce4bh692rcd13ifvqea0","pricing_plan_id":"cebpf4jnsgd1na2vs0mg"},{"bike_id":"436a6a69-d3b4-4bdf-8c98-78260ced3e10","system_id":"levelo_inurba_marseille","lat":43.28703,"lon":5.37395,"is_reserved":false,"is_disabled":false,"rental_uris":{"android":"levelo://app?vid=436a6a69-d3b4-4bdf-8c98-78260ced3e10","ios":"levelo://app?vid=436a6a69-d3b4-4bdf-8c98-78260ced3e10"},"vehicle_type_id":"4","last_reported":1730311965,"current_range_meters":8800,"station_id":"ce4bh3p2rcd13ifvqdq0","pricing_plan_id":"cebpf4jnsgd1na2vs0mg"},{"bike_id":"e3cc1b61-a693-46b5-938d-d7aa2113f79f","system_id":"levelo_inurba_marseille","lat":43.30129,"lon":5.38782,"is_reserved":false,"is_disabled":false,"rental_uris":{"android":"levelo://app?vid=e3cc1b61-a693-46b5-938d-d7aa2113f79f","ios":"levelo://app?vid=e3cc1b61-a693-46b5-938d-d7aa2113f79f"},"vehicle_type_id":"4","last_reported":1730311965,"current_range_meters":8800,"station_id":"ce4bghh2rcd13ifvqb60","pricing_plan_id":"cebpf4jnsgd1na2vs0mg"},{"bike_id":"fe5a4f25-ed16-41fe-8b56-64c8fd315a7b","system_id":"levelo_inurba_marseille","lat":43.308,"lon":5.43533,"is_reserved":false,"is_disabled":false,"rental_uris":{"android":"levelo://app?vid=fe5a4f25-ed16-41fe-8b56-64c8fd315a7b","ios":"levelo://app?vid=fe5a4f25-ed16-41fe-8b56-64c8fd315a7b"},"vehicle_type_id":"4","last_reported":1730311965,"current_range_meters":38800,"station_id":"ce4bhph2rcd13ifvqheg","pricing_plan_id":"cebpf4jnsgd1na2vs0mg"},{"bike_id":"2370a04e-d358-4a29-b67a-890bf50b34fd","system_id":"levelo_inurba_marseille","lat":43.24171,"lon":5.36403,"is_reserved":false,"is_disabled":false,"rental_uris":{"android":"levelo://app?vid=2370a04e-d358-4a29-b67a-890bf50b34fd","ios":"levelo://app?vid=2370a04e-d358-4a29-b67a-890bf50b34fd"},"vehicle_type_id":"4","last_reported":1730311965,"current_range_meters":5600,"station_id":"cpo36qri1sfpv3e86is0","pricing_plan_id":"cebpf4jnsgd1na2vs0mg"},{"bike_id":"7b89241e-368d-47c7-ad87-cd72fb278ebd","system_id":"levelo_inurba_marseille","lat":43.29028,"lon":5.38146,"is_reserved":false,"is_disabled":false,"rental_uris":{"android":"levelo://app?vid=7b89241e-368d-47c7-ad87-cd72fb278ebd","ios":"levelo://app?vid=7b89241e-368d-47c7-ad87-cd72fb278ebd"},"vehicle_type_id":"4","last_reported":1730311965,"current_range_meters":38800,"station_id":"ce4bh4p2rcd13ifvqe1g","pricing_plan_id":"cebpf4jnsgd1na2vs0mg"},{"bike_id":"f5a7ede9-b093-459c-a70f-bef048e2d6c9","system_id":"levelo_inurba_marseille","lat":43.28932,"lon":5.38395,"is_reserved":false,"is_disabled":false,"rental_uris":{"android":"levelo://app?vid=f5a7ede9-b093-459c-a70f-bef048e2d6c9","ios":"levelo://app?vid=f5a7ede9-b093-459c-a70f-bef048e2d6c9"},"vehicle_type_id":"4","last_reported":1730311965,"current_range_meters":5600,"station_id":"ce4bh612rcd13ifvqe6g","pricing_plan_id":"cebpf4jnsgd1na2vs0mg"},{"bike_id":"32beba5c-b9b1-4933-b407-1dae15900b29","system_id":"levelo_inurba_marseille","lat":43.29522,"lon":5.39402,"is_reserved":false,"is_disabled":false,"rental_uris":{"android":"levelo://app?vid=32beba5c-b9b1-4933-b407-1dae15900b29","ios":"levelo://app?vid=32beba5c-b9b1-4933-b407-1dae15900b29"},"vehicle_type_id":"4","last_reported":1730311965,"current_range_meters":28000,"station_id":"ce4bh292rcd13ifvqdf0","pricing_plan_id":"cebpf4jnsgd1na2vs0mg"},{"bike_id":"47704b2e-29f9-420a-a1ce-d21ab16c627d","system_id":"levelo_inurba_marseille","lat":43.28358,"lon":5.38098,"is_reserved":false,"is_disabled":false,"rental_uris":{"android":"levelo://app?vid=47704b2e-29f9-420a-a1ce-d21ab16c627d","ios":"levelo://app?vid=47704b2e-29f9-420a-a1ce-d21ab16c627d"},"vehicle_type_id":"4","last_reported":1730311965,"current_range_meters":8400,"station_id":"ce4bh412rcd13ifvqdr0","pricing_plan_id":"cebpf4jnsgd1na2vs0mg"},{"bike_id":"03e26363-1adc-494c-8098-91070571fba5","system_id":"levelo_inurba_marseille","lat":43.232,"lon":5.35556,"is_reserved":false,"is_disabled":false,"rental_uris":{"android":"levelo://app?vid=03e26363-1adc-494c-8098-91070571fba5","ios":"levelo://app?vid=03e26363-1adc-494c-8098-91070571fba5"},"vehicle_type_id":"4","last_reported":1730311965,"current_range_meters":29600,"station_id":"ce4bhu92rcd13ifvqi70","pricing_plan_id":"cebpf4jnsgd1na2vs0mg"},{"bike_id":"9ef39e10-3ba3-4156-ac4a-7970df6873af","system_id":"levelo_inurba_marseille","lat":43.26996,"lon":5.39869,"is_reserved":false,"is_disabled":false,"rental_uris":{"android":"levelo://app?vid=9ef39e10-3ba3-4156-ac4a-7970df6873af","ios":"levelo://app?vid=9ef39e10-3ba3-4156-ac4a-7970df6873af"},"vehicle_type_id":"4","last_reported":1730311965,"current_range_meters":16400,"station_id":"","pricing_plan_id":"cebpf4jnsgd1na2vs0mg"},{"bike_id":"d16e0ef4-af34-4834-a45a-7b39039ff022","system_id":"levelo_inurba_marseille","lat":43.23199,"lon":5.35549,"is_reserved":false,"is_disabled":false,"rental_uris":{"android":"levelo://app?vid=d16e0ef4-af34-4834-a45a-7b39039ff022","ios":"levelo://app?vid=d16e0ef4-af34-4834-a45a-7b39039ff022"},"vehicle_type_id":"4","last_reported":1730311965,"current_range_meters":11200,"station_id":"ce4bhu92rcd13ifvqi70","pricing_plan_id":"cebpf4jnsgd1na2vs0mg"},{"bike_id":"45f905a7-0621-4689-a8ba-004fd94da039","system_id":"levelo_inurba_marseille","lat":43.26171,"lon":5.37933,"is_reserved":false,"is_disabled":false,"rental_uris":{"android":"levelo://app?vid=45f905a7-0621-4689-a8ba-004fd94da039","ios":"levelo://app?vid=45f905a7-0621-4689-a8ba-004fd94da039"},"vehicle_type_id":"4","last_reported":1730311965,"current_range_meters":38000,"station_id":"ce4bhjp2rcd13ifvqg90","pricing_plan_id":"cebpf4jnsgd1na2vs0mg"},{"bike_id":"9263b85a-f7cb-4d83-b2fc-e581165fc8ec","system_id":"levelo_inurba_marseille","lat":43.30209,"lon":5.39465,"is_reserved":false,"is_disabled":false,"rental_uris":{"android":"levelo://app?vid=9263b85a-f7cb-4d83-b2fc-e581165fc8ec","ios":"levelo://app?vid=9263b85a-f7cb-4d83-b2fc-e581165fc8ec"},"vehicle_type_id":"4","last_reported":1730311965,"current_range_meters":38000,"station_id":"ce4bh0p2rcd13ifvqd70","pricing_plan_id":"cebpf4jnsgd1na2vs0mg"},{"bike_id":"0bc66c84-baaa-43b9-824e-d2d8ca07d5b2","system_id":"levelo_inurba_marseille","lat":43.28567,"lon":5.395,"is_reserved":false,"is_disabled":false,"rental_uris":{"android":"levelo://app?vid=0bc66c84-baaa-43b9-824e-d2d8ca07d5b2","ios":"levelo://app?vid=0bc66c84-baaa-43b9-824e-d2d8ca07d5b2"},"vehicle_type_id":"4","last_reported":1730311965,"current_range_meters":16000,"station_id":"ce4bh292rcd13ifvqdg0","pricing_plan_id":"cebpf4jnsgd1na2vs0mg"},{"bike_id":"7db430bb-6103-4ebd-9717-41ad0c5d31b5","system_id":"levelo_inurba_marseille","lat":43.31715,"lon":5.37744,"is_reserved":false,"is_disabled":false,"rental_uris":{"android":"levelo://app?vid=7db430bb-6103-4ebd-9717-41ad0c5d31b5","ios":"levelo://app?vid=7db430bb-6103-4ebd-9717-41ad0c5d31b5"},"vehicle_type_id":"4","last_reported":1730311965,"current_range_meters":2800,"station_id":"ce4bgth2rcd13ifvqch0","pricing_plan_id":"cebpf4jnsgd1na2vs0mg"},{"bike_id":"203cdc68-feff-483d-ac1a-996e1a200a5a","system_id":"levelo_inurba_marseille","lat":43.27912,"lon":5.39574,"is_reserved":false,"is_disabled":false,"rental_uris":{"android":"levelo://app?vid=203cdc68-feff-483d-ac1a-996e1a200a5a","ios":"levelo://app?vid=203cdc68-feff-483d-ac1a-996e1a200a5a"},"vehicle_type_id":"4","last_reported":1730311965,"current_range_meters":32000,"station_id":"ce4bhf92rcd13ifvqf40","pricing_plan_id":"cebpf4jnsgd1na2vs0mg"},{"bike_id":"92d4b9b3-4096-4c0a-ad25-2bc5d73fc5bf","system_id":"levelo_inurba_marseille","lat":43.301,"lon":5.39073,"is_reserved":false,"is_disabled":false,"rental_uris":{"android":"levelo://app?vid=92d4b9b3-4096-4c0a-ad25-2bc5d73fc5bf","ios":"levelo://app?vid=92d4b9b3-4096-4c0a-ad25-2bc5d73fc5bf"},"vehicle_type_id":"4","last_reported":1730311965,"current_range_meters":19200,"station_id":"ce4bh192rcd13ifvqdb0","pricing_plan_id":"cebpf4jnsgd1na2vs0mg"},{"bike_id":"7c8a67a2-486c-4173-84a6-f28cb52f248b","system_id":"levelo_inurba_marseille","lat":43.29609,"lon":5.38097,"is_reserved":false,"is_disabled":false,"rental_uris":{"android":"levelo://app?vid=7c8a67a2-486c-4173-84a6-f28cb52f248b","ios":"levelo://app?vid=7c8a67a2-486c-4173-84a6-f28cb52f248b"},"vehicle_type_id":"4","last_reported":1730311965,"current_range_meters":38400,"station_id":"ce4bgl12rcd13ifvqbo0","pricing_plan_id":"cebpf4jnsgd1na2vs0mg"},{"bike_id":"0aa215c7-f0b1-4d8d-bc4f-67109a8ccaa4","system_id":"levelo_inurba_marseille","lat":43.30801,"lon":5.37651,"is_reserved":false,"is_disabled":false,"rental_uris":{"android":"levelo://app?vid=0aa215c7-f0b1-4d8d-bc4f-67109a8ccaa4","ios":"levelo://app?vid=0aa215c7-f0b1-4d8d-bc4f-67109a8ccaa4"},"vehicle_type_id":"4","last_reported":1730311965,"current_range_meters":36000,"station_id":"ce4bgv92rcd13ifvqcq0","pricing_plan_id":"cebpf4jnsgd1na2vs0mg"},{"bike_id":"d81d7118-1e2b-403e-86aa-ee2d52197a33","system_id":"levelo_inurba_marseille","lat":43.29554,"lon":5.42294,"is_reserved":false,"is_disabled":false,"rental_uris":{"android":"levelo://app?vid=d81d7118-1e2b-403e-86aa-ee2d52197a33","ios":"levelo://app?vid=d81d7118-1e2b-403e-86aa-ee2d52197a33"},"vehicle_type_id":"4","last_reported":1730311965,"current_range_meters":11200,"station_id":"ce4bhph2rcd13ifvqhdg","pricing_plan_id":"cebpf4jnsgd1na2vs0mg"},{"bike_id":"fbb11bf0-6f49-45c1-810c-8f2d67e3de9e","system_id":"levelo_inurba_marseille","lat":43.29426,"lon":5.38629,"is_reserved":false,"is_disabled":false,"rental_uris":{"android":"levelo://app?vid=fbb11bf0-6f49-45c1-810c-8f2d67e3de9e","ios":"levelo://app?vid=fbb11bf0-6f49-45c1-810c-8f2d67e3de9e"},"vehicle_type_id":"4","last_reported":1730311965,"current_range_meters":38800,"station_id":"ce4bh2h2rcd13ifvqdh0","pricing_plan_id":"cebpf4jnsgd1na2vs0mg"},{"bike_id":"3f410385-5381-443a-bdc4-e62c55ee066e","system_id":"levelo_inurba_marseille","lat":43.27159,"lon":5.39192,"is_reserved":false,"is_disabled":false,"rental_uris":{"android":"levelo://app?vid=3f410385-5381-443a-bdc4-e62c55ee066e","ios":"levelo://app?vid=3f410385-5381-443a-bdc4-e62c55ee066e"},"vehicle_type_id":"4","last_reported":1730311965,"current_range_meters":28400,"station_id":"","pricing_plan_id":"cebpf4jnsgd1na2vs0mg"},{"bike_id":"fd99798c-56ee-4f99-8053-86937b6f70a4","system_id":"levelo_inurba_marseille","lat":43.29787,"lon":5.39342,"is_reserved":false,"is_disabled":false,"rental_uris":{"android":"levelo://app?vid=fd99798c-56ee-4f99-8053-86937b6f70a4","ios":"levelo://app?vid=fd99798c-56ee-4f99-8053-86937b6f70a4"},"vehicle_type_id":"4","last_reported":1730311965,"current_range_meters":37600,"station_id":"chh1huq6cuj3fo74tm60","pricing_plan_id":"cebpf4jnsgd1na2vs0mg"},{"bike_id":"48827504-4560-4408-9381-56156eaa7c63","system_id":"levelo_inurba_marseille","lat":43.29525,"lon":5.39395,"is_reserved":false,"is_disabled":false,"rental_uris":{"android":"levelo://app?vid=48827504-4560-4408-9381-56156eaa7c63","ios":"levelo://app?vid=48827504-4560-4408-9381-56156eaa7c63"},"vehicle_type_id":"4","last_reported":1730311965,"current_range_meters":22400,"station_id":"ce4bh292rcd13ifvqdf0","pricing_plan_id":"cebpf4jnsgd1na2vs0mg"},{"bike_id":"7e0e217a-71aa-48c3-a4f8-09fafdcc2095","system_id":"levelo_inurba_marseille","lat":43.32068,"lon":5.41565,"is_reserved":false,"is_disabled":false,"rental_uris":{"android":"levelo://app?vid=7e0e217a-71aa-48c3-a4f8-09fafdcc2095","ios":"levelo://app?vid=7e0e217a-71aa-48c3-a4f8-09fafdcc2095"},"vehicle_type_id":"4","last_reported":1730311965,"current_range_meters":28400,"station_id":"ce4bhq92rcd13ifvqhkg","pricing_plan_id":"cebpf4jnsgd1na2vs0mg"},{"bike_id":"5645f0ba-f3c0-49fb-b32d-9ec3260090d1","system_id":"levelo_inurba_marseille","lat":43.27985,"lon":5.3874,"is_reserved":false,"is_disabled":false,"rental_uris":{"android":"levelo://app?vid=5645f0ba-f3c0-49fb-b32d-9ec3260090d1","ios":"levelo://app?vid=5645f0ba-f3c0-49fb-b32d-9ec3260090d1"},"vehicle_type_id":"4","last_reported":1730311965,"current_range_meters":26800,"station_id":"ce4bhg12rcd13ifvqf80","pricing_plan_id":"cebpf4jnsgd1na2vs0mg"},{"bike_id":"711ba33b-ddbe-4b24-b05b-8f0396efdd57","system_id":"levelo_inurba_marseille","lat":43.28938,"lon":5.36637,"is_reserved":false,"is_disabled":false,"rental_uris":{"android":"levelo://app?vid=711ba33b-ddbe-4b24-b05b-8f0396efdd57","ios":"levelo://app?vid=711ba33b-ddbe-4b24-b05b-8f0396efdd57"},"vehicle_type_id":"4","last_reported":1730311965,"current_range_meters":20400,"station_id":"ce4bhap2rcd13ifvqek0","pricing_plan_id":"cebpf4jnsgd1na2vs0mg"},{"bike_id":"5ff74640-5d39-40f8-808a-e5695df59fd4","system_id":"levelo_inurba_marseille","lat":43.27194,"lon":5.41025,"is_reserved":false,"is_disabled":false,"rental_uris":{"android":"levelo://app?vid=5ff74640-5d39-40f8-808a-e5695df59fd4","ios":"levelo://app?vid=5ff74640-5d39-40f8-808a-e5695df59fd4"},"vehicle_type_id":"4","last_reported":1730311965,"current_range_meters":12000,"station_id":"ce4bhl12rcd13ifvqgf0","pricing_plan_id":"cebpf4jnsgd1na2vs0mg"},{"bike_id":"982a71db-262c-4c1f-bafd-c2b937ddef69","system_id":"levelo_inurba_marseille","lat":43.26056,"lon":5.39395,"is_reserved":false,"is_disabled":false,"rental_uris":{"android":"levelo://app?vid=982a71db-262c-4c1f-bafd-c2b937ddef69","ios":"levelo://app?vid=982a71db-262c-4c1f-bafd-c2b937ddef69"},"vehicle_type_id":"4","last_reported":1730311965,"current_range_meters":37600,"station_id":"ce4bhh92rcd13ifvqfj0","pricing_plan_id":"cebpf4jnsgd1na2vs0mg"},{"bike_id":"dd0db62c-3b2a-4d31-9c25-6ff834ecad7b","system_id":"levelo_inurba_marseille","lat":43.28929,"lon":5.38401,"is_reserved":false,"is_disabled":false,"rental_uris":{"android":"levelo://app?vid=dd0db62c-3b2a-4d31-9c25-6ff834ecad7b","ios":"levelo://app?vid=dd0db62c-3b2a-4d31-9c25-6ff834ecad7b"},"vehicle_type_id":"4","last_reported":1730311965,"current_range_meters":19600,"station_id":"ce4bh612rcd13ifvqe6g","pricing_plan_id":"cebpf4jnsgd1na2vs0mg"},{"bike_id":"87d23bf7-4e73-43b2-8adf-83be3477f5aa","system_id":"levelo_inurba_marseille","lat":43.23208,"lon":5.355548,"is_reserved":false,"is_disabled":false,"rental_uris":{"android":"levelo://app?vid=87d23bf7-4e73-43b2-8adf-83be3477f5aa","ios":"levelo://app?vid=87d23bf7-4e73-43b2-8adf-83be3477f5aa"},"vehicle_type_id":"4","last_reported":1730311965,"current_range_meters":32400,"station_id":"ce4bhu92rcd13ifvqi70","pricing_plan_id":"cebpf4jnsgd1na2vs0mg"},{"bike_id":"a4760858-04b6-43e1-88d8-a8b61472c594","system_id":"levelo_inurba_marseille","lat":43.298706,"lon":5.383663,"is_reserved":false,"is_disabled":false,"rental_uris":{"android":"levelo://app?vid=a4760858-04b6-43e1-88d8-a8b61472c594","ios":"levelo://app?vid=a4760858-04b6-43e1-88d8-a8b61472c594"},"vehicle_type_id":"4","last_reported":1730311965,"current_range_meters":32400,"station_id":"ce4bgj92rcd13ifvqbd0","pricing_plan_id":"cebpf4jnsgd1na2vs0mg"},{"bike_id":"204190f6-efe1-4ae8-952c-fc1cf68058a1","system_id":"levelo_inurba_marseille","lat":43.296906,"lon":5.366996,"is_reserved":false,"is_disabled":false,"rental_uris":{"android":"levelo://app?vid=204190f6-efe1-4ae8-952c-fc1cf68058a1","ios":"levelo://app?vid=204190f6-efe1-4ae8-952c-fc1cf68058a1"},"vehicle_type_id":"4","last_reported":1730311965,"current_range_meters":19600,"station_id":"ce4bgn12rcd13ifvqbt0","pricing_plan_id":"cebpf4jnsgd1na2vs0mg"},{"bike_id":"7819e40e-54c1-4309-b392-01f83f91e381","system_id":"levelo_inurba_marseille","lat":43.28943,"lon":5.36643,"is_reserved":false,"is_disabled":false,"rental_uris":{"android":"levelo://app?vid=7819e40e-54c1-4309-b392-01f83f91e381","ios":"levelo://app?vid=7819e40e-54c1-4309-b392-01f83f91e381"},"vehicle_type_id":"4","last_reported":1730311965,"current_range_meters":4400,"station_id":"ce4bhap2rcd13ifvqek0","pricing_plan_id":"cebpf4jnsgd1na2vs0mg"},{"bike_id":"2363ef99-382c-41c0-9a03-399d9ee97507","system_id":"levelo_inurba_marseille","lat":43.29987,"lon":5.38485,"is_reserved":false,"is_disabled":false,"rental_uris":{"android":"levelo://app?vid=2363ef99-382c-41c0-9a03-399d9ee97507","ios":"levelo://app?vid=2363ef99-382c-41c0-9a03-399d9ee97507"},"vehicle_type_id":"4","last_reported":1730311965,"current_range_meters":16800,"station_id":"ce4bgj92rcd13ifvqbd0","pricing_plan_id":"cebpf4jnsgd1na2vs0mg"},{"bike_id":"1d62463f-6312-4b72-a0ce-2ebbdeb8eea6","system_id":"levelo_inurba_marseille","lat":43.29424,"lon":5.38633,"is_reserved":false,"is_disabled":false,"rental_uris":{"android":"levelo://app?vid=1d62463f-6312-4b72-a0ce-2ebbdeb8eea6","ios":"levelo://app?vid=1d62463f-6312-4b72-a0ce-2ebbdeb8eea6"},"vehicle_type_id":"4","last_reported":1730311965,"current_range_meters":38000,"station_id":"ce4bh2h2rcd13ifvqdh0","pricing_plan_id":"cebpf4jnsgd1na2vs0mg"},{"bike_id":"55c3307b-2c57-4bda-9aa9-95fb517ff497","system_id":"levelo_inurba_marseille","lat":43.29036,"lon":5.37567,"is_reserved":false,"is_disabled":false,"rental_uris":{"android":"levelo://app?vid=55c3307b-2c57-4bda-9aa9-95fb517ff497","ios":"levelo://app?vid=55c3307b-2c57-4bda-9aa9-95fb517ff497"},"vehicle_type_id":"4","last_reported":1730311965,"current_range_meters":28400,"station_id":"ce4bh692rcd13ifvqe90","pricing_plan_id":"cebpf4jnsgd1na2vs0mg"},{"bike_id":"5e3e5e15-a26a-4370-a4d7-22b0461d60e4","system_id":"levelo_inurba_marseille","lat":43.32001,"lon":5.38157,"is_reserved":false,"is_disabled":false,"rental_uris":{"android":"levelo://app?vid=5e3e5e15-a26a-4370-a4d7-22b0461d60e4","ios":"levelo://app?vid=5e3e5e15-a26a-4370-a4d7-22b0461d60e4"},"vehicle_type_id":"4","last_reported":1730311965,"current_range_meters":20000,"station_id":"ce4bhr12rcd13ifvqhpg","pricing_plan_id":"cebpf4jnsgd1na2vs0mg"},{"bike_id":"17befa96-6822-4457-87a9-e37ca5d8f1b4","system_id":"levelo_inurba_marseille","lat":43.25583,"lon":5.38235,"is_reserved":false,"is_disabled":false,"rental_uris":{"android":"levelo://app?vid=17befa96-6822-4457-87a9-e37ca5d8f1b4","ios":"levelo://app?vid=17befa96-6822-4457-87a9-e37ca5d8f1b4"},"vehicle_type_id":"4","last_reported":1730311965,"current_range_meters":28800,"station_id":"ce4bhih2rcd13ifvqfs0","pricing_plan_id":"cebpf4jnsgd1na2vs0mg"},{"bike_id":"3271d7f6-0f65-475f-8b65-c5efde785335","system_id":"levelo_inurba_marseille","lat":43.23196,"lon":5.35558,"is_reserved":false,"is_disabled":false,"rental_uris":{"android":"levelo://app?vid=3271d7f6-0f65-475f-8b65-c5efde785335","ios":"levelo://app?vid=3271d7f6-0f65-475f-8b65-c5efde785335"},"vehicle_type_id":"4","last_reported":1730311965,"current_range_meters":38000,"station_id":"ce4bhu92rcd13ifvqi70","pricing_plan_id":"cebpf4jnsgd1na2vs0mg"},{"bike_id":"550c7d4e-812f-4953-a5aa-0b098869a3b4","system_id":"levelo_inurba_marseille","lat":43.29691,"lon":5.37288,"is_reserved":false,"is_disabled":false,"rental_uris":{"android":"levelo://app?vid=550c7d4e-812f-4953-a5aa-0b098869a3b4","ios":"levelo://app?vid=550c7d4e-812f-4953-a5aa-0b098869a3b4"},"vehicle_type_id":"4","last_reported":1730311965,"current_range_meters":38400,"station_id":"ce4bgk12rcd13ifvqbj0","pricing_plan_id":"cebpf4jnsgd1na2vs0mg"},{"bike_id":"80a55486-5eec-4788-95a6-5836d2daa838","system_id":"levelo_inurba_marseille","lat":43.33027,"lon":5.39038,"is_reserved":false,"is_disabled":false,"rental_uris":{"android":"levelo://app?vid=80a55486-5eec-4788-95a6-5836d2daa838","ios":"levelo://app?vid=80a55486-5eec-4788-95a6-5836d2daa838"},"vehicle_type_id":"4","last_reported":1730311965,"current_range_meters":12400,"station_id":"ce4bhr92rcd13ifvqhrg","pricing_plan_id":"cebpf4jnsgd1na2vs0mg"},{"bike_id":"f99547b6-e0b7-4a86-b4bb-f600f8ca5cb2","system_id":"levelo_inurba_marseille","lat":43.24175,"lon":5.3641,"is_reserved":false,"is_disabled":false,"rental_uris":{"android":"levelo://app?vid=f99547b6-e0b7-4a86-b4bb-f600f8ca5cb2","ios":"levelo://app?vid=f99547b6-e0b7-4a86-b4bb-f600f8ca5cb2"},"vehicle_type_id":"4","last_reported":1730311965,"current_range_meters":22000,"station_id":"cpo36qri1sfpv3e86is0","pricing_plan_id":"cebpf4jnsgd1na2vs0mg"},{"bike_id":"a04c907f-c23d-4871-986b-06806a8b409c","system_id":"levelo_inurba_marseille","lat":43.25939,"lon":5.40907,"is_reserved":false,"is_disabled":false,"rental_uris":{"android":"levelo://app?vid=a04c907f-c23d-4871-986b-06806a8b409c","ios":"levelo://app?vid=a04c907f-c23d-4871-986b-06806a8b409c"},"vehicle_type_id":"4","last_reported":1730311965,"current_range_meters":38800,"station_id":"ce4bhm92rcd13ifvqglg","pricing_plan_id":"cebpf4jnsgd1na2vs0mg"},{"bike_id":"afc8a59e-718c-432c-b226-d6be0903e5fb","system_id":"levelo_inurba_marseille","lat":43.24394,"lon":5.37067,"is_reserved":false,"is_disabled":false,"rental_uris":{"android":"levelo://app?vid=afc8a59e-718c-432c-b226-d6be0903e5fb","ios":"levelo://app?vid=afc8a59e-718c-432c-b226-d6be0903e5fb"},"vehicle_type_id":"4","last_reported":1730311965,"current_range_meters":32000,"station_id":"ce4bhhh2rcd13ifvqfk0","pricing_plan_id":"cebpf4jnsgd1na2vs0mg"},{"bike_id":"72e37474-1bc8-4568-aec8-ce5464e6b828","system_id":"levelo_inurba_marseille","lat":43.23195,"lon":5.35555,"is_reserved":false,"is_disabled":false,"rental_uris":{"android":"levelo://app?vid=72e37474-1bc8-4568-aec8-ce5464e6b828","ios":"levelo://app?vid=72e37474-1bc8-4568-aec8-ce5464e6b828"},"vehicle_type_id":"4","last_reported":1730311965,"current_range_meters":28000,"station_id":"ce4bhu92rcd13ifvqi70","pricing_plan_id":"cebpf4jnsgd1na2vs0mg"},{"bike_id":"685e4abf-c6e7-46ad-ab5d-26c9eb012ee6","system_id":"levelo_inurba_marseille","lat":43.30639,"lon":5.40093,"is_reserved":false,"is_disabled":false,"rental_uris":{"android":"levelo://app?vid=685e4abf-c6e7-46ad-ab5d-26c9eb012ee6","ios":"levelo://app?vid=685e4abf-c6e7-46ad-ab5d-26c9eb012ee6"},"vehicle_type_id":"4","last_reported":1730311965,"current_range_meters":23200,"station_id":"ce4bh112rcd13ifvqda0","pricing_plan_id":"cebpf4jnsgd1na2vs0mg"},{"bike_id":"980a35cf-362a-4023-852c-3846ce4971c7","system_id":"levelo_inurba_marseille","lat":43.27922,"lon":5.39581,"is_reserved":false,"is_disabled":false,"rental_uris":{"android":"levelo://app?vid=980a35cf-362a-4023-852c-3846ce4971c7","ios":"levelo://app?vid=980a35cf-362a-4023-852c-3846ce4971c7"},"vehicle_type_id":"4","last_reported":1730311965,"current_range_meters":2800,"station_id":"ce4bhf92rcd13ifvqf40","pricing_plan_id":"cebpf4jnsgd1na2vs0mg"},{"bike_id":"b9a42de5-e92c-4a68-a4e2-5f21cbf671b3","system_id":"levelo_inurba_marseille","lat":43.29534,"lon":5.38538,"is_reserved":false,"is_disabled":false,"rental_uris":{"android":"levelo://app?vid=b9a42de5-e92c-4a68-a4e2-5f21cbf671b3","ios":"levelo://app?vid=b9a42de5-e92c-4a68-a4e2-5f21cbf671b3"},"vehicle_type_id":"4","last_reported":1730311965,"current_range_meters":6800,"station_id":"ce4bgih2rcd13ifvqba0","pricing_plan_id":"cebpf4jnsgd1na2vs0mg"},{"bike_id":"88dc58c8-a632-450d-98e1-c0f672ee9cc5","system_id":"levelo_inurba_marseille","lat":43.24387,"lon":5.37053,"is_reserved":false,"is_disabled":false,"rental_uris":{"android":"levelo://app?vid=88dc58c8-a632-450d-98e1-c0f672ee9cc5","ios":"levelo://app?vid=88dc58c8-a632-450d-98e1-c0f672ee9cc5"},"vehicle_type_id":"4","last_reported":1730311965,"current_range_meters":30800,"station_id":"ce4bhhh2rcd13ifvqfk0","pricing_plan_id":"cebpf4jnsgd1na2vs0mg"},{"bike_id":"54d2e7c1-0997-4e85-b497-01eca9eb4f00","system_id":"levelo_inurba_marseille","lat":43.23186,"lon":5.35556,"is_reserved":false,"is_disabled":false,"rental_uris":{"android":"levelo://app?vid=54d2e7c1-0997-4e85-b497-01eca9eb4f00","ios":"levelo://app?vid=54d2e7c1-0997-4e85-b497-01eca9eb4f00"},"vehicle_type_id":"4","last_reported":1730311965,"current_range_meters":14400,"station_id":"ce4bhu92rcd13ifvqi70","pricing_plan_id":"cebpf4jnsgd1na2vs0mg"},{"bike_id":"d414fc69-1a7a-46e4-8f2c-1d97bfb489ca","system_id":"levelo_inurba_marseille","lat":43.27683,"lon":5.38884,"is_reserved":false,"is_disabled":false,"rental_uris":{"android":"levelo://app?vid=d414fc69-1a7a-46e4-8f2c-1d97bfb489ca","ios":"levelo://app?vid=d414fc69-1a7a-46e4-8f2c-1d97bfb489ca"},"vehicle_type_id":"4","last_reported":1730311965,"current_range_meters":17200,"station_id":"ce4bhi12rcd13ifvqfo0","pricing_plan_id":"cebpf4jnsgd1na2vs0mg"},{"bike_id":"fe693b1e-244a-445f-bbb3-f59927249803","system_id":"levelo_inurba_marseille","lat":43.30955,"lon":5.39029,"is_reserved":false,"is_disabled":false,"rental_uris":{"android":"levelo://app?vid=fe693b1e-244a-445f-bbb3-f59927249803","ios":"levelo://app?vid=fe693b1e-244a-445f-bbb3-f59927249803"},"vehicle_type_id":"4","last_reported":1730311965,"current_range_meters":4800,"station_id":"ce4bgup2rcd13ifvqco0","pricing_plan_id":"cebpf4jnsgd1na2vs0mg"},{"bike_id":"e1b150c2-966e-4b17-81ab-ef87e14ea824","system_id":"levelo_inurba_marseille","lat":43.28078,"lon":5.39655,"is_reserved":false,"is_disabled":false,"rental_uris":{"android":"levelo://app?vid=e1b150c2-966e-4b17-81ab-ef87e14ea824","ios":"levelo://app?vid=e1b150c2-966e-4b17-81ab-ef87e14ea824"},"vehicle_type_id":"4","last_reported":1730311965,"current_range_meters":39200,"station_id":"ce4bho12rcd13ifvqh2g","pricing_plan_id":"cebpf4jnsgd1na2vs0mg"},{"bike_id":"a45a7bae-e2ab-4e80-98ce-84376dcb2411","system_id":"levelo_inurba_marseille","lat":43.297094,"lon":5.376795,"is_reserved":false,"is_disabled":false,"rental_uris":{"android":"levelo://app?vid=a45a7bae-e2ab-4e80-98ce-84376dcb2411","ios":"levelo://app?vid=a45a7bae-e2ab-4e80-98ce-84376dcb2411"},"vehicle_type_id":"4","last_reported":1730311965,"current_range_meters":28000,"station_id":"ce4bgkh2rcd13ifvqbl0","pricing_plan_id":"cebpf4jnsgd1na2vs0mg"},{"bike_id":"601595a4-ad71-4c8f-914e-899a9b0fbe96","system_id":"levelo_inurba_marseille","lat":43.28429,"lon":5.34987,"is_reserved":false,"is_disabled":false,"rental_uris":{"android":"levelo://app?vid=601595a4-ad71-4c8f-914e-899a9b0fbe96","ios":"levelo://app?vid=601595a4-ad71-4c8f-914e-899a9b0fbe96"},"vehicle_type_id":"4","last_reported":1730311965,"current_range_meters":22400,"station_id":"ce4bhbh2rcd13ifvqepg","pricing_plan_id":"cebpf4jnsgd1na2vs0mg"},{"bike_id":"7dceae6b-647d-446c-a388-47c2f0753bea","system_id":"levelo_inurba_marseille","lat":43.2694,"lon":5.40263,"is_reserved":false,"is_disabled":false,"rental_uris":{"android":"levelo://app?vid=7dceae6b-647d-446c-a388-47c2f0753bea","ios":"levelo://app?vid=7dceae6b-647d-446c-a388-47c2f0753bea"},"vehicle_type_id":"4","last_reported":1730311965,"current_range_meters":1600,"station_id":"cjm6bp8fraef2m0cb0m0","pricing_plan_id":"cebpf4jnsgd1na2vs0mg"},{"bike_id":"84c06e46-631b-4cfe-8646-c83ed649a23d","system_id":"levelo_inurba_marseille","lat":43.31393,"lon":5.40281,"is_reserved":false,"is_disabled":false,"rental_uris":{"android":"levelo://app?vid=84c06e46-631b-4cfe-8646-c83ed649a23d","ios":"levelo://app?vid=84c06e46-631b-4cfe-8646-c83ed649a23d"},"vehicle_type_id":"4","last_reported":1730311965,"current_range_meters":8800,"station_id":"ce4bh012rcd13ifvqd00","pricing_plan_id":"cebpf4jnsgd1na2vs0mg"},{"bike_id":"cbd6e71b-da90-49a9-852e-9e6ceb2a79ce","system_id":"levelo_inurba_marseille","lat":43.23187,"lon":5.39984,"is_reserved":false,"is_disabled":false,"rental_uris":{"android":"levelo://app?vid=cbd6e71b-da90-49a9-852e-9e6ceb2a79ce","ios":"levelo://app?vid=cbd6e71b-da90-49a9-852e-9e6ceb2a79ce"},"vehicle_type_id":"4","last_reported":1730311965,"current_range_meters":28400,"station_id":"ce4bhn12rcd13ifvqgqg","pricing_plan_id":"cebpf4jnsgd1na2vs0mg"},{"bike_id":"9ec77140-2846-4e58-a1b8-dfda5b93d692","system_id":"levelo_inurba_marseille","lat":43.29539,"lon":5.38541,"is_reserved":false,"is_disabled":false,"rental_uris":{"android":"levelo://app?vid=9ec77140-2846-4e58-a1b8-dfda5b93d692","ios":"levelo://app?vid=9ec77140-2846-4e58-a1b8-dfda5b93d692"},"vehicle_type_id":"4","last_reported":1730311965,"current_range_meters":38800,"station_id":"ce4bgih2rcd13ifvqba0","pricing_plan_id":"cebpf4jnsgd1na2vs0mg"},{"bike_id":"146e72c6-3bb8-4bc2-afc3-217e39363f91","system_id":"levelo_inurba_marseille","lat":43.30416,"lon":5.41284,"is_reserved":false,"is_disabled":false,"rental_uris":{"android":"levelo://app?vid=146e72c6-3bb8-4bc2-afc3-217e39363f91","ios":"levelo://app?vid=146e72c6-3bb8-4bc2-afc3-217e39363f91"},"vehicle_type_id":"4","last_reported":1730311965,"current_range_meters":5600,"station_id":"ce4bhop2rcd13ifvqh8g","pricing_plan_id":"cebpf4jnsgd1na2vs0mg"},{"bike_id":"d06f7b0e-9320-49b4-972d-8b37dee4ffbe","system_id":"levelo_inurba_marseille","lat":43.28105,"lon":5.37843,"is_reserved":false,"is_disabled":false,"rental_uris":{"android":"levelo://app?vid=d06f7b0e-9320-49b4-972d-8b37dee4ffbe","ios":"levelo://app?vid=d06f7b0e-9320-49b4-972d-8b37dee4ffbe"},"vehicle_type_id":"4","last_reported":1730311965,"current_range_meters":37600,"station_id":"ce4bha12rcd13ifvqee0","pricing_plan_id":"cebpf4jnsgd1na2vs0mg"},{"bike_id":"1995d42f-9bb2-423e-a419-1706f5fab24e","system_id":"levelo_inurba_marseille","lat":43.27075,"lon":5.42278,"is_reserved":false,"is_disabled":false,"rental_uris":{"android":"levelo://app?vid=1995d42f-9bb2-423e-a419-1706f5fab24e","ios":"levelo://app?vid=1995d42f-9bb2-423e-a419-1706f5fab24e"},"vehicle_type_id":"4","last_reported":1730311965,"current_range_meters":32400,"station_id":"ce4bhk92rcd13ifvqgb0","pricing_plan_id":"cebpf4jnsgd1na2vs0mg"},{"bike_id":"8162e4a8-23c1-4020-bbef-be4a2e70aefe","system_id":"levelo_inurba_marseille","lat":43.23202,"lon":5.3556,"is_reserved":false,"is_disabled":false,"rental_uris":{"android":"levelo://app?vid=8162e4a8-23c1-4020-bbef-be4a2e70aefe","ios":"levelo://app?vid=8162e4a8-23c1-4020-bbef-be4a2e70aefe"},"vehicle_type_id":"4","last_reported":1730311965,"current_range_meters":8400,"station_id":"ce4bhu92rcd13ifvqi70","pricing_plan_id":"cebpf4jnsgd1na2vs0mg"},{"bike_id":"f400d701-e7ba-42de-a4cb-abda9b0a1f0b","system_id":"levelo_inurba_marseille","lat":43.29021,"lon":5.38638,"is_reserved":false,"is_disabled":false,"rental_uris":{"android":"levelo://app?vid=f400d701-e7ba-42de-a4cb-abda9b0a1f0b","ios":"levelo://app?vid=f400d701-e7ba-42de-a4cb-abda9b0a1f0b"},"vehicle_type_id":"4","last_reported":1730311965,"current_range_meters":33200,"station_id":"ce4bh4p2rcd13ifvqe0g","pricing_plan_id":"cebpf4jnsgd1na2vs0mg"},{"bike_id":"68ae941c-efdc-4c5d-bdf6-81f446ac9a88","system_id":"levelo_inurba_marseille","lat":43.33604,"lon":5.41032,"is_reserved":false,"is_disabled":false,"rental_uris":{"android":"levelo://app?vid=68ae941c-efdc-4c5d-bdf6-81f446ac9a88","ios":"levelo://app?vid=68ae941c-efdc-4c5d-bdf6-81f446ac9a88"},"vehicle_type_id":"4","last_reported":1730311965,"current_range_meters":6400,"station_id":"ce4bhqh2rcd13ifvqhmg","pricing_plan_id":"cebpf4jnsgd1na2vs0mg"},{"bike_id":"9be809ce-9c84-4e29-a226-14a196d31f13","system_id":"levelo_inurba_marseille","lat":43.30588,"lon":5.39357,"is_reserved":false,"is_disabled":false,"rental_uris":{"android":"levelo://app?vid=9be809ce-9c84-4e29-a226-14a196d31f13","ios":"levelo://app?vid=9be809ce-9c84-4e29-a226-14a196d31f13"},"vehicle_type_id":"4","last_reported":1730311965,"current_range_meters":30400,"station_id":"ce4bh0p2rcd13ifvqd80","pricing_plan_id":"cebpf4jnsgd1na2vs0mg"},{"bike_id":"01873621-66c2-43af-8810-09f11e46034b","system_id":"levelo_inurba_marseille","lat":43.28404,"lon":5.37504,"is_reserved":false,"is_disabled":false,"rental_uris":{"android":"levelo://app?vid=01873621-66c2-43af-8810-09f11e46034b","ios":"levelo://app?vid=01873621-66c2-43af-8810-09f11e46034b"},"vehicle_type_id":"4","last_reported":1730311965,"current_range_meters":10000,"station_id":"ce4bh412rcd13ifvqds0","pricing_plan_id":"cebpf4jnsgd1na2vs0mg"},{"bike_id":"4e56aed2-21a5-45c8-af95-efc825fda15f","system_id":"levelo_inurba_marseille","lat":43.2953,"lon":5.38543,"is_reserved":false,"is_disabled":false,"rental_uris":{"android":"levelo://app?vid=4e56aed2-21a5-45c8-af95-efc825fda15f","ios":"levelo://app?vid=4e56aed2-21a5-45c8-af95-efc825fda15f"},"vehicle_type_id":"4","last_reported":1730311965,"current_range_meters":12000,"station_id":"ce4bgih2rcd13ifvqba0","pricing_plan_id":"cebpf4jnsgd1na2vs0mg"},{"bike_id":"e95e4efd-2954-483f-a646-e7f484350e74","system_id":"levelo_inurba_marseille","lat":43.29882,"lon":5.38902,"is_reserved":false,"is_disabled":false,"rental_uris":{"android":"levelo://app?vid=e95e4efd-2954-483f-a646-e7f484350e74","ios":"levelo://app?vid=e95e4efd-2954-483f-a646-e7f484350e74"},"vehicle_type_id":"4","last_reported":1730311965,"current_range_meters":24000,"station_id":"ce4bh392rcd13ifvqdl0","pricing_plan_id":"cebpf4jnsgd1na2vs0mg"},{"bike_id":"0d1d919a-0ac6-4b40-add0-6ce675499ae9","system_id":"levelo_inurba_marseille","lat":43.2407,"lon":5.37767,"is_reserved":false,"is_disabled":false,"rental_uris":{"android":"levelo://app?vid=0d1d919a-0ac6-4b40-add0-6ce675499ae9","ios":"levelo://app?vid=0d1d919a-0ac6-4b40-add0-6ce675499ae9"},"vehicle_type_id":"4","last_reported":1730311965,"current_range_meters":14400,"station_id":"ce4bhnp2rcd13ifvqgvg","pricing_plan_id":"cebpf4jnsgd1na2vs0mg"},{"bike_id":"1d3c1fe9-1ad8-4a34-b8bb-afaec705104b","system_id":"levelo_inurba_marseille","lat":43.24808,"lon":5.37459,"is_reserved":false,"is_disabled":false,"rental_uris":{"android":"levelo://app?vid=1d3c1fe9-1ad8-4a34-b8bb-afaec705104b","ios":"levelo://app?vid=1d3c1fe9-1ad8-4a34-b8bb-afaec705104b"},"vehicle_type_id":"4","last_reported":1730311965,"current_range_meters":9200,"station_id":"ce4bhgh2rcd13ifvqfb0","pricing_plan_id":"cebpf4jnsgd1na2vs0mg"},{"bike_id":"a483b6d6-c3e6-49bb-ad5f-c78aa5093155","system_id":"levelo_inurba_marseille","lat":43.27569,"lon":5.38422,"is_reserved":false,"is_disabled":false,"rental_uris":{"android":"levelo://app?vid=a483b6d6-c3e6-49bb-ad5f-c78aa5093155","ios":"levelo://app?vid=a483b6d6-c3e6-49bb-ad5f-c78aa5093155"},"vehicle_type_id":"4","last_reported":1730311965,"current_range_meters":18800,"station_id":"ce4bhh92rcd13ifvqfi0","pricing_plan_id":"cebpf4jnsgd1na2vs0mg"},{"bike_id":"e6c76dd9-b8c2-45df-bb5f-b136e60f8022","system_id":"levelo_inurba_marseille","lat":43.28853,"lon":5.3586,"is_reserved":false,"is_disabled":false,"rental_uris":{"android":"levelo://app?vid=e6c76dd9-b8c2-45df-bb5f-b136e60f8022","ios":"levelo://app?vid=e6c76dd9-b8c2-45df-bb5f-b136e60f8022"},"vehicle_type_id":"4","last_reported":1730311965,"current_range_meters":7200,"station_id":"ce4bhb12rcd13ifvqem0","pricing_plan_id":"cebpf4jnsgd1na2vs0mg"},{"bike_id":"f0b07b10-ed07-492c-bc35-43c44e4d69f3","system_id":"levelo_inurba_marseille","lat":43.26204,"lon":5.37459,"is_reserved":false,"is_disabled":false,"rental_uris":{"android":"levelo://app?vid=f0b07b10-ed07-492c-bc35-43c44e4d69f3","ios":"levelo://app?vid=f0b07b10-ed07-492c-bc35-43c44e4d69f3"},"vehicle_type_id":"4","last_reported":1730311965,"current_range_meters":8800,"station_id":"ce4bhgp2rcd13ifvqfc0","pricing_plan_id":"cebpf4jnsgd1na2vs0mg"},{"bike_id":"379d974e-51a1-4b04-b633-c4150016c54e","system_id":"levelo_inurba_marseille","lat":43.28405,"lon":5.37519,"is_reserved":false,"is_disabled":false,"rental_uris":{"android":"levelo://app?vid=379d974e-51a1-4b04-b633-c4150016c54e","ios":"levelo://app?vid=379d974e-51a1-4b04-b633-c4150016c54e"},"vehicle_type_id":"4","last_reported":1730311965,"current_range_meters":35600,"station_id":"ce4bh412rcd13ifvqds0","pricing_plan_id":"cebpf4jnsgd1na2vs0mg"},{"bike_id":"73b91a5c-462b-445d-ac2c-3b2ae6e44141","system_id":"levelo_inurba_marseille","lat":43.28653,"lon":5.36345,"is_reserved":false,"is_disabled":false,"rental_uris":{"android":"levelo://app?vid=73b91a5c-462b-445d-ac2c-3b2ae6e44141","ios":"levelo://app?vid=73b91a5c-462b-445d-ac2c-3b2ae6e44141"},"vehicle_type_id":"4","last_reported":1730311965,"current_range_meters":35200,"station_id":"ce4bhah2rcd13ifvqej0","pricing_plan_id":"cebpf4jnsgd1na2vs0mg"},{"bike_id":"25c9b025-6f30-4641-87a5-5c919910e225","system_id":"levelo_inurba_marseille","lat":43.27809,"lon":5.4071,"is_reserved":false,"is_disabled":false,"rental_uris":{"android":"levelo://app?vid=25c9b025-6f30-4641-87a5-5c919910e225","ios":"levelo://app?vid=25c9b025-6f30-4641-87a5-5c919910e225"},"vehicle_type_id":"4","last_reported":1730311965,"current_range_meters":27600,"station_id":"ce4bhnh2rcd13ifvqgtg","pricing_plan_id":"cebpf4jnsgd1na2vs0mg"},{"bike_id":"68c21e97-2af1-47d0-9677-8b14c36e24b9","system_id":"levelo_inurba_marseille","lat":43.31729,"lon":5.42403,"is_reserved":false,"is_disabled":false,"rental_uris":{"android":"levelo://app?vid=68c21e97-2af1-47d0-9677-8b14c36e24b9","ios":"levelo://app?vid=68c21e97-2af1-47d0-9677-8b14c36e24b9"},"vehicle_type_id":"4","last_reported":1730311965,"current_range_meters":30800,"station_id":"ce4bhp92rcd13ifvqhbg","pricing_plan_id":"cebpf4jnsgd1na2vs0mg"},{"bike_id":"3de39dea-4e63-4d6e-835c-fffa36433a75","system_id":"levelo_inurba_marseille","lat":43.30893,"lon":5.37188,"is_reserved":false,"is_disabled":false,"rental_uris":{"android":"levelo://app?vid=3de39dea-4e63-4d6e-835c-fffa36433a75","ios":"levelo://app?vid=3de39dea-4e63-4d6e-835c-fffa36433a75"},"vehicle_type_id":"4","last_reported":1730311965,"current_range_meters":34800,"station_id":"ce4bguh2rcd13ifvqckg","pricing_plan_id":"cebpf4jnsgd1na2vs0mg"},{"bike_id":"c30c20a3-a003-4e47-981b-d4a01d18b8ed","system_id":"levelo_inurba_marseille","lat":43.24172,"lon":5.364,"is_reserved":false,"is_disabled":false,"rental_uris":{"android":"levelo://app?vid=c30c20a3-a003-4e47-981b-d4a01d18b8ed","ios":"levelo://app?vid=c30c20a3-a003-4e47-981b-d4a01d18b8ed"},"vehicle_type_id":"4","last_reported":1730311965,"current_range_meters":38800,"station_id":"cpo36qri1sfpv3e86is0","pricing_plan_id":"cebpf4jnsgd1na2vs0mg"},{"bike_id":"49d39f45-2423-42ba-a2c1-58440c5c3d68","system_id":"levelo_inurba_marseille","lat":43.29026,"lon":5.38641,"is_reserved":false,"is_disabled":false,"rental_uris":{"android":"levelo://app?vid=49d39f45-2423-42ba-a2c1-58440c5c3d68","ios":"levelo://app?vid=49d39f45-2423-42ba-a2c1-58440c5c3d68"},"vehicle_type_id":"4","last_reported":1730311965,"current_range_meters":26800,"station_id":"ce4bh4p2rcd13ifvqe0g","pricing_plan_id":"cebpf4jnsgd1na2vs0mg"},{"bike_id":"d3b7614e-17b4-4e3e-bfd5-5b2e544003ba","system_id":"levelo_inurba_marseille","lat":43.29309,"lon":5.3718,"is_reserved":false,"is_disabled":false,"rental_uris":{"android":"levelo://app?vid=d3b7614e-17b4-4e3e-bfd5-5b2e544003ba","ios":"levelo://app?vid=d3b7614e-17b4-4e3e-bfd5-5b2e544003ba"},"vehicle_type_id":"4","last_reported":1730311965,"current_range_meters":2800,"station_id":"ce4bgh92rcd13ifvqb40","pricing_plan_id":"cebpf4jnsgd1na2vs0mg"},{"bike_id":"06be41f9-8626-41f4-bc00-6dec28012c26","system_id":"levelo_inurba_marseille","lat":43.29599,"lon":5.38106,"is_reserved":false,"is_disabled":false,"rental_uris":{"android":"levelo://app?vid=06be41f9-8626-41f4-bc00-6dec28012c26","ios":"levelo://app?vid=06be41f9-8626-41f4-bc00-6dec28012c26"},"vehicle_type_id":"4","last_reported":1730311965,"current_range_meters":38400,"station_id":"ce4bgl12rcd13ifvqbo0","pricing_plan_id":"cebpf4jnsgd1na2vs0mg"},{"bike_id":"a1472826-8b76-4823-b3c4-8a7da9f7ed75","system_id":"levelo_inurba_marseille","lat":43.27002,"lon":5.39949,"is_reserved":false,"is_disabled":false,"rental_uris":{"android":"levelo://app?vid=a1472826-8b76-4823-b3c4-8a7da9f7ed75","ios":"levelo://app?vid=a1472826-8b76-4823-b3c4-8a7da9f7ed75"},"vehicle_type_id":"4","last_reported":1730311965,"current_range_meters":22800,"station_id":"","pricing_plan_id":"cebpf4jnsgd1na2vs0mg"},{"bike_id":"a276a5cf-6c27-44d4-b0c7-a3c414a65cae","system_id":"levelo_inurba_marseille","lat":43.22934,"lon":5.35381,"is_reserved":false,"is_disabled":false,"rental_uris":{"android":"levelo://app?vid=a276a5cf-6c27-44d4-b0c7-a3c414a65cae","ios":"levelo://app?vid=a276a5cf-6c27-44d4-b0c7-a3c414a65cae"},"vehicle_type_id":"4","last_reported":1730311965,"current_range_meters":38800,"station_id":"cpo3532slgdg3j2ikp40","pricing_plan_id":"cebpf4jnsgd1na2vs0mg"},{"bike_id":"bb81b248-608a-4d6a-bdc3-36a9b9f70285","system_id":"levelo_inurba_marseille","lat":43.28939,"lon":5.36393,"is_reserved":false,"is_disabled":false,"rental_uris":{"android":"levelo://app?vid=bb81b248-608a-4d6a-bdc3-36a9b9f70285","ios":"levelo://app?vid=bb81b248-608a-4d6a-bdc3-36a9b9f70285"},"vehicle_type_id":"4","last_reported":1730311965,"current_range_meters":38800,"station_id":"ce4bhc92rcd13ifvqetg","pricing_plan_id":"cebpf4jnsgd1na2vs0mg"},{"bike_id":"fea23d88-9bbb-4ffa-af08-7b03ca37348f","system_id":"levelo_inurba_marseille","lat":43.2319,"lon":5.39996,"is_reserved":false,"is_disabled":false,"rental_uris":{"android":"levelo://app?vid=fea23d88-9bbb-4ffa-af08-7b03ca37348f","ios":"levelo://app?vid=fea23d88-9bbb-4ffa-af08-7b03ca37348f"},"vehicle_type_id":"4","last_reported":1730311965,"current_range_meters":29600,"station_id":"ce4bhn12rcd13ifvqgqg","pricing_plan_id":"cebpf4jnsgd1na2vs0mg"},{"bike_id":"5ed3287f-e35d-43a6-9e20-f1aa79965186","system_id":"levelo_inurba_marseille","lat":43.29519,"lon":5.39058,"is_reserved":false,"is_disabled":false,"rental_uris":{"android":"levelo://app?vid=5ed3287f-e35d-43a6-9e20-f1aa79965186","ios":"levelo://app?vid=5ed3287f-e35d-43a6-9e20-f1aa79965186"},"vehicle_type_id":"4","last_reported":1730311965,"current_range_meters":19600,"station_id":"ce4bh3p2rcd13ifvqdp0","pricing_plan_id":"cebpf4jnsgd1na2vs0mg"},{"bike_id":"160c3125-d109-49e3-a687-ede78b99dea2","system_id":"levelo_inurba_marseille","lat":43.23203,"lon":5.3555,"is_reserved":false,"is_disabled":false,"rental_uris":{"android":"levelo://app?vid=160c3125-d109-49e3-a687-ede78b99dea2","ios":"levelo://app?vid=160c3125-d109-49e3-a687-ede78b99dea2"},"vehicle_type_id":"4","last_reported":1730311965,"current_range_meters":38000,"station_id":"ce4bhu92rcd13ifvqi70","pricing_plan_id":"cebpf4jnsgd1na2vs0mg"},{"bike_id":"c1bf4a91-a646-4162-907b-90b1796a78e8","system_id":"levelo_inurba_marseille","lat":43.29898,"lon":5.43674,"is_reserved":false,"is_disabled":false,"rental_uris":{"android":"levelo://app?vid=c1bf4a91-a646-4162-907b-90b1796a78e8","ios":"levelo://app?vid=c1bf4a91-a646-4162-907b-90b1796a78e8"},"vehicle_type_id":"4","last_reported":1730311965,"current_range_meters":38400,"station_id":"ce4bhpp2rcd13ifvqhfg","pricing_plan_id":"cebpf4jnsgd1na2vs0mg"},{"bike_id":"7eb31cb5-824d-4530-a724-655bf9400806","system_id":"levelo_inurba_marseille","lat":43.28856,"lon":5.35846,"is_reserved":false,"is_disabled":false,"rental_uris":{"android":"levelo://app?vid=7eb31cb5-824d-4530-a724-655bf9400806","ios":"levelo://app?vid=7eb31cb5-824d-4530-a724-655bf9400806"},"vehicle_type_id":"4","last_reported":1730311965,"current_range_meters":28400,"station_id":"ce4bhb12rcd13ifvqem0","pricing_plan_id":"cebpf4jnsgd1na2vs0mg"},{"bike_id":"95681bf9-2609-49c6-8863-70ce00e7f29d","system_id":"levelo_inurba_marseille","lat":43.28935,"lon":5.36395,"is_reserved":false,"is_disabled":false,"rental_uris":{"android":"levelo://app?vid=95681bf9-2609-49c6-8863-70ce00e7f29d","ios":"levelo://app?vid=95681bf9-2609-49c6-8863-70ce00e7f29d"},"vehicle_type_id":"4","last_reported":1730311965,"current_range_meters":12000,"station_id":"ce4bhc92rcd13ifvqetg","pricing_plan_id":"cebpf4jnsgd1na2vs0mg"},{"bike_id":"d08dcb05-94fa-46fa-a9b5-b62e0c8f0fa5","system_id":"levelo_inurba_marseille","lat":43.30327,"lon":5.40431,"is_reserved":false,"is_disabled":false,"rental_uris":{"android":"levelo://app?vid=d08dcb05-94fa-46fa-a9b5-b62e0c8f0fa5","ios":"levelo://app?vid=d08dcb05-94fa-46fa-a9b5-b62e0c8f0fa5"},"vehicle_type_id":"4","last_reported":1730311965,"current_range_meters":11200,"station_id":"ce4bh012rcd13ifvqd10","pricing_plan_id":"cebpf4jnsgd1na2vs0mg"},{"bike_id":"8e9ee968-1bd0-4679-8d35-bb26e662102d","system_id":"levelo_inurba_marseille","lat":43.28697,"lon":5.39975,"is_reserved":false,"is_disabled":false,"rental_uris":{"android":"levelo://app?vid=8e9ee968-1bd0-4679-8d35-bb26e662102d","ios":"levelo://app?vid=8e9ee968-1bd0-4679-8d35-bb26e662102d"},"vehicle_type_id":"4","last_reported":1730311965,"current_range_meters":6800,"station_id":"ce4bho92rcd13ifvqh3g","pricing_plan_id":"cebpf4jnsgd1na2vs0mg"},{"bike_id":"c4a47581-2099-4e6e-b3ec-751ed472bddb","system_id":"levelo_inurba_marseille","lat":43.29259,"lon":5.3844,"is_reserved":false,"is_disabled":false,"rental_uris":{"android":"levelo://app?vid=c4a47581-2099-4e6e-b3ec-751ed472bddb","ios":"levelo://app?vid=c4a47581-2099-4e6e-b3ec-751ed472bddb"},"vehicle_type_id":"4","last_reported":1730311965,"current_range_meters":30800,"station_id":"ce4bh692rcd13ifvqea0","pricing_plan_id":"cebpf4jnsgd1na2vs0mg"},{"bike_id":"38c69acf-a3b4-473b-9f4a-640d688ae766","system_id":"levelo_inurba_marseille","lat":43.29639,"lon":5.40037,"is_reserved":false,"is_disabled":false,"rental_uris":{"android":"levelo://app?vid=38c69acf-a3b4-473b-9f4a-640d688ae766","ios":"levelo://app?vid=38c69acf-a3b4-473b-9f4a-640d688ae766"},"vehicle_type_id":"4","last_reported":1730311965,"current_range_meters":12400,"station_id":"ce4bh492rcd13ifvqdvg","pricing_plan_id":"cebpf4jnsgd1na2vs0mg"},{"bike_id":"9517df93-dcd3-4c42-ac53-5779d3ad4611","system_id":"levelo_inurba_marseille","lat":43.27669,"lon":5.38894,"is_reserved":false,"is_disabled":false,"rental_uris":{"android":"levelo://app?vid=9517df93-dcd3-4c42-ac53-5779d3ad4611","ios":"levelo://app?vid=9517df93-dcd3-4c42-ac53-5779d3ad4611"},"vehicle_type_id":"4","last_reported":1730311965,"current_range_meters":38400,"station_id":"ce4bhi12rcd13ifvqfo0","pricing_plan_id":"cebpf4jnsgd1na2vs0mg"},{"bike_id":"edd19bcc-d8f5-470c-9180-5c1b2afaaf00","system_id":"levelo_inurba_marseille","lat":43.29529,"lon":5.39411,"is_reserved":false,"is_disabled":false,"rental_uris":{"android":"levelo://app?vid=edd19bcc-d8f5-470c-9180-5c1b2afaaf00","ios":"levelo://app?vid=edd19bcc-d8f5-470c-9180-5c1b2afaaf00"},"vehicle_type_id":"4","last_reported":1730311965,"current_range_meters":37600,"station_id":"ce4bh292rcd13ifvqdf0","pricing_plan_id":"cebpf4jnsgd1na2vs0mg"},{"bike_id":"2e4cf23d-1b89-400e-8293-990c4db78c6b","system_id":"levelo_inurba_marseille","lat":43.29239,"lon":5.38439,"is_reserved":false,"is_disabled":false,"rental_uris":{"android":"levelo://app?vid=2e4cf23d-1b89-400e-8293-990c4db78c6b","ios":"levelo://app?vid=2e4cf23d-1b89-400e-8293-990c4db78c6b"},"vehicle_type_id":"4","last_reported":1730311965,"current_range_meters":34000,"station_id":"ce4bh692rcd13ifvqea0","pricing_plan_id":"cebpf4jnsgd1na2vs0mg"},{"bike_id":"ce2f844e-3feb-4b59-86e2-68ae6a580f86","system_id":"levelo_inurba_marseille","lat":43.29198,"lon":5.39324,"is_reserved":false,"is_disabled":false,"rental_uris":{"android":"levelo://app?vid=ce2f844e-3feb-4b59-86e2-68ae6a580f86","ios":"levelo://app?vid=ce2f844e-3feb-4b59-86e2-68ae6a580f86"},"vehicle_type_id":"4","last_reported":1730311965,"current_range_meters":19600,"station_id":"ce4bh192rcd13ifvqdd0","pricing_plan_id":"cebpf4jnsgd1na2vs0mg"},{"bike_id":"3a4cff19-9ff5-4360-bbf6-f02a1f6d2dcb","system_id":"levelo_inurba_marseille","lat":43.293016,"lon":5.374615,"is_reserved":false,"is_disabled":false,"rental_uris":{"android":"levelo://app?vid=3a4cff19-9ff5-4360-bbf6-f02a1f6d2dcb","ios":"levelo://app?vid=3a4cff19-9ff5-4360-bbf6-f02a1f6d2dcb"},"vehicle_type_id":"4","last_reported":1730311965,"current_range_meters":6400,"station_id":"ce4bgi12rcd13ifvqb70","pricing_plan_id":"cebpf4jnsgd1na2vs0mg"},{"bike_id":"bfb1a2f2-5dd7-404a-90bb-be56759f829f","system_id":"levelo_inurba_marseille","lat":43.28002,"lon":5.41655,"is_reserved":false,"is_disabled":false,"rental_uris":{"android":"levelo://app?vid=bfb1a2f2-5dd7-404a-90bb-be56759f829f","ios":"levelo://app?vid=bfb1a2f2-5dd7-404a-90bb-be56759f829f"},"vehicle_type_id":"4","last_reported":1730311965,"current_range_meters":36000,"station_id":"ce4bho12rcd13ifvqh1g","pricing_plan_id":"cebpf4jnsgd1na2vs0mg"},{"bike_id":"20a610db-774d-40c4-84cd-6b52b20d234f","system_id":"levelo_inurba_marseille","lat":43.27947,"lon":5.41045,"is_reserved":false,"is_disabled":false,"rental_uris":{"android":"levelo://app?vid=20a610db-774d-40c4-84cd-6b52b20d234f","ios":"levelo://app?vid=20a610db-774d-40c4-84cd-6b52b20d234f"},"vehicle_type_id":"4","last_reported":1730311965,"current_range_meters":2800,"station_id":"ce4bhnp2rcd13ifvqh0g","pricing_plan_id":"cebpf4jnsgd1na2vs0mg"},{"bike_id":"e0f94954-d47d-4cc2-ac18-23707e16cd0b","system_id":"levelo_inurba_marseille","lat":43.2894,"lon":5.36641,"is_reserved":false,"is_disabled":false,"rental_uris":{"android":"levelo://app?vid=e0f94954-d47d-4cc2-ac18-23707e16cd0b","ios":"levelo://app?vid=e0f94954-d47d-4cc2-ac18-23707e16cd0b"},"vehicle_type_id":"4","last_reported":1730311965,"current_range_meters":36800,"station_id":"ce4bhap2rcd13ifvqek0","pricing_plan_id":"cebpf4jnsgd1na2vs0mg"},{"bike_id":"fd9c4c84-6c34-47bc-b568-c8c450072619","system_id":"levelo_inurba_marseille","lat":43.26565,"lon":5.37285,"is_reserved":false,"is_disabled":false,"rental_uris":{"android":"levelo://app?vid=fd9c4c84-6c34-47bc-b568-c8c450072619","ios":"levelo://app?vid=fd9c4c84-6c34-47bc-b568-c8c450072619"},"vehicle_type_id":"4","last_reported":1730311965,"current_range_meters":36400,"station_id":"ce4bhg12rcd13ifvqf70","pricing_plan_id":"cebpf4jnsgd1na2vs0mg"},{"bike_id":"101d2672-3d1e-4388-b8cc-5e283428ad36","system_id":"levelo_inurba_marseille","lat":43.32657,"lon":5.40996,"is_reserved":false,"is_disabled":false,"rental_uris":{"android":"levelo://app?vid=101d2672-3d1e-4388-b8cc-5e283428ad36","ios":"levelo://app?vid=101d2672-3d1e-4388-b8cc-5e283428ad36"},"vehicle_type_id":"4","last_reported":1730311965,"current_range_meters":8800,"station_id":"ce4bhpp2rcd13ifvqhgg","pricing_plan_id":"cebpf4jnsgd1na2vs0mg"},{"bike_id":"da5f84d0-f584-478e-b4b0-e232c1b2261f","system_id":"levelo_inurba_marseille","lat":43.29516,"lon":5.39044,"is_reserved":false,"is_disabled":false,"rental_uris":{"android":"levelo://app?vid=da5f84d0-f584-478e-b4b0-e232c1b2261f","ios":"levelo://app?vid=da5f84d0-f584-478e-b4b0-e232c1b2261f"},"vehicle_type_id":"4","last_reported":1730311965,"current_range_meters":30800,"station_id":"ce4bh3p2rcd13ifvqdp0","pricing_plan_id":"cebpf4jnsgd1na2vs0mg"},{"bike_id":"243d649b-21ad-487e-8cae-28b9135b91ec","system_id":"levelo_inurba_marseille","lat":43.281409,"lon":5.426594,"is_reserved":false,"is_disabled":false,"rental_uris":{"android":"levelo://app?vid=243d649b-21ad-487e-8cae-28b9135b91ec","ios":"levelo://app?vid=243d649b-21ad-487e-8cae-28b9135b91ec"},"vehicle_type_id":"4","last_reported":1730311965,"current_range_meters":17600,"station_id":"ce4bhnh2rcd13ifvqgug","pricing_plan_id":"cebpf4jnsgd1na2vs0mg"},{"bike_id":"06d2168c-a1af-4009-b8fd-9a6b7dd7757b","system_id":"levelo_inurba_marseille","lat":43.29273,"lon":5.3844,"is_reserved":false,"is_disabled":false,"rental_uris":{"android":"levelo://app?vid=06d2168c-a1af-4009-b8fd-9a6b7dd7757b","ios":"levelo://app?vid=06d2168c-a1af-4009-b8fd-9a6b7dd7757b"},"vehicle_type_id":"4","last_reported":1730311965,"current_range_meters":32000,"station_id":"ce4bh692rcd13ifvqea0","pricing_plan_id":"cebpf4jnsgd1na2vs0mg"},{"bike_id":"00570a9a-70dc-4fd9-a21d-b33665529146","system_id":"levelo_inurba_marseille","lat":43.23969,"lon":5.36634,"is_reserved":false,"is_disabled":false,"rental_uris":{"android":"levelo://app?vid=00570a9a-70dc-4fd9-a21d-b33665529146","ios":"levelo://app?vid=00570a9a-70dc-4fd9-a21d-b33665529146"},"vehicle_type_id":"4","last_reported":1730311965,"current_range_meters":40000,"station_id":"ce4bhi12rcd13ifvqfp0","pricing_plan_id":"cebpf4jnsgd1na2vs0mg"},{"bike_id":"9592eb1a-4a46-4535-b3fe-0af141dace43","system_id":"levelo_inurba_marseille","lat":43.2396,"lon":5.36637,"is_reserved":false,"is_disabled":false,"rental_uris":{"android":"levelo://app?vid=9592eb1a-4a46-4535-b3fe-0af141dace43","ios":"levelo://app?vid=9592eb1a-4a46-4535-b3fe-0af141dace43"},"vehicle_type_id":"4","last_reported":1730311965,"current_range_meters":30400,"station_id":"ce4bhi12rcd13ifvqfp0","pricing_plan_id":"cebpf4jnsgd1na2vs0mg"},{"bike_id":"eae479b6-c2a4-4159-b7d9-d0c150c9bc5c","system_id":"levelo_inurba_marseille","lat":43.3033,"lon":5.404378,"is_reserved":false,"is_disabled":false,"rental_uris":{"android":"levelo://app?vid=eae479b6-c2a4-4159-b7d9-d0c150c9bc5c","ios":"levelo://app?vid=eae479b6-c2a4-4159-b7d9-d0c150c9bc5c"},"vehicle_type_id":"4","last_reported":1730311965,"current_range_meters":20000,"station_id":"ce4bghh2rcd13ifvqb60","pricing_plan_id":"cebpf4jnsgd1na2vs0mg"},{"bike_id":"90c611d7-c7d0-4ae7-94f6-af426d46a0c4","system_id":"levelo_inurba_marseille","lat":43.30099,"lon":5.39073,"is_reserved":false,"is_disabled":false,"rental_uris":{"android":"levelo://app?vid=90c611d7-c7d0-4ae7-94f6-af426d46a0c4","ios":"levelo://app?vid=90c611d7-c7d0-4ae7-94f6-af426d46a0c4"},"vehicle_type_id":"4","last_reported":1730311965,"current_range_meters":26000,"station_id":"ce4bh192rcd13ifvqdb0","pricing_plan_id":"cebpf4jnsgd1na2vs0mg"},{"bike_id":"ceff3b63-196a-47b7-b110-a9008fb9e96e","system_id":"levelo_inurba_marseille","lat":43.30413,"lon":5.41276,"is_reserved":false,"is_disabled":false,"rental_uris":{"android":"levelo://app?vid=ceff3b63-196a-47b7-b110-a9008fb9e96e","ios":"levelo://app?vid=ceff3b63-196a-47b7-b110-a9008fb9e96e"},"vehicle_type_id":"4","last_reported":1730311965,"current_range_meters":38400,"station_id":"ce4bhop2rcd13ifvqh8g","pricing_plan_id":"cebpf4jnsgd1na2vs0mg"},{"bike_id":"0774237d-1afe-4da2-809c-792bf2eaf74f","system_id":"levelo_inurba_marseille","lat":43.28616,"lon":5.35111,"is_reserved":false,"is_disabled":false,"rental_uris":{"android":"levelo://app?vid=0774237d-1afe-4da2-809c-792bf2eaf74f","ios":"levelo://app?vid=0774237d-1afe-4da2-809c-792bf2eaf74f"},"vehicle_type_id":"4","last_reported":1730311965,"current_range_meters":38800,"station_id":"ce4bhch2rcd13ifvqeug","pricing_plan_id":"cebpf4jnsgd1na2vs0mg"},{"bike_id":"1a7b1fc5-5eca-4e21-a3ec-989bf56b8991","system_id":"levelo_inurba_marseille","lat":43.26961,"lon":5.38638,"is_reserved":false,"is_disabled":false,"rental_uris":{"android":"levelo://app?vid=1a7b1fc5-5eca-4e21-a3ec-989bf56b8991","ios":"levelo://app?vid=1a7b1fc5-5eca-4e21-a3ec-989bf56b8991"},"vehicle_type_id":"4","last_reported":1730311965,"current_range_meters":8000,"station_id":"ce4bhh92rcd13ifvqfh0","pricing_plan_id":"cebpf4jnsgd1na2vs0mg"},{"bike_id":"12795c01-3a1c-483c-954f-6283275b7596","system_id":"levelo_inurba_marseille","lat":43.28702,"lon":5.3739,"is_reserved":false,"is_disabled":false,"rental_uris":{"android":"levelo://app?vid=12795c01-3a1c-483c-954f-6283275b7596","ios":"levelo://app?vid=12795c01-3a1c-483c-954f-6283275b7596"},"vehicle_type_id":"4","last_reported":1730311965,"current_range_meters":24000,"station_id":"ce4bh3p2rcd13ifvqdq0","pricing_plan_id":"cebpf4jnsgd1na2vs0mg"},{"bike_id":"0f4bb216-ae62-44ef-bfbc-0690d837d681","system_id":"levelo_inurba_marseille","lat":43.29268,"lon":5.38451,"is_reserved":false,"is_disabled":false,"rental_uris":{"android":"levelo://app?vid=0f4bb216-ae62-44ef-bfbc-0690d837d681","ios":"levelo://app?vid=0f4bb216-ae62-44ef-bfbc-0690d837d681"},"vehicle_type_id":"4","last_reported":1730311965,"current_range_meters":26800,"station_id":"ce4bh692rcd13ifvqea0","pricing_plan_id":"cebpf4jnsgd1na2vs0mg"},{"bike_id":"0c252f55-e71d-4a5b-9b87-42037e37f41f","system_id":"levelo_inurba_marseille","lat":43.292,"lon":5.35806,"is_reserved":false,"is_disabled":false,"rental_uris":{"android":"levelo://app?vid=0c252f55-e71d-4a5b-9b87-42037e37f41f","ios":"levelo://app?vid=0c252f55-e71d-4a5b-9b87-42037e37f41f"},"vehicle_type_id":"4","last_reported":1730311965,"current_range_meters":35200,"station_id":"ce4bhb12rcd13ifvqel0","pricing_plan_id":"cebpf4jnsgd1na2vs0mg"},{"bike_id":"e9f5f426-ebab-4c99-b125-b52bd91c83fa","system_id":"levelo_inurba_marseille","lat":43.30145,"lon":5.38068,"is_reserved":false,"is_disabled":false,"rental_uris":{"android":"levelo://app?vid=e9f5f426-ebab-4c99-b125-b52bd91c83fa","ios":"levelo://app?vid=e9f5f426-ebab-4c99-b125-b52bd91c83fa"},"vehicle_type_id":"4","last_reported":1730311965,"current_range_meters":25200,"station_id":"ce4bgjp2rcd13ifvqbh0","pricing_plan_id":"cebpf4jnsgd1na2vs0mg"},{"bike_id":"6ca20d50-fd85-4c39-9e1e-5e417152c3d1","system_id":"levelo_inurba_marseille","lat":43.29603,"lon":5.381,"is_reserved":false,"is_disabled":false,"rental_uris":{"android":"levelo://app?vid=6ca20d50-fd85-4c39-9e1e-5e417152c3d1","ios":"levelo://app?vid=6ca20d50-fd85-4c39-9e1e-5e417152c3d1"},"vehicle_type_id":"4","last_reported":1730311965,"current_range_meters":33600,"station_id":"ce4bgl12rcd13ifvqbo0","pricing_plan_id":"cebpf4jnsgd1na2vs0mg"},{"bike_id":"4f61b958-5171-4c80-b41c-68819467955d","system_id":"levelo_inurba_marseille","lat":43.26959,"lon":5.38637,"is_reserved":false,"is_disabled":false,"rental_uris":{"android":"levelo://app?vid=4f61b958-5171-4c80-b41c-68819467955d","ios":"levelo://app?vid=4f61b958-5171-4c80-b41c-68819467955d"},"vehicle_type_id":"4","last_reported":1730311965,"current_range_meters":4400,"station_id":"ce4bhh92rcd13ifvqfh0","pricing_plan_id":"cebpf4jnsgd1na2vs0mg"},{"bike_id":"4d93c783-c1e1-489d-adbc-f48419b38665","system_id":"levelo_inurba_marseille","lat":43.28936,"lon":5.36395,"is_reserved":false,"is_disabled":false,"rental_uris":{"android":"levelo://app?vid=4d93c783-c1e1-489d-adbc-f48419b38665","ios":"levelo://app?vid=4d93c783-c1e1-489d-adbc-f48419b38665"},"vehicle_type_id":"4","last_reported":1730311965,"current_range_meters":38800,"station_id":"ce4bhc92rcd13ifvqetg","pricing_plan_id":"cebpf4jnsgd1na2vs0mg"},{"bike_id":"26dbc6f6-32d1-4fe3-9dd9-117f22868aea","system_id":"levelo_inurba_marseille","lat":43.29961,"lon":5.38501,"is_reserved":false,"is_disabled":false,"rental_uris":{"android":"levelo://app?vid=26dbc6f6-32d1-4fe3-9dd9-117f22868aea","ios":"levelo://app?vid=26dbc6f6-32d1-4fe3-9dd9-117f22868aea"},"vehicle_type_id":"4","last_reported":1730311965,"current_range_meters":24400,"station_id":"ce4bgj92rcd13ifvqbd0","pricing_plan_id":"cebpf4jnsgd1na2vs0mg"},{"bike_id":"5d37d37c-7556-4e40-a6e3-4d3fbf260681","system_id":"levelo_inurba_marseille","lat":43.26682,"lon":5.38277,"is_reserved":false,"is_disabled":false,"rental_uris":{"android":"levelo://app?vid=5d37d37c-7556-4e40-a6e3-4d3fbf260681","ios":"levelo://app?vid=5d37d37c-7556-4e40-a6e3-4d3fbf260681"},"vehicle_type_id":"4","last_reported":1730311965,"current_range_meters":21600,"station_id":"ce4bhg92rcd13ifvqf90","pricing_plan_id":"cebpf4jnsgd1na2vs0mg"},{"bike_id":"4ad1a6a0-d939-49b5-b869-57801235a14f","system_id":"levelo_inurba_marseille","lat":43.23194,"lon":5.35561,"is_reserved":false,"is_disabled":false,"rental_uris":{"android":"levelo://app?vid=4ad1a6a0-d939-49b5-b869-57801235a14f","ios":"levelo://app?vid=4ad1a6a0-d939-49b5-b869-57801235a14f"},"vehicle_type_id":"4","last_reported":1730311965,"current_range_meters":38000,"station_id":"ce4bhu92rcd13ifvqi70","pricing_plan_id":"cebpf4jnsgd1na2vs0mg"},{"bike_id":"b55c79c6-cb86-4a49-b99f-dae8963d0dc6","system_id":"levelo_inurba_marseille","lat":43.28002,"lon":5.41653,"is_reserved":false,"is_disabled":false,"rental_uris":{"android":"levelo://app?vid=b55c79c6-cb86-4a49-b99f-dae8963d0dc6","ios":"levelo://app?vid=b55c79c6-cb86-4a49-b99f-dae8963d0dc6"},"vehicle_type_id":"4","last_reported":1730311965,"current_range_meters":36400,"station_id":"ce4bho12rcd13ifvqh1g","pricing_plan_id":"cebpf4jnsgd1na2vs0mg"},{"bike_id":"985eb941-02bd-4b7c-80fa-6b1c721650c5","system_id":"levelo_inurba_marseille","lat":43.28268,"lon":5.35077,"is_reserved":false,"is_disabled":false,"rental_uris":{"android":"levelo://app?vid=985eb941-02bd-4b7c-80fa-6b1c721650c5","ios":"levelo://app?vid=985eb941-02bd-4b7c-80fa-6b1c721650c5"},"vehicle_type_id":"4","last_reported":1730311965,"current_range_meters":0,"station_id":"ce4bhbp2rcd13ifvqerg","pricing_plan_id":"cebpf4jnsgd1na2vs0mg"},{"bike_id":"3f636e6d-e44e-46bc-af17-1205c5467eb0","system_id":"levelo_inurba_marseille","lat":43.301372,"lon":5.387688,"is_reserved":false,"is_disabled":false,"rental_uris":{"android":"levelo://app?vid=3f636e6d-e44e-46bc-af17-1205c5467eb0","ios":"levelo://app?vid=3f636e6d-e44e-46bc-af17-1205c5467eb0"},"vehicle_type_id":"4","last_reported":1730311965,"current_range_meters":4800,"station_id":"ce4bh492rcd13ifvqdug","pricing_plan_id":"cebpf4jnsgd1na2vs0mg"},{"bike_id":"0d4e0479-d8a2-45f2-91e0-dd87823320fe","system_id":"levelo_inurba_marseille","lat":43.33777,"lon":5.37469,"is_reserved":false,"is_disabled":false,"rental_uris":{"android":"levelo://app?vid=0d4e0479-d8a2-45f2-91e0-dd87823320fe","ios":"levelo://app?vid=0d4e0479-d8a2-45f2-91e0-dd87823320fe"},"vehicle_type_id":"4","last_reported":1730311965,"current_range_meters":34000,"station_id":"","pricing_plan_id":"cebpf4jnsgd1na2vs0mg"},{"bike_id":"149f5025-1f47-4bb1-9662-2699477b6d0c","system_id":"levelo_inurba_marseille","lat":43.31371,"lon":5.38489,"is_reserved":false,"is_disabled":false,"rental_uris":{"android":"levelo://app?vid=149f5025-1f47-4bb1-9662-2699477b6d0c","ios":"levelo://app?vid=149f5025-1f47-4bb1-9662-2699477b6d0c"},"vehicle_type_id":"4","last_reported":1730311965,"current_range_meters":38800,"station_id":"ce4bgt92rcd13ifvqcf0","pricing_plan_id":"cebpf4jnsgd1na2vs0mg"},{"bike_id":"f75218d2-9f5f-4354-a20a-3ef374aac132","system_id":"levelo_inurba_marseille","lat":43.29005,"lon":5.35622,"is_reserved":false,"is_disabled":false,"rental_uris":{"android":"levelo://app?vid=f75218d2-9f5f-4354-a20a-3ef374aac132","ios":"levelo://app?vid=f75218d2-9f5f-4354-a20a-3ef374aac132"},"vehicle_type_id":"4","last_reported":1730311965,"current_range_meters":38800,"station_id":"ce4bhb92rcd13ifvqen0","pricing_plan_id":"cebpf4jnsgd1na2vs0mg"},{"bike_id":"b49dfc1b-881c-4951-a369-99d6f67cecc5","system_id":"levelo_inurba_marseille","lat":43.28851,"lon":5.35849,"is_reserved":false,"is_disabled":false,"rental_uris":{"android":"levelo://app?vid=b49dfc1b-881c-4951-a369-99d6f67cecc5","ios":"levelo://app?vid=b49dfc1b-881c-4951-a369-99d6f67cecc5"},"vehicle_type_id":"4","last_reported":1730311965,"current_range_meters":38800,"station_id":"ce4bhb12rcd13ifvqem0","pricing_plan_id":"cebpf4jnsgd1na2vs0mg"},{"bike_id":"0f86a94f-4744-4c49-afed-b8732ab4b3cc","system_id":"levelo_inurba_marseille","lat":43.33026,"lon":5.3905,"is_reserved":false,"is_disabled":false,"rental_uris":{"android":"levelo://app?vid=0f86a94f-4744-4c49-afed-b8732ab4b3cc","ios":"levelo://app?vid=0f86a94f-4744-4c49-afed-b8732ab4b3cc"},"vehicle_type_id":"4","last_reported":1730311965,"current_range_meters":12400,"station_id":"ce4bhr92rcd13ifvqhrg","pricing_plan_id":"cebpf4jnsgd1na2vs0mg"},{"bike_id":"b2aaf37b-7060-4160-a525-13da13a7363e","system_id":"levelo_inurba_marseille","lat":43.29525,"lon":5.38537,"is_reserved":false,"is_disabled":false,"rental_uris":{"android":"levelo://app?vid=b2aaf37b-7060-4160-a525-13da13a7363e","ios":"levelo://app?vid=b2aaf37b-7060-4160-a525-13da13a7363e"},"vehicle_type_id":"4","last_reported":1730311965,"current_range_meters":27200,"station_id":"ce4bgih2rcd13ifvqba0","pricing_plan_id":"cebpf4jnsgd1na2vs0mg"},{"bike_id":"0f2bc26f-c0db-42df-a418-17bec4db805d","system_id":"levelo_inurba_marseille","lat":43.289368,"lon":5.366474,"is_reserved":false,"is_disabled":false,"rental_uris":{"android":"levelo://app?vid=0f2bc26f-c0db-42df-a418-17bec4db805d","ios":"levelo://app?vid=0f2bc26f-c0db-42df-a418-17bec4db805d"},"vehicle_type_id":"4","last_reported":1730311965,"current_range_meters":8000,"station_id":"ce4bh192rcd13ifvqdd0","pricing_plan_id":"cebpf4jnsgd1na2vs0mg"},{"bike_id":"4d025f5b-93db-45ee-9a90-94a677aa2c9a","system_id":"levelo_inurba_marseille","lat":43.26954,"lon":5.38639,"is_reserved":false,"is_disabled":false,"rental_uris":{"android":"levelo://app?vid=4d025f5b-93db-45ee-9a90-94a677aa2c9a","ios":"levelo://app?vid=4d025f5b-93db-45ee-9a90-94a677aa2c9a"},"vehicle_type_id":"4","last_reported":1730311965,"current_range_meters":33600,"station_id":"ce4bhh92rcd13ifvqfh0","pricing_plan_id":"cebpf4jnsgd1na2vs0mg"},{"bike_id":"7e17ef22-fcc0-4c5f-a15c-161680a388ce","system_id":"levelo_inurba_marseille","lat":43.29228,"lon":5.3607,"is_reserved":false,"is_disabled":false,"rental_uris":{"android":"levelo://app?vid=7e17ef22-fcc0-4c5f-a15c-161680a388ce","ios":"levelo://app?vid=7e17ef22-fcc0-4c5f-a15c-161680a388ce"},"vehicle_type_id":"4","last_reported":1730311965,"current_range_meters":36800,"station_id":"ce4bhbh2rcd13ifvqeqg","pricing_plan_id":"cebpf4jnsgd1na2vs0mg"},{"bike_id":"2a882200-e950-4350-8573-5d6c9d4dcc39","system_id":"levelo_inurba_marseille","lat":43.23963,"lon":5.3664,"is_reserved":false,"is_disabled":false,"rental_uris":{"android":"levelo://app?vid=2a882200-e950-4350-8573-5d6c9d4dcc39","ios":"levelo://app?vid=2a882200-e950-4350-8573-5d6c9d4dcc39"},"vehicle_type_id":"4","last_reported":1730311965,"current_range_meters":38800,"station_id":"ce4bhi12rcd13ifvqfp0","pricing_plan_id":"cebpf4jnsgd1na2vs0mg"},{"bike_id":"1e81dc5e-d10e-4461-b792-36d5e59405ae","system_id":"levelo_inurba_marseille","lat":43.31076,"lon":5.38363,"is_reserved":false,"is_disabled":false,"rental_uris":{"android":"levelo://app?vid=1e81dc5e-d10e-4461-b792-36d5e59405ae","ios":"levelo://app?vid=1e81dc5e-d10e-4461-b792-36d5e59405ae"},"vehicle_type_id":"4","last_reported":1730311965,"current_range_meters":38800,"station_id":"ce4bgv92rcd13ifvqcr0","pricing_plan_id":"cebpf4jnsgd1na2vs0mg"},{"bike_id":"f20f5b9c-89b9-4b26-8e9d-6a09ce204200","system_id":"levelo_inurba_marseille","lat":43.22925,"lon":5.35375,"is_reserved":false,"is_disabled":false,"rental_uris":{"android":"levelo://app?vid=f20f5b9c-89b9-4b26-8e9d-6a09ce204200","ios":"levelo://app?vid=f20f5b9c-89b9-4b26-8e9d-6a09ce204200"},"vehicle_type_id":"4","last_reported":1730311965,"current_range_meters":36800,"station_id":"cpo3532slgdg3j2ikp40","pricing_plan_id":"cebpf4jnsgd1na2vs0mg"},{"bike_id":"f234d723-4727-4822-a8c3-b0baa821f8fd","system_id":"levelo_inurba_marseille","lat":43.246514,"lon":5.388918,"is_reserved":false,"is_disabled":false,"rental_uris":{"android":"levelo://app?vid=f234d723-4727-4822-a8c3-b0baa821f8fd","ios":"levelo://app?vid=f234d723-4727-4822-a8c3-b0baa821f8fd"},"vehicle_type_id":"4","last_reported":1730311965,"current_range_meters":24000,"station_id":"ce4bhg12rcd13ifvqf60","pricing_plan_id":"cebpf4jnsgd1na2vs0mg"},{"bike_id":"31774545-9df9-41fd-af15-cda9dc2c0ab1","system_id":"levelo_inurba_marseille","lat":43.33026,"lon":5.39037,"is_reserved":false,"is_disabled":false,"rental_uris":{"android":"levelo://app?vid=31774545-9df9-41fd-af15-cda9dc2c0ab1","ios":"levelo://app?vid=31774545-9df9-41fd-af15-cda9dc2c0ab1"},"vehicle_type_id":"4","last_reported":1730311965,"current_range_meters":26800,"station_id":"ce4bhr92rcd13ifvqhrg","pricing_plan_id":"cebpf4jnsgd1na2vs0mg"},{"bike_id":"3df253ab-5bbe-4fe7-9f9c-637a071fc4ce","system_id":"levelo_inurba_marseille","lat":43.30787,"lon":5.37654,"is_reserved":false,"is_disabled":false,"rental_uris":{"android":"levelo://app?vid=3df253ab-5bbe-4fe7-9f9c-637a071fc4ce","ios":"levelo://app?vid=3df253ab-5bbe-4fe7-9f9c-637a071fc4ce"},"vehicle_type_id":"4","last_reported":1730311965,"current_range_meters":28400,"station_id":"ce4bgv92rcd13ifvqcq0","pricing_plan_id":"cebpf4jnsgd1na2vs0mg"},{"bike_id":"8cfb34a8-f70b-42ae-971a-9e62cb640328","system_id":"levelo_inurba_marseille","lat":43.27812,"lon":5.40713,"is_reserved":false,"is_disabled":false,"rental_uris":{"android":"levelo://app?vid=8cfb34a8-f70b-42ae-971a-9e62cb640328","ios":"levelo://app?vid=8cfb34a8-f70b-42ae-971a-9e62cb640328"},"vehicle_type_id":"4","last_reported":1730311965,"current_range_meters":36400,"station_id":"ce4bhnh2rcd13ifvqgtg","pricing_plan_id":"cebpf4jnsgd1na2vs0mg"},{"bike_id":"94484cb6-76c0-445a-9920-b160d03d6892","system_id":"levelo_inurba_marseille","lat":43.29025,"lon":5.38132,"is_reserved":false,"is_disabled":false,"rental_uris":{"android":"levelo://app?vid=94484cb6-76c0-445a-9920-b160d03d6892","ios":"levelo://app?vid=94484cb6-76c0-445a-9920-b160d03d6892"},"vehicle_type_id":"4","last_reported":1730311965,"current_range_meters":28000,"station_id":"ce4bh4p2rcd13ifvqe1g","pricing_plan_id":"cebpf4jnsgd1na2vs0mg"},{"bike_id":"165828b1-d06e-4b70-b3a7-636ec8e9ee04","system_id":"levelo_inurba_marseille","lat":43.24166,"lon":5.36401,"is_reserved":false,"is_disabled":false,"rental_uris":{"android":"levelo://app?vid=165828b1-d06e-4b70-b3a7-636ec8e9ee04","ios":"levelo://app?vid=165828b1-d06e-4b70-b3a7-636ec8e9ee04"},"vehicle_type_id":"4","last_reported":1730311965,"current_range_meters":36800,"station_id":"cpo36qri1sfpv3e86is0","pricing_plan_id":"cebpf4jnsgd1na2vs0mg"},{"bike_id":"3f2b2b2c-60fc-45f4-9c71-8c297e89653a","system_id":"levelo_inurba_marseille","lat":43.2904,"lon":5.37578,"is_reserved":false,"is_disabled":false,"rental_uris":{"android":"levelo://app?vid=3f2b2b2c-60fc-45f4-9c71-8c297e89653a","ios":"levelo://app?vid=3f2b2b2c-60fc-45f4-9c71-8c297e89653a"},"vehicle_type_id":"4","last_reported":1730311965,"current_range_meters":20000,"station_id":"ce4bh692rcd13ifvqe90","pricing_plan_id":"cebpf4jnsgd1na2vs0mg"},{"bike_id":"b641048b-295c-41c1-8a1c-b4f787bc39b8","system_id":"levelo_inurba_marseille","lat":43.31086,"lon":5.42429,"is_reserved":false,"is_disabled":false,"rental_uris":{"android":"levelo://app?vid=b641048b-295c-41c1-8a1c-b4f787bc39b8","ios":"levelo://app?vid=b641048b-295c-41c1-8a1c-b4f787bc39b8"},"vehicle_type_id":"4","last_reported":1730311965,"current_range_meters":38800,"station_id":"ce4bhp92rcd13ifvqhag","pricing_plan_id":"cebpf4jnsgd1na2vs0mg"},{"bike_id":"fc0fb8b5-21a9-4e10-8ab6-5fe46eea5cb1","system_id":"levelo_inurba_marseille","lat":43.30433,"lon":5.39751,"is_reserved":false,"is_disabled":false,"rental_uris":{"android":"levelo://app?vid=fc0fb8b5-21a9-4e10-8ab6-5fe46eea5cb1","ios":"levelo://app?vid=fc0fb8b5-21a9-4e10-8ab6-5fe46eea5cb1"},"vehicle_type_id":"4","last_reported":1730311965,"current_range_meters":29600,"station_id":"ce4bh092rcd13ifvqd20","pricing_plan_id":"cebpf4jnsgd1na2vs0mg"},{"bike_id":"282344ff-1a48-4151-800b-829e816fc2f8","system_id":"levelo_inurba_marseille","lat":43.29259,"lon":5.40904,"is_reserved":false,"is_disabled":false,"rental_uris":{"android":"levelo://app?vid=282344ff-1a48-4151-800b-829e816fc2f8","ios":"levelo://app?vid=282344ff-1a48-4151-800b-829e816fc2f8"},"vehicle_type_id":"4","last_reported":1730311965,"current_range_meters":6400,"station_id":"ce4bh192rcd13ifvqdc0","pricing_plan_id":"cebpf4jnsgd1na2vs0mg"},{"bike_id":"35559dac-b223-4d7c-8d31-194ad44f9ae3","system_id":"levelo_inurba_marseille","lat":43.295304,"lon":5.385426,"is_reserved":false,"is_disabled":false,"rental_uris":{"android":"levelo://app?vid=35559dac-b223-4d7c-8d31-194ad44f9ae3","ios":"levelo://app?vid=35559dac-b223-4d7c-8d31-194ad44f9ae3"},"vehicle_type_id":"4","last_reported":1730311965,"current_range_meters":34000,"station_id":"ce4bgih2rcd13ifvqba0","pricing_plan_id":"cebpf4jnsgd1na2vs0mg"},{"bike_id":"096f3550-7e56-4a5d-bb06-6befb7e6a615","system_id":"levelo_inurba_marseille","lat":43.29029,"lon":5.38645,"is_reserved":false,"is_disabled":false,"rental_uris":{"android":"levelo://app?vid=096f3550-7e56-4a5d-bb06-6befb7e6a615","ios":"levelo://app?vid=096f3550-7e56-4a5d-bb06-6befb7e6a615"},"vehicle_type_id":"4","last_reported":1730311965,"current_range_meters":27200,"station_id":"ce4bh4p2rcd13ifvqe0g","pricing_plan_id":"cebpf4jnsgd1na2vs0mg"},{"bike_id":"4d470e4e-2455-41f4-b3a4-9bc29488aec8","system_id":"levelo_inurba_marseille","lat":43.32291,"lon":5.3828,"is_reserved":false,"is_disabled":false,"rental_uris":{"android":"levelo://app?vid=4d470e4e-2455-41f4-b3a4-9bc29488aec8","ios":"levelo://app?vid=4d470e4e-2455-41f4-b3a4-9bc29488aec8"},"vehicle_type_id":"4","last_reported":1730311965,"current_range_meters":40000,"station_id":"ce4bhr12rcd13ifvqhqg","pricing_plan_id":"cebpf4jnsgd1na2vs0mg"},{"bike_id":"6a7bf69e-e48c-4311-99d1-0f0894999a5f","system_id":"levelo_inurba_marseille","lat":43.27815,"lon":5.40715,"is_reserved":false,"is_disabled":false,"rental_uris":{"android":"levelo://app?vid=6a7bf69e-e48c-4311-99d1-0f0894999a5f","ios":"levelo://app?vid=6a7bf69e-e48c-4311-99d1-0f0894999a5f"},"vehicle_type_id":"4","last_reported":1730311965,"current_range_meters":16400,"station_id":"ce4bhnh2rcd13ifvqgtg","pricing_plan_id":"cebpf4jnsgd1na2vs0mg"},{"bike_id":"175aac06-ad01-4de9-a2a2-b7750d05166a","system_id":"levelo_inurba_marseille","lat":43.29783,"lon":5.39349,"is_reserved":false,"is_disabled":false,"rental_uris":{"android":"levelo://app?vid=175aac06-ad01-4de9-a2a2-b7750d05166a","ios":"levelo://app?vid=175aac06-ad01-4de9-a2a2-b7750d05166a"},"vehicle_type_id":"4","last_reported":1730311965,"current_range_meters":30400,"station_id":"chh1huq6cuj3fo74tm60","pricing_plan_id":"cebpf4jnsgd1na2vs0mg"},{"bike_id":"e542c56a-9a3e-4133-a88c-657b6c94dc88","system_id":"levelo_inurba_marseille","lat":43.29037,"lon":5.35919,"is_reserved":false,"is_disabled":false,"rental_uris":{"android":"levelo://app?vid=e542c56a-9a3e-4133-a88c-657b6c94dc88","ios":"levelo://app?vid=e542c56a-9a3e-4133-a88c-657b6c94dc88"},"vehicle_type_id":"4","last_reported":1730311965,"current_range_meters":9200,"station_id":"ce4bha92rcd13ifvqeg0","pricing_plan_id":"cebpf4jnsgd1na2vs0mg"},{"bike_id":"beb469c8-0f43-42e9-9d8b-4594e8ada2cb","system_id":"levelo_inurba_marseille","lat":43.29196,"lon":5.39312,"is_reserved":false,"is_disabled":false,"rental_uris":{"android":"levelo://app?vid=beb469c8-0f43-42e9-9d8b-4594e8ada2cb","ios":"levelo://app?vid=beb469c8-0f43-42e9-9d8b-4594e8ada2cb"},"vehicle_type_id":"4","last_reported":1730311965,"current_range_meters":31200,"station_id":"ce4bh192rcd13ifvqdd0","pricing_plan_id":"cebpf4jnsgd1na2vs0mg"},{"bike_id":"cdce1d09-0ad6-43bf-9b15-6784bd503432","system_id":"levelo_inurba_marseille","lat":43.31076,"lon":5.38362,"is_reserved":false,"is_disabled":false,"rental_uris":{"android":"levelo://app?vid=cdce1d09-0ad6-43bf-9b15-6784bd503432","ios":"levelo://app?vid=cdce1d09-0ad6-43bf-9b15-6784bd503432"},"vehicle_type_id":"4","last_reported":1730311965,"current_range_meters":28400,"station_id":"ce4bgv92rcd13ifvqcr0","pricing_plan_id":"cebpf4jnsgd1na2vs0mg"},{"bike_id":"b5eefd57-56bd-40e7-bd70-89a5925881e4","system_id":"levelo_inurba_marseille","lat":43.29444,"lon":5.39758,"is_reserved":false,"is_disabled":false,"rental_uris":{"android":"levelo://app?vid=b5eefd57-56bd-40e7-bd70-89a5925881e4","ios":"levelo://app?vid=b5eefd57-56bd-40e7-bd70-89a5925881e4"},"vehicle_type_id":"4","last_reported":1730311965,"current_range_meters":28800,"station_id":"ce4bh3h2rcd13ifvqdo0","pricing_plan_id":"cebpf4jnsgd1na2vs0mg"},{"bike_id":"be290d4e-1868-416a-b0ff-f43bed3f683b","system_id":"levelo_inurba_marseille","lat":43.29274,"lon":5.38441,"is_reserved":false,"is_disabled":false,"rental_uris":{"android":"levelo://app?vid=be290d4e-1868-416a-b0ff-f43bed3f683b","ios":"levelo://app?vid=be290d4e-1868-416a-b0ff-f43bed3f683b"},"vehicle_type_id":"4","last_reported":1730311965,"current_range_meters":17600,"station_id":"ce4bh692rcd13ifvqea0","pricing_plan_id":"cebpf4jnsgd1na2vs0mg"},