{"last_updated":1740848809,"ttl":60,"version":"2.2","data":{"bikes":[{"bike_id":"2290bcd6-3531-40a8-8e00-5c5998bf414d","system_id":"levelo_inurba_marseille","lat":43.30421,"lon":5.41299,"is_reserved":false,"is_disabled":false,"rental_uris":{"android":"levelo://app?vid=2290bcd6-3531-40a8-8e00-5c5998bf414d","ios":"levelo://app?vid=2290bcd6-3531-40a8-8e00-5c5998bf414d"},"vehicle_type_id":"4","last_reported":1740848810,"current_range_meters":3200,"station_id":"ce4bhop2rcd13ifvqh8g","pricing_plan_id":"cebpf4jnsgd1na2vs0mg"},{"bike_id":"7ad1cd54-2896-4924-9f3d-759749620dc9","system_id":"levelo_inurba_marseille","lat":43.2931,"lon":5.37453,"is_reserved":false,"is_disabled":false,"rental_uris":{"android":"levelo://app?vid=7ad1cd54-2896-4924-9f3d-759749620dc9","ios":"levelo://app?vid=7ad1cd54-2896-4924-9f3d-759749620dc9"},"vehicle_type_id":"4","last_reported":1740848810,"current_range_meters":3200,"station_id":"ce4bgi12rcd13ifvqb70","pricing_plan_id":"cebpf4jnsgd1na2vs0mg"},{"bike_id":"07ad9f48-22e5-439f-9c8b-db98a289218b","system_id":"levelo_inurba_marseille","lat":43.27206,"lon":5.39169,"is_reserved":false,"is_disabled":false,"rental_uris":{"android":"levelo://app?vid=07ad9f48-22e5-439f-9c8b-db98a289218b","ios":"levelo://app?vid=07ad9f48-22e5-439f-9c8b-db98a289218b"},"vehicle_type_id":"4","last_reported":1740848810,"current_range_meters":3200,"station_id":"ce4bhhp2rcd13ifvqfm0","pricing_plan_id":"cebpf4jnsgd1na2vs0mg"},{"bike_id":"c1a982a6-adf7-42b7-b654-434335df9fcd","system_id":"levelo_inurba_marseille","lat":43.29519,"lon":5.39028,"is_reserved":false,"is_disabled":false,"rental_uris":{"android":"levelo://app?vid=c1a982a6-adf7-42b7-b654-434335df9fcd","ios":"levelo://app?vid=c1a982a6-adf7-42b7-b654-434335df9fcd"},"vehicle_type_id":"4","last_reported":1740848810,"current_range_meters":3600,"station_id":"ce4bh3p2rcd13ifvqdp0","pricing_plan_id":"cebpf4jnsgd1na2vs0mg"},{"bike_id":"9fa6a8fb-1884-4c88-9d3d-114ae3b90f98","system_id":"levelo_inurba_marseille","lat":43.28959,"lon":5.37841,"is_reserved":false,"is_disabled":false,"rental_uris":{"android":"levelo://app?vid=9fa6a8fb-1884-4c88-9d3d-114ae3b90f98","ios":"levelo://app?vid=9fa6a8fb-1884-4c88-9d3d-114ae3b90f98"},"vehicle_type_id":"4","last_reported":1740848810,"current_range_meters":4000,"station_id":"ce4bh9p2rcd13ifvqed0","pricing_plan_id":"cebpf4jnsgd1na2vs0mg"},{"bike_id":"d4349719-fa37-4126-a261-a48c3369e558","system_id":"levelo_inurba_marseille","lat":43.29537,"lon":5.38542,"is_reserved":false,"is_disabled":false,"rental_uris":{"android":"levelo://app?vid=d4349719-fa37-4126-a261-a48c3369e558","ios":"levelo://app?vid=d4349719-fa37-4126-a261-a48c3369e558"},"vehicle_type_id":"4","last_reported":1740848810,"current_range_meters":4000,"station_id":"ce4bgih2rcd13ifvqba0","pricing_plan_id":"cebpf4jnsgd1na2vs0mg"},{"bike_id":"49e0a034-277f-4658-83cf-83e39377ef50","system_id":"levelo_inurba_marseille","lat":43.29516,"lon":5.37923,"is_reserved":false,"is_disabled":false,"rental_uris":{"android":"levelo://app?vid=49e0a034-277f-4658-83cf-83e39377ef50","ios":"levelo://app?vid=49e0a034-277f-4658-83cf-83e39377ef50"},"vehicle_type_id":"4","last_reported":1740848810,"current_range_meters":4800,"station_id":"","pricing_plan_id":"cebpf4jnsgd1na2vs0mg"},{"bike_id":"8b38a4b6-41fb-4be6-aa87-cfc1788cc310","system_id":"levelo_inurba_marseille","lat":43.2898,"lon":5.3783,"is_reserved":false,"is_disabled":false,"rental_uris":{"android":"levelo://app?vid=8b38a4b6-41fb-4be6-aa87-cfc1788cc310","ios":"levelo://app?vid=8b38a4b6-41fb-4be6-aa87-cfc1788cc310"},"vehicle_type_id":"4","last_reported":1740848810,"current_range_meters":4800,"station_id":"ce4bh9p2rcd13ifvqed0","pricing_plan_id":"cebpf4jnsgd1na2vs0mg"},{"bike_id":"4d05223e-df25-4530-a670-ae0e3b1fad3a","system_id":"levelo_inurba_marseille","lat":43.29317,"lon":5.37459,"is_reserved":false,"is_disabled":false,"rental_uris":{"android":"levelo://app?vid=4d05223e-df25-4530-a670-ae0e3b1fad3a","ios":"levelo://app?vid=4d05223e-df25-4530-a670-ae0e3b1fad3a"},"vehicle_type_id":"4","last_reported":1740848810,"current_range_meters":4800,"station_id":"ce4bgi12rcd13ifvqb70","pricing_plan_id":"cebpf4jnsgd1na2vs0mg"},{"bike_id":"87b985b0-b21a-457b-876e-995bf2ff8f5e","system_id":"levelo_inurba_marseille","lat":43.32115,"lon":5.36789,"is_reserved":false,"is_disabled":false,"rental_uris":{"android":"levelo://app?vid=87b985b0-b21a-457b-876e-995bf2ff8f5e","ios":"levelo://app?vid=87b985b0-b21a-457b-876e-995bf2ff8f5e"},"vehicle_type_id":"4","last_reported":1740848810,"current_range_meters":5600,"station_id":"ce4bhrh2rcd13ifvqhug","pricing_plan_id":"cebpf4jnsgd1na2vs0mg"},{"bike_id":"b9b39449-888e-4ff3-bea4-c6b57d2fca42","system_id":"levelo_inurba_marseille","lat":43.29849,"lon":5.36283,"is_reserved":false,"is_disabled":false,"rental_uris":{"android":"levelo://app?vid=b9b39449-888e-4ff3-bea4-c6b57d2fca42","ios":"levelo://app?vid=b9b39449-888e-4ff3-bea4-c6b57d2fca42"},"vehicle_type_id":"4","last_reported":1740848810,"current_range_meters":5600,"station_id":"ce4bgpp2rcd13ifvqc3g","pricing_plan_id":"cebpf4jnsgd1na2vs0mg"},{"bike_id":"9eb62bd7-0fdc-491b-9eef-be0a9f73fbfb","system_id":"levelo_inurba_marseille","lat":43.24169,"lon":5.36386,"is_reserved":false,"is_disabled":false,"rental_uris":{"android":"levelo://app?vid=9eb62bd7-0fdc-491b-9eef-be0a9f73fbfb","ios":"levelo://app?vid=9eb62bd7-0fdc-491b-9eef-be0a9f73fbfb"},"vehicle_type_id":"4","last_reported":1740848810,"current_range_meters":6400,"station_id":"cpo36qri1sfpv3e86is0","pricing_plan_id":"cebpf4jnsgd1na2vs0mg"},{"bike_id":"742a2847-97f8-40cb-af2c-abc6c0fa99ec","system_id":"levelo_inurba_marseille","lat":43.29265,"lon":5.38426,"is_reserved":false,"is_disabled":false,"rental_uris":{"android":"levelo://app?vid=742a2847-97f8-40cb-af2c-abc6c0fa99ec","ios":"levelo://app?vid=742a2847-97f8-40cb-af2c-abc6c0fa99ec"},"vehicle_type_id":"4","last_reported":1740848810,"current_range_meters":6400,"station_id":"ce4bh692rcd13ifvqea0","pricing_plan_id":"cebpf4jnsgd1na2vs0mg"},{"bike_id":"ddf992f8-d871-494a-b48e-d1d21ce86b51","system_id":"levelo_inurba_marseille","lat":43.2731,"lon":5.3908,"is_reserved":false,"is_disabled":false,"rental_uris":{"android":"levelo://app?vid=ddf992f8-d871-494a-b48e-d1d21ce86b51","ios":"levelo://app?vid=ddf992f8-d871-494a-b48e-d1d21ce86b51"},"vehicle_type_id":"4","last_reported":1740848810,"current_range_meters":6800,"station_id":"ce4bhgp2rcd13ifvqfe0","pricing_plan_id":"cebpf4jnsgd1na2vs0mg"},{"bike_id":"c3943a7b-1c27-4118-add0-a53709e40e9f","system_id":"levelo_inurba_marseille","lat":43.31227,"lon":5.36859,"is_reserved":false,"is_disabled":false,"rental_uris":{"android":"levelo://app?vid=c3943a7b-1c27-4118-add0-a53709e40e9f","ios":"levelo://app?vid=c3943a7b-1c27-4118-add0-a53709e40e9f"},"vehicle_type_id":"4","last_reported":1740848810,"current_range_meters":6800,"station_id":"ce4bgl92rcd13ifvqbq0","pricing_plan_id":"cebpf4jnsgd1na2vs0mg"},{"bike_id":"576bf4de-0033-46bf-9e74-74d91d945d5e","system_id":"levelo_inurba_marseille","lat":43.31317,"lon":5.36887,"is_reserved":false,"is_disabled":false,"rental_uris":{"android":"levelo://app?vid=576bf4de-0033-46bf-9e74-74d91d945d5e","ios":"levelo://app?vid=576bf4de-0033-46bf-9e74-74d91d945d5e"},"vehicle_type_id":"4","last_reported":1740848810,"current_range_meters":6800,"station_id":"","pricing_plan_id":"cebpf4jnsgd1na2vs0mg"},{"bike_id":"d36301ff-065c-4644-9520-d9e8e53fafb9","system_id":"levelo_inurba_marseille","lat":43.27214,"lon":5.39147,"is_reserved":false,"is_disabled":false,"rental_uris":{"android":"levelo://app?vid=d36301ff-065c-4644-9520-d9e8e53fafb9","ios":"levelo://app?vid=d36301ff-065c-4644-9520-d9e8e53fafb9"},"vehicle_type_id":"4","last_reported":1740848810,"current_range_meters":6800,"station_id":"ce4bhhp2rcd13ifvqfm0","pricing_plan_id":"cebpf4jnsgd1na2vs0mg"},{"bike_id":"8dbd79ab-8d7e-44ba-9f11-4afd7e562df1","system_id":"levelo_inurba_marseille","lat":43.25011,"lon":5.3892,"is_reserved":false,"is_disabled":false,"rental_uris":{"android":"levelo://app?vid=8dbd79ab-8d7e-44ba-9f11-4afd7e562df1","ios":"levelo://app?vid=8dbd79ab-8d7e-44ba-9f11-4afd7e562df1"},"vehicle_type_id":"4","last_reported":1740848810,"current_range_meters":6800,"station_id":"ce4bhgp2rcd13ifvqfd0","pricing_plan_id":"cebpf4jnsgd1na2vs0mg"},{"bike_id":"62b12a83-e85f-4351-a240-b88e48bc1e02","system_id":"levelo_inurba_marseille","lat":43.27812,"lon":5.40719,"is_reserved":false,"is_disabled":false,"rental_uris":{"android":"levelo://app?vid=62b12a83-e85f-4351-a240-b88e48bc1e02","ios":"levelo://app?vid=62b12a83-e85f-4351-a240-b88e48bc1e02"},"vehicle_type_id":"4","last_reported":1740848810,"current_range_meters":7200,"station_id":"ce4bhnh2rcd13ifvqgtg","pricing_plan_id":"cebpf4jnsgd1na2vs0mg"},{"bike_id":"d5481c01-2984-43f7-9ca9-876cf6aa8921","system_id":"levelo_inurba_marseille","lat":43.27985,"lon":5.40011,"is_reserved":false,"is_disabled":false,"rental_uris":{"android":"levelo://app?vid=d5481c01-2984-43f7-9ca9-876cf6aa8921","ios":"levelo://app?vid=d5481c01-2984-43f7-9ca9-876cf6aa8921"},"vehicle_type_id":"4","last_reported":1740848810,"current_range_meters":7200,"station_id":"ce4bho92rcd13ifvqh4g","pricing_plan_id":"cebpf4jnsgd1na2vs0mg"},{"bike_id":"e8e574a6-d13a-4906-9b60-657faa08b971","system_id":"levelo_inurba_marseille","lat":43.26808,"lon":5.40251,"is_reserved":false,"is_disabled":false,"rental_uris":{"android":"levelo://app?vid=e8e574a6-d13a-4906-9b60-657faa08b971","ios":"levelo://app?vid=e8e574a6-d13a-4906-9b60-657faa08b971"},"vehicle_type_id":"4","last_reported":1740848810,"current_range_meters":7200,"station_id":"ce501612rcd8frsf0b60","pricing_plan_id":"cebpf4jnsgd1na2vs0mg"},{"bike_id":"be047da3-12fb-470e-9d78-68641c40dc2c","system_id":"levelo_inurba_marseille","lat":43.28666,"lon":5.4097,"is_reserved":false,"is_disabled":false,"rental_uris":{"android":"levelo://app?vid=be047da3-12fb-470e-9d78-68641c40dc2c","ios":"levelo://app?vid=be047da3-12fb-470e-9d78-68641c40dc2c"},"vehicle_type_id":"4","last_reported":1740848810,"current_range_meters":7200,"station_id":"","pricing_plan_id":"cebpf4jnsgd1na2vs0mg"},{"bike_id":"1dd6978a-686b-4d73-bb51-02d19fda7263","system_id":"levelo_inurba_marseille","lat":43.24812,"lon":5.37461,"is_reserved":false,"is_disabled":false,"rental_uris":{"android":"levelo://app?vid=1dd6978a-686b-4d73-bb51-02d19fda7263","ios":"levelo://app?vid=1dd6978a-686b-4d73-bb51-02d19fda7263"},"vehicle_type_id":"4","last_reported":1740848810,"current_range_meters":7200,"station_id":"ce4bhgh2rcd13ifvqfb0","pricing_plan_id":"cebpf4jnsgd1na2vs0mg"},{"bike_id":"da8fda09-e162-41c1-af1e-4ca02a9d1c96","system_id":"levelo_inurba_marseille","lat":43.2778,"lon":5.40699,"is_reserved":false,"is_disabled":false,"rental_uris":{"android":"levelo://app?vid=da8fda09-e162-41c1-af1e-4ca02a9d1c96","ios":"levelo://app?vid=da8fda09-e162-41c1-af1e-4ca02a9d1c96"},"vehicle_type_id":"4","last_reported":1740848810,"current_range_meters":8000,"station_id":"ce4bhnh2rcd13ifvqgtg","pricing_plan_id":"cebpf4jnsgd1na2vs0mg"},{"bike_id":"a5fd71ea-4807-4e2d-a716-448c8cd70326","system_id":"levelo_inurba_marseille","lat":43.26551,"lon":5.37278,"is_reserved":false,"is_disabled":false,"rental_uris":{"android":"levelo://app?vid=a5fd71ea-4807-4e2d-a716-448c8cd70326","ios":"levelo://app?vid=a5fd71ea-4807-4e2d-a716-448c8cd70326"},"vehicle_type_id":"4","last_reported":1740848810,"current_range_meters":8000,"station_id":"ce4bhg12rcd13ifvqf70","pricing_plan_id":"cebpf4jnsgd1na2vs0mg"},{"bike_id":"b133461a-515e-4ba5-9aa3-7d4d4e4f7c7e","system_id":"levelo_inurba_marseille","lat":43.25504,"lon":5.37649,"is_reserved":false,"is_disabled":false,"rental_uris":{"android":"levelo://app?vid=b133461a-515e-4ba5-9aa3-7d4d4e4f7c7e","ios":"levelo://app?vid=b133461a-515e-4ba5-9aa3-7d4d4e4f7c7e"},"vehicle_type_id":"4","last_reported":1740848810,"current_range_meters":8000,"station_id":"ce4bhh12rcd13ifvqff0","pricing_plan_id":"cebpf4jnsgd1na2vs0mg"},{"bike_id":"eddef8fd-0c8c-4bbe-8875-a1acb432349f","system_id":"levelo_inurba_marseille","lat":43.29273,"lon":5.36838,"is_reserved":false,"is_disabled":false,"rental_uris":{"android":"levelo://app?vid=eddef8fd-0c8c-4bbe-8875-a1acb432349f","ios":"levelo://app?vid=eddef8fd-0c8c-4bbe-8875-a1acb432349f"},"vehicle_type_id":"4","last_reported":1740848810,"current_range_meters":8400,"station_id":"ce4bhbp2rcd13ifvqesg","pricing_plan_id":"cebpf4jnsgd1na2vs0mg"},{"bike_id":"e04c9015-d085-4ecf-8b2c-23755f17ef5d","system_id":"levelo_inurba_marseille","lat":43.29554,"lon":5.42291,"is_reserved":false,"is_disabled":false,"rental_uris":{"android":"levelo://app?vid=e04c9015-d085-4ecf-8b2c-23755f17ef5d","ios":"levelo://app?vid=e04c9015-d085-4ecf-8b2c-23755f17ef5d"},"vehicle_type_id":"4","last_reported":1740848810,"current_range_meters":8400,"station_id":"ce4bhph2rcd13ifvqhdg","pricing_plan_id":"cebpf4jnsgd1na2vs0mg"},{"bike_id":"1ef83ca4-2f4d-464d-9fb6-924b48a09432","system_id":"levelo_inurba_marseille","lat":43.29437,"lon":5.39755,"is_reserved":false,"is_disabled":false,"rental_uris":{"android":"levelo://app?vid=1ef83ca4-2f4d-464d-9fb6-924b48a09432","ios":"levelo://app?vid=1ef83ca4-2f4d-464d-9fb6-924b48a09432"},"vehicle_type_id":"4","last_reported":1740848810,"current_range_meters":8400,"station_id":"ce4bh3h2rcd13ifvqdo0","pricing_plan_id":"cebpf4jnsgd1na2vs0mg"},{"bike_id":"52d67952-7442-41b8-ad7e-305f33bc3bd1","system_id":"levelo_inurba_marseille","lat":43.29105,"lon":5.38127,"is_reserved":false,"is_disabled":false,"rental_uris":{"android":"levelo://app?vid=52d67952-7442-41b8-ad7e-305f33bc3bd1","ios":"levelo://app?vid=52d67952-7442-41b8-ad7e-305f33bc3bd1"},"vehicle_type_id":"4","last_reported":1740848810,"current_range_meters":10800,"station_id":"ce4bh512rcd13ifvqe2g","pricing_plan_id":"cebpf4jnsgd1na2vs0mg"},{"bike_id":"a2a491a2-aec9-4bec-98c7-e0ad018b5757","system_id":"levelo_inurba_marseille","lat":43.31482,"lon":5.37261,"is_reserved":false,"is_disabled":false,"rental_uris":{"android":"levelo://app?vid=a2a491a2-aec9-4bec-98c7-e0ad018b5757","ios":"levelo://app?vid=a2a491a2-aec9-4bec-98c7-e0ad018b5757"},"vehicle_type_id":"4","last_reported":1740848810,"current_range_meters":8400,"station_id":"ce4bgt12rcd13ifvqcd0","pricing_plan_id":"cebpf4jnsgd1na2vs0mg"},{"bike_id":"3f5e4c77-943b-4a46-b257-614bf13afec4","system_id":"levelo_inurba_marseille","lat":43.24171,"lon":5.3638,"is_reserved":false,"is_disabled":false,"rental_uris":{"android":"levelo://app?vid=3f5e4c77-943b-4a46-b257-614bf13afec4","ios":"levelo://app?vid=3f5e4c77-943b-4a46-b257-614bf13afec4"},"vehicle_type_id":"4","last_reported":1740848810,"current_range_meters":8400,"station_id":"cpo36qri1sfpv3e86is0","pricing_plan_id":"cebpf4jnsgd1na2vs0mg"},{"bike_id":"f7888e25-446f-4da8-96e6-65d5daad9223","system_id":"levelo_inurba_marseille","lat":43.2842,"lon":5.3499,"is_reserved":false,"is_disabled":false,"rental_uris":{"android":"levelo://app?vid=f7888e25-446f-4da8-96e6-65d5daad9223","ios":"levelo://app?vid=f7888e25-446f-4da8-96e6-65d5daad9223"},"vehicle_type_id":"4","last_reported":1740848810,"current_range_meters":8400,"station_id":"ce4bhbh2rcd13ifvqepg","pricing_plan_id":"cebpf4jnsgd1na2vs0mg"},{"bike_id":"7a23127d-2779-4a0f-986d-03d679091017","system_id":"levelo_inurba_marseille","lat":43.30099,"lon":5.39063,"is_reserved":false,"is_disabled":false,"rental_uris":{"android":"levelo://app?vid=7a23127d-2779-4a0f-986d-03d679091017","ios":"levelo://app?vid=7a23127d-2779-4a0f-986d-03d679091017"},"vehicle_type_id":"4","last_reported":1740848810,"current_range_meters":8400,"station_id":"ce4bh192rcd13ifvqdb0","pricing_plan_id":"cebpf4jnsgd1na2vs0mg"},{"bike_id":"4c04cb62-3b93-4ff4-aae4-ff5bc2c951a5","system_id":"levelo_inurba_marseille","lat":43.2928,"lon":5.36848,"is_reserved":false,"is_disabled":false,"rental_uris":{"android":"levelo://app?vid=4c04cb62-3b93-4ff4-aae4-ff5bc2c951a5","ios":"levelo://app?vid=4c04cb62-3b93-4ff4-aae4-ff5bc2c951a5"},"vehicle_type_id":"4","last_reported":1740848810,"current_range_meters":8800,"station_id":"ce4bhbp2rcd13ifvqesg","pricing_plan_id":"cebpf4jnsgd1na2vs0mg"},{"bike_id":"364b209e-752e-45ea-b26c-06b2552c1833","system_id":"levelo_inurba_marseille","lat":43.23199,"lon":5.35542,"is_reserved":false,"is_disabled":false,"rental_uris":{"android":"levelo://app?vid=364b209e-752e-45ea-b26c-06b2552c1833","ios":"levelo://app?vid=364b209e-752e-45ea-b26c-06b2552c1833"},"vehicle_type_id":"4","last_reported":1740848810,"current_range_meters":8800,"station_id":"ce4bhu92rcd13ifvqi70","pricing_plan_id":"cebpf4jnsgd1na2vs0mg"},{"bike_id":"eb6f3018-35af-4819-ab6e-f07ea1f8c2d5","system_id":"levelo_inurba_marseille","lat":43.31742,"lon":5.39,"is_reserved":false,"is_disabled":false,"rental_uris":{"android":"levelo://app?vid=eb6f3018-35af-4819-ab6e-f07ea1f8c2d5","ios":"levelo://app?vid=eb6f3018-35af-4819-ab6e-f07ea1f8c2d5"},"vehicle_type_id":"4","last_reported":1740848810,"current_range_meters":8800,"station_id":"ce4bhqp2rcd13ifvqhng","pricing_plan_id":"cebpf4jnsgd1na2vs0mg"},{"bike_id":"49e9cdc7-76a5-4b66-ae2d-61c73beb73a8","system_id":"levelo_inurba_marseille","lat":43.24181,"lon":5.36377,"is_reserved":false,"is_disabled":false,"rental_uris":{"android":"levelo://app?vid=49e9cdc7-76a5-4b66-ae2d-61c73beb73a8","ios":"levelo://app?vid=49e9cdc7-76a5-4b66-ae2d-61c73beb73a8"},"vehicle_type_id":"4","last_reported":1740848810,"current_range_meters":8800,"station_id":"cpo36qri1sfpv3e86is0","pricing_plan_id":"cebpf4jnsgd1na2vs0mg"},{"bike_id":"6937ef5f-28e8-4526-b3bb-0260140c4dea","system_id":"levelo_inurba_marseille","lat":43.30545,"lon":5.36555,"is_reserved":false,"is_disabled":false,"rental_uris":{"android":"levelo://app?vid=6937ef5f-28e8-4526-b3bb-0260140c4dea","ios":"levelo://app?vid=6937ef5f-28e8-4526-b3bb-0260140c4dea"},"vehicle_type_id":"4","last_reported":1740848810,"current_range_meters":8800,"station_id":"ce4bgs12rcd13ifvqcag","pricing_plan_id":"cebpf4jnsgd1na2vs0mg"},{"bike_id":"593edb3c-7add-4a3d-9dbe-95cef549de0d","system_id":"levelo_inurba_marseille","lat":43.230718,"lon":5.354896,"is_reserved":false,"is_disabled":false,"rental_uris":{"android":"levelo://app?vid=593edb3c-7add-4a3d-9dbe-95cef549de0d","ios":"levelo://app?vid=593edb3c-7add-4a3d-9dbe-95cef549de0d"},"vehicle_type_id":"4","last_reported":1740848810,"current_range_meters":8800,"station_id":"cpo3342slgdg3j2ifvpg","pricing_plan_id":"cebpf4jnsgd1na2vs0mg"},{"bike_id":"59aefcfd-cb49-414f-a2b4-58f76bb5ab27","system_id":"levelo_inurba_marseille","lat":43.3038,"lon":5.42874,"is_reserved":false,"is_disabled":false,"rental_uris":{"android":"levelo://app?vid=59aefcfd-cb49-414f-a2b4-58f76bb5ab27","ios":"levelo://app?vid=59aefcfd-cb49-414f-a2b4-58f76bb5ab27"},"vehicle_type_id":"4","last_reported":1740848810,"current_range_meters":9200,"station_id":"","pricing_plan_id":"cebpf4jnsgd1na2vs0mg"},{"bike_id":"d8d1c2ad-ee42-4629-b935-14048e177bc3","system_id":"levelo_inurba_marseille","lat":43.27105,"lon":5.42273,"is_reserved":false,"is_disabled":false,"rental_uris":{"android":"levelo://app?vid=d8d1c2ad-ee42-4629-b935-14048e177bc3","ios":"levelo://app?vid=d8d1c2ad-ee42-4629-b935-14048e177bc3"},"vehicle_type_id":"4","last_reported":1740848810,"current_range_meters":9200,"station_id":"ce4bhk92rcd13ifvqgb0","pricing_plan_id":"cebpf4jnsgd1na2vs0mg"},{"bike_id":"f0d47ea8-9cb3-45d4-97e4-c00aaeeec1c9","system_id":"levelo_inurba_marseille","lat":43.29258,"lon":5.40905,"is_reserved":false,"is_disabled":false,"rental_uris":{"android":"levelo://app?vid=f0d47ea8-9cb3-45d4-97e4-c00aaeeec1c9","ios":"levelo://app?vid=f0d47ea8-9cb3-45d4-97e4-c00aaeeec1c9"},"vehicle_type_id":"4","last_reported":1740848810,"current_range_meters":9200,"station_id":"ce4bh192rcd13ifvqdc0","pricing_plan_id":"cebpf4jnsgd1na2vs0mg"},{"bike_id":"176bdd46-e3f2-4554-9fdf-1b2cd2841c9a","system_id":"levelo_inurba_marseille","lat":43.265745,"lon":5.395575,"is_reserved":false,"is_disabled":false,"rental_uris":{"android":"levelo://app?vid=176bdd46-e3f2-4554-9fdf-1b2cd2841c9a","ios":"levelo://app?vid=176bdd46-e3f2-4554-9fdf-1b2cd2841c9a"},"vehicle_type_id":"4","last_reported":1740848810,"current_range_meters":9200,"station_id":"ce4bhhp2rcd13ifvqfm0","pricing_plan_id":"cebpf4jnsgd1na2vs0mg"},{"bike_id":"6c1ec418-4b5a-488c-8bae-ed1a437dc1f8","system_id":"levelo_inurba_marseille","lat":43.28939,"lon":5.36632,"is_reserved":false,"is_disabled":false,"rental_uris":{"android":"levelo://app?vid=6c1ec418-4b5a-488c-8bae-ed1a437dc1f8","ios":"levelo://app?vid=6c1ec418-4b5a-488c-8bae-ed1a437dc1f8"},"vehicle_type_id":"4","last_reported":1740848810,"current_range_meters":9200,"station_id":"ce4bhap2rcd13ifvqek0","pricing_plan_id":"cebpf4jnsgd1na2vs0mg"},{"bike_id":"bddf37d4-a2ae-4c74-bcad-602e7e9ee614","system_id":"levelo_inurba_marseille","lat":43.2467,"lon":5.38155,"is_reserved":false,"is_disabled":false,"rental_uris":{"android":"levelo://app?vid=bddf37d4-a2ae-4c74-bcad-602e7e9ee614","ios":"levelo://app?vid=bddf37d4-a2ae-4c74-bcad-602e7e9ee614"},"vehicle_type_id":"4","last_reported":1740848810,"current_range_meters":9200,"station_id":"ce4bhih2rcd13ifvqfr0","pricing_plan_id":"cebpf4jnsgd1na2vs0mg"},{"bike_id":"876d06d4-f058-4dfd-bdd3-712c03f887ba","system_id":"levelo_inurba_marseille","lat":43.24168,"lon":5.39723,"is_reserved":false,"is_disabled":false,"rental_uris":{"android":"levelo://app?vid=876d06d4-f058-4dfd-bdd3-712c03f887ba","ios":"levelo://app?vid=876d06d4-f058-4dfd-bdd3-712c03f887ba"},"vehicle_type_id":"4","last_reported":1740848810,"current_range_meters":9200,"station_id":"ce4bhn12rcd13ifvqgpg","pricing_plan_id":"cebpf4jnsgd1na2vs0mg"},{"bike_id":"5ac399e0-af97-419a-8ec2-625f8d7d6ff9","system_id":"levelo_inurba_marseille","lat":43.25577,"lon":5.3823,"is_reserved":false,"is_disabled":false,"rental_uris":{"android":"levelo://app?vid=5ac399e0-af97-419a-8ec2-625f8d7d6ff9","ios":"levelo://app?vid=5ac399e0-af97-419a-8ec2-625f8d7d6ff9"},"vehicle_type_id":"4","last_reported":1740848810,"current_range_meters":9200,"station_id":"ce4bhih2rcd13ifvqfs0","pricing_plan_id":"cebpf4jnsgd1na2vs0mg"},{"bike_id":"597c78d8-1097-48db-b3be-fafc8754eab9","system_id":"levelo_inurba_marseille","lat":43.24128,"lon":5.36368,"is_reserved":false,"is_disabled":false,"rental_uris":{"android":"levelo://app?vid=597c78d8-1097-48db-b3be-fafc8754eab9","ios":"levelo://app?vid=597c78d8-1097-48db-b3be-fafc8754eab9"},"vehicle_type_id":"4","last_reported":1740848810,"current_range_meters":9200,"station_id":"cpo36qri1sfpv3e86is0","pricing_plan_id":"cebpf4jnsgd1na2vs0mg"},{"bike_id":"11eeaa41-65fd-4096-aabf-ea952f76267a","system_id":"levelo_inurba_marseille","lat":43.34152,"lon":5.40903,"is_reserved":false,"is_disabled":false,"rental_uris":{"android":"levelo://app?vid=11eeaa41-65fd-4096-aabf-ea952f76267a","ios":"levelo://app?vid=11eeaa41-65fd-4096-aabf-ea952f76267a"},"vehicle_type_id":"4","last_reported":1740848810,"current_range_meters":9600,"station_id":"ce4bhqh2rcd13ifvqhlg","pricing_plan_id":"cebpf4jnsgd1na2vs0mg"},{"bike_id":"b777b4cf-3a59-4bd6-bbe8-877c47f15172","system_id":"levelo_inurba_marseille","lat":43.29265,"lon":5.36855,"is_reserved":false,"is_disabled":false,"rental_uris":{"android":"levelo://app?vid=b777b4cf-3a59-4bd6-bbe8-877c47f15172","ios":"levelo://app?vid=b777b4cf-3a59-4bd6-bbe8-877c47f15172"},"vehicle_type_id":"4","last_reported":1740848810,"current_range_meters":9600,"station_id":"ce4bhbp2rcd13ifvqesg","pricing_plan_id":"cebpf4jnsgd1na2vs0mg"},{"bike_id":"77b293be-741e-41f6-97b3-5d8636697ded","system_id":"levelo_inurba_marseille","lat":43.29093,"lon":5.38134,"is_reserved":false,"is_disabled":false,"rental_uris":{"android":"levelo://app?vid=77b293be-741e-41f6-97b3-5d8636697ded","ios":"levelo://app?vid=77b293be-741e-41f6-97b3-5d8636697ded"},"vehicle_type_id":"4","last_reported":1740848810,"current_range_meters":9600,"station_id":"ce4bh512rcd13ifvqe2g","pricing_plan_id":"cebpf4jnsgd1na2vs0mg"},{"bike_id":"60821833-f14f-43f9-80db-e4594e0e2886","system_id":"levelo_inurba_marseille","lat":43.26593,"lon":5.39033,"is_reserved":false,"is_disabled":false,"rental_uris":{"android":"levelo://app?vid=60821833-f14f-43f9-80db-e4594e0e2886","ios":"levelo://app?vid=60821833-f14f-43f9-80db-e4594e0e2886"},"vehicle_type_id":"4","last_reported":1740848810,"current_range_meters":9600,"station_id":"ce4bhe12rcd13ifvqf30","pricing_plan_id":"cebpf4jnsgd1na2vs0mg"},{"bike_id":"a0f4785f-b6c3-496b-9268-b69bebe4b0b2","system_id":"levelo_inurba_marseille","lat":43.29732,"lon":5.37681,"is_reserved":false,"is_disabled":false,"rental_uris":{"android":"levelo://app?vid=a0f4785f-b6c3-496b-9268-b69bebe4b0b2","ios":"levelo://app?vid=a0f4785f-b6c3-496b-9268-b69bebe4b0b2"},"vehicle_type_id":"4","last_reported":1740848810,"current_range_meters":9600,"station_id":"ce4bgkh2rcd13ifvqbl0","pricing_plan_id":"cebpf4jnsgd1na2vs0mg"},{"bike_id":"c65e2549-0bd4-4200-87e8-04da94f3c3c4","system_id":"levelo_inurba_marseille","lat":43.28431,"lon":5.34979,"is_reserved":false,"is_disabled":false,"rental_uris":{"android":"levelo://app?vid=c65e2549-0bd4-4200-87e8-04da94f3c3c4","ios":"levelo://app?vid=c65e2549-0bd4-4200-87e8-04da94f3c3c4"},"vehicle_type_id":"4","last_reported":1740848810,"current_range_meters":10000,"station_id":"ce4bhbh2rcd13ifvqepg","pricing_plan_id":"cebpf4jnsgd1na2vs0mg"},{"bike_id":"53ebed9a-fd1a-4d94-96e3-0c8bc5887ace","system_id":"levelo_inurba_marseille","lat":43.31327,"lon":5.39697,"is_reserved":false,"is_disabled":false,"rental_uris":{"android":"levelo://app?vid=53ebed9a-fd1a-4d94-96e3-0c8bc5887ace","ios":"levelo://app?vid=53ebed9a-fd1a-4d94-96e3-0c8bc5887ace"},"vehicle_type_id":"4","last_reported":1740848810,"current_range_meters":10000,"station_id":"ce4bgvp2rcd13ifvqcu0","pricing_plan_id":"cebpf4jnsgd1na2vs0mg"},{"bike_id":"4bd4b995-1984-49fc-b229-218c3bec2a20","system_id":"levelo_inurba_marseille","lat":43.28412,"lon":5.34984,"is_reserved":false,"is_disabled":false,"rental_uris":{"android":"levelo://app?vid=4bd4b995-1984-49fc-b229-218c3bec2a20","ios":"levelo://app?vid=4bd4b995-1984-49fc-b229-218c3bec2a20"},"vehicle_type_id":"4","last_reported":1740848810,"current_range_meters":10000,"station_id":"ce4bhbh2rcd13ifvqepg","pricing_plan_id":"cebpf4jnsgd1na2vs0mg"},{"bike_id":"213f1f5c-b40a-4d7e-a364-95e1e0017dd3","system_id":"levelo_inurba_marseille","lat":43.3025,"lon":5.40061,"is_reserved":false,"is_disabled":false,"rental_uris":{"android":"levelo://app?vid=213f1f5c-b40a-4d7e-a364-95e1e0017dd3","ios":"levelo://app?vid=213f1f5c-b40a-4d7e-a364-95e1e0017dd3"},"vehicle_type_id":"4","last_reported":1740848810,"current_range_meters":10000,"station_id":"ce4bgvh2rcd13ifvqcs0","pricing_plan_id":"cebpf4jnsgd1na2vs0mg"},{"bike_id":"c1680bf3-a159-40f5-a36a-7ae00f9bf0fb","system_id":"levelo_inurba_marseille","lat":43.29418,"lon":5.38619,"is_reserved":false,"is_disabled":false,"rental_uris":{"android":"levelo://app?vid=c1680bf3-a159-40f5-a36a-7ae00f9bf0fb","ios":"levelo://app?vid=c1680bf3-a159-40f5-a36a-7ae00f9bf0fb"},"vehicle_type_id":"4","last_reported":1740848810,"current_range_meters":10000,"station_id":"ce4bh2h2rcd13ifvqdh0","pricing_plan_id":"cebpf4jnsgd1na2vs0mg"},{"bike_id":"43e1e04c-280b-4d54-bbb9-c3921d8e975b","system_id":"levelo_inurba_marseille","lat":43.29267,"lon":5.36857,"is_reserved":false,"is_disabled":false,"rental_uris":{"android":"levelo://app?vid=43e1e04c-280b-4d54-bbb9-c3921d8e975b","ios":"levelo://app?vid=43e1e04c-280b-4d54-bbb9-c3921d8e975b"},"vehicle_type_id":"4","last_reported":1740848810,"current_range_meters":10800,"station_id":"ce4bhbp2rcd13ifvqesg","pricing_plan_id":"cebpf4jnsgd1na2vs0mg"},{"bike_id":"161d70e9-e213-4bf5-bde1-9c3d7296d89c","system_id":"levelo_inurba_marseille","lat":43.27827,"lon":5.39195,"is_reserved":false,"is_disabled":false,"rental_uris":{"android":"levelo://app?vid=161d70e9-e213-4bf5-bde1-9c3d7296d89c","ios":"levelo://app?vid=161d70e9-e213-4bf5-bde1-9c3d7296d89c"},"vehicle_type_id":"4","last_reported":1740848810,"current_range_meters":10800,"station_id":"ce4bhjp2rcd13ifvqga0","pricing_plan_id":"cebpf4jnsgd1na2vs0mg"},{"bike_id":"b510cc5e-c278-456f-bdc7-1d55aba1704b","system_id":"levelo_inurba_marseille","lat":43.31267,"lon":5.40163,"is_reserved":false,"is_disabled":false,"rental_uris":{"android":"levelo://app?vid=b510cc5e-c278-456f-bdc7-1d55aba1704b","ios":"levelo://app?vid=b510cc5e-c278-456f-bdc7-1d55aba1704b"},"vehicle_type_id":"4","last_reported":1740848810,"current_range_meters":10800,"station_id":"ce4bh092rcd13ifvqd30","pricing_plan_id":"cebpf4jnsgd1na2vs0mg"},{"bike_id":"3564e035-0ba9-4512-8ca7-b848da375e11","system_id":"levelo_inurba_marseille","lat":43.29317,"lon":5.37437,"is_reserved":false,"is_disabled":false,"rental_uris":{"android":"levelo://app?vid=3564e035-0ba9-4512-8ca7-b848da375e11","ios":"levelo://app?vid=3564e035-0ba9-4512-8ca7-b848da375e11"},"vehicle_type_id":"4","last_reported":1740848810,"current_range_meters":10800,"station_id":"ce4bgi12rcd13ifvqb70","pricing_plan_id":"cebpf4jnsgd1na2vs0mg"},{"bike_id":"821335e5-0e4d-4121-a861-a51784cdd7ad","system_id":"levelo_inurba_marseille","lat":43.28677,"lon":5.38663,"is_reserved":false,"is_disabled":false,"rental_uris":{"android":"levelo://app?vid=821335e5-0e4d-4121-a861-a51784cdd7ad","ios":"levelo://app?vid=821335e5-0e4d-4121-a861-a51784cdd7ad"},"vehicle_type_id":"4","last_reported":1740848810,"current_range_meters":11200,"station_id":"ce4bh492rcd13ifvqdug","pricing_plan_id":"cebpf4jnsgd1na2vs0mg"},{"bike_id":"4b6e9ee7-c4c7-4c15-b9c2-ed9e2413491d","system_id":"levelo_inurba_marseille","lat":43.29259,"lon":5.38434,"is_reserved":false,"is_disabled":false,"rental_uris":{"android":"levelo://app?vid=4b6e9ee7-c4c7-4c15-b9c2-ed9e2413491d","ios":"levelo://app?vid=4b6e9ee7-c4c7-4c15-b9c2-ed9e2413491d"},"vehicle_type_id":"4","last_reported":1740848810,"current_range_meters":11200,"station_id":"ce4bh692rcd13ifvqea0","pricing_plan_id":"cebpf4jnsgd1na2vs0mg"},{"bike_id":"2667b23c-67ae-471f-a157-93cd2283f666","system_id":"levelo_inurba_marseille","lat":43.29612,"lon":5.38106,"is_reserved":false,"is_disabled":false,"rental_uris":{"android":"levelo://app?vid=2667b23c-67ae-471f-a157-93cd2283f666","ios":"levelo://app?vid=2667b23c-67ae-471f-a157-93cd2283f666"},"vehicle_type_id":"4","last_reported":1740848810,"current_range_meters":11200,"station_id":"ce4bgl12rcd13ifvqbo0","pricing_plan_id":"cebpf4jnsgd1na2vs0mg"},{"bike_id":"dc41711a-32d9-4493-ad5a-04861f6bd89e","system_id":"levelo_inurba_marseille","lat":43.29808,"lon":5.38115,"is_reserved":false,"is_disabled":false,"rental_uris":{"android":"levelo://app?vid=dc41711a-32d9-4493-ad5a-04861f6bd89e","ios":"levelo://app?vid=dc41711a-32d9-4493-ad5a-04861f6bd89e"},"vehicle_type_id":"4","last_reported":1740848810,"current_range_meters":11200,"station_id":"ce4bgip2rcd13ifvqbb0","pricing_plan_id":"cebpf4jnsgd1na2vs0mg"},{"bike_id":"0693b9d6-4a9d-4e38-bfa2-80f934bcc2e3","system_id":"levelo_inurba_marseille","lat":43.24178,"lon":5.36393,"is_reserved":false,"is_disabled":false,"rental_uris":{"android":"levelo://app?vid=0693b9d6-4a9d-4e38-bfa2-80f934bcc2e3","ios":"levelo://app?vid=0693b9d6-4a9d-4e38-bfa2-80f934bcc2e3"},"vehicle_type_id":"4","last_reported":1740848810,"current_range_meters":11600,"station_id":"cpo36qri1sfpv3e86is0","pricing_plan_id":"cebpf4jnsgd1na2vs0mg"},{"bike_id":"5d581bbf-c03d-40c4-8c08-d40ad9eeaa19","system_id":"levelo_inurba_marseille","lat":43.29117,"lon":5.42655,"is_reserved":false,"is_disabled":false,"rental_uris":{"android":"levelo://app?vid=5d581bbf-c03d-40c4-8c08-d40ad9eeaa19","ios":"levelo://app?vid=5d581bbf-c03d-40c4-8c08-d40ad9eeaa19"},"vehicle_type_id":"4","last_reported":1740848810,"current_range_meters":11600,"station_id":"","pricing_plan_id":"cebpf4jnsgd1na2vs0mg"},{"bike_id":"4015c440-7267-44b4-8be2-f4b87cb51aa9","system_id":"levelo_inurba_marseille","lat":43.2558,"lon":5.38223,"is_reserved":false,"is_disabled":false,"rental_uris":{"android":"levelo://app?vid=4015c440-7267-44b4-8be2-f4b87cb51aa9","ios":"levelo://app?vid=4015c440-7267-44b4-8be2-f4b87cb51aa9"},"vehicle_type_id":"4","last_reported":1740848810,"current_range_meters":11600,"station_id":"ce4bhih2rcd13ifvqfs0","pricing_plan_id":"cebpf4jnsgd1na2vs0mg"},{"bike_id":"02e309e2-702e-4570-a7bc-64f40574a6dd","system_id":"levelo_inurba_marseille","lat":43.31362,"lon":5.38494,"is_reserved":false,"is_disabled":false,"rental_uris":{"android":"levelo://app?vid=02e309e2-702e-4570-a7bc-64f40574a6dd","ios":"levelo://app?vid=02e309e2-702e-4570-a7bc-64f40574a6dd"},"vehicle_type_id":"4","last_reported":1740848810,"current_range_meters":11600,"station_id":"ce4bgt92rcd13ifvqcf0","pricing_plan_id":"cebpf4jnsgd1na2vs0mg"},{"bike_id":"4df11988-4f91-471f-93f7-5709d818f530","system_id":"levelo_inurba_marseille","lat":43.29273,"lon":5.36835,"is_reserved":false,"is_disabled":false,"rental_uris":{"android":"levelo://app?vid=4df11988-4f91-471f-93f7-5709d818f530","ios":"levelo://app?vid=4df11988-4f91-471f-93f7-5709d818f530"},"vehicle_type_id":"4","last_reported":1740848810,"current_range_meters":11600,"station_id":"ce4bhbp2rcd13ifvqesg","pricing_plan_id":"cebpf4jnsgd1na2vs0mg"},{"bike_id":"fd61a1d2-15f0-4724-a5a3-37779fda9fbf","system_id":"levelo_inurba_marseille","lat":43.31367,"lon":5.38493,"is_reserved":false,"is_disabled":false,"rental_uris":{"android":"levelo://app?vid=fd61a1d2-15f0-4724-a5a3-37779fda9fbf","ios":"levelo://app?vid=fd61a1d2-15f0-4724-a5a3-37779fda9fbf"},"vehicle_type_id":"4","last_reported":1740848810,"current_range_meters":11600,"station_id":"ce4bgt92rcd13ifvqcf0","pricing_plan_id":"cebpf4jnsgd1na2vs0mg"},{"bike_id":"f502074e-8a5d-4d7f-aa68-e20579afbb3c","system_id":"levelo_inurba_marseille","lat":43.2911,"lon":5.3812,"is_reserved":false,"is_disabled":false,"rental_uris":{"android":"levelo://app?vid=f502074e-8a5d-4d7f-aa68-e20579afbb3c","ios":"levelo://app?vid=f502074e-8a5d-4d7f-aa68-e20579afbb3c"},"vehicle_type_id":"4","last_reported":1740848810,"current_range_meters":12000,"station_id":"ce4bh512rcd13ifvqe2g","pricing_plan_id":"cebpf4jnsgd1na2vs0mg"},{"bike_id":"b823d1e5-278b-4a67-bfab-a757638035ed","system_id":"levelo_inurba_marseille","lat":43.27942,"lon":5.41055,"is_reserved":false,"is_disabled":false,"rental_uris":{"android":"levelo://app?vid=b823d1e5-278b-4a67-bfab-a757638035ed","ios":"levelo://app?vid=b823d1e5-278b-4a67-bfab-a757638035ed"},"vehicle_type_id":"4","last_reported":1740848810,"current_range_meters":12000,"station_id":"ce4bhnp2rcd13ifvqh0g","pricing_plan_id":"cebpf4jnsgd1na2vs0mg"},{"bike_id":"6fdba49f-578b-4857-9c6d-8281d6fa9c17","system_id":"levelo_inurba_marseille","lat":43.29,"lon":5.35608,"is_reserved":false,"is_disabled":false,"rental_uris":{"android":"levelo://app?vid=6fdba49f-578b-4857-9c6d-8281d6fa9c17","ios":"levelo://app?vid=6fdba49f-578b-4857-9c6d-8281d6fa9c17"},"vehicle_type_id":"4","last_reported":1740848810,"current_range_meters":12000,"station_id":"ce4bhb92rcd13ifvqen0","pricing_plan_id":"cebpf4jnsgd1na2vs0mg"},{"bike_id":"5c1d6f78-002d-4446-bbaf-af605468b32c","system_id":"levelo_inurba_marseille","lat":43.28146,"lon":5.42644,"is_reserved":false,"is_disabled":false,"rental_uris":{"android":"levelo://app?vid=5c1d6f78-002d-4446-bbaf-af605468b32c","ios":"levelo://app?vid=5c1d6f78-002d-4446-bbaf-af605468b32c"},"vehicle_type_id":"4","last_reported":1740848810,"current_range_meters":12400,"station_id":"ce4bhnh2rcd13ifvqgug","pricing_plan_id":"cebpf4jnsgd1na2vs0mg"},{"bike_id":"2b368b3d-d962-4c21-9c9d-5bc7c2351d31","system_id":"levelo_inurba_marseille","lat":43.3169,"lon":5.4042,"is_reserved":false,"is_disabled":false,"rental_uris":{"android":"levelo://app?vid=2b368b3d-d962-4c21-9c9d-5bc7c2351d31","ios":"levelo://app?vid=2b368b3d-d962-4c21-9c9d-5bc7c2351d31"},"vehicle_type_id":"4","last_reported":1740848810,"current_range_meters":12400,"station_id":"ce4bh012rcd13ifvqd00","pricing_plan_id":"cebpf4jnsgd1na2vs0mg"},{"bike_id":"e3ea0c82-575d-4f15-b57c-6eebd57f815a","system_id":"levelo_inurba_marseille","lat":43.27312,"lon":5.39127,"is_reserved":false,"is_disabled":true,"rental_uris":{"android":"levelo://app?vid=e3ea0c82-575d-4f15-b57c-6eebd57f815a","ios":"levelo://app?vid=e3ea0c82-575d-4f15-b57c-6eebd57f815a"},"vehicle_type_id":"4","last_reported":1740848810,"current_range_meters":12400,"station_id":"ce4bhgp2rcd13ifvqfe0","pricing_plan_id":"cebpf4jnsgd1na2vs0mg"},{"bike_id":"967f50ea-55fe-4e58-91f0-e6590a5d4f84","system_id":"levelo_inurba_marseille","lat":43.28166,"lon":5.42635,"is_reserved":false,"is_disabled":false,"rental_uris":{"android":"levelo://app?vid=967f50ea-55fe-4e58-91f0-e6590a5d4f84","ios":"levelo://app?vid=967f50ea-55fe-4e58-91f0-e6590a5d4f84"},"vehicle_type_id":"4","last_reported":1740848810,"current_range_meters":12400,"station_id":"ce4bhnh2rcd13ifvqgug","pricing_plan_id":"cebpf4jnsgd1na2vs0mg"},{"bike_id":"cc56e1a8-18c0-4ed4-a115-104e1f7295bb","system_id":"levelo_inurba_marseille","lat":43.27209,"lon":5.39185,"is_reserved":false,"is_disabled":false,"rental_uris":{"android":"levelo://app?vid=cc56e1a8-18c0-4ed4-a115-104e1f7295bb","ios":"levelo://app?vid=cc56e1a8-18c0-4ed4-a115-104e1f7295bb"},"vehicle_type_id":"4","last_reported":1740848810,"current_range_meters":12400,"station_id":"ce4bhhp2rcd13ifvqfm0","pricing_plan_id":"cebpf4jnsgd1na2vs0mg"},{"bike_id":"3e89a7de-8c08-4c9b-bbc9-5e1d905d7df8","system_id":"levelo_inurba_marseille","lat":43.251168,"lon":5.403226,"is_reserved":false,"is_disabled":false,"rental_uris":{"android":"levelo://app?vid=3e89a7de-8c08-4c9b-bbc9-5e1d905d7df8","ios":"levelo://app?vid=3e89a7de-8c08-4c9b-bbc9-5e1d905d7df8"},"vehicle_type_id":"4","last_reported":1740848810,"current_range_meters":12400,"station_id":"ce4bhlh2rcd13ifvqgig","pricing_plan_id":"cebpf4jnsgd1na2vs0mg"},{"bike_id":"3d326c83-df55-456d-a39d-f1c118f8a994","system_id":"levelo_inurba_marseille","lat":43.30225,"lon":5.40037,"is_reserved":false,"is_disabled":true,"rental_uris":{"android":"levelo://app?vid=3d326c83-df55-456d-a39d-f1c118f8a994","ios":"levelo://app?vid=3d326c83-df55-456d-a39d-f1c118f8a994"},"vehicle_type_id":"4","last_reported":1740848810,"current_range_meters":12800,"station_id":"ce4bgvh2rcd13ifvqcs0","pricing_plan_id":"cebpf4jnsgd1na2vs0mg"},{"bike_id":"57535b20-3700-4cbf-ba45-d8b82f207ca9","system_id":"levelo_inurba_marseille","lat":43.292999,"lon":5.371677,"is_reserved":false,"is_disabled":false,"rental_uris":{"android":"levelo://app?vid=57535b20-3700-4cbf-ba45-d8b82f207ca9","ios":"levelo://app?vid=57535b20-3700-4cbf-ba45-d8b82f207ca9"},"vehicle_type_id":"4","last_reported":1740848810,"current_range_meters":12800,"station_id":"","pricing_plan_id":"cebpf4jnsgd1na2vs0mg"},{"bike_id":"1697087c-3a15-4d2b-8fbc-57126afe45c3","system_id":"levelo_inurba_marseille","lat":43.23157,"lon":5.43703,"is_reserved":false,"is_disabled":false,"rental_uris":{"android":"levelo://app?vid=1697087c-3a15-4d2b-8fbc-57126afe45c3","ios":"levelo://app?vid=1697087c-3a15-4d2b-8fbc-57126afe45c3"},"vehicle_type_id":"4","last_reported":1740848810,"current_range_meters":12800,"station_id":"ce4bhmp2rcd13ifvqgog","pricing_plan_id":"cebpf4jnsgd1na2vs0mg"},{"bike_id":"148dd239-cfb4-4c53-8890-6a791577901e","system_id":"levelo_inurba_marseille","lat":43.29413,"lon":5.38613,"is_reserved":false,"is_disabled":false,"rental_uris":{"android":"levelo://app?vid=148dd239-cfb4-4c53-8890-6a791577901e","ios":"levelo://app?vid=148dd239-cfb4-4c53-8890-6a791577901e"},"vehicle_type_id":"4","last_reported":1740848810,"current_range_meters":12800,"station_id":"ce4bh2h2rcd13ifvqdh0","pricing_plan_id":"cebpf4jnsgd1na2vs0mg"},{"bike_id":"fb18759c-f3ca-4612-8704-baf08a44bab2","system_id":"levelo_inurba_marseille","lat":43.28418,"lon":5.34987,"is_reserved":false,"is_disabled":false,"rental_uris":{"android":"levelo://app?vid=fb18759c-f3ca-4612-8704-baf08a44bab2","ios":"levelo://app?vid=fb18759c-f3ca-4612-8704-baf08a44bab2"},"vehicle_type_id":"4","last_reported":1740848810,"current_range_meters":12800,"station_id":"ce4bhbh2rcd13ifvqepg","pricing_plan_id":"cebpf4jnsgd1na2vs0mg"},{"bike_id":"9fd706f0-2b52-41ea-bba4-526beed6e45b","system_id":"levelo_inurba_marseille","lat":43.30168,"lon":5.38097,"is_reserved":false,"is_disabled":false,"rental_uris":{"android":"levelo://app?vid=9fd706f0-2b52-41ea-bba4-526beed6e45b","ios":"levelo://app?vid=9fd706f0-2b52-41ea-bba4-526beed6e45b"},"vehicle_type_id":"4","last_reported":1740848810,"current_range_meters":12800,"station_id":"ce4bgjp2rcd13ifvqbh0","pricing_plan_id":"cebpf4jnsgd1na2vs0mg"},{"bike_id":"555693bd-3b1a-4f7c-96a4-b3450f2696ce","system_id":"levelo_inurba_marseille","lat":43.305857,"lon":5.37059,"is_reserved":false,"is_disabled":false,"rental_uris":{"android":"levelo://app?vid=555693bd-3b1a-4f7c-96a4-b3450f2696ce","ios":"levelo://app?vid=555693bd-3b1a-4f7c-96a4-b3450f2696ce"},"vehicle_type_id":"4","last_reported":1740848810,"current_range_meters":13600,"station_id":"","pricing_plan_id":"cebpf4jnsgd1na2vs0mg"},{"bike_id":"ae27860f-736e-49a0-a3ab-fa3385d1f12e","system_id":"levelo_inurba_marseille","lat":43.2695,"lon":5.38647,"is_reserved":false,"is_disabled":false,"rental_uris":{"android":"levelo://app?vid=ae27860f-736e-49a0-a3ab-fa3385d1f12e","ios":"levelo://app?vid=ae27860f-736e-49a0-a3ab-fa3385d1f12e"},"vehicle_type_id":"4","last_reported":1740848810,"current_range_meters":13600,"station_id":"ce4bhh92rcd13ifvqfh0","pricing_plan_id":"cebpf4jnsgd1na2vs0mg"},{"bike_id":"5aa8a32b-c762-420e-9936-d752bf0266a4","system_id":"levelo_inurba_marseille","lat":43.25121,"lon":5.40318,"is_reserved":false,"is_disabled":false,"rental_uris":{"android":"levelo://app?vid=5aa8a32b-c762-420e-9936-d752bf0266a4","ios":"levelo://app?vid=5aa8a32b-c762-420e-9936-d752bf0266a4"},"vehicle_type_id":"4","last_reported":1740848810,"current_range_meters":13600,"station_id":"ce4bhlh2rcd13ifvqgig","pricing_plan_id":"cebpf4jnsgd1na2vs0mg"},{"bike_id":"5715385c-b087-452a-ac84-4bf7ddd549f1","system_id":"levelo_inurba_marseille","lat":43.31263,"lon":5.40172,"is_reserved":false,"is_disabled":false,"rental_uris":{"android":"levelo://app?vid=5715385c-b087-452a-ac84-4bf7ddd549f1","ios":"levelo://app?vid=5715385c-b087-452a-ac84-4bf7ddd549f1"},"vehicle_type_id":"4","last_reported":1740848810,"current_range_meters":13600,"station_id":"ce4bh092rcd13ifvqd30","pricing_plan_id":"cebpf4jnsgd1na2vs0mg"},{"bike_id":"edebef28-addf-426f-be00-7e02ffe1a83c","system_id":"levelo_inurba_marseille","lat":43.29798,"lon":5.38104,"is_reserved":false,"is_disabled":false,"rental_uris":{"android":"levelo://app?vid=edebef28-addf-426f-be00-7e02ffe1a83c","ios":"levelo://app?vid=edebef28-addf-426f-be00-7e02ffe1a83c"},"vehicle_type_id":"4","last_reported":1740848810,"current_range_meters":13600,"station_id":"ce4bgip2rcd13ifvqbb0","pricing_plan_id":"cebpf4jnsgd1na2vs0mg"},{"bike_id":"e0a413a7-bc6b-4647-8e86-c0926ac098ec","system_id":"levelo_inurba_marseille","lat":43.29324,"lon":5.36798,"is_reserved":false,"is_disabled":false,"rental_uris":{"android":"levelo://app?vid=e0a413a7-bc6b-4647-8e86-c0926ac098ec","ios":"levelo://app?vid=e0a413a7-bc6b-4647-8e86-c0926ac098ec"},"vehicle_type_id":"4","last_reported":1740848810,"current_range_meters":13600,"station_id":"ce4bhbp2rcd13ifvqesg","pricing_plan_id":"cebpf4jnsgd1na2vs0mg"},{"bike_id":"5bc1cfe7-fe1f-4cd0-8528-d6148123c9cb","system_id":"levelo_inurba_marseille","lat":43.27172,"lon":5.40995,"is_reserved":false,"is_disabled":false,"rental_uris":{"android":"levelo://app?vid=5bc1cfe7-fe1f-4cd0-8528-d6148123c9cb","ios":"levelo://app?vid=5bc1cfe7-fe1f-4cd0-8528-d6148123c9cb"},"vehicle_type_id":"4","last_reported":1740848810,"current_range_meters":13600,"station_id":"ce4bhl12rcd13ifvqgf0","pricing_plan_id":"cebpf4jnsgd1na2vs0mg"},{"bike_id":"8235333d-301f-40af-bcff-249a4ee0b3a0","system_id":"levelo_inurba_marseille","lat":43.296019,"lon":5.380957,"is_reserved":false,"is_disabled":false,"rental_uris":{"android":"levelo://app?vid=8235333d-301f-40af-bcff-249a4ee0b3a0","ios":"levelo://app?vid=8235333d-301f-40af-bcff-249a4ee0b3a0"},"vehicle_type_id":"4","last_reported":1740848810,"current_range_meters":13600,"station_id":"ce4bgl12rcd13ifvqbo0","pricing_plan_id":"cebpf4jnsgd1na2vs0mg"},{"bike_id":"8b5e286f-08c5-4c26-ac6e-ac9cc961a9d2","system_id":"levelo_inurba_marseille","lat":43.271,"lon":5.39135,"is_reserved":false,"is_disabled":false,"rental_uris":{"android":"levelo://app?vid=8b5e286f-08c5-4c26-ac6e-ac9cc961a9d2","ios":"levelo://app?vid=8b5e286f-08c5-4c26-ac6e-ac9cc961a9d2"},"vehicle_type_id":"4","last_reported":1740848810,"current_range_meters":14000,"station_id":"ce4bhhp2rcd13ifvqfm0","pricing_plan_id":"cebpf4jnsgd1na2vs0mg"},{"bike_id":"5d7c7708-0760-4884-8883-b9dd9eef0e36","system_id":"levelo_inurba_marseille","lat":43.2976,"lon":5.38106,"is_reserved":false,"is_disabled":false,"rental_uris":{"android":"levelo://app?vid=5d7c7708-0760-4884-8883-b9dd9eef0e36","ios":"levelo://app?vid=5d7c7708-0760-4884-8883-b9dd9eef0e36"},"vehicle_type_id":"4","last_reported":1740848810,"current_range_meters":14000,"station_id":"ce4bgip2rcd13ifvqbb0","pricing_plan_id":"cebpf4jnsgd1na2vs0mg"},{"bike_id":"1847b59d-e9c3-4a51-8049-945fc7435edc","system_id":"levelo_inurba_marseille","lat":43.272203,"lon":5.392012,"is_reserved":false,"is_disabled":false,"rental_uris":{"android":"levelo://app?vid=1847b59d-e9c3-4a51-8049-945fc7435edc","ios":"levelo://app?vid=1847b59d-e9c3-4a51-8049-945fc7435edc"},"vehicle_type_id":"4","last_reported":1740848810,"current_range_meters":14400,"station_id":"ce4bhhp2rcd13ifvqfm0","pricing_plan_id":"cebpf4jnsgd1na2vs0mg"},{"bike_id":"0b906f19-3edc-4fc6-9e13-b292fc838364","system_id":"levelo_inurba_marseille","lat":43.27213,"lon":5.39179,"is_reserved":false,"is_disabled":false,"rental_uris":{"android":"levelo://app?vid=0b906f19-3edc-4fc6-9e13-b292fc838364","ios":"levelo://app?vid=0b906f19-3edc-4fc6-9e13-b292fc838364"},"vehicle_type_id":"4","last_reported":1740848810,"current_range_meters":14400,"station_id":"ce4bhhp2rcd13ifvqfm0","pricing_plan_id":"cebpf4jnsgd1na2vs0mg"},{"bike_id":"f6859461-eb1b-4285-a68c-bb639996eef9","system_id":"levelo_inurba_marseille","lat":43.28966,"lon":5.37828,"is_reserved":false,"is_disabled":false,"rental_uris":{"android":"levelo://app?vid=f6859461-eb1b-4285-a68c-bb639996eef9","ios":"levelo://app?vid=f6859461-eb1b-4285-a68c-bb639996eef9"},"vehicle_type_id":"4","last_reported":1740848810,"current_range_meters":14400,"station_id":"ce4bh9p2rcd13ifvqed0","pricing_plan_id":"cebpf4jnsgd1na2vs0mg"},{"bike_id":"0be77dd4-e00e-481e-affc-5b84a88bae72","system_id":"levelo_inurba_marseille","lat":43.29537,"lon":5.39385,"is_reserved":false,"is_disabled":false,"rental_uris":{"android":"levelo://app?vid=0be77dd4-e00e-481e-affc-5b84a88bae72","ios":"levelo://app?vid=0be77dd4-e00e-481e-affc-5b84a88bae72"},"vehicle_type_id":"4","last_reported":1740848810,"current_range_meters":14400,"station_id":"ce4bh292rcd13ifvqdf0","pricing_plan_id":"cebpf4jnsgd1na2vs0mg"},{"bike_id":"75cacdd1-032d-44f3-80c0-7c98daff7c98","system_id":"levelo_inurba_marseille","lat":43.298532,"lon":5.362734,"is_reserved":false,"is_disabled":false,"rental_uris":{"android":"levelo://app?vid=75cacdd1-032d-44f3-80c0-7c98daff7c98","ios":"levelo://app?vid=75cacdd1-032d-44f3-80c0-7c98daff7c98"},"vehicle_type_id":"4","last_reported":1740848810,"current_range_meters":14800,"station_id":"ce4bgpp2rcd13ifvqc3g","pricing_plan_id":"cebpf4jnsgd1na2vs0mg"},{"bike_id":"bf38c890-3936-4c75-83e9-74643fb5f6f9","system_id":"levelo_inurba_marseille","lat":43.29364,"lon":5.37846,"is_reserved":false,"is_disabled":false,"rental_uris":{"android":"levelo://app?vid=bf38c890-3936-4c75-83e9-74643fb5f6f9","ios":"levelo://app?vid=bf38c890-3936-4c75-83e9-74643fb5f6f9"},"vehicle_type_id":"4","last_reported":1740848810,"current_range_meters":14400,"station_id":"ce4bgjh2rcd13ifvqbf0","pricing_plan_id":"cebpf4jnsgd1na2vs0mg"},{"bike_id":"80b2d22b-0e98-4d34-b72a-fda3b48b204f","system_id":"levelo_inurba_marseille","lat":43.33019,"lon":5.39039,"is_reserved":false,"is_disabled":false,"rental_uris":{"android":"levelo://app?vid=80b2d22b-0e98-4d34-b72a-fda3b48b204f","ios":"levelo://app?vid=80b2d22b-0e98-4d34-b72a-fda3b48b204f"},"vehicle_type_id":"4","last_reported":1740848810,"current_range_meters":14800,"station_id":"ce4bhr92rcd13ifvqhrg","pricing_plan_id":"cebpf4jnsgd1na2vs0mg"},{"bike_id":"218457ac-5064-4483-b256-7af7da02f0cd","system_id":"levelo_inurba_marseille","lat":43.27971,"lon":5.38723,"is_reserved":false,"is_disabled":true,"rental_uris":{"android":"levelo://app?vid=218457ac-5064-4483-b256-7af7da02f0cd","ios":"levelo://app?vid=218457ac-5064-4483-b256-7af7da02f0cd"},"vehicle_type_id":"4","last_reported":1740848810,"current_range_meters":14800,"station_id":"ce4bhg12rcd13ifvqf80","pricing_plan_id":"cebpf4jnsgd1na2vs0mg"},{"bike_id":"27d57ba8-cb2b-4da3-bcfc-1efd3956d0fa","system_id":"levelo_inurba_marseille","lat":43.29518,"lon":5.4228,"is_reserved":false,"is_disabled":false,"rental_uris":{"android":"levelo://app?vid=27d57ba8-cb2b-4da3-bcfc-1efd3956d0fa","ios":"levelo://app?vid=27d57ba8-cb2b-4da3-bcfc-1efd3956d0fa"},"vehicle_type_id":"4","last_reported":1740848810,"current_range_meters":15200,"station_id":"ce4bhph2rcd13ifvqhdg","pricing_plan_id":"cebpf4jnsgd1na2vs0mg"},{"bike_id":"f1317508-b318-42b3-b6cc-485d3729a439","system_id":"levelo_inurba_marseille","lat":43.26217,"lon":5.37932,"is_reserved":false,"is_disabled":false,"rental_uris":{"android":"levelo://app?vid=f1317508-b318-42b3-b6cc-485d3729a439","ios":"levelo://app?vid=f1317508-b318-42b3-b6cc-485d3729a439"},"vehicle_type_id":"4","last_reported":1740848810,"current_range_meters":15200,"station_id":"ce4bhjp2rcd13ifvqg90","pricing_plan_id":"cebpf4jnsgd1na2vs0mg"},{"bike_id":"8d375f6e-452e-458d-b788-bc4c63d1ea09","system_id":"levelo_inurba_marseille","lat":43.24805,"lon":5.37453,"is_reserved":false,"is_disabled":false,"rental_uris":{"android":"levelo://app?vid=8d375f6e-452e-458d-b788-bc4c63d1ea09","ios":"levelo://app?vid=8d375f6e-452e-458d-b788-bc4c63d1ea09"},"vehicle_type_id":"4","last_reported":1740848810,"current_range_meters":15200,"station_id":"ce4bhgh2rcd13ifvqfb0","pricing_plan_id":"cebpf4jnsgd1na2vs0mg"},{"bike_id":"20d46fcb-4529-4896-b225-392c7b6d1f52","system_id":"levelo_inurba_marseille","lat":43.29188,"lon":5.39321,"is_reserved":false,"is_disabled":true,"rental_uris":{"android":"levelo://app?vid=20d46fcb-4529-4896-b225-392c7b6d1f52","ios":"levelo://app?vid=20d46fcb-4529-4896-b225-392c7b6d1f52"},"vehicle_type_id":"4","last_reported":1740848810,"current_range_meters":15200,"station_id":"ce4bh192rcd13ifvqdd0","pricing_plan_id":"cebpf4jnsgd1na2vs0mg"},{"bike_id":"3eea0f89-b137-40d9-a4fd-d1c6a11e78cf","system_id":"levelo_inurba_marseille","lat":43.25579,"lon":5.38238,"is_reserved":false,"is_disabled":false,"rental_uris":{"android":"levelo://app?vid=3eea0f89-b137-40d9-a4fd-d1c6a11e78cf","ios":"levelo://app?vid=3eea0f89-b137-40d9-a4fd-d1c6a11e78cf"},"vehicle_type_id":"4","last_reported":1740848810,"current_range_meters":15200,"station_id":"ce4bhih2rcd13ifvqfs0","pricing_plan_id":"cebpf4jnsgd1na2vs0mg"},{"bike_id":"ed8bb562-d048-4d97-a62c-052cc210d3b2","system_id":"levelo_inurba_marseille","lat":43.31709,"lon":5.43714,"is_reserved":false,"is_disabled":false,"rental_uris":{"android":"levelo://app?vid=ed8bb562-d048-4d97-a62c-052cc210d3b2","ios":"levelo://app?vid=ed8bb562-d048-4d97-a62c-052cc210d3b2"},"vehicle_type_id":"4","last_reported":1740848810,"current_range_meters":16000,"station_id":"ce4bhp92rcd13ifvqhcg","pricing_plan_id":"cebpf4jnsgd1na2vs0mg"},{"bike_id":"fe5f5096-64d0-48e2-99d0-5d1e7214ddd0","system_id":"levelo_inurba_marseille","lat":43.30293,"lon":5.39219,"is_reserved":false,"is_disabled":false,"rental_uris":{"android":"levelo://app?vid=fe5f5096-64d0-48e2-99d0-5d1e7214ddd0","ios":"levelo://app?vid=fe5f5096-64d0-48e2-99d0-5d1e7214ddd0"},"vehicle_type_id":"4","last_reported":1740848810,"current_range_meters":16000,"station_id":"ce4bgkh2rcd13ifvqbk0","pricing_plan_id":"cebpf4jnsgd1na2vs0mg"},{"bike_id":"448be146-7d8e-4cbb-94e4-c736335f2d30","system_id":"levelo_inurba_marseille","lat":43.28415,"lon":5.34975,"is_reserved":false,"is_disabled":false,"rental_uris":{"android":"levelo://app?vid=448be146-7d8e-4cbb-94e4-c736335f2d30","ios":"levelo://app?vid=448be146-7d8e-4cbb-94e4-c736335f2d30"},"vehicle_type_id":"4","last_reported":1740848810,"current_range_meters":16000,"station_id":"ce4bhbh2rcd13ifvqepg","pricing_plan_id":"cebpf4jnsgd1na2vs0mg"},{"bike_id":"632549ad-1383-4346-a6c7-8c126bd8edd1","system_id":"levelo_inurba_marseille","lat":43.325453,"lon":5.414277,"is_reserved":false,"is_disabled":false,"rental_uris":{"android":"levelo://app?vid=632549ad-1383-4346-a6c7-8c126bd8edd1","ios":"levelo://app?vid=632549ad-1383-4346-a6c7-8c126bd8edd1"},"vehicle_type_id":"4","last_reported":1740848810,"current_range_meters":16000,"station_id":"ce4bhq12rcd13ifvqhhg","pricing_plan_id":"cebpf4jnsgd1na2vs0mg"},{"bike_id":"e4aac1b1-835a-4679-bef8-2d57e180562a","system_id":"levelo_inurba_marseille","lat":43.26791,"lon":5.39405,"is_reserved":false,"is_disabled":false,"rental_uris":{"android":"levelo://app?vid=e4aac1b1-835a-4679-bef8-2d57e180562a","ios":"levelo://app?vid=e4aac1b1-835a-4679-bef8-2d57e180562a"},"vehicle_type_id":"4","last_reported":1740848810,"current_range_meters":16000,"station_id":"ce4bhh12rcd13ifvqfg0","pricing_plan_id":"cebpf4jnsgd1na2vs0mg"},{"bike_id":"284ccf54-027c-46be-951e-e78156f52c46","system_id":"levelo_inurba_marseille","lat":43.29258,"lon":5.3844,"is_reserved":false,"is_disabled":false,"rental_uris":{"android":"levelo://app?vid=284ccf54-027c-46be-951e-e78156f52c46","ios":"levelo://app?vid=284ccf54-027c-46be-951e-e78156f52c46"},"vehicle_type_id":"4","last_reported":1740848810,"current_range_meters":16000,"station_id":"ce4bh692rcd13ifvqea0","pricing_plan_id":"cebpf4jnsgd1na2vs0mg"},{"bike_id":"9eb97c83-c48c-45a6-b87a-729212d56713","system_id":"levelo_inurba_marseille","lat":43.28933,"lon":5.36627,"is_reserved":false,"is_disabled":false,"rental_uris":{"android":"levelo://app?vid=9eb97c83-c48c-45a6-b87a-729212d56713","ios":"levelo://app?vid=9eb97c83-c48c-45a6-b87a-729212d56713"},"vehicle_type_id":"4","last_reported":1740848810,"current_range_meters":16000,"station_id":"ce4bhap2rcd13ifvqek0","pricing_plan_id":"cebpf4jnsgd1na2vs0mg"},{"bike_id":"bc723443-eb85-4c30-bc37-fb812bda8268","system_id":"levelo_inurba_marseille","lat":43.31481,"lon":5.37307,"is_reserved":false,"is_disabled":false,"rental_uris":{"android":"levelo://app?vid=bc723443-eb85-4c30-bc37-fb812bda8268","ios":"levelo://app?vid=bc723443-eb85-4c30-bc37-fb812bda8268"},"vehicle_type_id":"4","last_reported":1740848810,"current_range_meters":16000,"station_id":"ce4bgt12rcd13ifvqcd0","pricing_plan_id":"cebpf4jnsgd1na2vs0mg"},{"bike_id":"f7c019bb-24d5-47dd-b673-042e5277a8f7","system_id":"levelo_inurba_marseille","lat":43.30165,"lon":5.3809,"is_reserved":false,"is_disabled":false,"rental_uris":{"android":"levelo://app?vid=f7c019bb-24d5-47dd-b673-042e5277a8f7","ios":"levelo://app?vid=f7c019bb-24d5-47dd-b673-042e5277a8f7"},"vehicle_type_id":"4","last_reported":1740848810,"current_range_meters":16000,"station_id":"ce4bgjp2rcd13ifvqbh0","pricing_plan_id":"cebpf4jnsgd1na2vs0mg"},{"bike_id":"28094c26-ebf7-4f10-9752-a86036fd897f","system_id":"levelo_inurba_marseille","lat":43.28349,"lon":5.3498,"is_reserved":false,"is_disabled":false,"rental_uris":{"android":"levelo://app?vid=28094c26-ebf7-4f10-9752-a86036fd897f","ios":"levelo://app?vid=28094c26-ebf7-4f10-9752-a86036fd897f"},"vehicle_type_id":"4","last_reported":1740848810,"current_range_meters":16400,"station_id":"ce4bhbh2rcd13ifvqepg","pricing_plan_id":"cebpf4jnsgd1na2vs0mg"},{"bike_id":"773367be-b90e-41da-aa9b-5850ef071a2f","system_id":"levelo_inurba_marseille","lat":43.26504,"lon":5.39532,"is_reserved":false,"is_disabled":false,"rental_uris":{"android":"levelo://app?vid=773367be-b90e-41da-aa9b-5850ef071a2f","ios":"levelo://app?vid=773367be-b90e-41da-aa9b-5850ef071a2f"},"vehicle_type_id":"4","last_reported":1740848810,"current_range_meters":16400,"station_id":"ce4bhi12rcd13ifvqfq0","pricing_plan_id":"cebpf4jnsgd1na2vs0mg"},{"bike_id":"1ff34d4d-5de2-4d1c-a6dc-bf8261c720e1","system_id":"levelo_inurba_marseille","lat":43.27916,"lon":5.39575,"is_reserved":false,"is_disabled":false,"rental_uris":{"android":"levelo://app?vid=1ff34d4d-5de2-4d1c-a6dc-bf8261c720e1","ios":"levelo://app?vid=1ff34d4d-5de2-4d1c-a6dc-bf8261c720e1"},"vehicle_type_id":"4","last_reported":1740848810,"current_range_meters":16400,"station_id":"ce4bhf92rcd13ifvqf40","pricing_plan_id":"cebpf4jnsgd1na2vs0mg"},{"bike_id":"671ccf8a-3e46-43c4-bd76-4373d8752478","system_id":"levelo_inurba_marseille","lat":43.29257,"lon":5.38444,"is_reserved":false,"is_disabled":false,"rental_uris":{"android":"levelo://app?vid=671ccf8a-3e46-43c4-bd76-4373d8752478","ios":"levelo://app?vid=671ccf8a-3e46-43c4-bd76-4373d8752478"},"vehicle_type_id":"4","last_reported":1740848810,"current_range_meters":16400,"station_id":"ce4bh692rcd13ifvqea0","pricing_plan_id":"cebpf4jnsgd1na2vs0mg"},{"bike_id":"db633ae1-9f91-46eb-b525-a29687e3acd1","system_id":"levelo_inurba_marseille","lat":43.31364,"lon":5.3849,"is_reserved":false,"is_disabled":false,"rental_uris":{"android":"levelo://app?vid=db633ae1-9f91-46eb-b525-a29687e3acd1","ios":"levelo://app?vid=db633ae1-9f91-46eb-b525-a29687e3acd1"},"vehicle_type_id":"4","last_reported":1740848810,"current_range_meters":16400,"station_id":"ce4bgt92rcd13ifvqcf0","pricing_plan_id":"cebpf4jnsgd1na2vs0mg"},{"bike_id":"a197c053-f495-4388-bb09-62f1a25a335b","system_id":"levelo_inurba_marseille","lat":43.23066,"lon":5.35497,"is_reserved":false,"is_disabled":false,"rental_uris":{"android":"levelo://app?vid=a197c053-f495-4388-bb09-62f1a25a335b","ios":"levelo://app?vid=a197c053-f495-4388-bb09-62f1a25a335b"},"vehicle_type_id":"4","last_reported":1740848810,"current_range_meters":16400,"station_id":"cpo3342slgdg3j2ifvpg","pricing_plan_id":"cebpf4jnsgd1na2vs0mg"},{"bike_id":"01af45f0-40f6-4dbb-8674-926a2ca03f64","system_id":"levelo_inurba_marseille","lat":43.2902,"lon":5.37548,"is_reserved":false,"is_disabled":false,"rental_uris":{"android":"levelo://app?vid=01af45f0-40f6-4dbb-8674-926a2ca03f64","ios":"levelo://app?vid=01af45f0-40f6-4dbb-8674-926a2ca03f64"},"vehicle_type_id":"4","last_reported":1740848810,"current_range_meters":16400,"station_id":"ce4bh692rcd13ifvqe90","pricing_plan_id":"cebpf4jnsgd1na2vs0mg"},{"bike_id":"dda53a8d-aa9b-4bb5-969e-cdd01d363119","system_id":"levelo_inurba_marseille","lat":43.26588,"lon":5.39003,"is_reserved":false,"is_disabled":false,"rental_uris":{"android":"levelo://app?vid=dda53a8d-aa9b-4bb5-969e-cdd01d363119","ios":"levelo://app?vid=dda53a8d-aa9b-4bb5-969e-cdd01d363119"},"vehicle_type_id":"4","last_reported":1740848810,"current_range_meters":16400,"station_id":"ce4bhe12rcd13ifvqf30","pricing_plan_id":"cebpf4jnsgd1na2vs0mg"},{"bike_id":"c272f144-1302-4356-8d7d-046dcce3b360","system_id":"levelo_inurba_marseille","lat":43.26208,"lon":5.37932,"is_reserved":false,"is_disabled":false,"rental_uris":{"android":"levelo://app?vid=c272f144-1302-4356-8d7d-046dcce3b360","ios":"levelo://app?vid=c272f144-1302-4356-8d7d-046dcce3b360"},"vehicle_type_id":"4","last_reported":1740848810,"current_range_meters":16400,"station_id":"ce4bhjp2rcd13ifvqg90","pricing_plan_id":"cebpf4jnsgd1na2vs0mg"},{"bike_id":"953cc1e5-7e17-4c1d-b0f2-bff801d3a91c","system_id":"levelo_inurba_marseille","lat":43.29251,"lon":5.38426,"is_reserved":false,"is_disabled":true,"rental_uris":{"android":"levelo://app?vid=953cc1e5-7e17-4c1d-b0f2-bff801d3a91c","ios":"levelo://app?vid=953cc1e5-7e17-4c1d-b0f2-bff801d3a91c"},"vehicle_type_id":"4","last_reported":1740848810,"current_range_meters":16800,"station_id":"ce4bh692rcd13ifvqea0","pricing_plan_id":"cebpf4jnsgd1na2vs0mg"},{"bike_id":"9e5520b4-bf3a-4c93-8806-f068ef30cd9f","system_id":"levelo_inurba_marseille","lat":43.27379,"lon":5.36253,"is_reserved":false,"is_disabled":false,"rental_uris":{"android":"levelo://app?vid=9e5520b4-bf3a-4c93-8806-f068ef30cd9f","ios":"levelo://app?vid=9e5520b4-bf3a-4c93-8806-f068ef30cd9f"},"vehicle_type_id":"4","last_reported":1740848810,"current_range_meters":16800,"station_id":"ce4bhbh2rcd13ifvqeo0","pricing_plan_id":"cebpf4jnsgd1na2vs0mg"},{"bike_id":"49645587-4897-47af-80cb-ea0df5af90cc","system_id":"levelo_inurba_marseille","lat":43.26215,"lon":5.37444,"is_reserved":false,"is_disabled":false,"rental_uris":{"android":"levelo://app?vid=49645587-4897-47af-80cb-ea0df5af90cc","ios":"levelo://app?vid=49645587-4897-47af-80cb-ea0df5af90cc"},"vehicle_type_id":"4","last_reported":1740848810,"current_range_meters":16800,"station_id":"ce4bhgp2rcd13ifvqfc0","pricing_plan_id":"cebpf4jnsgd1na2vs0mg"},{"bike_id":"3d3e1218-9db2-47a8-a44c-42be77ca5680","system_id":"levelo_inurba_marseille","lat":43.29309,"lon":5.36837,"is_reserved":false,"is_disabled":false,"rental_uris":{"android":"levelo://app?vid=3d3e1218-9db2-47a8-a44c-42be77ca5680","ios":"levelo://app?vid=3d3e1218-9db2-47a8-a44c-42be77ca5680"},"vehicle_type_id":"4","last_reported":1740848810,"current_range_meters":16800,"station_id":"ce4bhbp2rcd13ifvqesg","pricing_plan_id":"cebpf4jnsgd1na2vs0mg"},{"bike_id":"76d58a2e-82e7-4e1d-a98f-c6152e9b38bc","system_id":"levelo_inurba_marseille","lat":43.27325,"lon":5.39122,"is_reserved":false,"is_disabled":false,"rental_uris":{"android":"levelo://app?vid=76d58a2e-82e7-4e1d-a98f-c6152e9b38bc","ios":"levelo://app?vid=76d58a2e-82e7-4e1d-a98f-c6152e9b38bc"},"vehicle_type_id":"4","last_reported":1740848810,"current_range_meters":16800,"station_id":"ce4bhgp2rcd13ifvqfe0","pricing_plan_id":"cebpf4jnsgd1na2vs0mg"},{"bike_id":"dbd24d78-1e72-4b79-b29c-55756f89ecc8","system_id":"levelo_inurba_marseille","lat":43.24993,"lon":5.38955,"is_reserved":false,"is_disabled":false,"rental_uris":{"android":"levelo://app?vid=dbd24d78-1e72-4b79-b29c-55756f89ecc8","ios":"levelo://app?vid=dbd24d78-1e72-4b79-b29c-55756f89ecc8"},"vehicle_type_id":"4","last_reported":1740848810,"current_range_meters":16800,"station_id":"ce4bhgp2rcd13ifvqfd0","pricing_plan_id":"cebpf4jnsgd1na2vs0mg"},{"bike_id":"3c9c65ff-a2a8-4c52-a6f4-62bcc77556ef","system_id":"levelo_inurba_marseille","lat":43.24155,"lon":5.36385,"is_reserved":false,"is_disabled":false,"rental_uris":{"android":"levelo://app?vid=3c9c65ff-a2a8-4c52-a6f4-62bcc77556ef","ios":"levelo://app?vid=3c9c65ff-a2a8-4c52-a6f4-62bcc77556ef"},"vehicle_type_id":"4","last_reported":1740848810,"current_range_meters":16800,"station_id":"cpo36qri1sfpv3e86is0","pricing_plan_id":"cebpf4jnsgd1na2vs0mg"},{"bike_id":"7823a789-113a-40ae-a3f9-3b27eb5735e7","system_id":"levelo_inurba_marseille","lat":43.29535,"lon":5.39955,"is_reserved":false,"is_disabled":false,"rental_uris":{"android":"levelo://app?vid=7823a789-113a-40ae-a3f9-3b27eb5735e7","ios":"levelo://app?vid=7823a789-113a-40ae-a3f9-3b27eb5735e7"},"vehicle_type_id":"4","last_reported":1740848810,"current_range_meters":17200,"station_id":"ce4bh312rcd13ifvqdj0","pricing_plan_id":"cebpf4jnsgd1na2vs0mg"},{"bike_id":"3e0dfe8e-516c-45d2-9fb6-b841e772a05c","system_id":"levelo_inurba_marseille","lat":43.27234,"lon":5.39134,"is_reserved":false,"is_disabled":false,"rental_uris":{"android":"levelo://app?vid=3e0dfe8e-516c-45d2-9fb6-b841e772a05c","ios":"levelo://app?vid=3e0dfe8e-516c-45d2-9fb6-b841e772a05c"},"vehicle_type_id":"4","last_reported":1740848810,"current_range_meters":17200,"station_id":"ce4bhhp2rcd13ifvqfm0","pricing_plan_id":"cebpf4jnsgd1na2vs0mg"},{"bike_id":"91470621-d7b5-4632-8189-89cd0fb32d4a","system_id":"levelo_inurba_marseille","lat":43.2927,"lon":5.36844,"is_reserved":false,"is_disabled":false,"rental_uris":{"android":"levelo://app?vid=91470621-d7b5-4632-8189-89cd0fb32d4a","ios":"levelo://app?vid=91470621-d7b5-4632-8189-89cd0fb32d4a"},"vehicle_type_id":"4","last_reported":1740848810,"current_range_meters":17200,"station_id":"ce4bhbp2rcd13ifvqesg","pricing_plan_id":"cebpf4jnsgd1na2vs0mg"},{"bike_id":"e2b1a97c-05f9-4994-8c76-5c4c26614832","system_id":"levelo_inurba_marseille","lat":43.26571,"lon":5.37283,"is_reserved":false,"is_disabled":false,"rental_uris":{"android":"levelo://app?vid=e2b1a97c-05f9-4994-8c76-5c4c26614832","ios":"levelo://app?vid=e2b1a97c-05f9-4994-8c76-5c4c26614832"},"vehicle_type_id":"4","last_reported":1740848810,"current_range_meters":17200,"station_id":"ce4bhg12rcd13ifvqf70","pricing_plan_id":"cebpf4jnsgd1na2vs0mg"},{"bike_id":"620a5eb3-daee-44ad-a3ba-f984dc8c768a","system_id":"levelo_inurba_marseille","lat":43.30201,"lon":5.3662,"is_reserved":false,"is_disabled":true,"rental_uris":{"android":"levelo://app?vid=620a5eb3-daee-44ad-a3ba-f984dc8c768a","ios":"levelo://app?vid=620a5eb3-daee-44ad-a3ba-f984dc8c768a"},"vehicle_type_id":"4","last_reported":1740848810,"current_range_meters":17200,"station_id":"ce4bgrh2rcd13ifvqc8g","pricing_plan_id":"cebpf4jnsgd1na2vs0mg"},{"bike_id":"0231e59a-9ecd-43ee-8a8e-80fa9cdb743e","system_id":"levelo_inurba_marseille","lat":43.27428,"lon":5.39405,"is_reserved":false,"is_disabled":false,"rental_uris":{"android":"levelo://app?vid=0231e59a-9ecd-43ee-8a8e-80fa9cdb743e","ios":"levelo://app?vid=0231e59a-9ecd-43ee-8a8e-80fa9cdb743e"},"vehicle_type_id":"4","last_reported":1740848810,"current_range_meters":17200,"station_id":"ce4bhdp2rcd13ifvqf20","pricing_plan_id":"cebpf4jnsgd1na2vs0mg"},{"bike_id":"d0338d15-401f-4f02-ad15-e1eebf71fa48","system_id":"levelo_inurba_marseille","lat":43.29604,"lon":5.38108,"is_reserved":false,"is_disabled":false,"rental_uris":{"android":"levelo://app?vid=d0338d15-401f-4f02-ad15-e1eebf71fa48","ios":"levelo://app?vid=d0338d15-401f-4f02-ad15-e1eebf71fa48"},"vehicle_type_id":"4","last_reported":1740848810,"current_range_meters":17200,"station_id":"ce4bgl12rcd13ifvqbo0","pricing_plan_id":"cebpf4jnsgd1na2vs0mg"},{"bike_id":"1a19f09d-0b6a-4b64-9d93-aa6bb1c37f46","system_id":"levelo_inurba_marseille","lat":43.29596,"lon":5.381033,"is_reserved":false,"is_disabled":false,"rental_uris":{"android":"levelo://app?vid=1a19f09d-0b6a-4b64-9d93-aa6bb1c37f46","ios":"levelo://app?vid=1a19f09d-0b6a-4b64-9d93-aa6bb1c37f46"},"vehicle_type_id":"4","last_reported":1740848810,"current_range_meters":17200,"station_id":"ce4bgl12rcd13ifvqbo0","pricing_plan_id":"cebpf4jnsgd1na2vs0mg"},{"bike_id":"7b535158-ffd2-4957-9a43-134b613ca4d6","system_id":"levelo_inurba_marseille","lat":43.3167,"lon":5.37311,"is_reserved":false,"is_disabled":false,"rental_uris":{"android":"levelo://app?vid=7b535158-ffd2-4957-9a43-134b613ca4d6","ios":"levelo://app?vid=7b535158-ffd2-4957-9a43-134b613ca4d6"},"vehicle_type_id":"4","last_reported":1740848810,"current_range_meters":17200,"station_id":"","pricing_plan_id":"cebpf4jnsgd1na2vs0mg"},{"bike_id":"51488355-cec3-4549-a8df-af618d811700","system_id":"levelo_inurba_marseille","lat":43.31706,"lon":5.40465,"is_reserved":false,"is_disabled":false,"rental_uris":{"android":"levelo://app?vid=51488355-cec3-4549-a8df-af618d811700","ios":"levelo://app?vid=51488355-cec3-4549-a8df-af618d811700"},"vehicle_type_id":"4","last_reported":1740848810,"current_range_meters":17200,"station_id":"ce4bh012rcd13ifvqd00","pricing_plan_id":"cebpf4jnsgd1na2vs0mg"},{"bike_id":"e8d9629f-9d29-4040-b0f9-5d9c2a75d5ae","system_id":"levelo_inurba_marseille","lat":43.292965,"lon":5.37456,"is_reserved":false,"is_disabled":false,"rental_uris":{"android":"levelo://app?vid=e8d9629f-9d29-4040-b0f9-5d9c2a75d5ae","ios":"levelo://app?vid=e8d9629f-9d29-4040-b0f9-5d9c2a75d5ae"},"vehicle_type_id":"4","last_reported":1740848810,"current_range_meters":17200,"station_id":"ce4bhb92rcd13ifvqen0","pricing_plan_id":"cebpf4jnsgd1na2vs0mg"},{"bike_id":"d5792e34-1a9b-4bc2-abd5-2c645e524662","system_id":"levelo_inurba_marseille","lat":43.31721,"lon":5.40438,"is_reserved":false,"is_disabled":false,"rental_uris":{"android":"levelo://app?vid=d5792e34-1a9b-4bc2-abd5-2c645e524662","ios":"levelo://app?vid=d5792e34-1a9b-4bc2-abd5-2c645e524662"},"vehicle_type_id":"4","last_reported":1740848810,"current_range_meters":17200,"station_id":"ce4bh012rcd13ifvqd00","pricing_plan_id":"cebpf4jnsgd1na2vs0mg"},{"bike_id":"30b4baaa-95aa-453e-8a3a-0eb22fa2a1fa","system_id":"levelo_inurba_marseille","lat":43.27808,"lon":5.40713,"is_reserved":false,"is_disabled":false,"rental_uris":{"android":"levelo://app?vid=30b4baaa-95aa-453e-8a3a-0eb22fa2a1fa","ios":"levelo://app?vid=30b4baaa-95aa-453e-8a3a-0eb22fa2a1fa"},"vehicle_type_id":"4","last_reported":1740848810,"current_range_meters":17200,"station_id":"ce4bhnh2rcd13ifvqgtg","pricing_plan_id":"cebpf4jnsgd1na2vs0mg"},{"bike_id":"f8774b53-6aad-4c74-8fcb-de09dc38caee","system_id":"levelo_inurba_marseille","lat":43.27375,"lon":5.36245,"is_reserved":false,"is_disabled":true,"rental_uris":{"android":"levelo://app?vid=f8774b53-6aad-4c74-8fcb-de09dc38caee","ios":"levelo://app?vid=f8774b53-6aad-4c74-8fcb-de09dc38caee"},"vehicle_type_id":"4","last_reported":1740848810,"current_range_meters":17600,"station_id":"ce4bhbh2rcd13ifvqeo0","pricing_plan_id":"cebpf4jnsgd1na2vs0mg"},{"bike_id":"57cd94f2-e7d7-48fa-948e-308f17077047","system_id":"levelo_inurba_marseille","lat":43.29107,"lon":5.38139,"is_reserved":false,"is_disabled":false,"rental_uris":{"android":"levelo://app?vid=57cd94f2-e7d7-48fa-948e-308f17077047","ios":"levelo://app?vid=57cd94f2-e7d7-48fa-948e-308f17077047"},"vehicle_type_id":"4","last_reported":1740848810,"current_range_meters":17600,"station_id":"ce4bh512rcd13ifvqe2g","pricing_plan_id":"cebpf4jnsgd1na2vs0mg"},{"bike_id":"838e99a1-20a3-4609-a7c7-0dccb7bdc863","system_id":"levelo_inurba_marseille","lat":43.27618,"lon":5.36105,"is_reserved":false,"is_disabled":false,"rental_uris":{"android":"levelo://app?vid=838e99a1-20a3-4609-a7c7-0dccb7bdc863","ios":"levelo://app?vid=838e99a1-20a3-4609-a7c7-0dccb7bdc863"},"vehicle_type_id":"4","last_reported":1740848810,"current_range_meters":17600,"station_id":"ce4bgj92rcd13ifvqbe0","pricing_plan_id":"cebpf4jnsgd1na2vs0mg"},{"bike_id":"f065314a-3912-4729-8f98-6bbb74720888","system_id":"levelo_inurba_marseille","lat":43.30091,"lon":5.39085,"is_reserved":false,"is_disabled":false,"rental_uris":{"android":"levelo://app?vid=f065314a-3912-4729-8f98-6bbb74720888","ios":"levelo://app?vid=f065314a-3912-4729-8f98-6bbb74720888"},"vehicle_type_id":"4","last_reported":1740848810,"current_range_meters":17600,"station_id":"ce4bh192rcd13ifvqdb0","pricing_plan_id":"cebpf4jnsgd1na2vs0mg"},{"bike_id":"73022eae-0e6a-4873-bca7-f9caf82bcade","system_id":"levelo_inurba_marseille","lat":43.28412,"lon":5.34994,"is_reserved":false,"is_disabled":false,"rental_uris":{"android":"levelo://app?vid=73022eae-0e6a-4873-bca7-f9caf82bcade","ios":"levelo://app?vid=73022eae-0e6a-4873-bca7-f9caf82bcade"},"vehicle_type_id":"4","last_reported":1740848810,"current_range_meters":17600,"station_id":"ce4bhbh2rcd13ifvqepg","pricing_plan_id":"cebpf4jnsgd1na2vs0mg"},{"bike_id":"e0b71b94-a2c8-4601-a00e-e1bf10256a97","system_id":"levelo_inurba_marseille","lat":43.27219,"lon":5.39181,"is_reserved":false,"is_disabled":false,"rental_uris":{"android":"levelo://app?vid=e0b71b94-a2c8-4601-a00e-e1bf10256a97","ios":"levelo://app?vid=e0b71b94-a2c8-4601-a00e-e1bf10256a97"},"vehicle_type_id":"4","last_reported":1740848810,"current_range_meters":17600,"station_id":"ce4bhhp2rcd13ifvqfm0","pricing_plan_id":"cebpf4jnsgd1na2vs0mg"},{"bike_id":"e72f4667-b866-44f1-a242-83ba8444b1f2","system_id":"levelo_inurba_marseille","lat":43.29798,"lon":5.38105,"is_reserved":false,"is_disabled":false,"rental_uris":{"android":"levelo://app?vid=e72f4667-b866-44f1-a242-83ba8444b1f2","ios":"levelo://app?vid=e72f4667-b866-44f1-a242-83ba8444b1f2"},"vehicle_type_id":"4","last_reported":1740848810,"current_range_meters":17600,"station_id":"ce4bgip2rcd13ifvqbb0","pricing_plan_id":"cebpf4jnsgd1na2vs0mg"},{"bike_id":"31b70e1c-8f1c-400d-bcd4-ffdad39f4759","system_id":"levelo_inurba_marseille","lat":43.30161,"lon":5.38089,"is_reserved":false,"is_disabled":false,"rental_uris":{"android":"levelo://app?vid=31b70e1c-8f1c-400d-bcd4-ffdad39f4759","ios":"levelo://app?vid=31b70e1c-8f1c-400d-bcd4-ffdad39f4759"},"vehicle_type_id":"4","last_reported":1740848810,"current_range_meters":18000,"station_id":"ce4bgjp2rcd13ifvqbh0","pricing_plan_id":"cebpf4jnsgd1na2vs0mg"},{"bike_id":"96090500-e92b-4618-a8ce-3e71815df01c","system_id":"levelo_inurba_marseille","lat":43.31081,"lon":5.38224,"is_reserved":false,"is_disabled":false,"rental_uris":{"android":"levelo://app?vid=96090500-e92b-4618-a8ce-3e71815df01c","ios":"levelo://app?vid=96090500-e92b-4618-a8ce-3e71815df01c"},"vehicle_type_id":"4","last_reported":1740848810,"current_range_meters":18000,"station_id":"","pricing_plan_id":"cebpf4jnsgd1na2vs0mg"},{"bike_id":"82ce3d8e-f85f-4f5a-a45f-96b5ebaa8cc4","system_id":"levelo_inurba_marseille","lat":43.29644,"lon":5.37114,"is_reserved":false,"is_disabled":false,"rental_uris":{"android":"levelo://app?vid=82ce3d8e-f85f-4f5a-a45f-96b5ebaa8cc4","ios":"levelo://app?vid=82ce3d8e-f85f-4f5a-a45f-96b5ebaa8cc4"},"vehicle_type_id":"4","last_reported":1740848810,"current_range_meters":18000,"station_id":"ce4bgnh2rcd13ifvqc0g","pricing_plan_id":"cebpf4jnsgd1na2vs0mg"},{"bike_id":"207e6adc-b8f7-41ad-800d-0cea7075882c","system_id":"levelo_inurba_marseille","lat":43.29263,"lon":5.38443,"is_reserved":false,"is_disabled":false,"rental_uris":{"android":"levelo://app?vid=207e6adc-b8f7-41ad-800d-0cea7075882c","ios":"levelo://app?vid=207e6adc-b8f7-41ad-800d-0cea7075882c"},"vehicle_type_id":"4","last_reported":1740848810,"current_range_meters":17600,"station_id":"ce4bh692rcd13ifvqea0","pricing_plan_id":"cebpf4jnsgd1na2vs0mg"},{"bike_id":"9a209b00-3fe1-4943-86ba-054f44948e73","system_id":"levelo_inurba_marseille","lat":43.30543,"lon":5.3655,"is_reserved":false,"is_disabled":false,"rental_uris":{"android":"levelo://app?vid=9a209b00-3fe1-4943-86ba-054f44948e73","ios":"levelo://app?vid=9a209b00-3fe1-4943-86ba-054f44948e73"},"vehicle_type_id":"4","last_reported":1740848810,"current_range_meters":18000,"station_id":"ce4bgs12rcd13ifvqcag","pricing_plan_id":"cebpf4jnsgd1na2vs0mg"},{"bike_id":"a67abdd3-b05d-4a95-9534-1ae1528f984d","system_id":"levelo_inurba_marseille","lat":43.30141,"lon":5.38066,"is_reserved":false,"is_disabled":false,"rental_uris":{"android":"levelo://app?vid=a67abdd3-b05d-4a95-9534-1ae1528f984d","ios":"levelo://app?vid=a67abdd3-b05d-4a95-9534-1ae1528f984d"},"vehicle_type_id":"4","last_reported":1740848810,"current_range_meters":19200,"station_id":"ce4bgjp2rcd13ifvqbh0","pricing_plan_id":"cebpf4jnsgd1na2vs0mg"},{"bike_id":"18ed809a-93be-4ceb-a90d-b4661309b51d","system_id":"levelo_inurba_marseille","lat":43.3093,"lon":5.37416,"is_reserved":false,"is_disabled":false,"rental_uris":{"android":"levelo://app?vid=18ed809a-93be-4ceb-a90d-b4661309b51d","ios":"levelo://app?vid=18ed809a-93be-4ceb-a90d-b4661309b51d"},"vehicle_type_id":"4","last_reported":1740848810,"current_range_meters":19200,"station_id":"","pricing_plan_id":"cebpf4jnsgd1na2vs0mg"},{"bike_id":"7af2d398-e346-4ead-b3bf-8669a0aff5b9","system_id":"levelo_inurba_marseille","lat":43.28937,"lon":5.36639,"is_reserved":false,"is_disabled":false,"rental_uris":{"android":"levelo://app?vid=7af2d398-e346-4ead-b3bf-8669a0aff5b9","ios":"levelo://app?vid=7af2d398-e346-4ead-b3bf-8669a0aff5b9"},"vehicle_type_id":"4","last_reported":1740848810,"current_range_meters":19200,"station_id":"ce4bhap2rcd13ifvqek0","pricing_plan_id":"cebpf4jnsgd1na2vs0mg"},{"bike_id":"606bdd66-5162-4f4c-bf53-fba710dcc40d","system_id":"levelo_inurba_marseille","lat":43.24419,"lon":5.37067,"is_reserved":false,"is_disabled":true,"rental_uris":{"android":"levelo://app?vid=606bdd66-5162-4f4c-bf53-fba710dcc40d","ios":"levelo://app?vid=606bdd66-5162-4f4c-bf53-fba710dcc40d"},"vehicle_type_id":"4","last_reported":1740848810,"current_range_meters":19200,"station_id":"ce4bhhh2rcd13ifvqfk0","pricing_plan_id":"cebpf4jnsgd1na2vs0mg"},{"bike_id":"d66b749a-0808-469e-b143-0787b08d816b","system_id":"levelo_inurba_marseille","lat":43.26204,"lon":5.3745,"is_reserved":false,"is_disabled":false,"rental_uris":{"android":"levelo://app?vid=d66b749a-0808-469e-b143-0787b08d816b","ios":"levelo://app?vid=d66b749a-0808-469e-b143-0787b08d816b"},"vehicle_type_id":"4","last_reported":1740848810,"current_range_meters":19200,"station_id":"ce4bhgp2rcd13ifvqfc0","pricing_plan_id":"cebpf4jnsgd1na2vs0mg"},{"bike_id":"219c3b0b-00a7-466e-b12d-57038ccef4f4","system_id":"levelo_inurba_marseille","lat":43.26196,"lon":5.37431,"is_reserved":false,"is_disabled":false,"rental_uris":{"android":"levelo://app?vid=219c3b0b-00a7-466e-b12d-57038ccef4f4","ios":"levelo://app?vid=219c3b0b-00a7-466e-b12d-57038ccef4f4"},"vehicle_type_id":"4","last_reported":1740848810,"current_range_meters":19600,"station_id":"ce4bhgp2rcd13ifvqfc0","pricing_plan_id":"cebpf4jnsgd1na2vs0mg"},{"bike_id":"067820a5-7c7f-45a9-8efa-4295df08f1c7","system_id":"levelo_inurba_marseille","lat":43.30192,"lon":5.36617,"is_reserved":false,"is_disabled":false,"rental_uris":{"android":"levelo://app?vid=067820a5-7c7f-45a9-8efa-4295df08f1c7","ios":"levelo://app?vid=067820a5-7c7f-45a9-8efa-4295df08f1c7"},"vehicle_type_id":"4","last_reported":1740848810,"current_range_meters":19200,"station_id":"ce4bgrh2rcd13ifvqc8g","pricing_plan_id":"cebpf4jnsgd1na2vs0mg"},{"bike_id":"cc836fe0-3cfd-4fe9-beb4-1fec15d76872","system_id":"levelo_inurba_marseille","lat":43.30426,"lon":5.3736,"is_reserved":false,"is_disabled":false,"rental_uris":{"android":"levelo://app?vid=cc836fe0-3cfd-4fe9-beb4-1fec15d76872","ios":"levelo://app?vid=cc836fe0-3cfd-4fe9-beb4-1fec15d76872"},"vehicle_type_id":"4","last_reported":1740848810,"current_range_meters":19200,"station_id":"","pricing_plan_id":"cebpf4jnsgd1na2vs0mg"},{"bike_id":"67234bf1-73b0-4e6b-b8fe-0549924423d5","system_id":"levelo_inurba_marseille","lat":43.31163,"lon":5.3872,"is_reserved":false,"is_disabled":false,"rental_uris":{"android":"levelo://app?vid=67234bf1-73b0-4e6b-b8fe-0549924423d5","ios":"levelo://app?vid=67234bf1-73b0-4e6b-b8fe-0549924423d5"},"vehicle_type_id":"4","last_reported":1740848810,"current_range_meters":19200,"station_id":"ce4bgv12rcd13ifvqcp0","pricing_plan_id":"cebpf4jnsgd1na2vs0mg"},{"bike_id":"c5b35fc3-133b-4fcd-9bc1-000b1b46221f","system_id":"levelo_inurba_marseille","lat":43.24166,"lon":5.3639,"is_reserved":false,"is_disabled":false,"rental_uris":{"android":"levelo://app?vid=c5b35fc3-133b-4fcd-9bc1-000b1b46221f","ios":"levelo://app?vid=c5b35fc3-133b-4fcd-9bc1-000b1b46221f"},"vehicle_type_id":"4","last_reported":1740848810,"current_range_meters":19600,"station_id":"cpo36qri1sfpv3e86is0","pricing_plan_id":"cebpf4jnsgd1na2vs0mg"},{"bike_id":"d7fbfaa5-4c31-4d77-9b89-11206ded8778","system_id":"levelo_inurba_marseille","lat":43.31221,"lon":5.36844,"is_reserved":false,"is_disabled":false,"rental_uris":{"android":"levelo://app?vid=d7fbfaa5-4c31-4d77-9b89-11206ded8778","ios":"levelo://app?vid=d7fbfaa5-4c31-4d77-9b89-11206ded8778"},"vehicle_type_id":"4","last_reported":1740848810,"current_range_meters":19600,"station_id":"ce4bgl92rcd13ifvqbq0","pricing_plan_id":"cebpf4jnsgd1na2vs0mg"},{"bike_id":"aec5b281-84b8-4f30-a71b-d36232337e31","system_id":"levelo_inurba_marseille","lat":43.30795,"lon":5.43527,"is_reserved":false,"is_disabled":false,"rental_uris":{"android":"levelo://app?vid=aec5b281-84b8-4f30-a71b-d36232337e31","ios":"levelo://app?vid=aec5b281-84b8-4f30-a71b-d36232337e31"},"vehicle_type_id":"4","last_reported":1740848810,"current_range_meters":19600,"station_id":"ce4bhph2rcd13ifvqheg","pricing_plan_id":"cebpf4jnsgd1na2vs0mg"},{"bike_id":"10d5a6d7-03c3-4547-991a-e580f45e9692","system_id":"levelo_inurba_marseille","lat":43.29007,"lon":5.35613,"is_reserved":false,"is_disabled":false,"rental_uris":{"android":"levelo://app?vid=10d5a6d7-03c3-4547-991a-e580f45e9692","ios":"levelo://app?vid=10d5a6d7-03c3-4547-991a-e580f45e9692"},"vehicle_type_id":"4","last_reported":1740848810,"current_range_meters":19200,"station_id":"ce4bhb92rcd13ifvqen0","pricing_plan_id":"cebpf4jnsgd1na2vs0mg"},{"bike_id":"35de5d9e-453d-4b6e-a49a-d72de279088a","system_id":"levelo_inurba_marseille","lat":43.26193,"lon":5.3744,"is_reserved":false,"is_disabled":false,"rental_uris":{"android":"levelo://app?vid=35de5d9e-453d-4b6e-a49a-d72de279088a","ios":"levelo://app?vid=35de5d9e-453d-4b6e-a49a-d72de279088a"},"vehicle_type_id":"4","last_reported":1740848810,"current_range_meters":19600,"station_id":"ce4bhgp2rcd13ifvqfc0","pricing_plan_id":"cebpf4jnsgd1na2vs0mg"},{"bike_id":"c6d2d362-1414-4c34-b9d1-b9ce8714a813","system_id":"levelo_inurba_marseille","lat":43.296258,"lon":5.377115,"is_reserved":false,"is_disabled":false,"rental_uris":{"android":"levelo://app?vid=c6d2d362-1414-4c34-b9d1-b9ce8714a813","ios":"levelo://app?vid=c6d2d362-1414-4c34-b9d1-b9ce8714a813"},"vehicle_type_id":"4","last_reported":1740848810,"current_range_meters":19600,"station_id":"ce4bgrh2rcd13ifvqc8g","pricing_plan_id":"cebpf4jnsgd1na2vs0mg"},{"bike_id":"3cf39e80-44f4-48a5-b674-da9fd0e1b66d","system_id":"levelo_inurba_marseille","lat":43.29573,"lon":5.37475,"is_reserved":false,"is_disabled":false,"rental_uris":{"android":"levelo://app?vid=3cf39e80-44f4-48a5-b674-da9fd0e1b66d","ios":"levelo://app?vid=3cf39e80-44f4-48a5-b674-da9fd0e1b66d"},"vehicle_type_id":"4","last_reported":1740848810,"current_range_meters":19600,"station_id":"ce4bgh92rcd13ifvqb50","pricing_plan_id":"cebpf4jnsgd1na2vs0mg"},{"bike_id":"80bcfc70-4b48-484a-b9a8-5f4e84556e23","system_id":"levelo_inurba_marseille","lat":43.30443,"lon":5.38879,"is_reserved":false,"is_disabled":false,"rental_uris":{"android":"levelo://app?vid=80bcfc70-4b48-484a-b9a8-5f4e84556e23","ios":"levelo://app?vid=80bcfc70-4b48-484a-b9a8-5f4e84556e23"},"vehicle_type_id":"4","last_reported":1740848810,"current_range_meters":19600,"station_id":"ce4bgk12rcd13ifvqbi0","pricing_plan_id":"cebpf4jnsgd1na2vs0mg"},{"bike_id":"489d0402-f617-4851-bace-1a9acc20825c","system_id":"levelo_inurba_marseille","lat":43.29093,"lon":5.3812,"is_reserved":false,"is_disabled":false,"rental_uris":{"android":"levelo://app?vid=489d0402-f617-4851-bace-1a9acc20825c","ios":"levelo://app?vid=489d0402-f617-4851-bace-1a9acc20825c"},"vehicle_type_id":"4","last_reported":1740848810,"current_range_meters":19600,"station_id":"ce4bh512rcd13ifvqe2g","pricing_plan_id":"cebpf4jnsgd1na2vs0mg"},{"bike_id":"c2b0e640-cb3d-461c-8d61-a7f418e99d89","system_id":"levelo_inurba_marseille","lat":43.31731,"lon":5.42395,"is_reserved":false,"is_disabled":false,"rental_uris":{"android":"levelo://app?vid=c2b0e640-cb3d-461c-8d61-a7f418e99d89","ios":"levelo://app?vid=c2b0e640-cb3d-461c-8d61-a7f418e99d89"},"vehicle_type_id":"4","last_reported":1740848810,"current_range_meters":19600,"station_id":"ce4bhp92rcd13ifvqhbg","pricing_plan_id":"cebpf4jnsgd1na2vs0mg"},{"bike_id":"8bcf37d7-88e7-4c1c-ae9a-c89c7441be33","system_id":"levelo_inurba_marseille","lat":43.30023,"lon":5.37184,"is_reserved":false,"is_disabled":false,"rental_uris":{"android":"levelo://app?vid=8bcf37d7-88e7-4c1c-ae9a-c89c7441be33","ios":"levelo://app?vid=8bcf37d7-88e7-4c1c-ae9a-c89c7441be33"},"vehicle_type_id":"4","last_reported":1740848810,"current_range_meters":19600,"station_id":"ce4bgr92rcd13ifvqc7g","pricing_plan_id":"cebpf4jnsgd1na2vs0mg"},{"bike_id":"33a4f641-17d0-461f-be17-4dc8b6c69c9b","system_id":"levelo_inurba_marseille","lat":43.27689,"lon":5.38877,"is_reserved":false,"is_disabled":false,"rental_uris":{"android":"levelo://app?vid=33a4f641-17d0-461f-be17-4dc8b6c69c9b","ios":"levelo://app?vid=33a4f641-17d0-461f-be17-4dc8b6c69c9b"},"vehicle_type_id":"4","last_reported":1740848810,"current_range_meters":19600,"station_id":"ce4bhi12rcd13ifvqfo0","pricing_plan_id":"cebpf4jnsgd1na2vs0mg"},{"bike_id":"b863bc21-ecc3-4be8-b58d-8f3ecf2d3213","system_id":"levelo_inurba_marseille","lat":43.29435,"lon":5.39765,"is_reserved":false,"is_disabled":true,"rental_uris":{"android":"levelo://app?vid=b863bc21-ecc3-4be8-b58d-8f3ecf2d3213","ios":"levelo://app?vid=b863bc21-ecc3-4be8-b58d-8f3ecf2d3213"},"vehicle_type_id":"4","last_reported":1740848810,"current_range_meters":19600,"station_id":"ce4bh3h2rcd13ifvqdo0","pricing_plan_id":"cebpf4jnsgd1na2vs0mg"},{"bike_id":"4bea4796-ad3b-4420-849c-6ca776a03ba1","system_id":"levelo_inurba_marseille","lat":43.26584,"lon":5.39018,"is_reserved":false,"is_disabled":false,"rental_uris":{"android":"levelo://app?vid=4bea4796-ad3b-4420-849c-6ca776a03ba1","ios":"levelo://app?vid=4bea4796-ad3b-4420-849c-6ca776a03ba1"},"vehicle_type_id":"4","last_reported":1740848810,"current_range_meters":19600,"station_id":"ce4bhe12rcd13ifvqf30","pricing_plan_id":"cebpf4jnsgd1na2vs0mg"},{"bike_id":"12619477-24e5-4654-82ba-35b94d72a1cf","system_id":"levelo_inurba_marseille","lat":43.293199,"lon":5.374219,"is_reserved":false,"is_disabled":false,"rental_uris":{"android":"levelo://app?vid=12619477-24e5-4654-82ba-35b94d72a1cf","ios":"levelo://app?vid=12619477-24e5-4654-82ba-35b94d72a1cf"},"vehicle_type_id":"4","last_reported":1740848810,"current_range_meters":20000,"station_id":"ce4bgi12rcd13ifvqb70","pricing_plan_id":"cebpf4jnsgd1na2vs0mg"},{"bike_id":"93ca1379-8c3e-4095-8011-6c16c12ad541","system_id":"levelo_inurba_marseille","lat":43.28502,"lon":5.39073,"is_reserved":false,"is_disabled":false,"rental_uris":{"android":"levelo://app?vid=93ca1379-8c3e-4095-8011-6c16c12ad541","ios":"levelo://app?vid=93ca1379-8c3e-4095-8011-6c16c12ad541"},"vehicle_type_id":"4","last_reported":1740848810,"current_range_meters":20000,"station_id":"chh1huq6cuj3fo74tm60","pricing_plan_id":"cebpf4jnsgd1na2vs0mg"},{"bike_id":"476112c9-3c40-48ac-9bab-1099ff64d6be","system_id":"levelo_inurba_marseille","lat":43.30146,"lon":5.38076,"is_reserved":false,"is_disabled":false,"rental_uris":{"android":"levelo://app?vid=476112c9-3c40-48ac-9bab-1099ff64d6be","ios":"levelo://app?vid=476112c9-3c40-48ac-9bab-1099ff64d6be"},"vehicle_type_id":"4","last_reported":1740848810,"current_range_meters":20000,"station_id":"ce4bgjp2rcd13ifvqbh0","pricing_plan_id":"cebpf4jnsgd1na2vs0mg"},{"bike_id":"670122a3-157a-4ef1-82d1-a5574649dac0","system_id":"levelo_inurba_marseille","lat":43.23969,"lon":5.36617,"is_reserved":false,"is_disabled":false,"rental_uris":{"android":"levelo://app?vid=670122a3-157a-4ef1-82d1-a5574649dac0","ios":"levelo://app?vid=670122a3-157a-4ef1-82d1-a5574649dac0"},"vehicle_type_id":"4","last_reported":1740848810,"current_range_meters":20000,"station_id":"ce4bhi12rcd13ifvqfp0","pricing_plan_id":"cebpf4jnsgd1na2vs0mg"},{"bike_id":"46b42730-9dd3-44c5-91a9-d6d931f385c3","system_id":"levelo_inurba_marseille","lat":43.25494,"lon":5.37638,"is_reserved":false,"is_disabled":false,"rental_uris":{"android":"levelo://app?vid=46b42730-9dd3-44c5-91a9-d6d931f385c3","ios":"levelo://app?vid=46b42730-9dd3-44c5-91a9-d6d931f385c3"},"vehicle_type_id":"4","last_reported":1740848810,"current_range_meters":20400,"station_id":"ce4bhh12rcd13ifvqff0","pricing_plan_id":"cebpf4jnsgd1na2vs0mg"},{"bike_id":"0b85d778-5f42-41f6-99e6-93c2062ce94d","system_id":"levelo_inurba_marseille","lat":43.31716,"lon":5.43709,"is_reserved":false,"is_disabled":false,"rental_uris":{"android":"levelo://app?vid=0b85d778-5f42-41f6-99e6-93c2062ce94d","ios":"levelo://app?vid=0b85d778-5f42-41f6-99e6-93c2062ce94d"},"vehicle_type_id":"4","last_reported":1740848810,"current_range_meters":20400,"station_id":"ce4bhp92rcd13ifvqhcg","pricing_plan_id":"cebpf4jnsgd1na2vs0mg"},{"bike_id":"065424a0-bcf9-4cf7-ba75-1479728388b3","system_id":"levelo_inurba_marseille","lat":43.30433,"lon":5.38891,"is_reserved":false,"is_disabled":false,"rental_uris":{"android":"levelo://app?vid=065424a0-bcf9-4cf7-ba75-1479728388b3","ios":"levelo://app?vid=065424a0-bcf9-4cf7-ba75-1479728388b3"},"vehicle_type_id":"4","last_reported":1740848810,"current_range_meters":20400,"station_id":"ce4bgk12rcd13ifvqbi0","pricing_plan_id":"cebpf4jnsgd1na2vs0mg"},{"bike_id":"fdf108be-c81b-497a-aba9-44ae2f581d31","system_id":"levelo_inurba_marseille","lat":43.29964,"lon":5.38492,"is_reserved":false,"is_disabled":false,"rental_uris":{"android":"levelo://app?vid=fdf108be-c81b-497a-aba9-44ae2f581d31","ios":"levelo://app?vid=fdf108be-c81b-497a-aba9-44ae2f581d31"},"vehicle_type_id":"4","last_reported":1740848810,"current_range_meters":20400,"station_id":"ce4bgj92rcd13ifvqbd0","pricing_plan_id":"cebpf4jnsgd1na2vs0mg"},{"bike_id":"982a6c2e-2f14-45e6-81c3-569abb57b097","system_id":"levelo_inurba_marseille","lat":43.23063,"lon":5.35489,"is_reserved":false,"is_disabled":false,"rental_uris":{"android":"levelo://app?vid=982a6c2e-2f14-45e6-81c3-569abb57b097","ios":"levelo://app?vid=982a6c2e-2f14-45e6-81c3-569abb57b097"},"vehicle_type_id":"4","last_reported":1740848810,"current_range_meters":20400,"station_id":"cpo3342slgdg3j2ifvpg","pricing_plan_id":"cebpf4jnsgd1na2vs0mg"},{"bike_id":"76757a05-a913-479b-bad2-337cd66ece0b","system_id":"levelo_inurba_marseille","lat":43.28482,"lon":5.38429,"is_reserved":false,"is_disabled":false,"rental_uris":{"android":"levelo://app?vid=76757a05-a913-479b-bad2-337cd66ece0b","ios":"levelo://app?vid=76757a05-a913-479b-bad2-337cd66ece0b"},"vehicle_type_id":"4","last_reported":1740848810,"current_range_meters":20400,"station_id":"ce4bh512rcd13ifvqe3g","pricing_plan_id":"cebpf4jnsgd1na2vs0mg"},{"bike_id":"913647aa-8322-4454-ae49-b35db5a01989","system_id":"levelo_inurba_marseille","lat":43.3044,"lon":5.38898,"is_reserved":false,"is_disabled":false,"rental_uris":{"android":"levelo://app?vid=913647aa-8322-4454-ae49-b35db5a01989","ios":"levelo://app?vid=913647aa-8322-4454-ae49-b35db5a01989"},"vehicle_type_id":"4","last_reported":1740848810,"current_range_meters":20000,"station_id":"ce4bgk12rcd13ifvqbi0","pricing_plan_id":"cebpf4jnsgd1na2vs0mg"},{"bike_id":"111d7526-4a85-4370-9c67-8d7dbbfab55b","system_id":"levelo_inurba_marseille","lat":43.29417,"lon":5.38623,"is_reserved":false,"is_disabled":false,"rental_uris":{"android":"levelo://app?vid=111d7526-4a85-4370-9c67-8d7dbbfab55b","ios":"levelo://app?vid=111d7526-4a85-4370-9c67-8d7dbbfab55b"},"vehicle_type_id":"4","last_reported":1740848810,"current_range_meters":20800,"station_id":"ce4bh2h2rcd13ifvqdh0","pricing_plan_id":"cebpf4jnsgd1na2vs0mg"},{"bike_id":"23418860-f591-46dc-a2d5-0cc5111bf86a","system_id":"levelo_inurba_marseille","lat":43.26197,"lon":5.42063,"is_reserved":false,"is_disabled":false,"rental_uris":{"android":"levelo://app?vid=23418860-f591-46dc-a2d5-0cc5111bf86a","ios":"levelo://app?vid=23418860-f591-46dc-a2d5-0cc5111bf86a"},"vehicle_type_id":"4","last_reported":1740848810,"current_range_meters":20800,"station_id":"","pricing_plan_id":"cebpf4jnsgd1na2vs0mg"},{"bike_id":"0c1c1085-627e-4205-ad46-d7e696c4e3cc","system_id":"levelo_inurba_marseille","lat":43.29275,"lon":5.38452,"is_reserved":false,"is_disabled":false,"rental_uris":{"android":"levelo://app?vid=0c1c1085-627e-4205-ad46-d7e696c4e3cc","ios":"levelo://app?vid=0c1c1085-627e-4205-ad46-d7e696c4e3cc"},"vehicle_type_id":"4","last_reported":1740848810,"current_range_meters":20800,"station_id":"ce4bh692rcd13ifvqea0","pricing_plan_id":"cebpf4jnsgd1na2vs0mg"},{"bike_id":"cc4b29ba-c5e4-4b12-842a-46fdbb0988ee","system_id":"levelo_inurba_marseille","lat":43.27304,"lon":5.39123,"is_reserved":false,"is_disabled":false,"rental_uris":{"android":"levelo://app?vid=cc4b29ba-c5e4-4b12-842a-46fdbb0988ee","ios":"levelo://app?vid=cc4b29ba-c5e4-4b12-842a-46fdbb0988ee"},"vehicle_type_id":"4","last_reported":1740848810,"current_range_meters":20800,"station_id":"ce4bhgp2rcd13ifvqfe0","pricing_plan_id":"cebpf4jnsgd1na2vs0mg"},{"bike_id":"0bd32094-c0c7-4baa-bba4-5759fe1cba94","system_id":"levelo_inurba_marseille","lat":43.2572,"lon":5.41099,"is_reserved":false,"is_disabled":false,"rental_uris":{"android":"levelo://app?vid=0bd32094-c0c7-4baa-bba4-5759fe1cba94","ios":"levelo://app?vid=0bd32094-c0c7-4baa-bba4-5759fe1cba94"},"vehicle_type_id":"4","last_reported":1740848810,"current_range_meters":20800,"station_id":"ce4bhkp2rcd13ifvqgd0","pricing_plan_id":"cebpf4jnsgd1na2vs0mg"},{"bike_id":"75327e3d-7cb0-4e50-90d9-862d4e5024ae","system_id":"levelo_inurba_marseille","lat":43.29027,"lon":5.3756,"is_reserved":false,"is_disabled":false,"rental_uris":{"android":"levelo://app?vid=75327e3d-7cb0-4e50-90d9-862d4e5024ae","ios":"levelo://app?vid=75327e3d-7cb0-4e50-90d9-862d4e5024ae"},"vehicle_type_id":"4","last_reported":1740848810,"current_range_meters":20800,"station_id":"ce4bh692rcd13ifvqe90","pricing_plan_id":"cebpf4jnsgd1na2vs0mg"},{"bike_id":"1adb7db5-8d4f-4abf-a365-2e3925f0a49c","system_id":"levelo_inurba_marseille","lat":43.29273,"lon":5.36838,"is_reserved":false,"is_disabled":false,"rental_uris":{"android":"levelo://app?vid=1adb7db5-8d4f-4abf-a365-2e3925f0a49c","ios":"levelo://app?vid=1adb7db5-8d4f-4abf-a365-2e3925f0a49c"},"vehicle_type_id":"4","last_reported":1740848810,"current_range_meters":20800,"station_id":"ce4bhbp2rcd13ifvqesg","pricing_plan_id":"cebpf4jnsgd1na2vs0mg"},{"bike_id":"846eb34c-de4a-4271-8078-f98339696d7a","system_id":"levelo_inurba_marseille","lat":43.31361,"lon":5.38481,"is_reserved":false,"is_disabled":false,"rental_uris":{"android":"levelo://app?vid=846eb34c-de4a-4271-8078-f98339696d7a","ios":"levelo://app?vid=846eb34c-de4a-4271-8078-f98339696d7a"},"vehicle_type_id":"4","last_reported":1740848810,"current_range_meters":20800,"station_id":"ce4bgt92rcd13ifvqcf0","pricing_plan_id":"cebpf4jnsgd1na2vs0mg"},{"bike_id":"c567e9fc-8f90-4f42-b34c-b3433e3f9ff2","system_id":"levelo_inurba_marseille","lat":43.30896,"lon":5.37199,"is_reserved":false,"is_disabled":false,"rental_uris":{"android":"levelo://app?vid=c567e9fc-8f90-4f42-b34c-b3433e3f9ff2","ios":"levelo://app?vid=c567e9fc-8f90-4f42-b34c-b3433e3f9ff2"},"vehicle_type_id":"4","last_reported":1740848810,"current_range_meters":20800,"station_id":"ce4bguh2rcd13ifvqckg","pricing_plan_id":"cebpf4jnsgd1na2vs0mg"},{"bike_id":"8a2d0718-fb64-4fe7-844f-9e5db9fa5264","system_id":"levelo_inurba_marseille","lat":43.29078,"lon":5.37171,"is_reserved":false,"is_disabled":false,"rental_uris":{"android":"levelo://app?vid=8a2d0718-fb64-4fe7-844f-9e5db9fa5264","ios":"levelo://app?vid=8a2d0718-fb64-4fe7-844f-9e5db9fa5264"},"vehicle_type_id":"4","last_reported":1740848810,"current_range_meters":21600,"station_id":"ce4bh5p2rcd13ifvqe4g","pricing_plan_id":"cebpf4jnsgd1na2vs0mg"},{"bike_id":"3bc4eda0-da4a-4b3b-86f5-756cd5b48c84","system_id":"levelo_inurba_marseille","lat":43.26804,"lon":5.40263,"is_reserved":false,"is_disabled":false,"rental_uris":{"android":"levelo://app?vid=3bc4eda0-da4a-4b3b-86f5-756cd5b48c84","ios":"levelo://app?vid=3bc4eda0-da4a-4b3b-86f5-756cd5b48c84"},"vehicle_type_id":"4","last_reported":1740848810,"current_range_meters":21600,"station_id":"ce501612rcd8frsf0b60","pricing_plan_id":"cebpf4jnsgd1na2vs0mg"},{"bike_id":"3ed59b05-bafb-41cb-a4f0-b5f4256b3e58","system_id":"levelo_inurba_marseille","lat":43.28421,"lon":5.34976,"is_reserved":false,"is_disabled":false,"rental_uris":{"android":"levelo://app?vid=3ed59b05-bafb-41cb-a4f0-b5f4256b3e58","ios":"levelo://app?vid=3ed59b05-bafb-41cb-a4f0-b5f4256b3e58"},"vehicle_type_id":"4","last_reported":1740848810,"current_range_meters":21600,"station_id":"ce4bhbh2rcd13ifvqepg","pricing_plan_id":"cebpf4jnsgd1na2vs0mg"},{"bike_id":"17a4bbe5-cb0b-4fb6-ad77-704dbaa750a4","system_id":"levelo_inurba_marseille","lat":43.2407,"lon":5.37766,"is_reserved":false,"is_disabled":false,"rental_uris":{"android":"levelo://app?vid=17a4bbe5-cb0b-4fb6-ad77-704dbaa750a4","ios":"levelo://app?vid=17a4bbe5-cb0b-4fb6-ad77-704dbaa750a4"},"vehicle_type_id":"4","last_reported":1740848810,"current_range_meters":21600,"station_id":"ce4bhnp2rcd13ifvqgvg","pricing_plan_id":"cebpf4jnsgd1na2vs0mg"},{"bike_id":"50636c00-eacf-437a-bf02-83da93d493a8","system_id":"levelo_inurba_marseille","lat":43.299657,"lon":5.371789,"is_reserved":false,"is_disabled":false,"rental_uris":{"android":"levelo://app?vid=50636c00-eacf-437a-bf02-83da93d493a8","ios":"levelo://app?vid=50636c00-eacf-437a-bf02-83da93d493a8"},"vehicle_type_id":"4","last_reported":1740848810,"current_range_meters":21600,"station_id":"ce4bghh2rcd13ifvqb60","pricing_plan_id":"cebpf4jnsgd1na2vs0mg"},{"bike_id":"ab771a5e-1f93-41b8-9ddd-e44ebc847f5b","system_id":"levelo_inurba_marseille","lat":43.29284,"lon":5.36832,"is_reserved":false,"is_disabled":false,"rental_uris":{"android":"levelo://app?vid=ab771a5e-1f93-41b8-9ddd-e44ebc847f5b","ios":"levelo://app?vid=ab771a5e-1f93-41b8-9ddd-e44ebc847f5b"},"vehicle_type_id":"4","last_reported":1740848810,"current_range_meters":22000,"station_id":"ce4bhbp2rcd13ifvqesg","pricing_plan_id":"cebpf4jnsgd1na2vs0mg"},{"bike_id":"0e127e9b-ac12-485d-acd6-dd9a5109e9ac","system_id":"levelo_inurba_marseille","lat":43.27067,"lon":5.40228,"is_reserved":false,"is_disabled":false,"rental_uris":{"android":"levelo://app?vid=0e127e9b-ac12-485d-acd6-dd9a5109e9ac","ios":"levelo://app?vid=0e127e9b-ac12-485d-acd6-dd9a5109e9ac"},"vehicle_type_id":"4","last_reported":1740848810,"current_range_meters":22000,"station_id":"ce4bhk92rcd13ifvqgc0","pricing_plan_id":"cebpf4jnsgd1na2vs0mg"},{"bike_id":"973a322e-84c9-4549-9723-05d80da3cb42","system_id":"levelo_inurba_marseille","lat":43.30146,"lon":5.38095,"is_reserved":false,"is_disabled":false,"rental_uris":{"android":"levelo://app?vid=973a322e-84c9-4549-9723-05d80da3cb42","ios":"levelo://app?vid=973a322e-84c9-4549-9723-05d80da3cb42"},"vehicle_type_id":"4","last_reported":1740848810,"current_range_meters":22000,"station_id":"ce4bgjp2rcd13ifvqbh0","pricing_plan_id":"cebpf4jnsgd1na2vs0mg"},{"bike_id":"c3dea0f0-f2c8-47b3-bd11-27a0d940cb1c","system_id":"levelo_inurba_marseille","lat":43.27169,"lon":5.40987,"is_reserved":false,"is_disabled":false,"rental_uris":{"android":"levelo://app?vid=c3dea0f0-f2c8-47b3-bd11-27a0d940cb1c","ios":"levelo://app?vid=c3dea0f0-f2c8-47b3-bd11-27a0d940cb1c"},"vehicle_type_id":"4","last_reported":1740848810,"current_range_meters":22000,"station_id":"ce4bhl12rcd13ifvqgf0","pricing_plan_id":"cebpf4jnsgd1na2vs0mg"},{"bike_id":"3dcbe080-6f57-4957-876e-8578dff2dc99","system_id":"levelo_inurba_marseille","lat":43.280649,"lon":5.396653,"is_reserved":false,"is_disabled":false,"rental_uris":{"android":"levelo://app?vid=3dcbe080-6f57-4957-876e-8578dff2dc99","ios":"levelo://app?vid=3dcbe080-6f57-4957-876e-8578dff2dc99"},"vehicle_type_id":"4","last_reported":1740848810,"current_range_meters":22000,"station_id":"ce4bho12rcd13ifvqh2g","pricing_plan_id":"cebpf4jnsgd1na2vs0mg"},{"bike_id":"417fbd7d-d6d8-4c3a-98dd-ce0156edb9f1","system_id":"levelo_inurba_marseille","lat":43.28421,"lon":5.34987,"is_reserved":false,"is_disabled":false,"rental_uris":{"android":"levelo://app?vid=417fbd7d-d6d8-4c3a-98dd-ce0156edb9f1","ios":"levelo://app?vid=417fbd7d-d6d8-4c3a-98dd-ce0156edb9f1"},"vehicle_type_id":"4","last_reported":1740848810,"current_range_meters":22000,"station_id":"ce4bhbh2rcd13ifvqepg","pricing_plan_id":"cebpf4jnsgd1na2vs0mg"},{"bike_id":"c556ebcb-ee64-4df6-b5be-bdee7ad4accd","system_id":"levelo_inurba_marseille","lat":43.31236,"lon":5.36876,"is_reserved":false,"is_disabled":false,"rental_uris":{"android":"levelo://app?vid=c556ebcb-ee64-4df6-b5be-bdee7ad4accd","ios":"levelo://app?vid=c556ebcb-ee64-4df6-b5be-bdee7ad4accd"},"vehicle_type_id":"4","last_reported":1740848810,"current_range_meters":22000,"station_id":"ce4bgl92rcd13ifvqbq0","pricing_plan_id":"cebpf4jnsgd1na2vs0mg"},{"bike_id":"617737e0-9a76-4e42-9c8d-f35f478c4396","system_id":"levelo_inurba_marseille","lat":43.26564,"lon":5.37279,"is_reserved":false,"is_disabled":false,"rental_uris":{"android":"levelo://app?vid=617737e0-9a76-4e42-9c8d-f35f478c4396","ios":"levelo://app?vid=617737e0-9a76-4e42-9c8d-f35f478c4396"},"vehicle_type_id":"4","last_reported":1740848810,"current_range_meters":22400,"station_id":"ce4bhg12rcd13ifvqf70","pricing_plan_id":"cebpf4jnsgd1na2vs0mg"},{"bike_id":"226ba34b-6bf9-42d3-a808-1ebde3847264","system_id":"levelo_inurba_marseille","lat":43.29483,"lon":5.38543,"is_reserved":false,"is_disabled":false,"rental_uris":{"android":"levelo://app?vid=226ba34b-6bf9-42d3-a808-1ebde3847264","ios":"levelo://app?vid=226ba34b-6bf9-42d3-a808-1ebde3847264"},"vehicle_type_id":"4","last_reported":1740848810,"current_range_meters":22400,"station_id":"ce4bgih2rcd13ifvqba0","pricing_plan_id":"cebpf4jnsgd1na2vs0mg"},{"bike_id":"65e84d52-cd1c-468b-8cd8-11bdaaf41843","system_id":"levelo_inurba_marseille","lat":43.27212,"lon":5.39178,"is_reserved":false,"is_disabled":false,"rental_uris":{"android":"levelo://app?vid=65e84d52-cd1c-468b-8cd8-11bdaaf41843","ios":"levelo://app?vid=65e84d52-cd1c-468b-8cd8-11bdaaf41843"},"vehicle_type_id":"4","last_reported":1740848810,"current_range_meters":22400,"station_id":"ce4bhhp2rcd13ifvqfm0","pricing_plan_id":"cebpf4jnsgd1na2vs0mg"},