{"last_updated":1784732080,"ttl":60,"version":"2.2","data":{"bikes":[{"bike_id":"7ef36254-6bb3-448c-8d77-979d957d54b6","system_id":"levelo_inurba_marseille","lat":43.337444,"lon":5.374475,"is_reserved":false,"is_disabled":false,"rental_uris":{"android":"levelo://app?vid=7ef36254-6bb3-448c-8d77-979d957d54b6","ios":"levelo://app?vid=7ef36254-6bb3-448c-8d77-979d957d54b6"},"vehicle_type_id":"4","last_reported":1784732082,"current_range_meters":0,"station_id":"","pricing_plan_id":"cebpf4jnsgd1na2vs0mg"},{"bike_id":"21fe2e98-0432-4b40-a81f-10dd00b0f57d","system_id":"levelo_inurba_marseille","lat":43.337444,"lon":5.374475,"is_reserved":false,"is_disabled":false,"rental_uris":{"android":"levelo://app?vid=21fe2e98-0432-4b40-a81f-10dd00b0f57d","ios":"levelo://app?vid=21fe2e98-0432-4b40-a81f-10dd00b0f57d"},"vehicle_type_id":"4","last_reported":1784732082,"current_range_meters":0,"station_id":"","pricing_plan_id":"cebpf4jnsgd1na2vs0mg"},{"bike_id":"a005102a-45c6-430f-8cd7-a0a69490bbf0","system_id":"levelo_inurba_marseille","lat":43.33533,"lon":5.37471,"is_reserved":false,"is_disabled":false,"rental_uris":{"android":"levelo://app?vid=a005102a-45c6-430f-8cd7-a0a69490bbf0","ios":"levelo://app?vid=a005102a-45c6-430f-8cd7-a0a69490bbf0"},"vehicle_type_id":"4","last_reported":1784732082,"current_range_meters":34800,"station_id":"st_d46tts09ee8s73dlu43g","pricing_plan_id":"cebpf4jnsgd1na2vs0mg"},{"bike_id":"e35a7b3d-d6be-4e45-8bf8-f140e099eb23","system_id":"levelo_inurba_marseille","lat":43.2705,"lon":5.4026,"is_reserved":false,"is_disabled":false,"rental_uris":{"android":"levelo://app?vid=e35a7b3d-d6be-4e45-8bf8-f140e099eb23","ios":"levelo://app?vid=e35a7b3d-d6be-4e45-8bf8-f140e099eb23"},"vehicle_type_id":"4","last_reported":1784732082,"current_range_meters":40000,"station_id":"ce4bhk92rcd13ifvqgc0","pricing_plan_id":"cebpf4jnsgd1na2vs0mg"},{"bike_id":"910edd9b-3f88-46ff-af53-0deba1c167b6","system_id":"levelo_inurba_marseille","lat":43.2395,"lon":5.36635,"is_reserved":false,"is_disabled":false,"rental_uris":{"android":"levelo://app?vid=910edd9b-3f88-46ff-af53-0deba1c167b6","ios":"levelo://app?vid=910edd9b-3f88-46ff-af53-0deba1c167b6"},"vehicle_type_id":"4","last_reported":1784732082,"current_range_meters":38800,"station_id":"ce4bhi12rcd13ifvqfp0","pricing_plan_id":"cebpf4jnsgd1na2vs0mg"},{"bike_id":"62718dab-79ef-4c4e-bb69-8f4eb7b59fe8","system_id":"levelo_inurba_marseille","lat":43.27818,"lon":5.40713,"is_reserved":false,"is_disabled":false,"rental_uris":{"android":"levelo://app?vid=62718dab-79ef-4c4e-bb69-8f4eb7b59fe8","ios":"levelo://app?vid=62718dab-79ef-4c4e-bb69-8f4eb7b59fe8"},"vehicle_type_id":"4","last_reported":1784732082,"current_range_meters":30800,"station_id":"ce4bhnh2rcd13ifvqgtg","pricing_plan_id":"cebpf4jnsgd1na2vs0mg"},{"bike_id":"75d6362f-fe0a-4519-b436-357232361612","system_id":"levelo_inurba_marseille","lat":43.26931,"lon":5.40261,"is_reserved":false,"is_disabled":false,"rental_uris":{"android":"levelo://app?vid=75d6362f-fe0a-4519-b436-357232361612","ios":"levelo://app?vid=75d6362f-fe0a-4519-b436-357232361612"},"vehicle_type_id":"4","last_reported":1784732082,"current_range_meters":38800,"station_id":"cjm6bp8fraef2m0cb0m0","pricing_plan_id":"cebpf4jnsgd1na2vs0mg"},{"bike_id":"f2c26268-2002-48c9-a2f8-8f76ed8a8540","system_id":"levelo_inurba_marseille","lat":43.23898,"lon":5.37458,"is_reserved":false,"is_disabled":false,"rental_uris":{"android":"levelo://app?vid=f2c26268-2002-48c9-a2f8-8f76ed8a8540","ios":"levelo://app?vid=f2c26268-2002-48c9-a2f8-8f76ed8a8540"},"vehicle_type_id":"4","last_reported":1784732082,"current_range_meters":39200,"station_id":"st_d6sm7csbq4hs73f8fpjg","pricing_plan_id":"cebpf4jnsgd1na2vs0mg"},{"bike_id":"da976571-a73a-4abd-bb22-26f476df2759","system_id":"levelo_inurba_marseille","lat":43.28093,"lon":5.37838,"is_reserved":false,"is_disabled":false,"rental_uris":{"android":"levelo://app?vid=da976571-a73a-4abd-bb22-26f476df2759","ios":"levelo://app?vid=da976571-a73a-4abd-bb22-26f476df2759"},"vehicle_type_id":"4","last_reported":1784732082,"current_range_meters":30400,"station_id":"ce4bha12rcd13ifvqee0","pricing_plan_id":"cebpf4jnsgd1na2vs0mg"},{"bike_id":"72706276-fb69-4388-946e-2b4fb06a5929","system_id":"levelo_inurba_marseille","lat":43.32967,"lon":5.39074,"is_reserved":false,"is_disabled":false,"rental_uris":{"android":"levelo://app?vid=72706276-fb69-4388-946e-2b4fb06a5929","ios":"levelo://app?vid=72706276-fb69-4388-946e-2b4fb06a5929"},"vehicle_type_id":"4","last_reported":1784732082,"current_range_meters":6400,"station_id":"","pricing_plan_id":"cebpf4jnsgd1na2vs0mg"},{"bike_id":"b2a7896f-4577-449f-8e37-be2ab8f87aea","system_id":"levelo_inurba_marseille","lat":43.28405,"lon":5.35,"is_reserved":false,"is_disabled":false,"rental_uris":{"android":"levelo://app?vid=b2a7896f-4577-449f-8e37-be2ab8f87aea","ios":"levelo://app?vid=b2a7896f-4577-449f-8e37-be2ab8f87aea"},"vehicle_type_id":"4","last_reported":1784732082,"current_range_meters":28000,"station_id":"ce4bhbh2rcd13ifvqepg","pricing_plan_id":"cebpf4jnsgd1na2vs0mg"},{"bike_id":"10ad0a9f-3c3b-45c2-8514-d34f29e37fe1","system_id":"levelo_inurba_marseille","lat":43.24414,"lon":5.3702,"is_reserved":false,"is_disabled":false,"rental_uris":{"android":"levelo://app?vid=10ad0a9f-3c3b-45c2-8514-d34f29e37fe1","ios":"levelo://app?vid=10ad0a9f-3c3b-45c2-8514-d34f29e37fe1"},"vehicle_type_id":"4","last_reported":1784732082,"current_range_meters":35200,"station_id":"","pricing_plan_id":"cebpf4jnsgd1na2vs0mg"},{"bike_id":"b26537b3-5f0c-4eb7-8731-15d0b3c0dd26","system_id":"levelo_inurba_marseille","lat":43.29722,"lon":5.36614,"is_reserved":false,"is_disabled":false,"rental_uris":{"android":"levelo://app?vid=b26537b3-5f0c-4eb7-8731-15d0b3c0dd26","ios":"levelo://app?vid=b26537b3-5f0c-4eb7-8731-15d0b3c0dd26"},"vehicle_type_id":"4","last_reported":1784732082,"current_range_meters":39200,"station_id":"ce4bgn12rcd13ifvqbt0","pricing_plan_id":"cebpf4jnsgd1na2vs0mg"},{"bike_id":"e7dcaf7b-9751-4df8-97c8-58c10a250eef","system_id":"levelo_inurba_marseille","lat":43.30727,"lon":5.42432,"is_reserved":false,"is_disabled":false,"rental_uris":{"android":"levelo://app?vid=e7dcaf7b-9751-4df8-97c8-58c10a250eef","ios":"levelo://app?vid=e7dcaf7b-9751-4df8-97c8-58c10a250eef"},"vehicle_type_id":"4","last_reported":1784732082,"current_range_meters":37600,"station_id":"st_cvj6ca6bvosntc0bfgr0","pricing_plan_id":"cebpf4jnsgd1na2vs0mg"},{"bike_id":"4aa30d2f-d710-4786-a7a6-fdc6e379a564","system_id":"levelo_inurba_marseille","lat":43.24811,"lon":5.37446,"is_reserved":false,"is_disabled":false,"rental_uris":{"android":"levelo://app?vid=4aa30d2f-d710-4786-a7a6-fdc6e379a564","ios":"levelo://app?vid=4aa30d2f-d710-4786-a7a6-fdc6e379a564"},"vehicle_type_id":"4","last_reported":1784732082,"current_range_meters":17200,"station_id":"ce4bhgh2rcd13ifvqfb0","pricing_plan_id":"cebpf4jnsgd1na2vs0mg"},{"bike_id":"45c49d7a-ce5a-4cef-92b3-a6a99f7ffcbc","system_id":"levelo_inurba_marseille","lat":43.31758,"lon":5.39009,"is_reserved":false,"is_disabled":false,"rental_uris":{"android":"levelo://app?vid=45c49d7a-ce5a-4cef-92b3-a6a99f7ffcbc","ios":"levelo://app?vid=45c49d7a-ce5a-4cef-92b3-a6a99f7ffcbc"},"vehicle_type_id":"4","last_reported":1784732082,"current_range_meters":31200,"station_id":"ce4bhqp2rcd13ifvqhng","pricing_plan_id":"cebpf4jnsgd1na2vs0mg"},{"bike_id":"956b56e3-a836-4dea-98e2-5ce7d88ed189","system_id":"levelo_inurba_marseille","lat":43.29846,"lon":5.36263,"is_reserved":false,"is_disabled":false,"rental_uris":{"android":"levelo://app?vid=956b56e3-a836-4dea-98e2-5ce7d88ed189","ios":"levelo://app?vid=956b56e3-a836-4dea-98e2-5ce7d88ed189"},"vehicle_type_id":"4","last_reported":1784732082,"current_range_meters":12000,"station_id":"ce4bgpp2rcd13ifvqc3g","pricing_plan_id":"cebpf4jnsgd1na2vs0mg"},{"bike_id":"0334278a-f526-4865-9991-40008fe349be","system_id":"levelo_inurba_marseille","lat":43.2809,"lon":5.39651,"is_reserved":false,"is_disabled":true,"rental_uris":{"android":"levelo://app?vid=0334278a-f526-4865-9991-40008fe349be","ios":"levelo://app?vid=0334278a-f526-4865-9991-40008fe349be"},"vehicle_type_id":"4","last_reported":1784732082,"current_range_meters":38000,"station_id":"ce4bho12rcd13ifvqh2g","pricing_plan_id":"cebpf4jnsgd1na2vs0mg"},{"bike_id":"0186d118-d095-4e09-b413-325451c53a5d","system_id":"levelo_inurba_marseille","lat":43.307828,"lon":5.376427,"is_reserved":false,"is_disabled":false,"rental_uris":{"android":"levelo://app?vid=0186d118-d095-4e09-b413-325451c53a5d","ios":"levelo://app?vid=0186d118-d095-4e09-b413-325451c53a5d"},"vehicle_type_id":"4","last_reported":1784732082,"current_range_meters":39200,"station_id":"ce4bgv92rcd13ifvqcq0","pricing_plan_id":"cebpf4jnsgd1na2vs0mg"},{"bike_id":"bf720be3-207c-41aa-bdb2-2d086f76cbcd","system_id":"levelo_inurba_marseille","lat":43.26564,"lon":5.40324,"is_reserved":false,"is_disabled":false,"rental_uris":{"android":"levelo://app?vid=bf720be3-207c-41aa-bdb2-2d086f76cbcd","ios":"levelo://app?vid=bf720be3-207c-41aa-bdb2-2d086f76cbcd"},"vehicle_type_id":"4","last_reported":1784732082,"current_range_meters":6800,"station_id":"ce4bhmp2rcd13ifvqgng","pricing_plan_id":"cebpf4jnsgd1na2vs0mg"},{"bike_id":"7b893c3a-f50d-4ab1-b4e5-684f550fde57","system_id":"levelo_inurba_marseille","lat":43.31498,"lon":5.37297,"is_reserved":false,"is_disabled":true,"rental_uris":{"android":"levelo://app?vid=7b893c3a-f50d-4ab1-b4e5-684f550fde57","ios":"levelo://app?vid=7b893c3a-f50d-4ab1-b4e5-684f550fde57"},"vehicle_type_id":"4","last_reported":1784732082,"current_range_meters":8000,"station_id":"ce4bgt12rcd13ifvqcd0","pricing_plan_id":"cebpf4jnsgd1na2vs0mg"},{"bike_id":"1b6631e4-156f-48cb-b746-60b07cd04812","system_id":"levelo_inurba_marseille","lat":43.28993,"lon":5.35588,"is_reserved":false,"is_disabled":false,"rental_uris":{"android":"levelo://app?vid=1b6631e4-156f-48cb-b746-60b07cd04812","ios":"levelo://app?vid=1b6631e4-156f-48cb-b746-60b07cd04812"},"vehicle_type_id":"4","last_reported":1784732082,"current_range_meters":39200,"station_id":"ce4bhb92rcd13ifvqen0","pricing_plan_id":"cebpf4jnsgd1na2vs0mg"},{"bike_id":"51c9d168-94e4-41e0-90a4-bc83f1a86ce9","system_id":"levelo_inurba_marseille","lat":43.27368,"lon":5.36255,"is_reserved":false,"is_disabled":false,"rental_uris":{"android":"levelo://app?vid=51c9d168-94e4-41e0-90a4-bc83f1a86ce9","ios":"levelo://app?vid=51c9d168-94e4-41e0-90a4-bc83f1a86ce9"},"vehicle_type_id":"4","last_reported":1784732082,"current_range_meters":10800,"station_id":"ce4bhbh2rcd13ifvqeo0","pricing_plan_id":"cebpf4jnsgd1na2vs0mg"},{"bike_id":"0407e939-5161-4ca2-abca-2b876d384dfc","system_id":"levelo_inurba_marseille","lat":43.30905,"lon":5.36853,"is_reserved":false,"is_disabled":false,"rental_uris":{"android":"levelo://app?vid=0407e939-5161-4ca2-abca-2b876d384dfc","ios":"levelo://app?vid=0407e939-5161-4ca2-abca-2b876d384dfc"},"vehicle_type_id":"4","last_reported":1784732082,"current_range_meters":27600,"station_id":"ce4bgn92rcd13ifvqbvg","pricing_plan_id":"cebpf4jnsgd1na2vs0mg"},{"bike_id":"f9c65922-483e-4914-92f4-f7524b9a110d","system_id":"levelo_inurba_marseille","lat":43.32358,"lon":5.36722,"is_reserved":false,"is_disabled":false,"rental_uris":{"android":"levelo://app?vid=f9c65922-483e-4914-92f4-f7524b9a110d","ios":"levelo://app?vid=f9c65922-483e-4914-92f4-f7524b9a110d"},"vehicle_type_id":"4","last_reported":1784732082,"current_range_meters":34000,"station_id":"ce4bhsh2rcd13ifvqi2g","pricing_plan_id":"cebpf4jnsgd1na2vs0mg"},{"bike_id":"080e0c76-a9f2-441f-a5e0-597a03d75636","system_id":"levelo_inurba_marseille","lat":43.28278,"lon":5.35071,"is_reserved":false,"is_disabled":false,"rental_uris":{"android":"levelo://app?vid=080e0c76-a9f2-441f-a5e0-597a03d75636","ios":"levelo://app?vid=080e0c76-a9f2-441f-a5e0-597a03d75636"},"vehicle_type_id":"4","last_reported":1784732082,"current_range_meters":22000,"station_id":"ce4bhbp2rcd13ifvqerg","pricing_plan_id":"cebpf4jnsgd1na2vs0mg"},{"bike_id":"e28e8428-aee3-41aa-8d54-985aca6c735f","system_id":"levelo_inurba_marseille","lat":43.25507,"lon":5.37645,"is_reserved":false,"is_disabled":false,"rental_uris":{"android":"levelo://app?vid=e28e8428-aee3-41aa-8d54-985aca6c735f","ios":"levelo://app?vid=e28e8428-aee3-41aa-8d54-985aca6c735f"},"vehicle_type_id":"4","last_reported":1784732082,"current_range_meters":30800,"station_id":"ce4bhh12rcd13ifvqff0","pricing_plan_id":"cebpf4jnsgd1na2vs0mg"},{"bike_id":"cb1e526e-f628-4b5a-a541-85f8824cc039","system_id":"levelo_inurba_marseille","lat":43.2843,"lon":5.34994,"is_reserved":false,"is_disabled":false,"rental_uris":{"android":"levelo://app?vid=cb1e526e-f628-4b5a-a541-85f8824cc039","ios":"levelo://app?vid=cb1e526e-f628-4b5a-a541-85f8824cc039"},"vehicle_type_id":"4","last_reported":1784732082,"current_range_meters":17200,"station_id":"ce4bhbh2rcd13ifvqepg","pricing_plan_id":"cebpf4jnsgd1na2vs0mg"},{"bike_id":"86173552-7af4-4aa7-9419-1d75363083f7","system_id":"levelo_inurba_marseille","lat":43.28268,"lon":5.35056,"is_reserved":false,"is_disabled":false,"rental_uris":{"android":"levelo://app?vid=86173552-7af4-4aa7-9419-1d75363083f7","ios":"levelo://app?vid=86173552-7af4-4aa7-9419-1d75363083f7"},"vehicle_type_id":"4","last_reported":1784732082,"current_range_meters":39200,"station_id":"ce4bhbp2rcd13ifvqerg","pricing_plan_id":"cebpf4jnsgd1na2vs0mg"},{"bike_id":"48ec8f90-1104-4b2b-a4c3-bec2a8b6fd20","system_id":"levelo_inurba_marseille","lat":43.28464,"lon":5.35879,"is_reserved":false,"is_disabled":false,"rental_uris":{"android":"levelo://app?vid=48ec8f90-1104-4b2b-a4c3-bec2a8b6fd20","ios":"levelo://app?vid=48ec8f90-1104-4b2b-a4c3-bec2a8b6fd20"},"vehicle_type_id":"4","last_reported":1784732082,"current_range_meters":27200,"station_id":"ce4bhah2rcd13ifvqei0","pricing_plan_id":"cebpf4jnsgd1na2vs0mg"},{"bike_id":"0666263b-4018-4bcf-8b9b-1611b045feb4","system_id":"levelo_inurba_marseille","lat":43.28855,"lon":5.35852,"is_reserved":false,"is_disabled":false,"rental_uris":{"android":"levelo://app?vid=0666263b-4018-4bcf-8b9b-1611b045feb4","ios":"levelo://app?vid=0666263b-4018-4bcf-8b9b-1611b045feb4"},"vehicle_type_id":"4","last_reported":1784732082,"current_range_meters":38400,"station_id":"ce4bhb12rcd13ifvqem0","pricing_plan_id":"cebpf4jnsgd1na2vs0mg"},{"bike_id":"a338cea5-f797-4d31-b718-3121663ee29c","system_id":"levelo_inurba_marseille","lat":43.30366,"lon":5.37952,"is_reserved":false,"is_disabled":false,"rental_uris":{"android":"levelo://app?vid=a338cea5-f797-4d31-b718-3121663ee29c","ios":"levelo://app?vid=a338cea5-f797-4d31-b718-3121663ee29c"},"vehicle_type_id":"4","last_reported":1784732082,"current_range_meters":33600,"station_id":"","pricing_plan_id":"cebpf4jnsgd1na2vs0mg"},{"bike_id":"cc6b564d-2351-430f-ad60-5cedd6a1fbb8","system_id":"levelo_inurba_marseille","lat":43.2901,"lon":5.35603,"is_reserved":false,"is_disabled":false,"rental_uris":{"android":"levelo://app?vid=cc6b564d-2351-430f-ad60-5cedd6a1fbb8","ios":"levelo://app?vid=cc6b564d-2351-430f-ad60-5cedd6a1fbb8"},"vehicle_type_id":"4","last_reported":1784732082,"current_range_meters":39200,"station_id":"ce4bhb92rcd13ifvqen0","pricing_plan_id":"cebpf4jnsgd1na2vs0mg"},{"bike_id":"68f9759d-31b0-4c35-bc93-d18e666e6d46","system_id":"levelo_inurba_marseille","lat":43.30909,"lon":5.36848,"is_reserved":false,"is_disabled":false,"rental_uris":{"android":"levelo://app?vid=68f9759d-31b0-4c35-bc93-d18e666e6d46","ios":"levelo://app?vid=68f9759d-31b0-4c35-bc93-d18e666e6d46"},"vehicle_type_id":"4","last_reported":1784732082,"current_range_meters":36000,"station_id":"ce4bgn92rcd13ifvqbvg","pricing_plan_id":"cebpf4jnsgd1na2vs0mg"},{"bike_id":"a7c9489a-3c37-4218-bc38-92c335aa3a8a","system_id":"levelo_inurba_marseille","lat":43.28486,"lon":5.48385,"is_reserved":false,"is_disabled":false,"rental_uris":{"android":"levelo://app?vid=a7c9489a-3c37-4218-bc38-92c335aa3a8a","ios":"levelo://app?vid=a7c9489a-3c37-4218-bc38-92c335aa3a8a"},"vehicle_type_id":"4","last_reported":1784732082,"current_range_meters":5600,"station_id":"st_d3svhcjqgbts73a3dn0g","pricing_plan_id":"cebpf4jnsgd1na2vs0mg"},{"bike_id":"b4a84a03-8380-4ead-838e-21f3cf0d177c","system_id":"levelo_inurba_marseille","lat":43.32282,"lon":5.38271,"is_reserved":false,"is_disabled":false,"rental_uris":{"android":"levelo://app?vid=b4a84a03-8380-4ead-838e-21f3cf0d177c","ios":"levelo://app?vid=b4a84a03-8380-4ead-838e-21f3cf0d177c"},"vehicle_type_id":"4","last_reported":1784732082,"current_range_meters":10800,"station_id":"ce4bhr12rcd13ifvqhqg","pricing_plan_id":"cebpf4jnsgd1na2vs0mg"},{"bike_id":"bb8cb4e9-f16e-4cb9-afe4-7b5a6f3aac64","system_id":"levelo_inurba_marseille","lat":43.30954,"lon":5.39037,"is_reserved":false,"is_disabled":false,"rental_uris":{"android":"levelo://app?vid=bb8cb4e9-f16e-4cb9-afe4-7b5a6f3aac64","ios":"levelo://app?vid=bb8cb4e9-f16e-4cb9-afe4-7b5a6f3aac64"},"vehicle_type_id":"4","last_reported":1784732082,"current_range_meters":26800,"station_id":"ce4bgup2rcd13ifvqco0","pricing_plan_id":"cebpf4jnsgd1na2vs0mg"},{"bike_id":"55396204-0837-4133-a626-2e5890c56da8","system_id":"levelo_inurba_marseille","lat":43.27668,"lon":5.38887,"is_reserved":false,"is_disabled":true,"rental_uris":{"android":"levelo://app?vid=55396204-0837-4133-a626-2e5890c56da8","ios":"levelo://app?vid=55396204-0837-4133-a626-2e5890c56da8"},"vehicle_type_id":"4","last_reported":1784732082,"current_range_meters":0,"station_id":"ce4bhi12rcd13ifvqfo0","pricing_plan_id":"cebpf4jnsgd1na2vs0mg"},{"bike_id":"8c2b8dd6-969f-486f-b6db-89345624d380","system_id":"levelo_inurba_marseille","lat":43.31344,"lon":5.36712,"is_reserved":false,"is_disabled":false,"rental_uris":{"android":"levelo://app?vid=8c2b8dd6-969f-486f-b6db-89345624d380","ios":"levelo://app?vid=8c2b8dd6-969f-486f-b6db-89345624d380"},"vehicle_type_id":"4","last_reported":1784732082,"current_range_meters":18000,"station_id":"ce4bgr92rcd13ifvqc6g","pricing_plan_id":"cebpf4jnsgd1na2vs0mg"},{"bike_id":"5aa3ca14-34f8-4cf6-bf98-84664ad40ed9","system_id":"levelo_inurba_marseille","lat":43.32396,"lon":5.38868,"is_reserved":false,"is_disabled":false,"rental_uris":{"android":"levelo://app?vid=5aa3ca14-34f8-4cf6-bf98-84664ad40ed9","ios":"levelo://app?vid=5aa3ca14-34f8-4cf6-bf98-84664ad40ed9"},"vehicle_type_id":"4","last_reported":1784732082,"current_range_meters":36800,"station_id":"ce4bhqp2rcd13ifvqhog","pricing_plan_id":"cebpf4jnsgd1na2vs0mg"},{"bike_id":"febaaedf-9b37-469c-af42-9b12d1add498","system_id":"levelo_inurba_marseille","lat":43.25929,"lon":5.40901,"is_reserved":false,"is_disabled":false,"rental_uris":{"android":"levelo://app?vid=febaaedf-9b37-469c-af42-9b12d1add498","ios":"levelo://app?vid=febaaedf-9b37-469c-af42-9b12d1add498"},"vehicle_type_id":"4","last_reported":1784732082,"current_range_meters":12800,"station_id":"ce4bhm92rcd13ifvqglg","pricing_plan_id":"cebpf4jnsgd1na2vs0mg"},{"bike_id":"8d1348fd-8fca-4ae6-94af-ac446c88289c","system_id":"levelo_inurba_marseille","lat":43.28264,"lon":5.35081,"is_reserved":false,"is_disabled":false,"rental_uris":{"android":"levelo://app?vid=8d1348fd-8fca-4ae6-94af-ac446c88289c","ios":"levelo://app?vid=8d1348fd-8fca-4ae6-94af-ac446c88289c"},"vehicle_type_id":"4","last_reported":1784732082,"current_range_meters":30000,"station_id":"ce4bhbp2rcd13ifvqerg","pricing_plan_id":"cebpf4jnsgd1na2vs0mg"},{"bike_id":"0547f557-b090-4345-9140-124bc0c4fa4e","system_id":"levelo_inurba_marseille","lat":43.33174,"lon":5.37702,"is_reserved":false,"is_disabled":false,"rental_uris":{"android":"levelo://app?vid=0547f557-b090-4345-9140-124bc0c4fa4e","ios":"levelo://app?vid=0547f557-b090-4345-9140-124bc0c4fa4e"},"vehicle_type_id":"4","last_reported":1784732082,"current_range_meters":32800,"station_id":"st_d46cu089ee8s73dldbu0","pricing_plan_id":"cebpf4jnsgd1na2vs0mg"},{"bike_id":"a4e34098-8c0f-4326-9772-a08c7f6b76fa","system_id":"levelo_inurba_marseille","lat":43.27058,"lon":5.42261,"is_reserved":false,"is_disabled":false,"rental_uris":{"android":"levelo://app?vid=a4e34098-8c0f-4326-9772-a08c7f6b76fa","ios":"levelo://app?vid=a4e34098-8c0f-4326-9772-a08c7f6b76fa"},"vehicle_type_id":"4","last_reported":1784732082,"current_range_meters":6400,"station_id":"ce4bhk92rcd13ifvqgb0","pricing_plan_id":"cebpf4jnsgd1na2vs0mg"},{"bike_id":"8b48f329-937d-4f33-bc8e-cc3992c67190","system_id":"levelo_inurba_marseille","lat":43.2965,"lon":5.3714,"is_reserved":false,"is_disabled":true,"rental_uris":{"android":"levelo://app?vid=8b48f329-937d-4f33-bc8e-cc3992c67190","ios":"levelo://app?vid=8b48f329-937d-4f33-bc8e-cc3992c67190"},"vehicle_type_id":"4","last_reported":1784732082,"current_range_meters":36000,"station_id":"","pricing_plan_id":"cebpf4jnsgd1na2vs0mg"},{"bike_id":"ff2ab3eb-4c5e-4a40-a93c-9164a9c4b860","system_id":"levelo_inurba_marseille","lat":43.29749,"lon":5.38759,"is_reserved":false,"is_disabled":false,"rental_uris":{"android":"levelo://app?vid=ff2ab3eb-4c5e-4a40-a93c-9164a9c4b860","ios":"levelo://app?vid=ff2ab3eb-4c5e-4a40-a93c-9164a9c4b860"},"vehicle_type_id":"4","last_reported":1784732082,"current_range_meters":6800,"station_id":"","pricing_plan_id":"cebpf4jnsgd1na2vs0mg"},{"bike_id":"262b3eb6-2d30-40b2-9c53-31baed5f9863","system_id":"levelo_inurba_marseille","lat":43.27065,"lon":5.40253,"is_reserved":false,"is_disabled":false,"rental_uris":{"android":"levelo://app?vid=262b3eb6-2d30-40b2-9c53-31baed5f9863","ios":"levelo://app?vid=262b3eb6-2d30-40b2-9c53-31baed5f9863"},"vehicle_type_id":"4","last_reported":1784732082,"current_range_meters":20000,"station_id":"ce4bhk92rcd13ifvqgc0","pricing_plan_id":"cebpf4jnsgd1na2vs0mg"},{"bike_id":"6950e6a8-886c-4be0-b374-b120a4ea921f","system_id":"levelo_inurba_marseille","lat":43.29254,"lon":5.37621,"is_reserved":false,"is_disabled":false,"rental_uris":{"android":"levelo://app?vid=6950e6a8-886c-4be0-b374-b120a4ea921f","ios":"levelo://app?vid=6950e6a8-886c-4be0-b374-b120a4ea921f"},"vehicle_type_id":"4","last_reported":1784732082,"current_range_meters":39200,"station_id":"ce4bgi12rcd13ifvqb80","pricing_plan_id":"cebpf4jnsgd1na2vs0mg"},{"bike_id":"09b2b55b-b41c-4035-8a48-48df4a875de2","system_id":"levelo_inurba_marseille","lat":43.29195,"lon":5.39301,"is_reserved":false,"is_disabled":false,"rental_uris":{"android":"levelo://app?vid=09b2b55b-b41c-4035-8a48-48df4a875de2","ios":"levelo://app?vid=09b2b55b-b41c-4035-8a48-48df4a875de2"},"vehicle_type_id":"4","last_reported":1784732082,"current_range_meters":30800,"station_id":"ce4bh192rcd13ifvqdd0","pricing_plan_id":"cebpf4jnsgd1na2vs0mg"},{"bike_id":"7c62a667-5232-4816-97c3-918e1c09dfba","system_id":"levelo_inurba_marseille","lat":43.25086,"lon":5.39522,"is_reserved":false,"is_disabled":false,"rental_uris":{"android":"levelo://app?vid=7c62a667-5232-4816-97c3-918e1c09dfba","ios":"levelo://app?vid=7c62a667-5232-4816-97c3-918e1c09dfba"},"vehicle_type_id":"4","last_reported":1784732082,"current_range_meters":38400,"station_id":"ce4bhm12rcd13ifvqgkg","pricing_plan_id":"cebpf4jnsgd1na2vs0mg"},{"bike_id":"06195112-6882-4fb6-b232-8620d1008b12","system_id":"levelo_inurba_marseille","lat":43.29268,"lon":5.36856,"is_reserved":false,"is_disabled":false,"rental_uris":{"android":"levelo://app?vid=06195112-6882-4fb6-b232-8620d1008b12","ios":"levelo://app?vid=06195112-6882-4fb6-b232-8620d1008b12"},"vehicle_type_id":"4","last_reported":1784732082,"current_range_meters":37600,"station_id":"","pricing_plan_id":"cebpf4jnsgd1na2vs0mg"},{"bike_id":"06fca8a2-fdda-4739-a269-baa6574d721b","system_id":"levelo_inurba_marseille","lat":43.29529,"lon":5.38528,"is_reserved":false,"is_disabled":true,"rental_uris":{"android":"levelo://app?vid=06fca8a2-fdda-4739-a269-baa6574d721b","ios":"levelo://app?vid=06fca8a2-fdda-4739-a269-baa6574d721b"},"vehicle_type_id":"4","last_reported":1784732082,"current_range_meters":0,"station_id":"ce4bgih2rcd13ifvqba0","pricing_plan_id":"cebpf4jnsgd1na2vs0mg"},{"bike_id":"3a295aff-6816-4af7-ac5a-87a5bd41c1cd","system_id":"levelo_inurba_marseille","lat":43.28483,"lon":5.48391,"is_reserved":false,"is_disabled":false,"rental_uris":{"android":"levelo://app?vid=3a295aff-6816-4af7-ac5a-87a5bd41c1cd","ios":"levelo://app?vid=3a295aff-6816-4af7-ac5a-87a5bd41c1cd"},"vehicle_type_id":"4","last_reported":1784732082,"current_range_meters":27200,"station_id":"st_d3svhcjqgbts73a3dn0g","pricing_plan_id":"cebpf4jnsgd1na2vs0mg"},{"bike_id":"f0122a0a-4153-4700-981a-5d41cd52363a","system_id":"levelo_inurba_marseille","lat":43.29931,"lon":5.39394,"is_reserved":false,"is_disabled":false,"rental_uris":{"android":"levelo://app?vid=f0122a0a-4153-4700-981a-5d41cd52363a","ios":"levelo://app?vid=f0122a0a-4153-4700-981a-5d41cd52363a"},"vehicle_type_id":"4","last_reported":1784732082,"current_range_meters":9600,"station_id":"","pricing_plan_id":"cebpf4jnsgd1na2vs0mg"},{"bike_id":"7b1a34a9-9772-429a-ac81-dbcf3805788e","system_id":"levelo_inurba_marseille","lat":43.27882,"lon":5.35548,"is_reserved":false,"is_disabled":false,"rental_uris":{"android":"levelo://app?vid=7b1a34a9-9772-429a-ac81-dbcf3805788e","ios":"levelo://app?vid=7b1a34a9-9772-429a-ac81-dbcf3805788e"},"vehicle_type_id":"4","last_reported":1784732082,"current_range_meters":17200,"station_id":"","pricing_plan_id":"cebpf4jnsgd1na2vs0mg"},{"bike_id":"a5dcedab-9b7b-4543-8b01-75946e58bf75","system_id":"levelo_inurba_marseille","lat":43.27609,"lon":5.36118,"is_reserved":false,"is_disabled":false,"rental_uris":{"android":"levelo://app?vid=a5dcedab-9b7b-4543-8b01-75946e58bf75","ios":"levelo://app?vid=a5dcedab-9b7b-4543-8b01-75946e58bf75"},"vehicle_type_id":"4","last_reported":1784732082,"current_range_meters":16800,"station_id":"ce4bgj92rcd13ifvqbe0","pricing_plan_id":"cebpf4jnsgd1na2vs0mg"},{"bike_id":"13e60edf-378e-4b47-a70f-42439eb799ac","system_id":"levelo_inurba_marseille","lat":43.30793,"lon":5.38166,"is_reserved":false,"is_disabled":false,"rental_uris":{"android":"levelo://app?vid=13e60edf-378e-4b47-a70f-42439eb799ac","ios":"levelo://app?vid=13e60edf-378e-4b47-a70f-42439eb799ac"},"vehicle_type_id":"4","last_reported":1784732082,"current_range_meters":10800,"station_id":"ce4bgt12rcd13ifvqce0","pricing_plan_id":"cebpf4jnsgd1na2vs0mg"},{"bike_id":"b3615f38-9ae4-47b3-be0f-27da959fb130","system_id":"levelo_inurba_marseille","lat":43.26574,"lon":5.39622,"is_reserved":false,"is_disabled":false,"rental_uris":{"android":"levelo://app?vid=b3615f38-9ae4-47b3-be0f-27da959fb130","ios":"levelo://app?vid=b3615f38-9ae4-47b3-be0f-27da959fb130"},"vehicle_type_id":"4","last_reported":1784732082,"current_range_meters":14800,"station_id":"","pricing_plan_id":"cebpf4jnsgd1na2vs0mg"},{"bike_id":"8e7e72db-a18f-4746-8066-f4ca084e9a9a","system_id":"levelo_inurba_marseille","lat":43.2848,"lon":5.38432,"is_reserved":false,"is_disabled":false,"rental_uris":{"android":"levelo://app?vid=8e7e72db-a18f-4746-8066-f4ca084e9a9a","ios":"levelo://app?vid=8e7e72db-a18f-4746-8066-f4ca084e9a9a"},"vehicle_type_id":"4","last_reported":1784732082,"current_range_meters":39200,"station_id":"ce4bh512rcd13ifvqe3g","pricing_plan_id":"cebpf4jnsgd1na2vs0mg"},{"bike_id":"01d9a676-01f3-4b98-beb9-e0a1a490c722","system_id":"levelo_inurba_marseille","lat":43.28151,"lon":5.42636,"is_reserved":false,"is_disabled":false,"rental_uris":{"android":"levelo://app?vid=01d9a676-01f3-4b98-beb9-e0a1a490c722","ios":"levelo://app?vid=01d9a676-01f3-4b98-beb9-e0a1a490c722"},"vehicle_type_id":"4","last_reported":1784732082,"current_range_meters":28400,"station_id":"ce4bhnh2rcd13ifvqgug","pricing_plan_id":"cebpf4jnsgd1na2vs0mg"},{"bike_id":"f765bc46-853b-4f5f-a0cf-13f9a2c85881","system_id":"levelo_inurba_marseille","lat":43.32119,"lon":5.36757,"is_reserved":false,"is_disabled":false,"rental_uris":{"android":"levelo://app?vid=f765bc46-853b-4f5f-a0cf-13f9a2c85881","ios":"levelo://app?vid=f765bc46-853b-4f5f-a0cf-13f9a2c85881"},"vehicle_type_id":"4","last_reported":1784732082,"current_range_meters":33200,"station_id":"ce4bhrh2rcd13ifvqhug","pricing_plan_id":"cebpf4jnsgd1na2vs0mg"},{"bike_id":"04721d6d-f2e1-428f-ba6e-71ff1286f01b","system_id":"levelo_inurba_marseille","lat":43.24079,"lon":5.37758,"is_reserved":false,"is_disabled":false,"rental_uris":{"android":"levelo://app?vid=04721d6d-f2e1-428f-ba6e-71ff1286f01b","ios":"levelo://app?vid=04721d6d-f2e1-428f-ba6e-71ff1286f01b"},"vehicle_type_id":"4","last_reported":1784732082,"current_range_meters":38000,"station_id":"ce4bhnp2rcd13ifvqgvg","pricing_plan_id":"cebpf4jnsgd1na2vs0mg"},{"bike_id":"3ab46e4a-b9d6-458c-8f1a-3060296f87a3","system_id":"levelo_inurba_marseille","lat":43.25861,"lon":5.39897,"is_reserved":false,"is_disabled":false,"rental_uris":{"android":"levelo://app?vid=3ab46e4a-b9d6-458c-8f1a-3060296f87a3","ios":"levelo://app?vid=3ab46e4a-b9d6-458c-8f1a-3060296f87a3"},"vehicle_type_id":"4","last_reported":1784732082,"current_range_meters":26800,"station_id":"ce4bhl92rcd13ifvqghg","pricing_plan_id":"cebpf4jnsgd1na2vs0mg"},{"bike_id":"ba93309a-7b94-4ff9-87bd-2b00d2fbd9d0","system_id":"levelo_inurba_marseille","lat":43.31223,"lon":5.36872,"is_reserved":false,"is_disabled":false,"rental_uris":{"android":"levelo://app?vid=ba93309a-7b94-4ff9-87bd-2b00d2fbd9d0","ios":"levelo://app?vid=ba93309a-7b94-4ff9-87bd-2b00d2fbd9d0"},"vehicle_type_id":"4","last_reported":1784732082,"current_range_meters":30800,"station_id":"ce4bgl92rcd13ifvqbq0","pricing_plan_id":"cebpf4jnsgd1na2vs0mg"},{"bike_id":"a13e16e4-e177-431d-8bef-33b38f696e96","system_id":"levelo_inurba_marseille","lat":43.26762,"lon":5.39965,"is_reserved":false,"is_disabled":false,"rental_uris":{"android":"levelo://app?vid=a13e16e4-e177-431d-8bef-33b38f696e96","ios":"levelo://app?vid=a13e16e4-e177-431d-8bef-33b38f696e96"},"vehicle_type_id":"4","last_reported":1784732082,"current_range_meters":25200,"station_id":"","pricing_plan_id":"cebpf4jnsgd1na2vs0mg"},{"bike_id":"0820d5cf-2e12-4f4b-aecc-db90eee4de95","system_id":"levelo_inurba_marseille","lat":43.29839,"lon":5.36264,"is_reserved":false,"is_disabled":false,"rental_uris":{"android":"levelo://app?vid=0820d5cf-2e12-4f4b-aecc-db90eee4de95","ios":"levelo://app?vid=0820d5cf-2e12-4f4b-aecc-db90eee4de95"},"vehicle_type_id":"4","last_reported":1784732082,"current_range_meters":30800,"station_id":"ce4bgpp2rcd13ifvqc3g","pricing_plan_id":"cebpf4jnsgd1na2vs0mg"},{"bike_id":"71ef08a9-3dfd-4fb4-a7de-b1ca6ae35145","system_id":"levelo_inurba_marseille","lat":43.21755,"lon":5.34601,"is_reserved":false,"is_disabled":false,"rental_uris":{"android":"levelo://app?vid=71ef08a9-3dfd-4fb4-a7de-b1ca6ae35145","ios":"levelo://app?vid=71ef08a9-3dfd-4fb4-a7de-b1ca6ae35145"},"vehicle_type_id":"4","last_reported":1784732082,"current_range_meters":30000,"station_id":"st_cvj6r9ubvosntc0bgbag","pricing_plan_id":"cebpf4jnsgd1na2vs0mg"},{"bike_id":"63068260-e448-467c-8c16-d449d41e0cdc","system_id":"levelo_inurba_marseille","lat":43.27209,"lon":5.39184,"is_reserved":false,"is_disabled":false,"rental_uris":{"android":"levelo://app?vid=63068260-e448-467c-8c16-d449d41e0cdc","ios":"levelo://app?vid=63068260-e448-467c-8c16-d449d41e0cdc"},"vehicle_type_id":"4","last_reported":1784732082,"current_range_meters":24800,"station_id":"ce4bhhp2rcd13ifvqfm0","pricing_plan_id":"cebpf4jnsgd1na2vs0mg"},{"bike_id":"47cf6f92-e61c-4aab-ad78-eebc0950c3b8","system_id":"levelo_inurba_marseille","lat":43.21189,"lon":5.35075,"is_reserved":false,"is_disabled":false,"rental_uris":{"android":"levelo://app?vid=47cf6f92-e61c-4aab-ad78-eebc0950c3b8","ios":"levelo://app?vid=47cf6f92-e61c-4aab-ad78-eebc0950c3b8"},"vehicle_type_id":"4","last_reported":1784732082,"current_range_meters":39200,"station_id":"st_cvj6sg6p6f1abm77japg","pricing_plan_id":"cebpf4jnsgd1na2vs0mg"},{"bike_id":"01804220-cb37-490c-ab32-259aab12cc74","system_id":"levelo_inurba_marseille","lat":43.2465,"lon":5.38886,"is_reserved":false,"is_disabled":false,"rental_uris":{"android":"levelo://app?vid=01804220-cb37-490c-ab32-259aab12cc74","ios":"levelo://app?vid=01804220-cb37-490c-ab32-259aab12cc74"},"vehicle_type_id":"4","last_reported":1784732082,"current_range_meters":34800,"station_id":"ce4bhg12rcd13ifvqf60","pricing_plan_id":"cebpf4jnsgd1na2vs0mg"},{"bike_id":"2385f2b3-7a57-43e1-887c-b3b94407b0fb","system_id":"levelo_inurba_marseille","lat":43.23184,"lon":5.39978,"is_reserved":false,"is_disabled":false,"rental_uris":{"android":"levelo://app?vid=2385f2b3-7a57-43e1-887c-b3b94407b0fb","ios":"levelo://app?vid=2385f2b3-7a57-43e1-887c-b3b94407b0fb"},"vehicle_type_id":"4","last_reported":1784732082,"current_range_meters":27600,"station_id":"ce4bhn12rcd13ifvqgqg","pricing_plan_id":"cebpf4jnsgd1na2vs0mg"},{"bike_id":"9b283179-210a-4336-a14d-ac3412104c48","system_id":"levelo_inurba_marseille","lat":43.32483,"lon":5.36568,"is_reserved":false,"is_disabled":false,"rental_uris":{"android":"levelo://app?vid=9b283179-210a-4336-a14d-ac3412104c48","ios":"levelo://app?vid=9b283179-210a-4336-a14d-ac3412104c48"},"vehicle_type_id":"4","last_reported":1784732082,"current_range_meters":32400,"station_id":"ce4bhs12rcd13ifvqhvg","pricing_plan_id":"cebpf4jnsgd1na2vs0mg"},{"bike_id":"a4ae0ee9-aee9-406e-a76e-6cf333fbf4ad","system_id":"levelo_inurba_marseille","lat":43.28421,"lon":5.34986,"is_reserved":false,"is_disabled":false,"rental_uris":{"android":"levelo://app?vid=a4ae0ee9-aee9-406e-a76e-6cf333fbf4ad","ios":"levelo://app?vid=a4ae0ee9-aee9-406e-a76e-6cf333fbf4ad"},"vehicle_type_id":"4","last_reported":1784732082,"current_range_meters":24000,"station_id":"ce4bhbh2rcd13ifvqepg","pricing_plan_id":"cebpf4jnsgd1na2vs0mg"},{"bike_id":"06a47a70-c4aa-4b09-8775-c059e958d2f4","system_id":"levelo_inurba_marseille","lat":43.28398,"lon":5.37551,"is_reserved":false,"is_disabled":false,"rental_uris":{"android":"levelo://app?vid=06a47a70-c4aa-4b09-8775-c059e958d2f4","ios":"levelo://app?vid=06a47a70-c4aa-4b09-8775-c059e958d2f4"},"vehicle_type_id":"4","last_reported":1784732082,"current_range_meters":25200,"station_id":"ce4bh412rcd13ifvqds0","pricing_plan_id":"cebpf4jnsgd1na2vs0mg"},{"bike_id":"8b980fe2-831a-474f-9257-aac80a862f21","system_id":"levelo_inurba_marseille","lat":43.32348,"lon":5.36768,"is_reserved":false,"is_disabled":false,"rental_uris":{"android":"levelo://app?vid=8b980fe2-831a-474f-9257-aac80a862f21","ios":"levelo://app?vid=8b980fe2-831a-474f-9257-aac80a862f21"},"vehicle_type_id":"4","last_reported":1784732082,"current_range_meters":39200,"station_id":"ce4bhsh2rcd13ifvqi2g","pricing_plan_id":"cebpf4jnsgd1na2vs0mg"},{"bike_id":"9c24dfc9-a9f6-48fe-9987-84002be90209","system_id":"levelo_inurba_marseille","lat":43.27671,"lon":5.38941,"is_reserved":false,"is_disabled":false,"rental_uris":{"android":"levelo://app?vid=9c24dfc9-a9f6-48fe-9987-84002be90209","ios":"levelo://app?vid=9c24dfc9-a9f6-48fe-9987-84002be90209"},"vehicle_type_id":"4","last_reported":1784732082,"current_range_meters":36400,"station_id":"","pricing_plan_id":"cebpf4jnsgd1na2vs0mg"},{"bike_id":"602348b5-0ec3-410d-8b93-57596fc7f6ae","system_id":"levelo_inurba_marseille","lat":43.29707,"lon":5.37671,"is_reserved":false,"is_disabled":false,"rental_uris":{"android":"levelo://app?vid=602348b5-0ec3-410d-8b93-57596fc7f6ae","ios":"levelo://app?vid=602348b5-0ec3-410d-8b93-57596fc7f6ae"},"vehicle_type_id":"4","last_reported":1784732082,"current_range_meters":22800,"station_id":"ce4bgkh2rcd13ifvqbl0","pricing_plan_id":"cebpf4jnsgd1na2vs0mg"},{"bike_id":"3cff31ea-c3fd-4a9e-aa7d-f699c19fe715","system_id":"levelo_inurba_marseille","lat":43.28535,"lon":5.44093,"is_reserved":false,"is_disabled":false,"rental_uris":{"android":"levelo://app?vid=3cff31ea-c3fd-4a9e-aa7d-f699c19fe715","ios":"levelo://app?vid=3cff31ea-c3fd-4a9e-aa7d-f699c19fe715"},"vehicle_type_id":"4","last_reported":1784732082,"current_range_meters":30400,"station_id":"st_d3j3df2ikq2c7380ej80","pricing_plan_id":"cebpf4jnsgd1na2vs0mg"},{"bike_id":"1ffd6e8d-c4af-44c4-b5ee-8153d663260f","system_id":"levelo_inurba_marseille","lat":43.29195,"lon":5.39315,"is_reserved":false,"is_disabled":true,"rental_uris":{"android":"levelo://app?vid=1ffd6e8d-c4af-44c4-b5ee-8153d663260f","ios":"levelo://app?vid=1ffd6e8d-c4af-44c4-b5ee-8153d663260f"},"vehicle_type_id":"4","last_reported":1784732082,"current_range_meters":23200,"station_id":"ce4bh192rcd13ifvqdd0","pricing_plan_id":"cebpf4jnsgd1na2vs0mg"},{"bike_id":"eb463121-6209-4f69-94e4-7918a01d1797","system_id":"levelo_inurba_marseille","lat":43.28424,"lon":5.34952,"is_reserved":false,"is_disabled":false,"rental_uris":{"android":"levelo://app?vid=eb463121-6209-4f69-94e4-7918a01d1797","ios":"levelo://app?vid=eb463121-6209-4f69-94e4-7918a01d1797"},"vehicle_type_id":"4","last_reported":1784732082,"current_range_meters":23200,"station_id":"ce4bhbh2rcd13ifvqepg","pricing_plan_id":"cebpf4jnsgd1na2vs0mg"},{"bike_id":"1e99efe8-5a96-48dd-977a-856215117710","system_id":"levelo_inurba_marseille","lat":43.30467,"lon":5.37908,"is_reserved":false,"is_disabled":false,"rental_uris":{"android":"levelo://app?vid=1e99efe8-5a96-48dd-977a-856215117710","ios":"levelo://app?vid=1e99efe8-5a96-48dd-977a-856215117710"},"vehicle_type_id":"4","last_reported":1784732082,"current_range_meters":14400,"station_id":"ce4bgup2rcd13ifvqcn0","pricing_plan_id":"cebpf4jnsgd1na2vs0mg"},{"bike_id":"0a9e5927-346c-4a34-b84a-cebe3991dfed","system_id":"levelo_inurba_marseille","lat":43.29228,"lon":5.36068,"is_reserved":false,"is_disabled":false,"rental_uris":{"android":"levelo://app?vid=0a9e5927-346c-4a34-b84a-cebe3991dfed","ios":"levelo://app?vid=0a9e5927-346c-4a34-b84a-cebe3991dfed"},"vehicle_type_id":"4","last_reported":1784732082,"current_range_meters":34000,"station_id":"ce4bhbh2rcd13ifvqeqg","pricing_plan_id":"cebpf4jnsgd1na2vs0mg"},{"bike_id":"ea65f945-5804-4f4c-a343-1c5b9664c0e2","system_id":"levelo_inurba_marseille","lat":43.30945,"lon":5.39032,"is_reserved":false,"is_disabled":false,"rental_uris":{"android":"levelo://app?vid=ea65f945-5804-4f4c-a343-1c5b9664c0e2","ios":"levelo://app?vid=ea65f945-5804-4f4c-a343-1c5b9664c0e2"},"vehicle_type_id":"4","last_reported":1784732082,"current_range_meters":36400,"station_id":"ce4bgup2rcd13ifvqco0","pricing_plan_id":"cebpf4jnsgd1na2vs0mg"},{"bike_id":"e5f50cc2-0bc0-46ed-9c8e-877e9e71cf5e","system_id":"levelo_inurba_marseille","lat":43.28199,"lon":5.39054,"is_reserved":false,"is_disabled":false,"rental_uris":{"android":"levelo://app?vid=e5f50cc2-0bc0-46ed-9c8e-877e9e71cf5e","ios":"levelo://app?vid=e5f50cc2-0bc0-46ed-9c8e-877e9e71cf5e"},"vehicle_type_id":"4","last_reported":1784732082,"current_range_meters":8000,"station_id":"ce4bhn92rcd13ifvqgsg","pricing_plan_id":"cebpf4jnsgd1na2vs0mg"},{"bike_id":"e0a8f47b-f9d4-4c73-ab20-adb5ea39465e","system_id":"levelo_inurba_marseille","lat":43.29105,"lon":5.3815,"is_reserved":false,"is_disabled":false,"rental_uris":{"android":"levelo://app?vid=e0a8f47b-f9d4-4c73-ab20-adb5ea39465e","ios":"levelo://app?vid=e0a8f47b-f9d4-4c73-ab20-adb5ea39465e"},"vehicle_type_id":"4","last_reported":1784732082,"current_range_meters":29600,"station_id":"ce4bh512rcd13ifvqe2g","pricing_plan_id":"cebpf4jnsgd1na2vs0mg"},{"bike_id":"78e7e967-a8d7-4345-8d31-93c9d317e74b","system_id":"levelo_inurba_marseille","lat":43.30444,"lon":5.40896,"is_reserved":false,"is_disabled":false,"rental_uris":{"android":"levelo://app?vid=78e7e967-a8d7-4345-8d31-93c9d317e74b","ios":"levelo://app?vid=78e7e967-a8d7-4345-8d31-93c9d317e74b"},"vehicle_type_id":"4","last_reported":1784732082,"current_range_meters":25200,"station_id":"","pricing_plan_id":"cebpf4jnsgd1na2vs0mg"},{"bike_id":"f1288106-a8c3-4624-ad2a-44299213b3e2","system_id":"levelo_inurba_marseille","lat":43.29603,"lon":5.36729,"is_reserved":false,"is_disabled":true,"rental_uris":{"android":"levelo://app?vid=f1288106-a8c3-4624-ad2a-44299213b3e2","ios":"levelo://app?vid=f1288106-a8c3-4624-ad2a-44299213b3e2"},"vehicle_type_id":"4","last_reported":1784732082,"current_range_meters":3200,"station_id":"","pricing_plan_id":"cebpf4jnsgd1na2vs0mg"},{"bike_id":"ab52afa5-a3f8-4d43-abb5-6d3bdce56e41","system_id":"levelo_inurba_marseille","lat":43.29847,"lon":5.376757,"is_reserved":false,"is_disabled":false,"rental_uris":{"android":"levelo://app?vid=ab52afa5-a3f8-4d43-abb5-6d3bdce56e41","ios":"levelo://app?vid=ab52afa5-a3f8-4d43-abb5-6d3bdce56e41"},"vehicle_type_id":"4","last_reported":1784732082,"current_range_meters":24800,"station_id":"ce4bgjh2rcd13ifvqbg0","pricing_plan_id":"cebpf4jnsgd1na2vs0mg"},{"bike_id":"ab907c16-2123-44c2-912f-95e0f2737c03","system_id":"levelo_inurba_marseille","lat":43.30406,"lon":5.42713,"is_reserved":false,"is_disabled":true,"rental_uris":{"android":"levelo://app?vid=ab907c16-2123-44c2-912f-95e0f2737c03","ios":"levelo://app?vid=ab907c16-2123-44c2-912f-95e0f2737c03"},"vehicle_type_id":"4","last_reported":1784732082,"current_range_meters":24000,"station_id":"","pricing_plan_id":"cebpf4jnsgd1na2vs0mg"},{"bike_id":"9958bf3e-9f9b-4b76-97c7-d14660691215","system_id":"levelo_inurba_marseille","lat":43.27994,"lon":5.38696,"is_reserved":false,"is_disabled":false,"rental_uris":{"android":"levelo://app?vid=9958bf3e-9f9b-4b76-97c7-d14660691215","ios":"levelo://app?vid=9958bf3e-9f9b-4b76-97c7-d14660691215"},"vehicle_type_id":"4","last_reported":1784732082,"current_range_meters":19600,"station_id":"ce4bhg12rcd13ifvqf80","pricing_plan_id":"cebpf4jnsgd1na2vs0mg"},{"bike_id":"8ce43c73-3926-4687-b366-913b6c6ff192","system_id":"levelo_inurba_marseille","lat":43.29231,"lon":5.3607,"is_reserved":false,"is_disabled":false,"rental_uris":{"android":"levelo://app?vid=8ce43c73-3926-4687-b366-913b6c6ff192","ios":"levelo://app?vid=8ce43c73-3926-4687-b366-913b6c6ff192"},"vehicle_type_id":"4","last_reported":1784732082,"current_range_meters":30400,"station_id":"ce4bhbh2rcd13ifvqeqg","pricing_plan_id":"cebpf4jnsgd1na2vs0mg"},{"bike_id":"4f589593-053d-4f16-81a4-83663f96009e","system_id":"levelo_inurba_marseille","lat":43.2993,"lon":5.37465,"is_reserved":false,"is_disabled":false,"rental_uris":{"android":"levelo://app?vid=4f589593-053d-4f16-81a4-83663f96009e","ios":"levelo://app?vid=4f589593-053d-4f16-81a4-83663f96009e"},"vehicle_type_id":"4","last_reported":1784732082,"current_range_meters":26000,"station_id":"ce4bgjh2rcd13ifvqbg0","pricing_plan_id":"cebpf4jnsgd1na2vs0mg"},{"bike_id":"c520161e-c250-4161-a55a-6b287776d8da","system_id":"levelo_inurba_marseille","lat":43.28483,"lon":5.48403,"is_reserved":false,"is_disabled":false,"rental_uris":{"android":"levelo://app?vid=c520161e-c250-4161-a55a-6b287776d8da","ios":"levelo://app?vid=c520161e-c250-4161-a55a-6b287776d8da"},"vehicle_type_id":"4","last_reported":1784732082,"current_range_meters":27600,"station_id":"st_d3svhcjqgbts73a3dn0g","pricing_plan_id":"cebpf4jnsgd1na2vs0mg"},{"bike_id":"5326a61d-4052-4baf-bbd3-97dda62fe6d7","system_id":"levelo_inurba_marseille","lat":43.28543,"lon":5.44092,"is_reserved":false,"is_disabled":false,"rental_uris":{"android":"levelo://app?vid=5326a61d-4052-4baf-bbd3-97dda62fe6d7","ios":"levelo://app?vid=5326a61d-4052-4baf-bbd3-97dda62fe6d7"},"vehicle_type_id":"4","last_reported":1784732082,"current_range_meters":25600,"station_id":"st_d3j3df2ikq2c7380ej80","pricing_plan_id":"cebpf4jnsgd1na2vs0mg"},{"bike_id":"962dbb68-73ee-4aa8-b097-ec4568a9bf63","system_id":"levelo_inurba_marseille","lat":43.30607,"lon":5.39356,"is_reserved":false,"is_disabled":false,"rental_uris":{"android":"levelo://app?vid=962dbb68-73ee-4aa8-b097-ec4568a9bf63","ios":"levelo://app?vid=962dbb68-73ee-4aa8-b097-ec4568a9bf63"},"vehicle_type_id":"4","last_reported":1784732082,"current_range_meters":20000,"station_id":"ce4bh0p2rcd13ifvqd80","pricing_plan_id":"cebpf4jnsgd1na2vs0mg"},{"bike_id":"be854a7b-2aed-4889-88e7-8bfd2e8e443a","system_id":"levelo_inurba_marseille","lat":43.29005,"lon":5.35604,"is_reserved":false,"is_disabled":false,"rental_uris":{"android":"levelo://app?vid=be854a7b-2aed-4889-88e7-8bfd2e8e443a","ios":"levelo://app?vid=be854a7b-2aed-4889-88e7-8bfd2e8e443a"},"vehicle_type_id":"4","last_reported":1784732082,"current_range_meters":33200,"station_id":"ce4bhb92rcd13ifvqen0","pricing_plan_id":"cebpf4jnsgd1na2vs0mg"},{"bike_id":"c6b9e22e-d78c-4101-ac59-bbe07f6662fb","system_id":"levelo_inurba_marseille","lat":43.31496,"lon":5.37301,"is_reserved":false,"is_disabled":false,"rental_uris":{"android":"levelo://app?vid=c6b9e22e-d78c-4101-ac59-bbe07f6662fb","ios":"levelo://app?vid=c6b9e22e-d78c-4101-ac59-bbe07f6662fb"},"vehicle_type_id":"4","last_reported":1784732082,"current_range_meters":38800,"station_id":"ce4bgt12rcd13ifvqcd0","pricing_plan_id":"cebpf4jnsgd1na2vs0mg"},{"bike_id":"3c152ce7-b1e3-46b6-9481-1d5804cf459e","system_id":"levelo_inurba_marseille","lat":43.26199,"lon":5.37447,"is_reserved":false,"is_disabled":false,"rental_uris":{"android":"levelo://app?vid=3c152ce7-b1e3-46b6-9481-1d5804cf459e","ios":"levelo://app?vid=3c152ce7-b1e3-46b6-9481-1d5804cf459e"},"vehicle_type_id":"4","last_reported":1784732082,"current_range_meters":35200,"station_id":"ce4bhgp2rcd13ifvqfc0","pricing_plan_id":"cebpf4jnsgd1na2vs0mg"},{"bike_id":"e6f28fed-2e2d-4610-9cbe-6e0c0bfdc579","system_id":"levelo_inurba_marseille","lat":43.25495,"lon":5.37655,"is_reserved":false,"is_disabled":false,"rental_uris":{"android":"levelo://app?vid=e6f28fed-2e2d-4610-9cbe-6e0c0bfdc579","ios":"levelo://app?vid=e6f28fed-2e2d-4610-9cbe-6e0c0bfdc579"},"vehicle_type_id":"4","last_reported":1784732082,"current_range_meters":40000,"station_id":"ce4bhh12rcd13ifvqff0","pricing_plan_id":"cebpf4jnsgd1na2vs0mg"},{"bike_id":"08b86f9d-3a67-42e7-a41b-1723e770b453","system_id":"levelo_inurba_marseille","lat":43.26688,"lon":5.38274,"is_reserved":false,"is_disabled":false,"rental_uris":{"android":"levelo://app?vid=08b86f9d-3a67-42e7-a41b-1723e770b453","ios":"levelo://app?vid=08b86f9d-3a67-42e7-a41b-1723e770b453"},"vehicle_type_id":"4","last_reported":1784732082,"current_range_meters":19200,"station_id":"ce4bhg92rcd13ifvqf90","pricing_plan_id":"cebpf4jnsgd1na2vs0mg"},{"bike_id":"337d5f6f-3b76-4744-8d55-d77273f349ff","system_id":"levelo_inurba_marseille","lat":43.2319,"lon":5.39981,"is_reserved":false,"is_disabled":false,"rental_uris":{"android":"levelo://app?vid=337d5f6f-3b76-4744-8d55-d77273f349ff","ios":"levelo://app?vid=337d5f6f-3b76-4744-8d55-d77273f349ff"},"vehicle_type_id":"4","last_reported":1784732082,"current_range_meters":36800,"station_id":"ce4bhn12rcd13ifvqgqg","pricing_plan_id":"cebpf4jnsgd1na2vs0mg"},{"bike_id":"99efee17-e730-4b62-af12-4cf8e842c992","system_id":"levelo_inurba_marseille","lat":43.29569,"lon":5.37489,"is_reserved":false,"is_disabled":false,"rental_uris":{"android":"levelo://app?vid=99efee17-e730-4b62-af12-4cf8e842c992","ios":"levelo://app?vid=99efee17-e730-4b62-af12-4cf8e842c992"},"vehicle_type_id":"4","last_reported":1784732082,"current_range_meters":39200,"station_id":"ce4bgh92rcd13ifvqb50","pricing_plan_id":"cebpf4jnsgd1na2vs0mg"},{"bike_id":"3a34f52e-1e5b-45cf-b1c8-7a76d3f0220c","system_id":"levelo_inurba_marseille","lat":43.2923,"lon":5.41745,"is_reserved":false,"is_disabled":false,"rental_uris":{"android":"levelo://app?vid=3a34f52e-1e5b-45cf-b1c8-7a76d3f0220c","ios":"levelo://app?vid=3a34f52e-1e5b-45cf-b1c8-7a76d3f0220c"},"vehicle_type_id":"4","last_reported":1784732082,"current_range_meters":30800,"station_id":"","pricing_plan_id":"cebpf4jnsgd1na2vs0mg"},{"bike_id":"b8e43a89-3bb1-4279-9cee-f7b093c9b703","system_id":"levelo_inurba_marseille","lat":43.33718,"lon":5.37415,"is_reserved":false,"is_disabled":false,"rental_uris":{"android":"levelo://app?vid=b8e43a89-3bb1-4279-9cee-f7b093c9b703","ios":"levelo://app?vid=b8e43a89-3bb1-4279-9cee-f7b093c9b703"},"vehicle_type_id":"4","last_reported":1784732082,"current_range_meters":14400,"station_id":"","pricing_plan_id":"cebpf4jnsgd1na2vs0mg"},{"bike_id":"41eca03f-63f8-4f3b-bdbb-6c1adc53c24e","system_id":"levelo_inurba_marseille","lat":43.26562,"lon":5.40323,"is_reserved":false,"is_disabled":false,"rental_uris":{"android":"levelo://app?vid=41eca03f-63f8-4f3b-bdbb-6c1adc53c24e","ios":"levelo://app?vid=41eca03f-63f8-4f3b-bdbb-6c1adc53c24e"},"vehicle_type_id":"4","last_reported":1784732082,"current_range_meters":38000,"station_id":"ce4bhmp2rcd13ifvqgng","pricing_plan_id":"cebpf4jnsgd1na2vs0mg"},{"bike_id":"17ec69e9-f82e-42b7-8fd3-de92d2bea59d","system_id":"levelo_inurba_marseille","lat":43.25342,"lon":5.4217,"is_reserved":false,"is_disabled":false,"rental_uris":{"android":"levelo://app?vid=17ec69e9-f82e-42b7-8fd3-de92d2bea59d","ios":"levelo://app?vid=17ec69e9-f82e-42b7-8fd3-de92d2bea59d"},"vehicle_type_id":"4","last_reported":1784732082,"current_range_meters":24000,"station_id":"st_d2m65c5bi1j21697t3ng","pricing_plan_id":"cebpf4jnsgd1na2vs0mg"},{"bike_id":"f708cb1f-056a-46ca-8570-6f8cb502e871","system_id":"levelo_inurba_marseille","lat":43.28284,"lon":5.35073,"is_reserved":false,"is_disabled":false,"rental_uris":{"android":"levelo://app?vid=f708cb1f-056a-46ca-8570-6f8cb502e871","ios":"levelo://app?vid=f708cb1f-056a-46ca-8570-6f8cb502e871"},"vehicle_type_id":"4","last_reported":1784732082,"current_range_meters":30800,"station_id":"ce4bhbp2rcd13ifvqerg","pricing_plan_id":"cebpf4jnsgd1na2vs0mg"},{"bike_id":"7bde1630-495c-4e0c-96f7-f169fe169cdb","system_id":"levelo_inurba_marseille","lat":43.26195,"lon":5.37455,"is_reserved":false,"is_disabled":false,"rental_uris":{"android":"levelo://app?vid=7bde1630-495c-4e0c-96f7-f169fe169cdb","ios":"levelo://app?vid=7bde1630-495c-4e0c-96f7-f169fe169cdb"},"vehicle_type_id":"4","last_reported":1784732082,"current_range_meters":38000,"station_id":"ce4bhgp2rcd13ifvqfc0","pricing_plan_id":"cebpf4jnsgd1na2vs0mg"},{"bike_id":"5783761d-f3a8-46b4-8c26-9812d8d66703","system_id":"levelo_inurba_marseille","lat":43.22542,"lon":5.34823,"is_reserved":false,"is_disabled":false,"rental_uris":{"android":"levelo://app?vid=5783761d-f3a8-46b4-8c26-9812d8d66703","ios":"levelo://app?vid=5783761d-f3a8-46b4-8c26-9812d8d66703"},"vehicle_type_id":"4","last_reported":1784732082,"current_range_meters":22800,"station_id":"st_cvj5dfep6f1abm77gieg","pricing_plan_id":"cebpf4jnsgd1na2vs0mg"},{"bike_id":"506414aa-2737-4b87-a1bc-c613844b3486","system_id":"levelo_inurba_marseille","lat":43.26572,"lon":5.39004,"is_reserved":false,"is_disabled":false,"rental_uris":{"android":"levelo://app?vid=506414aa-2737-4b87-a1bc-c613844b3486","ios":"levelo://app?vid=506414aa-2737-4b87-a1bc-c613844b3486"},"vehicle_type_id":"4","last_reported":1784732082,"current_range_meters":8000,"station_id":"ce4bhe12rcd13ifvqf30","pricing_plan_id":"cebpf4jnsgd1na2vs0mg"},{"bike_id":"ed561fd9-a97f-4b5d-a877-fb337381b6be","system_id":"levelo_inurba_marseille","lat":43.31365,"lon":5.3668,"is_reserved":false,"is_disabled":false,"rental_uris":{"android":"levelo://app?vid=ed561fd9-a97f-4b5d-a877-fb337381b6be","ios":"levelo://app?vid=ed561fd9-a97f-4b5d-a877-fb337381b6be"},"vehicle_type_id":"4","last_reported":1784732082,"current_range_meters":20800,"station_id":"ce4bgr92rcd13ifvqc6g","pricing_plan_id":"cebpf4jnsgd1na2vs0mg"},{"bike_id":"13bbfe3b-874b-44d7-9abb-922c8de23c11","system_id":"levelo_inurba_marseille","lat":43.23265,"lon":5.35394,"is_reserved":false,"is_disabled":false,"rental_uris":{"android":"levelo://app?vid=13bbfe3b-874b-44d7-9abb-922c8de23c11","ios":"levelo://app?vid=13bbfe3b-874b-44d7-9abb-922c8de23c11"},"vehicle_type_id":"4","last_reported":1784732082,"current_range_meters":22000,"station_id":"","pricing_plan_id":"cebpf4jnsgd1na2vs0mg"},{"bike_id":"d7f5e790-34f0-4ef1-94d0-50b661d4939b","system_id":"levelo_inurba_marseille","lat":43.27378,"lon":5.36245,"is_reserved":false,"is_disabled":false,"rental_uris":{"android":"levelo://app?vid=d7f5e790-34f0-4ef1-94d0-50b661d4939b","ios":"levelo://app?vid=d7f5e790-34f0-4ef1-94d0-50b661d4939b"},"vehicle_type_id":"4","last_reported":1784732082,"current_range_meters":9200,"station_id":"ce4bhbh2rcd13ifvqeo0","pricing_plan_id":"cebpf4jnsgd1na2vs0mg"},{"bike_id":"2674d213-0471-4441-80ac-a07b933d0282","system_id":"levelo_inurba_marseille","lat":43.2164,"lon":5.3433,"is_reserved":false,"is_disabled":false,"rental_uris":{"android":"levelo://app?vid=2674d213-0471-4441-80ac-a07b933d0282","ios":"levelo://app?vid=2674d213-0471-4441-80ac-a07b933d0282"},"vehicle_type_id":"4","last_reported":1784732082,"current_range_meters":19200,"station_id":"","pricing_plan_id":"cebpf4jnsgd1na2vs0mg"},{"bike_id":"6ed5f8c3-6da8-4cec-bfad-13253a432d70","system_id":"levelo_inurba_marseille","lat":43.29401,"lon":5.38598,"is_reserved":false,"is_disabled":true,"rental_uris":{"android":"levelo://app?vid=6ed5f8c3-6da8-4cec-bfad-13253a432d70","ios":"levelo://app?vid=6ed5f8c3-6da8-4cec-bfad-13253a432d70"},"vehicle_type_id":"4","last_reported":1784732082,"current_range_meters":32000,"station_id":"","pricing_plan_id":"cebpf4jnsgd1na2vs0mg"},{"bike_id":"4674463f-7189-45e7-9644-099b2d5a4c26","system_id":"levelo_inurba_marseille","lat":43.30891,"lon":5.37192,"is_reserved":false,"is_disabled":false,"rental_uris":{"android":"levelo://app?vid=4674463f-7189-45e7-9644-099b2d5a4c26","ios":"levelo://app?vid=4674463f-7189-45e7-9644-099b2d5a4c26"},"vehicle_type_id":"4","last_reported":1784732082,"current_range_meters":3600,"station_id":"ce4bguh2rcd13ifvqckg","pricing_plan_id":"cebpf4jnsgd1na2vs0mg"},{"bike_id":"0dee0085-d5a5-4c48-b3f1-a323bb744f3d","system_id":"levelo_inurba_marseille","lat":43.2256,"lon":5.41629,"is_reserved":false,"is_disabled":false,"rental_uris":{"android":"levelo://app?vid=0dee0085-d5a5-4c48-b3f1-a323bb744f3d","ios":"levelo://app?vid=0dee0085-d5a5-4c48-b3f1-a323bb744f3d"},"vehicle_type_id":"4","last_reported":1784732082,"current_range_meters":31200,"station_id":"st_d2o4gvlbi1j2169b742g","pricing_plan_id":"cebpf4jnsgd1na2vs0mg"},{"bike_id":"85ce46c6-f4a2-4248-aa78-a6da461a73b5","system_id":"levelo_inurba_marseille","lat":43.30143,"lon":5.38061,"is_reserved":false,"is_disabled":false,"rental_uris":{"android":"levelo://app?vid=85ce46c6-f4a2-4248-aa78-a6da461a73b5","ios":"levelo://app?vid=85ce46c6-f4a2-4248-aa78-a6da461a73b5"},"vehicle_type_id":"4","last_reported":1784732082,"current_range_meters":35600,"station_id":"","pricing_plan_id":"cebpf4jnsgd1na2vs0mg"},{"bike_id":"0b2c45f2-fdaa-45fe-9511-e6426cab85f6","system_id":"levelo_inurba_marseille","lat":43.27486,"lon":5.42457,"is_reserved":false,"is_disabled":false,"rental_uris":{"android":"levelo://app?vid=0b2c45f2-fdaa-45fe-9511-e6426cab85f6","ios":"levelo://app?vid=0b2c45f2-fdaa-45fe-9511-e6426cab85f6"},"vehicle_type_id":"4","last_reported":1784732082,"current_range_meters":19200,"station_id":"ce4bhn92rcd13ifvqgrg","pricing_plan_id":"cebpf4jnsgd1na2vs0mg"},{"bike_id":"30860ffd-ec21-4a88-a40f-00c5476d440a","system_id":"levelo_inurba_marseille","lat":43.2668,"lon":5.3827,"is_reserved":false,"is_disabled":false,"rental_uris":{"android":"levelo://app?vid=30860ffd-ec21-4a88-a40f-00c5476d440a","ios":"levelo://app?vid=30860ffd-ec21-4a88-a40f-00c5476d440a"},"vehicle_type_id":"4","last_reported":1784732082,"current_range_meters":22800,"station_id":"ce4bhg92rcd13ifvqf90","pricing_plan_id":"cebpf4jnsgd1na2vs0mg"},{"bike_id":"f20fcdc5-f0b9-4328-be94-61548e2c19cd","system_id":"levelo_inurba_marseille","lat":43.24951,"lon":5.4048,"is_reserved":false,"is_disabled":false,"rental_uris":{"android":"levelo://app?vid=f20fcdc5-f0b9-4328-be94-61548e2c19cd","ios":"levelo://app?vid=f20fcdc5-f0b9-4328-be94-61548e2c19cd"},"vehicle_type_id":"4","last_reported":1784732082,"current_range_meters":5600,"station_id":"st_d2ngiaodas8pm72gd1h0","pricing_plan_id":"cebpf4jnsgd1na2vs0mg"},{"bike_id":"e4826f89-a06f-4156-a49c-fc79e096f1c1","system_id":"levelo_inurba_marseille","lat":43.30364,"lon":5.41882,"is_reserved":false,"is_disabled":false,"rental_uris":{"android":"levelo://app?vid=e4826f89-a06f-4156-a49c-fc79e096f1c1","ios":"levelo://app?vid=e4826f89-a06f-4156-a49c-fc79e096f1c1"},"vehicle_type_id":"4","last_reported":1784732082,"current_range_meters":10000,"station_id":"ce4bhop2rcd13ifvqh7g","pricing_plan_id":"cebpf4jnsgd1na2vs0mg"},{"bike_id":"dad5eff3-cb3a-4459-ba39-741abe4a6c6c","system_id":"levelo_inurba_marseille","lat":43.32106,"lon":5.36769,"is_reserved":false,"is_disabled":false,"rental_uris":{"android":"levelo://app?vid=dad5eff3-cb3a-4459-ba39-741abe4a6c6c","ios":"levelo://app?vid=dad5eff3-cb3a-4459-ba39-741abe4a6c6c"},"vehicle_type_id":"4","last_reported":1784732082,"current_range_meters":8400,"station_id":"ce4bhrh2rcd13ifvqhug","pricing_plan_id":"cebpf4jnsgd1na2vs0mg"},{"bike_id":"e2172484-0a54-4a63-9e55-ce215eafe9cd","system_id":"levelo_inurba_marseille","lat":43.26449,"lon":5.39565,"is_reserved":false,"is_disabled":false,"rental_uris":{"android":"levelo://app?vid=e2172484-0a54-4a63-9e55-ce215eafe9cd","ios":"levelo://app?vid=e2172484-0a54-4a63-9e55-ce215eafe9cd"},"vehicle_type_id":"4","last_reported":1784732082,"current_range_meters":39200,"station_id":"","pricing_plan_id":"cebpf4jnsgd1na2vs0mg"},{"bike_id":"a5551c5d-bed7-49e5-a83a-8da2b64da0c4","system_id":"levelo_inurba_marseille","lat":43.30923,"lon":5.36852,"is_reserved":false,"is_disabled":false,"rental_uris":{"android":"levelo://app?vid=a5551c5d-bed7-49e5-a83a-8da2b64da0c4","ios":"levelo://app?vid=a5551c5d-bed7-49e5-a83a-8da2b64da0c4"},"vehicle_type_id":"4","last_reported":1784732082,"current_range_meters":40000,"station_id":"ce4bgn92rcd13ifvqbvg","pricing_plan_id":"cebpf4jnsgd1na2vs0mg"},{"bike_id":"22b5ffee-c20a-41a9-bd75-b784bb482fb3","system_id":"levelo_inurba_marseille","lat":43.24322,"lon":5.38423,"is_reserved":false,"is_disabled":false,"rental_uris":{"android":"levelo://app?vid=22b5ffee-c20a-41a9-bd75-b784bb482fb3","ios":"levelo://app?vid=22b5ffee-c20a-41a9-bd75-b784bb482fb3"},"vehicle_type_id":"4","last_reported":1784732082,"current_range_meters":35200,"station_id":"","pricing_plan_id":"cebpf4jnsgd1na2vs0mg"},{"bike_id":"8d8673aa-a69c-4d74-931d-06b8f35221f4","system_id":"levelo_inurba_marseille","lat":43.26704,"lon":5.41963,"is_reserved":false,"is_disabled":false,"rental_uris":{"android":"levelo://app?vid=8d8673aa-a69c-4d74-931d-06b8f35221f4","ios":"levelo://app?vid=8d8673aa-a69c-4d74-931d-06b8f35221f4"},"vehicle_type_id":"4","last_reported":1784732082,"current_range_meters":26800,"station_id":"","pricing_plan_id":"cebpf4jnsgd1na2vs0mg"},{"bike_id":"bb6c1d94-b8a1-4d7e-8e26-2628675f7e1d","system_id":"levelo_inurba_marseille","lat":43.29613,"lon":5.37708,"is_reserved":false,"is_disabled":true,"rental_uris":{"android":"levelo://app?vid=bb6c1d94-b8a1-4d7e-8e26-2628675f7e1d","ios":"levelo://app?vid=bb6c1d94-b8a1-4d7e-8e26-2628675f7e1d"},"vehicle_type_id":"4","last_reported":1784732082,"current_range_meters":21600,"station_id":"ce4bgi92rcd13ifvqb90","pricing_plan_id":"cebpf4jnsgd1na2vs0mg"},{"bike_id":"b4d7c551-5126-4abd-9ca5-5b3e2ee7483d","system_id":"levelo_inurba_marseille","lat":43.27375,"lon":5.36251,"is_reserved":false,"is_disabled":false,"rental_uris":{"android":"levelo://app?vid=b4d7c551-5126-4abd-9ca5-5b3e2ee7483d","ios":"levelo://app?vid=b4d7c551-5126-4abd-9ca5-5b3e2ee7483d"},"vehicle_type_id":"4","last_reported":1784732082,"current_range_meters":6000,"station_id":"ce4bhbh2rcd13ifvqeo0","pricing_plan_id":"cebpf4jnsgd1na2vs0mg"},{"bike_id":"a8d558f7-f6c9-460e-8c57-eb92c7ff4ad2","system_id":"levelo_inurba_marseille","lat":43.31221,"lon":5.36857,"is_reserved":false,"is_disabled":false,"rental_uris":{"android":"levelo://app?vid=a8d558f7-f6c9-460e-8c57-eb92c7ff4ad2","ios":"levelo://app?vid=a8d558f7-f6c9-460e-8c57-eb92c7ff4ad2"},"vehicle_type_id":"4","last_reported":1784732082,"current_range_meters":32000,"station_id":"ce4bgl92rcd13ifvqbq0","pricing_plan_id":"cebpf4jnsgd1na2vs0mg"},{"bike_id":"1f5d690e-ec61-49f6-987c-1b19bb5fd774","system_id":"levelo_inurba_marseille","lat":43.32369,"lon":5.38879,"is_reserved":false,"is_disabled":false,"rental_uris":{"android":"levelo://app?vid=1f5d690e-ec61-49f6-987c-1b19bb5fd774","ios":"levelo://app?vid=1f5d690e-ec61-49f6-987c-1b19bb5fd774"},"vehicle_type_id":"4","last_reported":1784732082,"current_range_meters":38000,"station_id":"ce4bhqp2rcd13ifvqhog","pricing_plan_id":"cebpf4jnsgd1na2vs0mg"},{"bike_id":"1fade11d-8e73-4748-8586-d9741ca55ced","system_id":"levelo_inurba_marseille","lat":43.317152,"lon":5.437034,"is_reserved":false,"is_disabled":false,"rental_uris":{"android":"levelo://app?vid=1fade11d-8e73-4748-8586-d9741ca55ced","ios":"levelo://app?vid=1fade11d-8e73-4748-8586-d9741ca55ced"},"vehicle_type_id":"4","last_reported":1784732082,"current_range_meters":30800,"station_id":"ce4bhp92rcd13ifvqhcg","pricing_plan_id":"cebpf4jnsgd1na2vs0mg"},{"bike_id":"1d231300-ac38-4730-a7f3-534818a34dcf","system_id":"levelo_inurba_marseille","lat":43.2827,"lon":5.35072,"is_reserved":false,"is_disabled":false,"rental_uris":{"android":"levelo://app?vid=1d231300-ac38-4730-a7f3-534818a34dcf","ios":"levelo://app?vid=1d231300-ac38-4730-a7f3-534818a34dcf"},"vehicle_type_id":"4","last_reported":1784732082,"current_range_meters":30800,"station_id":"ce4bhbp2rcd13ifvqerg","pricing_plan_id":"cebpf4jnsgd1na2vs0mg"},{"bike_id":"647b1b80-7a84-4c19-adf0-0b9340791b69","system_id":"levelo_inurba_marseille","lat":43.28103,"lon":5.37844,"is_reserved":false,"is_disabled":false,"rental_uris":{"android":"levelo://app?vid=647b1b80-7a84-4c19-adf0-0b9340791b69","ios":"levelo://app?vid=647b1b80-7a84-4c19-adf0-0b9340791b69"},"vehicle_type_id":"4","last_reported":1784732082,"current_range_meters":39200,"station_id":"ce4bha12rcd13ifvqee0","pricing_plan_id":"cebpf4jnsgd1na2vs0mg"},{"bike_id":"7a68b0e5-75a6-404f-a915-4832fc74dfdb","system_id":"levelo_inurba_marseille","lat":43.25935,"lon":5.40911,"is_reserved":false,"is_disabled":false,"rental_uris":{"android":"levelo://app?vid=7a68b0e5-75a6-404f-a915-4832fc74dfdb","ios":"levelo://app?vid=7a68b0e5-75a6-404f-a915-4832fc74dfdb"},"vehicle_type_id":"4","last_reported":1784732082,"current_range_meters":39200,"station_id":"ce4bhm92rcd13ifvqglg","pricing_plan_id":"cebpf4jnsgd1na2vs0mg"},{"bike_id":"1c2352d3-3810-4529-b252-583943f31c2a","system_id":"levelo_inurba_marseille","lat":43.24171,"lon":5.3639,"is_reserved":false,"is_disabled":false,"rental_uris":{"android":"levelo://app?vid=1c2352d3-3810-4529-b252-583943f31c2a","ios":"levelo://app?vid=1c2352d3-3810-4529-b252-583943f31c2a"},"vehicle_type_id":"4","last_reported":1784732082,"current_range_meters":25600,"station_id":"cpo36qri1sfpv3e86is0","pricing_plan_id":"cebpf4jnsgd1na2vs0mg"},{"bike_id":"3be294b1-97e6-483e-8bca-94ae9cfe3ae9","system_id":"levelo_inurba_marseille","lat":43.25052,"lon":5.38849,"is_reserved":false,"is_disabled":false,"rental_uris":{"android":"levelo://app?vid=3be294b1-97e6-483e-8bca-94ae9cfe3ae9","ios":"levelo://app?vid=3be294b1-97e6-483e-8bca-94ae9cfe3ae9"},"vehicle_type_id":"4","last_reported":1784732082,"current_range_meters":26000,"station_id":"","pricing_plan_id":"cebpf4jnsgd1na2vs0mg"},{"bike_id":"073c634c-3d4a-4253-b5c7-1510fff69fc7","system_id":"levelo_inurba_marseille","lat":43.28732,"lon":5.36083,"is_reserved":false,"is_disabled":false,"rental_uris":{"android":"levelo://app?vid=073c634c-3d4a-4253-b5c7-1510fff69fc7","ios":"levelo://app?vid=073c634c-3d4a-4253-b5c7-1510fff69fc7"},"vehicle_type_id":"4","last_reported":1784732082,"current_range_meters":20000,"station_id":"cki0cbj6b192h4jlfktg","pricing_plan_id":"cebpf4jnsgd1na2vs0mg"},{"bike_id":"36f797d9-5b95-4843-b50e-7f80ed979ebf","system_id":"levelo_inurba_marseille","lat":43.25575,"lon":5.3825,"is_reserved":false,"is_disabled":false,"rental_uris":{"android":"levelo://app?vid=36f797d9-5b95-4843-b50e-7f80ed979ebf","ios":"levelo://app?vid=36f797d9-5b95-4843-b50e-7f80ed979ebf"},"vehicle_type_id":"4","last_reported":1784732082,"current_range_meters":25600,"station_id":"ce4bhih2rcd13ifvqfs0","pricing_plan_id":"cebpf4jnsgd1na2vs0mg"},{"bike_id":"a31cea0c-4cff-4f6d-8f93-36842670158b","system_id":"levelo_inurba_marseille","lat":43.29707,"lon":5.366,"is_reserved":false,"is_disabled":true,"rental_uris":{"android":"levelo://app?vid=a31cea0c-4cff-4f6d-8f93-36842670158b","ios":"levelo://app?vid=a31cea0c-4cff-4f6d-8f93-36842670158b"},"vehicle_type_id":"4","last_reported":1784732082,"current_range_meters":39200,"station_id":"ce4bgn12rcd13ifvqbt0","pricing_plan_id":"cebpf4jnsgd1na2vs0mg"},{"bike_id":"4a7529a1-fd80-491a-b4fd-887bd4ff6c99","system_id":"levelo_inurba_marseille","lat":43.24996,"lon":5.3893,"is_reserved":false,"is_disabled":false,"rental_uris":{"android":"levelo://app?vid=4a7529a1-fd80-491a-b4fd-887bd4ff6c99","ios":"levelo://app?vid=4a7529a1-fd80-491a-b4fd-887bd4ff6c99"},"vehicle_type_id":"4","last_reported":1784732082,"current_range_meters":39200,"station_id":"ce4bhgp2rcd13ifvqfd0","pricing_plan_id":"cebpf4jnsgd1na2vs0mg"},{"bike_id":"e8e76fdb-2435-48b2-aa84-a6718b0c1249","system_id":"levelo_inurba_marseille","lat":43.26549,"lon":5.37308,"is_reserved":false,"is_disabled":false,"rental_uris":{"android":"levelo://app?vid=e8e76fdb-2435-48b2-aa84-a6718b0c1249","ios":"levelo://app?vid=e8e76fdb-2435-48b2-aa84-a6718b0c1249"},"vehicle_type_id":"4","last_reported":1784732082,"current_range_meters":38400,"station_id":"ce4bhg12rcd13ifvqf70","pricing_plan_id":"cebpf4jnsgd1na2vs0mg"},{"bike_id":"6d609200-2c64-463b-bd0e-70a61a4731c2","system_id":"levelo_inurba_marseille","lat":43.24083,"lon":5.37743,"is_reserved":false,"is_disabled":false,"rental_uris":{"android":"levelo://app?vid=6d609200-2c64-463b-bd0e-70a61a4731c2","ios":"levelo://app?vid=6d609200-2c64-463b-bd0e-70a61a4731c2"},"vehicle_type_id":"4","last_reported":1784732082,"current_range_meters":36800,"station_id":"ce4bhnp2rcd13ifvqgvg","pricing_plan_id":"cebpf4jnsgd1na2vs0mg"},{"bike_id":"747d888c-b833-4d91-8098-768070d4079e","system_id":"levelo_inurba_marseille","lat":43.30589,"lon":5.38194,"is_reserved":false,"is_disabled":false,"rental_uris":{"android":"levelo://app?vid=747d888c-b833-4d91-8098-768070d4079e","ios":"levelo://app?vid=747d888c-b833-4d91-8098-768070d4079e"},"vehicle_type_id":"4","last_reported":1784732082,"current_range_meters":37600,"station_id":"","pricing_plan_id":"cebpf4jnsgd1na2vs0mg"},{"bike_id":"425cee52-7ff4-408d-b63f-f1bb20a33257","system_id":"levelo_inurba_marseille","lat":43.27485,"lon":5.42548,"is_reserved":false,"is_disabled":false,"rental_uris":{"android":"levelo://app?vid=425cee52-7ff4-408d-b63f-f1bb20a33257","ios":"levelo://app?vid=425cee52-7ff4-408d-b63f-f1bb20a33257"},"vehicle_type_id":"4","last_reported":1784732082,"current_range_meters":38000,"station_id":"st_d8t4bh7nbrqs73arha60","pricing_plan_id":"cebpf4jnsgd1na2vs0mg"},{"bike_id":"acb6c310-64e8-4ffb-9d0e-3645b38213aa","system_id":"levelo_inurba_marseille","lat":43.22574,"lon":5.41619,"is_reserved":false,"is_disabled":false,"rental_uris":{"android":"levelo://app?vid=acb6c310-64e8-4ffb-9d0e-3645b38213aa","ios":"levelo://app?vid=acb6c310-64e8-4ffb-9d0e-3645b38213aa"},"vehicle_type_id":"4","last_reported":1784732082,"current_range_meters":8800,"station_id":"st_d2o4gvlbi1j2169b742g","pricing_plan_id":"cebpf4jnsgd1na2vs0mg"},{"bike_id":"3c8596e2-1d5e-49b5-9ff7-ae897a69659c","system_id":"levelo_inurba_marseille","lat":43.28385,"lon":5.34996,"is_reserved":false,"is_disabled":false,"rental_uris":{"android":"levelo://app?vid=3c8596e2-1d5e-49b5-9ff7-ae897a69659c","ios":"levelo://app?vid=3c8596e2-1d5e-49b5-9ff7-ae897a69659c"},"vehicle_type_id":"4","last_reported":1784732082,"current_range_meters":32000,"station_id":"ce4bhbh2rcd13ifvqepg","pricing_plan_id":"cebpf4jnsgd1na2vs0mg"},{"bike_id":"2b2d5806-a98a-4b6d-8666-219c96826a65","system_id":"levelo_inurba_marseille","lat":43.33028,"lon":5.39034,"is_reserved":false,"is_disabled":false,"rental_uris":{"android":"levelo://app?vid=2b2d5806-a98a-4b6d-8666-219c96826a65","ios":"levelo://app?vid=2b2d5806-a98a-4b6d-8666-219c96826a65"},"vehicle_type_id":"4","last_reported":1784732082,"current_range_meters":9200,"station_id":"ce4bhr92rcd13ifvqhrg","pricing_plan_id":"cebpf4jnsgd1na2vs0mg"},{"bike_id":"95b50bf9-5ceb-4619-94c5-9570c32b5ffa","system_id":"levelo_inurba_marseille","lat":43.24164,"lon":5.36393,"is_reserved":false,"is_disabled":false,"rental_uris":{"android":"levelo://app?vid=95b50bf9-5ceb-4619-94c5-9570c32b5ffa","ios":"levelo://app?vid=95b50bf9-5ceb-4619-94c5-9570c32b5ffa"},"vehicle_type_id":"4","last_reported":1784732082,"current_range_meters":35200,"station_id":"cpo36qri1sfpv3e86is0","pricing_plan_id":"cebpf4jnsgd1na2vs0mg"},{"bike_id":"43c6e825-c6cc-4d93-851f-1658defce829","system_id":"levelo_inurba_marseille","lat":43.2751,"lon":5.41577,"is_reserved":false,"is_disabled":false,"rental_uris":{"android":"levelo://app?vid=43c6e825-c6cc-4d93-851f-1658defce829","ios":"levelo://app?vid=43c6e825-c6cc-4d93-851f-1658defce829"},"vehicle_type_id":"4","last_reported":1784732082,"current_range_meters":12800,"station_id":"st_d6im8g6chgec73a5pndg","pricing_plan_id":"cebpf4jnsgd1na2vs0mg"},{"bike_id":"b702cbdf-4b7c-4ea1-8416-e4a66cdd5434","system_id":"levelo_inurba_marseille","lat":43.25961,"lon":5.3887,"is_reserved":false,"is_disabled":false,"rental_uris":{"android":"levelo://app?vid=b702cbdf-4b7c-4ea1-8416-e4a66cdd5434","ios":"levelo://app?vid=b702cbdf-4b7c-4ea1-8416-e4a66cdd5434"},"vehicle_type_id":"4","last_reported":1784732082,"current_range_meters":24800,"station_id":"","pricing_plan_id":"cebpf4jnsgd1na2vs0mg"},{"bike_id":"550d52cf-f2da-49d7-9241-7e04a849abf7","system_id":"levelo_inurba_marseille","lat":43.26571,"lon":5.40317,"is_reserved":false,"is_disabled":false,"rental_uris":{"android":"levelo://app?vid=550d52cf-f2da-49d7-9241-7e04a849abf7","ios":"levelo://app?vid=550d52cf-f2da-49d7-9241-7e04a849abf7"},"vehicle_type_id":"4","last_reported":1784732082,"current_range_meters":39200,"station_id":"ce4bhmp2rcd13ifvqgng","pricing_plan_id":"cebpf4jnsgd1na2vs0mg"},{"bike_id":"c847f537-1bc6-4bb8-b70e-fb2d6ce4a7f4","system_id":"levelo_inurba_marseille","lat":43.23788,"lon":5.36627,"is_reserved":false,"is_disabled":false,"rental_uris":{"android":"levelo://app?vid=c847f537-1bc6-4bb8-b70e-fb2d6ce4a7f4","ios":"levelo://app?vid=c847f537-1bc6-4bb8-b70e-fb2d6ce4a7f4"},"vehicle_type_id":"4","last_reported":1784732082,"current_range_meters":30800,"station_id":"st_d3nk18o9ro0c73en2l3g","pricing_plan_id":"cebpf4jnsgd1na2vs0mg"},{"bike_id":"aee2475a-fb2d-4bb0-a551-1145de4b2b3a","system_id":"levelo_inurba_marseille","lat":43.23233,"lon":5.35562,"is_reserved":false,"is_disabled":false,"rental_uris":{"android":"levelo://app?vid=aee2475a-fb2d-4bb0-a551-1145de4b2b3a","ios":"levelo://app?vid=aee2475a-fb2d-4bb0-a551-1145de4b2b3a"},"vehicle_type_id":"4","last_reported":1784732082,"current_range_meters":38000,"station_id":"ce4bhu92rcd13ifvqi70","pricing_plan_id":"cebpf4jnsgd1na2vs0mg"},{"bike_id":"852376dd-f04f-4afc-82a9-1351bd20ef1f","system_id":"levelo_inurba_marseille","lat":43.23063,"lon":5.3549,"is_reserved":false,"is_disabled":false,"rental_uris":{"android":"levelo://app?vid=852376dd-f04f-4afc-82a9-1351bd20ef1f","ios":"levelo://app?vid=852376dd-f04f-4afc-82a9-1351bd20ef1f"},"vehicle_type_id":"4","last_reported":1784732082,"current_range_meters":39200,"station_id":"cpo3342slgdg3j2ifvpg","pricing_plan_id":"cebpf4jnsgd1na2vs0mg"},{"bike_id":"47ff0f9f-308b-4144-bd8b-574e9767fcd6","system_id":"levelo_inurba_marseille","lat":43.23064,"lon":5.35494,"is_reserved":false,"is_disabled":false,"rental_uris":{"android":"levelo://app?vid=47ff0f9f-308b-4144-bd8b-574e9767fcd6","ios":"levelo://app?vid=47ff0f9f-308b-4144-bd8b-574e9767fcd6"},"vehicle_type_id":"4","last_reported":1784732082,"current_range_meters":32000,"station_id":"cpo3342slgdg3j2ifvpg","pricing_plan_id":"cebpf4jnsgd1na2vs0mg"},{"bike_id":"bace381c-6258-4d80-80f1-070c343af026","system_id":"levelo_inurba_marseille","lat":43.33143,"lon":5.37713,"is_reserved":false,"is_disabled":false,"rental_uris":{"android":"levelo://app?vid=bace381c-6258-4d80-80f1-070c343af026","ios":"levelo://app?vid=bace381c-6258-4d80-80f1-070c343af026"},"vehicle_type_id":"4","last_reported":1784732082,"current_range_meters":9600,"station_id":"st_d46cu089ee8s73dldbu0","pricing_plan_id":"cebpf4jnsgd1na2vs0mg"},{"bike_id":"3dc4b03c-3ddf-41cf-8be2-96909210bda5","system_id":"levelo_inurba_marseille","lat":43.3045,"lon":5.37912,"is_reserved":false,"is_disabled":false,"rental_uris":{"android":"levelo://app?vid=3dc4b03c-3ddf-41cf-8be2-96909210bda5","ios":"levelo://app?vid=3dc4b03c-3ddf-41cf-8be2-96909210bda5"},"vehicle_type_id":"4","last_reported":1784732082,"current_range_meters":17200,"station_id":"ce4bgup2rcd13ifvqcn0","pricing_plan_id":"cebpf4jnsgd1na2vs0mg"},{"bike_id":"d7cd559b-011e-4f7a-8875-35e324f90bda","system_id":"levelo_inurba_marseille","lat":43.29201,"lon":5.36327,"is_reserved":false,"is_disabled":false,"rental_uris":{"android":"levelo://app?vid=d7cd559b-011e-4f7a-8875-35e324f90bda","ios":"levelo://app?vid=d7cd559b-011e-4f7a-8875-35e324f90bda"},"vehicle_type_id":"4","last_reported":1784732082,"current_range_meters":28800,"station_id":"","pricing_plan_id":"cebpf4jnsgd1na2vs0mg"},{"bike_id":"66ee66ee-af5d-4d9d-b9ff-6af9fc025992","system_id":"levelo_inurba_marseille","lat":43.27946,"lon":5.41042,"is_reserved":false,"is_disabled":false,"rental_uris":{"android":"levelo://app?vid=66ee66ee-af5d-4d9d-b9ff-6af9fc025992","ios":"levelo://app?vid=66ee66ee-af5d-4d9d-b9ff-6af9fc025992"},"vehicle_type_id":"4","last_reported":1784732082,"current_range_meters":39200,"station_id":"ce4bhnp2rcd13ifvqh0g","pricing_plan_id":"cebpf4jnsgd1na2vs0mg"},{"bike_id":"e9e543b0-8ca5-47a6-998c-4902ea53cdd4","system_id":"levelo_inurba_marseille","lat":43.25194,"lon":5.37318,"is_reserved":false,"is_disabled":true,"rental_uris":{"android":"levelo://app?vid=e9e543b0-8ca5-47a6-998c-4902ea53cdd4","ios":"levelo://app?vid=e9e543b0-8ca5-47a6-998c-4902ea53cdd4"},"vehicle_type_id":"4","last_reported":1784732082,"current_range_meters":11600,"station_id":"","pricing_plan_id":"cebpf4jnsgd1na2vs0mg"},{"bike_id":"7b994b50-d1d9-4795-96d3-24bdfc1e5a92","system_id":"levelo_inurba_marseille","lat":43.231574,"lon":5.437026,"is_reserved":false,"is_disabled":false,"rental_uris":{"android":"levelo://app?vid=7b994b50-d1d9-4795-96d3-24bdfc1e5a92","ios":"levelo://app?vid=7b994b50-d1d9-4795-96d3-24bdfc1e5a92"},"vehicle_type_id":"4","last_reported":1784732082,"current_range_meters":21600,"station_id":"","pricing_plan_id":"cebpf4jnsgd1na2vs0mg"},{"bike_id":"edd3e5e8-b49c-4e7b-9925-25bf3abf168f","system_id":"levelo_inurba_marseille","lat":43.29282,"lon":5.36852,"is_reserved":false,"is_disabled":false,"rental_uris":{"android":"levelo://app?vid=edd3e5e8-b49c-4e7b-9925-25bf3abf168f","ios":"levelo://app?vid=edd3e5e8-b49c-4e7b-9925-25bf3abf168f"},"vehicle_type_id":"4","last_reported":1784732082,"current_range_meters":22000,"station_id":"","pricing_plan_id":"cebpf4jnsgd1na2vs0mg"},{"bike_id":"0a2a9cec-7ac9-45d2-a3df-11ec4681fd29","system_id":"levelo_inurba_marseille","lat":43.24805,"lon":5.37452,"is_reserved":false,"is_disabled":false,"rental_uris":{"android":"levelo://app?vid=0a2a9cec-7ac9-45d2-a3df-11ec4681fd29","ios":"levelo://app?vid=0a2a9cec-7ac9-45d2-a3df-11ec4681fd29"},"vehicle_type_id":"4","last_reported":1784732082,"current_range_meters":30400,"station_id":"ce4bhgh2rcd13ifvqfb0","pricing_plan_id":"cebpf4jnsgd1na2vs0mg"},{"bike_id":"8f31f3af-0aa6-4421-8e2c-a77a880bef79","system_id":"levelo_inurba_marseille","lat":43.273726,"lon":5.398294,"is_reserved":false,"is_disabled":true,"rental_uris":{"android":"levelo://app?vid=8f31f3af-0aa6-4421-8e2c-a77a880bef79","ios":"levelo://app?vid=8f31f3af-0aa6-4421-8e2c-a77a880bef79"},"vehicle_type_id":"4","last_reported":1784732082,"current_range_meters":6800,"station_id":"","pricing_plan_id":"cebpf4jnsgd1na2vs0mg"},{"bike_id":"285820f9-9811-40a5-87b0-0491a6035481","system_id":"levelo_inurba_marseille","lat":43.27184,"lon":5.40985,"is_reserved":false,"is_disabled":false,"rental_uris":{"android":"levelo://app?vid=285820f9-9811-40a5-87b0-0491a6035481","ios":"levelo://app?vid=285820f9-9811-40a5-87b0-0491a6035481"},"vehicle_type_id":"4","last_reported":1784732082,"current_range_meters":32400,"station_id":"ce4bhl12rcd13ifvqgf0","pricing_plan_id":"cebpf4jnsgd1na2vs0mg"},{"bike_id":"83925a5d-2fdb-4961-87af-9524cc4451ad","system_id":"levelo_inurba_marseille","lat":43.30963,"lon":5.39047,"is_reserved":false,"is_disabled":false,"rental_uris":{"android":"levelo://app?vid=83925a5d-2fdb-4961-87af-9524cc4451ad","ios":"levelo://app?vid=83925a5d-2fdb-4961-87af-9524cc4451ad"},"vehicle_type_id":"4","last_reported":1784732082,"current_range_meters":39200,"station_id":"ce4bgup2rcd13ifvqco0","pricing_plan_id":"cebpf4jnsgd1na2vs0mg"},{"bike_id":"1a8f7e32-5d47-4694-89a5-a9089b244299","system_id":"levelo_inurba_marseille","lat":43.28111,"lon":5.38485,"is_reserved":false,"is_disabled":false,"rental_uris":{"android":"levelo://app?vid=1a8f7e32-5d47-4694-89a5-a9089b244299","ios":"levelo://app?vid=1a8f7e32-5d47-4694-89a5-a9089b244299"},"vehicle_type_id":"4","last_reported":1784732082,"current_range_meters":4800,"station_id":"","pricing_plan_id":"cebpf4jnsgd1na2vs0mg"},{"bike_id":"bb96650a-3021-4a12-aa1c-45954489ce0e","system_id":"levelo_inurba_marseille","lat":43.34149,"lon":5.40891,"is_reserved":false,"is_disabled":false,"rental_uris":{"android":"levelo://app?vid=bb96650a-3021-4a12-aa1c-45954489ce0e","ios":"levelo://app?vid=bb96650a-3021-4a12-aa1c-45954489ce0e"},"vehicle_type_id":"4","last_reported":1784732082,"current_range_meters":36800,"station_id":"ce4bhqh2rcd13ifvqhlg","pricing_plan_id":"cebpf4jnsgd1na2vs0mg"},{"bike_id":"a2c9fd6e-925c-4795-ba3f-b9c641931695","system_id":"levelo_inurba_marseille","lat":43.29628,"lon":5.37715,"is_reserved":false,"is_disabled":true,"rental_uris":{"android":"levelo://app?vid=a2c9fd6e-925c-4795-ba3f-b9c641931695","ios":"levelo://app?vid=a2c9fd6e-925c-4795-ba3f-b9c641931695"},"vehicle_type_id":"4","last_reported":1784732082,"current_range_meters":25200,"station_id":"ce4bgi92rcd13ifvqb90","pricing_plan_id":"cebpf4jnsgd1na2vs0mg"},{"bike_id":"861a8ff0-d576-4b63-bb0c-46b64b668997","system_id":"levelo_inurba_marseille","lat":43.2922,"lon":5.36064,"is_reserved":false,"is_disabled":false,"rental_uris":{"android":"levelo://app?vid=861a8ff0-d576-4b63-bb0c-46b64b668997","ios":"levelo://app?vid=861a8ff0-d576-4b63-bb0c-46b64b668997"},"vehicle_type_id":"4","last_reported":1784732082,"current_range_meters":14800,"station_id":"","pricing_plan_id":"cebpf4jnsgd1na2vs0mg"},{"bike_id":"7b7c350c-7fa0-4260-b6c2-812c00fe7727","system_id":"levelo_inurba_marseille","lat":43.32063,"lon":5.36812,"is_reserved":false,"is_disabled":false,"rental_uris":{"android":"levelo://app?vid=7b7c350c-7fa0-4260-b6c2-812c00fe7727","ios":"levelo://app?vid=7b7c350c-7fa0-4260-b6c2-812c00fe7727"},"vehicle_type_id":"4","last_reported":1784732082,"current_range_meters":27200,"station_id":"ce4bhrh2rcd13ifvqhug","pricing_plan_id":"cebpf4jnsgd1na2vs0mg"},{"bike_id":"002b6de9-4906-4900-bd53-a26437451aab","system_id":"levelo_inurba_marseille","lat":43.33289,"lon":5.35882,"is_reserved":false,"is_disabled":false,"rental_uris":{"android":"levelo://app?vid=002b6de9-4906-4900-bd53-a26437451aab","ios":"levelo://app?vid=002b6de9-4906-4900-bd53-a26437451aab"},"vehicle_type_id":"4","last_reported":1784732082,"current_range_meters":12400,"station_id":"","pricing_plan_id":"cebpf4jnsgd1na2vs0mg"},{"bike_id":"ae4d8230-91d6-494c-8f79-2d710589d93c","system_id":"levelo_inurba_marseille","lat":43.29945,"lon":5.37459,"is_reserved":false,"is_disabled":false,"rental_uris":{"android":"levelo://app?vid=ae4d8230-91d6-494c-8f79-2d710589d93c","ios":"levelo://app?vid=ae4d8230-91d6-494c-8f79-2d710589d93c"},"vehicle_type_id":"4","last_reported":1784732082,"current_range_meters":31200,"station_id":"ce4bgjh2rcd13ifvqbg0","pricing_plan_id":"cebpf4jnsgd1na2vs0mg"},{"bike_id":"94f1b0ad-aaa9-4b51-806c-9eae39355e9b","system_id":"levelo_inurba_marseille","lat":43.27385,"lon":5.36252,"is_reserved":false,"is_disabled":true,"rental_uris":{"android":"levelo://app?vid=94f1b0ad-aaa9-4b51-806c-9eae39355e9b","ios":"levelo://app?vid=94f1b0ad-aaa9-4b51-806c-9eae39355e9b"},"vehicle_type_id":"4","last_reported":1784732082,"current_range_meters":28800,"station_id":"ce4bhbh2rcd13ifvqeo0","pricing_plan_id":"cebpf4jnsgd1na2vs0mg"},{"bike_id":"f15f83b9-0ad6-4eb4-8cc5-636b33dd6de2","system_id":"levelo_inurba_marseille","lat":43.30606,"lon":5.39331,"is_reserved":false,"is_disabled":false,"rental_uris":{"android":"levelo://app?vid=f15f83b9-0ad6-4eb4-8cc5-636b33dd6de2","ios":"levelo://app?vid=f15f83b9-0ad6-4eb4-8cc5-636b33dd6de2"},"vehicle_type_id":"4","last_reported":1784732082,"current_range_meters":24400,"station_id":"ce4bh0p2rcd13ifvqd80","pricing_plan_id":"cebpf4jnsgd1na2vs0mg"},{"bike_id":"3d185dea-3134-4b35-9cee-49aed1f0c978","system_id":"levelo_inurba_marseille","lat":43.24667,"lon":5.38166,"is_reserved":false,"is_disabled":true,"rental_uris":{"android":"levelo://app?vid=3d185dea-3134-4b35-9cee-49aed1f0c978","ios":"levelo://app?vid=3d185dea-3134-4b35-9cee-49aed1f0c978"},"vehicle_type_id":"4","last_reported":1784732082,"current_range_meters":36800,"station_id":"ce4bhih2rcd13ifvqfr0","pricing_plan_id":"cebpf4jnsgd1na2vs0mg"},{"bike_id":"d59836fa-cc94-4caa-8c24-e346fea64424","system_id":"levelo_inurba_marseille","lat":43.29986,"lon":5.38481,"is_reserved":false,"is_disabled":true,"rental_uris":{"android":"levelo://app?vid=d59836fa-cc94-4caa-8c24-e346fea64424","ios":"levelo://app?vid=d59836fa-cc94-4caa-8c24-e346fea64424"},"vehicle_type_id":"4","last_reported":1784732082,"current_range_meters":11200,"station_id":"ce4bgj92rcd13ifvqbd0","pricing_plan_id":"cebpf4jnsgd1na2vs0mg"},{"bike_id":"c1923bef-d0b3-44d9-9a00-ca5ec0311fc3","system_id":"levelo_inurba_marseille","lat":43.25499,"lon":5.3765,"is_reserved":false,"is_disabled":false,"rental_uris":{"android":"levelo://app?vid=c1923bef-d0b3-44d9-9a00-ca5ec0311fc3","ios":"levelo://app?vid=c1923bef-d0b3-44d9-9a00-ca5ec0311fc3"},"vehicle_type_id":"4","last_reported":1784732082,"current_range_meters":38400,"station_id":"ce4bhh12rcd13ifvqff0","pricing_plan_id":"cebpf4jnsgd1na2vs0mg"},{"bike_id":"16c1f100-ded8-41c5-85ce-060e556d650d","system_id":"levelo_inurba_marseille","lat":43.2501,"lon":5.38931,"is_reserved":false,"is_disabled":false,"rental_uris":{"android":"levelo://app?vid=16c1f100-ded8-41c5-85ce-060e556d650d","ios":"levelo://app?vid=16c1f100-ded8-41c5-85ce-060e556d650d"},"vehicle_type_id":"4","last_reported":1784732082,"current_range_meters":39200,"station_id":"ce4bhgp2rcd13ifvqfd0","pricing_plan_id":"cebpf4jnsgd1na2vs0mg"},{"bike_id":"1981d3ef-d7ae-460e-a247-e2f1120f8322","system_id":"levelo_inurba_marseille","lat":43.24586,"lon":5.41953,"is_reserved":false,"is_disabled":false,"rental_uris":{"android":"levelo://app?vid=1981d3ef-d7ae-460e-a247-e2f1120f8322","ios":"levelo://app?vid=1981d3ef-d7ae-460e-a247-e2f1120f8322"},"vehicle_type_id":"4","last_reported":1784732082,"current_range_meters":17200,"station_id":"","pricing_plan_id":"cebpf4jnsgd1na2vs0mg"},{"bike_id":"165f17ce-60d5-4c1f-b561-f2a05656aed3","system_id":"levelo_inurba_marseille","lat":43.24166,"lon":5.36408,"is_reserved":false,"is_disabled":false,"rental_uris":{"android":"levelo://app?vid=165f17ce-60d5-4c1f-b561-f2a05656aed3","ios":"levelo://app?vid=165f17ce-60d5-4c1f-b561-f2a05656aed3"},"vehicle_type_id":"4","last_reported":1784732082,"current_range_meters":4000,"station_id":"cpo36qri1sfpv3e86is0","pricing_plan_id":"cebpf4jnsgd1na2vs0mg"},{"bike_id":"bbb6d84d-52b2-4523-b78b-60cb354411ef","system_id":"levelo_inurba_marseille","lat":43.32109,"lon":5.36765,"is_reserved":false,"is_disabled":false,"rental_uris":{"android":"levelo://app?vid=bbb6d84d-52b2-4523-b78b-60cb354411ef","ios":"levelo://app?vid=bbb6d84d-52b2-4523-b78b-60cb354411ef"},"vehicle_type_id":"4","last_reported":1784732082,"current_range_meters":36400,"station_id":"ce4bhrh2rcd13ifvqhug","pricing_plan_id":"cebpf4jnsgd1na2vs0mg"},{"bike_id":"16332643-4459-4f19-814e-47b6b5ca06b7","system_id":"levelo_inurba_marseille","lat":43.27835,"lon":5.40712,"is_reserved":false,"is_disabled":false,"rental_uris":{"android":"levelo://app?vid=16332643-4459-4f19-814e-47b6b5ca06b7","ios":"levelo://app?vid=16332643-4459-4f19-814e-47b6b5ca06b7"},"vehicle_type_id":"4","last_reported":1784732082,"current_range_meters":39200,"station_id":"ce4bhnh2rcd13ifvqgtg","pricing_plan_id":"cebpf4jnsgd1na2vs0mg"},{"bike_id":"a9863fcb-8ca0-4220-b083-cb27e96475fe","system_id":"levelo_inurba_marseille","lat":43.2319,"lon":5.35553,"is_reserved":false,"is_disabled":false,"rental_uris":{"android":"levelo://app?vid=a9863fcb-8ca0-4220-b083-cb27e96475fe","ios":"levelo://app?vid=a9863fcb-8ca0-4220-b083-cb27e96475fe"},"vehicle_type_id":"4","last_reported":1784732082,"current_range_meters":8400,"station_id":"ce4bhu92rcd13ifvqi70","pricing_plan_id":"cebpf4jnsgd1na2vs0mg"},{"bike_id":"497040b1-a999-4fce-aba0-7e94bbf2a204","system_id":"levelo_inurba_marseille","lat":43.24387,"lon":5.3705,"is_reserved":false,"is_disabled":false,"rental_uris":{"android":"levelo://app?vid=497040b1-a999-4fce-aba0-7e94bbf2a204","ios":"levelo://app?vid=497040b1-a999-4fce-aba0-7e94bbf2a204"},"vehicle_type_id":"4","last_reported":1784732082,"current_range_meters":23200,"station_id":"ce4bhhh2rcd13ifvqfk0","pricing_plan_id":"cebpf4jnsgd1na2vs0mg"},{"bike_id":"38ddc388-e49a-4663-ba1e-3314cf8be4f9","system_id":"levelo_inurba_marseille","lat":43.29115,"lon":5.38129,"is_reserved":false,"is_disabled":false,"rental_uris":{"android":"levelo://app?vid=38ddc388-e49a-4663-ba1e-3314cf8be4f9","ios":"levelo://app?vid=38ddc388-e49a-4663-ba1e-3314cf8be4f9"},"vehicle_type_id":"4","last_reported":1784732082,"current_range_meters":36800,"station_id":"ce4bh512rcd13ifvqe2g","pricing_plan_id":"cebpf4jnsgd1na2vs0mg"},{"bike_id":"a8da38aa-f94e-4c2e-80f0-e41e78a1c855","system_id":"levelo_inurba_marseille","lat":43.297946,"lon":5.381003,"is_reserved":false,"is_disabled":true,"rental_uris":{"android":"levelo://app?vid=a8da38aa-f94e-4c2e-80f0-e41e78a1c855","ios":"levelo://app?vid=a8da38aa-f94e-4c2e-80f0-e41e78a1c855"},"vehicle_type_id":"4","last_reported":1784732082,"current_range_meters":38000,"station_id":"ce4bgip2rcd13ifvqbb0","pricing_plan_id":"cebpf4jnsgd1na2vs0mg"},{"bike_id":"e194fbb0-bc81-4444-b407-bf005b5be095","system_id":"levelo_inurba_marseille","lat":43.31208,"lon":5.36859,"is_reserved":false,"is_disabled":false,"rental_uris":{"android":"levelo://app?vid=e194fbb0-bc81-4444-b407-bf005b5be095","ios":"levelo://app?vid=e194fbb0-bc81-4444-b407-bf005b5be095"},"vehicle_type_id":"4","last_reported":1784732082,"current_range_meters":27600,"station_id":"ce4bgl92rcd13ifvqbq0","pricing_plan_id":"cebpf4jnsgd1na2vs0mg"},{"bike_id":"98a36529-34c8-4700-875e-0444dc97e21f","system_id":"levelo_inurba_marseille","lat":43.27424,"lon":5.39389,"is_reserved":false,"is_disabled":false,"rental_uris":{"android":"levelo://app?vid=98a36529-34c8-4700-875e-0444dc97e21f","ios":"levelo://app?vid=98a36529-34c8-4700-875e-0444dc97e21f"},"vehicle_type_id":"4","last_reported":1784732082,"current_range_meters":39200,"station_id":"ce4bhdp2rcd13ifvqf20","pricing_plan_id":"cebpf4jnsgd1na2vs0mg"},{"bike_id":"354a079f-ed28-41a7-a06b-85ab194fda38","system_id":"levelo_inurba_marseille","lat":43.29444,"lon":5.39754,"is_reserved":false,"is_disabled":true,"rental_uris":{"android":"levelo://app?vid=354a079f-ed28-41a7-a06b-85ab194fda38","ios":"levelo://app?vid=354a079f-ed28-41a7-a06b-85ab194fda38"},"vehicle_type_id":"4","last_reported":1784732082,"current_range_meters":4000,"station_id":"ce4bh3h2rcd13ifvqdo0","pricing_plan_id":"cebpf4jnsgd1na2vs0mg"},{"bike_id":"490c5d9c-d53d-4ba9-aad9-6533bccec48f","system_id":"levelo_inurba_marseille","lat":43.30283,"lon":5.37698,"is_reserved":false,"is_disabled":false,"rental_uris":{"android":"levelo://app?vid=490c5d9c-d53d-4ba9-aad9-6533bccec48f","ios":"levelo://app?vid=490c5d9c-d53d-4ba9-aad9-6533bccec48f"},"vehicle_type_id":"4","last_reported":1784732082,"current_range_meters":8800,"station_id":"ce4bguh2rcd13ifvqcj0","pricing_plan_id":"cebpf4jnsgd1na2vs0mg"},{"bike_id":"f8d90c4e-4908-4f03-845e-3c10c53cb1f4","system_id":"levelo_inurba_marseille","lat":43.30066,"lon":5.40927,"is_reserved":false,"is_disabled":false,"rental_uris":{"android":"levelo://app?vid=f8d90c4e-4908-4f03-845e-3c10c53cb1f4","ios":"levelo://app?vid=f8d90c4e-4908-4f03-845e-3c10c53cb1f4"},"vehicle_type_id":"4","last_reported":1784732082,"current_range_meters":22800,"station_id":"","pricing_plan_id":"cebpf4jnsgd1na2vs0mg"},{"bike_id":"5feb6120-99f3-40ac-88a0-a92ec4ec9659","system_id":"levelo_inurba_marseille","lat":43.31712,"lon":5.37789,"is_reserved":false,"is_disabled":false,"rental_uris":{"android":"levelo://app?vid=5feb6120-99f3-40ac-88a0-a92ec4ec9659","ios":"levelo://app?vid=5feb6120-99f3-40ac-88a0-a92ec4ec9659"},"vehicle_type_id":"4","last_reported":1784732082,"current_range_meters":12000,"station_id":"ce4bgth2rcd13ifvqch0","pricing_plan_id":"cebpf4jnsgd1na2vs0mg"},{"bike_id":"65d6656f-ecee-4f25-9237-02f3ee9b2162","system_id":"levelo_inurba_marseille","lat":43.29943,"lon":5.37448,"is_reserved":false,"is_disabled":false,"rental_uris":{"android":"levelo://app?vid=65d6656f-ecee-4f25-9237-02f3ee9b2162","ios":"levelo://app?vid=65d6656f-ecee-4f25-9237-02f3ee9b2162"},"vehicle_type_id":"4","last_reported":1784732082,"current_range_meters":39200,"station_id":"ce4bgjh2rcd13ifvqbg0","pricing_plan_id":"cebpf4jnsgd1na2vs0mg"},{"bike_id":"27e1e4c5-a07c-4ba9-9e46-007cc925fb39","system_id":"levelo_inurba_marseille","lat":43.2547,"lon":5.41628,"is_reserved":false,"is_disabled":false,"rental_uris":{"android":"levelo://app?vid=27e1e4c5-a07c-4ba9-9e46-007cc925fb39","ios":"levelo://app?vid=27e1e4c5-a07c-4ba9-9e46-007cc925fb39"},"vehicle_type_id":"4","last_reported":1784732082,"current_range_meters":10800,"station_id":"","pricing_plan_id":"cebpf4jnsgd1na2vs0mg"},{"bike_id":"93295dce-78e3-4760-be36-f8045591201c","system_id":"levelo_inurba_marseille","lat":43.28727,"lon":5.37935,"is_reserved":false,"is_disabled":false,"rental_uris":{"android":"levelo://app?vid=93295dce-78e3-4760-be36-f8045591201c","ios":"levelo://app?vid=93295dce-78e3-4760-be36-f8045591201c"},"vehicle_type_id":"4","last_reported":1784732082,"current_range_meters":39200,"station_id":"ce4bh9p2rcd13ifvqec0","pricing_plan_id":"cebpf4jnsgd1na2vs0mg"},{"bike_id":"7cabe7d3-1488-4b19-83b0-5a4148ca1043","system_id":"levelo_inurba_marseille","lat":43.28268,"lon":5.35062,"is_reserved":false,"is_disabled":false,"rental_uris":{"android":"levelo://app?vid=7cabe7d3-1488-4b19-83b0-5a4148ca1043","ios":"levelo://app?vid=7cabe7d3-1488-4b19-83b0-5a4148ca1043"},"vehicle_type_id":"4","last_reported":1784732082,"current_range_meters":19200,"station_id":"ce4bhbp2rcd13ifvqerg","pricing_plan_id":"cebpf4jnsgd1na2vs0mg"},{"bike_id":"a974c95a-e187-446f-bde1-d6b31aa556a5","system_id":"levelo_inurba_marseille","lat":43.265733,"lon":5.390373,"is_reserved":false,"is_disabled":false,"rental_uris":{"android":"levelo://app?vid=a974c95a-e187-446f-bde1-d6b31aa556a5","ios":"levelo://app?vid=a974c95a-e187-446f-bde1-d6b31aa556a5"},"vehicle_type_id":"4","last_reported":1784732082,"current_range_meters":38000,"station_id":"cpo3532slgdg3j2ikp40","pricing_plan_id":"cebpf4jnsgd1na2vs0mg"},{"bike_id":"5a87d78f-bce0-4026-a623-b63371d564c6","system_id":"levelo_inurba_marseille","lat":43.29207,"lon":5.35799,"is_reserved":false,"is_disabled":true,"rental_uris":{"android":"levelo://app?vid=5a87d78f-bce0-4026-a623-b63371d564c6","ios":"levelo://app?vid=5a87d78f-bce0-4026-a623-b63371d564c6"},"vehicle_type_id":"4","last_reported":1784732082,"current_range_meters":36400,"station_id":"ce4bhb12rcd13ifvqel0","pricing_plan_id":"cebpf4jnsgd1na2vs0mg"},{"bike_id":"081c7c77-de6d-424b-ac53-15a24f512dc4","system_id":"levelo_inurba_marseille","lat":43.30901,"lon":5.36847,"is_reserved":false,"is_disabled":false,"rental_uris":{"android":"levelo://app?vid=081c7c77-de6d-424b-ac53-15a24f512dc4","ios":"levelo://app?vid=081c7c77-de6d-424b-ac53-15a24f512dc4"},"vehicle_type_id":"4","last_reported":1784732082,"current_range_meters":22400,"station_id":"ce4bgn92rcd13ifvqbvg","pricing_plan_id":"cebpf4jnsgd1na2vs0mg"},{"bike_id":"0732d800-b86b-4fa4-aa6f-f69c2c63930f","system_id":"levelo_inurba_marseille","lat":43.30588,"lon":5.39356,"is_reserved":false,"is_disabled":false,"rental_uris":{"android":"levelo://app?vid=0732d800-b86b-4fa4-aa6f-f69c2c63930f","ios":"levelo://app?vid=0732d800-b86b-4fa4-aa6f-f69c2c63930f"},"vehicle_type_id":"4","last_reported":1784732082,"current_range_meters":10000,"station_id":"ce4bh0p2rcd13ifvqd80","pricing_plan_id":"cebpf4jnsgd1na2vs0mg"},{"bike_id":"28dafd1e-b352-4536-b972-96ddffcb9c40","system_id":"levelo_inurba_marseille","lat":43.30741,"lon":5.42442,"is_reserved":false,"is_disabled":false,"rental_uris":{"android":"levelo://app?vid=28dafd1e-b352-4536-b972-96ddffcb9c40","ios":"levelo://app?vid=28dafd1e-b352-4536-b972-96ddffcb9c40"},"vehicle_type_id":"4","last_reported":1784732082,"current_range_meters":34000,"station_id":"st_cvj6ca6bvosntc0bfgr0","pricing_plan_id":"cebpf4jnsgd1na2vs0mg"},{"bike_id":"f1976778-9f9e-45d5-850e-5136ea6f16c1","system_id":"levelo_inurba_marseille","lat":43.30902,"lon":5.36843,"is_reserved":false,"is_disabled":false,"rental_uris":{"android":"levelo://app?vid=f1976778-9f9e-45d5-850e-5136ea6f16c1","ios":"levelo://app?vid=f1976778-9f9e-45d5-850e-5136ea6f16c1"},"vehicle_type_id":"4","last_reported":1784732082,"current_range_meters":38800,"station_id":"ce4bgn92rcd13ifvqbvg","pricing_plan_id":"cebpf4jnsgd1na2vs0mg"},{"bike_id":"7e9e7419-bd14-41c4-9b2a-255bb4604aff","system_id":"levelo_inurba_marseille","lat":43.29847,"lon":5.36275,"is_reserved":false,"is_disabled":false,"rental_uris":{"android":"levelo://app?vid=7e9e7419-bd14-41c4-9b2a-255bb4604aff","ios":"levelo://app?vid=7e9e7419-bd14-41c4-9b2a-255bb4604aff"},"vehicle_type_id":"4","last_reported":1784732082,"current_range_meters":36400,"station_id":"ce4bgpp2rcd13ifvqc3g","pricing_plan_id":"cebpf4jnsgd1na2vs0mg"},{"bike_id":"85577f01-1288-486c-bb81-65eaa3a60094","system_id":"levelo_inurba_marseille","lat":43.29272,"lon":5.38443,"is_reserved":false,"is_disabled":false,"rental_uris":{"android":"levelo://app?vid=85577f01-1288-486c-bb81-65eaa3a60094","ios":"levelo://app?vid=85577f01-1288-486c-bb81-65eaa3a60094"},"vehicle_type_id":"4","last_reported":1784732082,"current_range_meters":36000,"station_id":"ce4bh692rcd13ifvqea0","pricing_plan_id":"cebpf4jnsgd1na2vs0mg"},{"bike_id":"c5032ade-04c2-4ad9-acd6-0c757f219d04","system_id":"levelo_inurba_marseille","lat":43.31899,"lon":5.36798,"is_reserved":false,"is_disabled":false,"rental_uris":{"android":"levelo://app?vid=c5032ade-04c2-4ad9-acd6-0c757f219d04","ios":"levelo://app?vid=c5032ade-04c2-4ad9-acd6-0c757f219d04"},"vehicle_type_id":"4","last_reported":1784732082,"current_range_meters":11200,"station_id":"st_d6o2h0d0559c73evc1b0","pricing_plan_id":"cebpf4jnsgd1na2vs0mg"},{"bike_id":"479a25b1-c1db-4e38-9802-13b8f5b183f0","system_id":"levelo_inurba_marseille","lat":43.28485,"lon":5.48392,"is_reserved":false,"is_disabled":false,"rental_uris":{"android":"levelo://app?vid=479a25b1-c1db-4e38-9802-13b8f5b183f0","ios":"levelo://app?vid=479a25b1-c1db-4e38-9802-13b8f5b183f0"},"vehicle_type_id":"4","last_reported":1784732082,"current_range_meters":29600,"station_id":"st_d3svhcjqgbts73a3dn0g","pricing_plan_id":"cebpf4jnsgd1na2vs0mg"},{"bike_id":"5ba3de10-889b-4152-aef4-4bff1e010d26","system_id":"levelo_inurba_marseille","lat":43.32113,"lon":5.36763,"is_reserved":false,"is_disabled":false,"rental_uris":{"android":"levelo://app?vid=5ba3de10-889b-4152-aef4-4bff1e010d26","ios":"levelo://app?vid=5ba3de10-889b-4152-aef4-4bff1e010d26"},"vehicle_type_id":"4","last_reported":1784732082,"current_range_meters":11600,"station_id":"ce4bhrh2rcd13ifvqhug","pricing_plan_id":"cebpf4jnsgd1na2vs0mg"},{"bike_id":"4a44625a-98e7-4ffe-9d7a-43dbdd22c4d2","system_id":"levelo_inurba_marseille","lat":43.31438,"lon":5.37371,"is_reserved":false,"is_disabled":false,"rental_uris":{"android":"levelo://app?vid=4a44625a-98e7-4ffe-9d7a-43dbdd22c4d2","ios":"levelo://app?vid=4a44625a-98e7-4ffe-9d7a-43dbdd22c4d2"},"vehicle_type_id":"4","last_reported":1784732082,"current_range_meters":27600,"station_id":"","pricing_plan_id":"cebpf4jnsgd1na2vs0mg"},{"bike_id":"84cfb22e-cd2f-44b2-9fa0-6a1a4e81c5ed","system_id":"levelo_inurba_marseille","lat":43.25111,"lon":5.40311,"is_reserved":false,"is_disabled":false,"rental_uris":{"android":"levelo://app?vid=84cfb22e-cd2f-44b2-9fa0-6a1a4e81c5ed","ios":"levelo://app?vid=84cfb22e-cd2f-44b2-9fa0-6a1a4e81c5ed"},"vehicle_type_id":"4","last_reported":1784732082,"current_range_meters":22800,"station_id":"ce4bhlh2rcd13ifvqgig","pricing_plan_id":"cebpf4jnsgd1na2vs0mg"},{"bike_id":"f9f5af7d-957f-4114-912e-c173de40501c","system_id":"levelo_inurba_marseille","lat":43.30953,"lon":5.3905,"is_reserved":false,"is_disabled":false,"rental_uris":{"android":"levelo://app?vid=f9f5af7d-957f-4114-912e-c173de40501c","ios":"levelo://app?vid=f9f5af7d-957f-4114-912e-c173de40501c"},"vehicle_type_id":"4","last_reported":1784732082,"current_range_meters":10000,"station_id":"ce4bgup2rcd13ifvqco0","pricing_plan_id":"cebpf4jnsgd1na2vs0mg"},{"bike_id":"cc8568ab-2679-4305-9add-20ef1e360289","system_id":"levelo_inurba_marseille","lat":43.33784,"lon":5.37518,"is_reserved":false,"is_disabled":false,"rental_uris":{"android":"levelo://app?vid=cc8568ab-2679-4305-9add-20ef1e360289","ios":"levelo://app?vid=cc8568ab-2679-4305-9add-20ef1e360289"},"vehicle_type_id":"4","last_reported":1784732082,"current_range_meters":34800,"station_id":"","pricing_plan_id":"cebpf4jnsgd1na2vs0mg"},{"bike_id":"a8d1989d-e4bd-4130-be29-17f06b66de0e","system_id":"levelo_inurba_marseille","lat":43.31324,"lon":5.39698,"is_reserved":false,"is_disabled":false,"rental_uris":{"android":"levelo://app?vid=a8d1989d-e4bd-4130-be29-17f06b66de0e","ios":"levelo://app?vid=a8d1989d-e4bd-4130-be29-17f06b66de0e"},"vehicle_type_id":"4","last_reported":1784732082,"current_range_meters":30000,"station_id":"ce4bgvp2rcd13ifvqcu0","pricing_plan_id":"cebpf4jnsgd1na2vs0mg"},{"bike_id":"80f2fcef-357e-49cd-aa72-dbf1de6d4695","system_id":"levelo_inurba_marseille","lat":43.31899,"lon":5.36801,"is_reserved":false,"is_disabled":false,"rental_uris":{"android":"levelo://app?vid=80f2fcef-357e-49cd-aa72-dbf1de6d4695","ios":"levelo://app?vid=80f2fcef-357e-49cd-aa72-dbf1de6d4695"},"vehicle_type_id":"4","last_reported":1784732082,"current_range_meters":18800,"station_id":"st_d6o2h0d0559c73evc1b0","pricing_plan_id":"cebpf4jnsgd1na2vs0mg"},{"bike_id":"da4233c0-c0af-47c9-9d03-bfe159080fb5","system_id":"levelo_inurba_marseille","lat":43.3354,"lon":5.37462,"is_reserved":false,"is_disabled":false,"rental_uris":{"android":"levelo://app?vid=da4233c0-c0af-47c9-9d03-bfe159080fb5","ios":"levelo://app?vid=da4233c0-c0af-47c9-9d03-bfe159080fb5"},"vehicle_type_id":"4","last_reported":1784732082,"current_range_meters":28800,"station_id":"st_d46tts09ee8s73dlu43g","pricing_plan_id":"cebpf4jnsgd1na2vs0mg"},{"bike_id":"6677deb2-8e23-476b-8cf3-8a9596b297dd","system_id":"levelo_inurba_marseille","lat":43.29979,"lon":5.41317,"is_reserved":false,"is_disabled":false,"rental_uris":{"android":"levelo://app?vid=6677deb2-8e23-476b-8cf3-8a9596b297dd","ios":"levelo://app?vid=6677deb2-8e23-476b-8cf3-8a9596b297dd"},"vehicle_type_id":"4","last_reported":1784732082,"current_range_meters":38400,"station_id":"ce4bhp12rcd13ifvqh9g","pricing_plan_id":"cebpf4jnsgd1na2vs0mg"},{"bike_id":"d88b45a5-fda5-4824-aaa9-a2ae0cc2364d","system_id":"levelo_inurba_marseille","lat":43.24814,"lon":5.37448,"is_reserved":false,"is_disabled":false,"rental_uris":{"android":"levelo://app?vid=d88b45a5-fda5-4824-aaa9-a2ae0cc2364d","ios":"levelo://app?vid=d88b45a5-fda5-4824-aaa9-a2ae0cc2364d"},"vehicle_type_id":"4","last_reported":1784732082,"current_range_meters":39200,"station_id":"ce4bhgh2rcd13ifvqfb0","pricing_plan_id":"cebpf4jnsgd1na2vs0mg"},{"bike_id":"b47d92e5-f21f-41a4-9f0f-22e84a038b71","system_id":"levelo_inurba_marseille","lat":43.32356,"lon":5.36747,"is_reserved":false,"is_disabled":false,"rental_uris":{"android":"levelo://app?vid=b47d92e5-f21f-41a4-9f0f-22e84a038b71","ios":"levelo://app?vid=b47d92e5-f21f-41a4-9f0f-22e84a038b71"},"vehicle_type_id":"4","last_reported":1784732082,"current_range_meters":38800,"station_id":"ce4bhsh2rcd13ifvqi2g","pricing_plan_id":"cebpf4jnsgd1na2vs0mg"},{"bike_id":"24562537-d892-46b0-8d1f-b9806d00c57d","system_id":"levelo_inurba_marseille","lat":43.29659,"lon":5.37126,"is_reserved":false,"is_disabled":true,"rental_uris":{"android":"levelo://app?vid=24562537-d892-46b0-8d1f-b9806d00c57d","ios":"levelo://app?vid=24562537-d892-46b0-8d1f-b9806d00c57d"},"vehicle_type_id":"4","last_reported":1784732082,"current_range_meters":25200,"station_id":"","pricing_plan_id":"cebpf4jnsgd1na2vs0mg"},