{"last_updated":1690754739,"ttl":30,"version":"2.2","data":{"bikes":[{"bike_id":"2fba3d0e-258a-48bb-9a36-3c28e9ab46dc","system_id":"levelo_inurba_marseille","lat":43.31221,"lon":5.36846,"is_reserved":false,"is_disabled":false,"rental_uris":{"android":"levelo://app?vid=2fba3d0e-258a-48bb-9a36-3c28e9ab46dc","ios":"levelo://app?vid=2fba3d0e-258a-48bb-9a36-3c28e9ab46dc"},"vehicle_type_id":"4","last_reported":1690754739,"current_range_meters":7600,"station_id":"ce4bgl92rcd13ifvqbq0","pricing_plan_id":"free"},{"bike_id":"e526d4e2-849c-44ae-a0d7-5572a62df909","system_id":"levelo_inurba_marseille","lat":43.31237,"lon":5.36878,"is_reserved":false,"is_disabled":false,"rental_uris":{"android":"levelo://app?vid=e526d4e2-849c-44ae-a0d7-5572a62df909","ios":"levelo://app?vid=e526d4e2-849c-44ae-a0d7-5572a62df909"},"vehicle_type_id":"4","last_reported":1690754739,"current_range_meters":21600,"station_id":"ce4bgl92rcd13ifvqbq0","pricing_plan_id":"free"},{"bike_id":"7e865bd5-0ad9-41f0-85ae-47afafe89cfd","system_id":"levelo_inurba_marseille","lat":43.31251,"lon":5.36883,"is_reserved":false,"is_disabled":false,"rental_uris":{"android":"levelo://app?vid=7e865bd5-0ad9-41f0-85ae-47afafe89cfd","ios":"levelo://app?vid=7e865bd5-0ad9-41f0-85ae-47afafe89cfd"},"vehicle_type_id":"4","last_reported":1690754739,"current_range_meters":20000,"station_id":"ce4bgl92rcd13ifvqbq0","pricing_plan_id":"free"},{"bike_id":"03549ff8-48a6-4696-8110-0f835c8cdd0d","system_id":"levelo_inurba_marseille","lat":43.309076,"lon":5.368465,"is_reserved":false,"is_disabled":false,"rental_uris":{"android":"levelo://app?vid=03549ff8-48a6-4696-8110-0f835c8cdd0d","ios":"levelo://app?vid=03549ff8-48a6-4696-8110-0f835c8cdd0d"},"vehicle_type_id":"4","last_reported":1690754739,"current_range_meters":27600,"station_id":"ce4bgn92rcd13ifvqbvg","pricing_plan_id":"free"},{"bike_id":"bc2bc7e9-4ef4-4649-b7eb-2279c9a9671b","system_id":"levelo_inurba_marseille","lat":43.305989,"lon":5.37225,"is_reserved":false,"is_disabled":false,"rental_uris":{"android":"levelo://app?vid=bc2bc7e9-4ef4-4649-b7eb-2279c9a9671b","ios":"levelo://app?vid=bc2bc7e9-4ef4-4649-b7eb-2279c9a9671b"},"vehicle_type_id":"4","last_reported":1690754739,"current_range_meters":16400,"station_id":"ce4bgqh2rcd13ifvqc4g","pricing_plan_id":"free"},{"bike_id":"a12840c2-3ecf-475b-84a2-72e21fbe28ec","system_id":"levelo_inurba_marseille","lat":43.305989,"lon":5.37225,"is_reserved":false,"is_disabled":false,"rental_uris":{"android":"levelo://app?vid=a12840c2-3ecf-475b-84a2-72e21fbe28ec","ios":"levelo://app?vid=a12840c2-3ecf-475b-84a2-72e21fbe28ec"},"vehicle_type_id":"4","last_reported":1690754739,"current_range_meters":6800,"station_id":"ce4bgqh2rcd13ifvqc4g","pricing_plan_id":"free"},{"bike_id":"1ec5f8e2-ca56-42bc-9ee3-55c90591552c","system_id":"levelo_inurba_marseille","lat":43.305989,"lon":5.37225,"is_reserved":false,"is_disabled":false,"rental_uris":{"android":"levelo://app?vid=1ec5f8e2-ca56-42bc-9ee3-55c90591552c","ios":"levelo://app?vid=1ec5f8e2-ca56-42bc-9ee3-55c90591552c"},"vehicle_type_id":"4","last_reported":1690754739,"current_range_meters":31200,"station_id":"ce4bgqh2rcd13ifvqc4g","pricing_plan_id":"free"},{"bike_id":"f20ea888-8740-440b-bfeb-8eb2a7c1f652","system_id":"levelo_inurba_marseille","lat":43.305989,"lon":5.37225,"is_reserved":false,"is_disabled":false,"rental_uris":{"android":"levelo://app?vid=f20ea888-8740-440b-bfeb-8eb2a7c1f652","ios":"levelo://app?vid=f20ea888-8740-440b-bfeb-8eb2a7c1f652"},"vehicle_type_id":"4","last_reported":1690754739,"current_range_meters":23600,"station_id":"ce4bgqh2rcd13ifvqc4g","pricing_plan_id":"free"},{"bike_id":"c4a28b91-d55d-4294-815d-feec2d04f018","system_id":"levelo_inurba_marseille","lat":43.311131,"lon":5.377651,"is_reserved":false,"is_disabled":false,"rental_uris":{"android":"levelo://app?vid=c4a28b91-d55d-4294-815d-feec2d04f018","ios":"levelo://app?vid=c4a28b91-d55d-4294-815d-feec2d04f018"},"vehicle_type_id":"4","last_reported":1690754739,"current_range_meters":16400,"station_id":"ce4bgt92rcd13ifvqcg0","pricing_plan_id":"free"},{"bike_id":"6924d9c9-fbe5-448f-a9dd-ca9a079756ee","system_id":"levelo_inurba_marseille","lat":43.311125,"lon":5.377624,"is_reserved":false,"is_disabled":false,"rental_uris":{"android":"levelo://app?vid=6924d9c9-fbe5-448f-a9dd-ca9a079756ee","ios":"levelo://app?vid=6924d9c9-fbe5-448f-a9dd-ca9a079756ee"},"vehicle_type_id":"4","last_reported":1690754739,"current_range_meters":7600,"station_id":"ce4bgt92rcd13ifvqcg0","pricing_plan_id":"free"},{"bike_id":"37abc771-f294-4699-9aa8-b42275b80648","system_id":"levelo_inurba_marseille","lat":43.311125,"lon":5.377624,"is_reserved":false,"is_disabled":false,"rental_uris":{"android":"levelo://app?vid=37abc771-f294-4699-9aa8-b42275b80648","ios":"levelo://app?vid=37abc771-f294-4699-9aa8-b42275b80648"},"vehicle_type_id":"4","last_reported":1690754739,"current_range_meters":4000,"station_id":"ce4bgt92rcd13ifvqcg0","pricing_plan_id":"free"},{"bike_id":"73ee6a20-5359-4cda-b737-42146f11a701","system_id":"levelo_inurba_marseille","lat":43.311125,"lon":5.377624,"is_reserved":false,"is_disabled":false,"rental_uris":{"android":"levelo://app?vid=73ee6a20-5359-4cda-b737-42146f11a701","ios":"levelo://app?vid=73ee6a20-5359-4cda-b737-42146f11a701"},"vehicle_type_id":"4","last_reported":1690754739,"current_range_meters":28400,"station_id":"ce4bgt92rcd13ifvqcg0","pricing_plan_id":"free"},{"bike_id":"b8a4bc0c-0d2c-4601-beb3-b4439aeb3f3a","system_id":"levelo_inurba_marseille","lat":43.311125,"lon":5.377624,"is_reserved":false,"is_disabled":false,"rental_uris":{"android":"levelo://app?vid=b8a4bc0c-0d2c-4601-beb3-b4439aeb3f3a","ios":"levelo://app?vid=b8a4bc0c-0d2c-4601-beb3-b4439aeb3f3a"},"vehicle_type_id":"4","last_reported":1690754739,"current_range_meters":28000,"station_id":"ce4bgt92rcd13ifvqcg0","pricing_plan_id":"free"},{"bike_id":"24e76233-c2dd-4d60-bf7b-07765ddba55e","system_id":"levelo_inurba_marseille","lat":43.30787,"lon":5.37636,"is_reserved":false,"is_disabled":false,"rental_uris":{"android":"levelo://app?vid=24e76233-c2dd-4d60-bf7b-07765ddba55e","ios":"levelo://app?vid=24e76233-c2dd-4d60-bf7b-07765ddba55e"},"vehicle_type_id":"4","last_reported":1690754739,"current_range_meters":30800,"station_id":"ce4bgv92rcd13ifvqcq0","pricing_plan_id":"free"},{"bike_id":"6b1737f3-fc1a-4d2c-8537-684ff1b601f6","system_id":"levelo_inurba_marseille","lat":43.31685,"lon":5.3774,"is_reserved":false,"is_disabled":false,"rental_uris":{"android":"levelo://app?vid=6b1737f3-fc1a-4d2c-8537-684ff1b601f6","ios":"levelo://app?vid=6b1737f3-fc1a-4d2c-8537-684ff1b601f6"},"vehicle_type_id":"4","last_reported":1690754739,"current_range_meters":7600,"station_id":"ce4bgth2rcd13ifvqch0","pricing_plan_id":"free"},{"bike_id":"5d093696-a0ac-4195-941c-d592dcd38df4","system_id":"levelo_inurba_marseille","lat":43.31705,"lon":5.37758,"is_reserved":false,"is_disabled":false,"rental_uris":{"android":"levelo://app?vid=5d093696-a0ac-4195-941c-d592dcd38df4","ios":"levelo://app?vid=5d093696-a0ac-4195-941c-d592dcd38df4"},"vehicle_type_id":"4","last_reported":1690754739,"current_range_meters":12400,"station_id":"ce4bgth2rcd13ifvqch0","pricing_plan_id":"free"},{"bike_id":"853e7613-8302-4aca-a554-492cf60aa406","system_id":"levelo_inurba_marseille","lat":43.317075,"lon":5.377367,"is_reserved":false,"is_disabled":false,"rental_uris":{"android":"levelo://app?vid=853e7613-8302-4aca-a554-492cf60aa406","ios":"levelo://app?vid=853e7613-8302-4aca-a554-492cf60aa406"},"vehicle_type_id":"4","last_reported":1690754739,"current_range_meters":22400,"station_id":"ce4bgth2rcd13ifvqch0","pricing_plan_id":"free"},{"bike_id":"fa5e6361-dae5-413a-9f4e-a63e1500f7ea","system_id":"levelo_inurba_marseille","lat":43.30304,"lon":5.36891,"is_reserved":false,"is_disabled":false,"rental_uris":{"android":"levelo://app?vid=fa5e6361-dae5-413a-9f4e-a63e1500f7ea","ios":"levelo://app?vid=fa5e6361-dae5-413a-9f4e-a63e1500f7ea"},"vehicle_type_id":"4","last_reported":1690754739,"current_range_meters":10400,"station_id":"ce4bgqh2rcd13ifvqc5g","pricing_plan_id":"free"},{"bike_id":"9c1a6130-32ab-4254-82e7-e05de6b38888","system_id":"levelo_inurba_marseille","lat":43.315293,"lon":5.380349,"is_reserved":false,"is_disabled":false,"rental_uris":{"android":"levelo://app?vid=9c1a6130-32ab-4254-82e7-e05de6b38888","ios":"levelo://app?vid=9c1a6130-32ab-4254-82e7-e05de6b38888"},"vehicle_type_id":"4","last_reported":1690754739,"current_range_meters":23200,"station_id":"ce4bhsp2rcd13ifvqi50","pricing_plan_id":"free"},{"bike_id":"d210f22d-6a89-4105-b515-6a0e18972171","system_id":"levelo_inurba_marseille","lat":43.308032,"lon":5.381489,"is_reserved":false,"is_disabled":false,"rental_uris":{"android":"levelo://app?vid=d210f22d-6a89-4105-b515-6a0e18972171","ios":"levelo://app?vid=d210f22d-6a89-4105-b515-6a0e18972171"},"vehicle_type_id":"4","last_reported":1690754739,"current_range_meters":23600,"station_id":"","pricing_plan_id":"free"},{"bike_id":"d71c3d88-3ed3-4a6f-8d16-8466a7720a3e","system_id":"levelo_inurba_marseille","lat":43.304606,"lon":5.379026,"is_reserved":false,"is_disabled":false,"rental_uris":{"android":"levelo://app?vid=d71c3d88-3ed3-4a6f-8d16-8466a7720a3e","ios":"levelo://app?vid=d71c3d88-3ed3-4a6f-8d16-8466a7720a3e"},"vehicle_type_id":"4","last_reported":1690754739,"current_range_meters":8800,"station_id":"ce4bgup2rcd13ifvqcn0","pricing_plan_id":"free"},{"bike_id":"ed0ce687-b16a-4730-a06f-1a7ac63e86de","system_id":"levelo_inurba_marseille","lat":43.304606,"lon":5.379026,"is_reserved":false,"is_disabled":false,"rental_uris":{"android":"levelo://app?vid=ed0ce687-b16a-4730-a06f-1a7ac63e86de","ios":"levelo://app?vid=ed0ce687-b16a-4730-a06f-1a7ac63e86de"},"vehicle_type_id":"4","last_reported":1690754739,"current_range_meters":24800,"station_id":"ce4bgup2rcd13ifvqcn0","pricing_plan_id":"free"},{"bike_id":"5bc30ebd-f380-4cd4-a0cb-86ce8e0aa0b5","system_id":"levelo_inurba_marseille","lat":43.30154,"lon":5.37421,"is_reserved":false,"is_disabled":false,"rental_uris":{"android":"levelo://app?vid=5bc30ebd-f380-4cd4-a0cb-86ce8e0aa0b5","ios":"levelo://app?vid=5bc30ebd-f380-4cd4-a0cb-86ce8e0aa0b5"},"vehicle_type_id":"4","last_reported":1690754739,"current_range_meters":3600,"station_id":"ce4bgs92rcd13ifvqcc0","pricing_plan_id":"free"},{"bike_id":"ed260b46-6646-4d69-ac20-67a7b72e69ba","system_id":"levelo_inurba_marseille","lat":43.302784,"lon":5.377158,"is_reserved":false,"is_disabled":false,"rental_uris":{"android":"levelo://app?vid=ed260b46-6646-4d69-ac20-67a7b72e69ba","ios":"levelo://app?vid=ed260b46-6646-4d69-ac20-67a7b72e69ba"},"vehicle_type_id":"4","last_reported":1690754739,"current_range_meters":20400,"station_id":"ce4bguh2rcd13ifvqcj0","pricing_plan_id":"free"},{"bike_id":"aae37da7-f8a3-4566-bc08-ae27ef65e455","system_id":"levelo_inurba_marseille","lat":43.30144,"lon":5.37416,"is_reserved":false,"is_disabled":false,"rental_uris":{"android":"levelo://app?vid=aae37da7-f8a3-4566-bc08-ae27ef65e455","ios":"levelo://app?vid=aae37da7-f8a3-4566-bc08-ae27ef65e455"},"vehicle_type_id":"4","last_reported":1690754739,"current_range_meters":14400,"station_id":"ce4bgs92rcd13ifvqcc0","pricing_plan_id":"free"},{"bike_id":"4f35c9e7-a8ce-4817-83d1-7dae8f34fee3","system_id":"levelo_inurba_marseille","lat":43.31994,"lon":5.38151,"is_reserved":false,"is_disabled":false,"rental_uris":{"android":"levelo://app?vid=4f35c9e7-a8ce-4817-83d1-7dae8f34fee3","ios":"levelo://app?vid=4f35c9e7-a8ce-4817-83d1-7dae8f34fee3"},"vehicle_type_id":"4","last_reported":1690754739,"current_range_meters":4000,"station_id":"ce4bhr12rcd13ifvqhpg","pricing_plan_id":"free"},{"bike_id":"941ee9cb-d06b-4cb4-9196-9357d0edd36a","system_id":"levelo_inurba_marseille","lat":43.319935,"lon":5.381699,"is_reserved":false,"is_disabled":false,"rental_uris":{"android":"levelo://app?vid=941ee9cb-d06b-4cb4-9196-9357d0edd36a","ios":"levelo://app?vid=941ee9cb-d06b-4cb4-9196-9357d0edd36a"},"vehicle_type_id":"4","last_reported":1690754739,"current_range_meters":6000,"station_id":"ce4bhr12rcd13ifvqhpg","pricing_plan_id":"free"},{"bike_id":"e79a6720-2929-4790-abe9-3f1042e45293","system_id":"levelo_inurba_marseille","lat":43.319935,"lon":5.381699,"is_reserved":false,"is_disabled":false,"rental_uris":{"android":"levelo://app?vid=e79a6720-2929-4790-abe9-3f1042e45293","ios":"levelo://app?vid=e79a6720-2929-4790-abe9-3f1042e45293"},"vehicle_type_id":"4","last_reported":1690754739,"current_range_meters":23600,"station_id":"ce4bhr12rcd13ifvqhpg","pricing_plan_id":"free"},{"bike_id":"280e31a3-5b3a-4273-85fe-7bb230e05d6d","system_id":"levelo_inurba_marseille","lat":43.313571,"lon":5.384829,"is_reserved":false,"is_disabled":false,"rental_uris":{"android":"levelo://app?vid=280e31a3-5b3a-4273-85fe-7bb230e05d6d","ios":"levelo://app?vid=280e31a3-5b3a-4273-85fe-7bb230e05d6d"},"vehicle_type_id":"4","last_reported":1690754739,"current_range_meters":24400,"station_id":"ce4bgt92rcd13ifvqcf0","pricing_plan_id":"free"},{"bike_id":"37cd8de6-cf15-4a74-bd04-c743a2ff837e","system_id":"levelo_inurba_marseille","lat":43.313571,"lon":5.384829,"is_reserved":false,"is_disabled":false,"rental_uris":{"android":"levelo://app?vid=37cd8de6-cf15-4a74-bd04-c743a2ff837e","ios":"levelo://app?vid=37cd8de6-cf15-4a74-bd04-c743a2ff837e"},"vehicle_type_id":"4","last_reported":1690754739,"current_range_meters":29600,"station_id":"ce4bgt92rcd13ifvqcf0","pricing_plan_id":"free"},{"bike_id":"37989ff0-891c-4b94-8792-0f452b952828","system_id":"levelo_inurba_marseille","lat":43.313571,"lon":5.384829,"is_reserved":false,"is_disabled":false,"rental_uris":{"android":"levelo://app?vid=37989ff0-891c-4b94-8792-0f452b952828","ios":"levelo://app?vid=37989ff0-891c-4b94-8792-0f452b952828"},"vehicle_type_id":"4","last_reported":1690754739,"current_range_meters":8000,"station_id":"ce4bgt92rcd13ifvqcf0","pricing_plan_id":"free"},{"bike_id":"78b45ef6-dde2-47f3-9e9f-ee25f42b2f0c","system_id":"levelo_inurba_marseille","lat":43.313571,"lon":5.384829,"is_reserved":false,"is_disabled":false,"rental_uris":{"android":"levelo://app?vid=78b45ef6-dde2-47f3-9e9f-ee25f42b2f0c","ios":"levelo://app?vid=78b45ef6-dde2-47f3-9e9f-ee25f42b2f0c"},"vehicle_type_id":"4","last_reported":1690754739,"current_range_meters":30800,"station_id":"ce4bgt92rcd13ifvqcf0","pricing_plan_id":"free"},{"bike_id":"936a4348-ec17-4422-b029-995844038c91","system_id":"levelo_inurba_marseille","lat":43.29979,"lon":5.37178,"is_reserved":false,"is_disabled":false,"rental_uris":{"android":"levelo://app?vid=936a4348-ec17-4422-b029-995844038c91","ios":"levelo://app?vid=936a4348-ec17-4422-b029-995844038c91"},"vehicle_type_id":"4","last_reported":1690754739,"current_range_meters":7200,"station_id":"ce4bgr92rcd13ifvqc7g","pricing_plan_id":"free"},{"bike_id":"8d8a50aa-2333-4d70-9e32-d267923a542f","system_id":"levelo_inurba_marseille","lat":43.299724,"lon":5.371829,"is_reserved":false,"is_disabled":false,"rental_uris":{"android":"levelo://app?vid=8d8a50aa-2333-4d70-9e32-d267923a542f","ios":"levelo://app?vid=8d8a50aa-2333-4d70-9e32-d267923a542f"},"vehicle_type_id":"4","last_reported":1690754739,"current_range_meters":7600,"station_id":"ce4bgr92rcd13ifvqc7g","pricing_plan_id":"free"},{"bike_id":"7a0e0abc-fff0-4130-8b8b-4fce57ba3c5f","system_id":"levelo_inurba_marseille","lat":43.29969,"lon":5.37177,"is_reserved":false,"is_disabled":false,"rental_uris":{"android":"levelo://app?vid=7a0e0abc-fff0-4130-8b8b-4fce57ba3c5f","ios":"levelo://app?vid=7a0e0abc-fff0-4130-8b8b-4fce57ba3c5f"},"vehicle_type_id":"4","last_reported":1690754739,"current_range_meters":28400,"station_id":"ce4bgr92rcd13ifvqc7g","pricing_plan_id":"free"},{"bike_id":"1ebb9c25-aaf6-4601-8a0d-45f0f5044534","system_id":"levelo_inurba_marseille","lat":43.30545,"lon":5.38422,"is_reserved":false,"is_disabled":false,"rental_uris":{"android":"levelo://app?vid=1ebb9c25-aaf6-4601-8a0d-45f0f5044534","ios":"levelo://app?vid=1ebb9c25-aaf6-4601-8a0d-45f0f5044534"},"vehicle_type_id":"4","last_reported":1690754739,"current_range_meters":29200,"station_id":"ce4bgg92rcd13ifvqb30","pricing_plan_id":"free"},{"bike_id":"5a05bf15-36f3-4cee-a8ca-5f7a0edf4034","system_id":"levelo_inurba_marseille","lat":43.305364,"lon":5.384119,"is_reserved":false,"is_disabled":false,"rental_uris":{"android":"levelo://app?vid=5a05bf15-36f3-4cee-a8ca-5f7a0edf4034","ios":"levelo://app?vid=5a05bf15-36f3-4cee-a8ca-5f7a0edf4034"},"vehicle_type_id":"4","last_reported":1690754739,"current_range_meters":8000,"station_id":"ce4bgg92rcd13ifvqb30","pricing_plan_id":"free"},{"bike_id":"945e632a-1ba9-4576-b158-e425d9b42e4b","system_id":"levelo_inurba_marseille","lat":43.305391,"lon":5.384259,"is_reserved":false,"is_disabled":false,"rental_uris":{"android":"levelo://app?vid=945e632a-1ba9-4576-b158-e425d9b42e4b","ios":"levelo://app?vid=945e632a-1ba9-4576-b158-e425d9b42e4b"},"vehicle_type_id":"4","last_reported":1690754739,"current_range_meters":4000,"station_id":"","pricing_plan_id":"free"},{"bike_id":"30537d43-af02-4a10-b928-7b9b8cf633d2","system_id":"levelo_inurba_marseille","lat":43.30547,"lon":5.38433,"is_reserved":false,"is_disabled":false,"rental_uris":{"android":"levelo://app?vid=30537d43-af02-4a10-b928-7b9b8cf633d2","ios":"levelo://app?vid=30537d43-af02-4a10-b928-7b9b8cf633d2"},"vehicle_type_id":"4","last_reported":1690754739,"current_range_meters":29600,"station_id":"ce4bgg92rcd13ifvqb30","pricing_plan_id":"free"},{"bike_id":"1a995332-ecfc-4c10-9cac-3de6038451e2","system_id":"levelo_inurba_marseille","lat":43.30547,"lon":5.38433,"is_reserved":false,"is_disabled":false,"rental_uris":{"android":"levelo://app?vid=1a995332-ecfc-4c10-9cac-3de6038451e2","ios":"levelo://app?vid=1a995332-ecfc-4c10-9cac-3de6038451e2"},"vehicle_type_id":"4","last_reported":1690754739,"current_range_meters":31200,"station_id":"ce4bgg92rcd13ifvqb30","pricing_plan_id":"free"},{"bike_id":"c9aef9ef-dbf3-4f56-bae8-31986d1a4a8e","system_id":"levelo_inurba_marseille","lat":43.305422,"lon":5.384312,"is_reserved":false,"is_disabled":false,"rental_uris":{"android":"levelo://app?vid=c9aef9ef-dbf3-4f56-bae8-31986d1a4a8e","ios":"levelo://app?vid=c9aef9ef-dbf3-4f56-bae8-31986d1a4a8e"},"vehicle_type_id":"4","last_reported":1690754739,"current_range_meters":13200,"station_id":"","pricing_plan_id":"free"},{"bike_id":"a7fc118a-692d-4405-9424-0d61b61a1e02","system_id":"levelo_inurba_marseille","lat":43.299243,"lon":5.374807,"is_reserved":false,"is_disabled":false,"rental_uris":{"android":"levelo://app?vid=a7fc118a-692d-4405-9424-0d61b61a1e02","ios":"levelo://app?vid=a7fc118a-692d-4405-9424-0d61b61a1e02"},"vehicle_type_id":"4","last_reported":1690754739,"current_range_meters":14000,"station_id":"ce4bgjh2rcd13ifvqbg0","pricing_plan_id":"free"},{"bike_id":"b902fb9c-26b9-4a54-a781-e7d3746b8b14","system_id":"levelo_inurba_marseille","lat":43.31169,"lon":5.38708,"is_reserved":false,"is_disabled":false,"rental_uris":{"android":"levelo://app?vid=b902fb9c-26b9-4a54-a781-e7d3746b8b14","ios":"levelo://app?vid=b902fb9c-26b9-4a54-a781-e7d3746b8b14"},"vehicle_type_id":"4","last_reported":1690754739,"current_range_meters":4800,"station_id":"ce4bgv12rcd13ifvqcp0","pricing_plan_id":"free"},{"bike_id":"d490a686-216e-4c50-91d3-967358808bc6","system_id":"levelo_inurba_marseille","lat":43.311722,"lon":5.387247,"is_reserved":false,"is_disabled":false,"rental_uris":{"android":"levelo://app?vid=d490a686-216e-4c50-91d3-967358808bc6","ios":"levelo://app?vid=d490a686-216e-4c50-91d3-967358808bc6"},"vehicle_type_id":"4","last_reported":1690754739,"current_range_meters":6400,"station_id":"ce4bgv12rcd13ifvqcp0","pricing_plan_id":"free"},{"bike_id":"0697fda6-a027-4f08-a4b7-53bca15ff14f","system_id":"levelo_inurba_marseille","lat":43.311722,"lon":5.387247,"is_reserved":false,"is_disabled":false,"rental_uris":{"android":"levelo://app?vid=0697fda6-a027-4f08-a4b7-53bca15ff14f","ios":"levelo://app?vid=0697fda6-a027-4f08-a4b7-53bca15ff14f"},"vehicle_type_id":"4","last_reported":1690754739,"current_range_meters":30000,"station_id":"ce4bgv12rcd13ifvqcp0","pricing_plan_id":"free"},{"bike_id":"82f1e03d-e4c3-4aac-b6f0-c9fc3950fe62","system_id":"levelo_inurba_marseille","lat":43.322919,"lon":5.382674,"is_reserved":false,"is_disabled":false,"rental_uris":{"android":"levelo://app?vid=82f1e03d-e4c3-4aac-b6f0-c9fc3950fe62","ios":"levelo://app?vid=82f1e03d-e4c3-4aac-b6f0-c9fc3950fe62"},"vehicle_type_id":"4","last_reported":1690754739,"current_range_meters":19200,"station_id":"","pricing_plan_id":"free"},{"bike_id":"aff0017d-8d19-4b8c-8490-dfc322af04d7","system_id":"levelo_inurba_marseille","lat":43.32289,"lon":5.38275,"is_reserved":false,"is_disabled":false,"rental_uris":{"android":"levelo://app?vid=aff0017d-8d19-4b8c-8490-dfc322af04d7","ios":"levelo://app?vid=aff0017d-8d19-4b8c-8490-dfc322af04d7"},"vehicle_type_id":"4","last_reported":1690754739,"current_range_meters":30800,"station_id":"ce4bhr12rcd13ifvqhqg","pricing_plan_id":"free"},{"bike_id":"a87c3d89-8ecc-4c20-a387-7842b25267e1","system_id":"levelo_inurba_marseille","lat":43.32292,"lon":5.38274,"is_reserved":false,"is_disabled":false,"rental_uris":{"android":"levelo://app?vid=a87c3d89-8ecc-4c20-a387-7842b25267e1","ios":"levelo://app?vid=a87c3d89-8ecc-4c20-a387-7842b25267e1"},"vehicle_type_id":"4","last_reported":1690754739,"current_range_meters":27200,"station_id":"ce4bhr12rcd13ifvqhqg","pricing_plan_id":"free"},{"bike_id":"a196dbb0-0ca2-44b0-8b03-b7d3a734d20c","system_id":"levelo_inurba_marseille","lat":43.32294,"lon":5.38272,"is_reserved":false,"is_disabled":false,"rental_uris":{"android":"levelo://app?vid=a196dbb0-0ca2-44b0-8b03-b7d3a734d20c","ios":"levelo://app?vid=a196dbb0-0ca2-44b0-8b03-b7d3a734d20c"},"vehicle_type_id":"4","last_reported":1690754739,"current_range_meters":22800,"station_id":"ce4bhr12rcd13ifvqhqg","pricing_plan_id":"free"},{"bike_id":"79bf6da4-5f08-488b-96b1-6e23f74ec5ec","system_id":"levelo_inurba_marseille","lat":43.322872,"lon":5.382756,"is_reserved":false,"is_disabled":false,"rental_uris":{"android":"levelo://app?vid=79bf6da4-5f08-488b-96b1-6e23f74ec5ec","ios":"levelo://app?vid=79bf6da4-5f08-488b-96b1-6e23f74ec5ec"},"vehicle_type_id":"4","last_reported":1690754739,"current_range_meters":30800,"station_id":"ce4bhr12rcd13ifvqhqg","pricing_plan_id":"free"},{"bike_id":"dd789220-e7b5-42c1-b9dc-dc4243148021","system_id":"levelo_inurba_marseille","lat":43.297163,"lon":5.365866,"is_reserved":false,"is_disabled":false,"rental_uris":{"android":"levelo://app?vid=dd789220-e7b5-42c1-b9dc-dc4243148021","ios":"levelo://app?vid=dd789220-e7b5-42c1-b9dc-dc4243148021"},"vehicle_type_id":"4","last_reported":1690754739,"current_range_meters":31200,"station_id":"ce4bgn12rcd13ifvqbt0","pricing_plan_id":"free"},{"bike_id":"7a3debfb-a4c2-4cbf-a70c-be28fe4f20ea","system_id":"levelo_inurba_marseille","lat":43.32829,"lon":5.36677,"is_reserved":false,"is_disabled":false,"rental_uris":{"android":"levelo://app?vid=7a3debfb-a4c2-4cbf-a70c-be28fe4f20ea","ios":"levelo://app?vid=7a3debfb-a4c2-4cbf-a70c-be28fe4f20ea"},"vehicle_type_id":"4","last_reported":1690754739,"current_range_meters":13200,"station_id":"ce4bhs92rcd13ifvqi0g","pricing_plan_id":"free"},{"bike_id":"ba543930-ea89-481b-8954-dac7bef78258","system_id":"levelo_inurba_marseille","lat":43.2968,"lon":5.37291,"is_reserved":false,"is_disabled":false,"rental_uris":{"android":"levelo://app?vid=ba543930-ea89-481b-8954-dac7bef78258","ios":"levelo://app?vid=ba543930-ea89-481b-8954-dac7bef78258"},"vehicle_type_id":"4","last_reported":1690754739,"current_range_meters":26400,"station_id":"ce4bgk12rcd13ifvqbj0","pricing_plan_id":"free"},{"bike_id":"b8d39965-e18c-4ebd-87db-fb4d1ececeab","system_id":"levelo_inurba_marseille","lat":43.29573,"lon":5.367355,"is_reserved":false,"is_disabled":false,"rental_uris":{"android":"levelo://app?vid=b8d39965-e18c-4ebd-87db-fb4d1ececeab","ios":"levelo://app?vid=b8d39965-e18c-4ebd-87db-fb4d1ececeab"},"vehicle_type_id":"4","last_reported":1690754739,"current_range_meters":8000,"station_id":"ce4bgph2rcd13ifvqc2g","pricing_plan_id":"free"},{"bike_id":"e5a677b8-04f2-43ba-9e7d-0022b33a5253","system_id":"levelo_inurba_marseille","lat":43.296935,"lon":5.376544,"is_reserved":false,"is_disabled":false,"rental_uris":{"android":"levelo://app?vid=e5a677b8-04f2-43ba-9e7d-0022b33a5253","ios":"levelo://app?vid=e5a677b8-04f2-43ba-9e7d-0022b33a5253"},"vehicle_type_id":"4","last_reported":1690754739,"current_range_meters":10800,"station_id":"ce4bgkh2rcd13ifvqbl0","pricing_plan_id":"free"},{"bike_id":"f0b1921d-8fc5-42f6-8214-26455e772ce5","system_id":"levelo_inurba_marseille","lat":43.30953,"lon":5.39042,"is_reserved":false,"is_disabled":false,"rental_uris":{"android":"levelo://app?vid=f0b1921d-8fc5-42f6-8214-26455e772ce5","ios":"levelo://app?vid=f0b1921d-8fc5-42f6-8214-26455e772ce5"},"vehicle_type_id":"4","last_reported":1690754739,"current_range_meters":27600,"station_id":"ce4bgup2rcd13ifvqco0","pricing_plan_id":"free"},{"bike_id":"cec16097-2f93-4fae-a576-dac723131263","system_id":"levelo_inurba_marseille","lat":43.317557,"lon":5.390173,"is_reserved":false,"is_disabled":false,"rental_uris":{"android":"levelo://app?vid=cec16097-2f93-4fae-a576-dac723131263","ios":"levelo://app?vid=cec16097-2f93-4fae-a576-dac723131263"},"vehicle_type_id":"4","last_reported":1690754739,"current_range_meters":3200,"station_id":"ce4bhqp2rcd13ifvqhng","pricing_plan_id":"free"},{"bike_id":"02eb5c08-d748-44a2-b771-9d2b2c81f6b6","system_id":"levelo_inurba_marseille","lat":43.29804,"lon":5.38095,"is_reserved":false,"is_disabled":false,"rental_uris":{"android":"levelo://app?vid=02eb5c08-d748-44a2-b771-9d2b2c81f6b6","ios":"levelo://app?vid=02eb5c08-d748-44a2-b771-9d2b2c81f6b6"},"vehicle_type_id":"4","last_reported":1690754739,"current_range_meters":9200,"station_id":"ce4bgip2rcd13ifvqbb0","pricing_plan_id":"free"},{"bike_id":"a1887ee0-8a5d-4672-9e26-ec21ad47ba5c","system_id":"levelo_inurba_marseille","lat":43.29606,"lon":5.37707,"is_reserved":false,"is_disabled":false,"rental_uris":{"android":"levelo://app?vid=a1887ee0-8a5d-4672-9e26-ec21ad47ba5c","ios":"levelo://app?vid=a1887ee0-8a5d-4672-9e26-ec21ad47ba5c"},"vehicle_type_id":"4","last_reported":1690754739,"current_range_meters":4400,"station_id":"ce4bgi92rcd13ifvqb90","pricing_plan_id":"free"},{"bike_id":"e70a84d1-9f76-4cef-9458-59628982dbc8","system_id":"levelo_inurba_marseille","lat":43.29974,"lon":5.38485,"is_reserved":false,"is_disabled":false,"rental_uris":{"android":"levelo://app?vid=e70a84d1-9f76-4cef-9458-59628982dbc8","ios":"levelo://app?vid=e70a84d1-9f76-4cef-9458-59628982dbc8"},"vehicle_type_id":"4","last_reported":1690754739,"current_range_meters":14400,"station_id":"ce4bgj92rcd13ifvqbd0","pricing_plan_id":"free"},{"bike_id":"9719544f-8502-4d18-82b2-0b0eecf69745","system_id":"levelo_inurba_marseille","lat":43.299717,"lon":5.384845,"is_reserved":false,"is_disabled":false,"rental_uris":{"android":"levelo://app?vid=9719544f-8502-4d18-82b2-0b0eecf69745","ios":"levelo://app?vid=9719544f-8502-4d18-82b2-0b0eecf69745"},"vehicle_type_id":"4","last_reported":1690754739,"current_range_meters":10800,"station_id":"ce4bgj92rcd13ifvqbd0","pricing_plan_id":"free"},{"bike_id":"2ff30944-a229-4619-86f0-b3131d30e008","system_id":"levelo_inurba_marseille","lat":43.299717,"lon":5.384845,"is_reserved":false,"is_disabled":false,"rental_uris":{"android":"levelo://app?vid=2ff30944-a229-4619-86f0-b3131d30e008","ios":"levelo://app?vid=2ff30944-a229-4619-86f0-b3131d30e008"},"vehicle_type_id":"4","last_reported":1690754739,"current_range_meters":12800,"station_id":"ce4bgj92rcd13ifvqbd0","pricing_plan_id":"free"},{"bike_id":"e108fc24-3496-4283-926f-f20904c48b4a","system_id":"levelo_inurba_marseille","lat":43.299717,"lon":5.384845,"is_reserved":false,"is_disabled":false,"rental_uris":{"android":"levelo://app?vid=e108fc24-3496-4283-926f-f20904c48b4a","ios":"levelo://app?vid=e108fc24-3496-4283-926f-f20904c48b4a"},"vehicle_type_id":"4","last_reported":1690754739,"current_range_meters":31200,"station_id":"ce4bgj92rcd13ifvqbd0","pricing_plan_id":"free"},{"bike_id":"d34a04d0-5427-4cc5-926e-cc48570cec8c","system_id":"levelo_inurba_marseille","lat":43.299717,"lon":5.384845,"is_reserved":false,"is_disabled":false,"rental_uris":{"android":"levelo://app?vid=d34a04d0-5427-4cc5-926e-cc48570cec8c","ios":"levelo://app?vid=d34a04d0-5427-4cc5-926e-cc48570cec8c"},"vehicle_type_id":"4","last_reported":1690754739,"current_range_meters":0,"station_id":"ce4bgj92rcd13ifvqbd0","pricing_plan_id":"free"},{"bike_id":"b3aa4b7c-691e-4f9e-a608-d6f8e44bb4e4","system_id":"levelo_inurba_marseille","lat":43.299717,"lon":5.384845,"is_reserved":false,"is_disabled":false,"rental_uris":{"android":"levelo://app?vid=b3aa4b7c-691e-4f9e-a608-d6f8e44bb4e4","ios":"levelo://app?vid=b3aa4b7c-691e-4f9e-a608-d6f8e44bb4e4"},"vehicle_type_id":"4","last_reported":1690754739,"current_range_meters":21600,"station_id":"ce4bgj92rcd13ifvqbd0","pricing_plan_id":"free"},{"bike_id":"eeb263b1-85bf-45c1-9ae9-d4f39665097c","system_id":"levelo_inurba_marseille","lat":43.32342,"lon":5.389,"is_reserved":false,"is_disabled":false,"rental_uris":{"android":"levelo://app?vid=eeb263b1-85bf-45c1-9ae9-d4f39665097c","ios":"levelo://app?vid=eeb263b1-85bf-45c1-9ae9-d4f39665097c"},"vehicle_type_id":"4","last_reported":1690754739,"current_range_meters":20400,"station_id":"ce4bhqp2rcd13ifvqhog","pricing_plan_id":"free"},{"bike_id":"0ffa3e7e-e809-490f-99ca-15afa9d072f7","system_id":"levelo_inurba_marseille","lat":43.32358,"lon":5.38889,"is_reserved":false,"is_disabled":false,"rental_uris":{"android":"levelo://app?vid=0ffa3e7e-e809-490f-99ca-15afa9d072f7","ios":"levelo://app?vid=0ffa3e7e-e809-490f-99ca-15afa9d072f7"},"vehicle_type_id":"4","last_reported":1690754739,"current_range_meters":10400,"station_id":"ce4bhqp2rcd13ifvqhog","pricing_plan_id":"free"},{"bike_id":"c372ec2b-dbfa-42f2-bca1-f0324122476d","system_id":"levelo_inurba_marseille","lat":43.32367,"lon":5.38883,"is_reserved":false,"is_disabled":false,"rental_uris":{"android":"levelo://app?vid=c372ec2b-dbfa-42f2-bca1-f0324122476d","ios":"levelo://app?vid=c372ec2b-dbfa-42f2-bca1-f0324122476d"},"vehicle_type_id":"4","last_reported":1690754739,"current_range_meters":17200,"station_id":"ce4bhqp2rcd13ifvqhog","pricing_plan_id":"free"},{"bike_id":"d55aedab-6f40-48b4-ae88-eae79f92a312","system_id":"levelo_inurba_marseille","lat":43.29601,"lon":5.381084,"is_reserved":false,"is_disabled":false,"rental_uris":{"android":"levelo://app?vid=d55aedab-6f40-48b4-ae88-eae79f92a312","ios":"levelo://app?vid=d55aedab-6f40-48b4-ae88-eae79f92a312"},"vehicle_type_id":"4","last_reported":1690754739,"current_range_meters":26000,"station_id":"ce4bgl12rcd13ifvqbo0","pricing_plan_id":"free"},{"bike_id":"e2a04b65-03e8-4971-a73d-7828d1c1ebd8","system_id":"levelo_inurba_marseille","lat":43.29602,"lon":5.381084,"is_reserved":false,"is_disabled":false,"rental_uris":{"android":"levelo://app?vid=e2a04b65-03e8-4971-a73d-7828d1c1ebd8","ios":"levelo://app?vid=e2a04b65-03e8-4971-a73d-7828d1c1ebd8"},"vehicle_type_id":"4","last_reported":1690754739,"current_range_meters":7200,"station_id":"ce4bgl12rcd13ifvqbo0","pricing_plan_id":"free"},{"bike_id":"156d7d34-eb1b-4b96-8991-fc7b7d2d8573","system_id":"levelo_inurba_marseille","lat":43.29602,"lon":5.381084,"is_reserved":false,"is_disabled":false,"rental_uris":{"android":"levelo://app?vid=156d7d34-eb1b-4b96-8991-fc7b7d2d8573","ios":"levelo://app?vid=156d7d34-eb1b-4b96-8991-fc7b7d2d8573"},"vehicle_type_id":"4","last_reported":1690754739,"current_range_meters":27200,"station_id":"ce4bgl12rcd13ifvqbo0","pricing_plan_id":"free"},{"bike_id":"3b9016eb-dbd9-4211-918e-aae56e41b65b","system_id":"levelo_inurba_marseille","lat":43.29602,"lon":5.381084,"is_reserved":false,"is_disabled":false,"rental_uris":{"android":"levelo://app?vid=3b9016eb-dbd9-4211-918e-aae56e41b65b","ios":"levelo://app?vid=3b9016eb-dbd9-4211-918e-aae56e41b65b"},"vehicle_type_id":"4","last_reported":1690754739,"current_range_meters":12000,"station_id":"ce4bgl12rcd13ifvqbo0","pricing_plan_id":"free"},{"bike_id":"fd44706e-58de-4115-a165-32b299788860","system_id":"levelo_inurba_marseille","lat":43.29593,"lon":5.38098,"is_reserved":false,"is_disabled":false,"rental_uris":{"android":"levelo://app?vid=fd44706e-58de-4115-a165-32b299788860","ios":"levelo://app?vid=fd44706e-58de-4115-a165-32b299788860"},"vehicle_type_id":"4","last_reported":1690754739,"current_range_meters":30000,"station_id":"ce4bgl12rcd13ifvqbo0","pricing_plan_id":"free"},{"bike_id":"071f7c00-ae33-4caa-956a-494c61b9de6d","system_id":"levelo_inurba_marseille","lat":43.289184,"lon":5.366408,"is_reserved":false,"is_disabled":false,"rental_uris":{"android":"levelo://app?vid=071f7c00-ae33-4caa-956a-494c61b9de6d","ios":"levelo://app?vid=071f7c00-ae33-4caa-956a-494c61b9de6d"},"vehicle_type_id":"4","last_reported":1690754739,"current_range_meters":28400,"station_id":"ce4bhap2rcd13ifvqek0","pricing_plan_id":"free"},{"bike_id":"e99ba87b-8704-4f3b-b102-418cb96ea4a6","system_id":"levelo_inurba_marseille","lat":43.305994,"lon":5.393687,"is_reserved":false,"is_disabled":false,"rental_uris":{"android":"levelo://app?vid=e99ba87b-8704-4f3b-b102-418cb96ea4a6","ios":"levelo://app?vid=e99ba87b-8704-4f3b-b102-418cb96ea4a6"},"vehicle_type_id":"4","last_reported":1690754739,"current_range_meters":15200,"station_id":"ce4bh0p2rcd13ifvqd80","pricing_plan_id":"free"},{"bike_id":"173b954c-416a-4fd3-a511-ed1ac7006b8a","system_id":"levelo_inurba_marseille","lat":43.30303,"lon":5.3921,"is_reserved":false,"is_disabled":false,"rental_uris":{"android":"levelo://app?vid=173b954c-416a-4fd3-a511-ed1ac7006b8a","ios":"levelo://app?vid=173b954c-416a-4fd3-a511-ed1ac7006b8a"},"vehicle_type_id":"4","last_reported":1690754739,"current_range_meters":0,"station_id":"ce4bgkh2rcd13ifvqbk0","pricing_plan_id":"free"},{"bike_id":"f51df660-b83b-408c-becb-5278e3899b63","system_id":"levelo_inurba_marseille","lat":43.300852,"lon":5.390859,"is_reserved":false,"is_disabled":false,"rental_uris":{"android":"levelo://app?vid=f51df660-b83b-408c-becb-5278e3899b63","ios":"levelo://app?vid=f51df660-b83b-408c-becb-5278e3899b63"},"vehicle_type_id":"4","last_reported":1690754739,"current_range_meters":2000,"station_id":"ce4bh192rcd13ifvqdb0","pricing_plan_id":"free"},{"bike_id":"b4651225-10b8-4ca7-af28-73876b110786","system_id":"levelo_inurba_marseille","lat":43.300852,"lon":5.390859,"is_reserved":false,"is_disabled":false,"rental_uris":{"android":"levelo://app?vid=b4651225-10b8-4ca7-af28-73876b110786","ios":"levelo://app?vid=b4651225-10b8-4ca7-af28-73876b110786"},"vehicle_type_id":"4","last_reported":1690754739,"current_range_meters":26800,"station_id":"ce4bh192rcd13ifvqdb0","pricing_plan_id":"free"},{"bike_id":"99ac539c-2f2f-4f8c-8241-70b9dd11d070","system_id":"levelo_inurba_marseille","lat":43.300852,"lon":5.390859,"is_reserved":false,"is_disabled":false,"rental_uris":{"android":"levelo://app?vid=99ac539c-2f2f-4f8c-8241-70b9dd11d070","ios":"levelo://app?vid=99ac539c-2f2f-4f8c-8241-70b9dd11d070"},"vehicle_type_id":"4","last_reported":1690754739,"current_range_meters":25200,"station_id":"ce4bh192rcd13ifvqdb0","pricing_plan_id":"free"},{"bike_id":"9518f69f-b7fc-4202-b81f-77fa614be564","system_id":"levelo_inurba_marseille","lat":43.2989,"lon":5.3891,"is_reserved":false,"is_disabled":false,"rental_uris":{"android":"levelo://app?vid=9518f69f-b7fc-4202-b81f-77fa614be564","ios":"levelo://app?vid=9518f69f-b7fc-4202-b81f-77fa614be564"},"vehicle_type_id":"4","last_reported":1690754739,"current_range_meters":12000,"station_id":"ce4bh392rcd13ifvqdl0","pricing_plan_id":"free"},{"bike_id":"41a73286-3440-47fc-ad4e-f5c41540f6f2","system_id":"levelo_inurba_marseille","lat":43.29887,"lon":5.38919,"is_reserved":false,"is_disabled":false,"rental_uris":{"android":"levelo://app?vid=41a73286-3440-47fc-ad4e-f5c41540f6f2","ios":"levelo://app?vid=41a73286-3440-47fc-ad4e-f5c41540f6f2"},"vehicle_type_id":"4","last_reported":1690754739,"current_range_meters":30000,"station_id":"ce4bh392rcd13ifvqdl0","pricing_plan_id":"free"},{"bike_id":"130e5f44-c142-4784-abea-0d12bb9f8443","system_id":"levelo_inurba_marseille","lat":43.31326,"lon":5.39689,"is_reserved":false,"is_disabled":false,"rental_uris":{"android":"levelo://app?vid=130e5f44-c142-4784-abea-0d12bb9f8443","ios":"levelo://app?vid=130e5f44-c142-4784-abea-0d12bb9f8443"},"vehicle_type_id":"4","last_reported":1690754739,"current_range_meters":24000,"station_id":"ce4bgvp2rcd13ifvqcu0","pricing_plan_id":"free"},{"bike_id":"09312b58-c2f7-42fe-a016-d729dcb02b55","system_id":"levelo_inurba_marseille","lat":43.30891,"lon":5.39646,"is_reserved":false,"is_disabled":false,"rental_uris":{"android":"levelo://app?vid=09312b58-c2f7-42fe-a016-d729dcb02b55","ios":"levelo://app?vid=09312b58-c2f7-42fe-a016-d729dcb02b55"},"vehicle_type_id":"4","last_reported":1690754739,"current_range_meters":1600,"station_id":"ce4bh012rcd13ifvqcv0","pricing_plan_id":"free"},{"bike_id":"5f5536bb-105d-4aaf-9e63-6089bccbd196","system_id":"levelo_inurba_marseille","lat":43.31333,"lon":5.39693,"is_reserved":false,"is_disabled":false,"rental_uris":{"android":"levelo://app?vid=5f5536bb-105d-4aaf-9e63-6089bccbd196","ios":"levelo://app?vid=5f5536bb-105d-4aaf-9e63-6089bccbd196"},"vehicle_type_id":"4","last_reported":1690754739,"current_range_meters":24000,"station_id":"ce4bgvp2rcd13ifvqcu0","pricing_plan_id":"free"},{"bike_id":"5ddea216-ff59-495a-b62b-8d33fefc59fa","system_id":"levelo_inurba_marseille","lat":43.30883,"lon":5.39647,"is_reserved":false,"is_disabled":false,"rental_uris":{"android":"levelo://app?vid=5ddea216-ff59-495a-b62b-8d33fefc59fa","ios":"levelo://app?vid=5ddea216-ff59-495a-b62b-8d33fefc59fa"},"vehicle_type_id":"4","last_reported":1690754739,"current_range_meters":6400,"station_id":"ce4bh012rcd13ifvqcv0","pricing_plan_id":"free"},{"bike_id":"a20c8507-39b5-479b-a9ae-fbfe4680c5fe","system_id":"levelo_inurba_marseille","lat":43.3088,"lon":5.39651,"is_reserved":false,"is_disabled":false,"rental_uris":{"android":"levelo://app?vid=a20c8507-39b5-479b-a9ae-fbfe4680c5fe","ios":"levelo://app?vid=a20c8507-39b5-479b-a9ae-fbfe4680c5fe"},"vehicle_type_id":"4","last_reported":1690754739,"current_range_meters":20000,"station_id":"ce4bh012rcd13ifvqcv0","pricing_plan_id":"free"},{"bike_id":"f79330fe-9845-4c5e-a633-5f4ee6a211a8","system_id":"levelo_inurba_marseille","lat":43.30886,"lon":5.39654,"is_reserved":false,"is_disabled":false,"rental_uris":{"android":"levelo://app?vid=f79330fe-9845-4c5e-a633-5f4ee6a211a8","ios":"levelo://app?vid=f79330fe-9845-4c5e-a633-5f4ee6a211a8"},"vehicle_type_id":"4","last_reported":1690754739,"current_range_meters":21200,"station_id":"ce4bh012rcd13ifvqcv0","pricing_plan_id":"free"},{"bike_id":"6bc82a0c-ac67-48a6-94cc-676ad336ceb6","system_id":"levelo_inurba_marseille","lat":43.309038,"lon":5.396546,"is_reserved":false,"is_disabled":false,"rental_uris":{"android":"levelo://app?vid=6bc82a0c-ac67-48a6-94cc-676ad336ceb6","ios":"levelo://app?vid=6bc82a0c-ac67-48a6-94cc-676ad336ceb6"},"vehicle_type_id":"4","last_reported":1690754739,"current_range_meters":23200,"station_id":"ce4bh012rcd13ifvqcv0","pricing_plan_id":"free"},{"bike_id":"accd0b20-b85e-42ef-ba0c-caa3a6cdc5d4","system_id":"levelo_inurba_marseille","lat":43.3088,"lon":5.39654,"is_reserved":false,"is_disabled":false,"rental_uris":{"android":"levelo://app?vid=accd0b20-b85e-42ef-ba0c-caa3a6cdc5d4","ios":"levelo://app?vid=accd0b20-b85e-42ef-ba0c-caa3a6cdc5d4"},"vehicle_type_id":"4","last_reported":1690754739,"current_range_meters":10800,"station_id":"ce4bh012rcd13ifvqcv0","pricing_plan_id":"free"},{"bike_id":"927da5f4-06f5-4dcd-a63b-2acdbac78dad","system_id":"levelo_inurba_marseille","lat":43.309038,"lon":5.396546,"is_reserved":false,"is_disabled":false,"rental_uris":{"android":"levelo://app?vid=927da5f4-06f5-4dcd-a63b-2acdbac78dad","ios":"levelo://app?vid=927da5f4-06f5-4dcd-a63b-2acdbac78dad"},"vehicle_type_id":"4","last_reported":1690754739,"current_range_meters":16800,"station_id":"ce4bh012rcd13ifvqcv0","pricing_plan_id":"free"},{"bike_id":"8f5f129c-1ec5-4adb-b510-4de8f91f1273","system_id":"levelo_inurba_marseille","lat":43.30883,"lon":5.39661,"is_reserved":false,"is_disabled":false,"rental_uris":{"android":"levelo://app?vid=8f5f129c-1ec5-4adb-b510-4de8f91f1273","ios":"levelo://app?vid=8f5f129c-1ec5-4adb-b510-4de8f91f1273"},"vehicle_type_id":"4","last_reported":1690754739,"current_range_meters":0,"station_id":"ce4bh012rcd13ifvqcv0","pricing_plan_id":"free"},{"bike_id":"12a121c0-7f22-44bd-aa59-888ac5a5ddd3","system_id":"levelo_inurba_marseille","lat":43.29542,"lon":5.38549,"is_reserved":false,"is_disabled":false,"rental_uris":{"android":"levelo://app?vid=12a121c0-7f22-44bd-aa59-888ac5a5ddd3","ios":"levelo://app?vid=12a121c0-7f22-44bd-aa59-888ac5a5ddd3"},"vehicle_type_id":"4","last_reported":1690754739,"current_range_meters":0,"station_id":"ce4bgih2rcd13ifvqba0","pricing_plan_id":"free"},{"bike_id":"519b707a-3a95-4d0c-9124-ef3339141de5","system_id":"levelo_inurba_marseille","lat":43.29538,"lon":5.38542,"is_reserved":false,"is_disabled":false,"rental_uris":{"android":"levelo://app?vid=519b707a-3a95-4d0c-9124-ef3339141de5","ios":"levelo://app?vid=519b707a-3a95-4d0c-9124-ef3339141de5"},"vehicle_type_id":"4","last_reported":1690754739,"current_range_meters":0,"station_id":"ce4bgih2rcd13ifvqba0","pricing_plan_id":"free"},{"bike_id":"b5f4db1c-3920-4d79-989a-06bfb2a96494","system_id":"levelo_inurba_marseille","lat":43.29529,"lon":5.385581,"is_reserved":false,"is_disabled":false,"rental_uris":{"android":"levelo://app?vid=b5f4db1c-3920-4d79-989a-06bfb2a96494","ios":"levelo://app?vid=b5f4db1c-3920-4d79-989a-06bfb2a96494"},"vehicle_type_id":"4","last_reported":1690754739,"current_range_meters":27200,"station_id":"ce4bgih2rcd13ifvqba0","pricing_plan_id":"free"},{"bike_id":"a8da682b-3dcb-49df-9ebc-09eac42a0fad","system_id":"levelo_inurba_marseille","lat":43.29539,"lon":5.38547,"is_reserved":false,"is_disabled":false,"rental_uris":{"android":"levelo://app?vid=a8da682b-3dcb-49df-9ebc-09eac42a0fad","ios":"levelo://app?vid=a8da682b-3dcb-49df-9ebc-09eac42a0fad"},"vehicle_type_id":"4","last_reported":1690754739,"current_range_meters":4400,"station_id":"ce4bgih2rcd13ifvqba0","pricing_plan_id":"free"},{"bike_id":"f1926456-fc7c-49fa-95b8-10e53a11ff3e","system_id":"levelo_inurba_marseille","lat":43.29535,"lon":5.3854,"is_reserved":false,"is_disabled":false,"rental_uris":{"android":"levelo://app?vid=f1926456-fc7c-49fa-95b8-10e53a11ff3e","ios":"levelo://app?vid=f1926456-fc7c-49fa-95b8-10e53a11ff3e"},"vehicle_type_id":"4","last_reported":1690754739,"current_range_meters":1600,"station_id":"ce4bgih2rcd13ifvqba0","pricing_plan_id":"free"},{"bike_id":"7fc73175-f2dc-4747-a315-4da7447ca6ec","system_id":"levelo_inurba_marseille","lat":43.29529,"lon":5.385581,"is_reserved":false,"is_disabled":false,"rental_uris":{"android":"levelo://app?vid=7fc73175-f2dc-4747-a315-4da7447ca6ec","ios":"levelo://app?vid=7fc73175-f2dc-4747-a315-4da7447ca6ec"},"vehicle_type_id":"4","last_reported":1690754739,"current_range_meters":31200,"station_id":"ce4bgih2rcd13ifvqba0","pricing_plan_id":"free"},{"bike_id":"48ed5ae5-4978-497c-81d1-2e025e6f20be","system_id":"levelo_inurba_marseille","lat":43.29537,"lon":5.38545,"is_reserved":false,"is_disabled":false,"rental_uris":{"android":"levelo://app?vid=48ed5ae5-4978-497c-81d1-2e025e6f20be","ios":"levelo://app?vid=48ed5ae5-4978-497c-81d1-2e025e6f20be"},"vehicle_type_id":"4","last_reported":1690754739,"current_range_meters":29200,"station_id":"ce4bgih2rcd13ifvqba0","pricing_plan_id":"free"},{"bike_id":"d8aba2d0-70a1-4453-8cca-16b4d8822c42","system_id":"levelo_inurba_marseille","lat":43.29534,"lon":5.3854,"is_reserved":false,"is_disabled":false,"rental_uris":{"android":"levelo://app?vid=d8aba2d0-70a1-4453-8cca-16b4d8822c42","ios":"levelo://app?vid=d8aba2d0-70a1-4453-8cca-16b4d8822c42"},"vehicle_type_id":"4","last_reported":1690754739,"current_range_meters":24400,"station_id":"ce4bgih2rcd13ifvqba0","pricing_plan_id":"free"},{"bike_id":"700f93cb-6d06-46a1-a7f7-0fc5d03925b7","system_id":"levelo_inurba_marseille","lat":43.29533,"lon":5.38541,"is_reserved":false,"is_disabled":false,"rental_uris":{"android":"levelo://app?vid=700f93cb-6d06-46a1-a7f7-0fc5d03925b7","ios":"levelo://app?vid=700f93cb-6d06-46a1-a7f7-0fc5d03925b7"},"vehicle_type_id":"4","last_reported":1690754739,"current_range_meters":21600,"station_id":"ce4bgih2rcd13ifvqba0","pricing_plan_id":"free"},{"bike_id":"d6887ffa-3977-4c4e-bf9b-e98f6892a161","system_id":"levelo_inurba_marseille","lat":43.29541,"lon":5.38557,"is_reserved":false,"is_disabled":false,"rental_uris":{"android":"levelo://app?vid=d6887ffa-3977-4c4e-bf9b-e98f6892a161","ios":"levelo://app?vid=d6887ffa-3977-4c4e-bf9b-e98f6892a161"},"vehicle_type_id":"4","last_reported":1690754739,"current_range_meters":2800,"station_id":"ce4bgih2rcd13ifvqba0","pricing_plan_id":"free"},{"bike_id":"c9023ce1-944b-409e-ab1c-cde798d46248","system_id":"levelo_inurba_marseille","lat":43.29535,"lon":5.38547,"is_reserved":false,"is_disabled":false,"rental_uris":{"android":"levelo://app?vid=c9023ce1-944b-409e-ab1c-cde798d46248","ios":"levelo://app?vid=c9023ce1-944b-409e-ab1c-cde798d46248"},"vehicle_type_id":"4","last_reported":1690754739,"current_range_meters":9200,"station_id":"ce4bgih2rcd13ifvqba0","pricing_plan_id":"free"},{"bike_id":"ad74f04b-e4ad-4494-af75-f9b77570d136","system_id":"levelo_inurba_marseille","lat":43.29533,"lon":5.38544,"is_reserved":false,"is_disabled":false,"rental_uris":{"android":"levelo://app?vid=ad74f04b-e4ad-4494-af75-f9b77570d136","ios":"levelo://app?vid=ad74f04b-e4ad-4494-af75-f9b77570d136"},"vehicle_type_id":"4","last_reported":1690754739,"current_range_meters":0,"station_id":"ce4bgih2rcd13ifvqba0","pricing_plan_id":"free"},{"bike_id":"3fcca323-f75f-44f1-8a0d-5b55aca64a4c","system_id":"levelo_inurba_marseille","lat":43.29535,"lon":5.38548,"is_reserved":false,"is_disabled":false,"rental_uris":{"android":"levelo://app?vid=3fcca323-f75f-44f1-8a0d-5b55aca64a4c","ios":"levelo://app?vid=3fcca323-f75f-44f1-8a0d-5b55aca64a4c"},"vehicle_type_id":"4","last_reported":1690754739,"current_range_meters":25600,"station_id":"ce4bgih2rcd13ifvqba0","pricing_plan_id":"free"},{"bike_id":"863be538-aca5-4215-a74f-279061f1ea3a","system_id":"levelo_inurba_marseille","lat":43.29532,"lon":5.38543,"is_reserved":false,"is_disabled":false,"rental_uris":{"android":"levelo://app?vid=863be538-aca5-4215-a74f-279061f1ea3a","ios":"levelo://app?vid=863be538-aca5-4215-a74f-279061f1ea3a"},"vehicle_type_id":"4","last_reported":1690754739,"current_range_meters":16800,"station_id":"ce4bgih2rcd13ifvqba0","pricing_plan_id":"free"},{"bike_id":"073b53b8-4b80-45d9-8732-321bb1a6c797","system_id":"levelo_inurba_marseille","lat":43.29527,"lon":5.38546,"is_reserved":false,"is_disabled":false,"rental_uris":{"android":"levelo://app?vid=073b53b8-4b80-45d9-8732-321bb1a6c797","ios":"levelo://app?vid=073b53b8-4b80-45d9-8732-321bb1a6c797"},"vehicle_type_id":"4","last_reported":1690754739,"current_range_meters":4000,"station_id":"ce4bgih2rcd13ifvqba0","pricing_plan_id":"free"},{"bike_id":"77fb560b-dd4d-4fb1-b47d-c1ede5346c71","system_id":"levelo_inurba_marseille","lat":43.31308,"lon":5.39731,"is_reserved":false,"is_disabled":false,"rental_uris":{"android":"levelo://app?vid=77fb560b-dd4d-4fb1-b47d-c1ede5346c71","ios":"levelo://app?vid=77fb560b-dd4d-4fb1-b47d-c1ede5346c71"},"vehicle_type_id":"4","last_reported":1690754739,"current_range_meters":18400,"station_id":"ce4bgvp2rcd13ifvqcu0","pricing_plan_id":"free"},{"bike_id":"935f9b70-313f-4b80-afda-37955781939f","system_id":"levelo_inurba_marseille","lat":43.302008,"lon":5.394694,"is_reserved":false,"is_disabled":false,"rental_uris":{"android":"levelo://app?vid=935f9b70-313f-4b80-afda-37955781939f","ios":"levelo://app?vid=935f9b70-313f-4b80-afda-37955781939f"},"vehicle_type_id":"4","last_reported":1690754739,"current_range_meters":18400,"station_id":"ce4bh0p2rcd13ifvqd70","pricing_plan_id":"free"},{"bike_id":"bf903d8d-b76e-4a62-bed7-2892c6e9730a","system_id":"levelo_inurba_marseille","lat":43.302008,"lon":5.394694,"is_reserved":false,"is_disabled":false,"rental_uris":{"android":"levelo://app?vid=bf903d8d-b76e-4a62-bed7-2892c6e9730a","ios":"levelo://app?vid=bf903d8d-b76e-4a62-bed7-2892c6e9730a"},"vehicle_type_id":"4","last_reported":1690754739,"current_range_meters":26400,"station_id":"ce4bh0p2rcd13ifvqd70","pricing_plan_id":"free"},{"bike_id":"bddf507d-3afa-43c2-8231-857ded983886","system_id":"levelo_inurba_marseille","lat":43.302008,"lon":5.394694,"is_reserved":false,"is_disabled":false,"rental_uris":{"android":"levelo://app?vid=bddf507d-3afa-43c2-8231-857ded983886","ios":"levelo://app?vid=bddf507d-3afa-43c2-8231-857ded983886"},"vehicle_type_id":"4","last_reported":1690754739,"current_range_meters":14400,"station_id":"ce4bh0p2rcd13ifvqd70","pricing_plan_id":"free"},{"bike_id":"b523ec1e-27e8-4ca2-be51-f671247b066c","system_id":"levelo_inurba_marseille","lat":43.302008,"lon":5.394694,"is_reserved":false,"is_disabled":false,"rental_uris":{"android":"levelo://app?vid=b523ec1e-27e8-4ca2-be51-f671247b066c","ios":"levelo://app?vid=b523ec1e-27e8-4ca2-be51-f671247b066c"},"vehicle_type_id":"4","last_reported":1690754739,"current_range_meters":23600,"station_id":"ce4bh0p2rcd13ifvqd70","pricing_plan_id":"free"},{"bike_id":"83d2f2fd-65e1-4f82-b5e3-5a929ec9a500","system_id":"levelo_inurba_marseille","lat":43.302008,"lon":5.394694,"is_reserved":false,"is_disabled":false,"rental_uris":{"android":"levelo://app?vid=83d2f2fd-65e1-4f82-b5e3-5a929ec9a500","ios":"levelo://app?vid=83d2f2fd-65e1-4f82-b5e3-5a929ec9a500"},"vehicle_type_id":"4","last_reported":1690754739,"current_range_meters":0,"station_id":"ce4bh0p2rcd13ifvqd70","pricing_plan_id":"free"},{"bike_id":"8a387fe9-dcb2-4305-b67d-1f6bb336b656","system_id":"levelo_inurba_marseille","lat":43.289184,"lon":5.366408,"is_reserved":false,"is_disabled":false,"rental_uris":{"android":"levelo://app?vid=8a387fe9-dcb2-4305-b67d-1f6bb336b656","ios":"levelo://app?vid=8a387fe9-dcb2-4305-b67d-1f6bb336b656"},"vehicle_type_id":"4","last_reported":1690754739,"current_range_meters":7600,"station_id":"ce4bhap2rcd13ifvqek0","pricing_plan_id":"free"},{"bike_id":"bdab5eae-7686-47d0-a6a9-e76bd3576bfa","system_id":"levelo_inurba_marseille","lat":43.29414,"lon":5.38638,"is_reserved":false,"is_disabled":false,"rental_uris":{"android":"levelo://app?vid=bdab5eae-7686-47d0-a6a9-e76bd3576bfa","ios":"levelo://app?vid=bdab5eae-7686-47d0-a6a9-e76bd3576bfa"},"vehicle_type_id":"4","last_reported":1690754739,"current_range_meters":31200,"station_id":"ce4bh2h2rcd13ifvqdh0","pricing_plan_id":"free"},{"bike_id":"14a9850d-06c0-46b2-932d-aedcd4c1f37a","system_id":"levelo_inurba_marseille","lat":43.292644,"lon":5.384257,"is_reserved":false,"is_disabled":false,"rental_uris":{"android":"levelo://app?vid=14a9850d-06c0-46b2-932d-aedcd4c1f37a","ios":"levelo://app?vid=14a9850d-06c0-46b2-932d-aedcd4c1f37a"},"vehicle_type_id":"4","last_reported":1690754739,"current_range_meters":24800,"station_id":"ce4bh692rcd13ifvqea0","pricing_plan_id":"free"},{"bike_id":"30e2158c-4422-428d-a949-56ae21767130","system_id":"levelo_inurba_marseille","lat":43.292642,"lon":5.384254,"is_reserved":false,"is_disabled":false,"rental_uris":{"android":"levelo://app?vid=30e2158c-4422-428d-a949-56ae21767130","ios":"levelo://app?vid=30e2158c-4422-428d-a949-56ae21767130"},"vehicle_type_id":"4","last_reported":1690754739,"current_range_meters":3600,"station_id":"ce4bh692rcd13ifvqea0","pricing_plan_id":"free"},{"bike_id":"c0ed4763-641e-4873-ac65-964a80e61f2e","system_id":"levelo_inurba_marseille","lat":43.304296,"lon":5.397513,"is_reserved":false,"is_disabled":false,"rental_uris":{"android":"levelo://app?vid=c0ed4763-641e-4873-ac65-964a80e61f2e","ios":"levelo://app?vid=c0ed4763-641e-4873-ac65-964a80e61f2e"},"vehicle_type_id":"4","last_reported":1690754739,"current_range_meters":16800,"station_id":"ce4bh092rcd13ifvqd20","pricing_plan_id":"free"},{"bike_id":"134ef223-0af9-48f2-bbd1-4d84dd8cb35c","system_id":"levelo_inurba_marseille","lat":43.290104,"lon":5.356111,"is_reserved":false,"is_disabled":false,"rental_uris":{"android":"levelo://app?vid=134ef223-0af9-48f2-bbd1-4d84dd8cb35c","ios":"levelo://app?vid=134ef223-0af9-48f2-bbd1-4d84dd8cb35c"},"vehicle_type_id":"4","last_reported":1690754739,"current_range_meters":31200,"station_id":"ce4bhb92rcd13ifvqen0","pricing_plan_id":"free"},{"bike_id":"6e674dc2-a346-4619-bd8a-44153f0fc714","system_id":"levelo_inurba_marseille","lat":43.290995,"lon":5.381361,"is_reserved":false,"is_disabled":false,"rental_uris":{"android":"levelo://app?vid=6e674dc2-a346-4619-bd8a-44153f0fc714","ios":"levelo://app?vid=6e674dc2-a346-4619-bd8a-44153f0fc714"},"vehicle_type_id":"4","last_reported":1690754739,"current_range_meters":4400,"station_id":"ce4bh512rcd13ifvqe2g","pricing_plan_id":"free"},{"bike_id":"b4e7aee2-2886-459f-bb4b-d2d17bfff701","system_id":"levelo_inurba_marseille","lat":43.290995,"lon":5.381361,"is_reserved":false,"is_disabled":false,"rental_uris":{"android":"levelo://app?vid=b4e7aee2-2886-459f-bb4b-d2d17bfff701","ios":"levelo://app?vid=b4e7aee2-2886-459f-bb4b-d2d17bfff701"},"vehicle_type_id":"4","last_reported":1690754739,"current_range_meters":3600,"station_id":"ce4bh512rcd13ifvqe2g","pricing_plan_id":"free"},{"bike_id":"05bf2cc0-c80b-4d3b-9303-5cea93148e89","system_id":"levelo_inurba_marseille","lat":43.290995,"lon":5.381361,"is_reserved":false,"is_disabled":false,"rental_uris":{"android":"levelo://app?vid=05bf2cc0-c80b-4d3b-9303-5cea93148e89","ios":"levelo://app?vid=05bf2cc0-c80b-4d3b-9303-5cea93148e89"},"vehicle_type_id":"4","last_reported":1690754739,"current_range_meters":31600,"station_id":"ce4bh512rcd13ifvqe2g","pricing_plan_id":"free"},{"bike_id":"f44ba4d8-a795-4bf0-8a84-4aa36b4b8e0d","system_id":"levelo_inurba_marseille","lat":43.290995,"lon":5.381361,"is_reserved":false,"is_disabled":false,"rental_uris":{"android":"levelo://app?vid=f44ba4d8-a795-4bf0-8a84-4aa36b4b8e0d","ios":"levelo://app?vid=f44ba4d8-a795-4bf0-8a84-4aa36b4b8e0d"},"vehicle_type_id":"4","last_reported":1690754739,"current_range_meters":21600,"station_id":"ce4bh512rcd13ifvqe2g","pricing_plan_id":"free"},{"bike_id":"a942cf92-22cd-4df3-830b-0379ed8f4259","system_id":"levelo_inurba_marseille","lat":43.297815,"lon":5.393548,"is_reserved":false,"is_disabled":false,"rental_uris":{"android":"levelo://app?vid=a942cf92-22cd-4df3-830b-0379ed8f4259","ios":"levelo://app?vid=a942cf92-22cd-4df3-830b-0379ed8f4259"},"vehicle_type_id":"4","last_reported":1690754739,"current_range_meters":11600,"station_id":"chh1huq6cuj3fo74tm60","pricing_plan_id":"free"},{"bike_id":"10bfb3b6-a271-4ccd-878a-d009de18f840","system_id":"levelo_inurba_marseille","lat":43.2979,"lon":5.39338,"is_reserved":false,"is_disabled":false,"rental_uris":{"android":"levelo://app?vid=10bfb3b6-a271-4ccd-878a-d009de18f840","ios":"levelo://app?vid=10bfb3b6-a271-4ccd-878a-d009de18f840"},"vehicle_type_id":"4","last_reported":1690754739,"current_range_meters":16800,"station_id":"chh1huq6cuj3fo74tm60","pricing_plan_id":"free"},{"bike_id":"cd0f291f-b660-4ae6-94a2-ebe763222cc0","system_id":"levelo_inurba_marseille","lat":43.297815,"lon":5.393548,"is_reserved":false,"is_disabled":false,"rental_uris":{"android":"levelo://app?vid=cd0f291f-b660-4ae6-94a2-ebe763222cc0","ios":"levelo://app?vid=cd0f291f-b660-4ae6-94a2-ebe763222cc0"},"vehicle_type_id":"4","last_reported":1690754739,"current_range_meters":20000,"station_id":"chh1huq6cuj3fo74tm60","pricing_plan_id":"free"},{"bike_id":"fdbeefdb-c49f-418b-acf0-2826725143d8","system_id":"levelo_inurba_marseille","lat":43.295169,"lon":5.390426,"is_reserved":false,"is_disabled":false,"rental_uris":{"android":"levelo://app?vid=fdbeefdb-c49f-418b-acf0-2826725143d8","ios":"levelo://app?vid=fdbeefdb-c49f-418b-acf0-2826725143d8"},"vehicle_type_id":"4","last_reported":1690754739,"current_range_meters":7600,"station_id":"ce4bh3p2rcd13ifvqdp0","pricing_plan_id":"free"},{"bike_id":"dfe40fb0-a31b-4849-a1a6-6cfa7729638b","system_id":"levelo_inurba_marseille","lat":43.297815,"lon":5.393548,"is_reserved":false,"is_disabled":false,"rental_uris":{"android":"levelo://app?vid=dfe40fb0-a31b-4849-a1a6-6cfa7729638b","ios":"levelo://app?vid=dfe40fb0-a31b-4849-a1a6-6cfa7729638b"},"vehicle_type_id":"4","last_reported":1690754739,"current_range_meters":31200,"station_id":"chh1huq6cuj3fo74tm60","pricing_plan_id":"free"},{"bike_id":"18c4c711-aa4b-4f5c-89e7-3216cb739982","system_id":"levelo_inurba_marseille","lat":43.295169,"lon":5.390426,"is_reserved":false,"is_disabled":false,"rental_uris":{"android":"levelo://app?vid=18c4c711-aa4b-4f5c-89e7-3216cb739982","ios":"levelo://app?vid=18c4c711-aa4b-4f5c-89e7-3216cb739982"},"vehicle_type_id":"4","last_reported":1690754739,"current_range_meters":24000,"station_id":"ce4bh3p2rcd13ifvqdp0","pricing_plan_id":"free"},{"bike_id":"c3cc76aa-3935-4776-b8db-66051570bca2","system_id":"levelo_inurba_marseille","lat":43.295169,"lon":5.390426,"is_reserved":false,"is_disabled":false,"rental_uris":{"android":"levelo://app?vid=c3cc76aa-3935-4776-b8db-66051570bca2","ios":"levelo://app?vid=c3cc76aa-3935-4776-b8db-66051570bca2"},"vehicle_type_id":"4","last_reported":1690754739,"current_range_meters":11600,"station_id":"ce4bh3p2rcd13ifvqdp0","pricing_plan_id":"free"},{"bike_id":"0d410e2b-a122-4374-a7bd-8783c5192868","system_id":"levelo_inurba_marseille","lat":43.295169,"lon":5.390426,"is_reserved":false,"is_disabled":false,"rental_uris":{"android":"levelo://app?vid=0d410e2b-a122-4374-a7bd-8783c5192868","ios":"levelo://app?vid=0d410e2b-a122-4374-a7bd-8783c5192868"},"vehicle_type_id":"4","last_reported":1690754739,"current_range_meters":23600,"station_id":"ce4bh3p2rcd13ifvqdp0","pricing_plan_id":"free"},{"bike_id":"01bea9d5-120d-4e33-905f-f63c34af6dd2","system_id":"levelo_inurba_marseille","lat":43.295169,"lon":5.390426,"is_reserved":false,"is_disabled":false,"rental_uris":{"android":"levelo://app?vid=01bea9d5-120d-4e33-905f-f63c34af6dd2","ios":"levelo://app?vid=01bea9d5-120d-4e33-905f-f63c34af6dd2"},"vehicle_type_id":"4","last_reported":1690754739,"current_range_meters":18800,"station_id":"ce4bh3p2rcd13ifvqdp0","pricing_plan_id":"free"},{"bike_id":"6d8b26a9-8341-4220-aab3-d7722cb8abee","system_id":"levelo_inurba_marseille","lat":43.295169,"lon":5.390426,"is_reserved":false,"is_disabled":false,"rental_uris":{"android":"levelo://app?vid=6d8b26a9-8341-4220-aab3-d7722cb8abee","ios":"levelo://app?vid=6d8b26a9-8341-4220-aab3-d7722cb8abee"},"vehicle_type_id":"4","last_reported":1690754739,"current_range_meters":31600,"station_id":"ce4bh3p2rcd13ifvqdp0","pricing_plan_id":"free"},{"bike_id":"67c99f1f-ee27-4571-9010-d5da113e8b81","system_id":"levelo_inurba_marseille","lat":43.295169,"lon":5.390426,"is_reserved":false,"is_disabled":false,"rental_uris":{"android":"levelo://app?vid=67c99f1f-ee27-4571-9010-d5da113e8b81","ios":"levelo://app?vid=67c99f1f-ee27-4571-9010-d5da113e8b81"},"vehicle_type_id":"4","last_reported":1690754739,"current_range_meters":26000,"station_id":"ce4bh3p2rcd13ifvqdp0","pricing_plan_id":"free"},{"bike_id":"46de5829-b215-48bc-8b8d-754394cb277f","system_id":"levelo_inurba_marseille","lat":43.295169,"lon":5.390426,"is_reserved":false,"is_disabled":false,"rental_uris":{"android":"levelo://app?vid=46de5829-b215-48bc-8b8d-754394cb277f","ios":"levelo://app?vid=46de5829-b215-48bc-8b8d-754394cb277f"},"vehicle_type_id":"4","last_reported":1690754739,"current_range_meters":18000,"station_id":"ce4bh3p2rcd13ifvqdp0","pricing_plan_id":"free"},{"bike_id":"3d01b93e-3206-4753-814e-fae352f65668","system_id":"levelo_inurba_marseille","lat":43.295169,"lon":5.390426,"is_reserved":false,"is_disabled":false,"rental_uris":{"android":"levelo://app?vid=3d01b93e-3206-4753-814e-fae352f65668","ios":"levelo://app?vid=3d01b93e-3206-4753-814e-fae352f65668"},"vehicle_type_id":"4","last_reported":1690754739,"current_range_meters":16800,"station_id":"ce4bh3p2rcd13ifvqdp0","pricing_plan_id":"free"},{"bike_id":"338bd4be-b087-4988-a356-2bec2b828bee","system_id":"levelo_inurba_marseille","lat":43.295169,"lon":5.390426,"is_reserved":false,"is_disabled":false,"rental_uris":{"android":"levelo://app?vid=338bd4be-b087-4988-a356-2bec2b828bee","ios":"levelo://app?vid=338bd4be-b087-4988-a356-2bec2b828bee"},"vehicle_type_id":"4","last_reported":1690754739,"current_range_meters":29600,"station_id":"ce4bh3p2rcd13ifvqdp0","pricing_plan_id":"free"},{"bike_id":"84191113-c8df-4635-ae30-ff72f31f1948","system_id":"levelo_inurba_marseille","lat":43.295169,"lon":5.390426,"is_reserved":false,"is_disabled":false,"rental_uris":{"android":"levelo://app?vid=84191113-c8df-4635-ae30-ff72f31f1948","ios":"levelo://app?vid=84191113-c8df-4635-ae30-ff72f31f1948"},"vehicle_type_id":"4","last_reported":1690754739,"current_range_meters":4800,"station_id":"ce4bh3p2rcd13ifvqdp0","pricing_plan_id":"free"},{"bike_id":"d6c41099-0600-4ebc-93e6-cf6f4caebf70","system_id":"levelo_inurba_marseille","lat":43.295169,"lon":5.390426,"is_reserved":false,"is_disabled":false,"rental_uris":{"android":"levelo://app?vid=d6c41099-0600-4ebc-93e6-cf6f4caebf70","ios":"levelo://app?vid=d6c41099-0600-4ebc-93e6-cf6f4caebf70"},"vehicle_type_id":"4","last_reported":1690754739,"current_range_meters":26400,"station_id":"ce4bh3p2rcd13ifvqdp0","pricing_plan_id":"free"},{"bike_id":"5175dc30-175a-4a57-8cc8-3cb47524c7bf","system_id":"levelo_inurba_marseille","lat":43.295169,"lon":5.390426,"is_reserved":false,"is_disabled":false,"rental_uris":{"android":"levelo://app?vid=5175dc30-175a-4a57-8cc8-3cb47524c7bf","ios":"levelo://app?vid=5175dc30-175a-4a57-8cc8-3cb47524c7bf"},"vehicle_type_id":"4","last_reported":1690754739,"current_range_meters":31200,"station_id":"ce4bh3p2rcd13ifvqdp0","pricing_plan_id":"free"},{"bike_id":"eab13980-1070-41f2-9537-fbd39e7437b9","system_id":"levelo_inurba_marseille","lat":43.29027,"lon":5.38131,"is_reserved":false,"is_disabled":false,"rental_uris":{"android":"levelo://app?vid=eab13980-1070-41f2-9537-fbd39e7437b9","ios":"levelo://app?vid=eab13980-1070-41f2-9537-fbd39e7437b9"},"vehicle_type_id":"4","last_reported":1690754739,"current_range_meters":30000,"station_id":"ce4bh4p2rcd13ifvqe1g","pricing_plan_id":"free"},{"bike_id":"80b43d21-0cf7-4eaf-84cb-5e454fd4bf8a","system_id":"levelo_inurba_marseille","lat":43.28856,"lon":5.358371,"is_reserved":false,"is_disabled":false,"rental_uris":{"android":"levelo://app?vid=80b43d21-0cf7-4eaf-84cb-5e454fd4bf8a","ios":"levelo://app?vid=80b43d21-0cf7-4eaf-84cb-5e454fd4bf8a"},"vehicle_type_id":"4","last_reported":1690754739,"current_range_meters":29600,"station_id":"ce4bhb12rcd13ifvqem0","pricing_plan_id":"free"},{"bike_id":"b0e2e419-23ff-4534-9928-8a4cc6dffb63","system_id":"levelo_inurba_marseille","lat":43.3128,"lon":5.40166,"is_reserved":false,"is_disabled":false,"rental_uris":{"android":"levelo://app?vid=b0e2e419-23ff-4534-9928-8a4cc6dffb63","ios":"levelo://app?vid=b0e2e419-23ff-4534-9928-8a4cc6dffb63"},"vehicle_type_id":"4","last_reported":1690754739,"current_range_meters":20800,"station_id":"ce4bh092rcd13ifvqd30","pricing_plan_id":"free"},{"bike_id":"93bef249-7fdc-408c-81e0-929ae7293663","system_id":"levelo_inurba_marseille","lat":43.31286,"lon":5.40168,"is_reserved":false,"is_disabled":false,"rental_uris":{"android":"levelo://app?vid=93bef249-7fdc-408c-81e0-929ae7293663","ios":"levelo://app?vid=93bef249-7fdc-408c-81e0-929ae7293663"},"vehicle_type_id":"4","last_reported":1690754739,"current_range_meters":3200,"station_id":"ce4bh092rcd13ifvqd30","pricing_plan_id":"free"},{"bike_id":"f5fdb543-1080-4047-8fdb-19dd3e662cee","system_id":"levelo_inurba_marseille","lat":43.31282,"lon":5.40172,"is_reserved":false,"is_disabled":false,"rental_uris":{"android":"levelo://app?vid=f5fdb543-1080-4047-8fdb-19dd3e662cee","ios":"levelo://app?vid=f5fdb543-1080-4047-8fdb-19dd3e662cee"},"vehicle_type_id":"4","last_reported":1690754739,"current_range_meters":11600,"station_id":"ce4bh092rcd13ifvqd30","pricing_plan_id":"free"},{"bike_id":"468e0a17-132c-4561-acfd-1c7a3d0e69b1","system_id":"levelo_inurba_marseille","lat":43.30645,"lon":5.40087,"is_reserved":false,"is_disabled":false,"rental_uris":{"android":"levelo://app?vid=468e0a17-132c-4561-acfd-1c7a3d0e69b1","ios":"levelo://app?vid=468e0a17-132c-4561-acfd-1c7a3d0e69b1"},"vehicle_type_id":"4","last_reported":1690754739,"current_range_meters":23600,"station_id":"ce4bh112rcd13ifvqda0","pricing_plan_id":"free"},{"bike_id":"d7e02011-2e3a-4f50-a5b3-833d1202db1c","system_id":"levelo_inurba_marseille","lat":43.30636,"lon":5.40089,"is_reserved":false,"is_disabled":false,"rental_uris":{"android":"levelo://app?vid=d7e02011-2e3a-4f50-a5b3-833d1202db1c","ios":"levelo://app?vid=d7e02011-2e3a-4f50-a5b3-833d1202db1c"},"vehicle_type_id":"4","last_reported":1690754739,"current_range_meters":11200,"station_id":"ce4bh112rcd13ifvqda0","pricing_plan_id":"free"},{"bike_id":"0326cea2-5261-443d-885f-3f2e20970415","system_id":"levelo_inurba_marseille","lat":43.30144,"lon":5.39863,"is_reserved":false,"is_disabled":false,"rental_uris":{"android":"levelo://app?vid=0326cea2-5261-443d-885f-3f2e20970415","ios":"levelo://app?vid=0326cea2-5261-443d-885f-3f2e20970415"},"vehicle_type_id":"4","last_reported":1690754739,"current_range_meters":25200,"station_id":"","pricing_plan_id":"free"},{"bike_id":"e962a6c7-8016-4861-932c-b2631fe8e9fe","system_id":"levelo_inurba_marseille","lat":43.301117,"lon":5.398795,"is_reserved":false,"is_disabled":false,"rental_uris":{"android":"levelo://app?vid=e962a6c7-8016-4861-932c-b2631fe8e9fe","ios":"levelo://app?vid=e962a6c7-8016-4861-932c-b2631fe8e9fe"},"vehicle_type_id":"4","last_reported":1690754739,"current_range_meters":10800,"station_id":"ce4bh0h2rcd13ifvqd40","pricing_plan_id":"free"},{"bike_id":"8d2af8b0-2e07-47ef-9e9b-989c8bf2e89c","system_id":"levelo_inurba_marseille","lat":43.298681,"lon":5.397225,"is_reserved":false,"is_disabled":false,"rental_uris":{"android":"levelo://app?vid=8d2af8b0-2e07-47ef-9e9b-989c8bf2e89c","ios":"levelo://app?vid=8d2af8b0-2e07-47ef-9e9b-989c8bf2e89c"},"vehicle_type_id":"4","last_reported":1690754739,"current_range_meters":8800,"station_id":"ce4bh0h2rcd13ifvqd50","pricing_plan_id":"free"},{"bike_id":"c219bd9e-8768-49fd-a600-b24e8ec4ca61","system_id":"levelo_inurba_marseille","lat":43.298681,"lon":5.397225,"is_reserved":false,"is_disabled":false,"rental_uris":{"android":"levelo://app?vid=c219bd9e-8768-49fd-a600-b24e8ec4ca61","ios":"levelo://app?vid=c219bd9e-8768-49fd-a600-b24e8ec4ca61"},"vehicle_type_id":"4","last_reported":1690754739,"current_range_meters":10800,"station_id":"ce4bh0h2rcd13ifvqd50","pricing_plan_id":"free"},{"bike_id":"eac770e5-cbe2-43c8-b38f-c823d4fc3755","system_id":"levelo_inurba_marseille","lat":43.298681,"lon":5.397225,"is_reserved":false,"is_disabled":false,"rental_uris":{"android":"levelo://app?vid=eac770e5-cbe2-43c8-b38f-c823d4fc3755","ios":"levelo://app?vid=eac770e5-cbe2-43c8-b38f-c823d4fc3755"},"vehicle_type_id":"4","last_reported":1690754739,"current_range_meters":19600,"station_id":"ce4bh0h2rcd13ifvqd50","pricing_plan_id":"free"},{"bike_id":"72b307da-6ba0-4964-9442-2c002f54da44","system_id":"levelo_inurba_marseille","lat":43.28708,"lon":5.37389,"is_reserved":false,"is_disabled":false,"rental_uris":{"android":"levelo://app?vid=72b307da-6ba0-4964-9442-2c002f54da44","ios":"levelo://app?vid=72b307da-6ba0-4964-9442-2c002f54da44"},"vehicle_type_id":"4","last_reported":1690754739,"current_range_meters":4400,"station_id":"ce4bh3p2rcd13ifvqdq0","pricing_plan_id":"free"},{"bike_id":"75199276-b705-4ad7-b6a9-49aeaa84628a","system_id":"levelo_inurba_marseille","lat":43.286593,"lon":5.363346,"is_reserved":false,"is_disabled":false,"rental_uris":{"android":"levelo://app?vid=75199276-b705-4ad7-b6a9-49aeaa84628a","ios":"levelo://app?vid=75199276-b705-4ad7-b6a9-49aeaa84628a"},"vehicle_type_id":"4","last_reported":1690754739,"current_range_meters":31600,"station_id":"ce4bhah2rcd13ifvqej0","pricing_plan_id":"free"},{"bike_id":"16a34cdf-b50d-4ec2-9504-b61a0329e38a","system_id":"levelo_inurba_marseille","lat":43.286591,"lon":5.363346,"is_reserved":false,"is_disabled":false,"rental_uris":{"android":"levelo://app?vid=16a34cdf-b50d-4ec2-9504-b61a0329e38a","ios":"levelo://app?vid=16a34cdf-b50d-4ec2-9504-b61a0329e38a"},"vehicle_type_id":"4","last_reported":1690754739,"current_range_meters":5200,"station_id":"ce4bhah2rcd13ifvqej0","pricing_plan_id":"free"},{"bike_id":"1e1e2236-442b-447b-8b10-1035a3c8f4ab","system_id":"levelo_inurba_marseille","lat":43.28701,"lon":5.37387,"is_reserved":false,"is_disabled":false,"rental_uris":{"android":"levelo://app?vid=1e1e2236-442b-447b-8b10-1035a3c8f4ab","ios":"levelo://app?vid=1e1e2236-442b-447b-8b10-1035a3c8f4ab"},"vehicle_type_id":"4","last_reported":1690754739,"current_range_meters":15200,"station_id":"ce4bh3p2rcd13ifvqdq0","pricing_plan_id":"free"},{"bike_id":"206c5077-4bdc-48d7-aad5-096b667f701f","system_id":"levelo_inurba_marseille","lat":43.298681,"lon":5.397225,"is_reserved":false,"is_disabled":false,"rental_uris":{"android":"levelo://app?vid=206c5077-4bdc-48d7-aad5-096b667f701f","ios":"levelo://app?vid=206c5077-4bdc-48d7-aad5-096b667f701f"},"vehicle_type_id":"4","last_reported":1690754739,"current_range_meters":10000,"station_id":"ce4bh0h2rcd13ifvqd50","pricing_plan_id":"free"},{"bike_id":"268ec8e7-ecf0-4b8a-b764-c16af2f69dd8","system_id":"levelo_inurba_marseille","lat":43.298681,"lon":5.397225,"is_reserved":false,"is_disabled":false,"rental_uris":{"android":"levelo://app?vid=268ec8e7-ecf0-4b8a-b764-c16af2f69dd8","ios":"levelo://app?vid=268ec8e7-ecf0-4b8a-b764-c16af2f69dd8"},"vehicle_type_id":"4","last_reported":1690754739,"current_range_meters":14400,"station_id":"ce4bh0h2rcd13ifvqd50","pricing_plan_id":"free"},{"bike_id":"627dd332-141e-4afd-a0e9-931510a7b97c","system_id":"levelo_inurba_marseille","lat":43.286591,"lon":5.363346,"is_reserved":false,"is_disabled":false,"rental_uris":{"android":"levelo://app?vid=627dd332-141e-4afd-a0e9-931510a7b97c","ios":"levelo://app?vid=627dd332-141e-4afd-a0e9-931510a7b97c"},"vehicle_type_id":"4","last_reported":1690754739,"current_range_meters":0,"station_id":"ce4bhah2rcd13ifvqej0","pricing_plan_id":"free"},{"bike_id":"aa6f6b4f-eca4-48ae-bae6-2c2616996e6c","system_id":"levelo_inurba_marseille","lat":43.29517,"lon":5.39392,"is_reserved":false,"is_disabled":false,"rental_uris":{"android":"levelo://app?vid=aa6f6b4f-eca4-48ae-bae6-2c2616996e6c","ios":"levelo://app?vid=aa6f6b4f-eca4-48ae-bae6-2c2616996e6c"},"vehicle_type_id":"4","last_reported":1690754739,"current_range_meters":31200,"station_id":"ce4bh292rcd13ifvqdf0","pricing_plan_id":"free"},{"bike_id":"74d84c2b-d285-41ee-a905-581851073b93","system_id":"levelo_inurba_marseille","lat":43.295196,"lon":5.39397,"is_reserved":false,"is_disabled":false,"rental_uris":{"android":"levelo://app?vid=74d84c2b-d285-41ee-a905-581851073b93","ios":"levelo://app?vid=74d84c2b-d285-41ee-a905-581851073b93"},"vehicle_type_id":"4","last_reported":1690754739,"current_range_meters":31200,"station_id":"ce4bh292rcd13ifvqdf0","pricing_plan_id":"free"},{"bike_id":"5128e7df-bbda-4f4d-9e3e-093cc2591317","system_id":"levelo_inurba_marseille","lat":43.29521,"lon":5.39401,"is_reserved":false,"is_disabled":false,"rental_uris":{"android":"levelo://app?vid=5128e7df-bbda-4f4d-9e3e-093cc2591317","ios":"levelo://app?vid=5128e7df-bbda-4f4d-9e3e-093cc2591317"},"vehicle_type_id":"4","last_reported":1690754739,"current_range_meters":30000,"station_id":"ce4bh292rcd13ifvqdf0","pricing_plan_id":"free"},{"bike_id":"241000a6-9c71-4a08-8b44-1c6d3c8aa3cd","system_id":"levelo_inurba_marseille","lat":43.2952,"lon":5.39412,"is_reserved":false,"is_disabled":false,"rental_uris":{"android":"levelo://app?vid=241000a6-9c71-4a08-8b44-1c6d3c8aa3cd","ios":"levelo://app?vid=241000a6-9c71-4a08-8b44-1c6d3c8aa3cd"},"vehicle_type_id":"4","last_reported":1690754739,"current_range_meters":31200,"station_id":"ce4bh292rcd13ifvqdf0","pricing_plan_id":"free"},{"bike_id":"920900cf-5f17-4170-bddb-cda4da678cb7","system_id":"levelo_inurba_marseille","lat":43.295196,"lon":5.39397,"is_reserved":false,"is_disabled":false,"rental_uris":{"android":"levelo://app?vid=920900cf-5f17-4170-bddb-cda4da678cb7","ios":"levelo://app?vid=920900cf-5f17-4170-bddb-cda4da678cb7"},"vehicle_type_id":"4","last_reported":1690754739,"current_range_meters":31200,"station_id":"ce4bh292rcd13ifvqdf0","pricing_plan_id":"free"},{"bike_id":"d8085eed-55d8-47cc-b2bd-3503caaeb37d","system_id":"levelo_inurba_marseille","lat":43.29033,"lon":5.38635,"is_reserved":false,"is_disabled":false,"rental_uris":{"android":"levelo://app?vid=d8085eed-55d8-47cc-b2bd-3503caaeb37d","ios":"levelo://app?vid=d8085eed-55d8-47cc-b2bd-3503caaeb37d"},"vehicle_type_id":"4","last_reported":1690754739,"current_range_meters":18000,"station_id":"ce4bh4p2rcd13ifvqe0g","pricing_plan_id":"free"},{"bike_id":"699e689c-1f2b-423d-b7b2-2b8395ed9a6a","system_id":"levelo_inurba_marseille","lat":43.290336,"lon":5.386425,"is_reserved":false,"is_disabled":false,"rental_uris":{"android":"levelo://app?vid=699e689c-1f2b-423d-b7b2-2b8395ed9a6a","ios":"levelo://app?vid=699e689c-1f2b-423d-b7b2-2b8395ed9a6a"},"vehicle_type_id":"4","last_reported":1690754739,"current_range_meters":12800,"station_id":"ce4bh4p2rcd13ifvqe0g","pricing_plan_id":"free"},{"bike_id":"2af4d9d5-7c0a-4f6f-8ba2-f25c31ae2f9a","system_id":"levelo_inurba_marseille","lat":43.29023,"lon":5.38643,"is_reserved":false,"is_disabled":false,"rental_uris":{"android":"levelo://app?vid=2af4d9d5-7c0a-4f6f-8ba2-f25c31ae2f9a","ios":"levelo://app?vid=2af4d9d5-7c0a-4f6f-8ba2-f25c31ae2f9a"},"vehicle_type_id":"4","last_reported":1690754739,"current_range_meters":24800,"station_id":"ce4bh4p2rcd13ifvqe0g","pricing_plan_id":"free"},{"bike_id":"d3e07323-7aff-4cce-9031-d92eb47a934c","system_id":"levelo_inurba_marseille","lat":43.302759,"lon":5.400793,"is_reserved":false,"is_disabled":false,"rental_uris":{"android":"levelo://app?vid=d3e07323-7aff-4cce-9031-d92eb47a934c","ios":"levelo://app?vid=d3e07323-7aff-4cce-9031-d92eb47a934c"},"vehicle_type_id":"4","last_reported":1690754739,"current_range_meters":31200,"station_id":"ce4bgvh2rcd13ifvqcs0","pricing_plan_id":"free"},{"bike_id":"834ef4c5-6528-4bae-980a-75aa100dbcc5","system_id":"levelo_inurba_marseille","lat":43.302759,"lon":5.400793,"is_reserved":false,"is_disabled":false,"rental_uris":{"android":"levelo://app?vid=834ef4c5-6528-4bae-980a-75aa100dbcc5","ios":"levelo://app?vid=834ef4c5-6528-4bae-980a-75aa100dbcc5"},"vehicle_type_id":"4","last_reported":1690754739,"current_range_meters":31200,"station_id":"ce4bgvh2rcd13ifvqcs0","pricing_plan_id":"free"},{"bike_id":"758bf9d2-73a0-467d-971a-8655f4cfc877","system_id":"levelo_inurba_marseille","lat":43.302759,"lon":5.400793,"is_reserved":false,"is_disabled":false,"rental_uris":{"android":"levelo://app?vid=758bf9d2-73a0-467d-971a-8655f4cfc877","ios":"levelo://app?vid=758bf9d2-73a0-467d-971a-8655f4cfc877"},"vehicle_type_id":"4","last_reported":1690754739,"current_range_meters":31200,"station_id":"ce4bgvh2rcd13ifvqcs0","pricing_plan_id":"free"},{"bike_id":"74db9097-bb72-40a1-a043-aa8849d1526d","system_id":"levelo_inurba_marseille","lat":43.287185,"lon":5.379373,"is_reserved":false,"is_disabled":false,"rental_uris":{"android":"levelo://app?vid=74db9097-bb72-40a1-a043-aa8849d1526d","ios":"levelo://app?vid=74db9097-bb72-40a1-a043-aa8849d1526d"},"vehicle_type_id":"4","last_reported":1690754739,"current_range_meters":8400,"station_id":"ce4bh9p2rcd13ifvqec0","pricing_plan_id":"free"},{"bike_id":"eca4b550-439b-46d3-8f5b-9c8d2e5c5c7e","system_id":"levelo_inurba_marseille","lat":43.287185,"lon":5.379373,"is_reserved":false,"is_disabled":false,"rental_uris":{"android":"levelo://app?vid=eca4b550-439b-46d3-8f5b-9c8d2e5c5c7e","ios":"levelo://app?vid=eca4b550-439b-46d3-8f5b-9c8d2e5c5c7e"},"vehicle_type_id":"4","last_reported":1690754739,"current_range_meters":30800,"station_id":"ce4bh9p2rcd13ifvqec0","pricing_plan_id":"free"},{"bike_id":"37ba8230-432d-490c-b80d-7c81b006f516","system_id":"levelo_inurba_marseille","lat":43.287184,"lon":5.37937,"is_reserved":false,"is_disabled":false,"rental_uris":{"android":"levelo://app?vid=37ba8230-432d-490c-b80d-7c81b006f516","ios":"levelo://app?vid=37ba8230-432d-490c-b80d-7c81b006f516"},"vehicle_type_id":"4","last_reported":1690754739,"current_range_meters":12800,"station_id":"ce4bh9p2rcd13ifvqec0","pricing_plan_id":"free"},{"bike_id":"3734f612-7fa1-4d44-aa1a-78551ea0511e","system_id":"levelo_inurba_marseille","lat":43.287184,"lon":5.37937,"is_reserved":false,"is_disabled":false,"rental_uris":{"android":"levelo://app?vid=3734f612-7fa1-4d44-aa1a-78551ea0511e","ios":"levelo://app?vid=3734f612-7fa1-4d44-aa1a-78551ea0511e"},"vehicle_type_id":"4","last_reported":1690754739,"current_range_meters":11600,"station_id":"ce4bh9p2rcd13ifvqec0","pricing_plan_id":"free"},{"bike_id":"fcc30dab-1e0c-482e-b26a-49546ad8766c","system_id":"levelo_inurba_marseille","lat":43.314811,"lon":5.373103,"is_reserved":false,"is_disabled":false,"rental_uris":{"android":"levelo://app?vid=fcc30dab-1e0c-482e-b26a-49546ad8766c","ios":"levelo://app?vid=fcc30dab-1e0c-482e-b26a-49546ad8766c"},"vehicle_type_id":"4","last_reported":1690754739,"current_range_meters":25200,"station_id":"ce4bgt12rcd13ifvqcd0","pricing_plan_id":"free"},{"bike_id":"d78ad56a-9f61-40d6-8f06-4d3a7295745b","system_id":"levelo_inurba_marseille","lat":43.316517,"lon":5.404375,"is_reserved":false,"is_disabled":false,"rental_uris":{"android":"levelo://app?vid=d78ad56a-9f61-40d6-8f06-4d3a7295745b","ios":"levelo://app?vid=d78ad56a-9f61-40d6-8f06-4d3a7295745b"},"vehicle_type_id":"4","last_reported":1690754739,"current_range_meters":5600,"station_id":"ce4bh012rcd13ifvqd00","pricing_plan_id":"free"},{"bike_id":"7213e99c-ad4b-46df-b136-86c3d898804f","system_id":"levelo_inurba_marseille","lat":43.31653,"lon":5.4044,"is_reserved":false,"is_disabled":false,"rental_uris":{"android":"levelo://app?vid=7213e99c-ad4b-46df-b136-86c3d898804f","ios":"levelo://app?vid=7213e99c-ad4b-46df-b136-86c3d898804f"},"vehicle_type_id":"4","last_reported":1690754739,"current_range_meters":18000,"station_id":"ce4bh012rcd13ifvqd00","pricing_plan_id":"free"},{"bike_id":"2031df79-00a3-4673-925c-7cd529afbfb3","system_id":"levelo_inurba_marseille","lat":43.291994,"lon":5.392907,"is_reserved":false,"is_disabled":false,"rental_uris":{"android":"levelo://app?vid=2031df79-00a3-4673-925c-7cd529afbfb3","ios":"levelo://app?vid=2031df79-00a3-4673-925c-7cd529afbfb3"},"vehicle_type_id":"4","last_reported":1690754739,"current_range_meters":25600,"station_id":"ce4bh192rcd13ifvqdd0","pricing_plan_id":"free"},{"bike_id":"99c50597-4800-4e25-bd3e-243b23cee58b","system_id":"levelo_inurba_marseille","lat":43.29199,"lon":5.39313,"is_reserved":false,"is_disabled":false,"rental_uris":{"android":"levelo://app?vid=99c50597-4800-4e25-bd3e-243b23cee58b","ios":"levelo://app?vid=99c50597-4800-4e25-bd3e-243b23cee58b"},"vehicle_type_id":"4","last_reported":1690754739,"current_range_meters":0,"station_id":"ce4bh192rcd13ifvqdd0","pricing_plan_id":"free"},{"bike_id":"2528c007-63e4-44c8-88d5-41263f3c03d7","system_id":"levelo_inurba_marseille","lat":43.291994,"lon":5.392907,"is_reserved":false,"is_disabled":false,"rental_uris":{"android":"levelo://app?vid=2528c007-63e4-44c8-88d5-41263f3c03d7","ios":"levelo://app?vid=2528c007-63e4-44c8-88d5-41263f3c03d7"},"vehicle_type_id":"4","last_reported":1690754739,"current_range_meters":0,"station_id":"ce4bh192rcd13ifvqdd0","pricing_plan_id":"free"},{"bike_id":"6692445a-4117-4d85-ab4b-f698758530c8","system_id":"levelo_inurba_marseille","lat":43.291994,"lon":5.392907,"is_reserved":false,"is_disabled":false,"rental_uris":{"android":"levelo://app?vid=6692445a-4117-4d85-ab4b-f698758530c8","ios":"levelo://app?vid=6692445a-4117-4d85-ab4b-f698758530c8"},"vehicle_type_id":"4","last_reported":1690754739,"current_range_meters":19200,"station_id":"ce4bh192rcd13ifvqdd0","pricing_plan_id":"free"},{"bike_id":"1f4cc0af-54d1-41c0-9200-8f463311f03e","system_id":"levelo_inurba_marseille","lat":43.291994,"lon":5.392907,"is_reserved":false,"is_disabled":false,"rental_uris":{"android":"levelo://app?vid=1f4cc0af-54d1-41c0-9200-8f463311f03e","ios":"levelo://app?vid=1f4cc0af-54d1-41c0-9200-8f463311f03e"},"vehicle_type_id":"4","last_reported":1690754739,"current_range_meters":22400,"station_id":"ce4bh192rcd13ifvqdd0","pricing_plan_id":"free"},{"bike_id":"ec3564f4-fe91-446e-a5fb-3325ae3a547b","system_id":"levelo_inurba_marseille","lat":43.291994,"lon":5.392907,"is_reserved":false,"is_disabled":false,"rental_uris":{"android":"levelo://app?vid=ec3564f4-fe91-446e-a5fb-3325ae3a547b","ios":"levelo://app?vid=ec3564f4-fe91-446e-a5fb-3325ae3a547b"},"vehicle_type_id":"4","last_reported":1690754739,"current_range_meters":4800,"station_id":"ce4bh192rcd13ifvqdd0","pricing_plan_id":"free"},{"bike_id":"44f1382b-dd81-4d72-8701-6af0dbe87b23","system_id":"levelo_inurba_marseille","lat":43.291994,"lon":5.392907,"is_reserved":false,"is_disabled":false,"rental_uris":{"android":"levelo://app?vid=44f1382b-dd81-4d72-8701-6af0dbe87b23","ios":"levelo://app?vid=44f1382b-dd81-4d72-8701-6af0dbe87b23"},"vehicle_type_id":"4","last_reported":1690754739,"current_range_meters":1600,"station_id":"ce4bh192rcd13ifvqdd0","pricing_plan_id":"free"},{"bike_id":"0c2563a9-a8ff-44b0-91c3-52c9c13e56b7","system_id":"levelo_inurba_marseille","lat":43.291994,"lon":5.392907,"is_reserved":false,"is_disabled":false,"rental_uris":{"android":"levelo://app?vid=0c2563a9-a8ff-44b0-91c3-52c9c13e56b7","ios":"levelo://app?vid=0c2563a9-a8ff-44b0-91c3-52c9c13e56b7"},"vehicle_type_id":"4","last_reported":1690754739,"current_range_meters":13200,"station_id":"ce4bh192rcd13ifvqdd0","pricing_plan_id":"free"},{"bike_id":"fa3149c9-c80d-4d37-b8b1-89314f80df79","system_id":"levelo_inurba_marseille","lat":43.284538,"lon":5.358657,"is_reserved":false,"is_disabled":false,"rental_uris":{"android":"levelo://app?vid=fa3149c9-c80d-4d37-b8b1-89314f80df79","ios":"levelo://app?vid=fa3149c9-c80d-4d37-b8b1-89314f80df79"},"vehicle_type_id":"4","last_reported":1690754739,"current_range_meters":20400,"station_id":"ce4bhah2rcd13ifvqei0","pricing_plan_id":"free"},{"bike_id":"9ab5d423-5c0b-492d-900d-36f69a462095","system_id":"levelo_inurba_marseille","lat":43.284538,"lon":5.358657,"is_reserved":false,"is_disabled":false,"rental_uris":{"android":"levelo://app?vid=9ab5d423-5c0b-492d-900d-36f69a462095","ios":"levelo://app?vid=9ab5d423-5c0b-492d-900d-36f69a462095"},"vehicle_type_id":"4","last_reported":1690754739,"current_range_meters":28800,"station_id":"ce4bhah2rcd13ifvqei0","pricing_plan_id":"free"},{"bike_id":"24b69436-7fc3-4ebc-afaa-1a084fcc6109","system_id":"levelo_inurba_marseille","lat":43.284538,"lon":5.358657,"is_reserved":false,"is_disabled":false,"rental_uris":{"android":"levelo://app?vid=24b69436-7fc3-4ebc-afaa-1a084fcc6109","ios":"levelo://app?vid=24b69436-7fc3-4ebc-afaa-1a084fcc6109"},"vehicle_type_id":"4","last_reported":1690754739,"current_range_meters":19200,"station_id":"ce4bhah2rcd13ifvqei0","pricing_plan_id":"free"},{"bike_id":"d76bbc24-f5d2-4093-9c01-08af5fe335f9","system_id":"levelo_inurba_marseille","lat":43.284538,"lon":5.358657,"is_reserved":false,"is_disabled":false,"rental_uris":{"android":"levelo://app?vid=d76bbc24-f5d2-4093-9c01-08af5fe335f9","ios":"levelo://app?vid=d76bbc24-f5d2-4093-9c01-08af5fe335f9"},"vehicle_type_id":"4","last_reported":1690754739,"current_range_meters":10400,"station_id":"ce4bhah2rcd13ifvqei0","pricing_plan_id":"free"},{"bike_id":"f56860e2-f82d-4e5c-9b55-f8ae9d2af462","system_id":"levelo_inurba_marseille","lat":43.294314,"lon":5.397498,"is_reserved":false,"is_disabled":false,"rental_uris":{"android":"levelo://app?vid=f56860e2-f82d-4e5c-9b55-f8ae9d2af462","ios":"levelo://app?vid=f56860e2-f82d-4e5c-9b55-f8ae9d2af462"},"vehicle_type_id":"4","last_reported":1690754739,"current_range_meters":31200,"station_id":"ce4bh3h2rcd13ifvqdo0","pricing_plan_id":"free"},{"bike_id":"cc7a2d41-1db0-4aee-826a-b0c32f616a36","system_id":"levelo_inurba_marseille","lat":43.284538,"lon":5.358657,"is_reserved":false,"is_disabled":false,"rental_uris":{"android":"levelo://app?vid=cc7a2d41-1db0-4aee-826a-b0c32f616a36","ios":"levelo://app?vid=cc7a2d41-1db0-4aee-826a-b0c32f616a36"},"vehicle_type_id":"4","last_reported":1690754739,"current_range_meters":19600,"station_id":"ce4bhah2rcd13ifvqei0","pricing_plan_id":"free"},{"bike_id":"879c059f-e1b8-4860-8f7a-7e4e30c0a664","system_id":"levelo_inurba_marseille","lat":43.29449,"lon":5.39756,"is_reserved":false,"is_disabled":false,"rental_uris":{"android":"levelo://app?vid=879c059f-e1b8-4860-8f7a-7e4e30c0a664","ios":"levelo://app?vid=879c059f-e1b8-4860-8f7a-7e4e30c0a664"},"vehicle_type_id":"4","last_reported":1690754739,"current_range_meters":10000,"station_id":"ce4bh3h2rcd13ifvqdo0","pricing_plan_id":"free"},{"bike_id":"e5a3c789-f259-47e9-bbc6-2c0dd809354c","system_id":"levelo_inurba_marseille","lat":43.29456,"lon":5.39764,"is_reserved":false,"is_disabled":false,"rental_uris":{"android":"levelo://app?vid=e5a3c789-f259-47e9-bbc6-2c0dd809354c","ios":"levelo://app?vid=e5a3c789-f259-47e9-bbc6-2c0dd809354c"},"vehicle_type_id":"4","last_reported":1690754739,"current_range_meters":27600,"station_id":"ce4bh3h2rcd13ifvqdo0","pricing_plan_id":"free"},{"bike_id":"4fd0c06e-580c-465f-addc-a7d3f18fedc1","system_id":"levelo_inurba_marseille","lat":43.294314,"lon":5.397498,"is_reserved":false,"is_disabled":false,"rental_uris":{"android":"levelo://app?vid=4fd0c06e-580c-465f-addc-a7d3f18fedc1","ios":"levelo://app?vid=4fd0c06e-580c-465f-addc-a7d3f18fedc1"},"vehicle_type_id":"4","last_reported":1690754739,"current_range_meters":20400,"station_id":"ce4bh3h2rcd13ifvqdo0","pricing_plan_id":"free"},{"bike_id":"6dd9128d-9f1b-4f07-8769-edc1e0d6a04e","system_id":"levelo_inurba_marseille","lat":43.294314,"lon":5.397498,"is_reserved":false,"is_disabled":false,"rental_uris":{"android":"levelo://app?vid=6dd9128d-9f1b-4f07-8769-edc1e0d6a04e","ios":"levelo://app?vid=6dd9128d-9f1b-4f07-8769-edc1e0d6a04e"},"vehicle_type_id":"4","last_reported":1690754739,"current_range_meters":24400,"station_id":"ce4bh3h2rcd13ifvqdo0","pricing_plan_id":"free"},{"bike_id":"8f4719b0-a5a1-4b6c-96e7-1fbd327f0843","system_id":"levelo_inurba_marseille","lat":43.29418,"lon":5.39745,"is_reserved":false,"is_disabled":false,"rental_uris":{"android":"levelo://app?vid=8f4719b0-a5a1-4b6c-96e7-1fbd327f0843","ios":"levelo://app?vid=8f4719b0-a5a1-4b6c-96e7-1fbd327f0843"},"vehicle_type_id":"4","last_reported":1690754739,"current_range_meters":28800,"station_id":"ce4bh3h2rcd13ifvqdo0","pricing_plan_id":"free"},{"bike_id":"5b112069-dd75-4a1c-a0d8-84fb8f414b25","system_id":"levelo_inurba_marseille","lat":43.285856,"lon":5.350771,"is_reserved":false,"is_disabled":false,"rental_uris":{"android":"levelo://app?vid=5b112069-dd75-4a1c-a0d8-84fb8f414b25","ios":"levelo://app?vid=5b112069-dd75-4a1c-a0d8-84fb8f414b25"},"vehicle_type_id":"4","last_reported":1690754739,"current_range_meters":24000,"station_id":"ce4bhch2rcd13ifvqeug","pricing_plan_id":"free"},{"bike_id":"0ca3236e-679c-4cdd-9f53-d5303defbf93","system_id":"levelo_inurba_marseille","lat":43.28422,"lon":5.37516,"is_reserved":false,"is_disabled":false,"rental_uris":{"android":"levelo://app?vid=0ca3236e-679c-4cdd-9f53-d5303defbf93","ios":"levelo://app?vid=0ca3236e-679c-4cdd-9f53-d5303defbf93"},"vehicle_type_id":"4","last_reported":1690754739,"current_range_meters":22800,"station_id":"ce4bh412rcd13ifvqds0","pricing_plan_id":"free"},{"bike_id":"01b7d93f-e411-42ff-bd03-0bc5d1c372d8","system_id":"levelo_inurba_marseille","lat":43.283998,"lon":5.375062,"is_reserved":false,"is_disabled":false,"rental_uris":{"android":"levelo://app?vid=01b7d93f-e411-42ff-bd03-0bc5d1c372d8","ios":"levelo://app?vid=01b7d93f-e411-42ff-bd03-0bc5d1c372d8"},"vehicle_type_id":"4","last_reported":1690754739,"current_range_meters":0,"station_id":"ce4bh412rcd13ifvqds0","pricing_plan_id":"free"},{"bike_id":"d9e64e89-b46c-48e4-b3ef-bf33315bca12","system_id":"levelo_inurba_marseille","lat":43.28412,"lon":5.37518,"is_reserved":false,"is_disabled":false,"rental_uris":{"android":"levelo://app?vid=d9e64e89-b46c-48e4-b3ef-bf33315bca12","ios":"levelo://app?vid=d9e64e89-b46c-48e4-b3ef-bf33315bca12"},"vehicle_type_id":"4","last_reported":1690754739,"current_range_meters":28400,"station_id":"ce4bh412rcd13ifvqds0","pricing_plan_id":"free"},{"bike_id":"5659d4cb-64a9-484c-bea4-7cbb20dbf5e0","system_id":"levelo_inurba_marseille","lat":43.286595,"lon":5.386795,"is_reserved":false,"is_disabled":false,"rental_uris":{"android":"levelo://app?vid=5659d4cb-64a9-484c-bea4-7cbb20dbf5e0","ios":"levelo://app?vid=5659d4cb-64a9-484c-bea4-7cbb20dbf5e0"},"vehicle_type_id":"4","last_reported":1690754739,"current_range_meters":16400,"station_id":"ce4bh492rcd13ifvqdug","pricing_plan_id":"free"},{"bike_id":"8be36985-470e-452c-bc24-29e3c3a6b0e5","system_id":"levelo_inurba_marseille","lat":43.31889,"lon":5.40734,"is_reserved":false,"is_disabled":false,"rental_uris":{"android":"levelo://app?vid=8be36985-470e-452c-bc24-29e3c3a6b0e5","ios":"levelo://app?vid=8be36985-470e-452c-bc24-29e3c3a6b0e5"},"vehicle_type_id":"4","last_reported":1690754739,"current_range_meters":31200,"station_id":"ce4bhq12rcd13ifvqhig","pricing_plan_id":"free"},{"bike_id":"c214d605-66d3-4e2d-8d08-d523874da159","system_id":"levelo_inurba_marseille","lat":43.33726,"lon":5.39177,"is_reserved":false,"is_disabled":false,"rental_uris":{"android":"levelo://app?vid=c214d605-66d3-4e2d-8d08-d523874da159","ios":"levelo://app?vid=c214d605-66d3-4e2d-8d08-d523874da159"},"vehicle_type_id":"4","last_reported":1690754739,"current_range_meters":19600,"station_id":"ce4bhr92rcd13ifvqhsg","pricing_plan_id":"free"},{"bike_id":"1cd10330-8c82-4645-9e31-791aa547d0aa","system_id":"levelo_inurba_marseille","lat":43.33717,"lon":5.391857,"is_reserved":false,"is_disabled":false,"rental_uris":{"android":"levelo://app?vid=1cd10330-8c82-4645-9e31-791aa547d0aa","ios":"levelo://app?vid=1cd10330-8c82-4645-9e31-791aa547d0aa"},"vehicle_type_id":"4","last_reported":1690754739,"current_range_meters":24400,"station_id":"ce4bhr92rcd13ifvqhsg","pricing_plan_id":"free"},{"bike_id":"db9f1e9d-fa2e-4ef5-a5ae-91308d412f1f","system_id":"levelo_inurba_marseille","lat":43.32347,"lon":5.40621,"is_reserved":false,"is_disabled":false,"rental_uris":{"android":"levelo://app?vid=db9f1e9d-fa2e-4ef5-a5ae-91308d412f1f","ios":"levelo://app?vid=db9f1e9d-fa2e-4ef5-a5ae-91308d412f1f"},"vehicle_type_id":"4","last_reported":1690754739,"current_range_meters":14800,"station_id":"ce4bhq92rcd13ifvqhjg","pricing_plan_id":"free"},{"bike_id":"9f4c9208-40ab-4e16-ab55-057d0c87e783","system_id":"levelo_inurba_marseille","lat":43.33725,"lon":5.39195,"is_reserved":false,"is_disabled":false,"rental_uris":{"android":"levelo://app?vid=9f4c9208-40ab-4e16-ab55-057d0c87e783","ios":"levelo://app?vid=9f4c9208-40ab-4e16-ab55-057d0c87e783"},"vehicle_type_id":"4","last_reported":1690754739,"current_range_meters":18800,"station_id":"ce4bhr92rcd13ifvqhsg","pricing_plan_id":"free"},{"bike_id":"b35b35ac-779a-433f-a286-0b05a9e80c7f","system_id":"levelo_inurba_marseille","lat":43.33717,"lon":5.391857,"is_reserved":false,"is_disabled":false,"rental_uris":{"android":"levelo://app?vid=b35b35ac-779a-433f-a286-0b05a9e80c7f","ios":"levelo://app?vid=b35b35ac-779a-433f-a286-0b05a9e80c7f"},"vehicle_type_id":"4","last_reported":1690754739,"current_range_meters":23600,"station_id":"ce4bhr92rcd13ifvqhsg","pricing_plan_id":"free"},{"bike_id":"e78794ab-1147-4e07-9747-4f03804e7014","system_id":"levelo_inurba_marseille","lat":43.33733,"lon":5.39189,"is_reserved":false,"is_disabled":false,"rental_uris":{"android":"levelo://app?vid=e78794ab-1147-4e07-9747-4f03804e7014","ios":"levelo://app?vid=e78794ab-1147-4e07-9747-4f03804e7014"},"vehicle_type_id":"4","last_reported":1690754739,"current_range_meters":23200,"station_id":"ce4bhr92rcd13ifvqhsg","pricing_plan_id":"free"},{"bike_id":"75a5ef6a-cf0c-428b-a209-f7db5aacfd22","system_id":"levelo_inurba_marseille","lat":43.28486,"lon":5.38427,"is_reserved":false,"is_disabled":false,"rental_uris":{"android":"levelo://app?vid=75a5ef6a-cf0c-428b-a209-f7db5aacfd22","ios":"levelo://app?vid=75a5ef6a-cf0c-428b-a209-f7db5aacfd22"},"vehicle_type_id":"4","last_reported":1690754739,"current_range_meters":30800,"station_id":"ce4bh512rcd13ifvqe3g","pricing_plan_id":"free"},{"bike_id":"b3c3e538-0642-4217-b9b0-cfe248929962","system_id":"levelo_inurba_marseille","lat":43.28487,"lon":5.38433,"is_reserved":false,"is_disabled":false,"rental_uris":{"android":"levelo://app?vid=b3c3e538-0642-4217-b9b0-cfe248929962","ios":"levelo://app?vid=b3c3e538-0642-4217-b9b0-cfe248929962"},"vehicle_type_id":"4","last_reported":1690754739,"current_range_meters":4400,"station_id":"ce4bh512rcd13ifvqe3g","pricing_plan_id":"free"},{"bike_id":"5beb1b33-2283-4e57-94a0-0ef3a0d1c76e","system_id":"levelo_inurba_marseille","lat":43.2849,"lon":5.38443,"is_reserved":false,"is_disabled":false,"rental_uris":{"android":"levelo://app?vid=5beb1b33-2283-4e57-94a0-0ef3a0d1c76e","ios":"levelo://app?vid=5beb1b33-2283-4e57-94a0-0ef3a0d1c76e"},"vehicle_type_id":"4","last_reported":1690754739,"current_range_meters":31200,"station_id":"ce4bh512rcd13ifvqe3g","pricing_plan_id":"free"},{"bike_id":"cdaa888c-5fd6-49b0-a1d1-8d16a6539598","system_id":"levelo_inurba_marseille","lat":43.288497,"lon":5.393089,"is_reserved":false,"is_disabled":false,"rental_uris":{"android":"levelo://app?vid=cdaa888c-5fd6-49b0-a1d1-8d16a6539598","ios":"levelo://app?vid=cdaa888c-5fd6-49b0-a1d1-8d16a6539598"},"vehicle_type_id":"4","last_reported":1690754739,"current_range_meters":23200,"station_id":"ce4bh2p2rcd13ifvqdi0","pricing_plan_id":"free"},{"bike_id":"dc399c37-82f8-4f6e-835e-5fb100725856","system_id":"levelo_inurba_marseille","lat":43.29807,"lon":5.40399,"is_reserved":false,"is_disabled":false,"rental_uris":{"android":"levelo://app?vid=dc399c37-82f8-4f6e-835e-5fb100725856","ios":"levelo://app?vid=dc399c37-82f8-4f6e-835e-5fb100725856"},"vehicle_type_id":"4","last_reported":1690754739,"current_range_meters":31200,"station_id":"","pricing_plan_id":"free"},{"bike_id":"dcf4b80e-962e-48c4-b99a-ad3838d79dc5","system_id":"levelo_inurba_marseille","lat":43.288501,"lon":5.393087,"is_reserved":false,"is_disabled":false,"rental_uris":{"android":"levelo://app?vid=dcf4b80e-962e-48c4-b99a-ad3838d79dc5","ios":"levelo://app?vid=dcf4b80e-962e-48c4-b99a-ad3838d79dc5"},"vehicle_type_id":"4","last_reported":1690754739,"current_range_meters":2800,"station_id":"ce4bh2p2rcd13ifvqdi0","pricing_plan_id":"free"},{"bike_id":"b0eac037-3f8a-49f6-8ce5-67c985c5f9d4","system_id":"levelo_inurba_marseille","lat":43.288501,"lon":5.393087,"is_reserved":false,"is_disabled":false,"rental_uris":{"android":"levelo://app?vid=b0eac037-3f8a-49f6-8ce5-67c985c5f9d4","ios":"levelo://app?vid=b0eac037-3f8a-49f6-8ce5-67c985c5f9d4"},"vehicle_type_id":"4","last_reported":1690754739,"current_range_meters":20400,"station_id":"ce4bh2p2rcd13ifvqdi0","pricing_plan_id":"free"},{"bike_id":"d002668d-6e3c-45f3-b3f6-125d3fc8a05b","system_id":"levelo_inurba_marseille","lat":43.288501,"lon":5.393087,"is_reserved":false,"is_disabled":false,"rental_uris":{"android":"levelo://app?vid=d002668d-6e3c-45f3-b3f6-125d3fc8a05b","ios":"levelo://app?vid=d002668d-6e3c-45f3-b3f6-125d3fc8a05b"},"vehicle_type_id":"4","last_reported":1690754739,"current_range_meters":3600,"station_id":"ce4bh2p2rcd13ifvqdi0","pricing_plan_id":"free"},{"bike_id":"9f29a7c8-f1ce-42a5-8575-fca64e0afbe9","system_id":"levelo_inurba_marseille","lat":43.288501,"lon":5.393087,"is_reserved":false,"is_disabled":false,"rental_uris":{"android":"levelo://app?vid=9f29a7c8-f1ce-42a5-8575-fca64e0afbe9","ios":"levelo://app?vid=9f29a7c8-f1ce-42a5-8575-fca64e0afbe9"},"vehicle_type_id":"4","last_reported":1690754739,"current_range_meters":14000,"station_id":"ce4bh2p2rcd13ifvqdi0","pricing_plan_id":"free"},{"bike_id":"fc31ed91-4f34-4ab0-a43a-79794aaa5523","system_id":"levelo_inurba_marseille","lat":43.288501,"lon":5.393087,"is_reserved":false,"is_disabled":false,"rental_uris":{"android":"levelo://app?vid=fc31ed91-4f34-4ab0-a43a-79794aaa5523","ios":"levelo://app?vid=fc31ed91-4f34-4ab0-a43a-79794aaa5523"},"vehicle_type_id":"4","last_reported":1690754739,"current_range_meters":0,"station_id":"ce4bh2p2rcd13ifvqdi0","pricing_plan_id":"free"},{"bike_id":"5dad3a80-cbf4-4b6b-9429-949686fcac77","system_id":"levelo_inurba_marseille","lat":43.283494,"lon":5.380945,"is_reserved":false,"is_disabled":false,"rental_uris":{"android":"levelo://app?vid=5dad3a80-cbf4-4b6b-9429-949686fcac77","ios":"levelo://app?vid=5dad3a80-cbf4-4b6b-9429-949686fcac77"},"vehicle_type_id":"4","last_reported":1690754739,"current_range_meters":20400,"station_id":"ce4bh412rcd13ifvqdr0","pricing_plan_id":"free"},{"bike_id":"c55f02b9-6be9-418f-94f6-346d4e3ed12e","system_id":"levelo_inurba_marseille","lat":43.283494,"lon":5.380945,"is_reserved":false,"is_disabled":false,"rental_uris":{"android":"levelo://app?vid=c55f02b9-6be9-418f-94f6-346d4e3ed12e","ios":"levelo://app?vid=c55f02b9-6be9-418f-94f6-346d4e3ed12e"},"vehicle_type_id":"4","last_reported":1690754739,"current_range_meters":25600,"station_id":"ce4bh412rcd13ifvqdr0","pricing_plan_id":"free"},{"bike_id":"4f14fc10-9244-4a80-adcd-5a2b3dcde3e5","system_id":"levelo_inurba_marseille","lat":43.28351,"lon":5.3812,"is_reserved":false,"is_disabled":false,"rental_uris":{"android":"levelo://app?vid=4f14fc10-9244-4a80-adcd-5a2b3dcde3e5","ios":"levelo://app?vid=4f14fc10-9244-4a80-adcd-5a2b3dcde3e5"},"vehicle_type_id":"4","last_reported":1690754739,"current_range_meters":13600,"station_id":"ce4bh412rcd13ifvqdr0","pricing_plan_id":"free"},{"bike_id":"2a5de10d-e8bd-489a-8277-fe3c451e2b09","system_id":"levelo_inurba_marseille","lat":43.283494,"lon":5.380945,"is_reserved":false,"is_disabled":false,"rental_uris":{"android":"levelo://app?vid=2a5de10d-e8bd-489a-8277-fe3c451e2b09","ios":"levelo://app?vid=2a5de10d-e8bd-489a-8277-fe3c451e2b09"},"vehicle_type_id":"4","last_reported":1690754739,"current_range_meters":20400,"station_id":"ce4bh412rcd13ifvqdr0","pricing_plan_id":"free"},{"bike_id":"85f978fa-f8a1-4708-8551-70766cfd7997","system_id":"levelo_inurba_marseille","lat":43.302008,"lon":5.394694,"is_reserved":false,"is_disabled":false,"rental_uris":{"android":"levelo://app?vid=85f978fa-f8a1-4708-8551-70766cfd7997","ios":"levelo://app?vid=85f978fa-f8a1-4708-8551-70766cfd7997"},"vehicle_type_id":"4","last_reported":1690754739,"current_range_meters":30400,"station_id":"ce4bh0p2rcd13ifvqd70","pricing_plan_id":"free"},{"bike_id":"edb26cb6-242d-4ac5-ba6e-f37ff60e3a33","system_id":"levelo_inurba_marseille","lat":43.28945,"lon":5.39639,"is_reserved":false,"is_disabled":false,"rental_uris":{"android":"levelo://app?vid=edb26cb6-242d-4ac5-ba6e-f37ff60e3a33","ios":"levelo://app?vid=edb26cb6-242d-4ac5-ba6e-f37ff60e3a33"},"vehicle_type_id":"4","last_reported":1690754739,"current_range_meters":18800,"station_id":"ce4bh3h2rcd13ifvqdn0","pricing_plan_id":"free"},{"bike_id":"cc9e0f43-4d4b-4113-9872-b8cac9b0ec14","system_id":"levelo_inurba_marseille","lat":43.292724,"lon":5.401131,"is_reserved":false,"is_disabled":false,"rental_uris":{"android":"levelo://app?vid=cc9e0f43-4d4b-4113-9872-b8cac9b0ec14","ios":"levelo://app?vid=cc9e0f43-4d4b-4113-9872-b8cac9b0ec14"},"vehicle_type_id":"4","last_reported":1690754739,"current_range_meters":31200,"station_id":"ce4bh312rcd13ifvqdk0","pricing_plan_id":"free"},{"bike_id":"c67fd003-011a-42e2-85f2-2714de5997e4","system_id":"levelo_inurba_marseille","lat":43.32483,"lon":5.40747,"is_reserved":false,"is_disabled":false,"rental_uris":{"android":"levelo://app?vid=c67fd003-011a-42e2-85f2-2714de5997e4","ios":"levelo://app?vid=c67fd003-011a-42e2-85f2-2714de5997e4"},"vehicle_type_id":"4","last_reported":1690754739,"current_range_meters":1600,"station_id":"","pricing_plan_id":"free"},{"bike_id":"c7823e09-c4bf-4dd9-acf7-da824d0bcf7a","system_id":"levelo_inurba_marseille","lat":43.292724,"lon":5.401131,"is_reserved":false,"is_disabled":false,"rental_uris":{"android":"levelo://app?vid=c7823e09-c4bf-4dd9-acf7-da824d0bcf7a","ios":"levelo://app?vid=c7823e09-c4bf-4dd9-acf7-da824d0bcf7a"},"vehicle_type_id":"4","last_reported":1690754739,"current_range_meters":30000,"station_id":"ce4bh312rcd13ifvqdk0","pricing_plan_id":"free"},