{"last_updated":1729278442,"ttl":60,"version":"2.2","data":{"bikes":[{"bike_id":"7c215bb1-a727-4569-986d-c8f6cf1e676e","system_id":"levelo_inurba_marseille","lat":43.31711,"lon":5.43712,"is_reserved":false,"is_disabled":false,"rental_uris":{"android":"levelo://app?vid=7c215bb1-a727-4569-986d-c8f6cf1e676e","ios":"levelo://app?vid=7c215bb1-a727-4569-986d-c8f6cf1e676e"},"vehicle_type_id":"4","last_reported":1729278442,"current_range_meters":38800,"station_id":"ce4bhp92rcd13ifvqhcg","pricing_plan_id":"cebpf4jnsgd1na2vs0mg"},{"bike_id":"9415f9f7-8dd5-4c39-b636-672f22cf6422","system_id":"levelo_inurba_marseille","lat":43.32112,"lon":5.36773,"is_reserved":false,"is_disabled":false,"rental_uris":{"android":"levelo://app?vid=9415f9f7-8dd5-4c39-b636-672f22cf6422","ios":"levelo://app?vid=9415f9f7-8dd5-4c39-b636-672f22cf6422"},"vehicle_type_id":"4","last_reported":1729278442,"current_range_meters":38800,"station_id":"ce4bhrh2rcd13ifvqhug","pricing_plan_id":"cebpf4jnsgd1na2vs0mg"},{"bike_id":"0bd29515-40d3-4b3d-a1be-6c5884ab24e6","system_id":"levelo_inurba_marseille","lat":43.3248,"lon":5.37457,"is_reserved":false,"is_disabled":false,"rental_uris":{"android":"levelo://app?vid=0bd29515-40d3-4b3d-a1be-6c5884ab24e6","ios":"levelo://app?vid=0bd29515-40d3-4b3d-a1be-6c5884ab24e6"},"vehicle_type_id":"4","last_reported":1729278442,"current_range_meters":22400,"station_id":"","pricing_plan_id":"cebpf4jnsgd1na2vs0mg"},{"bike_id":"676ec6c4-6b42-43e0-81fe-327782965da5","system_id":"levelo_inurba_marseille","lat":43.33765,"lon":5.37484,"is_reserved":false,"is_disabled":false,"rental_uris":{"android":"levelo://app?vid=676ec6c4-6b42-43e0-81fe-327782965da5","ios":"levelo://app?vid=676ec6c4-6b42-43e0-81fe-327782965da5"},"vehicle_type_id":"4","last_reported":1729278442,"current_range_meters":16800,"station_id":"","pricing_plan_id":"cebpf4jnsgd1na2vs0mg"},{"bike_id":"966f251d-4412-4e77-82b7-c125675614ef","system_id":"levelo_inurba_marseille","lat":43.337444,"lon":5.374475,"is_reserved":false,"is_disabled":false,"rental_uris":{"android":"levelo://app?vid=966f251d-4412-4e77-82b7-c125675614ef","ios":"levelo://app?vid=966f251d-4412-4e77-82b7-c125675614ef"},"vehicle_type_id":"4","last_reported":1729278442,"current_range_meters":6800,"station_id":"","pricing_plan_id":"cebpf4jnsgd1na2vs0mg"},{"bike_id":"53893ee7-7d5e-4c2b-a931-da13ada2e74f","system_id":"levelo_inurba_marseille","lat":43.31714,"lon":5.43706,"is_reserved":false,"is_disabled":false,"rental_uris":{"android":"levelo://app?vid=53893ee7-7d5e-4c2b-a931-da13ada2e74f","ios":"levelo://app?vid=53893ee7-7d5e-4c2b-a931-da13ada2e74f"},"vehicle_type_id":"4","last_reported":1729278442,"current_range_meters":2800,"station_id":"ce4bhp92rcd13ifvqhcg","pricing_plan_id":"cebpf4jnsgd1na2vs0mg"},{"bike_id":"8a4676de-4b53-41e9-9fe7-9a960ebadaa8","system_id":"levelo_inurba_marseille","lat":43.30802,"lon":5.43536,"is_reserved":false,"is_disabled":false,"rental_uris":{"android":"levelo://app?vid=8a4676de-4b53-41e9-9fe7-9a960ebadaa8","ios":"levelo://app?vid=8a4676de-4b53-41e9-9fe7-9a960ebadaa8"},"vehicle_type_id":"4","last_reported":1729278442,"current_range_meters":2000,"station_id":"ce4bhph2rcd13ifvqheg","pricing_plan_id":"cebpf4jnsgd1na2vs0mg"},{"bike_id":"1f037bec-0916-4bbc-adf2-9a35173e7657","system_id":"levelo_inurba_marseille","lat":43.33023,"lon":5.39044,"is_reserved":false,"is_disabled":false,"rental_uris":{"android":"levelo://app?vid=1f037bec-0916-4bbc-adf2-9a35173e7657","ios":"levelo://app?vid=1f037bec-0916-4bbc-adf2-9a35173e7657"},"vehicle_type_id":"4","last_reported":1729278442,"current_range_meters":35600,"station_id":"ce4bhr92rcd13ifvqhrg","pricing_plan_id":"cebpf4jnsgd1na2vs0mg"},{"bike_id":"9e23534c-3873-44a5-b32e-f42e453f7851","system_id":"levelo_inurba_marseille","lat":43.31081,"lon":5.4243,"is_reserved":false,"is_disabled":false,"rental_uris":{"android":"levelo://app?vid=9e23534c-3873-44a5-b32e-f42e453f7851","ios":"levelo://app?vid=9e23534c-3873-44a5-b32e-f42e453f7851"},"vehicle_type_id":"4","last_reported":1729278442,"current_range_meters":18000,"station_id":"ce4bhp92rcd13ifvqhag","pricing_plan_id":"cebpf4jnsgd1na2vs0mg"},{"bike_id":"bdac7045-6822-4f98-8d23-075c35d4893f","system_id":"levelo_inurba_marseille","lat":43.29343,"lon":5.42837,"is_reserved":false,"is_disabled":false,"rental_uris":{"android":"levelo://app?vid=bdac7045-6822-4f98-8d23-075c35d4893f","ios":"levelo://app?vid=bdac7045-6822-4f98-8d23-075c35d4893f"},"vehicle_type_id":"4","last_reported":1729278442,"current_range_meters":8800,"station_id":"","pricing_plan_id":"cebpf4jnsgd1na2vs0mg"},{"bike_id":"e91a1331-d3e2-4c78-812c-d3e2019d277b","system_id":"levelo_inurba_marseille","lat":43.3199,"lon":5.38158,"is_reserved":false,"is_disabled":false,"rental_uris":{"android":"levelo://app?vid=e91a1331-d3e2-4c78-812c-d3e2019d277b","ios":"levelo://app?vid=e91a1331-d3e2-4c78-812c-d3e2019d277b"},"vehicle_type_id":"4","last_reported":1729278442,"current_range_meters":30800,"station_id":"ce4bhr12rcd13ifvqhpg","pricing_plan_id":"cebpf4jnsgd1na2vs0mg"},{"bike_id":"0ae5a09b-8c74-4347-bfde-6ca33f68e0d1","system_id":"levelo_inurba_marseille","lat":43.29629,"lon":5.40602,"is_reserved":false,"is_disabled":false,"rental_uris":{"android":"levelo://app?vid=0ae5a09b-8c74-4347-bfde-6ca33f68e0d1","ios":"levelo://app?vid=0ae5a09b-8c74-4347-bfde-6ca33f68e0d1"},"vehicle_type_id":"4","last_reported":1729278442,"current_range_meters":21600,"station_id":"ce4bh0h2rcd13ifvqd60","pricing_plan_id":"cebpf4jnsgd1na2vs0mg"},{"bike_id":"d1aa7191-8adf-49b8-bfe5-5a2641b461b9","system_id":"levelo_inurba_marseille","lat":43.26062,"lon":5.39392,"is_reserved":false,"is_disabled":false,"rental_uris":{"android":"levelo://app?vid=d1aa7191-8adf-49b8-bfe5-5a2641b461b9","ios":"levelo://app?vid=d1aa7191-8adf-49b8-bfe5-5a2641b461b9"},"vehicle_type_id":"4","last_reported":1729278442,"current_range_meters":3200,"station_id":"ce4bhh92rcd13ifvqfj0","pricing_plan_id":"cebpf4jnsgd1na2vs0mg"},{"bike_id":"b11a0b35-9a35-4c12-b0cc-c7e5e4279566","system_id":"levelo_inurba_marseille","lat":43.23966,"lon":5.36633,"is_reserved":false,"is_disabled":false,"rental_uris":{"android":"levelo://app?vid=b11a0b35-9a35-4c12-b0cc-c7e5e4279566","ios":"levelo://app?vid=b11a0b35-9a35-4c12-b0cc-c7e5e4279566"},"vehicle_type_id":"4","last_reported":1729278442,"current_range_meters":10000,"station_id":"ce4bhi12rcd13ifvqfp0","pricing_plan_id":"cebpf4jnsgd1na2vs0mg"},{"bike_id":"eefe4586-166d-446e-b218-432cc63f7646","system_id":"levelo_inurba_marseille","lat":43.29065,"lon":5.37168,"is_reserved":false,"is_disabled":false,"rental_uris":{"android":"levelo://app?vid=eefe4586-166d-446e-b218-432cc63f7646","ios":"levelo://app?vid=eefe4586-166d-446e-b218-432cc63f7646"},"vehicle_type_id":"4","last_reported":1729278442,"current_range_meters":39200,"station_id":"ce4bh5p2rcd13ifvqe4g","pricing_plan_id":"cebpf4jnsgd1na2vs0mg"},{"bike_id":"23378796-dcf6-4be0-b6ce-a55ba9edc13e","system_id":"levelo_inurba_marseille","lat":43.2549,"lon":5.3765,"is_reserved":false,"is_disabled":false,"rental_uris":{"android":"levelo://app?vid=23378796-dcf6-4be0-b6ce-a55ba9edc13e","ios":"levelo://app?vid=23378796-dcf6-4be0-b6ce-a55ba9edc13e"},"vehicle_type_id":"4","last_reported":1729278442,"current_range_meters":36000,"station_id":"ce4bhh12rcd13ifvqff0","pricing_plan_id":"cebpf4jnsgd1na2vs0mg"},{"bike_id":"40302e19-028a-44eb-9abb-29a38b86aa5e","system_id":"levelo_inurba_marseille","lat":43.31164,"lon":5.3873,"is_reserved":false,"is_disabled":false,"rental_uris":{"android":"levelo://app?vid=40302e19-028a-44eb-9abb-29a38b86aa5e","ios":"levelo://app?vid=40302e19-028a-44eb-9abb-29a38b86aa5e"},"vehicle_type_id":"4","last_reported":1729278442,"current_range_meters":12000,"station_id":"ce4bgv12rcd13ifvqcp0","pricing_plan_id":"cebpf4jnsgd1na2vs0mg"},{"bike_id":"b5584416-84f8-4369-bdc7-8f37b30d057b","system_id":"levelo_inurba_marseille","lat":43.29071,"lon":5.37164,"is_reserved":false,"is_disabled":false,"rental_uris":{"android":"levelo://app?vid=b5584416-84f8-4369-bdc7-8f37b30d057b","ios":"levelo://app?vid=b5584416-84f8-4369-bdc7-8f37b30d057b"},"vehicle_type_id":"4","last_reported":1729278442,"current_range_meters":32000,"station_id":"ce4bh5p2rcd13ifvqe4g","pricing_plan_id":"cebpf4jnsgd1na2vs0mg"},{"bike_id":"595344e4-7d1f-4681-ad29-d255c0118c97","system_id":"levelo_inurba_marseille","lat":43.28005,"lon":5.40002,"is_reserved":false,"is_disabled":false,"rental_uris":{"android":"levelo://app?vid=595344e4-7d1f-4681-ad29-d255c0118c97","ios":"levelo://app?vid=595344e4-7d1f-4681-ad29-d255c0118c97"},"vehicle_type_id":"4","last_reported":1729278442,"current_range_meters":32400,"station_id":"ce4bho92rcd13ifvqh4g","pricing_plan_id":"cebpf4jnsgd1na2vs0mg"},{"bike_id":"37fd52b8-1471-4998-aad0-f8643874b331","system_id":"levelo_inurba_marseille","lat":43.29422,"lon":5.38616,"is_reserved":false,"is_disabled":false,"rental_uris":{"android":"levelo://app?vid=37fd52b8-1471-4998-aad0-f8643874b331","ios":"levelo://app?vid=37fd52b8-1471-4998-aad0-f8643874b331"},"vehicle_type_id":"4","last_reported":1729278442,"current_range_meters":38800,"station_id":"ce4bh2h2rcd13ifvqdh0","pricing_plan_id":"cebpf4jnsgd1na2vs0mg"},{"bike_id":"52d18de1-171a-41bb-a152-af101517006c","system_id":"levelo_inurba_marseille","lat":43.30417,"lon":5.4129,"is_reserved":false,"is_disabled":false,"rental_uris":{"android":"levelo://app?vid=52d18de1-171a-41bb-a152-af101517006c","ios":"levelo://app?vid=52d18de1-171a-41bb-a152-af101517006c"},"vehicle_type_id":"4","last_reported":1729278442,"current_range_meters":26800,"station_id":"ce4bhop2rcd13ifvqh8g","pricing_plan_id":"cebpf4jnsgd1na2vs0mg"},{"bike_id":"5a52bb81-9b06-4d9d-bf48-6cee85bb6386","system_id":"levelo_inurba_marseille","lat":43.30536,"lon":5.38426,"is_reserved":false,"is_disabled":false,"rental_uris":{"android":"levelo://app?vid=5a52bb81-9b06-4d9d-bf48-6cee85bb6386","ios":"levelo://app?vid=5a52bb81-9b06-4d9d-bf48-6cee85bb6386"},"vehicle_type_id":"4","last_reported":1729278442,"current_range_meters":8000,"station_id":"ce4bgg92rcd13ifvqb30","pricing_plan_id":"cebpf4jnsgd1na2vs0mg"},{"bike_id":"af2da75f-e872-442d-8f32-57adee36401d","system_id":"levelo_inurba_marseille","lat":43.27996,"lon":5.41669,"is_reserved":false,"is_disabled":false,"rental_uris":{"android":"levelo://app?vid=af2da75f-e872-442d-8f32-57adee36401d","ios":"levelo://app?vid=af2da75f-e872-442d-8f32-57adee36401d"},"vehicle_type_id":"4","last_reported":1729278442,"current_range_meters":16000,"station_id":"ce4bho12rcd13ifvqh1g","pricing_plan_id":"cebpf4jnsgd1na2vs0mg"},{"bike_id":"84a71244-fc5a-453f-b683-69ed4c14244f","system_id":"levelo_inurba_marseille","lat":43.28006,"lon":5.41656,"is_reserved":false,"is_disabled":false,"rental_uris":{"android":"levelo://app?vid=84a71244-fc5a-453f-b683-69ed4c14244f","ios":"levelo://app?vid=84a71244-fc5a-453f-b683-69ed4c14244f"},"vehicle_type_id":"4","last_reported":1729278442,"current_range_meters":14400,"station_id":"ce4bho12rcd13ifvqh1g","pricing_plan_id":"cebpf4jnsgd1na2vs0mg"},{"bike_id":"2aa30074-a798-4517-9910-408fe840d5c0","system_id":"levelo_inurba_marseille","lat":43.23192,"lon":5.35555,"is_reserved":false,"is_disabled":false,"rental_uris":{"android":"levelo://app?vid=2aa30074-a798-4517-9910-408fe840d5c0","ios":"levelo://app?vid=2aa30074-a798-4517-9910-408fe840d5c0"},"vehicle_type_id":"4","last_reported":1729278442,"current_range_meters":27600,"station_id":"ce4bhu92rcd13ifvqi70","pricing_plan_id":"cebpf4jnsgd1na2vs0mg"},{"bike_id":"6f19fdae-6636-4222-a288-d20929d58874","system_id":"levelo_inurba_marseille","lat":43.27371,"lon":5.36263,"is_reserved":false,"is_disabled":false,"rental_uris":{"android":"levelo://app?vid=6f19fdae-6636-4222-a288-d20929d58874","ios":"levelo://app?vid=6f19fdae-6636-4222-a288-d20929d58874"},"vehicle_type_id":"4","last_reported":1729278442,"current_range_meters":38800,"station_id":"ce4bhbh2rcd13ifvqeo0","pricing_plan_id":"cebpf4jnsgd1na2vs0mg"},{"bike_id":"4f26a845-6de4-4b6c-be9b-96ced565c206","system_id":"levelo_inurba_marseille","lat":43.29895,"lon":5.43676,"is_reserved":false,"is_disabled":false,"rental_uris":{"android":"levelo://app?vid=4f26a845-6de4-4b6c-be9b-96ced565c206","ios":"levelo://app?vid=4f26a845-6de4-4b6c-be9b-96ced565c206"},"vehicle_type_id":"4","last_reported":1729278442,"current_range_meters":11600,"station_id":"ce4bhpp2rcd13ifvqhfg","pricing_plan_id":"cebpf4jnsgd1na2vs0mg"},{"bike_id":"1e261fd7-90b0-4798-ada3-3b2f64035b8a","system_id":"levelo_inurba_marseille","lat":43.27999,"lon":5.40011,"is_reserved":false,"is_disabled":false,"rental_uris":{"android":"levelo://app?vid=1e261fd7-90b0-4798-ada3-3b2f64035b8a","ios":"levelo://app?vid=1e261fd7-90b0-4798-ada3-3b2f64035b8a"},"vehicle_type_id":"4","last_reported":1729278442,"current_range_meters":33200,"station_id":"ce4bho92rcd13ifvqh4g","pricing_plan_id":"cebpf4jnsgd1na2vs0mg"},{"bike_id":"0028b185-dd16-40de-8883-a40eecef2872","system_id":"levelo_inurba_marseille","lat":43.28079,"lon":5.39659,"is_reserved":false,"is_disabled":false,"rental_uris":{"android":"levelo://app?vid=0028b185-dd16-40de-8883-a40eecef2872","ios":"levelo://app?vid=0028b185-dd16-40de-8883-a40eecef2872"},"vehicle_type_id":"4","last_reported":1729278442,"current_range_meters":38400,"station_id":"ce4bho12rcd13ifvqh2g","pricing_plan_id":"cebpf4jnsgd1na2vs0mg"},{"bike_id":"9224c72e-b6cd-4b3b-807f-ae00f24ef2aa","system_id":"levelo_inurba_marseille","lat":43.29511,"lon":5.38743,"is_reserved":false,"is_disabled":false,"rental_uris":{"android":"levelo://app?vid=9224c72e-b6cd-4b3b-807f-ae00f24ef2aa","ios":"levelo://app?vid=9224c72e-b6cd-4b3b-807f-ae00f24ef2aa"},"vehicle_type_id":"4","last_reported":1729278442,"current_range_meters":28400,"station_id":"","pricing_plan_id":"cebpf4jnsgd1na2vs0mg"},{"bike_id":"bc4dfd71-cdf3-45e3-8aa3-c5528379f96a","system_id":"levelo_inurba_marseille","lat":43.27609,"lon":5.36119,"is_reserved":false,"is_disabled":false,"rental_uris":{"android":"levelo://app?vid=bc4dfd71-cdf3-45e3-8aa3-c5528379f96a","ios":"levelo://app?vid=bc4dfd71-cdf3-45e3-8aa3-c5528379f96a"},"vehicle_type_id":"4","last_reported":1729278442,"current_range_meters":24400,"station_id":"ce4bgj92rcd13ifvqbe0","pricing_plan_id":"cebpf4jnsgd1na2vs0mg"},{"bike_id":"c746da30-0175-4c63-8cc4-f4d0284e8127","system_id":"levelo_inurba_marseille","lat":43.23963,"lon":5.36643,"is_reserved":false,"is_disabled":false,"rental_uris":{"android":"levelo://app?vid=c746da30-0175-4c63-8cc4-f4d0284e8127","ios":"levelo://app?vid=c746da30-0175-4c63-8cc4-f4d0284e8127"},"vehicle_type_id":"4","last_reported":1729278442,"current_range_meters":19600,"station_id":"ce4bhi12rcd13ifvqfp0","pricing_plan_id":"cebpf4jnsgd1na2vs0mg"},{"bike_id":"38c20277-8950-4293-a4e4-17950a44864e","system_id":"levelo_inurba_marseille","lat":43.28946,"lon":5.39854,"is_reserved":false,"is_disabled":false,"rental_uris":{"android":"levelo://app?vid=38c20277-8950-4293-a4e4-17950a44864e","ios":"levelo://app?vid=38c20277-8950-4293-a4e4-17950a44864e"},"vehicle_type_id":"4","last_reported":1729278442,"current_range_meters":5600,"station_id":"ce4bhf92rcd13ifvqf50","pricing_plan_id":"cebpf4jnsgd1na2vs0mg"},{"bike_id":"93720a64-6ad0-406d-844d-3c40742c884c","system_id":"levelo_inurba_marseille","lat":43.30784,"lon":5.37658,"is_reserved":false,"is_disabled":false,"rental_uris":{"android":"levelo://app?vid=93720a64-6ad0-406d-844d-3c40742c884c","ios":"levelo://app?vid=93720a64-6ad0-406d-844d-3c40742c884c"},"vehicle_type_id":"4","last_reported":1729278442,"current_range_meters":38800,"station_id":"ce4bgv92rcd13ifvqcq0","pricing_plan_id":"cebpf4jnsgd1na2vs0mg"},{"bike_id":"d92866e7-2197-4237-852c-dbd4ba06590f","system_id":"levelo_inurba_marseille","lat":43.2942,"lon":5.38627,"is_reserved":false,"is_disabled":false,"rental_uris":{"android":"levelo://app?vid=d92866e7-2197-4237-852c-dbd4ba06590f","ios":"levelo://app?vid=d92866e7-2197-4237-852c-dbd4ba06590f"},"vehicle_type_id":"4","last_reported":1729278442,"current_range_meters":35200,"station_id":"ce4bh2h2rcd13ifvqdh0","pricing_plan_id":"cebpf4jnsgd1na2vs0mg"},{"bike_id":"17f14e5c-43ed-4553-81da-eefcbba002cd","system_id":"levelo_inurba_marseille","lat":43.30877,"lon":5.39633,"is_reserved":false,"is_disabled":false,"rental_uris":{"android":"levelo://app?vid=17f14e5c-43ed-4553-81da-eefcbba002cd","ios":"levelo://app?vid=17f14e5c-43ed-4553-81da-eefcbba002cd"},"vehicle_type_id":"4","last_reported":1729278442,"current_range_meters":28400,"station_id":"ce4bh012rcd13ifvqcv0","pricing_plan_id":"cebpf4jnsgd1na2vs0mg"},{"bike_id":"020abeeb-6af7-47ac-a01e-a232ef4dfe02","system_id":"levelo_inurba_marseille","lat":43.29962,"lon":5.38497,"is_reserved":false,"is_disabled":false,"rental_uris":{"android":"levelo://app?vid=020abeeb-6af7-47ac-a01e-a232ef4dfe02","ios":"levelo://app?vid=020abeeb-6af7-47ac-a01e-a232ef4dfe02"},"vehicle_type_id":"4","last_reported":1729278442,"current_range_meters":2800,"station_id":"ce4bgj92rcd13ifvqbd0","pricing_plan_id":"cebpf4jnsgd1na2vs0mg"},{"bike_id":"6f034070-ee6f-4e30-853e-ccd43834685f","system_id":"levelo_inurba_marseille","lat":43.2801,"lon":5.41662,"is_reserved":false,"is_disabled":false,"rental_uris":{"android":"levelo://app?vid=6f034070-ee6f-4e30-853e-ccd43834685f","ios":"levelo://app?vid=6f034070-ee6f-4e30-853e-ccd43834685f"},"vehicle_type_id":"4","last_reported":1729278442,"current_range_meters":16000,"station_id":"ce4bho12rcd13ifvqh1g","pricing_plan_id":"cebpf4jnsgd1na2vs0mg"},{"bike_id":"eca218d1-7119-492a-ba62-cb52d239834b","system_id":"levelo_inurba_marseille","lat":43.27811,"lon":5.40712,"is_reserved":false,"is_disabled":false,"rental_uris":{"android":"levelo://app?vid=eca218d1-7119-492a-ba62-cb52d239834b","ios":"levelo://app?vid=eca218d1-7119-492a-ba62-cb52d239834b"},"vehicle_type_id":"4","last_reported":1729278442,"current_range_meters":36800,"station_id":"ce4bhnh2rcd13ifvqgtg","pricing_plan_id":"cebpf4jnsgd1na2vs0mg"},{"bike_id":"4f8bd11b-a06a-4d2a-bee0-a05a0caa7df3","system_id":"levelo_inurba_marseille","lat":43.23183,"lon":5.39985,"is_reserved":false,"is_disabled":false,"rental_uris":{"android":"levelo://app?vid=4f8bd11b-a06a-4d2a-bee0-a05a0caa7df3","ios":"levelo://app?vid=4f8bd11b-a06a-4d2a-bee0-a05a0caa7df3"},"vehicle_type_id":"4","last_reported":1729278442,"current_range_meters":24000,"station_id":"ce4bhn12rcd13ifvqgqg","pricing_plan_id":"cebpf4jnsgd1na2vs0mg"},{"bike_id":"af6c36e8-7f69-4f6f-bfcb-b8c6de698ef0","system_id":"levelo_inurba_marseille","lat":43.2707,"lon":5.42282,"is_reserved":false,"is_disabled":false,"rental_uris":{"android":"levelo://app?vid=af6c36e8-7f69-4f6f-bfcb-b8c6de698ef0","ios":"levelo://app?vid=af6c36e8-7f69-4f6f-bfcb-b8c6de698ef0"},"vehicle_type_id":"4","last_reported":1729278442,"current_range_meters":17200,"station_id":"ce4bhk92rcd13ifvqgb0","pricing_plan_id":"cebpf4jnsgd1na2vs0mg"},{"bike_id":"fc6e513b-da81-4d34-a427-493e42edd768","system_id":"levelo_inurba_marseille","lat":43.29408,"lon":5.40555,"is_reserved":false,"is_disabled":false,"rental_uris":{"android":"levelo://app?vid=fc6e513b-da81-4d34-a427-493e42edd768","ios":"levelo://app?vid=fc6e513b-da81-4d34-a427-493e42edd768"},"vehicle_type_id":"4","last_reported":1729278442,"current_range_meters":27200,"station_id":"","pricing_plan_id":"cebpf4jnsgd1na2vs0mg"},{"bike_id":"0092393c-5fa7-4d7e-96ae-1d3cba232a3c","system_id":"levelo_inurba_marseille","lat":43.23182,"lon":5.39982,"is_reserved":false,"is_disabled":false,"rental_uris":{"android":"levelo://app?vid=0092393c-5fa7-4d7e-96ae-1d3cba232a3c","ios":"levelo://app?vid=0092393c-5fa7-4d7e-96ae-1d3cba232a3c"},"vehicle_type_id":"4","last_reported":1729278442,"current_range_meters":38800,"station_id":"ce4bhn12rcd13ifvqgqg","pricing_plan_id":"cebpf4jnsgd1na2vs0mg"},{"bike_id":"299dfc52-ccaa-46a8-85e5-ed1f38c31e59","system_id":"levelo_inurba_marseille","lat":43.24179,"lon":5.39726,"is_reserved":false,"is_disabled":false,"rental_uris":{"android":"levelo://app?vid=299dfc52-ccaa-46a8-85e5-ed1f38c31e59","ios":"levelo://app?vid=299dfc52-ccaa-46a8-85e5-ed1f38c31e59"},"vehicle_type_id":"4","last_reported":1729278442,"current_range_meters":22000,"station_id":"ce4bhn12rcd13ifvqgpg","pricing_plan_id":"cebpf4jnsgd1na2vs0mg"},{"bike_id":"0854ed16-3d75-4e4f-a68c-be286363553f","system_id":"levelo_inurba_marseille","lat":43.290375,"lon":5.399607,"is_reserved":false,"is_disabled":false,"rental_uris":{"android":"levelo://app?vid=0854ed16-3d75-4e4f-a68c-be286363553f","ios":"levelo://app?vid=0854ed16-3d75-4e4f-a68c-be286363553f"},"vehicle_type_id":"4","last_reported":1729278442,"current_range_meters":14400,"station_id":"ce4bh3h2rcd13ifvqdo0","pricing_plan_id":"cebpf4jnsgd1na2vs0mg"},{"bike_id":"ad196860-b440-4fe0-a449-fd383d09df5f","system_id":"levelo_inurba_marseille","lat":43.29607,"lon":5.3773,"is_reserved":false,"is_disabled":false,"rental_uris":{"android":"levelo://app?vid=ad196860-b440-4fe0-a449-fd383d09df5f","ios":"levelo://app?vid=ad196860-b440-4fe0-a449-fd383d09df5f"},"vehicle_type_id":"4","last_reported":1729278442,"current_range_meters":22800,"station_id":"ce4bgi92rcd13ifvqb90","pricing_plan_id":"cebpf4jnsgd1na2vs0mg"},{"bike_id":"6a17560c-e982-4f70-afa6-b4ec03264eaa","system_id":"levelo_inurba_marseille","lat":43.28441,"lon":5.39213,"is_reserved":false,"is_disabled":false,"rental_uris":{"android":"levelo://app?vid=6a17560c-e982-4f70-afa6-b4ec03264eaa","ios":"levelo://app?vid=6a17560c-e982-4f70-afa6-b4ec03264eaa"},"vehicle_type_id":"4","last_reported":1729278442,"current_range_meters":32400,"station_id":"ce4bhoh2rcd13ifvqh5g","pricing_plan_id":"cebpf4jnsgd1na2vs0mg"},{"bike_id":"d66b88ee-5904-4f9e-94fd-fe3342b8cf6b","system_id":"levelo_inurba_marseille","lat":43.29708,"lon":5.37697,"is_reserved":false,"is_disabled":false,"rental_uris":{"android":"levelo://app?vid=d66b88ee-5904-4f9e-94fd-fe3342b8cf6b","ios":"levelo://app?vid=d66b88ee-5904-4f9e-94fd-fe3342b8cf6b"},"vehicle_type_id":"4","last_reported":1729278442,"current_range_meters":38000,"station_id":"ce4bgkh2rcd13ifvqbl0","pricing_plan_id":"cebpf4jnsgd1na2vs0mg"},{"bike_id":"c4625362-afa5-4a11-9313-a6da32a32daa","system_id":"levelo_inurba_marseille","lat":43.29597,"lon":5.38113,"is_reserved":false,"is_disabled":false,"rental_uris":{"android":"levelo://app?vid=c4625362-afa5-4a11-9313-a6da32a32daa","ios":"levelo://app?vid=c4625362-afa5-4a11-9313-a6da32a32daa"},"vehicle_type_id":"4","last_reported":1729278442,"current_range_meters":24000,"station_id":"ce4bgl12rcd13ifvqbo0","pricing_plan_id":"cebpf4jnsgd1na2vs0mg"},{"bike_id":"3d7546d0-4dba-4212-88c9-dfe9a2032237","system_id":"levelo_inurba_marseille","lat":43.24171,"lon":5.36394,"is_reserved":false,"is_disabled":false,"rental_uris":{"android":"levelo://app?vid=3d7546d0-4dba-4212-88c9-dfe9a2032237","ios":"levelo://app?vid=3d7546d0-4dba-4212-88c9-dfe9a2032237"},"vehicle_type_id":"4","last_reported":1729278442,"current_range_meters":36800,"station_id":"cpo36qri1sfpv3e86is0","pricing_plan_id":"cebpf4jnsgd1na2vs0mg"},{"bike_id":"0e22066a-fea5-44ad-924b-6b92ad19c211","system_id":"levelo_inurba_marseille","lat":43.29621,"lon":5.37727,"is_reserved":false,"is_disabled":false,"rental_uris":{"android":"levelo://app?vid=0e22066a-fea5-44ad-924b-6b92ad19c211","ios":"levelo://app?vid=0e22066a-fea5-44ad-924b-6b92ad19c211"},"vehicle_type_id":"4","last_reported":1729278442,"current_range_meters":38800,"station_id":"ce4bgi92rcd13ifvqb90","pricing_plan_id":"cebpf4jnsgd1na2vs0mg"},{"bike_id":"b2fb5013-0f40-4c0f-b7e8-470159073346","system_id":"levelo_inurba_marseille","lat":43.27997,"lon":5.40007,"is_reserved":false,"is_disabled":false,"rental_uris":{"android":"levelo://app?vid=b2fb5013-0f40-4c0f-b7e8-470159073346","ios":"levelo://app?vid=b2fb5013-0f40-4c0f-b7e8-470159073346"},"vehicle_type_id":"4","last_reported":1729278442,"current_range_meters":23200,"station_id":"ce4bho92rcd13ifvqh4g","pricing_plan_id":"cebpf4jnsgd1na2vs0mg"},{"bike_id":"2e24b2f7-04d9-4aa5-a803-56fcc770dc64","system_id":"levelo_inurba_marseille","lat":43.29792,"lon":5.38167,"is_reserved":false,"is_disabled":false,"rental_uris":{"android":"levelo://app?vid=2e24b2f7-04d9-4aa5-a803-56fcc770dc64","ios":"levelo://app?vid=2e24b2f7-04d9-4aa5-a803-56fcc770dc64"},"vehicle_type_id":"4","last_reported":1729278442,"current_range_meters":37600,"station_id":"ce4bgip2rcd13ifvqbb0","pricing_plan_id":"cebpf4jnsgd1na2vs0mg"},{"bike_id":"90b7df2b-2805-4913-a745-07d80216980c","system_id":"levelo_inurba_marseille","lat":43.30799,"lon":5.43522,"is_reserved":false,"is_disabled":false,"rental_uris":{"android":"levelo://app?vid=90b7df2b-2805-4913-a745-07d80216980c","ios":"levelo://app?vid=90b7df2b-2805-4913-a745-07d80216980c"},"vehicle_type_id":"4","last_reported":1729278442,"current_range_meters":10000,"station_id":"ce4bhph2rcd13ifvqheg","pricing_plan_id":"cebpf4jnsgd1na2vs0mg"},{"bike_id":"32ce68a3-3fc7-4257-974f-ab657619c295","system_id":"levelo_inurba_marseille","lat":43.33744,"lon":5.37444,"is_reserved":false,"is_disabled":false,"rental_uris":{"android":"levelo://app?vid=32ce68a3-3fc7-4257-974f-ab657619c295","ios":"levelo://app?vid=32ce68a3-3fc7-4257-974f-ab657619c295"},"vehicle_type_id":"4","last_reported":1729278442,"current_range_meters":9200,"station_id":"","pricing_plan_id":"cebpf4jnsgd1na2vs0mg"},{"bike_id":"310dc4d8-21a4-4d74-926f-4ffe3f0ed12b","system_id":"levelo_inurba_marseille","lat":43.27377,"lon":5.36275,"is_reserved":false,"is_disabled":false,"rental_uris":{"android":"levelo://app?vid=310dc4d8-21a4-4d74-926f-4ffe3f0ed12b","ios":"levelo://app?vid=310dc4d8-21a4-4d74-926f-4ffe3f0ed12b"},"vehicle_type_id":"4","last_reported":1729278442,"current_range_meters":30400,"station_id":"ce4bhbh2rcd13ifvqeo0","pricing_plan_id":"cebpf4jnsgd1na2vs0mg"},{"bike_id":"555ff3cf-777b-4ff4-b149-9575fc002950","system_id":"levelo_inurba_marseille","lat":43.2418,"lon":5.39738,"is_reserved":false,"is_disabled":false,"rental_uris":{"android":"levelo://app?vid=555ff3cf-777b-4ff4-b149-9575fc002950","ios":"levelo://app?vid=555ff3cf-777b-4ff4-b149-9575fc002950"},"vehicle_type_id":"4","last_reported":1729278442,"current_range_meters":30400,"station_id":"ce4bhn12rcd13ifvqgpg","pricing_plan_id":"cebpf4jnsgd1na2vs0mg"},{"bike_id":"b64362e2-b043-4f67-8e42-f68524e828ed","system_id":"levelo_inurba_marseille","lat":43.24182,"lon":5.39719,"is_reserved":false,"is_disabled":false,"rental_uris":{"android":"levelo://app?vid=b64362e2-b043-4f67-8e42-f68524e828ed","ios":"levelo://app?vid=b64362e2-b043-4f67-8e42-f68524e828ed"},"vehicle_type_id":"4","last_reported":1729278442,"current_range_meters":24000,"station_id":"ce4bhn12rcd13ifvqgpg","pricing_plan_id":"cebpf4jnsgd1na2vs0mg"},{"bike_id":"1b1613ca-55b3-41c0-bc8c-bdb057af993a","system_id":"levelo_inurba_marseille","lat":43.2794,"lon":5.41058,"is_reserved":false,"is_disabled":false,"rental_uris":{"android":"levelo://app?vid=1b1613ca-55b3-41c0-bc8c-bdb057af993a","ios":"levelo://app?vid=1b1613ca-55b3-41c0-bc8c-bdb057af993a"},"vehicle_type_id":"4","last_reported":1729278442,"current_range_meters":16400,"station_id":"ce4bhnp2rcd13ifvqh0g","pricing_plan_id":"cebpf4jnsgd1na2vs0mg"},{"bike_id":"9afedf0f-4019-40e4-97d1-32eaa483f289","system_id":"levelo_inurba_marseille","lat":43.28603,"lon":5.37066,"is_reserved":false,"is_disabled":false,"rental_uris":{"android":"levelo://app?vid=9afedf0f-4019-40e4-97d1-32eaa483f289","ios":"levelo://app?vid=9afedf0f-4019-40e4-97d1-32eaa483f289"},"vehicle_type_id":"4","last_reported":1729278442,"current_range_meters":38800,"station_id":"ce4bht12rcd13ifvqi60","pricing_plan_id":"cebpf4jnsgd1na2vs0mg"},{"bike_id":"1c170803-c512-427c-a113-e3f0a35819ca","system_id":"levelo_inurba_marseille","lat":43.24549,"lon":5.39521,"is_reserved":false,"is_disabled":false,"rental_uris":{"android":"levelo://app?vid=1c170803-c512-427c-a113-e3f0a35819ca","ios":"levelo://app?vid=1c170803-c512-427c-a113-e3f0a35819ca"},"vehicle_type_id":"4","last_reported":1729278442,"current_range_meters":32000,"station_id":"ce4bhlp2rcd13ifvqgjg","pricing_plan_id":"cebpf4jnsgd1na2vs0mg"},{"bike_id":"ddd62ba3-c050-46d2-a8ed-02c4b983589b","system_id":"levelo_inurba_marseille","lat":43.32481,"lon":5.36573,"is_reserved":false,"is_disabled":false,"rental_uris":{"android":"levelo://app?vid=ddd62ba3-c050-46d2-a8ed-02c4b983589b","ios":"levelo://app?vid=ddd62ba3-c050-46d2-a8ed-02c4b983589b"},"vehicle_type_id":"4","last_reported":1729278442,"current_range_meters":30800,"station_id":"ce4bhs12rcd13ifvqhvg","pricing_plan_id":"cebpf4jnsgd1na2vs0mg"},{"bike_id":"8c1ec6cb-2291-4814-837b-be8625c706f3","system_id":"levelo_inurba_marseille","lat":43.23194,"lon":5.35546,"is_reserved":false,"is_disabled":false,"rental_uris":{"android":"levelo://app?vid=8c1ec6cb-2291-4814-837b-be8625c706f3","ios":"levelo://app?vid=8c1ec6cb-2291-4814-837b-be8625c706f3"},"vehicle_type_id":"4","last_reported":1729278442,"current_range_meters":31200,"station_id":"ce4bhu92rcd13ifvqi70","pricing_plan_id":"cebpf4jnsgd1na2vs0mg"},{"bike_id":"8429a31c-77f3-41b6-b710-38d8ca6d27dc","system_id":"levelo_inurba_marseille","lat":43.25086,"lon":5.39527,"is_reserved":false,"is_disabled":false,"rental_uris":{"android":"levelo://app?vid=8429a31c-77f3-41b6-b710-38d8ca6d27dc","ios":"levelo://app?vid=8429a31c-77f3-41b6-b710-38d8ca6d27dc"},"vehicle_type_id":"4","last_reported":1729278442,"current_range_meters":24800,"station_id":"ce4bhm12rcd13ifvqgkg","pricing_plan_id":"cebpf4jnsgd1na2vs0mg"},{"bike_id":"237d7f97-c455-4e9c-921e-eac7b8d93fcf","system_id":"levelo_inurba_marseille","lat":43.24809,"lon":5.37461,"is_reserved":false,"is_disabled":false,"rental_uris":{"android":"levelo://app?vid=237d7f97-c455-4e9c-921e-eac7b8d93fcf","ios":"levelo://app?vid=237d7f97-c455-4e9c-921e-eac7b8d93fcf"},"vehicle_type_id":"4","last_reported":1729278442,"current_range_meters":37600,"station_id":"ce4bhgh2rcd13ifvqfb0","pricing_plan_id":"cebpf4jnsgd1na2vs0mg"},{"bike_id":"1124dde1-22d3-4beb-b27c-fa21e8a1d270","system_id":"levelo_inurba_marseille","lat":43.31502,"lon":5.37306,"is_reserved":false,"is_disabled":false,"rental_uris":{"android":"levelo://app?vid=1124dde1-22d3-4beb-b27c-fa21e8a1d270","ios":"levelo://app?vid=1124dde1-22d3-4beb-b27c-fa21e8a1d270"},"vehicle_type_id":"4","last_reported":1729278442,"current_range_meters":38800,"station_id":"ce4bgt12rcd13ifvqcd0","pricing_plan_id":"cebpf4jnsgd1na2vs0mg"},{"bike_id":"edc31e9a-79f2-4a42-a2d0-92f0f5bfc52e","system_id":"levelo_inurba_marseille","lat":43.29413,"lon":5.38632,"is_reserved":false,"is_disabled":false,"rental_uris":{"android":"levelo://app?vid=edc31e9a-79f2-4a42-a2d0-92f0f5bfc52e","ios":"levelo://app?vid=edc31e9a-79f2-4a42-a2d0-92f0f5bfc52e"},"vehicle_type_id":"4","last_reported":1729278442,"current_range_meters":24800,"station_id":"ce4bh2h2rcd13ifvqdh0","pricing_plan_id":"cebpf4jnsgd1na2vs0mg"},{"bike_id":"8e9c6055-8067-43c8-b7e5-0ce9b2b9299f","system_id":"levelo_inurba_marseille","lat":43.28074,"lon":5.39661,"is_reserved":false,"is_disabled":false,"rental_uris":{"android":"levelo://app?vid=8e9c6055-8067-43c8-b7e5-0ce9b2b9299f","ios":"levelo://app?vid=8e9c6055-8067-43c8-b7e5-0ce9b2b9299f"},"vehicle_type_id":"4","last_reported":1729278442,"current_range_meters":24000,"station_id":"ce4bho12rcd13ifvqh2g","pricing_plan_id":"cebpf4jnsgd1na2vs0mg"},{"bike_id":"4f6ad252-eccb-48c2-b4fc-5b7eb05e62b1","system_id":"levelo_inurba_marseille","lat":43.29633,"lon":5.38152,"is_reserved":false,"is_disabled":false,"rental_uris":{"android":"levelo://app?vid=4f6ad252-eccb-48c2-b4fc-5b7eb05e62b1","ios":"levelo://app?vid=4f6ad252-eccb-48c2-b4fc-5b7eb05e62b1"},"vehicle_type_id":"4","last_reported":1729278442,"current_range_meters":24800,"station_id":"","pricing_plan_id":"cebpf4jnsgd1na2vs0mg"},{"bike_id":"dd2b4f0c-6344-4a16-bdd5-9a39e0be809c","system_id":"levelo_inurba_marseille","lat":43.27994,"lon":5.4166,"is_reserved":false,"is_disabled":false,"rental_uris":{"android":"levelo://app?vid=dd2b4f0c-6344-4a16-bdd5-9a39e0be809c","ios":"levelo://app?vid=dd2b4f0c-6344-4a16-bdd5-9a39e0be809c"},"vehicle_type_id":"4","last_reported":1729278442,"current_range_meters":37600,"station_id":"ce4bho12rcd13ifvqh1g","pricing_plan_id":"cebpf4jnsgd1na2vs0mg"},{"bike_id":"c28dcc41-e290-4ac5-920f-78c8b4b9a18e","system_id":"levelo_inurba_marseille","lat":43.27614,"lon":5.36121,"is_reserved":false,"is_disabled":false,"rental_uris":{"android":"levelo://app?vid=c28dcc41-e290-4ac5-920f-78c8b4b9a18e","ios":"levelo://app?vid=c28dcc41-e290-4ac5-920f-78c8b4b9a18e"},"vehicle_type_id":"4","last_reported":1729278442,"current_range_meters":36000,"station_id":"ce4bgj92rcd13ifvqbe0","pricing_plan_id":"cebpf4jnsgd1na2vs0mg"},{"bike_id":"3d6e7854-3345-4227-aa47-4220c93c2391","system_id":"levelo_inurba_marseille","lat":43.25824,"lon":5.39442,"is_reserved":false,"is_disabled":false,"rental_uris":{"android":"levelo://app?vid=3d6e7854-3345-4227-aa47-4220c93c2391","ios":"levelo://app?vid=3d6e7854-3345-4227-aa47-4220c93c2391"},"vehicle_type_id":"4","last_reported":1729278442,"current_range_meters":38800,"station_id":"ce4bhip2rcd13ifvqft0","pricing_plan_id":"cebpf4jnsgd1na2vs0mg"},{"bike_id":"41f83ac1-47bc-4946-be3a-e028b0370d17","system_id":"levelo_inurba_marseille","lat":43.30881,"lon":5.3966,"is_reserved":false,"is_disabled":false,"rental_uris":{"android":"levelo://app?vid=41f83ac1-47bc-4946-be3a-e028b0370d17","ios":"levelo://app?vid=41f83ac1-47bc-4946-be3a-e028b0370d17"},"vehicle_type_id":"4","last_reported":1729278442,"current_range_meters":22000,"station_id":"ce4bh012rcd13ifvqcv0","pricing_plan_id":"cebpf4jnsgd1na2vs0mg"},{"bike_id":"afbdfb60-b454-4b81-b018-ae7f330abdf2","system_id":"levelo_inurba_marseille","lat":43.299,"lon":5.43663,"is_reserved":false,"is_disabled":false,"rental_uris":{"android":"levelo://app?vid=afbdfb60-b454-4b81-b018-ae7f330abdf2","ios":"levelo://app?vid=afbdfb60-b454-4b81-b018-ae7f330abdf2"},"vehicle_type_id":"4","last_reported":1729278442,"current_range_meters":25600,"station_id":"ce4bhpp2rcd13ifvqhfg","pricing_plan_id":"cebpf4jnsgd1na2vs0mg"},{"bike_id":"c4af9644-f5c1-4318-a4bb-7dd74b620d12","system_id":"levelo_inurba_marseille","lat":43.25122,"lon":5.40321,"is_reserved":false,"is_disabled":false,"rental_uris":{"android":"levelo://app?vid=c4af9644-f5c1-4318-a4bb-7dd74b620d12","ios":"levelo://app?vid=c4af9644-f5c1-4318-a4bb-7dd74b620d12"},"vehicle_type_id":"4","last_reported":1729278442,"current_range_meters":22400,"station_id":"ce4bhlh2rcd13ifvqgig","pricing_plan_id":"cebpf4jnsgd1na2vs0mg"},{"bike_id":"99e0c0e0-86ac-4c9b-a274-83941d7c1f8e","system_id":"levelo_inurba_marseille","lat":43.2873,"lon":5.37937,"is_reserved":false,"is_disabled":false,"rental_uris":{"android":"levelo://app?vid=99e0c0e0-86ac-4c9b-a274-83941d7c1f8e","ios":"levelo://app?vid=99e0c0e0-86ac-4c9b-a274-83941d7c1f8e"},"vehicle_type_id":"4","last_reported":1729278442,"current_range_meters":13600,"station_id":"ce4bh9p2rcd13ifvqec0","pricing_plan_id":"cebpf4jnsgd1na2vs0mg"},{"bike_id":"e7552169-5c30-48e5-ad54-6e277487c737","system_id":"levelo_inurba_marseille","lat":43.294159,"lon":5.373987,"is_reserved":false,"is_disabled":false,"rental_uris":{"android":"levelo://app?vid=e7552169-5c30-48e5-ad54-6e277487c737","ios":"levelo://app?vid=e7552169-5c30-48e5-ad54-6e277487c737"},"vehicle_type_id":"4","last_reported":1729278442,"current_range_meters":28800,"station_id":"ce4bgi12rcd13ifvqb70","pricing_plan_id":"cebpf4jnsgd1na2vs0mg"},{"bike_id":"8b33911e-5d42-46bd-b00d-c1d5ce72f577","system_id":"levelo_inurba_marseille","lat":43.23194,"lon":5.39983,"is_reserved":false,"is_disabled":false,"rental_uris":{"android":"levelo://app?vid=8b33911e-5d42-46bd-b00d-c1d5ce72f577","ios":"levelo://app?vid=8b33911e-5d42-46bd-b00d-c1d5ce72f577"},"vehicle_type_id":"4","last_reported":1729278442,"current_range_meters":38800,"station_id":"ce4bhn12rcd13ifvqgqg","pricing_plan_id":"cebpf4jnsgd1na2vs0mg"},{"bike_id":"57d22a24-8878-4c61-a94a-0967d413326d","system_id":"levelo_inurba_marseille","lat":43.29801,"lon":5.38102,"is_reserved":false,"is_disabled":false,"rental_uris":{"android":"levelo://app?vid=57d22a24-8878-4c61-a94a-0967d413326d","ios":"levelo://app?vid=57d22a24-8878-4c61-a94a-0967d413326d"},"vehicle_type_id":"4","last_reported":1729278442,"current_range_meters":10800,"station_id":"ce4bgip2rcd13ifvqbb0","pricing_plan_id":"cebpf4jnsgd1na2vs0mg"},{"bike_id":"0994d7f0-fa2e-480f-b967-2b1e1b476b78","system_id":"levelo_inurba_marseille","lat":43.23186,"lon":5.35561,"is_reserved":false,"is_disabled":false,"rental_uris":{"android":"levelo://app?vid=0994d7f0-fa2e-480f-b967-2b1e1b476b78","ios":"levelo://app?vid=0994d7f0-fa2e-480f-b967-2b1e1b476b78"},"vehicle_type_id":"4","last_reported":1729278442,"current_range_meters":7200,"station_id":"ce4bhu92rcd13ifvqi70","pricing_plan_id":"cebpf4jnsgd1na2vs0mg"},{"bike_id":"7900d9ac-c072-4cb4-840d-50db24e93bf2","system_id":"levelo_inurba_marseille","lat":43.27063,"lon":5.40264,"is_reserved":false,"is_disabled":false,"rental_uris":{"android":"levelo://app?vid=7900d9ac-c072-4cb4-840d-50db24e93bf2","ios":"levelo://app?vid=7900d9ac-c072-4cb4-840d-50db24e93bf2"},"vehicle_type_id":"4","last_reported":1729278442,"current_range_meters":24800,"station_id":"ce4bhk92rcd13ifvqgc0","pricing_plan_id":"cebpf4jnsgd1na2vs0mg"},{"bike_id":"44e47886-4aab-401d-bd2b-c75b55a6cf3b","system_id":"levelo_inurba_marseille","lat":43.26485,"lon":5.3955,"is_reserved":false,"is_disabled":false,"rental_uris":{"android":"levelo://app?vid=44e47886-4aab-401d-bd2b-c75b55a6cf3b","ios":"levelo://app?vid=44e47886-4aab-401d-bd2b-c75b55a6cf3b"},"vehicle_type_id":"4","last_reported":1729278442,"current_range_meters":11600,"station_id":"ce4bhi12rcd13ifvqfq0","pricing_plan_id":"cebpf4jnsgd1na2vs0mg"},{"bike_id":"5f9e0110-1042-43d1-ad38-7c513062e334","system_id":"levelo_inurba_marseille","lat":43.32482,"lon":5.36571,"is_reserved":false,"is_disabled":false,"rental_uris":{"android":"levelo://app?vid=5f9e0110-1042-43d1-ad38-7c513062e334","ios":"levelo://app?vid=5f9e0110-1042-43d1-ad38-7c513062e334"},"vehicle_type_id":"4","last_reported":1729278442,"current_range_meters":29600,"station_id":"ce4bhs12rcd13ifvqhvg","pricing_plan_id":"cebpf4jnsgd1na2vs0mg"},{"bike_id":"66ccc46d-618e-4760-b09c-27382152bdab","system_id":"levelo_inurba_marseille","lat":43.23196,"lon":5.35554,"is_reserved":false,"is_disabled":false,"rental_uris":{"android":"levelo://app?vid=66ccc46d-618e-4760-b09c-27382152bdab","ios":"levelo://app?vid=66ccc46d-618e-4760-b09c-27382152bdab"},"vehicle_type_id":"4","last_reported":1729278442,"current_range_meters":27200,"station_id":"ce4bhu92rcd13ifvqi70","pricing_plan_id":"cebpf4jnsgd1na2vs0mg"},{"bike_id":"67f661a4-50e6-4c2d-b156-a3e553b06461","system_id":"levelo_inurba_marseille","lat":43.28965,"lon":5.37825,"is_reserved":false,"is_disabled":false,"rental_uris":{"android":"levelo://app?vid=67f661a4-50e6-4c2d-b156-a3e553b06461","ios":"levelo://app?vid=67f661a4-50e6-4c2d-b156-a3e553b06461"},"vehicle_type_id":"4","last_reported":1729278442,"current_range_meters":33200,"station_id":"ce4bh9p2rcd13ifvqed0","pricing_plan_id":"cebpf4jnsgd1na2vs0mg"},{"bike_id":"63e4c8ad-d7a5-4a07-bd91-ef5e1d531e61","system_id":"levelo_inurba_marseille","lat":43.29416,"lon":5.38633,"is_reserved":false,"is_disabled":false,"rental_uris":{"android":"levelo://app?vid=63e4c8ad-d7a5-4a07-bd91-ef5e1d531e61","ios":"levelo://app?vid=63e4c8ad-d7a5-4a07-bd91-ef5e1d531e61"},"vehicle_type_id":"4","last_reported":1729278442,"current_range_meters":38800,"station_id":"ce4bh2h2rcd13ifvqdh0","pricing_plan_id":"cebpf4jnsgd1na2vs0mg"},{"bike_id":"091cee91-2c17-432b-91fb-4b0270d33c86","system_id":"levelo_inurba_marseille","lat":43.28453,"lon":5.35896,"is_reserved":false,"is_disabled":false,"rental_uris":{"android":"levelo://app?vid=091cee91-2c17-432b-91fb-4b0270d33c86","ios":"levelo://app?vid=091cee91-2c17-432b-91fb-4b0270d33c86"},"vehicle_type_id":"4","last_reported":1729278442,"current_range_meters":32800,"station_id":"ce4bhah2rcd13ifvqei0","pricing_plan_id":"cebpf4jnsgd1na2vs0mg"},{"bike_id":"419a9d7d-2a1b-40b7-a37f-e4605d93d1f7","system_id":"levelo_inurba_marseille","lat":43.23186,"lon":5.39995,"is_reserved":false,"is_disabled":false,"rental_uris":{"android":"levelo://app?vid=419a9d7d-2a1b-40b7-a37f-e4605d93d1f7","ios":"levelo://app?vid=419a9d7d-2a1b-40b7-a37f-e4605d93d1f7"},"vehicle_type_id":"4","last_reported":1729278442,"current_range_meters":38800,"station_id":"ce4bhn12rcd13ifvqgqg","pricing_plan_id":"cebpf4jnsgd1na2vs0mg"},{"bike_id":"6e5ca35b-a89e-4f17-8ea4-9ff5a9c712be","system_id":"levelo_inurba_marseille","lat":43.29157,"lon":5.37137,"is_reserved":false,"is_disabled":false,"rental_uris":{"android":"levelo://app?vid=6e5ca35b-a89e-4f17-8ea4-9ff5a9c712be","ios":"levelo://app?vid=6e5ca35b-a89e-4f17-8ea4-9ff5a9c712be"},"vehicle_type_id":"4","last_reported":1729278442,"current_range_meters":38800,"station_id":"ce4bha92rcd13ifvqeh0","pricing_plan_id":"cebpf4jnsgd1na2vs0mg"},{"bike_id":"fc262b45-2b88-4d3d-8020-e7c946d1fec3","system_id":"levelo_inurba_marseille","lat":43.32104,"lon":5.36786,"is_reserved":false,"is_disabled":false,"rental_uris":{"android":"levelo://app?vid=fc262b45-2b88-4d3d-8020-e7c946d1fec3","ios":"levelo://app?vid=fc262b45-2b88-4d3d-8020-e7c946d1fec3"},"vehicle_type_id":"4","last_reported":1729278442,"current_range_meters":36800,"station_id":"ce4bhrh2rcd13ifvqhug","pricing_plan_id":"cebpf4jnsgd1na2vs0mg"},{"bike_id":"a30002c2-320c-4186-887b-941308b39268","system_id":"levelo_inurba_marseille","lat":43.27945,"lon":5.41062,"is_reserved":false,"is_disabled":false,"rental_uris":{"android":"levelo://app?vid=a30002c2-320c-4186-887b-941308b39268","ios":"levelo://app?vid=a30002c2-320c-4186-887b-941308b39268"},"vehicle_type_id":"4","last_reported":1729278442,"current_range_meters":6400,"station_id":"ce4bhnp2rcd13ifvqh0g","pricing_plan_id":"cebpf4jnsgd1na2vs0mg"},{"bike_id":"d91ab742-eaa3-4b60-9001-49e3a931d62b","system_id":"levelo_inurba_marseille","lat":43.30782,"lon":5.37657,"is_reserved":false,"is_disabled":false,"rental_uris":{"android":"levelo://app?vid=d91ab742-eaa3-4b60-9001-49e3a931d62b","ios":"levelo://app?vid=d91ab742-eaa3-4b60-9001-49e3a931d62b"},"vehicle_type_id":"4","last_reported":1729278442,"current_range_meters":6400,"station_id":"ce4bgv92rcd13ifvqcq0","pricing_plan_id":"cebpf4jnsgd1na2vs0mg"},{"bike_id":"907d90e2-7e08-4846-bbc2-01977b54a9bd","system_id":"levelo_inurba_marseille","lat":43.24163,"lon":5.36403,"is_reserved":false,"is_disabled":false,"rental_uris":{"android":"levelo://app?vid=907d90e2-7e08-4846-bbc2-01977b54a9bd","ios":"levelo://app?vid=907d90e2-7e08-4846-bbc2-01977b54a9bd"},"vehicle_type_id":"4","last_reported":1729278442,"current_range_meters":16400,"station_id":"cpo36qri1sfpv3e86is0","pricing_plan_id":"cebpf4jnsgd1na2vs0mg"},{"bike_id":"34b473ba-af66-4b44-914b-d11315353a55","system_id":"levelo_inurba_marseille","lat":43.3188,"lon":5.40741,"is_reserved":false,"is_disabled":false,"rental_uris":{"android":"levelo://app?vid=34b473ba-af66-4b44-914b-d11315353a55","ios":"levelo://app?vid=34b473ba-af66-4b44-914b-d11315353a55"},"vehicle_type_id":"4","last_reported":1729278442,"current_range_meters":11600,"station_id":"ce4bhq12rcd13ifvqhig","pricing_plan_id":"cebpf4jnsgd1na2vs0mg"},{"bike_id":"e5b42735-1a8e-4768-a51b-aab7e986de07","system_id":"levelo_inurba_marseille","lat":43.29807,"lon":5.38109,"is_reserved":false,"is_disabled":false,"rental_uris":{"android":"levelo://app?vid=e5b42735-1a8e-4768-a51b-aab7e986de07","ios":"levelo://app?vid=e5b42735-1a8e-4768-a51b-aab7e986de07"},"vehicle_type_id":"4","last_reported":1729278442,"current_range_meters":36800,"station_id":"ce4bgip2rcd13ifvqbb0","pricing_plan_id":"cebpf4jnsgd1na2vs0mg"},{"bike_id":"db4e52ec-b22a-49e6-a994-a6f3b841e6c8","system_id":"levelo_inurba_marseille","lat":43.29892,"lon":5.37461,"is_reserved":false,"is_disabled":false,"rental_uris":{"android":"levelo://app?vid=db4e52ec-b22a-49e6-a994-a6f3b841e6c8","ios":"levelo://app?vid=db4e52ec-b22a-49e6-a994-a6f3b841e6c8"},"vehicle_type_id":"4","last_reported":1729278442,"current_range_meters":32800,"station_id":"ce4bgjh2rcd13ifvqbg0","pricing_plan_id":"cebpf4jnsgd1na2vs0mg"},{"bike_id":"0a9790fa-29b8-47e0-8074-8802cc866e1e","system_id":"levelo_inurba_marseille","lat":43.29713,"lon":5.36614,"is_reserved":false,"is_disabled":false,"rental_uris":{"android":"levelo://app?vid=0a9790fa-29b8-47e0-8074-8802cc866e1e","ios":"levelo://app?vid=0a9790fa-29b8-47e0-8074-8802cc866e1e"},"vehicle_type_id":"4","last_reported":1729278442,"current_range_meters":38800,"station_id":"ce4bgn12rcd13ifvqbt0","pricing_plan_id":"cebpf4jnsgd1na2vs0mg"},{"bike_id":"4a0d6ee2-eba6-49d9-b392-4439f9740c82","system_id":"levelo_inurba_marseille","lat":43.29614,"lon":5.37734,"is_reserved":false,"is_disabled":false,"rental_uris":{"android":"levelo://app?vid=4a0d6ee2-eba6-49d9-b392-4439f9740c82","ios":"levelo://app?vid=4a0d6ee2-eba6-49d9-b392-4439f9740c82"},"vehicle_type_id":"4","last_reported":1729278442,"current_range_meters":38400,"station_id":"ce4bgi92rcd13ifvqb90","pricing_plan_id":"cebpf4jnsgd1na2vs0mg"},{"bike_id":"94dad7f8-6585-4b37-b691-74420d23ef13","system_id":"levelo_inurba_marseille","lat":43.30804,"lon":5.43528,"is_reserved":false,"is_disabled":false,"rental_uris":{"android":"levelo://app?vid=94dad7f8-6585-4b37-b691-74420d23ef13","ios":"levelo://app?vid=94dad7f8-6585-4b37-b691-74420d23ef13"},"vehicle_type_id":"4","last_reported":1729278442,"current_range_meters":35200,"station_id":"ce4bhph2rcd13ifvqheg","pricing_plan_id":"cebpf4jnsgd1na2vs0mg"},{"bike_id":"72ed775d-aa2c-4e94-a9d6-8e0d74c220d8","system_id":"levelo_inurba_marseille","lat":43.29597,"lon":5.38106,"is_reserved":false,"is_disabled":false,"rental_uris":{"android":"levelo://app?vid=72ed775d-aa2c-4e94-a9d6-8e0d74c220d8","ios":"levelo://app?vid=72ed775d-aa2c-4e94-a9d6-8e0d74c220d8"},"vehicle_type_id":"4","last_reported":1729278442,"current_range_meters":28800,"station_id":"ce4bgl12rcd13ifvqbo0","pricing_plan_id":"cebpf4jnsgd1na2vs0mg"},{"bike_id":"4562e9bb-7c1e-4e0e-95e1-858d0f8d86d1","system_id":"levelo_inurba_marseille","lat":43.2319,"lon":5.35563,"is_reserved":false,"is_disabled":false,"rental_uris":{"android":"levelo://app?vid=4562e9bb-7c1e-4e0e-95e1-858d0f8d86d1","ios":"levelo://app?vid=4562e9bb-7c1e-4e0e-95e1-858d0f8d86d1"},"vehicle_type_id":"4","last_reported":1729278442,"current_range_meters":32000,"station_id":"ce4bhu92rcd13ifvqi70","pricing_plan_id":"cebpf4jnsgd1na2vs0mg"},{"bike_id":"91ee897a-e76b-4e15-b852-af8a0a4cd064","system_id":"levelo_inurba_marseille","lat":43.29853,"lon":5.36292,"is_reserved":false,"is_disabled":false,"rental_uris":{"android":"levelo://app?vid=91ee897a-e76b-4e15-b852-af8a0a4cd064","ios":"levelo://app?vid=91ee897a-e76b-4e15-b852-af8a0a4cd064"},"vehicle_type_id":"4","last_reported":1729278442,"current_range_meters":35600,"station_id":"ce4bgpp2rcd13ifvqc3g","pricing_plan_id":"cebpf4jnsgd1na2vs0mg"},{"bike_id":"6837ac97-30a8-4145-8047-b6d6df61ac48","system_id":"levelo_inurba_marseille","lat":43.23185,"lon":5.39993,"is_reserved":false,"is_disabled":false,"rental_uris":{"android":"levelo://app?vid=6837ac97-30a8-4145-8047-b6d6df61ac48","ios":"levelo://app?vid=6837ac97-30a8-4145-8047-b6d6df61ac48"},"vehicle_type_id":"4","last_reported":1729278442,"current_range_meters":38800,"station_id":"ce4bhn12rcd13ifvqgqg","pricing_plan_id":"cebpf4jnsgd1na2vs0mg"},{"bike_id":"2140b6a3-5118-4150-823e-9225aeb56201","system_id":"levelo_inurba_marseille","lat":43.23193,"lon":5.35552,"is_reserved":false,"is_disabled":false,"rental_uris":{"android":"levelo://app?vid=2140b6a3-5118-4150-823e-9225aeb56201","ios":"levelo://app?vid=2140b6a3-5118-4150-823e-9225aeb56201"},"vehicle_type_id":"4","last_reported":1729278442,"current_range_meters":30400,"station_id":"ce4bhu92rcd13ifvqi70","pricing_plan_id":"cebpf4jnsgd1na2vs0mg"},{"bike_id":"c8d3eee8-18ec-4424-8438-5831cea4d78f","system_id":"levelo_inurba_marseille","lat":43.26681,"lon":5.38266,"is_reserved":false,"is_disabled":false,"rental_uris":{"android":"levelo://app?vid=c8d3eee8-18ec-4424-8438-5831cea4d78f","ios":"levelo://app?vid=c8d3eee8-18ec-4424-8438-5831cea4d78f"},"vehicle_type_id":"4","last_reported":1729278442,"current_range_meters":22800,"station_id":"ce4bhg92rcd13ifvqf90","pricing_plan_id":"cebpf4jnsgd1na2vs0mg"},{"bike_id":"ad94fc49-555e-4104-b898-e00f556992d9","system_id":"levelo_inurba_marseille","lat":43.29295,"lon":5.37458,"is_reserved":false,"is_disabled":false,"rental_uris":{"android":"levelo://app?vid=ad94fc49-555e-4104-b898-e00f556992d9","ios":"levelo://app?vid=ad94fc49-555e-4104-b898-e00f556992d9"},"vehicle_type_id":"4","last_reported":1729278442,"current_range_meters":38400,"station_id":"ce4bgi12rcd13ifvqb70","pricing_plan_id":"cebpf4jnsgd1na2vs0mg"},{"bike_id":"1902fcf2-26dd-43f3-bab6-0de2f4c85bd3","system_id":"levelo_inurba_marseille","lat":43.27946,"lon":5.41047,"is_reserved":false,"is_disabled":false,"rental_uris":{"android":"levelo://app?vid=1902fcf2-26dd-43f3-bab6-0de2f4c85bd3","ios":"levelo://app?vid=1902fcf2-26dd-43f3-bab6-0de2f4c85bd3"},"vehicle_type_id":"4","last_reported":1729278442,"current_range_meters":25200,"station_id":"ce4bhnp2rcd13ifvqh0g","pricing_plan_id":"cebpf4jnsgd1na2vs0mg"},{"bike_id":"5fcafa2e-9de4-4b9a-bba5-451af068b69e","system_id":"levelo_inurba_marseille","lat":43.28001,"lon":5.41668,"is_reserved":false,"is_disabled":false,"rental_uris":{"android":"levelo://app?vid=5fcafa2e-9de4-4b9a-bba5-451af068b69e","ios":"levelo://app?vid=5fcafa2e-9de4-4b9a-bba5-451af068b69e"},"vehicle_type_id":"4","last_reported":1729278442,"current_range_meters":30400,"station_id":"ce4bho12rcd13ifvqh1g","pricing_plan_id":"cebpf4jnsgd1na2vs0mg"},{"bike_id":"439954ae-3966-4f7d-91cc-0dcc7b14d878","system_id":"levelo_inurba_marseille","lat":43.27203,"lon":5.39185,"is_reserved":false,"is_disabled":false,"rental_uris":{"android":"levelo://app?vid=439954ae-3966-4f7d-91cc-0dcc7b14d878","ios":"levelo://app?vid=439954ae-3966-4f7d-91cc-0dcc7b14d878"},"vehicle_type_id":"4","last_reported":1729278442,"current_range_meters":38800,"station_id":"ce4bhhp2rcd13ifvqfm0","pricing_plan_id":"cebpf4jnsgd1na2vs0mg"},{"bike_id":"0f9e7998-567b-4ade-921a-06904ce32441","system_id":"levelo_inurba_marseille","lat":43.28456,"lon":5.35892,"is_reserved":false,"is_disabled":false,"rental_uris":{"android":"levelo://app?vid=0f9e7998-567b-4ade-921a-06904ce32441","ios":"levelo://app?vid=0f9e7998-567b-4ade-921a-06904ce32441"},"vehicle_type_id":"4","last_reported":1729278442,"current_range_meters":8800,"station_id":"ce4bhah2rcd13ifvqei0","pricing_plan_id":"cebpf4jnsgd1na2vs0mg"},{"bike_id":"4f2b09bc-fde9-477e-8718-61efd3365850","system_id":"levelo_inurba_marseille","lat":43.29608,"lon":5.37725,"is_reserved":false,"is_disabled":false,"rental_uris":{"android":"levelo://app?vid=4f2b09bc-fde9-477e-8718-61efd3365850","ios":"levelo://app?vid=4f2b09bc-fde9-477e-8718-61efd3365850"},"vehicle_type_id":"4","last_reported":1729278442,"current_range_meters":20400,"station_id":"ce4bgi92rcd13ifvqb90","pricing_plan_id":"cebpf4jnsgd1na2vs0mg"},{"bike_id":"68ee4ef7-329c-4223-8263-a5b8d725c2b4","system_id":"levelo_inurba_marseille","lat":43.282318,"lon":5.378996,"is_reserved":false,"is_disabled":false,"rental_uris":{"android":"levelo://app?vid=68ee4ef7-329c-4223-8263-a5b8d725c2b4","ios":"levelo://app?vid=68ee4ef7-329c-4223-8263-a5b8d725c2b4"},"vehicle_type_id":"4","last_reported":1729278442,"current_range_meters":9600,"station_id":"ce4bha12rcd13ifvqee0","pricing_plan_id":"cebpf4jnsgd1na2vs0mg"},{"bike_id":"bac1495e-0b85-4e25-ba1c-3dc395f49dd2","system_id":"levelo_inurba_marseille","lat":43.29413,"lon":5.38635,"is_reserved":false,"is_disabled":false,"rental_uris":{"android":"levelo://app?vid=bac1495e-0b85-4e25-ba1c-3dc395f49dd2","ios":"levelo://app?vid=bac1495e-0b85-4e25-ba1c-3dc395f49dd2"},"vehicle_type_id":"4","last_reported":1729278442,"current_range_meters":39200,"station_id":"ce4bh2h2rcd13ifvqdh0","pricing_plan_id":"cebpf4jnsgd1na2vs0mg"},{"bike_id":"fa997933-1232-4290-a284-277125615f8f","system_id":"levelo_inurba_marseille","lat":43.33024,"lon":5.39044,"is_reserved":false,"is_disabled":false,"rental_uris":{"android":"levelo://app?vid=fa997933-1232-4290-a284-277125615f8f","ios":"levelo://app?vid=fa997933-1232-4290-a284-277125615f8f"},"vehicle_type_id":"4","last_reported":1729278442,"current_range_meters":11600,"station_id":"ce4bhr92rcd13ifvqhrg","pricing_plan_id":"cebpf4jnsgd1na2vs0mg"},{"bike_id":"7772d39f-5e28-445c-af91-069b0cf63793","system_id":"levelo_inurba_marseille","lat":43.33765,"lon":5.37438,"is_reserved":false,"is_disabled":false,"rental_uris":{"android":"levelo://app?vid=7772d39f-5e28-445c-af91-069b0cf63793","ios":"levelo://app?vid=7772d39f-5e28-445c-af91-069b0cf63793"},"vehicle_type_id":"4","last_reported":1729278442,"current_range_meters":12000,"station_id":"","pricing_plan_id":"cebpf4jnsgd1na2vs0mg"},{"bike_id":"e0ab6bb6-c6b9-4385-b41c-27bea5d9c0cb","system_id":"levelo_inurba_marseille","lat":43.33038,"lon":5.39037,"is_reserved":false,"is_disabled":false,"rental_uris":{"android":"levelo://app?vid=e0ab6bb6-c6b9-4385-b41c-27bea5d9c0cb","ios":"levelo://app?vid=e0ab6bb6-c6b9-4385-b41c-27bea5d9c0cb"},"vehicle_type_id":"4","last_reported":1729278442,"current_range_meters":20800,"station_id":"ce4bhr92rcd13ifvqhrg","pricing_plan_id":"cebpf4jnsgd1na2vs0mg"},{"bike_id":"058ec527-60b8-4877-8817-19590c3cd4f5","system_id":"levelo_inurba_marseille","lat":43.32293,"lon":5.38274,"is_reserved":false,"is_disabled":false,"rental_uris":{"android":"levelo://app?vid=058ec527-60b8-4877-8817-19590c3cd4f5","ios":"levelo://app?vid=058ec527-60b8-4877-8817-19590c3cd4f5"},"vehicle_type_id":"4","last_reported":1729278442,"current_range_meters":38800,"station_id":"ce4bhr12rcd13ifvqhqg","pricing_plan_id":"cebpf4jnsgd1na2vs0mg"},{"bike_id":"3213665e-989c-4d22-9f5a-31c8522597dd","system_id":"levelo_inurba_marseille","lat":43.296,"lon":5.36142,"is_reserved":false,"is_disabled":false,"rental_uris":{"android":"levelo://app?vid=3213665e-989c-4d22-9f5a-31c8522597dd","ios":"levelo://app?vid=3213665e-989c-4d22-9f5a-31c8522597dd"},"vehicle_type_id":"4","last_reported":1729278442,"current_range_meters":22800,"station_id":"","pricing_plan_id":"cebpf4jnsgd1na2vs0mg"},{"bike_id":"cddb2538-acdb-46a5-bc95-6e0a8d74ef0c","system_id":"levelo_inurba_marseille","lat":43.30795,"lon":5.43529,"is_reserved":false,"is_disabled":false,"rental_uris":{"android":"levelo://app?vid=cddb2538-acdb-46a5-bc95-6e0a8d74ef0c","ios":"levelo://app?vid=cddb2538-acdb-46a5-bc95-6e0a8d74ef0c"},"vehicle_type_id":"4","last_reported":1729278442,"current_range_meters":30000,"station_id":"ce4bhph2rcd13ifvqheg","pricing_plan_id":"cebpf4jnsgd1na2vs0mg"},{"bike_id":"88c53981-f7cf-4b5a-9eec-2100990d3817","system_id":"levelo_inurba_marseille","lat":43.29416,"lon":5.38628,"is_reserved":false,"is_disabled":false,"rental_uris":{"android":"levelo://app?vid=88c53981-f7cf-4b5a-9eec-2100990d3817","ios":"levelo://app?vid=88c53981-f7cf-4b5a-9eec-2100990d3817"},"vehicle_type_id":"4","last_reported":1729278442,"current_range_meters":17200,"station_id":"ce4bh2h2rcd13ifvqdh0","pricing_plan_id":"cebpf4jnsgd1na2vs0mg"},{"bike_id":"09293dad-c736-4f83-8145-1bf0b4f8994c","system_id":"levelo_inurba_marseille","lat":43.290161,"lon":5.37494,"is_reserved":false,"is_disabled":false,"rental_uris":{"android":"levelo://app?vid=09293dad-c736-4f83-8145-1bf0b4f8994c","ios":"levelo://app?vid=09293dad-c736-4f83-8145-1bf0b4f8994c"},"vehicle_type_id":"4","last_reported":1729278442,"current_range_meters":4000,"station_id":"ce4bh692rcd13ifvqe90","pricing_plan_id":"cebpf4jnsgd1na2vs0mg"},{"bike_id":"89211ee2-076f-4df3-92bd-cd8885f2e76d","system_id":"levelo_inurba_marseille","lat":43.23194,"lon":5.35556,"is_reserved":false,"is_disabled":false,"rental_uris":{"android":"levelo://app?vid=89211ee2-076f-4df3-92bd-cd8885f2e76d","ios":"levelo://app?vid=89211ee2-076f-4df3-92bd-cd8885f2e76d"},"vehicle_type_id":"4","last_reported":1729278442,"current_range_meters":27600,"station_id":"ce4bhu92rcd13ifvqi70","pricing_plan_id":"cebpf4jnsgd1na2vs0mg"},{"bike_id":"434438d7-2ac5-44dd-a28d-c3e44c38c090","system_id":"levelo_inurba_marseille","lat":43.269192,"lon":5.402609,"is_reserved":false,"is_disabled":false,"rental_uris":{"android":"levelo://app?vid=434438d7-2ac5-44dd-a28d-c3e44c38c090","ios":"levelo://app?vid=434438d7-2ac5-44dd-a28d-c3e44c38c090"},"vehicle_type_id":"4","last_reported":1729278442,"current_range_meters":27600,"station_id":"cjm6bp8fraef2m0cb0m0","pricing_plan_id":"cebpf4jnsgd1na2vs0mg"},{"bike_id":"bee5c081-5ec7-4c76-b2df-b17eadfcfaf0","system_id":"levelo_inurba_marseille","lat":43.29421,"lon":5.38632,"is_reserved":false,"is_disabled":false,"rental_uris":{"android":"levelo://app?vid=bee5c081-5ec7-4c76-b2df-b17eadfcfaf0","ios":"levelo://app?vid=bee5c081-5ec7-4c76-b2df-b17eadfcfaf0"},"vehicle_type_id":"4","last_reported":1729278442,"current_range_meters":24000,"station_id":"ce4bh2h2rcd13ifvqdh0","pricing_plan_id":"cebpf4jnsgd1na2vs0mg"},{"bike_id":"87cc0a3f-de40-460e-a054-00b22b917db6","system_id":"levelo_inurba_marseille","lat":43.29626,"lon":5.40601,"is_reserved":false,"is_disabled":false,"rental_uris":{"android":"levelo://app?vid=87cc0a3f-de40-460e-a054-00b22b917db6","ios":"levelo://app?vid=87cc0a3f-de40-460e-a054-00b22b917db6"},"vehicle_type_id":"4","last_reported":1729278442,"current_range_meters":2800,"station_id":"ce4bh0h2rcd13ifvqd60","pricing_plan_id":"cebpf4jnsgd1na2vs0mg"},{"bike_id":"48f2469d-4594-4ecb-a7ea-698cf7713650","system_id":"levelo_inurba_marseille","lat":43.3303,"lon":5.39041,"is_reserved":false,"is_disabled":false,"rental_uris":{"android":"levelo://app?vid=48f2469d-4594-4ecb-a7ea-698cf7713650","ios":"levelo://app?vid=48f2469d-4594-4ecb-a7ea-698cf7713650"},"vehicle_type_id":"4","last_reported":1729278442,"current_range_meters":28000,"station_id":"ce4bhr92rcd13ifvqhrg","pricing_plan_id":"cebpf4jnsgd1na2vs0mg"},{"bike_id":"9fad28c8-1628-42ba-9a04-d66bad0757a4","system_id":"levelo_inurba_marseille","lat":43.29915,"lon":5.38148,"is_reserved":false,"is_disabled":false,"rental_uris":{"android":"levelo://app?vid=9fad28c8-1628-42ba-9a04-d66bad0757a4","ios":"levelo://app?vid=9fad28c8-1628-42ba-9a04-d66bad0757a4"},"vehicle_type_id":"4","last_reported":1729278442,"current_range_meters":6800,"station_id":"ce4bgj12rcd13ifvqbc0","pricing_plan_id":"cebpf4jnsgd1na2vs0mg"},{"bike_id":"11a21bb0-f15a-49f4-8d19-d7ea309cb0d1","system_id":"levelo_inurba_marseille","lat":43.31113,"lon":5.37759,"is_reserved":false,"is_disabled":false,"rental_uris":{"android":"levelo://app?vid=11a21bb0-f15a-49f4-8d19-d7ea309cb0d1","ios":"levelo://app?vid=11a21bb0-f15a-49f4-8d19-d7ea309cb0d1"},"vehicle_type_id":"4","last_reported":1729278442,"current_range_meters":12000,"station_id":"ce4bgt92rcd13ifvqcg0","pricing_plan_id":"cebpf4jnsgd1na2vs0mg"},{"bike_id":"094a0f52-19d2-41cf-8635-0f9d3d85807c","system_id":"levelo_inurba_marseille","lat":43.28039,"lon":5.3695,"is_reserved":false,"is_disabled":false,"rental_uris":{"android":"levelo://app?vid=094a0f52-19d2-41cf-8635-0f9d3d85807c","ios":"levelo://app?vid=094a0f52-19d2-41cf-8635-0f9d3d85807c"},"vehicle_type_id":"4","last_reported":1729278442,"current_range_meters":20000,"station_id":"ce4bha12rcd13ifvqef0","pricing_plan_id":"cebpf4jnsgd1na2vs0mg"},{"bike_id":"5a9358f2-aa4f-4e9f-afef-6fc62a52e295","system_id":"levelo_inurba_marseille","lat":43.29412,"lon":5.38626,"is_reserved":false,"is_disabled":false,"rental_uris":{"android":"levelo://app?vid=5a9358f2-aa4f-4e9f-afef-6fc62a52e295","ios":"levelo://app?vid=5a9358f2-aa4f-4e9f-afef-6fc62a52e295"},"vehicle_type_id":"4","last_reported":1729278442,"current_range_meters":22800,"station_id":"ce4bh2h2rcd13ifvqdh0","pricing_plan_id":"cebpf4jnsgd1na2vs0mg"},{"bike_id":"c84305ca-c143-40da-a9f4-ec33a7e52312","system_id":"levelo_inurba_marseille","lat":43.30598,"lon":5.39365,"is_reserved":false,"is_disabled":false,"rental_uris":{"android":"levelo://app?vid=c84305ca-c143-40da-a9f4-ec33a7e52312","ios":"levelo://app?vid=c84305ca-c143-40da-a9f4-ec33a7e52312"},"vehicle_type_id":"4","last_reported":1729278442,"current_range_meters":36000,"station_id":"ce4bh3h2rcd13ifvqdo0","pricing_plan_id":"cebpf4jnsgd1na2vs0mg"},{"bike_id":"87440bd7-4730-412f-b52f-03b263c3d6ba","system_id":"levelo_inurba_marseille","lat":43.23191,"lon":5.35557,"is_reserved":false,"is_disabled":false,"rental_uris":{"android":"levelo://app?vid=87440bd7-4730-412f-b52f-03b263c3d6ba","ios":"levelo://app?vid=87440bd7-4730-412f-b52f-03b263c3d6ba"},"vehicle_type_id":"4","last_reported":1729278442,"current_range_meters":11200,"station_id":"ce4bhu92rcd13ifvqi70","pricing_plan_id":"cebpf4jnsgd1na2vs0mg"},{"bike_id":"166ff55e-0b6e-42f9-b963-16e0635d6760","system_id":"levelo_inurba_marseille","lat":43.29595,"lon":5.38106,"is_reserved":false,"is_disabled":false,"rental_uris":{"android":"levelo://app?vid=166ff55e-0b6e-42f9-b963-16e0635d6760","ios":"levelo://app?vid=166ff55e-0b6e-42f9-b963-16e0635d6760"},"vehicle_type_id":"4","last_reported":1729278442,"current_range_meters":9200,"station_id":"ce4bgl12rcd13ifvqbo0","pricing_plan_id":"cebpf4jnsgd1na2vs0mg"},{"bike_id":"16fc78a0-5c39-4ff9-92cf-2dc5007da881","system_id":"levelo_inurba_marseille","lat":43.25823,"lon":5.39439,"is_reserved":false,"is_disabled":false,"rental_uris":{"android":"levelo://app?vid=16fc78a0-5c39-4ff9-92cf-2dc5007da881","ios":"levelo://app?vid=16fc78a0-5c39-4ff9-92cf-2dc5007da881"},"vehicle_type_id":"4","last_reported":1729278442,"current_range_meters":8400,"station_id":"ce4bhip2rcd13ifvqft0","pricing_plan_id":"cebpf4jnsgd1na2vs0mg"},{"bike_id":"df50999f-2c36-4645-8915-f1b914616dfc","system_id":"levelo_inurba_marseille","lat":43.32108,"lon":5.36774,"is_reserved":false,"is_disabled":false,"rental_uris":{"android":"levelo://app?vid=df50999f-2c36-4645-8915-f1b914616dfc","ios":"levelo://app?vid=df50999f-2c36-4645-8915-f1b914616dfc"},"vehicle_type_id":"4","last_reported":1729278442,"current_range_meters":27200,"station_id":"ce4bhrh2rcd13ifvqhug","pricing_plan_id":"cebpf4jnsgd1na2vs0mg"},{"bike_id":"3e6815c4-f5ff-442d-ae5b-16aeebdcdb61","system_id":"levelo_inurba_marseille","lat":43.27814,"lon":5.40717,"is_reserved":false,"is_disabled":false,"rental_uris":{"android":"levelo://app?vid=3e6815c4-f5ff-442d-ae5b-16aeebdcdb61","ios":"levelo://app?vid=3e6815c4-f5ff-442d-ae5b-16aeebdcdb61"},"vehicle_type_id":"4","last_reported":1729278442,"current_range_meters":30400,"station_id":"ce4bhnh2rcd13ifvqgtg","pricing_plan_id":"cebpf4jnsgd1na2vs0mg"},{"bike_id":"b088242a-8e72-487d-a6f3-d3812ba32951","system_id":"levelo_inurba_marseille","lat":43.29418,"lon":5.38625,"is_reserved":false,"is_disabled":false,"rental_uris":{"android":"levelo://app?vid=b088242a-8e72-487d-a6f3-d3812ba32951","ios":"levelo://app?vid=b088242a-8e72-487d-a6f3-d3812ba32951"},"vehicle_type_id":"4","last_reported":1729278442,"current_range_meters":24400,"station_id":"ce4bh2h2rcd13ifvqdh0","pricing_plan_id":"cebpf4jnsgd1na2vs0mg"},{"bike_id":"832d3728-3f4d-4aaf-8518-4b3d4e677cd7","system_id":"levelo_inurba_marseille","lat":43.29518,"lon":5.39053,"is_reserved":false,"is_disabled":false,"rental_uris":{"android":"levelo://app?vid=832d3728-3f4d-4aaf-8518-4b3d4e677cd7","ios":"levelo://app?vid=832d3728-3f4d-4aaf-8518-4b3d4e677cd7"},"vehicle_type_id":"4","last_reported":1729278442,"current_range_meters":38800,"station_id":"ce4bh3p2rcd13ifvqdp0","pricing_plan_id":"cebpf4jnsgd1na2vs0mg"},{"bike_id":"0b4b408b-0e1b-41ef-9396-f416e28a2088","system_id":"levelo_inurba_marseille","lat":43.27938,"lon":5.41044,"is_reserved":false,"is_disabled":false,"rental_uris":{"android":"levelo://app?vid=0b4b408b-0e1b-41ef-9396-f416e28a2088","ios":"levelo://app?vid=0b4b408b-0e1b-41ef-9396-f416e28a2088"},"vehicle_type_id":"4","last_reported":1729278442,"current_range_meters":28400,"station_id":"ce4bhnp2rcd13ifvqh0g","pricing_plan_id":"cebpf4jnsgd1na2vs0mg"},{"bike_id":"fe28f9fe-a387-4922-82ee-f14df2ee7ada","system_id":"levelo_inurba_marseille","lat":43.30541,"lon":5.3842,"is_reserved":false,"is_disabled":false,"rental_uris":{"android":"levelo://app?vid=fe28f9fe-a387-4922-82ee-f14df2ee7ada","ios":"levelo://app?vid=fe28f9fe-a387-4922-82ee-f14df2ee7ada"},"vehicle_type_id":"4","last_reported":1729278442,"current_range_meters":5600,"station_id":"ce4bgg92rcd13ifvqb30","pricing_plan_id":"cebpf4jnsgd1na2vs0mg"},{"bike_id":"f197d86d-b837-42bf-809e-a0f3d80d7cbb","system_id":"levelo_inurba_marseille","lat":43.29076,"lon":5.37179,"is_reserved":false,"is_disabled":false,"rental_uris":{"android":"levelo://app?vid=f197d86d-b837-42bf-809e-a0f3d80d7cbb","ios":"levelo://app?vid=f197d86d-b837-42bf-809e-a0f3d80d7cbb"},"vehicle_type_id":"4","last_reported":1729278442,"current_range_meters":27600,"station_id":"ce4bh5p2rcd13ifvqe4g","pricing_plan_id":"cebpf4jnsgd1na2vs0mg"},{"bike_id":"419a2256-0d36-4f21-9f21-8a2eb2f0d6fb","system_id":"levelo_inurba_marseille","lat":43.28358,"lon":5.38651,"is_reserved":false,"is_disabled":false,"rental_uris":{"android":"levelo://app?vid=419a2256-0d36-4f21-9f21-8a2eb2f0d6fb","ios":"levelo://app?vid=419a2256-0d36-4f21-9f21-8a2eb2f0d6fb"},"vehicle_type_id":"4","last_reported":1729278442,"current_range_meters":2000,"station_id":"ce4bh492rcd13ifvqdvg","pricing_plan_id":"cebpf4jnsgd1na2vs0mg"},{"bike_id":"e8da62c6-bbec-48e4-86d2-9e1bf2d17e6b","system_id":"levelo_inurba_marseille","lat":43.32481,"lon":5.36568,"is_reserved":false,"is_disabled":false,"rental_uris":{"android":"levelo://app?vid=e8da62c6-bbec-48e4-86d2-9e1bf2d17e6b","ios":"levelo://app?vid=e8da62c6-bbec-48e4-86d2-9e1bf2d17e6b"},"vehicle_type_id":"4","last_reported":1729278442,"current_range_meters":26800,"station_id":"ce4bhs12rcd13ifvqhvg","pricing_plan_id":"cebpf4jnsgd1na2vs0mg"},{"bike_id":"c92c83ca-5649-482c-94db-74e585c302ac","system_id":"levelo_inurba_marseille","lat":43.23189,"lon":5.39983,"is_reserved":false,"is_disabled":false,"rental_uris":{"android":"levelo://app?vid=c92c83ca-5649-482c-94db-74e585c302ac","ios":"levelo://app?vid=c92c83ca-5649-482c-94db-74e585c302ac"},"vehicle_type_id":"4","last_reported":1729278442,"current_range_meters":38800,"station_id":"ce4bhn12rcd13ifvqgqg","pricing_plan_id":"cebpf4jnsgd1na2vs0mg"},{"bike_id":"b7a6992c-7545-4261-bc24-c69999037398","system_id":"levelo_inurba_marseille","lat":43.27939,"lon":5.4104,"is_reserved":false,"is_disabled":false,"rental_uris":{"android":"levelo://app?vid=b7a6992c-7545-4261-bc24-c69999037398","ios":"levelo://app?vid=b7a6992c-7545-4261-bc24-c69999037398"},"vehicle_type_id":"4","last_reported":1729278442,"current_range_meters":20400,"station_id":"ce4bhnp2rcd13ifvqh0g","pricing_plan_id":"cebpf4jnsgd1na2vs0mg"},{"bike_id":"80dff6fe-042f-474e-99ca-1901d75ba951","system_id":"levelo_inurba_marseille","lat":43.29173,"lon":5.37159,"is_reserved":false,"is_disabled":false,"rental_uris":{"android":"levelo://app?vid=80dff6fe-042f-474e-99ca-1901d75ba951","ios":"levelo://app?vid=80dff6fe-042f-474e-99ca-1901d75ba951"},"vehicle_type_id":"4","last_reported":1729278442,"current_range_meters":39200,"station_id":"ce4bha92rcd13ifvqeh0","pricing_plan_id":"cebpf4jnsgd1na2vs0mg"},{"bike_id":"5f2569a2-2680-4f0e-8b01-5eae32db521a","system_id":"levelo_inurba_marseille","lat":43.29416,"lon":5.38627,"is_reserved":false,"is_disabled":false,"rental_uris":{"android":"levelo://app?vid=5f2569a2-2680-4f0e-8b01-5eae32db521a","ios":"levelo://app?vid=5f2569a2-2680-4f0e-8b01-5eae32db521a"},"vehicle_type_id":"4","last_reported":1729278442,"current_range_meters":28400,"station_id":"ce4bh2h2rcd13ifvqdh0","pricing_plan_id":"cebpf4jnsgd1na2vs0mg"},{"bike_id":"7c29dd0d-9099-429e-83ae-31275a857563","system_id":"levelo_inurba_marseille","lat":43.24178,"lon":5.3974,"is_reserved":false,"is_disabled":false,"rental_uris":{"android":"levelo://app?vid=7c29dd0d-9099-429e-83ae-31275a857563","ios":"levelo://app?vid=7c29dd0d-9099-429e-83ae-31275a857563"},"vehicle_type_id":"4","last_reported":1729278442,"current_range_meters":32400,"station_id":"ce4bhn12rcd13ifvqgpg","pricing_plan_id":"cebpf4jnsgd1na2vs0mg"},{"bike_id":"accfa285-e4b2-4bf1-9ddc-8c13e4ef959e","system_id":"levelo_inurba_marseille","lat":43.29978,"lon":5.38492,"is_reserved":false,"is_disabled":false,"rental_uris":{"android":"levelo://app?vid=accfa285-e4b2-4bf1-9ddc-8c13e4ef959e","ios":"levelo://app?vid=accfa285-e4b2-4bf1-9ddc-8c13e4ef959e"},"vehicle_type_id":"4","last_reported":1729278442,"current_range_meters":19200,"station_id":"ce4bgj92rcd13ifvqbd0","pricing_plan_id":"cebpf4jnsgd1na2vs0mg"},{"bike_id":"acaed532-1360-44e4-b19e-26bdf74a82a7","system_id":"levelo_inurba_marseille","lat":43.29596,"lon":5.38108,"is_reserved":false,"is_disabled":false,"rental_uris":{"android":"levelo://app?vid=acaed532-1360-44e4-b19e-26bdf74a82a7","ios":"levelo://app?vid=acaed532-1360-44e4-b19e-26bdf74a82a7"},"vehicle_type_id":"4","last_reported":1729278442,"current_range_meters":19200,"station_id":"ce4bgl12rcd13ifvqbo0","pricing_plan_id":"cebpf4jnsgd1na2vs0mg"},{"bike_id":"f8eb8a27-b952-4aee-8352-216d6088c539","system_id":"levelo_inurba_marseille","lat":43.25867,"lon":5.39898,"is_reserved":false,"is_disabled":false,"rental_uris":{"android":"levelo://app?vid=f8eb8a27-b952-4aee-8352-216d6088c539","ios":"levelo://app?vid=f8eb8a27-b952-4aee-8352-216d6088c539"},"vehicle_type_id":"4","last_reported":1729278442,"current_range_meters":38800,"station_id":"ce4bhl92rcd13ifvqghg","pricing_plan_id":"cebpf4jnsgd1na2vs0mg"},{"bike_id":"8cd05c8a-ebb1-4cc4-aae9-a0e7f5ad5abb","system_id":"levelo_inurba_marseille","lat":43.25814,"lon":5.39438,"is_reserved":false,"is_disabled":false,"rental_uris":{"android":"levelo://app?vid=8cd05c8a-ebb1-4cc4-aae9-a0e7f5ad5abb","ios":"levelo://app?vid=8cd05c8a-ebb1-4cc4-aae9-a0e7f5ad5abb"},"vehicle_type_id":"4","last_reported":1729278442,"current_range_meters":38800,"station_id":"ce4bhip2rcd13ifvqft0","pricing_plan_id":"cebpf4jnsgd1na2vs0mg"},{"bike_id":"3277b554-c2b4-4c2f-83cf-79e76c6f2b8c","system_id":"levelo_inurba_marseille","lat":43.29162,"lon":5.37161,"is_reserved":false,"is_disabled":false,"rental_uris":{"android":"levelo://app?vid=3277b554-c2b4-4c2f-83cf-79e76c6f2b8c","ios":"levelo://app?vid=3277b554-c2b4-4c2f-83cf-79e76c6f2b8c"},"vehicle_type_id":"4","last_reported":1729278442,"current_range_meters":25200,"station_id":"ce4bha92rcd13ifvqeh0","pricing_plan_id":"cebpf4jnsgd1na2vs0mg"},{"bike_id":"b5ff54c9-bd40-486a-91dd-861f340630ac","system_id":"levelo_inurba_marseille","lat":43.270969,"lon":5.423167,"is_reserved":false,"is_disabled":false,"rental_uris":{"android":"levelo://app?vid=b5ff54c9-bd40-486a-91dd-861f340630ac","ios":"levelo://app?vid=b5ff54c9-bd40-486a-91dd-861f340630ac"},"vehicle_type_id":"4","last_reported":1729278442,"current_range_meters":35600,"station_id":"ce4bhk92rcd13ifvqgb0","pricing_plan_id":"cebpf4jnsgd1na2vs0mg"},{"bike_id":"cef7c122-477b-4e07-a2ef-d357a7a71459","system_id":"levelo_inurba_marseille","lat":43.29222,"lon":5.36056,"is_reserved":false,"is_disabled":false,"rental_uris":{"android":"levelo://app?vid=cef7c122-477b-4e07-a2ef-d357a7a71459","ios":"levelo://app?vid=cef7c122-477b-4e07-a2ef-d357a7a71459"},"vehicle_type_id":"4","last_reported":1729278442,"current_range_meters":38000,"station_id":"ce4bhbh2rcd13ifvqeqg","pricing_plan_id":"cebpf4jnsgd1na2vs0mg"},{"bike_id":"39779155-fb02-49c6-893d-3257ca1fdc75","system_id":"levelo_inurba_marseille","lat":43.30593,"lon":5.39368,"is_reserved":false,"is_disabled":false,"rental_uris":{"android":"levelo://app?vid=39779155-fb02-49c6-893d-3257ca1fdc75","ios":"levelo://app?vid=39779155-fb02-49c6-893d-3257ca1fdc75"},"vehicle_type_id":"4","last_reported":1729278442,"current_range_meters":8400,"station_id":"ce4bh0p2rcd13ifvqd80","pricing_plan_id":"cebpf4jnsgd1na2vs0mg"},{"bike_id":"9cd153b0-ba0e-4428-8186-db5f7ecf1b47","system_id":"levelo_inurba_marseille","lat":43.29033,"lon":5.38656,"is_reserved":false,"is_disabled":false,"rental_uris":{"android":"levelo://app?vid=9cd153b0-ba0e-4428-8186-db5f7ecf1b47","ios":"levelo://app?vid=9cd153b0-ba0e-4428-8186-db5f7ecf1b47"},"vehicle_type_id":"4","last_reported":1729278442,"current_range_meters":9200,"station_id":"ce4bh4p2rcd13ifvqe0g","pricing_plan_id":"cebpf4jnsgd1na2vs0mg"},{"bike_id":"05e903a6-25eb-4fdc-92d6-70bb63a59283","system_id":"levelo_inurba_marseille","lat":43.25078,"lon":5.39509,"is_reserved":false,"is_disabled":false,"rental_uris":{"android":"levelo://app?vid=05e903a6-25eb-4fdc-92d6-70bb63a59283","ios":"levelo://app?vid=05e903a6-25eb-4fdc-92d6-70bb63a59283"},"vehicle_type_id":"4","last_reported":1729278442,"current_range_meters":38800,"station_id":"ce4bhm12rcd13ifvqgkg","pricing_plan_id":"cebpf4jnsgd1na2vs0mg"},{"bike_id":"2dffce44-7cfd-4d42-813e-c4b2870080b3","system_id":"levelo_inurba_marseille","lat":43.282175,"lon":5.39517,"is_reserved":false,"is_disabled":false,"rental_uris":{"android":"levelo://app?vid=2dffce44-7cfd-4d42-813e-c4b2870080b3","ios":"levelo://app?vid=2dffce44-7cfd-4d42-813e-c4b2870080b3"},"vehicle_type_id":"4","last_reported":1729278442,"current_range_meters":36800,"station_id":"ce4bho12rcd13ifvqh2g","pricing_plan_id":"cebpf4jnsgd1na2vs0mg"},{"bike_id":"634f2c20-c48d-43df-b081-dfc81829172b","system_id":"levelo_inurba_marseille","lat":43.302612,"lon":5.368855,"is_reserved":false,"is_disabled":false,"rental_uris":{"android":"levelo://app?vid=634f2c20-c48d-43df-b081-dfc81829172b","ios":"levelo://app?vid=634f2c20-c48d-43df-b081-dfc81829172b"},"vehicle_type_id":"4","last_reported":1729278442,"current_range_meters":32000,"station_id":"ce4bgqh2rcd13ifvqc5g","pricing_plan_id":"cebpf4jnsgd1na2vs0mg"},{"bike_id":"3664398f-378f-46f2-bd12-30042ad8db9d","system_id":"levelo_inurba_marseille","lat":43.23186,"lon":5.39984,"is_reserved":false,"is_disabled":false,"rental_uris":{"android":"levelo://app?vid=3664398f-378f-46f2-bd12-30042ad8db9d","ios":"levelo://app?vid=3664398f-378f-46f2-bd12-30042ad8db9d"},"vehicle_type_id":"4","last_reported":1729278442,"current_range_meters":28400,"station_id":"ce4bhn12rcd13ifvqgqg","pricing_plan_id":"cebpf4jnsgd1na2vs0mg"},{"bike_id":"a9d80141-cb04-4f88-bcc5-9763572e3517","system_id":"levelo_inurba_marseille","lat":43.232,"lon":5.35555,"is_reserved":false,"is_disabled":false,"rental_uris":{"android":"levelo://app?vid=a9d80141-cb04-4f88-bcc5-9763572e3517","ios":"levelo://app?vid=a9d80141-cb04-4f88-bcc5-9763572e3517"},"vehicle_type_id":"4","last_reported":1729278442,"current_range_meters":27600,"station_id":"ce4bhu92rcd13ifvqi70","pricing_plan_id":"cebpf4jnsgd1na2vs0mg"},{"bike_id":"5ecdc120-e6fc-4f0f-a100-2c3873d99541","system_id":"levelo_inurba_marseille","lat":43.26791,"lon":5.39417,"is_reserved":false,"is_disabled":false,"rental_uris":{"android":"levelo://app?vid=5ecdc120-e6fc-4f0f-a100-2c3873d99541","ios":"levelo://app?vid=5ecdc120-e6fc-4f0f-a100-2c3873d99541"},"vehicle_type_id":"4","last_reported":1729278442,"current_range_meters":27200,"station_id":"ce4bhh12rcd13ifvqfg0","pricing_plan_id":"cebpf4jnsgd1na2vs0mg"},{"bike_id":"bd4e2329-d468-4afe-b205-f92d85778d9b","system_id":"levelo_inurba_marseille","lat":43.27943,"lon":5.41047,"is_reserved":false,"is_disabled":false,"rental_uris":{"android":"levelo://app?vid=bd4e2329-d468-4afe-b205-f92d85778d9b","ios":"levelo://app?vid=bd4e2329-d468-4afe-b205-f92d85778d9b"},"vehicle_type_id":"4","last_reported":1729278442,"current_range_meters":28400,"station_id":"ce4bhnp2rcd13ifvqh0g","pricing_plan_id":"cebpf4jnsgd1na2vs0mg"},{"bike_id":"419a8a06-d756-4b1b-908c-8a78f462b8ed","system_id":"levelo_inurba_marseille","lat":43.29532,"lon":5.38553,"is_reserved":false,"is_disabled":false,"rental_uris":{"android":"levelo://app?vid=419a8a06-d756-4b1b-908c-8a78f462b8ed","ios":"levelo://app?vid=419a8a06-d756-4b1b-908c-8a78f462b8ed"},"vehicle_type_id":"4","last_reported":1729278442,"current_range_meters":4400,"station_id":"ce4bgih2rcd13ifvqba0","pricing_plan_id":"cebpf4jnsgd1na2vs0mg"},{"bike_id":"6bdf77d3-cb0b-49bc-91d0-34226cf70b4b","system_id":"levelo_inurba_marseille","lat":43.29529,"lon":5.38549,"is_reserved":false,"is_disabled":false,"rental_uris":{"android":"levelo://app?vid=6bdf77d3-cb0b-49bc-91d0-34226cf70b4b","ios":"levelo://app?vid=6bdf77d3-cb0b-49bc-91d0-34226cf70b4b"},"vehicle_type_id":"4","last_reported":1729278442,"current_range_meters":8400,"station_id":"ce4bgih2rcd13ifvqba0","pricing_plan_id":"cebpf4jnsgd1na2vs0mg"},{"bike_id":"4494673c-ebac-42b3-884d-4d7420fce07c","system_id":"levelo_inurba_marseille","lat":43.23958,"lon":5.36635,"is_reserved":false,"is_disabled":false,"rental_uris":{"android":"levelo://app?vid=4494673c-ebac-42b3-884d-4d7420fce07c","ios":"levelo://app?vid=4494673c-ebac-42b3-884d-4d7420fce07c"},"vehicle_type_id":"4","last_reported":1729278442,"current_range_meters":4000,"station_id":"ce4bhi12rcd13ifvqfp0","pricing_plan_id":"cebpf4jnsgd1na2vs0mg"},{"bike_id":"fb72b6fc-3438-4a8d-845c-721776e3614d","system_id":"levelo_inurba_marseille","lat":43.24646,"lon":5.38893,"is_reserved":false,"is_disabled":false,"rental_uris":{"android":"levelo://app?vid=fb72b6fc-3438-4a8d-845c-721776e3614d","ios":"levelo://app?vid=fb72b6fc-3438-4a8d-845c-721776e3614d"},"vehicle_type_id":"4","last_reported":1729278442,"current_range_meters":9200,"station_id":"ce4bhg12rcd13ifvqf60","pricing_plan_id":"cebpf4jnsgd1na2vs0mg"},{"bike_id":"4a9c5136-102b-41cb-94fc-f5175f170593","system_id":"levelo_inurba_marseille","lat":43.25864,"lon":5.39894,"is_reserved":false,"is_disabled":false,"rental_uris":{"android":"levelo://app?vid=4a9c5136-102b-41cb-94fc-f5175f170593","ios":"levelo://app?vid=4a9c5136-102b-41cb-94fc-f5175f170593"},"vehicle_type_id":"4","last_reported":1729278442,"current_range_meters":18800,"station_id":"ce4bhl92rcd13ifvqghg","pricing_plan_id":"cebpf4jnsgd1na2vs0mg"},{"bike_id":"2a23636d-09fb-43ac-ac53-35b6c8edc197","system_id":"levelo_inurba_marseille","lat":43.24653,"lon":5.38893,"is_reserved":false,"is_disabled":false,"rental_uris":{"android":"levelo://app?vid=2a23636d-09fb-43ac-ac53-35b6c8edc197","ios":"levelo://app?vid=2a23636d-09fb-43ac-ac53-35b6c8edc197"},"vehicle_type_id":"4","last_reported":1729278442,"current_range_meters":22400,"station_id":"ce4bhg12rcd13ifvqf60","pricing_plan_id":"cebpf4jnsgd1na2vs0mg"},{"bike_id":"09e2914a-0fcc-451a-823e-320bb77c1789","system_id":"levelo_inurba_marseille","lat":43.27955,"lon":5.41057,"is_reserved":false,"is_disabled":false,"rental_uris":{"android":"levelo://app?vid=09e2914a-0fcc-451a-823e-320bb77c1789","ios":"levelo://app?vid=09e2914a-0fcc-451a-823e-320bb77c1789"},"vehicle_type_id":"4","last_reported":1729278442,"current_range_meters":24400,"station_id":"ce4bhnp2rcd13ifvqh0g","pricing_plan_id":"cebpf4jnsgd1na2vs0mg"},{"bike_id":"1185016f-df9b-4e61-b964-54bd7386f7c9","system_id":"levelo_inurba_marseille","lat":43.33022,"lon":5.39048,"is_reserved":false,"is_disabled":false,"rental_uris":{"android":"levelo://app?vid=1185016f-df9b-4e61-b964-54bd7386f7c9","ios":"levelo://app?vid=1185016f-df9b-4e61-b964-54bd7386f7c9"},"vehicle_type_id":"4","last_reported":1729278442,"current_range_meters":39200,"station_id":"ce4bhr92rcd13ifvqhrg","pricing_plan_id":"cebpf4jnsgd1na2vs0mg"},{"bike_id":"d41309ab-1a1f-4395-acaa-455483c3f8e1","system_id":"levelo_inurba_marseille","lat":43.2319,"lon":5.35561,"is_reserved":false,"is_disabled":false,"rental_uris":{"android":"levelo://app?vid=d41309ab-1a1f-4395-acaa-455483c3f8e1","ios":"levelo://app?vid=d41309ab-1a1f-4395-acaa-455483c3f8e1"},"vehicle_type_id":"4","last_reported":1729278442,"current_range_meters":30000,"station_id":"ce4bhu92rcd13ifvqi70","pricing_plan_id":"cebpf4jnsgd1na2vs0mg"},{"bike_id":"7b15325c-0852-4d85-b2ae-5610b9b837d1","system_id":"levelo_inurba_marseille","lat":43.29622,"lon":5.37153,"is_reserved":false,"is_disabled":false,"rental_uris":{"android":"levelo://app?vid=7b15325c-0852-4d85-b2ae-5610b9b837d1","ios":"levelo://app?vid=7b15325c-0852-4d85-b2ae-5610b9b837d1"},"vehicle_type_id":"4","last_reported":1729278442,"current_range_meters":38000,"station_id":"ce4bgnh2rcd13ifvqc0g","pricing_plan_id":"cebpf4jnsgd1na2vs0mg"},{"bike_id":"f530cf14-8834-436a-8d12-cb025cf4d094","system_id":"levelo_inurba_marseille","lat":43.24807,"lon":5.37459,"is_reserved":false,"is_disabled":false,"rental_uris":{"android":"levelo://app?vid=f530cf14-8834-436a-8d12-cb025cf4d094","ios":"levelo://app?vid=f530cf14-8834-436a-8d12-cb025cf4d094"},"vehicle_type_id":"4","last_reported":1729278442,"current_range_meters":38800,"station_id":"ce4bhgh2rcd13ifvqfb0","pricing_plan_id":"cebpf4jnsgd1na2vs0mg"},{"bike_id":"e5fd5dc7-d2bc-4a63-a6ed-361d1e60dac2","system_id":"levelo_inurba_marseille","lat":43.27992,"lon":5.41667,"is_reserved":false,"is_disabled":false,"rental_uris":{"android":"levelo://app?vid=e5fd5dc7-d2bc-4a63-a6ed-361d1e60dac2","ios":"levelo://app?vid=e5fd5dc7-d2bc-4a63-a6ed-361d1e60dac2"},"vehicle_type_id":"4","last_reported":1729278442,"current_range_meters":9600,"station_id":"ce4bho12rcd13ifvqh1g","pricing_plan_id":"cebpf4jnsgd1na2vs0mg"},{"bike_id":"ce04ac14-91dc-435b-94f7-41bd0bf71530","system_id":"levelo_inurba_marseille","lat":43.3229,"lon":5.38278,"is_reserved":false,"is_disabled":false,"rental_uris":{"android":"levelo://app?vid=ce04ac14-91dc-435b-94f7-41bd0bf71530","ios":"levelo://app?vid=ce04ac14-91dc-435b-94f7-41bd0bf71530"},"vehicle_type_id":"4","last_reported":1729278442,"current_range_meters":20800,"station_id":"ce4bhr12rcd13ifvqhqg","pricing_plan_id":"cebpf4jnsgd1na2vs0mg"},{"bike_id":"5a2db15b-e306-4aa8-909e-a89e0d209b95","system_id":"levelo_inurba_marseille","lat":43.30802,"lon":5.38174,"is_reserved":false,"is_disabled":false,"rental_uris":{"android":"levelo://app?vid=5a2db15b-e306-4aa8-909e-a89e0d209b95","ios":"levelo://app?vid=5a2db15b-e306-4aa8-909e-a89e0d209b95"},"vehicle_type_id":"4","last_reported":1729278442,"current_range_meters":22400,"station_id":"ce4bgt12rcd13ifvqce0","pricing_plan_id":"cebpf4jnsgd1na2vs0mg"},{"bike_id":"0bcac80f-c7e9-474c-9b1d-5bde4d87414d","system_id":"levelo_inurba_marseille","lat":43.25577,"lon":5.38234,"is_reserved":false,"is_disabled":false,"rental_uris":{"android":"levelo://app?vid=0bcac80f-c7e9-474c-9b1d-5bde4d87414d","ios":"levelo://app?vid=0bcac80f-c7e9-474c-9b1d-5bde4d87414d"},"vehicle_type_id":"4","last_reported":1729278442,"current_range_meters":3600,"station_id":"ce4bhih2rcd13ifvqfs0","pricing_plan_id":"cebpf4jnsgd1na2vs0mg"},{"bike_id":"9aeedc89-0c40-4987-b960-5d33ffb47506","system_id":"levelo_inurba_marseille","lat":43.279,"lon":5.38013,"is_reserved":false,"is_disabled":false,"rental_uris":{"android":"levelo://app?vid=9aeedc89-0c40-4987-b960-5d33ffb47506","ios":"levelo://app?vid=9aeedc89-0c40-4987-b960-5d33ffb47506"},"vehicle_type_id":"4","last_reported":1729278442,"current_range_meters":8000,"station_id":"ce4bhf92rcd13ifvqf50","pricing_plan_id":"cebpf4jnsgd1na2vs0mg"},{"bike_id":"112f5af7-d8d7-49ca-9d5b-2b1b1ee7c6a0","system_id":"levelo_inurba_marseille","lat":43.23194,"lon":5.35551,"is_reserved":false,"is_disabled":false,"rental_uris":{"android":"levelo://app?vid=112f5af7-d8d7-49ca-9d5b-2b1b1ee7c6a0","ios":"levelo://app?vid=112f5af7-d8d7-49ca-9d5b-2b1b1ee7c6a0"},"vehicle_type_id":"4","last_reported":1729278442,"current_range_meters":40000,"station_id":"ce4bhu92rcd13ifvqi70","pricing_plan_id":"cebpf4jnsgd1na2vs0mg"},{"bike_id":"2d12c475-1606-45db-9b57-bde660f7b2ba","system_id":"levelo_inurba_marseille","lat":43.29532,"lon":5.38551,"is_reserved":false,"is_disabled":false,"rental_uris":{"android":"levelo://app?vid=2d12c475-1606-45db-9b57-bde660f7b2ba","ios":"levelo://app?vid=2d12c475-1606-45db-9b57-bde660f7b2ba"},"vehicle_type_id":"4","last_reported":1729278442,"current_range_meters":33600,"station_id":"ce4bgih2rcd13ifvqba0","pricing_plan_id":"cebpf4jnsgd1na2vs0mg"},{"bike_id":"3d66d5f8-00cc-4230-aae4-30747a320f72","system_id":"levelo_inurba_marseille","lat":43.28947,"lon":5.36406,"is_reserved":false,"is_disabled":false,"rental_uris":{"android":"levelo://app?vid=3d66d5f8-00cc-4230-aae4-30747a320f72","ios":"levelo://app?vid=3d66d5f8-00cc-4230-aae4-30747a320f72"},"vehicle_type_id":"4","last_reported":1729278442,"current_range_meters":38800,"station_id":"ce4bhc92rcd13ifvqetg","pricing_plan_id":"cebpf4jnsgd1na2vs0mg"},{"bike_id":"a417ea90-2677-4128-ad80-9d6526661d0d","system_id":"levelo_inurba_marseille","lat":43.23954,"lon":5.36632,"is_reserved":false,"is_disabled":false,"rental_uris":{"android":"levelo://app?vid=a417ea90-2677-4128-ad80-9d6526661d0d","ios":"levelo://app?vid=a417ea90-2677-4128-ad80-9d6526661d0d"},"vehicle_type_id":"4","last_reported":1729278442,"current_range_meters":20400,"station_id":"ce4bhi12rcd13ifvqfp0","pricing_plan_id":"cebpf4jnsgd1na2vs0mg"},{"bike_id":"68c23205-3840-4bd4-971d-0594d4c487e3","system_id":"levelo_inurba_marseille","lat":43.31006,"lon":5.40008,"is_reserved":false,"is_disabled":false,"rental_uris":{"android":"levelo://app?vid=68c23205-3840-4bd4-971d-0594d4c487e3","ios":"levelo://app?vid=68c23205-3840-4bd4-971d-0594d4c487e3"},"vehicle_type_id":"4","last_reported":1729278442,"current_range_meters":30800,"station_id":"ce4bh012rcd13ifvqcv0","pricing_plan_id":"cebpf4jnsgd1na2vs0mg"},{"bike_id":"117ee8b3-b5e2-4e87-a5f7-420c68bf7509","system_id":"levelo_inurba_marseille","lat":43.25866,"lon":5.39905,"is_reserved":false,"is_disabled":false,"rental_uris":{"android":"levelo://app?vid=117ee8b3-b5e2-4e87-a5f7-420c68bf7509","ios":"levelo://app?vid=117ee8b3-b5e2-4e87-a5f7-420c68bf7509"},"vehicle_type_id":"4","last_reported":1729278442,"current_range_meters":38800,"station_id":"ce4bhl92rcd13ifvqghg","pricing_plan_id":"cebpf4jnsgd1na2vs0mg"},{"bike_id":"793349c0-e4d7-4f3c-aec9-b7a4ec3e96cc","system_id":"levelo_inurba_marseille","lat":43.2942,"lon":5.38623,"is_reserved":false,"is_disabled":false,"rental_uris":{"android":"levelo://app?vid=793349c0-e4d7-4f3c-aec9-b7a4ec3e96cc","ios":"levelo://app?vid=793349c0-e4d7-4f3c-aec9-b7a4ec3e96cc"},"vehicle_type_id":"4","last_reported":1729278442,"current_range_meters":38800,"station_id":"ce4bh2h2rcd13ifvqdh0","pricing_plan_id":"cebpf4jnsgd1na2vs0mg"},{"bike_id":"f93454e1-a669-4c63-a4ca-b572042c7971","system_id":"levelo_inurba_marseille","lat":43.23194,"lon":5.35554,"is_reserved":false,"is_disabled":false,"rental_uris":{"android":"levelo://app?vid=f93454e1-a669-4c63-a4ca-b572042c7971","ios":"levelo://app?vid=f93454e1-a669-4c63-a4ca-b572042c7971"},"vehicle_type_id":"4","last_reported":1729278442,"current_range_meters":7200,"station_id":"ce4bhu92rcd13ifvqi70","pricing_plan_id":"cebpf4jnsgd1na2vs0mg"},{"bike_id":"9feebf6a-cf06-4283-9475-cface9a88761","system_id":"levelo_inurba_marseille","lat":43.30801,"lon":5.43526,"is_reserved":false,"is_disabled":false,"rental_uris":{"android":"levelo://app?vid=9feebf6a-cf06-4283-9475-cface9a88761","ios":"levelo://app?vid=9feebf6a-cf06-4283-9475-cface9a88761"},"vehicle_type_id":"4","last_reported":1729278442,"current_range_meters":32400,"station_id":"ce4bhph2rcd13ifvqheg","pricing_plan_id":"cebpf4jnsgd1na2vs0mg"},{"bike_id":"dbbdc63d-9f4c-44cf-b9a6-ee1910e4ea7a","system_id":"levelo_inurba_marseille","lat":43.29523,"lon":5.3751,"is_reserved":false,"is_disabled":false,"rental_uris":{"android":"levelo://app?vid=dbbdc63d-9f4c-44cf-b9a6-ee1910e4ea7a","ios":"levelo://app?vid=dbbdc63d-9f4c-44cf-b9a6-ee1910e4ea7a"},"vehicle_type_id":"4","last_reported":1729278442,"current_range_meters":24800,"station_id":"ce4bgkp2rcd13ifvqbmg","pricing_plan_id":"cebpf4jnsgd1na2vs0mg"},{"bike_id":"2b8672b1-f225-4545-98cf-18c68bbf3222","system_id":"levelo_inurba_marseille","lat":43.27907,"lon":5.38009,"is_reserved":false,"is_disabled":false,"rental_uris":{"android":"levelo://app?vid=2b8672b1-f225-4545-98cf-18c68bbf3222","ios":"levelo://app?vid=2b8672b1-f225-4545-98cf-18c68bbf3222"},"vehicle_type_id":"4","last_reported":1729278442,"current_range_meters":30400,"station_id":"ce4bhf92rcd13ifvqf50","pricing_plan_id":"cebpf4jnsgd1na2vs0mg"},{"bike_id":"22b37876-70ac-4ba0-9001-79de88a5c4f9","system_id":"levelo_inurba_marseille","lat":43.33767,"lon":5.37441,"is_reserved":false,"is_disabled":false,"rental_uris":{"android":"levelo://app?vid=22b37876-70ac-4ba0-9001-79de88a5c4f9","ios":"levelo://app?vid=22b37876-70ac-4ba0-9001-79de88a5c4f9"},"vehicle_type_id":"4","last_reported":1729278442,"current_range_meters":30400,"station_id":"","pricing_plan_id":"cebpf4jnsgd1na2vs0mg"},{"bike_id":"83893556-7c00-42a3-a08d-3dc2a54beb25","system_id":"levelo_inurba_marseille","lat":43.28002,"lon":5.40017,"is_reserved":false,"is_disabled":false,"rental_uris":{"android":"levelo://app?vid=83893556-7c00-42a3-a08d-3dc2a54beb25","ios":"levelo://app?vid=83893556-7c00-42a3-a08d-3dc2a54beb25"},"vehicle_type_id":"4","last_reported":1729278442,"current_range_meters":29600,"station_id":"ce4bho92rcd13ifvqh4g","pricing_plan_id":"cebpf4jnsgd1na2vs0mg"},{"bike_id":"c03a916c-1e35-4441-9d80-9299292f823f","system_id":"levelo_inurba_marseille","lat":43.29523,"lon":5.38534,"is_reserved":false,"is_disabled":false,"rental_uris":{"android":"levelo://app?vid=c03a916c-1e35-4441-9d80-9299292f823f","ios":"levelo://app?vid=c03a916c-1e35-4441-9d80-9299292f823f"},"vehicle_type_id":"4","last_reported":1729278442,"current_range_meters":38000,"station_id":"ce4bgih2rcd13ifvqba0","pricing_plan_id":"cebpf4jnsgd1na2vs0mg"},{"bike_id":"9b78167b-ae5a-47c9-9d1b-58b45505fd1c","system_id":"levelo_inurba_marseille","lat":43.24166,"lon":5.36405,"is_reserved":false,"is_disabled":false,"rental_uris":{"android":"levelo://app?vid=9b78167b-ae5a-47c9-9d1b-58b45505fd1c","ios":"levelo://app?vid=9b78167b-ae5a-47c9-9d1b-58b45505fd1c"},"vehicle_type_id":"4","last_reported":1729278442,"current_range_meters":38000,"station_id":"cpo36qri1sfpv3e86is0","pricing_plan_id":"cebpf4jnsgd1na2vs0mg"},{"bike_id":"a588e2f1-9837-4162-a9c4-a70bd36702ef","system_id":"levelo_inurba_marseille","lat":43.29628,"lon":5.37732,"is_reserved":false,"is_disabled":false,"rental_uris":{"android":"levelo://app?vid=a588e2f1-9837-4162-a9c4-a70bd36702ef","ios":"levelo://app?vid=a588e2f1-9837-4162-a9c4-a70bd36702ef"},"vehicle_type_id":"4","last_reported":1729278442,"current_range_meters":39200,"station_id":"ce4bgi92rcd13ifvqb90","pricing_plan_id":"cebpf4jnsgd1na2vs0mg"},{"bike_id":"70d204b1-e3ca-41cb-9751-b002da416fce","system_id":"levelo_inurba_marseille","lat":43.26929,"lon":5.38917,"is_reserved":false,"is_disabled":false,"rental_uris":{"android":"levelo://app?vid=70d204b1-e3ca-41cb-9751-b002da416fce","ios":"levelo://app?vid=70d204b1-e3ca-41cb-9751-b002da416fce"},"vehicle_type_id":"4","last_reported":1729278442,"current_range_meters":6000,"station_id":"ce4bhhh2rcd13ifvqfl0","pricing_plan_id":"cebpf4jnsgd1na2vs0mg"},{"bike_id":"efac3a73-bff7-449b-a00f-1ead01f19a7c","system_id":"levelo_inurba_marseille","lat":43.28471,"lon":5.38415,"is_reserved":false,"is_disabled":false,"rental_uris":{"android":"levelo://app?vid=efac3a73-bff7-449b-a00f-1ead01f19a7c","ios":"levelo://app?vid=efac3a73-bff7-449b-a00f-1ead01f19a7c"},"vehicle_type_id":"4","last_reported":1729278442,"current_range_meters":6400,"station_id":"ce4bh512rcd13ifvqe3g","pricing_plan_id":"cebpf4jnsgd1na2vs0mg"},{"bike_id":"0aca6f16-1e18-4362-8875-68894c9b492b","system_id":"levelo_inurba_marseille","lat":43.29267,"lon":5.36852,"is_reserved":false,"is_disabled":false,"rental_uris":{"android":"levelo://app?vid=0aca6f16-1e18-4362-8875-68894c9b492b","ios":"levelo://app?vid=0aca6f16-1e18-4362-8875-68894c9b492b"},"vehicle_type_id":"4","last_reported":1729278442,"current_range_meters":11200,"station_id":"ce4bhbp2rcd13ifvqesg","pricing_plan_id":"cebpf4jnsgd1na2vs0mg"},{"bike_id":"4d92531e-2699-4fa5-be68-33ef473c1442","system_id":"levelo_inurba_marseille","lat":43.29414,"lon":5.38628,"is_reserved":false,"is_disabled":false,"rental_uris":{"android":"levelo://app?vid=4d92531e-2699-4fa5-be68-33ef473c1442","ios":"levelo://app?vid=4d92531e-2699-4fa5-be68-33ef473c1442"},"vehicle_type_id":"4","last_reported":1729278442,"current_range_meters":20400,"station_id":"ce4bh2h2rcd13ifvqdh0","pricing_plan_id":"cebpf4jnsgd1na2vs0mg"},{"bike_id":"c002f3b6-0b48-4ec5-a72c-1d453a714303","system_id":"levelo_inurba_marseille","lat":43.27058,"lon":5.40269,"is_reserved":false,"is_disabled":false,"rental_uris":{"android":"levelo://app?vid=c002f3b6-0b48-4ec5-a72c-1d453a714303","ios":"levelo://app?vid=c002f3b6-0b48-4ec5-a72c-1d453a714303"},"vehicle_type_id":"4","last_reported":1729278442,"current_range_meters":28800,"station_id":"ce4bhk92rcd13ifvqgc0","pricing_plan_id":"cebpf4jnsgd1na2vs0mg"},{"bike_id":"3ac58501-1234-4544-ae5e-37c1fc251df3","system_id":"levelo_inurba_marseille","lat":43.24643,"lon":5.38899,"is_reserved":false,"is_disabled":false,"rental_uris":{"android":"levelo://app?vid=3ac58501-1234-4544-ae5e-37c1fc251df3","ios":"levelo://app?vid=3ac58501-1234-4544-ae5e-37c1fc251df3"},"vehicle_type_id":"4","last_reported":1729278442,"current_range_meters":38800,"station_id":"ce4bhg12rcd13ifvqf60","pricing_plan_id":"cebpf4jnsgd1na2vs0mg"},{"bike_id":"c8fa6f39-e07d-463d-8d01-7ccf9e86f944","system_id":"levelo_inurba_marseille","lat":43.23199,"lon":5.35552,"is_reserved":false,"is_disabled":false,"rental_uris":{"android":"levelo://app?vid=c8fa6f39-e07d-463d-8d01-7ccf9e86f944","ios":"levelo://app?vid=c8fa6f39-e07d-463d-8d01-7ccf9e86f944"},"vehicle_type_id":"4","last_reported":1729278442,"current_range_meters":22800,"station_id":"ce4bhu92rcd13ifvqi70","pricing_plan_id":"cebpf4jnsgd1na2vs0mg"},{"bike_id":"7083d6dd-62a3-40cd-bc95-f4d44769330f","system_id":"levelo_inurba_marseille","lat":43.32173,"lon":5.38799,"is_reserved":false,"is_disabled":false,"rental_uris":{"android":"levelo://app?vid=7083d6dd-62a3-40cd-bc95-f4d44769330f","ios":"levelo://app?vid=7083d6dd-62a3-40cd-bc95-f4d44769330f"},"vehicle_type_id":"4","last_reported":1729278442,"current_range_meters":6800,"station_id":"","pricing_plan_id":"cebpf4jnsgd1na2vs0mg"},{"bike_id":"e23fcc06-93cc-4b30-91b9-ae992c54a640","system_id":"levelo_inurba_marseille","lat":43.290369,"lon":5.359164,"is_reserved":false,"is_disabled":false,"rental_uris":{"android":"levelo://app?vid=e23fcc06-93cc-4b30-91b9-ae992c54a640","ios":"levelo://app?vid=e23fcc06-93cc-4b30-91b9-ae992c54a640"},"vehicle_type_id":"4","last_reported":1729278442,"current_range_meters":9200,"station_id":"","pricing_plan_id":"cebpf4jnsgd1na2vs0mg"},{"bike_id":"480ee312-85ef-4fbe-be5c-5278a7d6f4dc","system_id":"levelo_inurba_marseille","lat":43.31714,"lon":5.37756,"is_reserved":false,"is_disabled":false,"rental_uris":{"android":"levelo://app?vid=480ee312-85ef-4fbe-be5c-5278a7d6f4dc","ios":"levelo://app?vid=480ee312-85ef-4fbe-be5c-5278a7d6f4dc"},"vehicle_type_id":"4","last_reported":1729278442,"current_range_meters":38800,"station_id":"ce4bgth2rcd13ifvqch0","pricing_plan_id":"cebpf4jnsgd1na2vs0mg"},{"bike_id":"9f1c374f-8da7-47b9-bae2-876181f662d5","system_id":"levelo_inurba_marseille","lat":43.28099,"lon":5.3784,"is_reserved":false,"is_disabled":false,"rental_uris":{"android":"levelo://app?vid=9f1c374f-8da7-47b9-bae2-876181f662d5","ios":"levelo://app?vid=9f1c374f-8da7-47b9-bae2-876181f662d5"},"vehicle_type_id":"4","last_reported":1729278442,"current_range_meters":35200,"station_id":"ce4bha12rcd13ifvqee0","pricing_plan_id":"cebpf4jnsgd1na2vs0mg"},{"bike_id":"83f5a396-9321-4e25-9270-1fc14263f293","system_id":"levelo_inurba_marseille","lat":43.31535,"lon":5.38042,"is_reserved":false,"is_disabled":false,"rental_uris":{"android":"levelo://app?vid=83f5a396-9321-4e25-9270-1fc14263f293","ios":"levelo://app?vid=83f5a396-9321-4e25-9270-1fc14263f293"},"vehicle_type_id":"4","last_reported":1729278442,"current_range_meters":8400,"station_id":"ce4bhsp2rcd13ifvqi50","pricing_plan_id":"cebpf4jnsgd1na2vs0mg"},{"bike_id":"abb0a043-8fcd-4347-935d-25deee644614","system_id":"levelo_inurba_marseille","lat":43.29014,"lon":5.38142,"is_reserved":false,"is_disabled":false,"rental_uris":{"android":"levelo://app?vid=abb0a043-8fcd-4347-935d-25deee644614","ios":"levelo://app?vid=abb0a043-8fcd-4347-935d-25deee644614"},"vehicle_type_id":"4","last_reported":1729278442,"current_range_meters":30800,"station_id":"ce4bh4p2rcd13ifvqe1g","pricing_plan_id":"cebpf4jnsgd1na2vs0mg"},{"bike_id":"0cc3167e-f41d-4321-aa62-4a273d7ed4a1","system_id":"levelo_inurba_marseille","lat":43.29418,"lon":5.3863,"is_reserved":false,"is_disabled":false,"rental_uris":{"android":"levelo://app?vid=0cc3167e-f41d-4321-aa62-4a273d7ed4a1","ios":"levelo://app?vid=0cc3167e-f41d-4321-aa62-4a273d7ed4a1"},"vehicle_type_id":"4","last_reported":1729278442,"current_range_meters":10000,"station_id":"ce4bh2h2rcd13ifvqdh0","pricing_plan_id":"cebpf4jnsgd1na2vs0mg"},{"bike_id":"792c100c-b27e-45ff-b20e-2b411071329f","system_id":"levelo_inurba_marseille","lat":43.29907,"lon":5.38138,"is_reserved":false,"is_disabled":false,"rental_uris":{"android":"levelo://app?vid=792c100c-b27e-45ff-b20e-2b411071329f","ios":"levelo://app?vid=792c100c-b27e-45ff-b20e-2b411071329f"},"vehicle_type_id":"4","last_reported":1729278442,"current_range_meters":32400,"station_id":"ce4bgj12rcd13ifvqbc0","pricing_plan_id":"cebpf4jnsgd1na2vs0mg"},{"bike_id":"74a3e96a-8349-4c39-a246-aacc8a0c7d8d","system_id":"levelo_inurba_marseille","lat":43.28155,"lon":5.42642,"is_reserved":false,"is_disabled":false,"rental_uris":{"android":"levelo://app?vid=74a3e96a-8349-4c39-a246-aacc8a0c7d8d","ios":"levelo://app?vid=74a3e96a-8349-4c39-a246-aacc8a0c7d8d"},"vehicle_type_id":"4","last_reported":1729278442,"current_range_meters":23200,"station_id":"ce4bhnh2rcd13ifvqgug","pricing_plan_id":"cebpf4jnsgd1na2vs0mg"},{"bike_id":"69ca36d3-a6bf-49b2-b6dc-a3bd1c9f448c","system_id":"levelo_inurba_marseille","lat":43.31069,"lon":5.38354,"is_reserved":false,"is_disabled":false,"rental_uris":{"android":"levelo://app?vid=69ca36d3-a6bf-49b2-b6dc-a3bd1c9f448c","ios":"levelo://app?vid=69ca36d3-a6bf-49b2-b6dc-a3bd1c9f448c"},"vehicle_type_id":"4","last_reported":1729278442,"current_range_meters":24000,"station_id":"ce4bgv92rcd13ifvqcr0","pricing_plan_id":"cebpf4jnsgd1na2vs0mg"},{"bike_id":"89638ef8-ebbe-4b0a-bdfc-c226898a0001","system_id":"levelo_inurba_marseille","lat":43.29436,"lon":5.3976,"is_reserved":false,"is_disabled":false,"rental_uris":{"android":"levelo://app?vid=89638ef8-ebbe-4b0a-bdfc-c226898a0001","ios":"levelo://app?vid=89638ef8-ebbe-4b0a-bdfc-c226898a0001"},"vehicle_type_id":"4","last_reported":1729278442,"current_range_meters":16800,"station_id":"ce4bh3h2rcd13ifvqdo0","pricing_plan_id":"cebpf4jnsgd1na2vs0mg"},{"bike_id":"6953fb0e-bdf6-436e-83df-c9e43759886b","system_id":"levelo_inurba_marseille","lat":43.26679,"lon":5.3827,"is_reserved":false,"is_disabled":false,"rental_uris":{"android":"levelo://app?vid=6953fb0e-bdf6-436e-83df-c9e43759886b","ios":"levelo://app?vid=6953fb0e-bdf6-436e-83df-c9e43759886b"},"vehicle_type_id":"4","last_reported":1729278442,"current_range_meters":4800,"station_id":"ce4bhg92rcd13ifvqf90","pricing_plan_id":"cebpf4jnsgd1na2vs0mg"},{"bike_id":"78c70ea9-dbb6-42dd-9464-6028bc589421","system_id":"levelo_inurba_marseille","lat":43.2861,"lon":5.37072,"is_reserved":false,"is_disabled":false,"rental_uris":{"android":"levelo://app?vid=78c70ea9-dbb6-42dd-9464-6028bc589421","ios":"levelo://app?vid=78c70ea9-dbb6-42dd-9464-6028bc589421"},"vehicle_type_id":"4","last_reported":1729278442,"current_range_meters":38800,"station_id":"ce4bht12rcd13ifvqi60","pricing_plan_id":"cebpf4jnsgd1na2vs0mg"},{"bike_id":"c3fe07dc-ac18-46f5-bcab-19eb83c77839","system_id":"levelo_inurba_marseille","lat":43.23189,"lon":5.39987,"is_reserved":false,"is_disabled":false,"rental_uris":{"android":"levelo://app?vid=c3fe07dc-ac18-46f5-bcab-19eb83c77839","ios":"levelo://app?vid=c3fe07dc-ac18-46f5-bcab-19eb83c77839"},"vehicle_type_id":"4","last_reported":1729278442,"current_range_meters":8800,"station_id":"ce4bhn12rcd13ifvqgqg","pricing_plan_id":"cebpf4jnsgd1na2vs0mg"},{"bike_id":"cc313c29-ad45-43f3-80dc-036de51fd63b","system_id":"levelo_inurba_marseille","lat":43.2991,"lon":5.37487,"is_reserved":false,"is_disabled":false,"rental_uris":{"android":"levelo://app?vid=cc313c29-ad45-43f3-80dc-036de51fd63b","ios":"levelo://app?vid=cc313c29-ad45-43f3-80dc-036de51fd63b"},"vehicle_type_id":"4","last_reported":1729278442,"current_range_meters":27600,"station_id":"ce4bgjh2rcd13ifvqbg0","pricing_plan_id":"cebpf4jnsgd1na2vs0mg"},{"bike_id":"0e1a6873-0ab3-4ded-8cb0-3ae98cc6f970","system_id":"levelo_inurba_marseille","lat":43.29417,"lon":5.38623,"is_reserved":false,"is_disabled":false,"rental_uris":{"android":"levelo://app?vid=0e1a6873-0ab3-4ded-8cb0-3ae98cc6f970","ios":"levelo://app?vid=0e1a6873-0ab3-4ded-8cb0-3ae98cc6f970"},"vehicle_type_id":"4","last_reported":1729278442,"current_range_meters":38800,"station_id":"ce4bh2h2rcd13ifvqdh0","pricing_plan_id":"cebpf4jnsgd1na2vs0mg"},