{"last_updated":1774736242,"ttl":60,"version":"2.2","data":{"bikes":[{"bike_id":"6a7fd2aa-a90b-461a-8118-a8f8d903c462","system_id":"levelo_inurba_marseille","lat":43.28478,"lon":5.48392,"is_reserved":false,"is_disabled":false,"rental_uris":{"android":"levelo://app?vid=6a7fd2aa-a90b-461a-8118-a8f8d903c462","ios":"levelo://app?vid=6a7fd2aa-a90b-461a-8118-a8f8d903c462"},"vehicle_type_id":"4","last_reported":1774736243,"current_range_meters":2800,"station_id":"","pricing_plan_id":"cebpf4jnsgd1na2vs0mg"},{"bike_id":"1eccbc73-3280-419a-b2d6-8f64bc201bed","system_id":"levelo_inurba_marseille","lat":43.27954,"lon":5.41074,"is_reserved":false,"is_disabled":false,"rental_uris":{"android":"levelo://app?vid=1eccbc73-3280-419a-b2d6-8f64bc201bed","ios":"levelo://app?vid=1eccbc73-3280-419a-b2d6-8f64bc201bed"},"vehicle_type_id":"4","last_reported":1774736243,"current_range_meters":2800,"station_id":"ce4bhnp2rcd13ifvqh0g","pricing_plan_id":"cebpf4jnsgd1na2vs0mg"},{"bike_id":"299c1db8-8b1c-4e76-8016-cf4f1472636c","system_id":"levelo_inurba_marseille","lat":43.30931,"lon":5.39977,"is_reserved":false,"is_disabled":false,"rental_uris":{"android":"levelo://app?vid=299c1db8-8b1c-4e76-8016-cf4f1472636c","ios":"levelo://app?vid=299c1db8-8b1c-4e76-8016-cf4f1472636c"},"vehicle_type_id":"4","last_reported":1774736243,"current_range_meters":2800,"station_id":"","pricing_plan_id":"cebpf4jnsgd1na2vs0mg"},{"bike_id":"6d0ba167-953c-4732-a568-160c9dd956c2","system_id":"levelo_inurba_marseille","lat":43.23207,"lon":5.35545,"is_reserved":false,"is_disabled":false,"rental_uris":{"android":"levelo://app?vid=6d0ba167-953c-4732-a568-160c9dd956c2","ios":"levelo://app?vid=6d0ba167-953c-4732-a568-160c9dd956c2"},"vehicle_type_id":"4","last_reported":1774736243,"current_range_meters":2800,"station_id":"ce4bhu92rcd13ifvqi70","pricing_plan_id":"cebpf4jnsgd1na2vs0mg"},{"bike_id":"b6491ba5-c897-4cab-8c35-742c0d00c0cb","system_id":"levelo_inurba_marseille","lat":43.24659,"lon":5.38144,"is_reserved":false,"is_disabled":false,"rental_uris":{"android":"levelo://app?vid=b6491ba5-c897-4cab-8c35-742c0d00c0cb","ios":"levelo://app?vid=b6491ba5-c897-4cab-8c35-742c0d00c0cb"},"vehicle_type_id":"4","last_reported":1774736243,"current_range_meters":2800,"station_id":"ce4bhih2rcd13ifvqfr0","pricing_plan_id":"cebpf4jnsgd1na2vs0mg"},{"bike_id":"1d7503c3-20ca-4fb6-92d0-5b5a5f6d18ec","system_id":"levelo_inurba_marseille","lat":43.22928,"lon":5.3537,"is_reserved":false,"is_disabled":false,"rental_uris":{"android":"levelo://app?vid=1d7503c3-20ca-4fb6-92d0-5b5a5f6d18ec","ios":"levelo://app?vid=1d7503c3-20ca-4fb6-92d0-5b5a5f6d18ec"},"vehicle_type_id":"4","last_reported":1774736243,"current_range_meters":3200,"station_id":"cpo3532slgdg3j2ikp40","pricing_plan_id":"cebpf4jnsgd1na2vs0mg"},{"bike_id":"2873a201-01ad-44f0-a3f4-1c2939d32934","system_id":"levelo_inurba_marseille","lat":43.31544,"lon":5.38011,"is_reserved":false,"is_disabled":false,"rental_uris":{"android":"levelo://app?vid=2873a201-01ad-44f0-a3f4-1c2939d32934","ios":"levelo://app?vid=2873a201-01ad-44f0-a3f4-1c2939d32934"},"vehicle_type_id":"4","last_reported":1774736243,"current_range_meters":3200,"station_id":"ce4bhsp2rcd13ifvqi50","pricing_plan_id":"cebpf4jnsgd1na2vs0mg"},{"bike_id":"5530c769-9e93-4d66-baaa-f3800a978493","system_id":"levelo_inurba_marseille","lat":43.24471,"lon":5.42539,"is_reserved":false,"is_disabled":false,"rental_uris":{"android":"levelo://app?vid=5530c769-9e93-4d66-baaa-f3800a978493","ios":"levelo://app?vid=5530c769-9e93-4d66-baaa-f3800a978493"},"vehicle_type_id":"4","last_reported":1774736243,"current_range_meters":3200,"station_id":"st_d4a3vfp97mjs738cd8kg","pricing_plan_id":"cebpf4jnsgd1na2vs0mg"},{"bike_id":"a16b08c2-9cd2-49ab-b365-400a9df428ae","system_id":"levelo_inurba_marseille","lat":43.2389,"lon":5.37466,"is_reserved":false,"is_disabled":false,"rental_uris":{"android":"levelo://app?vid=a16b08c2-9cd2-49ab-b365-400a9df428ae","ios":"levelo://app?vid=a16b08c2-9cd2-49ab-b365-400a9df428ae"},"vehicle_type_id":"4","last_reported":1774736243,"current_range_meters":3200,"station_id":"st_d6sm7csbq4hs73f8fpjg","pricing_plan_id":"cebpf4jnsgd1na2vs0mg"},{"bike_id":"38121aba-cf52-46ff-b72d-8bcc0c109707","system_id":"levelo_inurba_marseille","lat":43.31451,"lon":5.37336,"is_reserved":false,"is_disabled":false,"rental_uris":{"android":"levelo://app?vid=38121aba-cf52-46ff-b72d-8bcc0c109707","ios":"levelo://app?vid=38121aba-cf52-46ff-b72d-8bcc0c109707"},"vehicle_type_id":"4","last_reported":1774736243,"current_range_meters":3200,"station_id":"ce4bgt12rcd13ifvqcd0","pricing_plan_id":"cebpf4jnsgd1na2vs0mg"},{"bike_id":"248e7202-bf14-41af-ab35-7275ee6c4d6f","system_id":"levelo_inurba_marseille","lat":43.23386,"lon":5.41258,"is_reserved":false,"is_disabled":false,"rental_uris":{"android":"levelo://app?vid=248e7202-bf14-41af-ab35-7275ee6c4d6f","ios":"levelo://app?vid=248e7202-bf14-41af-ab35-7275ee6c4d6f"},"vehicle_type_id":"4","last_reported":1774736243,"current_range_meters":3200,"station_id":"","pricing_plan_id":"cebpf4jnsgd1na2vs0mg"},{"bike_id":"ff23f6c3-07d6-471d-b47c-972e4e2656c1","system_id":"levelo_inurba_marseille","lat":43.21199,"lon":5.35062,"is_reserved":false,"is_disabled":false,"rental_uris":{"android":"levelo://app?vid=ff23f6c3-07d6-471d-b47c-972e4e2656c1","ios":"levelo://app?vid=ff23f6c3-07d6-471d-b47c-972e4e2656c1"},"vehicle_type_id":"4","last_reported":1774736243,"current_range_meters":3200,"station_id":"st_cvj6sg6p6f1abm77japg","pricing_plan_id":"cebpf4jnsgd1na2vs0mg"},{"bike_id":"38f4e415-36c2-4383-823c-17dbe9c22d68","system_id":"levelo_inurba_marseille","lat":43.2379,"lon":5.3665,"is_reserved":false,"is_disabled":false,"rental_uris":{"android":"levelo://app?vid=38f4e415-36c2-4383-823c-17dbe9c22d68","ios":"levelo://app?vid=38f4e415-36c2-4383-823c-17dbe9c22d68"},"vehicle_type_id":"4","last_reported":1774736243,"current_range_meters":3200,"station_id":"st_d3nk18o9ro0c73en2l3g","pricing_plan_id":"cebpf4jnsgd1na2vs0mg"},{"bike_id":"71588326-2d07-4c46-a9e0-f9e83dda3206","system_id":"levelo_inurba_marseille","lat":43.28274,"lon":5.35065,"is_reserved":false,"is_disabled":false,"rental_uris":{"android":"levelo://app?vid=71588326-2d07-4c46-a9e0-f9e83dda3206","ios":"levelo://app?vid=71588326-2d07-4c46-a9e0-f9e83dda3206"},"vehicle_type_id":"4","last_reported":1774736243,"current_range_meters":3200,"station_id":"ce4bhbp2rcd13ifvqerg","pricing_plan_id":"cebpf4jnsgd1na2vs0mg"},{"bike_id":"f967aac8-bff7-4d61-9c8d-307b8d7b6ffd","system_id":"levelo_inurba_marseille","lat":43.25338,"lon":5.42178,"is_reserved":false,"is_disabled":false,"rental_uris":{"android":"levelo://app?vid=f967aac8-bff7-4d61-9c8d-307b8d7b6ffd","ios":"levelo://app?vid=f967aac8-bff7-4d61-9c8d-307b8d7b6ffd"},"vehicle_type_id":"4","last_reported":1774736243,"current_range_meters":3600,"station_id":"st_d2m65c5bi1j21697t3ng","pricing_plan_id":"cebpf4jnsgd1na2vs0mg"},{"bike_id":"8fbeefe2-ac09-4bfa-957f-70fb060f4dec","system_id":"levelo_inurba_marseille","lat":43.2987,"lon":5.39728,"is_reserved":false,"is_disabled":false,"rental_uris":{"android":"levelo://app?vid=8fbeefe2-ac09-4bfa-957f-70fb060f4dec","ios":"levelo://app?vid=8fbeefe2-ac09-4bfa-957f-70fb060f4dec"},"vehicle_type_id":"4","last_reported":1774736243,"current_range_meters":3600,"station_id":"ce4bh0h2rcd13ifvqd50","pricing_plan_id":"cebpf4jnsgd1na2vs0mg"},{"bike_id":"09308185-3b0f-4ee1-afda-90dee92cbe0f","system_id":"levelo_inurba_marseille","lat":43.29988,"lon":5.38489,"is_reserved":false,"is_disabled":true,"rental_uris":{"android":"levelo://app?vid=09308185-3b0f-4ee1-afda-90dee92cbe0f","ios":"levelo://app?vid=09308185-3b0f-4ee1-afda-90dee92cbe0f"},"vehicle_type_id":"4","last_reported":1774736243,"current_range_meters":3600,"station_id":"ce4bgj92rcd13ifvqbd0","pricing_plan_id":"cebpf4jnsgd1na2vs0mg"},{"bike_id":"5c6c5e19-1de9-4eac-9ab8-08e9926677c5","system_id":"levelo_inurba_marseille","lat":43.31256,"lon":5.40205,"is_reserved":false,"is_disabled":false,"rental_uris":{"android":"levelo://app?vid=5c6c5e19-1de9-4eac-9ab8-08e9926677c5","ios":"levelo://app?vid=5c6c5e19-1de9-4eac-9ab8-08e9926677c5"},"vehicle_type_id":"4","last_reported":1774736243,"current_range_meters":3600,"station_id":"ce4bh092rcd13ifvqd30","pricing_plan_id":"cebpf4jnsgd1na2vs0mg"},{"bike_id":"bd89dab9-7c16-4ba5-903e-9663dd927b27","system_id":"levelo_inurba_marseille","lat":43.27505,"lon":5.41569,"is_reserved":false,"is_disabled":false,"rental_uris":{"android":"levelo://app?vid=bd89dab9-7c16-4ba5-903e-9663dd927b27","ios":"levelo://app?vid=bd89dab9-7c16-4ba5-903e-9663dd927b27"},"vehicle_type_id":"4","last_reported":1774736243,"current_range_meters":3600,"station_id":"st_d6im8g6chgec73a5pndg","pricing_plan_id":"cebpf4jnsgd1na2vs0mg"},{"bike_id":"5386e2ce-0a68-4cb8-93ea-db5679ab18b6","system_id":"levelo_inurba_marseille","lat":43.2884,"lon":5.3931,"is_reserved":false,"is_disabled":false,"rental_uris":{"android":"levelo://app?vid=5386e2ce-0a68-4cb8-93ea-db5679ab18b6","ios":"levelo://app?vid=5386e2ce-0a68-4cb8-93ea-db5679ab18b6"},"vehicle_type_id":"4","last_reported":1774736243,"current_range_meters":3600,"station_id":"ce4bh2p2rcd13ifvqdi0","pricing_plan_id":"cebpf4jnsgd1na2vs0mg"},{"bike_id":"86e3e1be-de71-4d03-bbfe-667fe711947f","system_id":"levelo_inurba_marseille","lat":43.28108,"lon":5.37857,"is_reserved":false,"is_disabled":false,"rental_uris":{"android":"levelo://app?vid=86e3e1be-de71-4d03-bbfe-667fe711947f","ios":"levelo://app?vid=86e3e1be-de71-4d03-bbfe-667fe711947f"},"vehicle_type_id":"4","last_reported":1774736243,"current_range_meters":3600,"station_id":"ce4bha12rcd13ifvqee0","pricing_plan_id":"cebpf4jnsgd1na2vs0mg"},{"bike_id":"b51d43d0-b538-4b30-b0d5-e5c1be881443","system_id":"levelo_inurba_marseille","lat":43.28702,"lon":5.46681,"is_reserved":false,"is_disabled":false,"rental_uris":{"android":"levelo://app?vid=b51d43d0-b538-4b30-b0d5-e5c1be881443","ios":"levelo://app?vid=b51d43d0-b538-4b30-b0d5-e5c1be881443"},"vehicle_type_id":"4","last_reported":1774736243,"current_range_meters":3600,"station_id":"st_d6tc3vkotcvc738tfjhg","pricing_plan_id":"cebpf4jnsgd1na2vs0mg"},{"bike_id":"274566a6-b928-4208-94b9-678ac66d2af4","system_id":"levelo_inurba_marseille","lat":43.24161,"lon":5.36385,"is_reserved":false,"is_disabled":false,"rental_uris":{"android":"levelo://app?vid=274566a6-b928-4208-94b9-678ac66d2af4","ios":"levelo://app?vid=274566a6-b928-4208-94b9-678ac66d2af4"},"vehicle_type_id":"4","last_reported":1774736243,"current_range_meters":4000,"station_id":"cpo36qri1sfpv3e86is0","pricing_plan_id":"cebpf4jnsgd1na2vs0mg"},{"bike_id":"6c2a1739-fe94-46e9-988c-0dc5185d4012","system_id":"levelo_inurba_marseille","lat":43.31106,"lon":5.38608,"is_reserved":false,"is_disabled":false,"rental_uris":{"android":"levelo://app?vid=6c2a1739-fe94-46e9-988c-0dc5185d4012","ios":"levelo://app?vid=6c2a1739-fe94-46e9-988c-0dc5185d4012"},"vehicle_type_id":"4","last_reported":1774736243,"current_range_meters":4000,"station_id":"","pricing_plan_id":"cebpf4jnsgd1na2vs0mg"},{"bike_id":"ff0da1a2-3d1c-43ac-899e-2eb7e114000d","system_id":"levelo_inurba_marseille","lat":43.24183,"lon":5.39723,"is_reserved":false,"is_disabled":false,"rental_uris":{"android":"levelo://app?vid=ff0da1a2-3d1c-43ac-899e-2eb7e114000d","ios":"levelo://app?vid=ff0da1a2-3d1c-43ac-899e-2eb7e114000d"},"vehicle_type_id":"4","last_reported":1774736243,"current_range_meters":4000,"station_id":"ce4bhn12rcd13ifvqgpg","pricing_plan_id":"cebpf4jnsgd1na2vs0mg"},{"bike_id":"7d88454c-5db9-4cbe-86a0-1ebe5d14c121","system_id":"levelo_inurba_marseille","lat":43.26937,"lon":5.38915,"is_reserved":false,"is_disabled":false,"rental_uris":{"android":"levelo://app?vid=7d88454c-5db9-4cbe-86a0-1ebe5d14c121","ios":"levelo://app?vid=7d88454c-5db9-4cbe-86a0-1ebe5d14c121"},"vehicle_type_id":"4","last_reported":1774736243,"current_range_meters":4000,"station_id":"ce4bhhh2rcd13ifvqfl0","pricing_plan_id":"cebpf4jnsgd1na2vs0mg"},{"bike_id":"d97252d0-3958-45e2-926c-26e2d5f2ad61","system_id":"levelo_inurba_marseille","lat":43.24811,"lon":5.37469,"is_reserved":false,"is_disabled":false,"rental_uris":{"android":"levelo://app?vid=d97252d0-3958-45e2-926c-26e2d5f2ad61","ios":"levelo://app?vid=d97252d0-3958-45e2-926c-26e2d5f2ad61"},"vehicle_type_id":"4","last_reported":1774736243,"current_range_meters":4000,"station_id":"ce4bhgh2rcd13ifvqfb0","pricing_plan_id":"cebpf4jnsgd1na2vs0mg"},{"bike_id":"5969c3f9-bb5c-48df-9b54-f62d28d08c6a","system_id":"levelo_inurba_marseille","lat":43.26057,"lon":5.39382,"is_reserved":false,"is_disabled":false,"rental_uris":{"android":"levelo://app?vid=5969c3f9-bb5c-48df-9b54-f62d28d08c6a","ios":"levelo://app?vid=5969c3f9-bb5c-48df-9b54-f62d28d08c6a"},"vehicle_type_id":"4","last_reported":1774736243,"current_range_meters":4000,"station_id":"ce4bhh92rcd13ifvqfj0","pricing_plan_id":"cebpf4jnsgd1na2vs0mg"},{"bike_id":"eefb45c2-fa8b-4f25-81e2-e893ce88a482","system_id":"levelo_inurba_marseille","lat":43.31111,"lon":5.37768,"is_reserved":false,"is_disabled":false,"rental_uris":{"android":"levelo://app?vid=eefb45c2-fa8b-4f25-81e2-e893ce88a482","ios":"levelo://app?vid=eefb45c2-fa8b-4f25-81e2-e893ce88a482"},"vehicle_type_id":"4","last_reported":1774736243,"current_range_meters":4000,"station_id":"ce4bgt92rcd13ifvqcg0","pricing_plan_id":"cebpf4jnsgd1na2vs0mg"},{"bike_id":"f3d47af6-5b42-4057-b9f6-c501bdc25d75","system_id":"levelo_inurba_marseille","lat":43.23386,"lon":5.41231,"is_reserved":false,"is_disabled":false,"rental_uris":{"android":"levelo://app?vid=f3d47af6-5b42-4057-b9f6-c501bdc25d75","ios":"levelo://app?vid=f3d47af6-5b42-4057-b9f6-c501bdc25d75"},"vehicle_type_id":"4","last_reported":1774736243,"current_range_meters":4000,"station_id":"","pricing_plan_id":"cebpf4jnsgd1na2vs0mg"},{"bike_id":"ff01e3e4-1dd3-4e88-ba46-bb2bac9cbad9","system_id":"levelo_inurba_marseille","lat":43.27367,"lon":5.36268,"is_reserved":false,"is_disabled":false,"rental_uris":{"android":"levelo://app?vid=ff01e3e4-1dd3-4e88-ba46-bb2bac9cbad9","ios":"levelo://app?vid=ff01e3e4-1dd3-4e88-ba46-bb2bac9cbad9"},"vehicle_type_id":"4","last_reported":1774736243,"current_range_meters":4000,"station_id":"ce4bhbh2rcd13ifvqeo0","pricing_plan_id":"cebpf4jnsgd1na2vs0mg"},{"bike_id":"e2fd0609-65a4-4990-91d6-e89e8fbab07e","system_id":"levelo_inurba_marseille","lat":43.32105,"lon":5.3677,"is_reserved":false,"is_disabled":false,"rental_uris":{"android":"levelo://app?vid=e2fd0609-65a4-4990-91d6-e89e8fbab07e","ios":"levelo://app?vid=e2fd0609-65a4-4990-91d6-e89e8fbab07e"},"vehicle_type_id":"4","last_reported":1774736243,"current_range_meters":4000,"station_id":"ce4bhrh2rcd13ifvqhug","pricing_plan_id":"cebpf4jnsgd1na2vs0mg"},{"bike_id":"00ef72a2-2956-4604-b2a0-bff6b694497c","system_id":"levelo_inurba_marseille","lat":43.2926,"lon":5.37637,"is_reserved":false,"is_disabled":false,"rental_uris":{"android":"levelo://app?vid=00ef72a2-2956-4604-b2a0-bff6b694497c","ios":"levelo://app?vid=00ef72a2-2956-4604-b2a0-bff6b694497c"},"vehicle_type_id":"4","last_reported":1774736243,"current_range_meters":4000,"station_id":"ce4bgi12rcd13ifvqb80","pricing_plan_id":"cebpf4jnsgd1na2vs0mg"},{"bike_id":"9c448445-1c60-4520-a1cb-98a7a7992b90","system_id":"levelo_inurba_marseille","lat":43.28473,"lon":5.48398,"is_reserved":false,"is_disabled":false,"rental_uris":{"android":"levelo://app?vid=9c448445-1c60-4520-a1cb-98a7a7992b90","ios":"levelo://app?vid=9c448445-1c60-4520-a1cb-98a7a7992b90"},"vehicle_type_id":"4","last_reported":1774736243,"current_range_meters":4000,"station_id":"","pricing_plan_id":"cebpf4jnsgd1na2vs0mg"},{"bike_id":"62e86b36-0068-406a-b0f3-96b5d04c2a75","system_id":"levelo_inurba_marseille","lat":43.3088,"lon":5.39649,"is_reserved":false,"is_disabled":false,"rental_uris":{"android":"levelo://app?vid=62e86b36-0068-406a-b0f3-96b5d04c2a75","ios":"levelo://app?vid=62e86b36-0068-406a-b0f3-96b5d04c2a75"},"vehicle_type_id":"4","last_reported":1774736243,"current_range_meters":4000,"station_id":"ce4bh012rcd13ifvqcv0","pricing_plan_id":"cebpf4jnsgd1na2vs0mg"},{"bike_id":"edd74370-b43f-47b3-88f7-58d130733f2b","system_id":"levelo_inurba_marseille","lat":43.31116,"lon":5.37796,"is_reserved":false,"is_disabled":false,"rental_uris":{"android":"levelo://app?vid=edd74370-b43f-47b3-88f7-58d130733f2b","ios":"levelo://app?vid=edd74370-b43f-47b3-88f7-58d130733f2b"},"vehicle_type_id":"4","last_reported":1774736243,"current_range_meters":4000,"station_id":"ce4bgt92rcd13ifvqcg0","pricing_plan_id":"cebpf4jnsgd1na2vs0mg"},{"bike_id":"1e02fd97-12b6-42bd-b23c-433ee22bd9de","system_id":"levelo_inurba_marseille","lat":43.29027,"lon":5.38145,"is_reserved":false,"is_disabled":true,"rental_uris":{"android":"levelo://app?vid=1e02fd97-12b6-42bd-b23c-433ee22bd9de","ios":"levelo://app?vid=1e02fd97-12b6-42bd-b23c-433ee22bd9de"},"vehicle_type_id":"4","last_reported":1774736243,"current_range_meters":4400,"station_id":"ce4bh4p2rcd13ifvqe1g","pricing_plan_id":"cebpf4jnsgd1na2vs0mg"},{"bike_id":"2f019591-3087-43f0-affb-e2eede13213e","system_id":"levelo_inurba_marseille","lat":43.24211,"lon":5.36636,"is_reserved":false,"is_disabled":false,"rental_uris":{"android":"levelo://app?vid=2f019591-3087-43f0-affb-e2eede13213e","ios":"levelo://app?vid=2f019591-3087-43f0-affb-e2eede13213e"},"vehicle_type_id":"4","last_reported":1774736243,"current_range_meters":4400,"station_id":"","pricing_plan_id":"cebpf4jnsgd1na2vs0mg"},{"bike_id":"5e14f141-0e97-481f-bea4-cf489480bf75","system_id":"levelo_inurba_marseille","lat":43.31214,"lon":5.36828,"is_reserved":false,"is_disabled":false,"rental_uris":{"android":"levelo://app?vid=5e14f141-0e97-481f-bea4-cf489480bf75","ios":"levelo://app?vid=5e14f141-0e97-481f-bea4-cf489480bf75"},"vehicle_type_id":"4","last_reported":1774736243,"current_range_meters":4400,"station_id":"ce4bgl92rcd13ifvqbq0","pricing_plan_id":"cebpf4jnsgd1na2vs0mg"},{"bike_id":"887a90d7-1245-44e3-a6fe-edaa4e75651e","system_id":"levelo_inurba_marseille","lat":43.29318,"lon":5.37596,"is_reserved":false,"is_disabled":false,"rental_uris":{"android":"levelo://app?vid=887a90d7-1245-44e3-a6fe-edaa4e75651e","ios":"levelo://app?vid=887a90d7-1245-44e3-a6fe-edaa4e75651e"},"vehicle_type_id":"4","last_reported":1774736243,"current_range_meters":4400,"station_id":"","pricing_plan_id":"cebpf4jnsgd1na2vs0mg"},{"bike_id":"3c34c8b8-abf2-4cde-8b52-148dfca07c64","system_id":"levelo_inurba_marseille","lat":43.27579,"lon":5.38408,"is_reserved":false,"is_disabled":false,"rental_uris":{"android":"levelo://app?vid=3c34c8b8-abf2-4cde-8b52-148dfca07c64","ios":"levelo://app?vid=3c34c8b8-abf2-4cde-8b52-148dfca07c64"},"vehicle_type_id":"4","last_reported":1774736243,"current_range_meters":4400,"station_id":"ce4bhh92rcd13ifvqfi0","pricing_plan_id":"cebpf4jnsgd1na2vs0mg"},{"bike_id":"7f5f4a35-fda4-4a33-b7ae-332aa08e4387","system_id":"levelo_inurba_marseille","lat":43.29764,"lon":5.42781,"is_reserved":false,"is_disabled":false,"rental_uris":{"android":"levelo://app?vid=7f5f4a35-fda4-4a33-b7ae-332aa08e4387","ios":"levelo://app?vid=7f5f4a35-fda4-4a33-b7ae-332aa08e4387"},"vehicle_type_id":"4","last_reported":1774736243,"current_range_meters":4400,"station_id":"st_d3md5207bmas73dh9klg","pricing_plan_id":"cebpf4jnsgd1na2vs0mg"},{"bike_id":"ab6d91d6-d6fe-41e1-aaec-c43de2f8efe7","system_id":"levelo_inurba_marseille","lat":43.29535,"lon":5.39033,"is_reserved":false,"is_disabled":false,"rental_uris":{"android":"levelo://app?vid=ab6d91d6-d6fe-41e1-aaec-c43de2f8efe7","ios":"levelo://app?vid=ab6d91d6-d6fe-41e1-aaec-c43de2f8efe7"},"vehicle_type_id":"4","last_reported":1774736243,"current_range_meters":4400,"station_id":"ce4bh3p2rcd13ifvqdp0","pricing_plan_id":"cebpf4jnsgd1na2vs0mg"},{"bike_id":"8ca828fa-310a-4adb-ae46-512d1c32f75b","system_id":"levelo_inurba_marseille","lat":43.24462,"lon":5.4254,"is_reserved":false,"is_disabled":false,"rental_uris":{"android":"levelo://app?vid=8ca828fa-310a-4adb-ae46-512d1c32f75b","ios":"levelo://app?vid=8ca828fa-310a-4adb-ae46-512d1c32f75b"},"vehicle_type_id":"4","last_reported":1774736243,"current_range_meters":4400,"station_id":"st_d4a3vfp97mjs738cd8kg","pricing_plan_id":"cebpf4jnsgd1na2vs0mg"},{"bike_id":"4261fad2-1e9a-40a4-a4ce-af58c191085f","system_id":"levelo_inurba_marseille","lat":43.31504,"lon":5.37296,"is_reserved":false,"is_disabled":false,"rental_uris":{"android":"levelo://app?vid=4261fad2-1e9a-40a4-a4ce-af58c191085f","ios":"levelo://app?vid=4261fad2-1e9a-40a4-a4ce-af58c191085f"},"vehicle_type_id":"4","last_reported":1774736243,"current_range_meters":4800,"station_id":"ce4bgt12rcd13ifvqcd0","pricing_plan_id":"cebpf4jnsgd1na2vs0mg"},{"bike_id":"da3828ab-d25e-4e73-a41f-fb498af2d4d4","system_id":"levelo_inurba_marseille","lat":43.24388,"lon":5.37057,"is_reserved":false,"is_disabled":false,"rental_uris":{"android":"levelo://app?vid=da3828ab-d25e-4e73-a41f-fb498af2d4d4","ios":"levelo://app?vid=da3828ab-d25e-4e73-a41f-fb498af2d4d4"},"vehicle_type_id":"4","last_reported":1774736243,"current_range_meters":4800,"station_id":"ce4bhhh2rcd13ifvqfk0","pricing_plan_id":"cebpf4jnsgd1na2vs0mg"},{"bike_id":"2febdeb9-0fee-4e6a-b6f8-0d1a667393bc","system_id":"levelo_inurba_marseille","lat":43.29518,"lon":5.38669,"is_reserved":false,"is_disabled":false,"rental_uris":{"android":"levelo://app?vid=2febdeb9-0fee-4e6a-b6f8-0d1a667393bc","ios":"levelo://app?vid=2febdeb9-0fee-4e6a-b6f8-0d1a667393bc"},"vehicle_type_id":"4","last_reported":1774736243,"current_range_meters":4800,"station_id":"","pricing_plan_id":"cebpf4jnsgd1na2vs0mg"},{"bike_id":"fc3a06bd-3541-452a-942e-1851d5043e0e","system_id":"levelo_inurba_marseille","lat":43.30539,"lon":5.38435,"is_reserved":false,"is_disabled":false,"rental_uris":{"android":"levelo://app?vid=fc3a06bd-3541-452a-942e-1851d5043e0e","ios":"levelo://app?vid=fc3a06bd-3541-452a-942e-1851d5043e0e"},"vehicle_type_id":"4","last_reported":1774736243,"current_range_meters":4800,"station_id":"ce4bgg92rcd13ifvqb30","pricing_plan_id":"cebpf4jnsgd1na2vs0mg"},{"bike_id":"f4f79151-f990-40c1-ad1b-b840185ab0d9","system_id":"levelo_inurba_marseille","lat":43.29045,"lon":5.38645,"is_reserved":false,"is_disabled":false,"rental_uris":{"android":"levelo://app?vid=f4f79151-f990-40c1-ad1b-b840185ab0d9","ios":"levelo://app?vid=f4f79151-f990-40c1-ad1b-b840185ab0d9"},"vehicle_type_id":"4","last_reported":1774736243,"current_range_meters":4800,"station_id":"ce4bh4p2rcd13ifvqe0g","pricing_plan_id":"cebpf4jnsgd1na2vs0mg"},{"bike_id":"80f7f6c4-1406-416c-b47d-0fd56bd91196","system_id":"levelo_inurba_marseille","lat":43.21184,"lon":5.35089,"is_reserved":false,"is_disabled":false,"rental_uris":{"android":"levelo://app?vid=80f7f6c4-1406-416c-b47d-0fd56bd91196","ios":"levelo://app?vid=80f7f6c4-1406-416c-b47d-0fd56bd91196"},"vehicle_type_id":"4","last_reported":1774736243,"current_range_meters":4800,"station_id":"st_cvj6sg6p6f1abm77japg","pricing_plan_id":"cebpf4jnsgd1na2vs0mg"},{"bike_id":"fbd013e2-8567-4cc4-a7c6-24dd8fd5e924","system_id":"levelo_inurba_marseille","lat":43.28975,"lon":5.35614,"is_reserved":false,"is_disabled":false,"rental_uris":{"android":"levelo://app?vid=fbd013e2-8567-4cc4-a7c6-24dd8fd5e924","ios":"levelo://app?vid=fbd013e2-8567-4cc4-a7c6-24dd8fd5e924"},"vehicle_type_id":"4","last_reported":1774736243,"current_range_meters":4800,"station_id":"ce4bhb92rcd13ifvqen0","pricing_plan_id":"cebpf4jnsgd1na2vs0mg"},{"bike_id":"ac4add4d-0d0e-4278-879c-33c8f18e4696","system_id":"levelo_inurba_marseille","lat":43.30556,"lon":5.36549,"is_reserved":false,"is_disabled":false,"rental_uris":{"android":"levelo://app?vid=ac4add4d-0d0e-4278-879c-33c8f18e4696","ios":"levelo://app?vid=ac4add4d-0d0e-4278-879c-33c8f18e4696"},"vehicle_type_id":"4","last_reported":1774736243,"current_range_meters":4800,"station_id":"ce4bgs12rcd13ifvqcag","pricing_plan_id":"cebpf4jnsgd1na2vs0mg"},{"bike_id":"ac1a9d6c-17a0-4e01-9607-d886e691e83d","system_id":"levelo_inurba_marseille","lat":43.244,"lon":5.37065,"is_reserved":false,"is_disabled":false,"rental_uris":{"android":"levelo://app?vid=ac1a9d6c-17a0-4e01-9607-d886e691e83d","ios":"levelo://app?vid=ac1a9d6c-17a0-4e01-9607-d886e691e83d"},"vehicle_type_id":"4","last_reported":1774736243,"current_range_meters":5600,"station_id":"ce4bhhh2rcd13ifvqfk0","pricing_plan_id":"cebpf4jnsgd1na2vs0mg"},{"bike_id":"f6d4245b-c41c-4ec7-bb98-524c289bd3f3","system_id":"levelo_inurba_marseille","lat":43.25571,"lon":5.38238,"is_reserved":false,"is_disabled":false,"rental_uris":{"android":"levelo://app?vid=f6d4245b-c41c-4ec7-bb98-524c289bd3f3","ios":"levelo://app?vid=f6d4245b-c41c-4ec7-bb98-524c289bd3f3"},"vehicle_type_id":"4","last_reported":1774736243,"current_range_meters":5600,"station_id":"ce4bhih2rcd13ifvqfs0","pricing_plan_id":"cebpf4jnsgd1na2vs0mg"},{"bike_id":"9c0c7dc2-8e4c-4e55-891f-3e8c2c779959","system_id":"levelo_inurba_marseille","lat":43.25014,"lon":5.38933,"is_reserved":false,"is_disabled":false,"rental_uris":{"android":"levelo://app?vid=9c0c7dc2-8e4c-4e55-891f-3e8c2c779959","ios":"levelo://app?vid=9c0c7dc2-8e4c-4e55-891f-3e8c2c779959"},"vehicle_type_id":"4","last_reported":1774736243,"current_range_meters":5600,"station_id":"ce4bhgp2rcd13ifvqfd0","pricing_plan_id":"cebpf4jnsgd1na2vs0mg"},{"bike_id":"3e8af8be-cad9-4dd1-a766-65bd9877f462","system_id":"levelo_inurba_marseille","lat":43.31241,"lon":5.36862,"is_reserved":false,"is_disabled":false,"rental_uris":{"android":"levelo://app?vid=3e8af8be-cad9-4dd1-a766-65bd9877f462","ios":"levelo://app?vid=3e8af8be-cad9-4dd1-a766-65bd9877f462"},"vehicle_type_id":"4","last_reported":1774736243,"current_range_meters":5600,"station_id":"ce4bgl92rcd13ifvqbq0","pricing_plan_id":"cebpf4jnsgd1na2vs0mg"},{"bike_id":"a8c3f471-9f54-43a4-9d32-c7edd5f99357","system_id":"levelo_inurba_marseille","lat":43.23894,"lon":5.37458,"is_reserved":false,"is_disabled":false,"rental_uris":{"android":"levelo://app?vid=a8c3f471-9f54-43a4-9d32-c7edd5f99357","ios":"levelo://app?vid=a8c3f471-9f54-43a4-9d32-c7edd5f99357"},"vehicle_type_id":"4","last_reported":1774736243,"current_range_meters":5600,"station_id":"st_d6sm7csbq4hs73f8fpjg","pricing_plan_id":"cebpf4jnsgd1na2vs0mg"},{"bike_id":"dd2f9c35-972f-470f-87d6-56cfd958646f","system_id":"levelo_inurba_marseille","lat":43.30138,"lon":5.38778,"is_reserved":false,"is_disabled":false,"rental_uris":{"android":"levelo://app?vid=dd2f9c35-972f-470f-87d6-56cfd958646f","ios":"levelo://app?vid=dd2f9c35-972f-470f-87d6-56cfd958646f"},"vehicle_type_id":"4","last_reported":1774736243,"current_range_meters":5600,"station_id":"ce4bghh2rcd13ifvqb60","pricing_plan_id":"cebpf4jnsgd1na2vs0mg"},{"bike_id":"477c4aa5-efd7-4adb-b2ff-cc9965e2009b","system_id":"levelo_inurba_marseille","lat":43.30125,"lon":5.38781,"is_reserved":false,"is_disabled":false,"rental_uris":{"android":"levelo://app?vid=477c4aa5-efd7-4adb-b2ff-cc9965e2009b","ios":"levelo://app?vid=477c4aa5-efd7-4adb-b2ff-cc9965e2009b"},"vehicle_type_id":"4","last_reported":1774736243,"current_range_meters":5600,"station_id":"ce4bghh2rcd13ifvqb60","pricing_plan_id":"cebpf4jnsgd1na2vs0mg"},{"bike_id":"28ae4317-f1df-4e81-b78b-8b397394412a","system_id":"levelo_inurba_marseille","lat":43.31034,"lon":5.3936,"is_reserved":false,"is_disabled":false,"rental_uris":{"android":"levelo://app?vid=28ae4317-f1df-4e81-b78b-8b397394412a","ios":"levelo://app?vid=28ae4317-f1df-4e81-b78b-8b397394412a"},"vehicle_type_id":"4","last_reported":1774736243,"current_range_meters":5600,"station_id":"","pricing_plan_id":"cebpf4jnsgd1na2vs0mg"},{"bike_id":"be59f70d-b82d-4593-b0a4-64e6e0cb66b2","system_id":"levelo_inurba_marseille","lat":43.26577,"lon":5.38999,"is_reserved":false,"is_disabled":false,"rental_uris":{"android":"levelo://app?vid=be59f70d-b82d-4593-b0a4-64e6e0cb66b2","ios":"levelo://app?vid=be59f70d-b82d-4593-b0a4-64e6e0cb66b2"},"vehicle_type_id":"4","last_reported":1774736243,"current_range_meters":5600,"station_id":"ce4bhe12rcd13ifvqf30","pricing_plan_id":"cebpf4jnsgd1na2vs0mg"},{"bike_id":"3137e3ea-7797-4cae-a237-2a996dd9ad4a","system_id":"levelo_inurba_marseille","lat":43.2848,"lon":5.48391,"is_reserved":false,"is_disabled":false,"rental_uris":{"android":"levelo://app?vid=3137e3ea-7797-4cae-a237-2a996dd9ad4a","ios":"levelo://app?vid=3137e3ea-7797-4cae-a237-2a996dd9ad4a"},"vehicle_type_id":"4","last_reported":1774736243,"current_range_meters":6000,"station_id":"","pricing_plan_id":"cebpf4jnsgd1na2vs0mg"},{"bike_id":"169d4028-432d-4038-a131-3b68ded73d44","system_id":"levelo_inurba_marseille","lat":43.29536,"lon":5.39022,"is_reserved":false,"is_disabled":false,"rental_uris":{"android":"levelo://app?vid=169d4028-432d-4038-a131-3b68ded73d44","ios":"levelo://app?vid=169d4028-432d-4038-a131-3b68ded73d44"},"vehicle_type_id":"4","last_reported":1774736243,"current_range_meters":6000,"station_id":"ce4bh3p2rcd13ifvqdp0","pricing_plan_id":"cebpf4jnsgd1na2vs0mg"},{"bike_id":"9e955995-81d3-4d62-89f5-f1517263c308","system_id":"levelo_inurba_marseille","lat":43.31684,"lon":5.38175,"is_reserved":false,"is_disabled":false,"rental_uris":{"android":"levelo://app?vid=9e955995-81d3-4d62-89f5-f1517263c308","ios":"levelo://app?vid=9e955995-81d3-4d62-89f5-f1517263c308"},"vehicle_type_id":"4","last_reported":1774736243,"current_range_meters":6000,"station_id":"","pricing_plan_id":"cebpf4jnsgd1na2vs0mg"},{"bike_id":"b74978cb-5b51-4041-8c1c-97c8f4ca71d2","system_id":"levelo_inurba_marseille","lat":43.3118,"lon":5.4063,"is_reserved":false,"is_disabled":false,"rental_uris":{"android":"levelo://app?vid=b74978cb-5b51-4041-8c1c-97c8f4ca71d2","ios":"levelo://app?vid=b74978cb-5b51-4041-8c1c-97c8f4ca71d2"},"vehicle_type_id":"4","last_reported":1774736243,"current_range_meters":6000,"station_id":"","pricing_plan_id":"cebpf4jnsgd1na2vs0mg"},{"bike_id":"fda7eb17-dee7-46a4-8f81-f387b6db8e67","system_id":"levelo_inurba_marseille","lat":43.30582,"lon":5.39351,"is_reserved":false,"is_disabled":false,"rental_uris":{"android":"levelo://app?vid=fda7eb17-dee7-46a4-8f81-f387b6db8e67","ios":"levelo://app?vid=fda7eb17-dee7-46a4-8f81-f387b6db8e67"},"vehicle_type_id":"4","last_reported":1774736243,"current_range_meters":6000,"station_id":"ce4bh0p2rcd13ifvqd80","pricing_plan_id":"cebpf4jnsgd1na2vs0mg"},{"bike_id":"2d5262be-582c-4d87-a7a2-b4c3f4ed4d38","system_id":"levelo_inurba_marseille","lat":43.22556,"lon":5.41634,"is_reserved":false,"is_disabled":false,"rental_uris":{"android":"levelo://app?vid=2d5262be-582c-4d87-a7a2-b4c3f4ed4d38","ios":"levelo://app?vid=2d5262be-582c-4d87-a7a2-b4c3f4ed4d38"},"vehicle_type_id":"4","last_reported":1774736243,"current_range_meters":6000,"station_id":"st_d2o4gvlbi1j2169b742g","pricing_plan_id":"cebpf4jnsgd1na2vs0mg"},{"bike_id":"f31d687b-f39f-4799-a123-ec0aec4b625b","system_id":"levelo_inurba_marseille","lat":43.30607,"lon":5.37226,"is_reserved":false,"is_disabled":true,"rental_uris":{"android":"levelo://app?vid=f31d687b-f39f-4799-a123-ec0aec4b625b","ios":"levelo://app?vid=f31d687b-f39f-4799-a123-ec0aec4b625b"},"vehicle_type_id":"4","last_reported":1774736243,"current_range_meters":6000,"station_id":"ce4bgqh2rcd13ifvqc4g","pricing_plan_id":"cebpf4jnsgd1na2vs0mg"},{"bike_id":"65b9b97b-854c-48dd-bdf1-822b26888732","system_id":"levelo_inurba_marseille","lat":43.28423,"lon":5.34985,"is_reserved":false,"is_disabled":false,"rental_uris":{"android":"levelo://app?vid=65b9b97b-854c-48dd-bdf1-822b26888732","ios":"levelo://app?vid=65b9b97b-854c-48dd-bdf1-822b26888732"},"vehicle_type_id":"4","last_reported":1774736243,"current_range_meters":6000,"station_id":"ce4bhbh2rcd13ifvqepg","pricing_plan_id":"cebpf4jnsgd1na2vs0mg"},{"bike_id":"a9a0df7b-c19d-4845-b624-817cf9f8e118","system_id":"levelo_inurba_marseille","lat":43.23962,"lon":5.3663,"is_reserved":false,"is_disabled":false,"rental_uris":{"android":"levelo://app?vid=a9a0df7b-c19d-4845-b624-817cf9f8e118","ios":"levelo://app?vid=a9a0df7b-c19d-4845-b624-817cf9f8e118"},"vehicle_type_id":"4","last_reported":1774736243,"current_range_meters":6000,"station_id":"ce4bhi12rcd13ifvqfp0","pricing_plan_id":"cebpf4jnsgd1na2vs0mg"},{"bike_id":"3e80a70b-d902-4f38-bb78-001cfd129e63","system_id":"levelo_inurba_marseille","lat":43.2841,"lon":5.34967,"is_reserved":false,"is_disabled":false,"rental_uris":{"android":"levelo://app?vid=3e80a70b-d902-4f38-bb78-001cfd129e63","ios":"levelo://app?vid=3e80a70b-d902-4f38-bb78-001cfd129e63"},"vehicle_type_id":"4","last_reported":1774736243,"current_range_meters":6000,"station_id":"ce4bhbh2rcd13ifvqepg","pricing_plan_id":"cebpf4jnsgd1na2vs0mg"},{"bike_id":"b0cb8f2c-ed5f-45b1-a6b7-fba3fd705003","system_id":"levelo_inurba_marseille","lat":43.28614,"lon":5.35107,"is_reserved":false,"is_disabled":false,"rental_uris":{"android":"levelo://app?vid=b0cb8f2c-ed5f-45b1-a6b7-fba3fd705003","ios":"levelo://app?vid=b0cb8f2c-ed5f-45b1-a6b7-fba3fd705003"},"vehicle_type_id":"4","last_reported":1774736243,"current_range_meters":6000,"station_id":"ce4bhch2rcd13ifvqeug","pricing_plan_id":"cebpf4jnsgd1na2vs0mg"},{"bike_id":"40c58c01-8a97-43d9-a8ab-de0a41339dce","system_id":"levelo_inurba_marseille","lat":43.31174,"lon":5.38704,"is_reserved":false,"is_disabled":false,"rental_uris":{"android":"levelo://app?vid=40c58c01-8a97-43d9-a8ab-de0a41339dce","ios":"levelo://app?vid=40c58c01-8a97-43d9-a8ab-de0a41339dce"},"vehicle_type_id":"4","last_reported":1774736243,"current_range_meters":6000,"station_id":"ce4bgv12rcd13ifvqcp0","pricing_plan_id":"cebpf4jnsgd1na2vs0mg"},{"bike_id":"cb42d8dc-b761-4ac4-a26f-34b08cfe8436","system_id":"levelo_inurba_marseille","lat":43.24954,"lon":5.40486,"is_reserved":false,"is_disabled":false,"rental_uris":{"android":"levelo://app?vid=cb42d8dc-b761-4ac4-a26f-34b08cfe8436","ios":"levelo://app?vid=cb42d8dc-b761-4ac4-a26f-34b08cfe8436"},"vehicle_type_id":"4","last_reported":1774736243,"current_range_meters":6000,"station_id":"st_d2ngiaodas8pm72gd1h0","pricing_plan_id":"cebpf4jnsgd1na2vs0mg"},{"bike_id":"f285254c-c05d-4fb2-9a93-f10e12dcf4e6","system_id":"levelo_inurba_marseille","lat":43.24636,"lon":5.38886,"is_reserved":false,"is_disabled":false,"rental_uris":{"android":"levelo://app?vid=f285254c-c05d-4fb2-9a93-f10e12dcf4e6","ios":"levelo://app?vid=f285254c-c05d-4fb2-9a93-f10e12dcf4e6"},"vehicle_type_id":"4","last_reported":1774736243,"current_range_meters":6400,"station_id":"ce4bhg12rcd13ifvqf60","pricing_plan_id":"cebpf4jnsgd1na2vs0mg"},{"bike_id":"42ac2f6b-68e9-415e-abf4-d533376356a8","system_id":"levelo_inurba_marseille","lat":43.29534,"lon":5.38654,"is_reserved":false,"is_disabled":false,"rental_uris":{"android":"levelo://app?vid=42ac2f6b-68e9-415e-abf4-d533376356a8","ios":"levelo://app?vid=42ac2f6b-68e9-415e-abf4-d533376356a8"},"vehicle_type_id":"4","last_reported":1774736243,"current_range_meters":6400,"station_id":"","pricing_plan_id":"cebpf4jnsgd1na2vs0mg"},{"bike_id":"451a5f24-c040-4b1d-af60-c45f4f404333","system_id":"levelo_inurba_marseille","lat":43.2388,"lon":5.37464,"is_reserved":false,"is_disabled":false,"rental_uris":{"android":"levelo://app?vid=451a5f24-c040-4b1d-af60-c45f4f404333","ios":"levelo://app?vid=451a5f24-c040-4b1d-af60-c45f4f404333"},"vehicle_type_id":"4","last_reported":1774736243,"current_range_meters":6400,"station_id":"st_d6sm7csbq4hs73f8fpjg","pricing_plan_id":"cebpf4jnsgd1na2vs0mg"},{"bike_id":"6a81cdf5-2025-45a6-96ce-f8396d3ff5a3","system_id":"levelo_inurba_marseille","lat":43.29939,"lon":5.36553,"is_reserved":false,"is_disabled":false,"rental_uris":{"android":"levelo://app?vid=6a81cdf5-2025-45a6-96ce-f8396d3ff5a3","ios":"levelo://app?vid=6a81cdf5-2025-45a6-96ce-f8396d3ff5a3"},"vehicle_type_id":"4","last_reported":1774736243,"current_range_meters":6400,"station_id":"ce4bgm92rcd13ifvqbr0","pricing_plan_id":"cebpf4jnsgd1na2vs0mg"},{"bike_id":"24579790-dbc0-48f5-9802-612c25e33241","system_id":"levelo_inurba_marseille","lat":43.28544,"lon":5.44077,"is_reserved":false,"is_disabled":false,"rental_uris":{"android":"levelo://app?vid=24579790-dbc0-48f5-9802-612c25e33241","ios":"levelo://app?vid=24579790-dbc0-48f5-9802-612c25e33241"},"vehicle_type_id":"4","last_reported":1774736243,"current_range_meters":6400,"station_id":"st_d3j3df2ikq2c7380ej80","pricing_plan_id":"cebpf4jnsgd1na2vs0mg"},{"bike_id":"18eddf02-1b59-4724-8b34-3fa740043546","system_id":"levelo_inurba_marseille","lat":43.22932,"lon":5.35377,"is_reserved":false,"is_disabled":false,"rental_uris":{"android":"levelo://app?vid=18eddf02-1b59-4724-8b34-3fa740043546","ios":"levelo://app?vid=18eddf02-1b59-4724-8b34-3fa740043546"},"vehicle_type_id":"4","last_reported":1774736243,"current_range_meters":6400,"station_id":"cpo3532slgdg3j2ikp40","pricing_plan_id":"cebpf4jnsgd1na2vs0mg"},{"bike_id":"20a80d48-b582-4670-b024-d043424a6446","system_id":"levelo_inurba_marseille","lat":43.24501,"lon":5.3974,"is_reserved":false,"is_disabled":false,"rental_uris":{"android":"levelo://app?vid=20a80d48-b582-4670-b024-d043424a6446","ios":"levelo://app?vid=20a80d48-b582-4670-b024-d043424a6446"},"vehicle_type_id":"4","last_reported":1774736243,"current_range_meters":6400,"station_id":"","pricing_plan_id":"cebpf4jnsgd1na2vs0mg"},{"bike_id":"1bca506e-2c43-43d5-9cab-3f814da8f5fe","system_id":"levelo_inurba_marseille","lat":43.22573,"lon":5.41624,"is_reserved":false,"is_disabled":false,"rental_uris":{"android":"levelo://app?vid=1bca506e-2c43-43d5-9cab-3f814da8f5fe","ios":"levelo://app?vid=1bca506e-2c43-43d5-9cab-3f814da8f5fe"},"vehicle_type_id":"4","last_reported":1774736243,"current_range_meters":6400,"station_id":"st_d2o4gvlbi1j2169b742g","pricing_plan_id":"cebpf4jnsgd1na2vs0mg"},{"bike_id":"277cf752-b9ed-41aa-a7a8-c21d885b59ac","system_id":"levelo_inurba_marseille","lat":43.24107,"lon":5.36526,"is_reserved":false,"is_disabled":false,"rental_uris":{"android":"levelo://app?vid=277cf752-b9ed-41aa-a7a8-c21d885b59ac","ios":"levelo://app?vid=277cf752-b9ed-41aa-a7a8-c21d885b59ac"},"vehicle_type_id":"4","last_reported":1774736243,"current_range_meters":6400,"station_id":"","pricing_plan_id":"cebpf4jnsgd1na2vs0mg"},{"bike_id":"3558ea35-7992-4ccb-8605-1b3d24e2540d","system_id":"levelo_inurba_marseille","lat":43.2294,"lon":5.35378,"is_reserved":false,"is_disabled":false,"rental_uris":{"android":"levelo://app?vid=3558ea35-7992-4ccb-8605-1b3d24e2540d","ios":"levelo://app?vid=3558ea35-7992-4ccb-8605-1b3d24e2540d"},"vehicle_type_id":"4","last_reported":1774736243,"current_range_meters":6400,"station_id":"cpo3532slgdg3j2ikp40","pricing_plan_id":"cebpf4jnsgd1na2vs0mg"},{"bike_id":"e8df776f-5803-4824-ad9b-fb7b4a2275bd","system_id":"levelo_inurba_marseille","lat":43.30443,"lon":5.39743,"is_reserved":false,"is_disabled":false,"rental_uris":{"android":"levelo://app?vid=e8df776f-5803-4824-ad9b-fb7b4a2275bd","ios":"levelo://app?vid=e8df776f-5803-4824-ad9b-fb7b4a2275bd"},"vehicle_type_id":"4","last_reported":1774736243,"current_range_meters":6400,"station_id":"ce4bh092rcd13ifvqd20","pricing_plan_id":"cebpf4jnsgd1na2vs0mg"},{"bike_id":"928aa847-b788-4781-921a-cbeb94382551","system_id":"levelo_inurba_marseille","lat":43.29916,"lon":5.37482,"is_reserved":false,"is_disabled":false,"rental_uris":{"android":"levelo://app?vid=928aa847-b788-4781-921a-cbeb94382551","ios":"levelo://app?vid=928aa847-b788-4781-921a-cbeb94382551"},"vehicle_type_id":"4","last_reported":1774736243,"current_range_meters":6400,"station_id":"ce4bgjh2rcd13ifvqbg0","pricing_plan_id":"cebpf4jnsgd1na2vs0mg"},{"bike_id":"f103cc34-96c3-4868-ad5e-e0c28779d718","system_id":"levelo_inurba_marseille","lat":43.23078,"lon":5.35501,"is_reserved":false,"is_disabled":false,"rental_uris":{"android":"levelo://app?vid=f103cc34-96c3-4868-ad5e-e0c28779d718","ios":"levelo://app?vid=f103cc34-96c3-4868-ad5e-e0c28779d718"},"vehicle_type_id":"4","last_reported":1774736243,"current_range_meters":6400,"station_id":"cpo3342slgdg3j2ifvpg","pricing_plan_id":"cebpf4jnsgd1na2vs0mg"},{"bike_id":"152aecbe-66d3-4a1d-9659-725f9a1f1a96","system_id":"levelo_inurba_marseille","lat":43.31234,"lon":5.36832,"is_reserved":false,"is_disabled":false,"rental_uris":{"android":"levelo://app?vid=152aecbe-66d3-4a1d-9659-725f9a1f1a96","ios":"levelo://app?vid=152aecbe-66d3-4a1d-9659-725f9a1f1a96"},"vehicle_type_id":"4","last_reported":1774736243,"current_range_meters":6400,"station_id":"ce4bgl92rcd13ifvqbq0","pricing_plan_id":"cebpf4jnsgd1na2vs0mg"},{"bike_id":"9894d46f-f5cd-4c55-b506-7a9646c52762","system_id":"levelo_inurba_marseille","lat":43.25084,"lon":5.39519,"is_reserved":false,"is_disabled":false,"rental_uris":{"android":"levelo://app?vid=9894d46f-f5cd-4c55-b506-7a9646c52762","ios":"levelo://app?vid=9894d46f-f5cd-4c55-b506-7a9646c52762"},"vehicle_type_id":"4","last_reported":1774736243,"current_range_meters":6800,"station_id":"ce4bhm12rcd13ifvqgkg","pricing_plan_id":"cebpf4jnsgd1na2vs0mg"},{"bike_id":"98e0a438-206a-4b87-8125-2d77d96858e9","system_id":"levelo_inurba_marseille","lat":43.2862,"lon":5.35091,"is_reserved":false,"is_disabled":false,"rental_uris":{"android":"levelo://app?vid=98e0a438-206a-4b87-8125-2d77d96858e9","ios":"levelo://app?vid=98e0a438-206a-4b87-8125-2d77d96858e9"},"vehicle_type_id":"4","last_reported":1774736243,"current_range_meters":6800,"station_id":"ce4bhch2rcd13ifvqeug","pricing_plan_id":"cebpf4jnsgd1na2vs0mg"},{"bike_id":"a0e1fe6f-1b0c-4b69-b699-3f3295a2fce0","system_id":"levelo_inurba_marseille","lat":43.28411,"lon":5.34985,"is_reserved":false,"is_disabled":false,"rental_uris":{"android":"levelo://app?vid=a0e1fe6f-1b0c-4b69-b699-3f3295a2fce0","ios":"levelo://app?vid=a0e1fe6f-1b0c-4b69-b699-3f3295a2fce0"},"vehicle_type_id":"4","last_reported":1774736243,"current_range_meters":6800,"station_id":"ce4bhbh2rcd13ifvqepg","pricing_plan_id":"cebpf4jnsgd1na2vs0mg"},{"bike_id":"20cfdd43-a03e-463a-b192-0993e1d4f40a","system_id":"levelo_inurba_marseille","lat":43.279424,"lon":5.410532,"is_reserved":false,"is_disabled":false,"rental_uris":{"android":"levelo://app?vid=20cfdd43-a03e-463a-b192-0993e1d4f40a","ios":"levelo://app?vid=20cfdd43-a03e-463a-b192-0993e1d4f40a"},"vehicle_type_id":"4","last_reported":1774736243,"current_range_meters":6800,"station_id":"ce4bhnp2rcd13ifvqh0g","pricing_plan_id":"cebpf4jnsgd1na2vs0mg"},{"bike_id":"c82691aa-ba67-49e2-8ab8-9f87a1546b96","system_id":"levelo_inurba_marseille","lat":43.23201,"lon":5.35563,"is_reserved":false,"is_disabled":false,"rental_uris":{"android":"levelo://app?vid=c82691aa-ba67-49e2-8ab8-9f87a1546b96","ios":"levelo://app?vid=c82691aa-ba67-49e2-8ab8-9f87a1546b96"},"vehicle_type_id":"4","last_reported":1774736243,"current_range_meters":6800,"station_id":"ce4bhu92rcd13ifvqi70","pricing_plan_id":"cebpf4jnsgd1na2vs0mg"},{"bike_id":"8683ab0d-4a2a-48af-b0e7-633359d29ce3","system_id":"levelo_inurba_marseille","lat":43.30555,"lon":5.36699,"is_reserved":false,"is_disabled":false,"rental_uris":{"android":"levelo://app?vid=8683ab0d-4a2a-48af-b0e7-633359d29ce3","ios":"levelo://app?vid=8683ab0d-4a2a-48af-b0e7-633359d29ce3"},"vehicle_type_id":"4","last_reported":1774736243,"current_range_meters":6800,"station_id":"ce4bgrp2rcd13ifvqc9g","pricing_plan_id":"cebpf4jnsgd1na2vs0mg"},{"bike_id":"2457fc1b-679d-4a71-90e9-ad408ab6ed9d","system_id":"levelo_inurba_marseille","lat":43.33483,"lon":5.3797,"is_reserved":false,"is_disabled":false,"rental_uris":{"android":"levelo://app?vid=2457fc1b-679d-4a71-90e9-ad408ab6ed9d","ios":"levelo://app?vid=2457fc1b-679d-4a71-90e9-ad408ab6ed9d"},"vehicle_type_id":"4","last_reported":1774736243,"current_range_meters":6800,"station_id":"","pricing_plan_id":"cebpf4jnsgd1na2vs0mg"},{"bike_id":"adc1d067-d978-4d49-be63-6c2af6fbae1f","system_id":"levelo_inurba_marseille","lat":43.27938,"lon":5.41032,"is_reserved":false,"is_disabled":false,"rental_uris":{"android":"levelo://app?vid=adc1d067-d978-4d49-be63-6c2af6fbae1f","ios":"levelo://app?vid=adc1d067-d978-4d49-be63-6c2af6fbae1f"},"vehicle_type_id":"4","last_reported":1774736243,"current_range_meters":6800,"station_id":"ce4bhnp2rcd13ifvqh0g","pricing_plan_id":"cebpf4jnsgd1na2vs0mg"},{"bike_id":"6f348649-3b5a-4143-911c-4cd4b0517f43","system_id":"levelo_inurba_marseille","lat":43.30433,"lon":5.37595,"is_reserved":false,"is_disabled":false,"rental_uris":{"android":"levelo://app?vid=6f348649-3b5a-4143-911c-4cd4b0517f43","ios":"levelo://app?vid=6f348649-3b5a-4143-911c-4cd4b0517f43"},"vehicle_type_id":"4","last_reported":1774736243,"current_range_meters":6800,"station_id":"","pricing_plan_id":"cebpf4jnsgd1na2vs0mg"},{"bike_id":"d32aa1bf-1440-405b-937c-d48e8423d1b5","system_id":"levelo_inurba_marseille","lat":43.31213,"lon":5.36923,"is_reserved":false,"is_disabled":false,"rental_uris":{"android":"levelo://app?vid=d32aa1bf-1440-405b-937c-d48e8423d1b5","ios":"levelo://app?vid=d32aa1bf-1440-405b-937c-d48e8423d1b5"},"vehicle_type_id":"4","last_reported":1774736243,"current_range_meters":6800,"station_id":"","pricing_plan_id":"cebpf4jnsgd1na2vs0mg"},{"bike_id":"c420f719-a4cc-4702-b6da-68e6d0f37e6c","system_id":"levelo_inurba_marseille","lat":43.28533,"lon":5.44072,"is_reserved":false,"is_disabled":false,"rental_uris":{"android":"levelo://app?vid=c420f719-a4cc-4702-b6da-68e6d0f37e6c","ios":"levelo://app?vid=c420f719-a4cc-4702-b6da-68e6d0f37e6c"},"vehicle_type_id":"4","last_reported":1774736243,"current_range_meters":6800,"station_id":"st_d3j3df2ikq2c7380ej80","pricing_plan_id":"cebpf4jnsgd1na2vs0mg"},{"bike_id":"f057f137-0cac-4b50-91e6-948f8581886d","system_id":"levelo_inurba_marseille","lat":43.24637,"lon":5.38166,"is_reserved":false,"is_disabled":false,"rental_uris":{"android":"levelo://app?vid=f057f137-0cac-4b50-91e6-948f8581886d","ios":"levelo://app?vid=f057f137-0cac-4b50-91e6-948f8581886d"},"vehicle_type_id":"4","last_reported":1774736243,"current_range_meters":6800,"station_id":"ce4bhih2rcd13ifvqfr0","pricing_plan_id":"cebpf4jnsgd1na2vs0mg"},{"bike_id":"e9691ec1-022d-4d2e-b82b-962f7cabc02f","system_id":"levelo_inurba_marseille","lat":43.24797,"lon":5.37459,"is_reserved":false,"is_disabled":false,"rental_uris":{"android":"levelo://app?vid=e9691ec1-022d-4d2e-b82b-962f7cabc02f","ios":"levelo://app?vid=e9691ec1-022d-4d2e-b82b-962f7cabc02f"},"vehicle_type_id":"4","last_reported":1774736243,"current_range_meters":6800,"station_id":"ce4bhgh2rcd13ifvqfb0","pricing_plan_id":"cebpf4jnsgd1na2vs0mg"},{"bike_id":"44e6ef2e-f582-4dae-8b58-95600b73b872","system_id":"levelo_inurba_marseille","lat":43.33539,"lon":5.37475,"is_reserved":false,"is_disabled":false,"rental_uris":{"android":"levelo://app?vid=44e6ef2e-f582-4dae-8b58-95600b73b872","ios":"levelo://app?vid=44e6ef2e-f582-4dae-8b58-95600b73b872"},"vehicle_type_id":"4","last_reported":1774736243,"current_range_meters":6800,"station_id":"st_d46tts09ee8s73dlu43g","pricing_plan_id":"cebpf4jnsgd1na2vs0mg"},{"bike_id":"2c46e4b0-a2ca-415e-8d0e-765460846233","system_id":"levelo_inurba_marseille","lat":43.23148,"lon":5.43718,"is_reserved":false,"is_disabled":false,"rental_uris":{"android":"levelo://app?vid=2c46e4b0-a2ca-415e-8d0e-765460846233","ios":"levelo://app?vid=2c46e4b0-a2ca-415e-8d0e-765460846233"},"vehicle_type_id":"4","last_reported":1774736243,"current_range_meters":6800,"station_id":"ce4bhmp2rcd13ifvqgog","pricing_plan_id":"cebpf4jnsgd1na2vs0mg"},{"bike_id":"3b62e93a-9fe9-4ed8-9f4c-2abcf6fcd840","system_id":"levelo_inurba_marseille","lat":43.30257,"lon":5.40046,"is_reserved":false,"is_disabled":false,"rental_uris":{"android":"levelo://app?vid=3b62e93a-9fe9-4ed8-9f4c-2abcf6fcd840","ios":"levelo://app?vid=3b62e93a-9fe9-4ed8-9f4c-2abcf6fcd840"},"vehicle_type_id":"4","last_reported":1774736243,"current_range_meters":6800,"station_id":"ce4bgvh2rcd13ifvqcs0","pricing_plan_id":"cebpf4jnsgd1na2vs0mg"},{"bike_id":"2e9e98fd-4713-4ee9-87be-8d47d65eb147","system_id":"levelo_inurba_marseille","lat":43.24653,"lon":5.38145,"is_reserved":false,"is_disabled":false,"rental_uris":{"android":"levelo://app?vid=2e9e98fd-4713-4ee9-87be-8d47d65eb147","ios":"levelo://app?vid=2e9e98fd-4713-4ee9-87be-8d47d65eb147"},"vehicle_type_id":"4","last_reported":1774736243,"current_range_meters":6800,"station_id":"ce4bhih2rcd13ifvqfr0","pricing_plan_id":"cebpf4jnsgd1na2vs0mg"},{"bike_id":"3a44c55d-d596-4fa0-8b45-13fb04164040","system_id":"levelo_inurba_marseille","lat":43.29026,"lon":5.38646,"is_reserved":false,"is_disabled":false,"rental_uris":{"android":"levelo://app?vid=3a44c55d-d596-4fa0-8b45-13fb04164040","ios":"levelo://app?vid=3a44c55d-d596-4fa0-8b45-13fb04164040"},"vehicle_type_id":"4","last_reported":1774736243,"current_range_meters":6800,"station_id":"ce4bh4p2rcd13ifvqe0g","pricing_plan_id":"cebpf4jnsgd1na2vs0mg"},{"bike_id":"d81decec-1336-453f-8815-0de2ad63968a","system_id":"levelo_inurba_marseille","lat":43.24799,"lon":5.37448,"is_reserved":false,"is_disabled":false,"rental_uris":{"android":"levelo://app?vid=d81decec-1336-453f-8815-0de2ad63968a","ios":"levelo://app?vid=d81decec-1336-453f-8815-0de2ad63968a"},"vehicle_type_id":"4","last_reported":1774736243,"current_range_meters":6800,"station_id":"ce4bhgh2rcd13ifvqfb0","pricing_plan_id":"cebpf4jnsgd1na2vs0mg"},{"bike_id":"88fb9af6-0dea-445a-910b-bf18a4d2f559","system_id":"levelo_inurba_marseille","lat":43.27369,"lon":5.36252,"is_reserved":false,"is_disabled":false,"rental_uris":{"android":"levelo://app?vid=88fb9af6-0dea-445a-910b-bf18a4d2f559","ios":"levelo://app?vid=88fb9af6-0dea-445a-910b-bf18a4d2f559"},"vehicle_type_id":"4","last_reported":1774736243,"current_range_meters":6800,"station_id":"ce4bhbh2rcd13ifvqeo0","pricing_plan_id":"cebpf4jnsgd1na2vs0mg"},{"bike_id":"2bf237c2-c4a5-409d-aaf2-b153a3e1ff10","system_id":"levelo_inurba_marseille","lat":43.21731,"lon":5.34634,"is_reserved":false,"is_disabled":false,"rental_uris":{"android":"levelo://app?vid=2bf237c2-c4a5-409d-aaf2-b153a3e1ff10","ios":"levelo://app?vid=2bf237c2-c4a5-409d-aaf2-b153a3e1ff10"},"vehicle_type_id":"4","last_reported":1774736243,"current_range_meters":7200,"station_id":"st_cvj6r9ubvosntc0bgbag","pricing_plan_id":"cebpf4jnsgd1na2vs0mg"},{"bike_id":"290afd09-0584-4963-a797-1ed96debbdfe","system_id":"levelo_inurba_marseille","lat":43.21172,"lon":5.35088,"is_reserved":false,"is_disabled":false,"rental_uris":{"android":"levelo://app?vid=290afd09-0584-4963-a797-1ed96debbdfe","ios":"levelo://app?vid=290afd09-0584-4963-a797-1ed96debbdfe"},"vehicle_type_id":"4","last_reported":1774736243,"current_range_meters":7200,"station_id":"st_cvj6sg6p6f1abm77japg","pricing_plan_id":"cebpf4jnsgd1na2vs0mg"},{"bike_id":"16ab89e3-ec1f-456f-8d60-f3a31d9305e8","system_id":"levelo_inurba_marseille","lat":43.28407,"lon":5.37505,"is_reserved":false,"is_disabled":false,"rental_uris":{"android":"levelo://app?vid=16ab89e3-ec1f-456f-8d60-f3a31d9305e8","ios":"levelo://app?vid=16ab89e3-ec1f-456f-8d60-f3a31d9305e8"},"vehicle_type_id":"4","last_reported":1774736243,"current_range_meters":7200,"station_id":"ce4bh412rcd13ifvqds0","pricing_plan_id":"cebpf4jnsgd1na2vs0mg"},{"bike_id":"ace402cd-5a43-4700-8e53-9f597a013620","system_id":"levelo_inurba_marseille","lat":43.28281,"lon":5.35068,"is_reserved":false,"is_disabled":false,"rental_uris":{"android":"levelo://app?vid=ace402cd-5a43-4700-8e53-9f597a013620","ios":"levelo://app?vid=ace402cd-5a43-4700-8e53-9f597a013620"},"vehicle_type_id":"4","last_reported":1774736243,"current_range_meters":7200,"station_id":"ce4bhbp2rcd13ifvqerg","pricing_plan_id":"cebpf4jnsgd1na2vs0mg"},{"bike_id":"899c9f36-9b83-4ce9-bd7d-0f95dd541b6a","system_id":"levelo_inurba_marseille","lat":43.32362,"lon":5.3676,"is_reserved":false,"is_disabled":false,"rental_uris":{"android":"levelo://app?vid=899c9f36-9b83-4ce9-bd7d-0f95dd541b6a","ios":"levelo://app?vid=899c9f36-9b83-4ce9-bd7d-0f95dd541b6a"},"vehicle_type_id":"4","last_reported":1774736243,"current_range_meters":7200,"station_id":"ce4bhsh2rcd13ifvqi2g","pricing_plan_id":"cebpf4jnsgd1na2vs0mg"},{"bike_id":"cac65e9a-4f7e-4ab5-8945-0eea67327b18","system_id":"levelo_inurba_marseille","lat":43.30552,"lon":5.36545,"is_reserved":false,"is_disabled":false,"rental_uris":{"android":"levelo://app?vid=cac65e9a-4f7e-4ab5-8945-0eea67327b18","ios":"levelo://app?vid=cac65e9a-4f7e-4ab5-8945-0eea67327b18"},"vehicle_type_id":"4","last_reported":1774736243,"current_range_meters":7200,"station_id":"ce4bgs12rcd13ifvqcag","pricing_plan_id":"cebpf4jnsgd1na2vs0mg"},{"bike_id":"129ae7f3-4fc9-4799-9c60-c7057f2a0117","system_id":"levelo_inurba_marseille","lat":43.2852,"lon":5.44114,"is_reserved":false,"is_disabled":false,"rental_uris":{"android":"levelo://app?vid=129ae7f3-4fc9-4799-9c60-c7057f2a0117","ios":"levelo://app?vid=129ae7f3-4fc9-4799-9c60-c7057f2a0117"},"vehicle_type_id":"4","last_reported":1774736243,"current_range_meters":7200,"station_id":"st_d3j3df2ikq2c7380ej80","pricing_plan_id":"cebpf4jnsgd1na2vs0mg"},{"bike_id":"6627d87e-d8cc-4315-9870-c98a872f12b5","system_id":"levelo_inurba_marseille","lat":43.24682,"lon":5.38143,"is_reserved":false,"is_disabled":false,"rental_uris":{"android":"levelo://app?vid=6627d87e-d8cc-4315-9870-c98a872f12b5","ios":"levelo://app?vid=6627d87e-d8cc-4315-9870-c98a872f12b5"},"vehicle_type_id":"4","last_reported":1774736243,"current_range_meters":7200,"station_id":"ce4bhih2rcd13ifvqfr0","pricing_plan_id":"cebpf4jnsgd1na2vs0mg"},{"bike_id":"7005161c-2e0d-4cdc-b67a-ab23e115a888","system_id":"levelo_inurba_marseille","lat":43.30573,"lon":5.3655,"is_reserved":false,"is_disabled":false,"rental_uris":{"android":"levelo://app?vid=7005161c-2e0d-4cdc-b67a-ab23e115a888","ios":"levelo://app?vid=7005161c-2e0d-4cdc-b67a-ab23e115a888"},"vehicle_type_id":"4","last_reported":1774736243,"current_range_meters":7200,"station_id":"ce4bgs12rcd13ifvqcag","pricing_plan_id":"cebpf4jnsgd1na2vs0mg"},{"bike_id":"71d48357-1730-42ac-b4ec-13bb8f5c6b51","system_id":"levelo_inurba_marseille","lat":43.3105,"lon":5.37158,"is_reserved":false,"is_disabled":false,"rental_uris":{"android":"levelo://app?vid=71d48357-1730-42ac-b4ec-13bb8f5c6b51","ios":"levelo://app?vid=71d48357-1730-42ac-b4ec-13bb8f5c6b51"},"vehicle_type_id":"4","last_reported":1774736243,"current_range_meters":7200,"station_id":"st_d4kl2rp97mjs73e7tdfg","pricing_plan_id":"cebpf4jnsgd1na2vs0mg"},{"bike_id":"53a648b2-58c2-4434-9260-2d7c6fd3ccd7","system_id":"levelo_inurba_marseille","lat":43.30142,"lon":5.38768,"is_reserved":false,"is_disabled":false,"rental_uris":{"android":"levelo://app?vid=53a648b2-58c2-4434-9260-2d7c6fd3ccd7","ios":"levelo://app?vid=53a648b2-58c2-4434-9260-2d7c6fd3ccd7"},"vehicle_type_id":"4","last_reported":1774736243,"current_range_meters":7200,"station_id":"ce4bghh2rcd13ifvqb60","pricing_plan_id":"cebpf4jnsgd1na2vs0mg"},{"bike_id":"651ccc8e-7873-40ba-89c6-a2f41f6c62c7","system_id":"levelo_inurba_marseille","lat":43.30815,"lon":5.38138,"is_reserved":false,"is_disabled":false,"rental_uris":{"android":"levelo://app?vid=651ccc8e-7873-40ba-89c6-a2f41f6c62c7","ios":"levelo://app?vid=651ccc8e-7873-40ba-89c6-a2f41f6c62c7"},"vehicle_type_id":"4","last_reported":1774736243,"current_range_meters":7200,"station_id":"ce4bgt12rcd13ifvqce0","pricing_plan_id":"cebpf4jnsgd1na2vs0mg"},{"bike_id":"fadb9bc0-68a6-44e7-984d-9151bdc84414","system_id":"levelo_inurba_marseille","lat":43.31379,"lon":5.38501,"is_reserved":false,"is_disabled":false,"rental_uris":{"android":"levelo://app?vid=fadb9bc0-68a6-44e7-984d-9151bdc84414","ios":"levelo://app?vid=fadb9bc0-68a6-44e7-984d-9151bdc84414"},"vehicle_type_id":"4","last_reported":1774736243,"current_range_meters":7200,"station_id":"ce4bgt92rcd13ifvqcf0","pricing_plan_id":"cebpf4jnsgd1na2vs0mg"},{"bike_id":"65d12191-c16d-4ebd-b0fc-df48d34e0e86","system_id":"levelo_inurba_marseille","lat":43.29535,"lon":5.38529,"is_reserved":false,"is_disabled":false,"rental_uris":{"android":"levelo://app?vid=65d12191-c16d-4ebd-b0fc-df48d34e0e86","ios":"levelo://app?vid=65d12191-c16d-4ebd-b0fc-df48d34e0e86"},"vehicle_type_id":"4","last_reported":1774736243,"current_range_meters":7200,"station_id":"","pricing_plan_id":"cebpf4jnsgd1na2vs0mg"},{"bike_id":"c2981b41-70b3-4e70-8d06-dc1902aed07f","system_id":"levelo_inurba_marseille","lat":43.28603,"lon":5.351,"is_reserved":false,"is_disabled":false,"rental_uris":{"android":"levelo://app?vid=c2981b41-70b3-4e70-8d06-dc1902aed07f","ios":"levelo://app?vid=c2981b41-70b3-4e70-8d06-dc1902aed07f"},"vehicle_type_id":"4","last_reported":1774736243,"current_range_meters":7200,"station_id":"ce4bhch2rcd13ifvqeug","pricing_plan_id":"cebpf4jnsgd1na2vs0mg"},{"bike_id":"a252e9d3-257d-4046-8328-43e3fbf4acb1","system_id":"levelo_inurba_marseille","lat":43.29236,"lon":5.3878,"is_reserved":false,"is_disabled":false,"rental_uris":{"android":"levelo://app?vid=a252e9d3-257d-4046-8328-43e3fbf4acb1","ios":"levelo://app?vid=a252e9d3-257d-4046-8328-43e3fbf4acb1"},"vehicle_type_id":"4","last_reported":1774736243,"current_range_meters":7200,"station_id":"","pricing_plan_id":"cebpf4jnsgd1na2vs0mg"},{"bike_id":"ef935ed1-650a-4632-b4dd-10e5cb1ef5b4","system_id":"levelo_inurba_marseille","lat":43.28422,"lon":5.3498,"is_reserved":false,"is_disabled":false,"rental_uris":{"android":"levelo://app?vid=ef935ed1-650a-4632-b4dd-10e5cb1ef5b4","ios":"levelo://app?vid=ef935ed1-650a-4632-b4dd-10e5cb1ef5b4"},"vehicle_type_id":"4","last_reported":1774736243,"current_range_meters":7200,"station_id":"ce4bhbh2rcd13ifvqepg","pricing_plan_id":"cebpf4jnsgd1na2vs0mg"},{"bike_id":"67c1c6e6-4211-4250-be02-a52880e1c23a","system_id":"levelo_inurba_marseille","lat":43.26497,"lon":5.40713,"is_reserved":false,"is_disabled":false,"rental_uris":{"android":"levelo://app?vid=67c1c6e6-4211-4250-be02-a52880e1c23a","ios":"levelo://app?vid=67c1c6e6-4211-4250-be02-a52880e1c23a"},"vehicle_type_id":"4","last_reported":1774736243,"current_range_meters":7200,"station_id":"","pricing_plan_id":"cebpf4jnsgd1na2vs0mg"},{"bike_id":"4f5cf7ef-ddb5-4d25-9c0b-bec33f5f4447","system_id":"levelo_inurba_marseille","lat":43.3096,"lon":5.36862,"is_reserved":false,"is_disabled":false,"rental_uris":{"android":"levelo://app?vid=4f5cf7ef-ddb5-4d25-9c0b-bec33f5f4447","ios":"levelo://app?vid=4f5cf7ef-ddb5-4d25-9c0b-bec33f5f4447"},"vehicle_type_id":"4","last_reported":1774736243,"current_range_meters":7200,"station_id":"","pricing_plan_id":"cebpf4jnsgd1na2vs0mg"},{"bike_id":"b81d733a-39de-45b4-a58b-fc5796f0ce1e","system_id":"levelo_inurba_marseille","lat":43.29025,"lon":5.37574,"is_reserved":false,"is_disabled":false,"rental_uris":{"android":"levelo://app?vid=b81d733a-39de-45b4-a58b-fc5796f0ce1e","ios":"levelo://app?vid=b81d733a-39de-45b4-a58b-fc5796f0ce1e"},"vehicle_type_id":"4","last_reported":1774736243,"current_range_meters":7200,"station_id":"ce4bh692rcd13ifvqe90","pricing_plan_id":"cebpf4jnsgd1na2vs0mg"},{"bike_id":"be4a1afc-a843-49e6-a087-d809924f7dda","system_id":"levelo_inurba_marseille","lat":43.28925,"lon":5.38393,"is_reserved":false,"is_disabled":true,"rental_uris":{"android":"levelo://app?vid=be4a1afc-a843-49e6-a087-d809924f7dda","ios":"levelo://app?vid=be4a1afc-a843-49e6-a087-d809924f7dda"},"vehicle_type_id":"4","last_reported":1774736243,"current_range_meters":7200,"station_id":"ce4bh612rcd13ifvqe6g","pricing_plan_id":"cebpf4jnsgd1na2vs0mg"},{"bike_id":"825bca4a-aff7-48e8-8885-db808d49f605","system_id":"levelo_inurba_marseille","lat":43.25517,"lon":5.37649,"is_reserved":false,"is_disabled":false,"rental_uris":{"android":"levelo://app?vid=825bca4a-aff7-48e8-8885-db808d49f605","ios":"levelo://app?vid=825bca4a-aff7-48e8-8885-db808d49f605"},"vehicle_type_id":"4","last_reported":1774736243,"current_range_meters":7200,"station_id":"ce4bhh12rcd13ifvqff0","pricing_plan_id":"cebpf4jnsgd1na2vs0mg"},{"bike_id":"2467f598-920a-477f-9c27-52d7293cbf42","system_id":"levelo_inurba_marseille","lat":43.28443,"lon":5.34985,"is_reserved":false,"is_disabled":false,"rental_uris":{"android":"levelo://app?vid=2467f598-920a-477f-9c27-52d7293cbf42","ios":"levelo://app?vid=2467f598-920a-477f-9c27-52d7293cbf42"},"vehicle_type_id":"4","last_reported":1774736243,"current_range_meters":8000,"station_id":"ce4bhbh2rcd13ifvqepg","pricing_plan_id":"cebpf4jnsgd1na2vs0mg"},{"bike_id":"b1e731c5-a019-40fb-b94c-b458e0eddb64","system_id":"levelo_inurba_marseille","lat":43.23791,"lon":5.38616,"is_reserved":false,"is_disabled":false,"rental_uris":{"android":"levelo://app?vid=b1e731c5-a019-40fb-b94c-b458e0eddb64","ios":"levelo://app?vid=b1e731c5-a019-40fb-b94c-b458e0eddb64"},"vehicle_type_id":"4","last_reported":1774736243,"current_range_meters":8000,"station_id":"","pricing_plan_id":"cebpf4jnsgd1na2vs0mg"},{"bike_id":"015ad18d-3d69-4699-987a-2a91bd78292f","system_id":"levelo_inurba_marseille","lat":43.31726,"lon":5.43715,"is_reserved":false,"is_disabled":false,"rental_uris":{"android":"levelo://app?vid=015ad18d-3d69-4699-987a-2a91bd78292f","ios":"levelo://app?vid=015ad18d-3d69-4699-987a-2a91bd78292f"},"vehicle_type_id":"4","last_reported":1774736243,"current_range_meters":8000,"station_id":"ce4bhp92rcd13ifvqhcg","pricing_plan_id":"cebpf4jnsgd1na2vs0mg"},{"bike_id":"068cd4e0-b799-4f30-a5c4-85ee42414c50","system_id":"levelo_inurba_marseille","lat":43.29283,"lon":5.36852,"is_reserved":false,"is_disabled":false,"rental_uris":{"android":"levelo://app?vid=068cd4e0-b799-4f30-a5c4-85ee42414c50","ios":"levelo://app?vid=068cd4e0-b799-4f30-a5c4-85ee42414c50"},"vehicle_type_id":"4","last_reported":1774736243,"current_range_meters":8000,"station_id":"ce4bhbp2rcd13ifvqesg","pricing_plan_id":"cebpf4jnsgd1na2vs0mg"},{"bike_id":"44b061ea-ac90-4ccb-8d43-7cab8ff1f0e0","system_id":"levelo_inurba_marseille","lat":43.26061,"lon":5.39382,"is_reserved":false,"is_disabled":false,"rental_uris":{"android":"levelo://app?vid=44b061ea-ac90-4ccb-8d43-7cab8ff1f0e0","ios":"levelo://app?vid=44b061ea-ac90-4ccb-8d43-7cab8ff1f0e0"},"vehicle_type_id":"4","last_reported":1774736243,"current_range_meters":8000,"station_id":"ce4bhh92rcd13ifvqfj0","pricing_plan_id":"cebpf4jnsgd1na2vs0mg"},{"bike_id":"253bfbd1-c3f6-4b72-a716-55890f3b4db7","system_id":"levelo_inurba_marseille","lat":43.28488,"lon":5.48384,"is_reserved":false,"is_disabled":false,"rental_uris":{"android":"levelo://app?vid=253bfbd1-c3f6-4b72-a716-55890f3b4db7","ios":"levelo://app?vid=253bfbd1-c3f6-4b72-a716-55890f3b4db7"},"vehicle_type_id":"4","last_reported":1774736243,"current_range_meters":8000,"station_id":"","pricing_plan_id":"cebpf4jnsgd1na2vs0mg"},{"bike_id":"92cb4986-12bc-44d4-ad49-496427bf2b45","system_id":"levelo_inurba_marseille","lat":43.2856,"lon":5.44111,"is_reserved":false,"is_disabled":false,"rental_uris":{"android":"levelo://app?vid=92cb4986-12bc-44d4-ad49-496427bf2b45","ios":"levelo://app?vid=92cb4986-12bc-44d4-ad49-496427bf2b45"},"vehicle_type_id":"4","last_reported":1774736243,"current_range_meters":8000,"station_id":"st_d3j3df2ikq2c7380ej80","pricing_plan_id":"cebpf4jnsgd1na2vs0mg"},{"bike_id":"951ccfa0-2bbb-441f-98aa-0e6f6567daed","system_id":"levelo_inurba_marseille","lat":43.28687,"lon":5.3732,"is_reserved":false,"is_disabled":false,"rental_uris":{"android":"levelo://app?vid=951ccfa0-2bbb-441f-98aa-0e6f6567daed","ios":"levelo://app?vid=951ccfa0-2bbb-441f-98aa-0e6f6567daed"},"vehicle_type_id":"4","last_reported":1774736243,"current_range_meters":8000,"station_id":"ce4bh3p2rcd13ifvqdq0","pricing_plan_id":"cebpf4jnsgd1na2vs0mg"},{"bike_id":"1f2715e0-ff46-4504-b04c-9d6563e921fd","system_id":"levelo_inurba_marseille","lat":43.29035,"lon":5.38646,"is_reserved":false,"is_disabled":false,"rental_uris":{"android":"levelo://app?vid=1f2715e0-ff46-4504-b04c-9d6563e921fd","ios":"levelo://app?vid=1f2715e0-ff46-4504-b04c-9d6563e921fd"},"vehicle_type_id":"4","last_reported":1774736243,"current_range_meters":8000,"station_id":"ce4bh4p2rcd13ifvqe0g","pricing_plan_id":"cebpf4jnsgd1na2vs0mg"},{"bike_id":"1bebdd87-eb20-43f1-8d96-9fdb37cf655b","system_id":"levelo_inurba_marseille","lat":43.2953,"lon":5.38667,"is_reserved":false,"is_disabled":false,"rental_uris":{"android":"levelo://app?vid=1bebdd87-eb20-43f1-8d96-9fdb37cf655b","ios":"levelo://app?vid=1bebdd87-eb20-43f1-8d96-9fdb37cf655b"},"vehicle_type_id":"4","last_reported":1774736243,"current_range_meters":8000,"station_id":"","pricing_plan_id":"cebpf4jnsgd1na2vs0mg"},{"bike_id":"c09263af-5f3c-4487-9b20-dca4afc4c1ed","system_id":"levelo_inurba_marseille","lat":43.28619,"lon":5.35094,"is_reserved":false,"is_disabled":false,"rental_uris":{"android":"levelo://app?vid=c09263af-5f3c-4487-9b20-dca4afc4c1ed","ios":"levelo://app?vid=c09263af-5f3c-4487-9b20-dca4afc4c1ed"},"vehicle_type_id":"4","last_reported":1774736243,"current_range_meters":8000,"station_id":"ce4bhch2rcd13ifvqeug","pricing_plan_id":"cebpf4jnsgd1na2vs0mg"},{"bike_id":"4b8bd687-040a-43a0-9ca8-957b0e4f64cc","system_id":"levelo_inurba_marseille","lat":43.28401,"lon":5.37529,"is_reserved":false,"is_disabled":false,"rental_uris":{"android":"levelo://app?vid=4b8bd687-040a-43a0-9ca8-957b0e4f64cc","ios":"levelo://app?vid=4b8bd687-040a-43a0-9ca8-957b0e4f64cc"},"vehicle_type_id":"4","last_reported":1774736243,"current_range_meters":8000,"station_id":"ce4bh412rcd13ifvqds0","pricing_plan_id":"cebpf4jnsgd1na2vs0mg"},{"bike_id":"d42918c2-5949-42d0-8ebe-a9ca1daba3bd","system_id":"levelo_inurba_marseille","lat":43.28466,"lon":5.35882,"is_reserved":false,"is_disabled":true,"rental_uris":{"android":"levelo://app?vid=d42918c2-5949-42d0-8ebe-a9ca1daba3bd","ios":"levelo://app?vid=d42918c2-5949-42d0-8ebe-a9ca1daba3bd"},"vehicle_type_id":"4","last_reported":1774736243,"current_range_meters":8000,"station_id":"ce4bhah2rcd13ifvqei0","pricing_plan_id":"cebpf4jnsgd1na2vs0mg"},{"bike_id":"53831c41-fd69-4f74-a006-a454351e7cd7","system_id":"levelo_inurba_marseille","lat":43.25116,"lon":5.40317,"is_reserved":false,"is_disabled":false,"rental_uris":{"android":"levelo://app?vid=53831c41-fd69-4f74-a006-a454351e7cd7","ios":"levelo://app?vid=53831c41-fd69-4f74-a006-a454351e7cd7"},"vehicle_type_id":"4","last_reported":1774736243,"current_range_meters":8000,"station_id":"ce4bhlh2rcd13ifvqgig","pricing_plan_id":"cebpf4jnsgd1na2vs0mg"},{"bike_id":"9c90e154-1ad6-4039-8066-16f77ee3b88c","system_id":"levelo_inurba_marseille","lat":43.29535,"lon":5.38654,"is_reserved":false,"is_disabled":false,"rental_uris":{"android":"levelo://app?vid=9c90e154-1ad6-4039-8066-16f77ee3b88c","ios":"levelo://app?vid=9c90e154-1ad6-4039-8066-16f77ee3b88c"},"vehicle_type_id":"4","last_reported":1774736243,"current_range_meters":8000,"station_id":"","pricing_plan_id":"cebpf4jnsgd1na2vs0mg"},{"bike_id":"fbdbdda3-a7b5-4d51-b9fb-71cc3b55d486","system_id":"levelo_inurba_marseille","lat":43.30804,"lon":5.38144,"is_reserved":false,"is_disabled":false,"rental_uris":{"android":"levelo://app?vid=fbdbdda3-a7b5-4d51-b9fb-71cc3b55d486","ios":"levelo://app?vid=fbdbdda3-a7b5-4d51-b9fb-71cc3b55d486"},"vehicle_type_id":"4","last_reported":1774736243,"current_range_meters":8000,"station_id":"ce4bgt12rcd13ifvqce0","pricing_plan_id":"cebpf4jnsgd1na2vs0mg"},{"bike_id":"2890b77e-7b82-4cf9-8b35-b2e9af77bfcf","system_id":"levelo_inurba_marseille","lat":43.25341,"lon":5.42171,"is_reserved":false,"is_disabled":false,"rental_uris":{"android":"levelo://app?vid=2890b77e-7b82-4cf9-8b35-b2e9af77bfcf","ios":"levelo://app?vid=2890b77e-7b82-4cf9-8b35-b2e9af77bfcf"},"vehicle_type_id":"4","last_reported":1774736243,"current_range_meters":8400,"station_id":"st_d2m65c5bi1j21697t3ng","pricing_plan_id":"cebpf4jnsgd1na2vs0mg"},{"bike_id":"a9176eb7-c188-4ff4-912f-d4e94b60be86","system_id":"levelo_inurba_marseille","lat":43.23787,"lon":5.3663,"is_reserved":false,"is_disabled":false,"rental_uris":{"android":"levelo://app?vid=a9176eb7-c188-4ff4-912f-d4e94b60be86","ios":"levelo://app?vid=a9176eb7-c188-4ff4-912f-d4e94b60be86"},"vehicle_type_id":"4","last_reported":1774736243,"current_range_meters":8400,"station_id":"st_d3nk18o9ro0c73en2l3g","pricing_plan_id":"cebpf4jnsgd1na2vs0mg"},{"bike_id":"c08d85a0-ca77-403f-b3fd-5f2dd3b5194f","system_id":"levelo_inurba_marseille","lat":43.29042,"lon":5.37185,"is_reserved":false,"is_disabled":false,"rental_uris":{"android":"levelo://app?vid=c08d85a0-ca77-403f-b3fd-5f2dd3b5194f","ios":"levelo://app?vid=c08d85a0-ca77-403f-b3fd-5f2dd3b5194f"},"vehicle_type_id":"4","last_reported":1774736243,"current_range_meters":8400,"station_id":"ce4bh5p2rcd13ifvqe4g","pricing_plan_id":"cebpf4jnsgd1na2vs0mg"},{"bike_id":"4225874e-43d6-464e-9478-99e6b2686a18","system_id":"levelo_inurba_marseille","lat":43.29815,"lon":5.44056,"is_reserved":false,"is_disabled":false,"rental_uris":{"android":"levelo://app?vid=4225874e-43d6-464e-9478-99e6b2686a18","ios":"levelo://app?vid=4225874e-43d6-464e-9478-99e6b2686a18"},"vehicle_type_id":"4","last_reported":1774736243,"current_range_meters":8400,"station_id":"st_d3jp68qikq2c7381ktn0","pricing_plan_id":"cebpf4jnsgd1na2vs0mg"},{"bike_id":"36141db5-b3a5-4009-8266-2dd4f38320ae","system_id":"levelo_inurba_marseille","lat":43.23794,"lon":5.3663,"is_reserved":false,"is_disabled":false,"rental_uris":{"android":"levelo://app?vid=36141db5-b3a5-4009-8266-2dd4f38320ae","ios":"levelo://app?vid=36141db5-b3a5-4009-8266-2dd4f38320ae"},"vehicle_type_id":"4","last_reported":1774736243,"current_range_meters":8400,"station_id":"st_d3nk18o9ro0c73en2l3g","pricing_plan_id":"cebpf4jnsgd1na2vs0mg"},{"bike_id":"970c0018-efd3-4265-ba0d-669fd24b3e90","system_id":"levelo_inurba_marseille","lat":43.30959,"lon":5.3903,"is_reserved":false,"is_disabled":true,"rental_uris":{"android":"levelo://app?vid=970c0018-efd3-4265-ba0d-669fd24b3e90","ios":"levelo://app?vid=970c0018-efd3-4265-ba0d-669fd24b3e90"},"vehicle_type_id":"4","last_reported":1774736243,"current_range_meters":8400,"station_id":"ce4bgup2rcd13ifvqco0","pricing_plan_id":"cebpf4jnsgd1na2vs0mg"},{"bike_id":"2c76498e-1409-4d1d-aa11-912dd68ff926","system_id":"levelo_inurba_marseille","lat":43.28537,"lon":5.44088,"is_reserved":false,"is_disabled":false,"rental_uris":{"android":"levelo://app?vid=2c76498e-1409-4d1d-aa11-912dd68ff926","ios":"levelo://app?vid=2c76498e-1409-4d1d-aa11-912dd68ff926"},"vehicle_type_id":"4","last_reported":1774736243,"current_range_meters":8400,"station_id":"st_d3j3df2ikq2c7380ej80","pricing_plan_id":"cebpf4jnsgd1na2vs0mg"},{"bike_id":"cc59f728-d7ea-44ba-a83b-ab5dcd4ed237","system_id":"levelo_inurba_marseille","lat":43.30558,"lon":5.36514,"is_reserved":false,"is_disabled":false,"rental_uris":{"android":"levelo://app?vid=cc59f728-d7ea-44ba-a83b-ab5dcd4ed237","ios":"levelo://app?vid=cc59f728-d7ea-44ba-a83b-ab5dcd4ed237"},"vehicle_type_id":"4","last_reported":1774736243,"current_range_meters":8400,"station_id":"ce4bgs12rcd13ifvqcag","pricing_plan_id":"cebpf4jnsgd1na2vs0mg"},{"bike_id":"76201515-ae70-408c-82ba-b2d7c39b0327","system_id":"levelo_inurba_marseille","lat":43.25111,"lon":5.40313,"is_reserved":false,"is_disabled":false,"rental_uris":{"android":"levelo://app?vid=76201515-ae70-408c-82ba-b2d7c39b0327","ios":"levelo://app?vid=76201515-ae70-408c-82ba-b2d7c39b0327"},"vehicle_type_id":"4","last_reported":1774736243,"current_range_meters":8400,"station_id":"ce4bhlh2rcd13ifvqgig","pricing_plan_id":"cebpf4jnsgd1na2vs0mg"},{"bike_id":"e7bd119b-30de-4df6-bef1-c0224e1d1fa7","system_id":"levelo_inurba_marseille","lat":43.30569,"lon":5.36618,"is_reserved":false,"is_disabled":false,"rental_uris":{"android":"levelo://app?vid=e7bd119b-30de-4df6-bef1-c0224e1d1fa7","ios":"levelo://app?vid=e7bd119b-30de-4df6-bef1-c0224e1d1fa7"},"vehicle_type_id":"4","last_reported":1774736243,"current_range_meters":8400,"station_id":"ce4bgs12rcd13ifvqcag","pricing_plan_id":"cebpf4jnsgd1na2vs0mg"},{"bike_id":"ce4bb8b5-8a16-4588-8ca5-c266a05621c6","system_id":"levelo_inurba_marseille","lat":43.23898,"lon":5.37454,"is_reserved":false,"is_disabled":false,"rental_uris":{"android":"levelo://app?vid=ce4bb8b5-8a16-4588-8ca5-c266a05621c6","ios":"levelo://app?vid=ce4bb8b5-8a16-4588-8ca5-c266a05621c6"},"vehicle_type_id":"4","last_reported":1774736243,"current_range_meters":8400,"station_id":"st_d6sm7csbq4hs73f8fpjg","pricing_plan_id":"cebpf4jnsgd1na2vs0mg"},{"bike_id":"569d22ea-14e0-44c2-9454-7e96a6bcd5fb","system_id":"levelo_inurba_marseille","lat":43.29026,"lon":5.38643,"is_reserved":false,"is_disabled":false,"rental_uris":{"android":"levelo://app?vid=569d22ea-14e0-44c2-9454-7e96a6bcd5fb","ios":"levelo://app?vid=569d22ea-14e0-44c2-9454-7e96a6bcd5fb"},"vehicle_type_id":"4","last_reported":1774736243,"current_range_meters":8400,"station_id":"ce4bh4p2rcd13ifvqe0g","pricing_plan_id":"cebpf4jnsgd1na2vs0mg"},{"bike_id":"95476e75-5511-44cc-926e-a6cf142485f9","system_id":"levelo_inurba_marseille","lat":43.28923,"lon":5.3839,"is_reserved":false,"is_disabled":false,"rental_uris":{"android":"levelo://app?vid=95476e75-5511-44cc-926e-a6cf142485f9","ios":"levelo://app?vid=95476e75-5511-44cc-926e-a6cf142485f9"},"vehicle_type_id":"4","last_reported":1774736243,"current_range_meters":8400,"station_id":"ce4bh612rcd13ifvqe6g","pricing_plan_id":"cebpf4jnsgd1na2vs0mg"},{"bike_id":"752abf57-2523-4a36-ab7b-c328452703b1","system_id":"levelo_inurba_marseille","lat":43.24827,"lon":5.37465,"is_reserved":false,"is_disabled":false,"rental_uris":{"android":"levelo://app?vid=752abf57-2523-4a36-ab7b-c328452703b1","ios":"levelo://app?vid=752abf57-2523-4a36-ab7b-c328452703b1"},"vehicle_type_id":"4","last_reported":1774736243,"current_range_meters":8400,"station_id":"ce4bhgh2rcd13ifvqfb0","pricing_plan_id":"cebpf4jnsgd1na2vs0mg"},{"bike_id":"8c941434-7bbe-479c-a48b-5170f2bc45af","system_id":"levelo_inurba_marseille","lat":43.24564,"lon":5.39537,"is_reserved":false,"is_disabled":false,"rental_uris":{"android":"levelo://app?vid=8c941434-7bbe-479c-a48b-5170f2bc45af","ios":"levelo://app?vid=8c941434-7bbe-479c-a48b-5170f2bc45af"},"vehicle_type_id":"4","last_reported":1774736243,"current_range_meters":8400,"station_id":"ce4bhlp2rcd13ifvqgjg","pricing_plan_id":"cebpf4jnsgd1na2vs0mg"},{"bike_id":"4cf46db2-7e1b-4fcd-adfb-0a41b6955ade","system_id":"levelo_inurba_marseille","lat":43.26579,"lon":5.38998,"is_reserved":false,"is_disabled":false,"rental_uris":{"android":"levelo://app?vid=4cf46db2-7e1b-4fcd-adfb-0a41b6955ade","ios":"levelo://app?vid=4cf46db2-7e1b-4fcd-adfb-0a41b6955ade"},"vehicle_type_id":"4","last_reported":1774736243,"current_range_meters":8400,"station_id":"ce4bhe12rcd13ifvqf30","pricing_plan_id":"cebpf4jnsgd1na2vs0mg"},{"bike_id":"56603236-0b6d-44e6-924a-3489e7c8fead","system_id":"levelo_inurba_marseille","lat":43.25746,"lon":5.38717,"is_reserved":false,"is_disabled":false,"rental_uris":{"android":"levelo://app?vid=56603236-0b6d-44e6-924a-3489e7c8fead","ios":"levelo://app?vid=56603236-0b6d-44e6-924a-3489e7c8fead"},"vehicle_type_id":"4","last_reported":1774736243,"current_range_meters":8400,"station_id":"","pricing_plan_id":"cebpf4jnsgd1na2vs0mg"},{"bike_id":"24354ca8-977a-40de-8074-6ed6ce9549f7","system_id":"levelo_inurba_marseille","lat":43.24954,"lon":5.40481,"is_reserved":false,"is_disabled":false,"rental_uris":{"android":"levelo://app?vid=24354ca8-977a-40de-8074-6ed6ce9549f7","ios":"levelo://app?vid=24354ca8-977a-40de-8074-6ed6ce9549f7"},"vehicle_type_id":"4","last_reported":1774736243,"current_range_meters":8400,"station_id":"st_d2ngiaodas8pm72gd1h0","pricing_plan_id":"cebpf4jnsgd1na2vs0mg"},{"bike_id":"a20860db-5e6f-4257-b103-c77c212b043f","system_id":"levelo_inurba_marseille","lat":43.29795,"lon":5.39332,"is_reserved":false,"is_disabled":true,"rental_uris":{"android":"levelo://app?vid=a20860db-5e6f-4257-b103-c77c212b043f","ios":"levelo://app?vid=a20860db-5e6f-4257-b103-c77c212b043f"},"vehicle_type_id":"4","last_reported":1774736243,"current_range_meters":8400,"station_id":"chh1huq6cuj3fo74tm60","pricing_plan_id":"cebpf4jnsgd1na2vs0mg"},{"bike_id":"65f330fc-13df-46c3-a715-c189354f85cc","system_id":"levelo_inurba_marseille","lat":43.30492,"lon":5.36724,"is_reserved":false,"is_disabled":false,"rental_uris":{"android":"levelo://app?vid=65f330fc-13df-46c3-a715-c189354f85cc","ios":"levelo://app?vid=65f330fc-13df-46c3-a715-c189354f85cc"},"vehicle_type_id":"4","last_reported":1774736243,"current_range_meters":8400,"station_id":"","pricing_plan_id":"cebpf4jnsgd1na2vs0mg"},{"bike_id":"659ccfdf-569f-4f01-84dd-6c9bbfa33ac4","system_id":"levelo_inurba_marseille","lat":43.2378,"lon":5.36626,"is_reserved":false,"is_disabled":false,"rental_uris":{"android":"levelo://app?vid=659ccfdf-569f-4f01-84dd-6c9bbfa33ac4","ios":"levelo://app?vid=659ccfdf-569f-4f01-84dd-6c9bbfa33ac4"},"vehicle_type_id":"4","last_reported":1774736243,"current_range_meters":8400,"station_id":"st_d3nk18o9ro0c73en2l3g","pricing_plan_id":"cebpf4jnsgd1na2vs0mg"},{"bike_id":"6331e265-ff3d-4bb0-928c-a2e7419ad1aa","system_id":"levelo_inurba_marseille","lat":43.29246,"lon":5.40917,"is_reserved":false,"is_disabled":false,"rental_uris":{"android":"levelo://app?vid=6331e265-ff3d-4bb0-928c-a2e7419ad1aa","ios":"levelo://app?vid=6331e265-ff3d-4bb0-928c-a2e7419ad1aa"},"vehicle_type_id":"4","last_reported":1774736243,"current_range_meters":8400,"station_id":"ce4bh192rcd13ifvqdc0","pricing_plan_id":"cebpf4jnsgd1na2vs0mg"},{"bike_id":"2f2b1d2c-1be4-402e-a839-6d84d3bfb79f","system_id":"levelo_inurba_marseille","lat":43.28434,"lon":5.34985,"is_reserved":false,"is_disabled":false,"rental_uris":{"android":"levelo://app?vid=2f2b1d2c-1be4-402e-a839-6d84d3bfb79f","ios":"levelo://app?vid=2f2b1d2c-1be4-402e-a839-6d84d3bfb79f"},"vehicle_type_id":"4","last_reported":1774736243,"current_range_meters":8400,"station_id":"ce4bhbh2rcd13ifvqepg","pricing_plan_id":"cebpf4jnsgd1na2vs0mg"},{"bike_id":"a67fc460-c077-4ade-9390-37cad8d5479c","system_id":"levelo_inurba_marseille","lat":43.21759,"lon":5.34593,"is_reserved":false,"is_disabled":false,"rental_uris":{"android":"levelo://app?vid=a67fc460-c077-4ade-9390-37cad8d5479c","ios":"levelo://app?vid=a67fc460-c077-4ade-9390-37cad8d5479c"},"vehicle_type_id":"4","last_reported":1774736243,"current_range_meters":8400,"station_id":"st_cvj6r9ubvosntc0bgbag","pricing_plan_id":"cebpf4jnsgd1na2vs0mg"},{"bike_id":"5a6e5c84-8876-49f7-9e5a-93cccecfd145","system_id":"levelo_inurba_marseille","lat":43.25084,"lon":5.39516,"is_reserved":false,"is_disabled":false,"rental_uris":{"android":"levelo://app?vid=5a6e5c84-8876-49f7-9e5a-93cccecfd145","ios":"levelo://app?vid=5a6e5c84-8876-49f7-9e5a-93cccecfd145"},"vehicle_type_id":"4","last_reported":1774736243,"current_range_meters":8400,"station_id":"ce4bhm12rcd13ifvqgkg","pricing_plan_id":"cebpf4jnsgd1na2vs0mg"},{"bike_id":"f359c56e-5568-4f21-9bf4-1d2f49c6c6e8","system_id":"levelo_inurba_marseille","lat":43.24076,"lon":5.37766,"is_reserved":false,"is_disabled":false,"rental_uris":{"android":"levelo://app?vid=f359c56e-5568-4f21-9bf4-1d2f49c6c6e8","ios":"levelo://app?vid=f359c56e-5568-4f21-9bf4-1d2f49c6c6e8"},"vehicle_type_id":"4","last_reported":1774736243,"current_range_meters":8800,"station_id":"ce4bhnp2rcd13ifvqgvg","pricing_plan_id":"cebpf4jnsgd1na2vs0mg"},{"bike_id":"4247c776-2951-4741-b1a8-85d5eef00372","system_id":"levelo_inurba_marseille","lat":43.27376,"lon":5.36254,"is_reserved":false,"is_disabled":false,"rental_uris":{"android":"levelo://app?vid=4247c776-2951-4741-b1a8-85d5eef00372","ios":"levelo://app?vid=4247c776-2951-4741-b1a8-85d5eef00372"},"vehicle_type_id":"4","last_reported":1774736243,"current_range_meters":8800,"station_id":"ce4bhbh2rcd13ifvqeo0","pricing_plan_id":"cebpf4jnsgd1na2vs0mg"},{"bike_id":"4a2c0f41-33ad-4d27-89ae-3ec521f606e9","system_id":"levelo_inurba_marseille","lat":43.28408,"lon":5.34993,"is_reserved":false,"is_disabled":false,"rental_uris":{"android":"levelo://app?vid=4a2c0f41-33ad-4d27-89ae-3ec521f606e9","ios":"levelo://app?vid=4a2c0f41-33ad-4d27-89ae-3ec521f606e9"},"vehicle_type_id":"4","last_reported":1774736243,"current_range_meters":8800,"station_id":"ce4bhbh2rcd13ifvqepg","pricing_plan_id":"cebpf4jnsgd1na2vs0mg"},{"bike_id":"0f430097-8d5e-4a5a-9147-4fc5e40a362e","system_id":"levelo_inurba_marseille","lat":43.33548,"lon":5.37455,"is_reserved":false,"is_disabled":false,"rental_uris":{"android":"levelo://app?vid=0f430097-8d5e-4a5a-9147-4fc5e40a362e","ios":"levelo://app?vid=0f430097-8d5e-4a5a-9147-4fc5e40a362e"},"vehicle_type_id":"4","last_reported":1774736243,"current_range_meters":8800,"station_id":"st_d46tts09ee8s73dlu43g","pricing_plan_id":"cebpf4jnsgd1na2vs0mg"},{"bike_id":"dd2afc2a-d3f5-42c3-a3d7-6c4ed376f5b8","system_id":"levelo_inurba_marseille","lat":43.23199,"lon":5.35548,"is_reserved":false,"is_disabled":false,"rental_uris":{"android":"levelo://app?vid=dd2afc2a-d3f5-42c3-a3d7-6c4ed376f5b8","ios":"levelo://app?vid=dd2afc2a-d3f5-42c3-a3d7-6c4ed376f5b8"},"vehicle_type_id":"4","last_reported":1774736243,"current_range_meters":8800,"station_id":"ce4bhu92rcd13ifvqi70","pricing_plan_id":"cebpf4jnsgd1na2vs0mg"},{"bike_id":"54ea3d34-d79a-4ab1-886f-1335ba6b438a","system_id":"levelo_inurba_marseille","lat":43.30162,"lon":5.38105,"is_reserved":false,"is_disabled":true,"rental_uris":{"android":"levelo://app?vid=54ea3d34-d79a-4ab1-886f-1335ba6b438a","ios":"levelo://app?vid=54ea3d34-d79a-4ab1-886f-1335ba6b438a"},"vehicle_type_id":"4","last_reported":1774736243,"current_range_meters":8800,"station_id":"ce4bgjp2rcd13ifvqbh0","pricing_plan_id":"cebpf4jnsgd1na2vs0mg"},{"bike_id":"7f2cb8cc-70fa-418b-8121-6ae7362518b8","system_id":"levelo_inurba_marseille","lat":43.29041,"lon":5.38627,"is_reserved":false,"is_disabled":false,"rental_uris":{"android":"levelo://app?vid=7f2cb8cc-70fa-418b-8121-6ae7362518b8","ios":"levelo://app?vid=7f2cb8cc-70fa-418b-8121-6ae7362518b8"},"vehicle_type_id":"4","last_reported":1774736243,"current_range_meters":8800,"station_id":"ce4bh4p2rcd13ifvqe0g","pricing_plan_id":"cebpf4jnsgd1na2vs0mg"},{"bike_id":"921a058a-e236-4a8f-81d9-6ffa8a205156","system_id":"levelo_inurba_marseille","lat":43.29034,"lon":5.38643,"is_reserved":false,"is_disabled":false,"rental_uris":{"android":"levelo://app?vid=921a058a-e236-4a8f-81d9-6ffa8a205156","ios":"levelo://app?vid=921a058a-e236-4a8f-81d9-6ffa8a205156"},"vehicle_type_id":"4","last_reported":1774736243,"current_range_meters":8800,"station_id":"ce4bh4p2rcd13ifvqe0g","pricing_plan_id":"cebpf4jnsgd1na2vs0mg"},{"bike_id":"d9275995-6199-47cd-9641-416f87712e15","system_id":"levelo_inurba_marseille","lat":43.23786,"lon":5.36624,"is_reserved":false,"is_disabled":false,"rental_uris":{"android":"levelo://app?vid=d9275995-6199-47cd-9641-416f87712e15","ios":"levelo://app?vid=d9275995-6199-47cd-9641-416f87712e15"},"vehicle_type_id":"4","last_reported":1774736243,"current_range_meters":8800,"station_id":"st_d3nk18o9ro0c73en2l3g","pricing_plan_id":"cebpf4jnsgd1na2vs0mg"},{"bike_id":"9abc717d-eb31-4ba7-a689-16004b888886","system_id":"levelo_inurba_marseille","lat":43.28986,"lon":5.37842,"is_reserved":false,"is_disabled":false,"rental_uris":{"android":"levelo://app?vid=9abc717d-eb31-4ba7-a689-16004b888886","ios":"levelo://app?vid=9abc717d-eb31-4ba7-a689-16004b888886"},"vehicle_type_id":"4","last_reported":1774736243,"current_range_meters":8800,"station_id":"ce4bh9p2rcd13ifvqed0","pricing_plan_id":"cebpf4jnsgd1na2vs0mg"},{"bike_id":"3f200426-1eba-4d5e-acb1-a1a43666133b","system_id":"levelo_inurba_marseille","lat":43.21181,"lon":5.35084,"is_reserved":false,"is_disabled":false,"rental_uris":{"android":"levelo://app?vid=3f200426-1eba-4d5e-acb1-a1a43666133b","ios":"levelo://app?vid=3f200426-1eba-4d5e-acb1-a1a43666133b"},"vehicle_type_id":"4","last_reported":1774736243,"current_range_meters":8800,"station_id":"st_cvj6sg6p6f1abm77japg","pricing_plan_id":"cebpf4jnsgd1na2vs0mg"},{"bike_id":"1961bb3e-d5c8-4c76-b4b1-96f51bad8908","system_id":"levelo_inurba_marseille","lat":43.26569,"lon":5.37285,"is_reserved":false,"is_disabled":false,"rental_uris":{"android":"levelo://app?vid=1961bb3e-d5c8-4c76-b4b1-96f51bad8908","ios":"levelo://app?vid=1961bb3e-d5c8-4c76-b4b1-96f51bad8908"},"vehicle_type_id":"4","last_reported":1774736243,"current_range_meters":8800,"station_id":"ce4bhg12rcd13ifvqf70","pricing_plan_id":"cebpf4jnsgd1na2vs0mg"},{"bike_id":"f4d3e11e-69a9-4a83-a09a-831756173891","system_id":"levelo_inurba_marseille","lat":43.30894,"lon":5.39635,"is_reserved":false,"is_disabled":false,"rental_uris":{"android":"levelo://app?vid=f4d3e11e-69a9-4a83-a09a-831756173891","ios":"levelo://app?vid=f4d3e11e-69a9-4a83-a09a-831756173891"},"vehicle_type_id":"4","last_reported":1774736243,"current_range_meters":8800,"station_id":"ce4bh012rcd13ifvqcv0","pricing_plan_id":"cebpf4jnsgd1na2vs0mg"},{"bike_id":"8c1c6cf7-0f77-485a-afba-b9658aaf4118","system_id":"levelo_inurba_marseille","lat":43.28925,"lon":5.38422,"is_reserved":false,"is_disabled":false,"rental_uris":{"android":"levelo://app?vid=8c1c6cf7-0f77-485a-afba-b9658aaf4118","ios":"levelo://app?vid=8c1c6cf7-0f77-485a-afba-b9658aaf4118"},"vehicle_type_id":"4","last_reported":1774736243,"current_range_meters":8800,"station_id":"ce4bh612rcd13ifvqe6g","pricing_plan_id":"cebpf4jnsgd1na2vs0mg"},{"bike_id":"2d0fdc3d-338a-4727-826c-caea44a0cbfa","system_id":"levelo_inurba_marseille","lat":43.29811,"lon":5.44055,"is_reserved":false,"is_disabled":false,"rental_uris":{"android":"levelo://app?vid=2d0fdc3d-338a-4727-826c-caea44a0cbfa","ios":"levelo://app?vid=2d0fdc3d-338a-4727-826c-caea44a0cbfa"},"vehicle_type_id":"4","last_reported":1774736243,"current_range_meters":8800,"station_id":"st_d3jp68qikq2c7381ktn0","pricing_plan_id":"cebpf4jnsgd1na2vs0mg"},{"bike_id":"90aaae4f-4bea-44a9-9991-726dd88eccf2","system_id":"levelo_inurba_marseille","lat":43.2338,"lon":5.41233,"is_reserved":false,"is_disabled":true,"rental_uris":{"android":"levelo://app?vid=90aaae4f-4bea-44a9-9991-726dd88eccf2","ios":"levelo://app?vid=90aaae4f-4bea-44a9-9991-726dd88eccf2"},"vehicle_type_id":"4","last_reported":1774736243,"current_range_meters":8800,"station_id":"","pricing_plan_id":"cebpf4jnsgd1na2vs0mg"},{"bike_id":"c609aa61-79d9-47bd-b7b7-62d640d7b9ef","system_id":"levelo_inurba_marseille","lat":43.26543,"lon":5.37294,"is_reserved":false,"is_disabled":true,"rental_uris":{"android":"levelo://app?vid=c609aa61-79d9-47bd-b7b7-62d640d7b9ef","ios":"levelo://app?vid=c609aa61-79d9-47bd-b7b7-62d640d7b9ef"},"vehicle_type_id":"4","last_reported":1774736243,"current_range_meters":8800,"station_id":"ce4bhg12rcd13ifvqf70","pricing_plan_id":"cebpf4jnsgd1na2vs0mg"},{"bike_id":"a739175e-16e1-4a15-a74c-b5a3add56728","system_id":"levelo_inurba_marseille","lat":43.317423,"lon":5.423981,"is_reserved":false,"is_disabled":false,"rental_uris":{"android":"levelo://app?vid=a739175e-16e1-4a15-a74c-b5a3add56728","ios":"levelo://app?vid=a739175e-16e1-4a15-a74c-b5a3add56728"},"vehicle_type_id":"4","last_reported":1774736243,"current_range_meters":8800,"station_id":"ce4bhp92rcd13ifvqhbg","pricing_plan_id":"cebpf4jnsgd1na2vs0mg"},{"bike_id":"5dc7a0c1-467a-4151-97ef-a8a655c4f7a5","system_id":"levelo_inurba_marseille","lat":43.2848,"lon":5.48388,"is_reserved":false,"is_disabled":false,"rental_uris":{"android":"levelo://app?vid=5dc7a0c1-467a-4151-97ef-a8a655c4f7a5","ios":"levelo://app?vid=5dc7a0c1-467a-4151-97ef-a8a655c4f7a5"},"vehicle_type_id":"4","last_reported":1774736243,"current_range_meters":8800,"station_id":"","pricing_plan_id":"cebpf4jnsgd1na2vs0mg"},{"bike_id":"b8bf157e-659b-4230-b7a5-7abce9abcca2","system_id":"levelo_inurba_marseille","lat":43.24667,"lon":5.38171,"is_reserved":false,"is_disabled":false,"rental_uris":{"android":"levelo://app?vid=b8bf157e-659b-4230-b7a5-7abce9abcca2","ios":"levelo://app?vid=b8bf157e-659b-4230-b7a5-7abce9abcca2"},"vehicle_type_id":"4","last_reported":1774736243,"current_range_meters":8800,"station_id":"ce4bhih2rcd13ifvqfr0","pricing_plan_id":"cebpf4jnsgd1na2vs0mg"},{"bike_id":"ffbbe2a9-7484-4d0d-b2fd-42cde22f05be","system_id":"levelo_inurba_marseille","lat":43.2551,"lon":5.37649,"is_reserved":false,"is_disabled":false,"rental_uris":{"android":"levelo://app?vid=ffbbe2a9-7484-4d0d-b2fd-42cde22f05be","ios":"levelo://app?vid=ffbbe2a9-7484-4d0d-b2fd-42cde22f05be"},"vehicle_type_id":"4","last_reported":1774736243,"current_range_meters":8800,"station_id":"ce4bhh12rcd13ifvqff0","pricing_plan_id":"cebpf4jnsgd1na2vs0mg"},{"bike_id":"6cd08817-61b4-4fc1-aeda-8267dd2c4320","system_id":"levelo_inurba_marseille","lat":43.28528,"lon":5.44104,"is_reserved":false,"is_disabled":false,"rental_uris":{"android":"levelo://app?vid=6cd08817-61b4-4fc1-aeda-8267dd2c4320","ios":"levelo://app?vid=6cd08817-61b4-4fc1-aeda-8267dd2c4320"},"vehicle_type_id":"4","last_reported":1774736243,"current_range_meters":8800,"station_id":"st_d3j3df2ikq2c7380ej80","pricing_plan_id":"cebpf4jnsgd1na2vs0mg"},{"bike_id":"c21db2bd-cbeb-4388-9b57-9b4bb729632d","system_id":"levelo_inurba_marseille","lat":43.31111,"lon":5.37761,"is_reserved":false,"is_disabled":false,"rental_uris":{"android":"levelo://app?vid=c21db2bd-cbeb-4388-9b57-9b4bb729632d","ios":"levelo://app?vid=c21db2bd-cbeb-4388-9b57-9b4bb729632d"},"vehicle_type_id":"4","last_reported":1774736243,"current_range_meters":8800,"station_id":"ce4bgt92rcd13ifvqcg0","pricing_plan_id":"cebpf4jnsgd1na2vs0mg"},{"bike_id":"2247c142-8488-4aa8-b197-8b04116eaa9f","system_id":"levelo_inurba_marseille","lat":43.29034,"lon":5.3997,"is_reserved":false,"is_disabled":false,"rental_uris":{"android":"levelo://app?vid=2247c142-8488-4aa8-b197-8b04116eaa9f","ios":"levelo://app?vid=2247c142-8488-4aa8-b197-8b04116eaa9f"},"vehicle_type_id":"4","last_reported":1774736243,"current_range_meters":8800,"station_id":"ce4bh392rcd13ifvqdm0","pricing_plan_id":"cebpf4jnsgd1na2vs0mg"},{"bike_id":"56ed71d3-4f24-4bcb-9e63-f10b7aa4866e","system_id":"levelo_inurba_marseille","lat":43.28411,"lon":5.34983,"is_reserved":false,"is_disabled":false,"rental_uris":{"android":"levelo://app?vid=56ed71d3-4f24-4bcb-9e63-f10b7aa4866e","ios":"levelo://app?vid=56ed71d3-4f24-4bcb-9e63-f10b7aa4866e"},"vehicle_type_id":"4","last_reported":1774736243,"current_range_meters":8800,"station_id":"ce4bhbh2rcd13ifvqepg","pricing_plan_id":"cebpf4jnsgd1na2vs0mg"},{"bike_id":"54bbcc32-73c9-46d4-85f2-87bba4363815","system_id":"levelo_inurba_marseille","lat":43.29035,"lon":5.38637,"is_reserved":false,"is_disabled":false,"rental_uris":{"android":"levelo://app?vid=54bbcc32-73c9-46d4-85f2-87bba4363815","ios":"levelo://app?vid=54bbcc32-73c9-46d4-85f2-87bba4363815"},"vehicle_type_id":"4","last_reported":1774736243,"current_range_meters":8800,"station_id":"ce4bh4p2rcd13ifvqe0g","pricing_plan_id":"cebpf4jnsgd1na2vs0mg"},{"bike_id":"c36307c2-9d67-442b-891a-88cbda3d03e9","system_id":"levelo_inurba_marseille","lat":43.29106,"lon":5.38124,"is_reserved":false,"is_disabled":false,"rental_uris":{"android":"levelo://app?vid=c36307c2-9d67-442b-891a-88cbda3d03e9","ios":"levelo://app?vid=c36307c2-9d67-442b-891a-88cbda3d03e9"},"vehicle_type_id":"4","last_reported":1774736243,"current_range_meters":8800,"station_id":"ce4bh512rcd13ifvqe2g","pricing_plan_id":"cebpf4jnsgd1na2vs0mg"},{"bike_id":"4c9a3293-f2c3-4e99-b5e1-94195ca699a4","system_id":"levelo_inurba_marseille","lat":43.28535,"lon":5.44098,"is_reserved":false,"is_disabled":false,"rental_uris":{"android":"levelo://app?vid=4c9a3293-f2c3-4e99-b5e1-94195ca699a4","ios":"levelo://app?vid=4c9a3293-f2c3-4e99-b5e1-94195ca699a4"},"vehicle_type_id":"4","last_reported":1774736243,"current_range_meters":8800,"station_id":"st_d3j3df2ikq2c7380ej80","pricing_plan_id":"cebpf4jnsgd1na2vs0mg"},{"bike_id":"f4742709-1f9a-4206-be0c-240532515c88","system_id":"levelo_inurba_marseille","lat":43.27196,"lon":5.3917,"is_reserved":false,"is_disabled":false,"rental_uris":{"android":"levelo://app?vid=f4742709-1f9a-4206-be0c-240532515c88","ios":"levelo://app?vid=f4742709-1f9a-4206-be0c-240532515c88"},"vehicle_type_id":"4","last_reported":1774736243,"current_range_meters":8800,"station_id":"ce4bhhp2rcd13ifvqfm0","pricing_plan_id":"cebpf4jnsgd1na2vs0mg"},{"bike_id":"c2c2fdc2-88a9-4727-9a80-676fa95d9041","system_id":"levelo_inurba_marseille","lat":43.30531,"lon":5.36686,"is_reserved":false,"is_disabled":false,"rental_uris":{"android":"levelo://app?vid=c2c2fdc2-88a9-4727-9a80-676fa95d9041","ios":"levelo://app?vid=c2c2fdc2-88a9-4727-9a80-676fa95d9041"},"vehicle_type_id":"4","last_reported":1774736243,"current_range_meters":9200,"station_id":"ce4bgrp2rcd13ifvqc9g","pricing_plan_id":"cebpf4jnsgd1na2vs0mg"},{"bike_id":"2934d88c-6221-44dd-bee3-989a0775ea80","system_id":"levelo_inurba_marseille","lat":43.31034,"lon":5.37193,"is_reserved":false,"is_disabled":false,"rental_uris":{"android":"levelo://app?vid=2934d88c-6221-44dd-bee3-989a0775ea80","ios":"levelo://app?vid=2934d88c-6221-44dd-bee3-989a0775ea80"},"vehicle_type_id":"4","last_reported":1774736243,"current_range_meters":9200,"station_id":"st_d4kl2rp97mjs73e7tdfg","pricing_plan_id":"cebpf4jnsgd1na2vs0mg"},{"bike_id":"2de38fd0-4d56-4129-8633-4ee1741a5e1b","system_id":"levelo_inurba_marseille","lat":43.21194,"lon":5.35065,"is_reserved":false,"is_disabled":false,"rental_uris":{"android":"levelo://app?vid=2de38fd0-4d56-4129-8633-4ee1741a5e1b","ios":"levelo://app?vid=2de38fd0-4d56-4129-8633-4ee1741a5e1b"},"vehicle_type_id":"4","last_reported":1774736243,"current_range_meters":9200,"station_id":"st_cvj6sg6p6f1abm77japg","pricing_plan_id":"cebpf4jnsgd1na2vs0mg"},{"bike_id":"9b7a8c18-588c-4c06-8362-971e14801815","system_id":"levelo_inurba_marseille","lat":43.28707,"lon":5.39992,"is_reserved":false,"is_disabled":false,"rental_uris":{"android":"levelo://app?vid=9b7a8c18-588c-4c06-8362-971e14801815","ios":"levelo://app?vid=9b7a8c18-588c-4c06-8362-971e14801815"},"vehicle_type_id":"4","last_reported":1774736243,"current_range_meters":9200,"station_id":"ce4bho92rcd13ifvqh3g","pricing_plan_id":"cebpf4jnsgd1na2vs0mg"},{"bike_id":"32a7a92c-b34f-4be3-bc6d-bf21d2e60027","system_id":"levelo_inurba_marseille","lat":43.32735,"lon":5.36679,"is_reserved":false,"is_disabled":true,"rental_uris":{"android":"levelo://app?vid=32a7a92c-b34f-4be3-bc6d-bf21d2e60027","ios":"levelo://app?vid=32a7a92c-b34f-4be3-bc6d-bf21d2e60027"},"vehicle_type_id":"4","last_reported":1774736243,"current_range_meters":9200,"station_id":"","pricing_plan_id":"cebpf4jnsgd1na2vs0mg"},{"bike_id":"baf7c004-e890-47af-ba3f-3dcb4a5e4db3","system_id":"levelo_inurba_marseille","lat":43.2466,"lon":5.38891,"is_reserved":false,"is_disabled":false,"rental_uris":{"android":"levelo://app?vid=baf7c004-e890-47af-ba3f-3dcb4a5e4db3","ios":"levelo://app?vid=baf7c004-e890-47af-ba3f-3dcb4a5e4db3"},"vehicle_type_id":"4","last_reported":1774736243,"current_range_meters":9200,"station_id":"ce4bhg12rcd13ifvqf60","pricing_plan_id":"cebpf4jnsgd1na2vs0mg"},{"bike_id":"25a215c0-6185-4988-a946-459e463e94c2","system_id":"levelo_inurba_marseille","lat":43.28617,"lon":5.35093,"is_reserved":false,"is_disabled":false,"rental_uris":{"android":"levelo://app?vid=25a215c0-6185-4988-a946-459e463e94c2","ios":"levelo://app?vid=25a215c0-6185-4988-a946-459e463e94c2"},"vehicle_type_id":"4","last_reported":1774736243,"current_range_meters":9200,"station_id":"ce4bhch2rcd13ifvqeug","pricing_plan_id":"cebpf4jnsgd1na2vs0mg"},{"bike_id":"92f129d5-63d3-4317-9a72-7fcbca663618","system_id":"levelo_inurba_marseille","lat":43.30322,"lon":5.40427,"is_reserved":false,"is_disabled":false,"rental_uris":{"android":"levelo://app?vid=92f129d5-63d3-4317-9a72-7fcbca663618","ios":"levelo://app?vid=92f129d5-63d3-4317-9a72-7fcbca663618"},"vehicle_type_id":"4","last_reported":1774736243,"current_range_meters":9200,"station_id":"ce4bh012rcd13ifvqd10","pricing_plan_id":"cebpf4jnsgd1na2vs0mg"},{"bike_id":"8f3f698c-46a4-4821-8400-160b87834396","system_id":"levelo_inurba_marseille","lat":43.23207,"lon":5.35544,"is_reserved":false,"is_disabled":false,"rental_uris":{"android":"levelo://app?vid=8f3f698c-46a4-4821-8400-160b87834396","ios":"levelo://app?vid=8f3f698c-46a4-4821-8400-160b87834396"},"vehicle_type_id":"4","last_reported":1774736243,"current_range_meters":9200,"station_id":"ce4bhu92rcd13ifvqi70","pricing_plan_id":"cebpf4jnsgd1na2vs0mg"},{"bike_id":"831afe97-5b46-40a3-b3a8-9267430cd93d","system_id":"levelo_inurba_marseille","lat":43.22931,"lon":5.35379,"is_reserved":false,"is_disabled":false,"rental_uris":{"android":"levelo://app?vid=831afe97-5b46-40a3-b3a8-9267430cd93d","ios":"levelo://app?vid=831afe97-5b46-40a3-b3a8-9267430cd93d"},"vehicle_type_id":"4","last_reported":1774736243,"current_range_meters":9200,"station_id":"cpo3532slgdg3j2ikp40","pricing_plan_id":"cebpf4jnsgd1na2vs0mg"},{"bike_id":"92e631e0-5692-4b22-ab59-6f529519fcde","system_id":"levelo_inurba_marseille","lat":43.29029,"lon":5.38639,"is_reserved":false,"is_disabled":false,"rental_uris":{"android":"levelo://app?vid=92e631e0-5692-4b22-ab59-6f529519fcde","ios":"levelo://app?vid=92e631e0-5692-4b22-ab59-6f529519fcde"},"vehicle_type_id":"4","last_reported":1774736243,"current_range_meters":9200,"station_id":"ce4bh4p2rcd13ifvqe0g","pricing_plan_id":"cebpf4jnsgd1na2vs0mg"},{"bike_id":"e20ac608-d21b-4f4e-b648-b5a261d2f29e","system_id":"levelo_inurba_marseille","lat":43.25064,"lon":5.40405,"is_reserved":false,"is_disabled":false,"rental_uris":{"android":"levelo://app?vid=e20ac608-d21b-4f4e-b648-b5a261d2f29e","ios":"levelo://app?vid=e20ac608-d21b-4f4e-b648-b5a261d2f29e"},"vehicle_type_id":"4","last_reported":1774736243,"current_range_meters":9200,"station_id":"","pricing_plan_id":"cebpf4jnsgd1na2vs0mg"},{"bike_id":"1b3b02ef-6c17-4c6d-b4fc-1610425e9856","system_id":"levelo_inurba_marseille","lat":43.24803,"lon":5.37452,"is_reserved":false,"is_disabled":false,"rental_uris":{"android":"levelo://app?vid=1b3b02ef-6c17-4c6d-b4fc-1610425e9856","ios":"levelo://app?vid=1b3b02ef-6c17-4c6d-b4fc-1610425e9856"},"vehicle_type_id":"4","last_reported":1774736243,"current_range_meters":9200,"station_id":"ce4bhgh2rcd13ifvqfb0","pricing_plan_id":"cebpf4jnsgd1na2vs0mg"},{"bike_id":"0b65a916-8cef-4651-900b-b2155a488b12","system_id":"levelo_inurba_marseille","lat":43.27495,"lon":5.41588,"is_reserved":false,"is_disabled":false,"rental_uris":{"android":"levelo://app?vid=0b65a916-8cef-4651-900b-b2155a488b12","ios":"levelo://app?vid=0b65a916-8cef-4651-900b-b2155a488b12"},"vehicle_type_id":"4","last_reported":1774736243,"current_range_meters":9600,"station_id":"st_d6im8g6chgec73a5pndg","pricing_plan_id":"cebpf4jnsgd1na2vs0mg"},{"bike_id":"aeca9453-ce08-40c1-8c68-c50a96f12fa4","system_id":"levelo_inurba_marseille","lat":43.28608,"lon":5.35115,"is_reserved":false,"is_disabled":false,"rental_uris":{"android":"levelo://app?vid=aeca9453-ce08-40c1-8c68-c50a96f12fa4","ios":"levelo://app?vid=aeca9453-ce08-40c1-8c68-c50a96f12fa4"},"vehicle_type_id":"4","last_reported":1774736243,"current_range_meters":9600,"station_id":"ce4bhch2rcd13ifvqeug","pricing_plan_id":"cebpf4jnsgd1na2vs0mg"},{"bike_id":"b236f643-53ba-43fa-b29d-c90773116eb2","system_id":"levelo_inurba_marseille","lat":43.24455,"lon":5.42534,"is_reserved":false,"is_disabled":false,"rental_uris":{"android":"levelo://app?vid=b236f643-53ba-43fa-b29d-c90773116eb2","ios":"levelo://app?vid=b236f643-53ba-43fa-b29d-c90773116eb2"},"vehicle_type_id":"4","last_reported":1774736243,"current_range_meters":9600,"station_id":"st_d4a3vfp97mjs738cd8kg","pricing_plan_id":"cebpf4jnsgd1na2vs0mg"},{"bike_id":"8ebdddeb-65fa-4a6a-a7a1-243a6f4f1f0d","system_id":"levelo_inurba_marseille","lat":43.30417,"lon":5.39741,"is_reserved":false,"is_disabled":true,"rental_uris":{"android":"levelo://app?vid=8ebdddeb-65fa-4a6a-a7a1-243a6f4f1f0d","ios":"levelo://app?vid=8ebdddeb-65fa-4a6a-a7a1-243a6f4f1f0d"},"vehicle_type_id":"4","last_reported":1774736243,"current_range_meters":9600,"station_id":"ce4bh092rcd13ifvqd20","pricing_plan_id":"cebpf4jnsgd1na2vs0mg"},{"bike_id":"48c12b74-6f3a-40a8-94b3-e62be28f6fcf","system_id":"levelo_inurba_marseille","lat":43.32371,"lon":5.36744,"is_reserved":false,"is_disabled":false,"rental_uris":{"android":"levelo://app?vid=48c12b74-6f3a-40a8-94b3-e62be28f6fcf","ios":"levelo://app?vid=48c12b74-6f3a-40a8-94b3-e62be28f6fcf"},"vehicle_type_id":"4","last_reported":1774736243,"current_range_meters":9600,"station_id":"ce4bhsh2rcd13ifvqi2g","pricing_plan_id":"cebpf4jnsgd1na2vs0mg"},{"bike_id":"7f4a9e02-b53b-41d5-b65e-ebf80553ca14","system_id":"levelo_inurba_marseille","lat":43.24467,"lon":5.42526,"is_reserved":false,"is_disabled":false,"rental_uris":{"android":"levelo://app?vid=7f4a9e02-b53b-41d5-b65e-ebf80553ca14","ios":"levelo://app?vid=7f4a9e02-b53b-41d5-b65e-ebf80553ca14"},"vehicle_type_id":"4","last_reported":1774736243,"current_range_meters":9600,"station_id":"st_d4a3vfp97mjs738cd8kg","pricing_plan_id":"cebpf4jnsgd1na2vs0mg"},{"bike_id":"4b55d61a-a3f8-45d4-bf22-dc237c34bca5","system_id":"levelo_inurba_marseille","lat":43.31052,"lon":5.37162,"is_reserved":false,"is_disabled":false,"rental_uris":{"android":"levelo://app?vid=4b55d61a-a3f8-45d4-bf22-dc237c34bca5","ios":"levelo://app?vid=4b55d61a-a3f8-45d4-bf22-dc237c34bca5"},"vehicle_type_id":"4","last_reported":1774736243,"current_range_meters":9600,"station_id":"st_d4kl2rp97mjs73e7tdfg","pricing_plan_id":"cebpf4jnsgd1na2vs0mg"},