{"last_updated":1701961670,"ttl":30,"version":"2.2","data":{"bikes":[{"bike_id":"77a9c507-f035-4328-80ab-b86c0994618c","system_id":"levelo_inurba_marseille","lat":43.314811,"lon":5.373103,"is_reserved":false,"is_disabled":false,"rental_uris":{"android":"levelo://app?vid=77a9c507-f035-4328-80ab-b86c0994618c","ios":"levelo://app?vid=77a9c507-f035-4328-80ab-b86c0994618c"},"vehicle_type_id":"4","last_reported":1701961670,"current_range_meters":16800,"station_id":"ce4bgt12rcd13ifvqcd0","pricing_plan_id":"free"},{"bike_id":"97de2634-d452-4eb9-b68d-e555c3135454","system_id":"levelo_inurba_marseille","lat":43.314811,"lon":5.373103,"is_reserved":false,"is_disabled":false,"rental_uris":{"android":"levelo://app?vid=97de2634-d452-4eb9-b68d-e555c3135454","ios":"levelo://app?vid=97de2634-d452-4eb9-b68d-e555c3135454"},"vehicle_type_id":"4","last_reported":1701961670,"current_range_meters":26800,"station_id":"ce4bgt12rcd13ifvqcd0","pricing_plan_id":"free"},{"bike_id":"a1c30a4a-8044-492d-85ae-53751a75c0ab","system_id":"levelo_inurba_marseille","lat":43.305714,"lon":5.365633,"is_reserved":false,"is_disabled":false,"rental_uris":{"android":"levelo://app?vid=a1c30a4a-8044-492d-85ae-53751a75c0ab","ios":"levelo://app?vid=a1c30a4a-8044-492d-85ae-53751a75c0ab"},"vehicle_type_id":"4","last_reported":1701961670,"current_range_meters":16400,"station_id":"ce4bgs12rcd13ifvqcag","pricing_plan_id":"free"},{"bike_id":"37f1718e-a884-438e-97c5-118a81941313","system_id":"levelo_inurba_marseille","lat":43.305989,"lon":5.37225,"is_reserved":false,"is_disabled":false,"rental_uris":{"android":"levelo://app?vid=37f1718e-a884-438e-97c5-118a81941313","ios":"levelo://app?vid=37f1718e-a884-438e-97c5-118a81941313"},"vehicle_type_id":"4","last_reported":1701961670,"current_range_meters":27200,"station_id":"ce4bgqh2rcd13ifvqc4g","pricing_plan_id":"free"},{"bike_id":"c8d0dc5f-2be5-413e-a638-0c096eb6755a","system_id":"levelo_inurba_marseille","lat":43.305989,"lon":5.37225,"is_reserved":false,"is_disabled":false,"rental_uris":{"android":"levelo://app?vid=c8d0dc5f-2be5-413e-a638-0c096eb6755a","ios":"levelo://app?vid=c8d0dc5f-2be5-413e-a638-0c096eb6755a"},"vehicle_type_id":"4","last_reported":1701961670,"current_range_meters":8400,"station_id":"ce4bgqh2rcd13ifvqc4g","pricing_plan_id":"free"},{"bike_id":"486fd22e-bd18-4212-86d8-015bd78b890b","system_id":"levelo_inurba_marseille","lat":43.305989,"lon":5.37225,"is_reserved":false,"is_disabled":false,"rental_uris":{"android":"levelo://app?vid=486fd22e-bd18-4212-86d8-015bd78b890b","ios":"levelo://app?vid=486fd22e-bd18-4212-86d8-015bd78b890b"},"vehicle_type_id":"4","last_reported":1701961670,"current_range_meters":30800,"station_id":"ce4bgqh2rcd13ifvqc4g","pricing_plan_id":"free"},{"bike_id":"a85dd983-6d04-4bab-9091-008ec543775c","system_id":"levelo_inurba_marseille","lat":43.305989,"lon":5.37225,"is_reserved":false,"is_disabled":false,"rental_uris":{"android":"levelo://app?vid=a85dd983-6d04-4bab-9091-008ec543775c","ios":"levelo://app?vid=a85dd983-6d04-4bab-9091-008ec543775c"},"vehicle_type_id":"4","last_reported":1701961670,"current_range_meters":20800,"station_id":"ce4bgqh2rcd13ifvqc4g","pricing_plan_id":"free"},{"bike_id":"a7cf8d45-81d3-4b6a-8c70-ae3d8ac1f47d","system_id":"levelo_inurba_marseille","lat":43.311131,"lon":5.377651,"is_reserved":false,"is_disabled":false,"rental_uris":{"android":"levelo://app?vid=a7cf8d45-81d3-4b6a-8c70-ae3d8ac1f47d","ios":"levelo://app?vid=a7cf8d45-81d3-4b6a-8c70-ae3d8ac1f47d"},"vehicle_type_id":"4","last_reported":1701961670,"current_range_meters":21200,"station_id":"ce4bgt92rcd13ifvqcg0","pricing_plan_id":"free"},{"bike_id":"75c28cce-07a7-449d-b48a-e9aaeb9b2e7e","system_id":"levelo_inurba_marseille","lat":43.31125,"lon":5.37794,"is_reserved":false,"is_disabled":false,"rental_uris":{"android":"levelo://app?vid=75c28cce-07a7-449d-b48a-e9aaeb9b2e7e","ios":"levelo://app?vid=75c28cce-07a7-449d-b48a-e9aaeb9b2e7e"},"vehicle_type_id":"4","last_reported":1701961670,"current_range_meters":12000,"station_id":"ce4bgt92rcd13ifvqcg0","pricing_plan_id":"free"},{"bike_id":"e6af16ed-a41c-4e0e-a4d7-e642d9829198","system_id":"levelo_inurba_marseille","lat":43.307945,"lon":5.376487,"is_reserved":false,"is_disabled":false,"rental_uris":{"android":"levelo://app?vid=e6af16ed-a41c-4e0e-a4d7-e642d9829198","ios":"levelo://app?vid=e6af16ed-a41c-4e0e-a4d7-e642d9829198"},"vehicle_type_id":"4","last_reported":1701961670,"current_range_meters":26800,"station_id":"ce4bgv92rcd13ifvqcq0","pricing_plan_id":"free"},{"bike_id":"52ad1926-3e70-4aef-b245-0ca657d243f5","system_id":"levelo_inurba_marseille","lat":43.317075,"lon":5.377367,"is_reserved":false,"is_disabled":false,"rental_uris":{"android":"levelo://app?vid=52ad1926-3e70-4aef-b245-0ca657d243f5","ios":"levelo://app?vid=52ad1926-3e70-4aef-b245-0ca657d243f5"},"vehicle_type_id":"4","last_reported":1701961670,"current_range_meters":29200,"station_id":"ce4bgth2rcd13ifvqch0","pricing_plan_id":"free"},{"bike_id":"adf146c5-e4e1-4668-9a33-042940925130","system_id":"levelo_inurba_marseille","lat":43.31351,"lon":5.37909,"is_reserved":false,"is_disabled":false,"rental_uris":{"android":"levelo://app?vid=adf146c5-e4e1-4668-9a33-042940925130","ios":"levelo://app?vid=adf146c5-e4e1-4668-9a33-042940925130"},"vehicle_type_id":"4","last_reported":1701961670,"current_range_meters":2000,"station_id":"","pricing_plan_id":"free"},{"bike_id":"d16106e1-12d5-4916-9109-1e123864d0b1","system_id":"levelo_inurba_marseille","lat":43.303046,"lon":5.368981,"is_reserved":false,"is_disabled":false,"rental_uris":{"android":"levelo://app?vid=d16106e1-12d5-4916-9109-1e123864d0b1","ios":"levelo://app?vid=d16106e1-12d5-4916-9109-1e123864d0b1"},"vehicle_type_id":"4","last_reported":1701961670,"current_range_meters":19200,"station_id":"ce4bgqh2rcd13ifvqc5g","pricing_plan_id":"free"},{"bike_id":"6e2152a1-033d-4716-8771-b5f01727caaf","system_id":"levelo_inurba_marseille","lat":43.303046,"lon":5.368981,"is_reserved":false,"is_disabled":false,"rental_uris":{"android":"levelo://app?vid=6e2152a1-033d-4716-8771-b5f01727caaf","ios":"levelo://app?vid=6e2152a1-033d-4716-8771-b5f01727caaf"},"vehicle_type_id":"4","last_reported":1701961670,"current_range_meters":22800,"station_id":"ce4bgqh2rcd13ifvqc5g","pricing_plan_id":"free"},{"bike_id":"aa87d3fc-96c0-4f39-acbf-b68520008766","system_id":"levelo_inurba_marseille","lat":43.30304,"lon":5.368987,"is_reserved":false,"is_disabled":false,"rental_uris":{"android":"levelo://app?vid=aa87d3fc-96c0-4f39-acbf-b68520008766","ios":"levelo://app?vid=aa87d3fc-96c0-4f39-acbf-b68520008766"},"vehicle_type_id":"4","last_reported":1701961670,"current_range_meters":24000,"station_id":"ce4bgqh2rcd13ifvqc5g","pricing_plan_id":"free"},{"bike_id":"74a6bbbe-627d-4676-b75c-b26afc7ae080","system_id":"levelo_inurba_marseille","lat":43.30188,"lon":5.36623,"is_reserved":false,"is_disabled":false,"rental_uris":{"android":"levelo://app?vid=74a6bbbe-627d-4676-b75c-b26afc7ae080","ios":"levelo://app?vid=74a6bbbe-627d-4676-b75c-b26afc7ae080"},"vehicle_type_id":"4","last_reported":1701961670,"current_range_meters":18800,"station_id":"ce4bgrh2rcd13ifvqc8g","pricing_plan_id":"free"},{"bike_id":"7cc31099-9fa6-425f-ba51-43756af9289c","system_id":"levelo_inurba_marseille","lat":43.301846,"lon":5.366234,"is_reserved":false,"is_disabled":false,"rental_uris":{"android":"levelo://app?vid=7cc31099-9fa6-425f-ba51-43756af9289c","ios":"levelo://app?vid=7cc31099-9fa6-425f-ba51-43756af9289c"},"vehicle_type_id":"4","last_reported":1701961670,"current_range_meters":0,"station_id":"ce4bgrh2rcd13ifvqc8g","pricing_plan_id":"free"},{"bike_id":"2dd42ade-e406-48ee-a7f5-087a8c525238","system_id":"levelo_inurba_marseille","lat":43.301939,"lon":5.366286,"is_reserved":false,"is_disabled":false,"rental_uris":{"android":"levelo://app?vid=2dd42ade-e406-48ee-a7f5-087a8c525238","ios":"levelo://app?vid=2dd42ade-e406-48ee-a7f5-087a8c525238"},"vehicle_type_id":"4","last_reported":1701961670,"current_range_meters":18800,"station_id":"ce4bgrh2rcd13ifvqc8g","pricing_plan_id":"free"},{"bike_id":"5b9d305a-621c-4f88-bc44-7fa6a118eb2f","system_id":"levelo_inurba_marseille","lat":43.301939,"lon":5.366286,"is_reserved":false,"is_disabled":false,"rental_uris":{"android":"levelo://app?vid=5b9d305a-621c-4f88-bc44-7fa6a118eb2f","ios":"levelo://app?vid=5b9d305a-621c-4f88-bc44-7fa6a118eb2f"},"vehicle_type_id":"4","last_reported":1701961670,"current_range_meters":30400,"station_id":"ce4bgrh2rcd13ifvqc8g","pricing_plan_id":"free"},{"bike_id":"1ea60f58-75f7-4484-b705-1156df4b02ad","system_id":"levelo_inurba_marseille","lat":43.302813,"lon":5.373431,"is_reserved":false,"is_disabled":false,"rental_uris":{"android":"levelo://app?vid=1ea60f58-75f7-4484-b705-1156df4b02ad","ios":"levelo://app?vid=1ea60f58-75f7-4484-b705-1156df4b02ad"},"vehicle_type_id":"4","last_reported":1701961670,"current_range_meters":4800,"station_id":"","pricing_plan_id":"free"},{"bike_id":"1c3409b6-3ef7-4201-9477-ace56ebe0ee1","system_id":"levelo_inurba_marseille","lat":43.30463,"lon":5.37896,"is_reserved":false,"is_disabled":false,"rental_uris":{"android":"levelo://app?vid=1c3409b6-3ef7-4201-9477-ace56ebe0ee1","ios":"levelo://app?vid=1c3409b6-3ef7-4201-9477-ace56ebe0ee1"},"vehicle_type_id":"4","last_reported":1701961670,"current_range_meters":0,"station_id":"ce4bgup2rcd13ifvqcn0","pricing_plan_id":"free"},{"bike_id":"ca806841-83f4-40ec-ab04-16a7dd3b272b","system_id":"levelo_inurba_marseille","lat":43.301429,"lon":5.37413,"is_reserved":false,"is_disabled":false,"rental_uris":{"android":"levelo://app?vid=ca806841-83f4-40ec-ab04-16a7dd3b272b","ios":"levelo://app?vid=ca806841-83f4-40ec-ab04-16a7dd3b272b"},"vehicle_type_id":"4","last_reported":1701961670,"current_range_meters":9600,"station_id":"ce4bgs92rcd13ifvqcc0","pricing_plan_id":"free"},{"bike_id":"9ee0ef7a-8d9c-4d78-8ae5-64e12b708d26","system_id":"levelo_inurba_marseille","lat":43.319997,"lon":5.381594,"is_reserved":false,"is_disabled":false,"rental_uris":{"android":"levelo://app?vid=9ee0ef7a-8d9c-4d78-8ae5-64e12b708d26","ios":"levelo://app?vid=9ee0ef7a-8d9c-4d78-8ae5-64e12b708d26"},"vehicle_type_id":"4","last_reported":1701961670,"current_range_meters":0,"station_id":"ce4bhr12rcd13ifvqhpg","pricing_plan_id":"free"},{"bike_id":"d192afef-6d70-4f8e-8fdc-f242db4538a1","system_id":"levelo_inurba_marseille","lat":43.313571,"lon":5.384829,"is_reserved":false,"is_disabled":false,"rental_uris":{"android":"levelo://app?vid=d192afef-6d70-4f8e-8fdc-f242db4538a1","ios":"levelo://app?vid=d192afef-6d70-4f8e-8fdc-f242db4538a1"},"vehicle_type_id":"4","last_reported":1701961670,"current_range_meters":18000,"station_id":"ce4bgt92rcd13ifvqcf0","pricing_plan_id":"free"},{"bike_id":"10fe4b66-db4e-4f2a-a37f-005e9dd40aa8","system_id":"levelo_inurba_marseille","lat":43.31354,"lon":5.38499,"is_reserved":false,"is_disabled":false,"rental_uris":{"android":"levelo://app?vid=10fe4b66-db4e-4f2a-a37f-005e9dd40aa8","ios":"levelo://app?vid=10fe4b66-db4e-4f2a-a37f-005e9dd40aa8"},"vehicle_type_id":"4","last_reported":1701961670,"current_range_meters":19200,"station_id":"ce4bgt92rcd13ifvqcf0","pricing_plan_id":"free"},{"bike_id":"e3b383da-c6fa-4d8e-9429-24bb3a62025c","system_id":"levelo_inurba_marseille","lat":43.29987,"lon":5.37179,"is_reserved":false,"is_disabled":false,"rental_uris":{"android":"levelo://app?vid=e3b383da-c6fa-4d8e-9429-24bb3a62025c","ios":"levelo://app?vid=e3b383da-c6fa-4d8e-9429-24bb3a62025c"},"vehicle_type_id":"4","last_reported":1701961670,"current_range_meters":22800,"station_id":"ce4bgr92rcd13ifvqc7g","pricing_plan_id":"free"},{"bike_id":"1f5e9e4f-1b42-4697-aec8-96ec6d95bc93","system_id":"levelo_inurba_marseille","lat":43.299724,"lon":5.371829,"is_reserved":false,"is_disabled":false,"rental_uris":{"android":"levelo://app?vid=1f5e9e4f-1b42-4697-aec8-96ec6d95bc93","ios":"levelo://app?vid=1f5e9e4f-1b42-4697-aec8-96ec6d95bc93"},"vehicle_type_id":"4","last_reported":1701961670,"current_range_meters":27600,"station_id":"ce4bgr92rcd13ifvqc7g","pricing_plan_id":"free"},{"bike_id":"faada974-04ac-4442-b660-7f403798e894","system_id":"levelo_inurba_marseille","lat":43.29926,"lon":5.3735,"is_reserved":false,"is_disabled":false,"rental_uris":{"android":"levelo://app?vid=faada974-04ac-4442-b660-7f403798e894","ios":"levelo://app?vid=faada974-04ac-4442-b660-7f403798e894"},"vehicle_type_id":"4","last_reported":1701961670,"current_range_meters":18000,"station_id":"","pricing_plan_id":"free"},{"bike_id":"353f94e4-15cd-401e-a787-0b5aa4d3519a","system_id":"levelo_inurba_marseille","lat":43.299243,"lon":5.37481,"is_reserved":false,"is_disabled":false,"rental_uris":{"android":"levelo://app?vid=353f94e4-15cd-401e-a787-0b5aa4d3519a","ios":"levelo://app?vid=353f94e4-15cd-401e-a787-0b5aa4d3519a"},"vehicle_type_id":"4","last_reported":1701961670,"current_range_meters":28400,"station_id":"ce4bgjh2rcd13ifvqbg0","pricing_plan_id":"free"},{"bike_id":"c5255fd2-24df-4b8b-8948-f91f51d0073c","system_id":"levelo_inurba_marseille","lat":43.296131,"lon":5.370791,"is_reserved":false,"is_disabled":false,"rental_uris":{"android":"levelo://app?vid=c5255fd2-24df-4b8b-8948-f91f51d0073c","ios":"levelo://app?vid=c5255fd2-24df-4b8b-8948-f91f51d0073c"},"vehicle_type_id":"4","last_reported":1701961670,"current_range_meters":4800,"station_id":"ce4bgnh2rcd13ifvqc0g","pricing_plan_id":"free"},{"bike_id":"12c093ee-888f-498c-8070-cdc64b33f24f","system_id":"levelo_inurba_marseille","lat":43.297774,"lon":5.370875,"is_reserved":false,"is_disabled":false,"rental_uris":{"android":"levelo://app?vid=12c093ee-888f-498c-8070-cdc64b33f24f","ios":"levelo://app?vid=12c093ee-888f-498c-8070-cdc64b33f24f"},"vehicle_type_id":"4","last_reported":1701961670,"current_range_meters":6800,"station_id":"ce4bgop2rcd13ifvqc1g","pricing_plan_id":"free"},{"bike_id":"4eabd40d-7f61-4763-a024-5eabd57f2486","system_id":"levelo_inurba_marseille","lat":43.328371,"lon":5.366909,"is_reserved":false,"is_disabled":false,"rental_uris":{"android":"levelo://app?vid=4eabd40d-7f61-4763-a024-5eabd57f2486","ios":"levelo://app?vid=4eabd40d-7f61-4763-a024-5eabd57f2486"},"vehicle_type_id":"4","last_reported":1701961670,"current_range_meters":25200,"station_id":"ce4bhs92rcd13ifvqi0g","pricing_plan_id":"free"},{"bike_id":"fc264b3f-3320-4cc5-b6c9-33d6dd892c87","system_id":"levelo_inurba_marseille","lat":43.32826,"lon":5.36694,"is_reserved":false,"is_disabled":false,"rental_uris":{"android":"levelo://app?vid=fc264b3f-3320-4cc5-b6c9-33d6dd892c87","ios":"levelo://app?vid=fc264b3f-3320-4cc5-b6c9-33d6dd892c87"},"vehicle_type_id":"4","last_reported":1701961670,"current_range_meters":16800,"station_id":"ce4bhs92rcd13ifvqi0g","pricing_plan_id":"free"},{"bike_id":"b7171cec-dd33-488f-b065-0831a9103f7a","system_id":"levelo_inurba_marseille","lat":43.32828,"lon":5.3668,"is_reserved":false,"is_disabled":false,"rental_uris":{"android":"levelo://app?vid=b7171cec-dd33-488f-b065-0831a9103f7a","ios":"levelo://app?vid=b7171cec-dd33-488f-b065-0831a9103f7a"},"vehicle_type_id":"4","last_reported":1701961670,"current_range_meters":19600,"station_id":"ce4bhs92rcd13ifvqi0g","pricing_plan_id":"free"},{"bike_id":"9190eb99-d6ca-4501-a2a4-7ed7fc8df97e","system_id":"levelo_inurba_marseille","lat":43.328339,"lon":5.366783,"is_reserved":false,"is_disabled":false,"rental_uris":{"android":"levelo://app?vid=9190eb99-d6ca-4501-a2a4-7ed7fc8df97e","ios":"levelo://app?vid=9190eb99-d6ca-4501-a2a4-7ed7fc8df97e"},"vehicle_type_id":"4","last_reported":1701961670,"current_range_meters":18800,"station_id":"ce4bhs92rcd13ifvqi0g","pricing_plan_id":"free"},{"bike_id":"26fc0c47-e5ee-49d2-911f-b4135c252acd","system_id":"levelo_inurba_marseille","lat":43.32937,"lon":5.36727,"is_reserved":false,"is_disabled":false,"rental_uris":{"android":"levelo://app?vid=26fc0c47-e5ee-49d2-911f-b4135c252acd","ios":"levelo://app?vid=26fc0c47-e5ee-49d2-911f-b4135c252acd"},"vehicle_type_id":"4","last_reported":1701961670,"current_range_meters":28400,"station_id":"","pricing_plan_id":"free"},{"bike_id":"92dc65d6-6823-4de3-93d4-056f738f090c","system_id":"levelo_inurba_marseille","lat":43.316538,"lon":5.38954,"is_reserved":false,"is_disabled":false,"rental_uris":{"android":"levelo://app?vid=92dc65d6-6823-4de3-93d4-056f738f090c","ios":"levelo://app?vid=92dc65d6-6823-4de3-93d4-056f738f090c"},"vehicle_type_id":"4","last_reported":1701961670,"current_range_meters":5200,"station_id":"","pricing_plan_id":"free"},{"bike_id":"d8fb9a0c-b070-4a37-8d60-9832caf5f42e","system_id":"levelo_inurba_marseille","lat":43.29579,"lon":5.36743,"is_reserved":false,"is_disabled":false,"rental_uris":{"android":"levelo://app?vid=d8fb9a0c-b070-4a37-8d60-9832caf5f42e","ios":"levelo://app?vid=d8fb9a0c-b070-4a37-8d60-9832caf5f42e"},"vehicle_type_id":"4","last_reported":1701961670,"current_range_meters":29600,"station_id":"","pricing_plan_id":"free"},{"bike_id":"f191432a-e5cc-4b12-8def-595ea95eda3e","system_id":"levelo_inurba_marseille","lat":43.295762,"lon":5.367423,"is_reserved":false,"is_disabled":false,"rental_uris":{"android":"levelo://app?vid=f191432a-e5cc-4b12-8def-595ea95eda3e","ios":"levelo://app?vid=f191432a-e5cc-4b12-8def-595ea95eda3e"},"vehicle_type_id":"4","last_reported":1701961670,"current_range_meters":2400,"station_id":"","pricing_plan_id":"free"},{"bike_id":"a889edd2-dbcc-4ffc-9529-0d73b2b4fae1","system_id":"levelo_inurba_marseille","lat":43.296921,"lon":5.376579,"is_reserved":false,"is_disabled":false,"rental_uris":{"android":"levelo://app?vid=a889edd2-dbcc-4ffc-9529-0d73b2b4fae1","ios":"levelo://app?vid=a889edd2-dbcc-4ffc-9529-0d73b2b4fae1"},"vehicle_type_id":"4","last_reported":1701961670,"current_range_meters":22000,"station_id":"ce4bgkh2rcd13ifvqbl0","pricing_plan_id":"free"},{"bike_id":"55311dec-ec61-4646-8d1a-4ddd89532043","system_id":"levelo_inurba_marseille","lat":43.330429,"lon":5.370157,"is_reserved":false,"is_disabled":false,"rental_uris":{"android":"levelo://app?vid=55311dec-ec61-4646-8d1a-4ddd89532043","ios":"levelo://app?vid=55311dec-ec61-4646-8d1a-4ddd89532043"},"vehicle_type_id":"4","last_reported":1701961670,"current_range_meters":24000,"station_id":"","pricing_plan_id":"free"},{"bike_id":"e90706c0-16de-4a49-b77e-936f8e65e5dd","system_id":"levelo_inurba_marseille","lat":43.29806,"lon":5.38094,"is_reserved":false,"is_disabled":false,"rental_uris":{"android":"levelo://app?vid=e90706c0-16de-4a49-b77e-936f8e65e5dd","ios":"levelo://app?vid=e90706c0-16de-4a49-b77e-936f8e65e5dd"},"vehicle_type_id":"4","last_reported":1701961670,"current_range_meters":0,"station_id":"ce4bgip2rcd13ifvqbb0","pricing_plan_id":"free"},{"bike_id":"ddd26820-c458-4791-8e78-af84069b6c18","system_id":"levelo_inurba_marseille","lat":43.304274,"lon":5.388873,"is_reserved":false,"is_disabled":false,"rental_uris":{"android":"levelo://app?vid=ddd26820-c458-4791-8e78-af84069b6c18","ios":"levelo://app?vid=ddd26820-c458-4791-8e78-af84069b6c18"},"vehicle_type_id":"4","last_reported":1701961670,"current_range_meters":24800,"station_id":"ce4bgk12rcd13ifvqbi0","pricing_plan_id":"free"},{"bike_id":"0e5acec3-a3eb-4396-8f82-86a4e8430f6f","system_id":"levelo_inurba_marseille","lat":43.298037,"lon":5.381066,"is_reserved":false,"is_disabled":false,"rental_uris":{"android":"levelo://app?vid=0e5acec3-a3eb-4396-8f82-86a4e8430f6f","ios":"levelo://app?vid=0e5acec3-a3eb-4396-8f82-86a4e8430f6f"},"vehicle_type_id":"4","last_reported":1701961670,"current_range_meters":26000,"station_id":"ce4bgip2rcd13ifvqbb0","pricing_plan_id":"free"},{"bike_id":"939df909-61ad-47d2-9a24-279eade37c8c","system_id":"levelo_inurba_marseille","lat":43.2957,"lon":5.37507,"is_reserved":false,"is_disabled":false,"rental_uris":{"android":"levelo://app?vid=939df909-61ad-47d2-9a24-279eade37c8c","ios":"levelo://app?vid=939df909-61ad-47d2-9a24-279eade37c8c"},"vehicle_type_id":"4","last_reported":1701961670,"current_range_meters":0,"station_id":"ce4bgh92rcd13ifvqb50","pricing_plan_id":"free"},{"bike_id":"399d987e-2b73-430c-b857-1b843d33ad00","system_id":"levelo_inurba_marseille","lat":43.29569,"lon":5.37508,"is_reserved":false,"is_disabled":false,"rental_uris":{"android":"levelo://app?vid=399d987e-2b73-430c-b857-1b843d33ad00","ios":"levelo://app?vid=399d987e-2b73-430c-b857-1b843d33ad00"},"vehicle_type_id":"4","last_reported":1701961670,"current_range_meters":0,"station_id":"ce4bgh92rcd13ifvqb50","pricing_plan_id":"free"},{"bike_id":"fb021caf-32b7-47e3-9266-2ff372695ec4","system_id":"levelo_inurba_marseille","lat":43.296263,"lon":5.377094,"is_reserved":false,"is_disabled":false,"rental_uris":{"android":"levelo://app?vid=fb021caf-32b7-47e3-9266-2ff372695ec4","ios":"levelo://app?vid=fb021caf-32b7-47e3-9266-2ff372695ec4"},"vehicle_type_id":"4","last_reported":1701961670,"current_range_meters":16000,"station_id":"ce4bgi92rcd13ifvqb90","pricing_plan_id":"free"},{"bike_id":"c89be194-43ef-4f21-8729-ef0bd599e118","system_id":"levelo_inurba_marseille","lat":43.296263,"lon":5.377094,"is_reserved":false,"is_disabled":false,"rental_uris":{"android":"levelo://app?vid=c89be194-43ef-4f21-8729-ef0bd599e118","ios":"levelo://app?vid=c89be194-43ef-4f21-8729-ef0bd599e118"},"vehicle_type_id":"4","last_reported":1701961670,"current_range_meters":0,"station_id":"ce4bgi92rcd13ifvqb90","pricing_plan_id":"free"},{"bike_id":"78969a79-abfa-4665-8f3e-d193e917c911","system_id":"levelo_inurba_marseille","lat":43.29601,"lon":5.37728,"is_reserved":false,"is_disabled":false,"rental_uris":{"android":"levelo://app?vid=78969a79-abfa-4665-8f3e-d193e917c911","ios":"levelo://app?vid=78969a79-abfa-4665-8f3e-d193e917c911"},"vehicle_type_id":"4","last_reported":1701961670,"current_range_meters":23600,"station_id":"ce4bgi92rcd13ifvqb90","pricing_plan_id":"free"},{"bike_id":"74da5917-0a79-4c13-a2dd-81e20314a5a2","system_id":"levelo_inurba_marseille","lat":43.299717,"lon":5.384845,"is_reserved":false,"is_disabled":false,"rental_uris":{"android":"levelo://app?vid=74da5917-0a79-4c13-a2dd-81e20314a5a2","ios":"levelo://app?vid=74da5917-0a79-4c13-a2dd-81e20314a5a2"},"vehicle_type_id":"4","last_reported":1701961670,"current_range_meters":28400,"station_id":"ce4bgj92rcd13ifvqbd0","pricing_plan_id":"free"},{"bike_id":"e170744e-09b9-4092-824f-a2ecc5da2cfb","system_id":"levelo_inurba_marseille","lat":43.32366,"lon":5.38885,"is_reserved":false,"is_disabled":false,"rental_uris":{"android":"levelo://app?vid=e170744e-09b9-4092-824f-a2ecc5da2cfb","ios":"levelo://app?vid=e170744e-09b9-4092-824f-a2ecc5da2cfb"},"vehicle_type_id":"4","last_reported":1701961670,"current_range_meters":9600,"station_id":"ce4bhqp2rcd13ifvqhog","pricing_plan_id":"free"},{"bike_id":"96271a45-b508-46fe-b2a4-f1bc2878d257","system_id":"levelo_inurba_marseille","lat":43.29601,"lon":5.381084,"is_reserved":false,"is_disabled":false,"rental_uris":{"android":"levelo://app?vid=96271a45-b508-46fe-b2a4-f1bc2878d257","ios":"levelo://app?vid=96271a45-b508-46fe-b2a4-f1bc2878d257"},"vehicle_type_id":"4","last_reported":1701961670,"current_range_meters":6800,"station_id":"ce4bgl12rcd13ifvqbo0","pricing_plan_id":"free"},{"bike_id":"4e07bbd2-1ba2-42c7-95f4-2fae0e80e124","system_id":"levelo_inurba_marseille","lat":43.29601,"lon":5.381084,"is_reserved":false,"is_disabled":false,"rental_uris":{"android":"levelo://app?vid=4e07bbd2-1ba2-42c7-95f4-2fae0e80e124","ios":"levelo://app?vid=4e07bbd2-1ba2-42c7-95f4-2fae0e80e124"},"vehicle_type_id":"4","last_reported":1701961670,"current_range_meters":28800,"station_id":"ce4bgl12rcd13ifvqbo0","pricing_plan_id":"free"},{"bike_id":"72714644-a730-462a-b220-6837667c5de6","system_id":"levelo_inurba_marseille","lat":43.31822,"lon":5.39433,"is_reserved":false,"is_disabled":false,"rental_uris":{"android":"levelo://app?vid=72714644-a730-462a-b220-6837667c5de6","ios":"levelo://app?vid=72714644-a730-462a-b220-6837667c5de6"},"vehicle_type_id":"4","last_reported":1701961670,"current_range_meters":13600,"station_id":"","pricing_plan_id":"free"},{"bike_id":"850b1935-d67b-433b-afa7-aa9fa8addf57","system_id":"levelo_inurba_marseille","lat":43.2936,"lon":5.37835,"is_reserved":false,"is_disabled":false,"rental_uris":{"android":"levelo://app?vid=850b1935-d67b-433b-afa7-aa9fa8addf57","ios":"levelo://app?vid=850b1935-d67b-433b-afa7-aa9fa8addf57"},"vehicle_type_id":"4","last_reported":1701961670,"current_range_meters":16400,"station_id":"ce4bgjh2rcd13ifvqbf0","pricing_plan_id":"free"},{"bike_id":"6ba9df85-912e-4ed2-b58e-916b18630ba2","system_id":"levelo_inurba_marseille","lat":43.2936,"lon":5.37835,"is_reserved":false,"is_disabled":false,"rental_uris":{"android":"levelo://app?vid=6ba9df85-912e-4ed2-b58e-916b18630ba2","ios":"levelo://app?vid=6ba9df85-912e-4ed2-b58e-916b18630ba2"},"vehicle_type_id":"4","last_reported":1701961670,"current_range_meters":7600,"station_id":"ce4bgjh2rcd13ifvqbf0","pricing_plan_id":"free"},{"bike_id":"1c541794-c923-449d-95df-34435c7ed00d","system_id":"levelo_inurba_marseille","lat":43.2936,"lon":5.37835,"is_reserved":false,"is_disabled":false,"rental_uris":{"android":"levelo://app?vid=1c541794-c923-449d-95df-34435c7ed00d","ios":"levelo://app?vid=1c541794-c923-449d-95df-34435c7ed00d"},"vehicle_type_id":"4","last_reported":1701961670,"current_range_meters":12400,"station_id":"ce4bgjh2rcd13ifvqbf0","pricing_plan_id":"free"},{"bike_id":"b47457a8-5ef2-4a1c-9666-38fe0900bd30","system_id":"levelo_inurba_marseille","lat":43.292663,"lon":5.376394,"is_reserved":false,"is_disabled":false,"rental_uris":{"android":"levelo://app?vid=b47457a8-5ef2-4a1c-9666-38fe0900bd30","ios":"levelo://app?vid=b47457a8-5ef2-4a1c-9666-38fe0900bd30"},"vehicle_type_id":"4","last_reported":1701961670,"current_range_meters":10000,"station_id":"ce4bgi12rcd13ifvqb80","pricing_plan_id":"free"},{"bike_id":"d228e98b-c468-41b8-bb78-5f06d9d09d7b","system_id":"levelo_inurba_marseille","lat":43.29883,"lon":5.38889,"is_reserved":false,"is_disabled":false,"rental_uris":{"android":"levelo://app?vid=d228e98b-c468-41b8-bb78-5f06d9d09d7b","ios":"levelo://app?vid=d228e98b-c468-41b8-bb78-5f06d9d09d7b"},"vehicle_type_id":"4","last_reported":1701961670,"current_range_meters":11600,"station_id":"ce4bh392rcd13ifvqdl0","pricing_plan_id":"free"},{"bike_id":"927df168-88b6-4abc-bd21-2811b5f36786","system_id":"levelo_inurba_marseille","lat":43.284538,"lon":5.358657,"is_reserved":false,"is_disabled":false,"rental_uris":{"android":"levelo://app?vid=927df168-88b6-4abc-bd21-2811b5f36786","ios":"levelo://app?vid=927df168-88b6-4abc-bd21-2811b5f36786"},"vehicle_type_id":"4","last_reported":1701961670,"current_range_meters":11200,"station_id":"ce4bhah2rcd13ifvqei0","pricing_plan_id":"free"},{"bike_id":"ceae909e-0f16-43bc-8a11-624c7908ae0b","system_id":"levelo_inurba_marseille","lat":43.291907,"lon":5.35796,"is_reserved":false,"is_disabled":false,"rental_uris":{"android":"levelo://app?vid=ceae909e-0f16-43bc-8a11-624c7908ae0b","ios":"levelo://app?vid=ceae909e-0f16-43bc-8a11-624c7908ae0b"},"vehicle_type_id":"4","last_reported":1701961670,"current_range_meters":13200,"station_id":"ce4bhb12rcd13ifvqel0","pricing_plan_id":"free"},{"bike_id":"de778943-bdfb-48e2-8bb1-eb8a919c2ffc","system_id":"levelo_inurba_marseille","lat":43.309047,"lon":5.396551,"is_reserved":false,"is_disabled":false,"rental_uris":{"android":"levelo://app?vid=de778943-bdfb-48e2-8bb1-eb8a919c2ffc","ios":"levelo://app?vid=de778943-bdfb-48e2-8bb1-eb8a919c2ffc"},"vehicle_type_id":"4","last_reported":1701961670,"current_range_meters":14800,"station_id":"ce4bh012rcd13ifvqcv0","pricing_plan_id":"free"},{"bike_id":"2def678e-fbbc-497d-9923-ed9408bc7097","system_id":"levelo_inurba_marseille","lat":43.309038,"lon":5.396546,"is_reserved":false,"is_disabled":false,"rental_uris":{"android":"levelo://app?vid=2def678e-fbbc-497d-9923-ed9408bc7097","ios":"levelo://app?vid=2def678e-fbbc-497d-9923-ed9408bc7097"},"vehicle_type_id":"4","last_reported":1701961670,"current_range_meters":19200,"station_id":"ce4bh012rcd13ifvqcv0","pricing_plan_id":"free"},{"bike_id":"24f89f62-9c30-4fc6-b342-a7cb88cf7864","system_id":"levelo_inurba_marseille","lat":43.309047,"lon":5.396551,"is_reserved":false,"is_disabled":false,"rental_uris":{"android":"levelo://app?vid=24f89f62-9c30-4fc6-b342-a7cb88cf7864","ios":"levelo://app?vid=24f89f62-9c30-4fc6-b342-a7cb88cf7864"},"vehicle_type_id":"4","last_reported":1701961670,"current_range_meters":16000,"station_id":"ce4bh012rcd13ifvqcv0","pricing_plan_id":"free"},{"bike_id":"fd9e190f-3acd-42f6-8266-638d56338ca0","system_id":"levelo_inurba_marseille","lat":43.29534,"lon":5.38546,"is_reserved":false,"is_disabled":false,"rental_uris":{"android":"levelo://app?vid=fd9e190f-3acd-42f6-8266-638d56338ca0","ios":"levelo://app?vid=fd9e190f-3acd-42f6-8266-638d56338ca0"},"vehicle_type_id":"4","last_reported":1701961670,"current_range_meters":14400,"station_id":"","pricing_plan_id":"free"},{"bike_id":"75e69a3d-eaae-4b70-a2d0-458a575fa76e","system_id":"levelo_inurba_marseille","lat":43.29529,"lon":5.385581,"is_reserved":false,"is_disabled":false,"rental_uris":{"android":"levelo://app?vid=75e69a3d-eaae-4b70-a2d0-458a575fa76e","ios":"levelo://app?vid=75e69a3d-eaae-4b70-a2d0-458a575fa76e"},"vehicle_type_id":"4","last_reported":1701961670,"current_range_meters":28800,"station_id":"ce4bgih2rcd13ifvqba0","pricing_plan_id":"free"},{"bike_id":"14910ad3-adc1-4350-a3b1-392f9a262c6b","system_id":"levelo_inurba_marseille","lat":43.294162,"lon":5.386292,"is_reserved":false,"is_disabled":false,"rental_uris":{"android":"levelo://app?vid=14910ad3-adc1-4350-a3b1-392f9a262c6b","ios":"levelo://app?vid=14910ad3-adc1-4350-a3b1-392f9a262c6b"},"vehicle_type_id":"4","last_reported":1701961670,"current_range_meters":28400,"station_id":"ce4bh2h2rcd13ifvqdh0","pricing_plan_id":"free"},{"bike_id":"5ef42d0b-0ad4-4c83-92b5-58347fa07247","system_id":"levelo_inurba_marseille","lat":43.29028,"lon":5.37566,"is_reserved":false,"is_disabled":false,"rental_uris":{"android":"levelo://app?vid=5ef42d0b-0ad4-4c83-92b5-58347fa07247","ios":"levelo://app?vid=5ef42d0b-0ad4-4c83-92b5-58347fa07247"},"vehicle_type_id":"4","last_reported":1701961670,"current_range_meters":12400,"station_id":"ce4bh692rcd13ifvqe90","pricing_plan_id":"free"},{"bike_id":"928ae43d-94cc-4020-8144-a4dfd5acb33f","system_id":"levelo_inurba_marseille","lat":43.290327,"lon":5.375711,"is_reserved":false,"is_disabled":false,"rental_uris":{"android":"levelo://app?vid=928ae43d-94cc-4020-8144-a4dfd5acb33f","ios":"levelo://app?vid=928ae43d-94cc-4020-8144-a4dfd5acb33f"},"vehicle_type_id":"4","last_reported":1701961670,"current_range_meters":20800,"station_id":"ce4bh692rcd13ifvqe90","pricing_plan_id":"free"},{"bike_id":"a02a1b20-1fb1-4951-988a-77389649024d","system_id":"levelo_inurba_marseille","lat":43.289259,"lon":5.366364,"is_reserved":false,"is_disabled":false,"rental_uris":{"android":"levelo://app?vid=a02a1b20-1fb1-4951-988a-77389649024d","ios":"levelo://app?vid=a02a1b20-1fb1-4951-988a-77389649024d"},"vehicle_type_id":"4","last_reported":1701961670,"current_range_meters":19600,"station_id":"","pricing_plan_id":"free"},{"bike_id":"9cd74a2c-6a9e-49d4-ad5c-c7840f6c355a","system_id":"levelo_inurba_marseille","lat":43.286591,"lon":5.363346,"is_reserved":false,"is_disabled":false,"rental_uris":{"android":"levelo://app?vid=9cd74a2c-6a9e-49d4-ad5c-c7840f6c355a","ios":"levelo://app?vid=9cd74a2c-6a9e-49d4-ad5c-c7840f6c355a"},"vehicle_type_id":"4","last_reported":1701961670,"current_range_meters":10000,"station_id":"ce4bhah2rcd13ifvqej0","pricing_plan_id":"free"},{"bike_id":"9fe4c1b4-2a34-48cc-8057-806c034ee27c","system_id":"levelo_inurba_marseille","lat":43.304274,"lon":5.397513,"is_reserved":false,"is_disabled":false,"rental_uris":{"android":"levelo://app?vid=9fe4c1b4-2a34-48cc-8057-806c034ee27c","ios":"levelo://app?vid=9fe4c1b4-2a34-48cc-8057-806c034ee27c"},"vehicle_type_id":"4","last_reported":1701961670,"current_range_meters":19600,"station_id":"ce4bh092rcd13ifvqd20","pricing_plan_id":"free"},{"bike_id":"0bb9c86e-e949-4f96-a664-8bdd970db418","system_id":"levelo_inurba_marseille","lat":43.304296,"lon":5.397513,"is_reserved":false,"is_disabled":false,"rental_uris":{"android":"levelo://app?vid=0bb9c86e-e949-4f96-a664-8bdd970db418","ios":"levelo://app?vid=0bb9c86e-e949-4f96-a664-8bdd970db418"},"vehicle_type_id":"4","last_reported":1701961670,"current_range_meters":13600,"station_id":"ce4bh092rcd13ifvqd20","pricing_plan_id":"free"},{"bike_id":"c12df127-f915-48f4-85a1-4011b4c894ae","system_id":"levelo_inurba_marseille","lat":43.330442,"lon":5.389148,"is_reserved":false,"is_disabled":false,"rental_uris":{"android":"levelo://app?vid=c12df127-f915-48f4-85a1-4011b4c894ae","ios":"levelo://app?vid=c12df127-f915-48f4-85a1-4011b4c894ae"},"vehicle_type_id":"4","last_reported":1701961670,"current_range_meters":16000,"station_id":"ce4bhr92rcd13ifvqhrg","pricing_plan_id":"free"},{"bike_id":"d633b90c-0620-463f-abea-6e2dd754eb41","system_id":"levelo_inurba_marseille","lat":43.330442,"lon":5.389148,"is_reserved":false,"is_disabled":false,"rental_uris":{"android":"levelo://app?vid=d633b90c-0620-463f-abea-6e2dd754eb41","ios":"levelo://app?vid=d633b90c-0620-463f-abea-6e2dd754eb41"},"vehicle_type_id":"4","last_reported":1701961670,"current_range_meters":0,"station_id":"ce4bhr92rcd13ifvqhrg","pricing_plan_id":"free"},{"bike_id":"febc4ff7-ef02-4e62-898c-c11e1417c52d","system_id":"levelo_inurba_marseille","lat":43.295169,"lon":5.390426,"is_reserved":false,"is_disabled":false,"rental_uris":{"android":"levelo://app?vid=febc4ff7-ef02-4e62-898c-c11e1417c52d","ios":"levelo://app?vid=febc4ff7-ef02-4e62-898c-c11e1417c52d"},"vehicle_type_id":"4","last_reported":1701961670,"current_range_meters":8000,"station_id":"ce4bh3p2rcd13ifvqdp0","pricing_plan_id":"free"},{"bike_id":"13934ab4-d292-4ed0-960d-f2aa56a7f1fc","system_id":"levelo_inurba_marseille","lat":43.29021,"lon":5.38132,"is_reserved":false,"is_disabled":false,"rental_uris":{"android":"levelo://app?vid=13934ab4-d292-4ed0-960d-f2aa56a7f1fc","ios":"levelo://app?vid=13934ab4-d292-4ed0-960d-f2aa56a7f1fc"},"vehicle_type_id":"4","last_reported":1701961670,"current_range_meters":0,"station_id":"ce4bh4p2rcd13ifvqe1g","pricing_plan_id":"free"},{"bike_id":"9fe9dd57-ae15-4694-b0c6-af4ea7698a52","system_id":"levelo_inurba_marseille","lat":43.290275,"lon":5.381535,"is_reserved":false,"is_disabled":false,"rental_uris":{"android":"levelo://app?vid=9fe9dd57-ae15-4694-b0c6-af4ea7698a52","ios":"levelo://app?vid=9fe9dd57-ae15-4694-b0c6-af4ea7698a52"},"vehicle_type_id":"4","last_reported":1701961670,"current_range_meters":0,"station_id":"ce4bh4p2rcd13ifvqe1g","pricing_plan_id":"free"},{"bike_id":"efe46e7c-cf49-4c7b-80fb-eea57c1d5a63","system_id":"levelo_inurba_marseille","lat":43.288558,"lon":5.358635,"is_reserved":false,"is_disabled":false,"rental_uris":{"android":"levelo://app?vid=efe46e7c-cf49-4c7b-80fb-eea57c1d5a63","ios":"levelo://app?vid=efe46e7c-cf49-4c7b-80fb-eea57c1d5a63"},"vehicle_type_id":"4","last_reported":1701961670,"current_range_meters":27600,"station_id":"","pricing_plan_id":"free"},{"bike_id":"f872a5f0-31a7-4902-ae41-a0c55c71c4ae","system_id":"levelo_inurba_marseille","lat":43.31269,"lon":5.40177,"is_reserved":false,"is_disabled":false,"rental_uris":{"android":"levelo://app?vid=f872a5f0-31a7-4902-ae41-a0c55c71c4ae","ios":"levelo://app?vid=f872a5f0-31a7-4902-ae41-a0c55c71c4ae"},"vehicle_type_id":"4","last_reported":1701961670,"current_range_meters":25600,"station_id":"ce4bh092rcd13ifvqd30","pricing_plan_id":"free"},{"bike_id":"d172e848-b6de-4170-bd78-2ea3b827d317","system_id":"levelo_inurba_marseille","lat":43.33755,"lon":5.37462,"is_reserved":false,"is_disabled":false,"rental_uris":{"android":"levelo://app?vid=d172e848-b6de-4170-bd78-2ea3b827d317","ios":"levelo://app?vid=d172e848-b6de-4170-bd78-2ea3b827d317"},"vehicle_type_id":"4","last_reported":1701961670,"current_range_meters":28400,"station_id":"","pricing_plan_id":"free"},{"bike_id":"bac41afa-2247-4345-b395-258a18435704","system_id":"levelo_inurba_marseille","lat":43.3376,"lon":5.3748,"is_reserved":false,"is_disabled":false,"rental_uris":{"android":"levelo://app?vid=bac41afa-2247-4345-b395-258a18435704","ios":"levelo://app?vid=bac41afa-2247-4345-b395-258a18435704"},"vehicle_type_id":"4","last_reported":1701961670,"current_range_meters":21200,"station_id":"","pricing_plan_id":"free"},{"bike_id":"0c315d21-267a-4365-8c25-43ee459e9119","system_id":"levelo_inurba_marseille","lat":43.306412,"lon":5.401035,"is_reserved":false,"is_disabled":false,"rental_uris":{"android":"levelo://app?vid=0c315d21-267a-4365-8c25-43ee459e9119","ios":"levelo://app?vid=0c315d21-267a-4365-8c25-43ee459e9119"},"vehicle_type_id":"4","last_reported":1701961670,"current_range_meters":12800,"station_id":"ce4bh112rcd13ifvqda0","pricing_plan_id":"free"},{"bike_id":"097b687f-3587-4358-80b7-dd67252137ae","system_id":"levelo_inurba_marseille","lat":43.286961,"lon":5.373785,"is_reserved":false,"is_disabled":false,"rental_uris":{"android":"levelo://app?vid=097b687f-3587-4358-80b7-dd67252137ae","ios":"levelo://app?vid=097b687f-3587-4358-80b7-dd67252137ae"},"vehicle_type_id":"4","last_reported":1701961670,"current_range_meters":26400,"station_id":"ce4bh3p2rcd13ifvqdq0","pricing_plan_id":"free"},{"bike_id":"8b6b8706-a2e9-49b4-8591-35eb2dd81ca3","system_id":"levelo_inurba_marseille","lat":43.29873,"lon":5.39745,"is_reserved":false,"is_disabled":false,"rental_uris":{"android":"levelo://app?vid=8b6b8706-a2e9-49b4-8591-35eb2dd81ca3","ios":"levelo://app?vid=8b6b8706-a2e9-49b4-8591-35eb2dd81ca3"},"vehicle_type_id":"4","last_reported":1701961670,"current_range_meters":0,"station_id":"ce4bh0h2rcd13ifvqd50","pricing_plan_id":"free"},{"bike_id":"a5894caa-39f4-41fd-a6e9-52c31a037100","system_id":"levelo_inurba_marseille","lat":43.290235,"lon":5.386415,"is_reserved":false,"is_disabled":false,"rental_uris":{"android":"levelo://app?vid=a5894caa-39f4-41fd-a6e9-52c31a037100","ios":"levelo://app?vid=a5894caa-39f4-41fd-a6e9-52c31a037100"},"vehicle_type_id":"4","last_reported":1701961670,"current_range_meters":0,"station_id":"ce4bh4p2rcd13ifvqe0g","pricing_plan_id":"free"},{"bike_id":"0689c102-403e-4b7c-9bdd-098ea255b8ce","system_id":"levelo_inurba_marseille","lat":43.289307,"lon":5.38406,"is_reserved":false,"is_disabled":false,"rental_uris":{"android":"levelo://app?vid=0689c102-403e-4b7c-9bdd-098ea255b8ce","ios":"levelo://app?vid=0689c102-403e-4b7c-9bdd-098ea255b8ce"},"vehicle_type_id":"4","last_reported":1701961670,"current_range_meters":20800,"station_id":"ce4bh612rcd13ifvqe6g","pricing_plan_id":"free"},{"bike_id":"26958ae3-f0e7-4af3-94d2-2de08d694152","system_id":"levelo_inurba_marseille","lat":43.286039,"lon":5.370679,"is_reserved":false,"is_disabled":false,"rental_uris":{"android":"levelo://app?vid=26958ae3-f0e7-4af3-94d2-2de08d694152","ios":"levelo://app?vid=26958ae3-f0e7-4af3-94d2-2de08d694152"},"vehicle_type_id":"4","last_reported":1701961670,"current_range_meters":9200,"station_id":"ce4bht12rcd13ifvqi60","pricing_plan_id":"free"},{"bike_id":"a5d13238-a60e-4907-b15c-05b9b476718a","system_id":"levelo_inurba_marseille","lat":43.286039,"lon":5.370679,"is_reserved":false,"is_disabled":false,"rental_uris":{"android":"levelo://app?vid=a5d13238-a60e-4907-b15c-05b9b476718a","ios":"levelo://app?vid=a5d13238-a60e-4907-b15c-05b9b476718a"},"vehicle_type_id":"4","last_reported":1701961670,"current_range_meters":22000,"station_id":"ce4bht12rcd13ifvqi60","pricing_plan_id":"free"},{"bike_id":"a0d1e37f-774f-4377-92d2-ca2c1c62c913","system_id":"levelo_inurba_marseille","lat":43.286039,"lon":5.370679,"is_reserved":false,"is_disabled":false,"rental_uris":{"android":"levelo://app?vid=a0d1e37f-774f-4377-92d2-ca2c1c62c913","ios":"levelo://app?vid=a0d1e37f-774f-4377-92d2-ca2c1c62c913"},"vehicle_type_id":"4","last_reported":1701961670,"current_range_meters":22400,"station_id":"ce4bht12rcd13ifvqi60","pricing_plan_id":"free"},{"bike_id":"9fc3a55c-c1fe-4dcf-8f19-c0bedeb3fbf9","system_id":"levelo_inurba_marseille","lat":43.3169,"lon":5.40478,"is_reserved":false,"is_disabled":false,"rental_uris":{"android":"levelo://app?vid=9fc3a55c-c1fe-4dcf-8f19-c0bedeb3fbf9","ios":"levelo://app?vid=9fc3a55c-c1fe-4dcf-8f19-c0bedeb3fbf9"},"vehicle_type_id":"4","last_reported":1701961670,"current_range_meters":20800,"station_id":"","pricing_plan_id":"free"},{"bike_id":"87c52cf6-1db1-4e69-8ec3-eb91f0911dcc","system_id":"levelo_inurba_marseille","lat":43.291994,"lon":5.392907,"is_reserved":false,"is_disabled":false,"rental_uris":{"android":"levelo://app?vid=87c52cf6-1db1-4e69-8ec3-eb91f0911dcc","ios":"levelo://app?vid=87c52cf6-1db1-4e69-8ec3-eb91f0911dcc"},"vehicle_type_id":"4","last_reported":1701961670,"current_range_meters":8400,"station_id":"ce4bh192rcd13ifvqdd0","pricing_plan_id":"free"},{"bike_id":"a3c04597-544a-4c92-be20-ec78537484f6","system_id":"levelo_inurba_marseille","lat":43.284538,"lon":5.358657,"is_reserved":false,"is_disabled":false,"rental_uris":{"android":"levelo://app?vid=a3c04597-544a-4c92-be20-ec78537484f6","ios":"levelo://app?vid=a3c04597-544a-4c92-be20-ec78537484f6"},"vehicle_type_id":"4","last_reported":1701961670,"current_range_meters":16400,"station_id":"ce4bhah2rcd13ifvqei0","pricing_plan_id":"free"},{"bike_id":"c967b944-44e0-44e8-a2c8-9975a3999559","system_id":"levelo_inurba_marseille","lat":43.284538,"lon":5.358657,"is_reserved":false,"is_disabled":false,"rental_uris":{"android":"levelo://app?vid=c967b944-44e0-44e8-a2c8-9975a3999559","ios":"levelo://app?vid=c967b944-44e0-44e8-a2c8-9975a3999559"},"vehicle_type_id":"4","last_reported":1701961670,"current_range_meters":5600,"station_id":"ce4bhah2rcd13ifvqei0","pricing_plan_id":"free"},{"bike_id":"a2278c18-d607-4c79-8f2a-2b21ebb3f85f","system_id":"levelo_inurba_marseille","lat":43.286595,"lon":5.386795,"is_reserved":false,"is_disabled":false,"rental_uris":{"android":"levelo://app?vid=a2278c18-d607-4c79-8f2a-2b21ebb3f85f","ios":"levelo://app?vid=a2278c18-d607-4c79-8f2a-2b21ebb3f85f"},"vehicle_type_id":"4","last_reported":1701961670,"current_range_meters":1200,"station_id":"ce4bh492rcd13ifvqdug","pricing_plan_id":"free"},{"bike_id":"ab35a2f2-f918-4558-963b-805798e7fe1d","system_id":"levelo_inurba_marseille","lat":43.33717,"lon":5.391857,"is_reserved":false,"is_disabled":false,"rental_uris":{"android":"levelo://app?vid=ab35a2f2-f918-4558-963b-805798e7fe1d","ios":"levelo://app?vid=ab35a2f2-f918-4558-963b-805798e7fe1d"},"vehicle_type_id":"4","last_reported":1701961670,"current_range_meters":14800,"station_id":"ce4bhr92rcd13ifvqhsg","pricing_plan_id":"free"},{"bike_id":"56ac9cc9-bb61-47d5-bb32-c23299a9fd93","system_id":"levelo_inurba_marseille","lat":43.323464,"lon":5.406297,"is_reserved":false,"is_disabled":false,"rental_uris":{"android":"levelo://app?vid=56ac9cc9-bb61-47d5-bb32-c23299a9fd93","ios":"levelo://app?vid=56ac9cc9-bb61-47d5-bb32-c23299a9fd93"},"vehicle_type_id":"4","last_reported":1701961670,"current_range_meters":26400,"station_id":"ce4bhq92rcd13ifvqhjg","pricing_plan_id":"free"},{"bike_id":"b0e7298d-5203-4983-b7f7-60b8fee86899","system_id":"levelo_inurba_marseille","lat":43.33717,"lon":5.391857,"is_reserved":false,"is_disabled":false,"rental_uris":{"android":"levelo://app?vid=b0e7298d-5203-4983-b7f7-60b8fee86899","ios":"levelo://app?vid=b0e7298d-5203-4983-b7f7-60b8fee86899"},"vehicle_type_id":"4","last_reported":1701961670,"current_range_meters":24800,"station_id":"ce4bhr92rcd13ifvqhsg","pricing_plan_id":"free"},{"bike_id":"cfa64061-5dd8-4a39-8eca-bf9eb2bf0a43","system_id":"levelo_inurba_marseille","lat":43.284793,"lon":5.384119,"is_reserved":false,"is_disabled":false,"rental_uris":{"android":"levelo://app?vid=cfa64061-5dd8-4a39-8eca-bf9eb2bf0a43","ios":"levelo://app?vid=cfa64061-5dd8-4a39-8eca-bf9eb2bf0a43"},"vehicle_type_id":"4","last_reported":1701961670,"current_range_meters":400,"station_id":"ce4bh512rcd13ifvqe3g","pricing_plan_id":"free"},{"bike_id":"c75c15e6-d6f0-4ba9-b289-c766be8df2bc","system_id":"levelo_inurba_marseille","lat":43.283494,"lon":5.380945,"is_reserved":false,"is_disabled":false,"rental_uris":{"android":"levelo://app?vid=c75c15e6-d6f0-4ba9-b289-c766be8df2bc","ios":"levelo://app?vid=c75c15e6-d6f0-4ba9-b289-c766be8df2bc"},"vehicle_type_id":"4","last_reported":1701961670,"current_range_meters":26400,"station_id":"ce4bh412rcd13ifvqdr0","pricing_plan_id":"free"},{"bike_id":"56aba2e1-4743-492d-8846-61c51a33155d","system_id":"levelo_inurba_marseille","lat":43.292724,"lon":5.401131,"is_reserved":false,"is_disabled":false,"rental_uris":{"android":"levelo://app?vid=56aba2e1-4743-492d-8846-61c51a33155d","ios":"levelo://app?vid=56aba2e1-4743-492d-8846-61c51a33155d"},"vehicle_type_id":"4","last_reported":1701961670,"current_range_meters":28400,"station_id":"ce4bh312rcd13ifvqdk0","pricing_plan_id":"free"},{"bike_id":"16dbd656-f1b7-4f5b-9e8d-1482a6f973b5","system_id":"levelo_inurba_marseille","lat":43.283502,"lon":5.386471,"is_reserved":false,"is_disabled":false,"rental_uris":{"android":"levelo://app?vid=16dbd656-f1b7-4f5b-9e8d-1482a6f973b5","ios":"levelo://app?vid=16dbd656-f1b7-4f5b-9e8d-1482a6f973b5"},"vehicle_type_id":"4","last_reported":1701961670,"current_range_meters":13600,"station_id":"ce4bh492rcd13ifvqdvg","pricing_plan_id":"free"},{"bike_id":"e0765cd6-c3e8-4ceb-9dec-4eb9126b84c4","system_id":"levelo_inurba_marseille","lat":43.28269,"lon":5.35065,"is_reserved":false,"is_disabled":false,"rental_uris":{"android":"levelo://app?vid=e0765cd6-c3e8-4ceb-9dec-4eb9126b84c4","ios":"levelo://app?vid=e0765cd6-c3e8-4ceb-9dec-4eb9126b84c4"},"vehicle_type_id":"4","last_reported":1701961670,"current_range_meters":10400,"station_id":"","pricing_plan_id":"free"},{"bike_id":"ff5ab78f-3bfd-417d-b23a-6bd85cd2c97e","system_id":"levelo_inurba_marseille","lat":43.283502,"lon":5.386471,"is_reserved":false,"is_disabled":false,"rental_uris":{"android":"levelo://app?vid=ff5ab78f-3bfd-417d-b23a-6bd85cd2c97e","ios":"levelo://app?vid=ff5ab78f-3bfd-417d-b23a-6bd85cd2c97e"},"vehicle_type_id":"4","last_reported":1701961670,"current_range_meters":27600,"station_id":"ce4bh492rcd13ifvqdvg","pricing_plan_id":"free"},{"bike_id":"a383b531-0765-4fcd-8d16-a9e5acc282fd","system_id":"levelo_inurba_marseille","lat":43.280382,"lon":5.369291,"is_reserved":false,"is_disabled":false,"rental_uris":{"android":"levelo://app?vid=a383b531-0765-4fcd-8d16-a9e5acc282fd","ios":"levelo://app?vid=a383b531-0765-4fcd-8d16-a9e5acc282fd"},"vehicle_type_id":"4","last_reported":1701961670,"current_range_meters":26800,"station_id":"ce4bha12rcd13ifvqef0","pricing_plan_id":"free"},{"bike_id":"04e58f30-e8c4-4d3a-847a-65be090991c6","system_id":"levelo_inurba_marseille","lat":43.281044,"lon":5.378308,"is_reserved":false,"is_disabled":false,"rental_uris":{"android":"levelo://app?vid=04e58f30-e8c4-4d3a-847a-65be090991c6","ios":"levelo://app?vid=04e58f30-e8c4-4d3a-847a-65be090991c6"},"vehicle_type_id":"4","last_reported":1701961670,"current_range_meters":14400,"station_id":"ce4bha12rcd13ifvqee0","pricing_plan_id":"free"},{"bike_id":"f2d499b8-6e62-451e-820f-5edacdec98ee","system_id":"levelo_inurba_marseille","lat":43.316832,"lon":5.41234,"is_reserved":false,"is_disabled":false,"rental_uris":{"android":"levelo://app?vid=f2d499b8-6e62-451e-820f-5edacdec98ee","ios":"levelo://app?vid=f2d499b8-6e62-451e-820f-5edacdec98ee"},"vehicle_type_id":"4","last_reported":1701961670,"current_range_meters":13200,"station_id":"","pricing_plan_id":"free"},{"bike_id":"9084f453-27dd-4191-9eca-de63dacf13fb","system_id":"levelo_inurba_marseille","lat":43.287154,"lon":5.399979,"is_reserved":false,"is_disabled":false,"rental_uris":{"android":"levelo://app?vid=9084f453-27dd-4191-9eca-de63dacf13fb","ios":"levelo://app?vid=9084f453-27dd-4191-9eca-de63dacf13fb"},"vehicle_type_id":"4","last_reported":1701961670,"current_range_meters":26000,"station_id":"ce4bho92rcd13ifvqh3g","pricing_plan_id":"free"},{"bike_id":"bf1c650d-1488-41a6-9661-e6f1509b8258","system_id":"levelo_inurba_marseille","lat":43.320045,"lon":5.415046,"is_reserved":false,"is_disabled":false,"rental_uris":{"android":"levelo://app?vid=bf1c650d-1488-41a6-9661-e6f1509b8258","ios":"levelo://app?vid=bf1c650d-1488-41a6-9661-e6f1509b8258"},"vehicle_type_id":"4","last_reported":1701961670,"current_range_meters":26800,"station_id":"ce4bhq92rcd13ifvqhkg","pricing_plan_id":"free"},{"bike_id":"ad6da6f7-342f-4f16-af97-ede6298a1d9d","system_id":"levelo_inurba_marseille","lat":43.27969,"lon":5.38713,"is_reserved":false,"is_disabled":false,"rental_uris":{"android":"levelo://app?vid=ad6da6f7-342f-4f16-af97-ede6298a1d9d","ios":"levelo://app?vid=ad6da6f7-342f-4f16-af97-ede6298a1d9d"},"vehicle_type_id":"4","last_reported":1701961670,"current_range_meters":0,"station_id":"ce4bhg12rcd13ifvqf80","pricing_plan_id":"free"},{"bike_id":"ce69e1c5-c54d-407a-8e4b-e7bc97a7b8e2","system_id":"levelo_inurba_marseille","lat":43.27973,"lon":5.38732,"is_reserved":false,"is_disabled":false,"rental_uris":{"android":"levelo://app?vid=ce69e1c5-c54d-407a-8e4b-e7bc97a7b8e2","ios":"levelo://app?vid=ce69e1c5-c54d-407a-8e4b-e7bc97a7b8e2"},"vehicle_type_id":"4","last_reported":1701961670,"current_range_meters":19600,"station_id":"ce4bhg12rcd13ifvqf80","pricing_plan_id":"free"},{"bike_id":"132f7627-f92a-403b-9104-49547ee98271","system_id":"levelo_inurba_marseille","lat":43.279742,"lon":5.38744,"is_reserved":false,"is_disabled":false,"rental_uris":{"android":"levelo://app?vid=132f7627-f92a-403b-9104-49547ee98271","ios":"levelo://app?vid=132f7627-f92a-403b-9104-49547ee98271"},"vehicle_type_id":"4","last_reported":1701961670,"current_range_meters":31200,"station_id":"ce4bhg12rcd13ifvqf80","pricing_plan_id":"free"},{"bike_id":"466adfb2-4549-4e22-835e-9fdb59edde3f","system_id":"levelo_inurba_marseille","lat":43.27962,"lon":5.38706,"is_reserved":false,"is_disabled":false,"rental_uris":{"android":"levelo://app?vid=466adfb2-4549-4e22-835e-9fdb59edde3f","ios":"levelo://app?vid=466adfb2-4549-4e22-835e-9fdb59edde3f"},"vehicle_type_id":"4","last_reported":1701961670,"current_range_meters":31200,"station_id":"ce4bhg12rcd13ifvqf80","pricing_plan_id":"free"},{"bike_id":"fd8cd521-2ecb-4347-a21e-6daaea84ce3c","system_id":"levelo_inurba_marseille","lat":43.292569,"lon":5.409107,"is_reserved":false,"is_disabled":false,"rental_uris":{"android":"levelo://app?vid=fd8cd521-2ecb-4347-a21e-6daaea84ce3c","ios":"levelo://app?vid=fd8cd521-2ecb-4347-a21e-6daaea84ce3c"},"vehicle_type_id":"4","last_reported":1701961670,"current_range_meters":26800,"station_id":"ce4bh192rcd13ifvqdc0","pricing_plan_id":"free"},{"bike_id":"572310e3-8359-4ce4-979e-e40697e7110f","system_id":"levelo_inurba_marseille","lat":43.303837,"lon":5.418724,"is_reserved":false,"is_disabled":false,"rental_uris":{"android":"levelo://app?vid=572310e3-8359-4ce4-979e-e40697e7110f","ios":"levelo://app?vid=572310e3-8359-4ce4-979e-e40697e7110f"},"vehicle_type_id":"4","last_reported":1701961670,"current_range_meters":26800,"station_id":"ce4bhop2rcd13ifvqh7g","pricing_plan_id":"free"},{"bike_id":"7f38676a-c7bb-479d-85f9-d128c29db292","system_id":"levelo_inurba_marseille","lat":43.273613,"lon":5.362705,"is_reserved":false,"is_disabled":false,"rental_uris":{"android":"levelo://app?vid=7f38676a-c7bb-479d-85f9-d128c29db292","ios":"levelo://app?vid=7f38676a-c7bb-479d-85f9-d128c29db292"},"vehicle_type_id":"4","last_reported":1701961670,"current_range_meters":12400,"station_id":"ce4bhbh2rcd13ifvqeo0","pricing_plan_id":"free"},{"bike_id":"ccb9898c-32d6-4434-8f68-bcb02656f4a1","system_id":"levelo_inurba_marseille","lat":43.273613,"lon":5.362705,"is_reserved":false,"is_disabled":false,"rental_uris":{"android":"levelo://app?vid=ccb9898c-32d6-4434-8f68-bcb02656f4a1","ios":"levelo://app?vid=ccb9898c-32d6-4434-8f68-bcb02656f4a1"},"vehicle_type_id":"4","last_reported":1701961670,"current_range_meters":25200,"station_id":"ce4bhbh2rcd13ifvqeo0","pricing_plan_id":"free"},{"bike_id":"f2d0cdfb-5903-48ce-979d-363406bb33d4","system_id":"levelo_inurba_marseille","lat":43.279952,"lon":5.400085,"is_reserved":false,"is_disabled":false,"rental_uris":{"android":"levelo://app?vid=f2d0cdfb-5903-48ce-979d-363406bb33d4","ios":"levelo://app?vid=f2d0cdfb-5903-48ce-979d-363406bb33d4"},"vehicle_type_id":"4","last_reported":1701961670,"current_range_meters":29600,"station_id":"ce4bho92rcd13ifvqh4g","pricing_plan_id":"free"},{"bike_id":"11b2e0c5-092e-464c-b4a7-0f59de41f213","system_id":"levelo_inurba_marseille","lat":43.340804,"lon":5.410219,"is_reserved":false,"is_disabled":false,"rental_uris":{"android":"levelo://app?vid=11b2e0c5-092e-464c-b4a7-0f59de41f213","ios":"levelo://app?vid=11b2e0c5-092e-464c-b4a7-0f59de41f213"},"vehicle_type_id":"4","last_reported":1701961670,"current_range_meters":31200,"station_id":"ce4bhqh2rcd13ifvqhlg","pricing_plan_id":"free"},{"bike_id":"90edb343-fa0f-4ba7-9c2c-f897ea7b5ec0","system_id":"levelo_inurba_marseille","lat":43.340804,"lon":5.410219,"is_reserved":false,"is_disabled":false,"rental_uris":{"android":"levelo://app?vid=90edb343-fa0f-4ba7-9c2c-f897ea7b5ec0","ios":"levelo://app?vid=90edb343-fa0f-4ba7-9c2c-f897ea7b5ec0"},"vehicle_type_id":"4","last_reported":1701961670,"current_range_meters":18400,"station_id":"ce4bhqh2rcd13ifvqhlg","pricing_plan_id":"free"},{"bike_id":"2b7a6143-930a-48c7-926e-629d00d46bab","system_id":"levelo_inurba_marseille","lat":43.30413,"lon":5.42544,"is_reserved":false,"is_disabled":false,"rental_uris":{"android":"levelo://app?vid=2b7a6143-930a-48c7-926e-629d00d46bab","ios":"levelo://app?vid=2b7a6143-930a-48c7-926e-629d00d46bab"},"vehicle_type_id":"4","last_reported":1701961670,"current_range_meters":0,"station_id":"ce4bhoh2rcd13ifvqh6g","pricing_plan_id":"free"},{"bike_id":"87f39d20-81d4-4c2d-9e37-7b85c7f16a87","system_id":"levelo_inurba_marseille","lat":43.3041,"lon":5.4255,"is_reserved":false,"is_disabled":false,"rental_uris":{"android":"levelo://app?vid=87f39d20-81d4-4c2d-9e37-7b85c7f16a87","ios":"levelo://app?vid=87f39d20-81d4-4c2d-9e37-7b85c7f16a87"},"vehicle_type_id":"4","last_reported":1701961670,"current_range_meters":24400,"station_id":"ce4bhoh2rcd13ifvqh6g","pricing_plan_id":"free"},{"bike_id":"88fb8b94-54f8-4094-9c66-e5e760a3e70a","system_id":"levelo_inurba_marseille","lat":43.295523,"lon":5.422926,"is_reserved":false,"is_disabled":false,"rental_uris":{"android":"levelo://app?vid=88fb8b94-54f8-4094-9c66-e5e760a3e70a","ios":"levelo://app?vid=88fb8b94-54f8-4094-9c66-e5e760a3e70a"},"vehicle_type_id":"4","last_reported":1701961670,"current_range_meters":25600,"station_id":"ce4bhph2rcd13ifvqhdg","pricing_plan_id":"free"},{"bike_id":"77e2df1b-d75a-48fe-a6ad-744dfbe91f1d","system_id":"levelo_inurba_marseille","lat":43.27214,"lon":5.3925,"is_reserved":false,"is_disabled":false,"rental_uris":{"android":"levelo://app?vid=77e2df1b-d75a-48fe-a6ad-744dfbe91f1d","ios":"levelo://app?vid=77e2df1b-d75a-48fe-a6ad-744dfbe91f1d"},"vehicle_type_id":"4","last_reported":1701961670,"current_range_meters":8800,"station_id":"","pricing_plan_id":"free"},{"bike_id":"9131c91d-0f61-42ab-bebd-dc0dd5918d5c","system_id":"levelo_inurba_marseille","lat":43.278128,"lon":5.407195,"is_reserved":false,"is_disabled":false,"rental_uris":{"android":"levelo://app?vid=9131c91d-0f61-42ab-bebd-dc0dd5918d5c","ios":"levelo://app?vid=9131c91d-0f61-42ab-bebd-dc0dd5918d5c"},"vehicle_type_id":"4","last_reported":1701961670,"current_range_meters":25600,"station_id":"ce4bhnh2rcd13ifvqgtg","pricing_plan_id":"free"},{"bike_id":"63ac2b07-521b-4647-9018-023fd1c26e22","system_id":"levelo_inurba_marseille","lat":43.278128,"lon":5.407195,"is_reserved":false,"is_disabled":false,"rental_uris":{"android":"levelo://app?vid=63ac2b07-521b-4647-9018-023fd1c26e22","ios":"levelo://app?vid=63ac2b07-521b-4647-9018-023fd1c26e22"},"vehicle_type_id":"4","last_reported":1701961670,"current_range_meters":24800,"station_id":"ce4bhnh2rcd13ifvqgtg","pricing_plan_id":"free"},{"bike_id":"8a8bc4d6-0029-4fbf-9728-a692a0316877","system_id":"levelo_inurba_marseille","lat":43.27011,"lon":5.39296,"is_reserved":false,"is_disabled":false,"rental_uris":{"android":"levelo://app?vid=8a8bc4d6-0029-4fbf-9728-a692a0316877","ios":"levelo://app?vid=8a8bc4d6-0029-4fbf-9728-a692a0316877"},"vehicle_type_id":"4","last_reported":1701961670,"current_range_meters":3600,"station_id":"","pricing_plan_id":"free"},{"bike_id":"b3bad145-3ab4-4bd2-9bf5-01699fdf21cb","system_id":"levelo_inurba_marseille","lat":43.27989,"lon":5.41659,"is_reserved":false,"is_disabled":false,"rental_uris":{"android":"levelo://app?vid=b3bad145-3ab4-4bd2-9bf5-01699fdf21cb","ios":"levelo://app?vid=b3bad145-3ab4-4bd2-9bf5-01699fdf21cb"},"vehicle_type_id":"4","last_reported":1701961670,"current_range_meters":9200,"station_id":"ce4bho12rcd13ifvqh1g","pricing_plan_id":"free"},{"bike_id":"5c62f0fe-2a68-4f0e-8c5e-1c3be35b64ff","system_id":"levelo_inurba_marseille","lat":43.292922,"lon":5.428522,"is_reserved":false,"is_disabled":false,"rental_uris":{"android":"levelo://app?vid=5c62f0fe-2a68-4f0e-8c5e-1c3be35b64ff","ios":"levelo://app?vid=5c62f0fe-2a68-4f0e-8c5e-1c3be35b64ff"},"vehicle_type_id":"4","last_reported":1701961670,"current_range_meters":14800,"station_id":"","pricing_plan_id":"free"},{"bike_id":"8934220d-c270-44df-a02f-7a6ab9702a5e","system_id":"levelo_inurba_marseille","lat":43.26567,"lon":5.39005,"is_reserved":false,"is_disabled":false,"rental_uris":{"android":"levelo://app?vid=8934220d-c270-44df-a02f-7a6ab9702a5e","ios":"levelo://app?vid=8934220d-c270-44df-a02f-7a6ab9702a5e"},"vehicle_type_id":"4","last_reported":1701961670,"current_range_meters":26400,"station_id":"ce4bhe12rcd13ifvqf30","pricing_plan_id":"free"},{"bike_id":"53cb4537-9c4d-48b8-bc4e-033c2676eb25","system_id":"levelo_inurba_marseille","lat":43.26566,"lon":5.39006,"is_reserved":false,"is_disabled":false,"rental_uris":{"android":"levelo://app?vid=53cb4537-9c4d-48b8-bc4e-033c2676eb25","ios":"levelo://app?vid=53cb4537-9c4d-48b8-bc4e-033c2676eb25"},"vehicle_type_id":"4","last_reported":1701961670,"current_range_meters":9200,"station_id":"ce4bhe12rcd13ifvqf30","pricing_plan_id":"free"},{"bike_id":"eccbc5e0-d14d-4bea-a5e0-3523afe29c51","system_id":"levelo_inurba_marseille","lat":43.265571,"lon":5.390032,"is_reserved":false,"is_disabled":false,"rental_uris":{"android":"levelo://app?vid=eccbc5e0-d14d-4bea-a5e0-3523afe29c51","ios":"levelo://app?vid=eccbc5e0-d14d-4bea-a5e0-3523afe29c51"},"vehicle_type_id":"4","last_reported":1701961670,"current_range_meters":19200,"station_id":"ce4bhe12rcd13ifvqf30","pricing_plan_id":"free"},{"bike_id":"5733cf79-3e92-4960-883b-47b417dd8015","system_id":"levelo_inurba_marseille","lat":43.26554,"lon":5.3901,"is_reserved":false,"is_disabled":false,"rental_uris":{"android":"levelo://app?vid=5733cf79-3e92-4960-883b-47b417dd8015","ios":"levelo://app?vid=5733cf79-3e92-4960-883b-47b417dd8015"},"vehicle_type_id":"4","last_reported":1701961670,"current_range_meters":31200,"station_id":"ce4bhe12rcd13ifvqf30","pricing_plan_id":"free"},{"bike_id":"3d1f37ab-7002-494a-b30a-77ba093784b6","system_id":"levelo_inurba_marseille","lat":43.265569,"lon":5.390047,"is_reserved":false,"is_disabled":false,"rental_uris":{"android":"levelo://app?vid=3d1f37ab-7002-494a-b30a-77ba093784b6","ios":"levelo://app?vid=3d1f37ab-7002-494a-b30a-77ba093784b6"},"vehicle_type_id":"4","last_reported":1701961670,"current_range_meters":16000,"station_id":"ce4bhe12rcd13ifvqf30","pricing_plan_id":"free"},{"bike_id":"26d41f51-f5a0-4f69-beca-46f0d64df0a6","system_id":"levelo_inurba_marseille","lat":43.317104,"lon":5.436818,"is_reserved":false,"is_disabled":false,"rental_uris":{"android":"levelo://app?vid=26d41f51-f5a0-4f69-beca-46f0d64df0a6","ios":"levelo://app?vid=26d41f51-f5a0-4f69-beca-46f0d64df0a6"},"vehicle_type_id":"4","last_reported":1701961670,"current_range_meters":3200,"station_id":"ce4bhp92rcd13ifvqhcg","pricing_plan_id":"free"},{"bike_id":"a5125499-1e18-4415-bbe5-5ab936f64e91","system_id":"levelo_inurba_marseille","lat":43.317104,"lon":5.436818,"is_reserved":false,"is_disabled":false,"rental_uris":{"android":"levelo://app?vid=a5125499-1e18-4415-bbe5-5ab936f64e91","ios":"levelo://app?vid=a5125499-1e18-4415-bbe5-5ab936f64e91"},"vehicle_type_id":"4","last_reported":1701961670,"current_range_meters":31600,"station_id":"ce4bhp92rcd13ifvqhcg","pricing_plan_id":"free"},{"bike_id":"bf83d38a-55dd-4793-9b1d-35f0d91c4a37","system_id":"levelo_inurba_marseille","lat":43.317104,"lon":5.436818,"is_reserved":false,"is_disabled":false,"rental_uris":{"android":"levelo://app?vid=bf83d38a-55dd-4793-9b1d-35f0d91c4a37","ios":"levelo://app?vid=bf83d38a-55dd-4793-9b1d-35f0d91c4a37"},"vehicle_type_id":"4","last_reported":1701961670,"current_range_meters":7600,"station_id":"ce4bhp92rcd13ifvqhcg","pricing_plan_id":"free"},{"bike_id":"5a46927d-6879-472d-b178-a7125d913af0","system_id":"levelo_inurba_marseille","lat":43.271388,"lon":5.409269,"is_reserved":false,"is_disabled":false,"rental_uris":{"android":"levelo://app?vid=5a46927d-6879-472d-b178-a7125d913af0","ios":"levelo://app?vid=5a46927d-6879-472d-b178-a7125d913af0"},"vehicle_type_id":"4","last_reported":1701961670,"current_range_meters":25200,"station_id":"ce4bhl12rcd13ifvqgf0","pricing_plan_id":"free"},{"bike_id":"3f6bee2a-73cf-4e60-a770-59f23b37fddf","system_id":"levelo_inurba_marseille","lat":43.271388,"lon":5.409269,"is_reserved":false,"is_disabled":false,"rental_uris":{"android":"levelo://app?vid=3f6bee2a-73cf-4e60-a770-59f23b37fddf","ios":"levelo://app?vid=3f6bee2a-73cf-4e60-a770-59f23b37fddf"},"vehicle_type_id":"4","last_reported":1701961670,"current_range_meters":15200,"station_id":"ce4bhl12rcd13ifvqgf0","pricing_plan_id":"free"},{"bike_id":"c1c633b1-949d-4123-8171-c197a14e353e","system_id":"levelo_inurba_marseille","lat":43.27172,"lon":5.40999,"is_reserved":false,"is_disabled":false,"rental_uris":{"android":"levelo://app?vid=c1c633b1-949d-4123-8171-c197a14e353e","ios":"levelo://app?vid=c1c633b1-949d-4123-8171-c197a14e353e"},"vehicle_type_id":"4","last_reported":1701961670,"current_range_meters":9200,"station_id":"ce4bhl12rcd13ifvqgf0","pricing_plan_id":"free"},{"bike_id":"4f68f183-a711-4386-a731-e8ea8e2f115e","system_id":"levelo_inurba_marseille","lat":43.298768,"lon":5.43643,"is_reserved":false,"is_disabled":false,"rental_uris":{"android":"levelo://app?vid=4f68f183-a711-4386-a731-e8ea8e2f115e","ios":"levelo://app?vid=4f68f183-a711-4386-a731-e8ea8e2f115e"},"vehicle_type_id":"4","last_reported":1701961670,"current_range_meters":27200,"station_id":"ce4bhpp2rcd13ifvqhfg","pricing_plan_id":"free"},{"bike_id":"83e2018e-7127-4415-8bbf-2e347a9c6750","system_id":"levelo_inurba_marseille","lat":43.29892,"lon":5.43664,"is_reserved":false,"is_disabled":false,"rental_uris":{"android":"levelo://app?vid=83e2018e-7127-4415-8bbf-2e347a9c6750","ios":"levelo://app?vid=83e2018e-7127-4415-8bbf-2e347a9c6750"},"vehicle_type_id":"4","last_reported":1701961670,"current_range_meters":7600,"station_id":"ce4bhpp2rcd13ifvqhfg","pricing_plan_id":"free"},{"bike_id":"252cd1f2-54f3-47c6-816a-5f83cc5a4fa1","system_id":"levelo_inurba_marseille","lat":43.281548,"lon":5.42643,"is_reserved":false,"is_disabled":false,"rental_uris":{"android":"levelo://app?vid=252cd1f2-54f3-47c6-816a-5f83cc5a4fa1","ios":"levelo://app?vid=252cd1f2-54f3-47c6-816a-5f83cc5a4fa1"},"vehicle_type_id":"4","last_reported":1701961670,"current_range_meters":8000,"station_id":"ce4bhnh2rcd13ifvqgug","pricing_plan_id":"free"},{"bike_id":"1751bdf2-66b5-4c3a-9691-b9490e972b61","system_id":"levelo_inurba_marseille","lat":43.281548,"lon":5.42643,"is_reserved":false,"is_disabled":false,"rental_uris":{"android":"levelo://app?vid=1751bdf2-66b5-4c3a-9691-b9490e972b61","ios":"levelo://app?vid=1751bdf2-66b5-4c3a-9691-b9490e972b61"},"vehicle_type_id":"4","last_reported":1701961670,"current_range_meters":15200,"station_id":"ce4bhnh2rcd13ifvqgug","pricing_plan_id":"free"},{"bike_id":"b13d38ce-5f53-4fd8-a1c9-e1f1d0d516e7","system_id":"levelo_inurba_marseille","lat":43.281548,"lon":5.42643,"is_reserved":false,"is_disabled":false,"rental_uris":{"android":"levelo://app?vid=b13d38ce-5f53-4fd8-a1c9-e1f1d0d516e7","ios":"levelo://app?vid=b13d38ce-5f53-4fd8-a1c9-e1f1d0d516e7"},"vehicle_type_id":"4","last_reported":1701961670,"current_range_meters":16800,"station_id":"ce4bhnh2rcd13ifvqgug","pricing_plan_id":"free"},{"bike_id":"eb4533cb-14be-4bad-9eec-3cc2c7364d42","system_id":"levelo_inurba_marseille","lat":43.281548,"lon":5.42643,"is_reserved":false,"is_disabled":false,"rental_uris":{"android":"levelo://app?vid=eb4533cb-14be-4bad-9eec-3cc2c7364d42","ios":"levelo://app?vid=eb4533cb-14be-4bad-9eec-3cc2c7364d42"},"vehicle_type_id":"4","last_reported":1701961670,"current_range_meters":23600,"station_id":"ce4bhnh2rcd13ifvqgug","pricing_plan_id":"free"},{"bike_id":"2f2ef1d2-0203-4986-a582-afb6b8d84358","system_id":"levelo_inurba_marseille","lat":43.281548,"lon":5.42643,"is_reserved":false,"is_disabled":false,"rental_uris":{"android":"levelo://app?vid=2f2ef1d2-0203-4986-a582-afb6b8d84358","ios":"levelo://app?vid=2f2ef1d2-0203-4986-a582-afb6b8d84358"},"vehicle_type_id":"4","last_reported":1701961670,"current_range_meters":28000,"station_id":"ce4bhnh2rcd13ifvqgug","pricing_plan_id":"free"},{"bike_id":"ca80edc1-1d6b-4f82-918d-3a3ce52a540b","system_id":"levelo_inurba_marseille","lat":43.275028,"lon":5.424534,"is_reserved":false,"is_disabled":false,"rental_uris":{"android":"levelo://app?vid=ca80edc1-1d6b-4f82-918d-3a3ce52a540b","ios":"levelo://app?vid=ca80edc1-1d6b-4f82-918d-3a3ce52a540b"},"vehicle_type_id":"4","last_reported":1701961670,"current_range_meters":13200,"station_id":"ce4bhn92rcd13ifvqgrg","pricing_plan_id":"free"},{"bike_id":"4210dc19-9063-4399-8e19-678f4b730785","system_id":"levelo_inurba_marseille","lat":43.2479,"lon":5.374457,"is_reserved":false,"is_disabled":false,"rental_uris":{"android":"levelo://app?vid=4210dc19-9063-4399-8e19-678f4b730785","ios":"levelo://app?vid=4210dc19-9063-4399-8e19-678f4b730785"},"vehicle_type_id":"4","last_reported":1701961670,"current_range_meters":2400,"station_id":"ce4bhgh2rcd13ifvqfb0","pricing_plan_id":"free"},{"bike_id":"2e6a6de0-7849-48d8-9475-224f66df9cc8","system_id":"levelo_inurba_marseille","lat":43.25571,"lon":5.38239,"is_reserved":false,"is_disabled":false,"rental_uris":{"android":"levelo://app?vid=2e6a6de0-7849-48d8-9475-224f66df9cc8","ios":"levelo://app?vid=2e6a6de0-7849-48d8-9475-224f66df9cc8"},"vehicle_type_id":"4","last_reported":1701961670,"current_range_meters":27600,"station_id":"ce4bhih2rcd13ifvqfs0","pricing_plan_id":"free"},{"bike_id":"4bdc4ac1-20fe-4324-a1c6-5cd2cc1c41dd","system_id":"levelo_inurba_marseille","lat":43.258224,"lon":5.394369,"is_reserved":false,"is_disabled":false,"rental_uris":{"android":"levelo://app?vid=4bdc4ac1-20fe-4324-a1c6-5cd2cc1c41dd","ios":"levelo://app?vid=4bdc4ac1-20fe-4324-a1c6-5cd2cc1c41dd"},"vehicle_type_id":"4","last_reported":1701961670,"current_range_meters":22400,"station_id":"ce4bhip2rcd13ifvqft0","pricing_plan_id":"free"},{"bike_id":"e12bc3bd-9869-43ca-a7a9-a2a7caa9b67e","system_id":"levelo_inurba_marseille","lat":43.257079,"lon":5.411051,"is_reserved":false,"is_disabled":false,"rental_uris":{"android":"levelo://app?vid=e12bc3bd-9869-43ca-a7a9-a2a7caa9b67e","ios":"levelo://app?vid=e12bc3bd-9869-43ca-a7a9-a2a7caa9b67e"},"vehicle_type_id":"4","last_reported":1701961670,"current_range_meters":26800,"station_id":"ce4bhkp2rcd13ifvqgd0","pricing_plan_id":"free"},{"bike_id":"dfbbe508-e82f-4b9b-8235-50101894da4b","system_id":"levelo_inurba_marseille","lat":43.257079,"lon":5.411051,"is_reserved":false,"is_disabled":false,"rental_uris":{"android":"levelo://app?vid=dfbbe508-e82f-4b9b-8235-50101894da4b","ios":"levelo://app?vid=dfbbe508-e82f-4b9b-8235-50101894da4b"},"vehicle_type_id":"4","last_reported":1701961670,"current_range_meters":12400,"station_id":"ce4bhkp2rcd13ifvqgd0","pricing_plan_id":"free"},{"bike_id":"895b36f3-34d7-492c-b65a-e1055bd6a4c6","system_id":"levelo_inurba_marseille","lat":43.2479,"lon":5.374457,"is_reserved":false,"is_disabled":false,"rental_uris":{"android":"levelo://app?vid=895b36f3-34d7-492c-b65a-e1055bd6a4c6","ios":"levelo://app?vid=895b36f3-34d7-492c-b65a-e1055bd6a4c6"},"vehicle_type_id":"4","last_reported":1701961670,"current_range_meters":4400,"station_id":"ce4bhgh2rcd13ifvqfb0","pricing_plan_id":"free"},{"bike_id":"7951dacd-194e-47f5-9a23-6f33d8b17610","system_id":"levelo_inurba_marseille","lat":43.25082,"lon":5.39518,"is_reserved":false,"is_disabled":false,"rental_uris":{"android":"levelo://app?vid=7951dacd-194e-47f5-9a23-6f33d8b17610","ios":"levelo://app?vid=7951dacd-194e-47f5-9a23-6f33d8b17610"},"vehicle_type_id":"4","last_reported":1701961670,"current_range_meters":16000,"station_id":"ce4bhm12rcd13ifvqgkg","pricing_plan_id":"free"},{"bike_id":"633346c2-cf00-403b-adaf-6ad27c6f6f13","system_id":"levelo_inurba_marseille","lat":43.25102,"lon":5.403214,"is_reserved":false,"is_disabled":false,"rental_uris":{"android":"levelo://app?vid=633346c2-cf00-403b-adaf-6ad27c6f6f13","ios":"levelo://app?vid=633346c2-cf00-403b-adaf-6ad27c6f6f13"},"vehicle_type_id":"4","last_reported":1701961670,"current_range_meters":25200,"station_id":"ce4bhlh2rcd13ifvqgig","pricing_plan_id":"free"},{"bike_id":"2a531ba5-cf82-401e-8f13-8ba991ef59d6","system_id":"levelo_inurba_marseille","lat":43.246461,"lon":5.389014,"is_reserved":false,"is_disabled":false,"rental_uris":{"android":"levelo://app?vid=2a531ba5-cf82-401e-8f13-8ba991ef59d6","ios":"levelo://app?vid=2a531ba5-cf82-401e-8f13-8ba991ef59d6"},"vehicle_type_id":"4","last_reported":1701961670,"current_range_meters":0,"station_id":"ce4bhg12rcd13ifvqf60","pricing_plan_id":"free"},{"bike_id":"4d95d612-a722-4e65-9627-31a974135e47","system_id":"levelo_inurba_marseille","lat":43.246467,"lon":5.388984,"is_reserved":false,"is_disabled":false,"rental_uris":{"android":"levelo://app?vid=4d95d612-a722-4e65-9627-31a974135e47","ios":"levelo://app?vid=4d95d612-a722-4e65-9627-31a974135e47"},"vehicle_type_id":"4","last_reported":1701961670,"current_range_meters":30000,"station_id":"ce4bhg12rcd13ifvqf60","pricing_plan_id":"free"},{"bike_id":"0bb027f6-f781-461a-aa82-3775756d6713","system_id":"levelo_inurba_marseille","lat":43.24074,"lon":5.37767,"is_reserved":false,"is_disabled":false,"rental_uris":{"android":"levelo://app?vid=0bb027f6-f781-461a-aa82-3775756d6713","ios":"levelo://app?vid=0bb027f6-f781-461a-aa82-3775756d6713"},"vehicle_type_id":"4","last_reported":1701961670,"current_range_meters":16800,"station_id":"ce4bhnp2rcd13ifvqgvg","pricing_plan_id":"free"},{"bike_id":"29c0c0e2-fe81-42d9-af2b-ed0a8438f9b7","system_id":"levelo_inurba_marseille","lat":43.24066,"lon":5.37768,"is_reserved":false,"is_disabled":false,"rental_uris":{"android":"levelo://app?vid=29c0c0e2-fe81-42d9-af2b-ed0a8438f9b7","ios":"levelo://app?vid=29c0c0e2-fe81-42d9-af2b-ed0a8438f9b7"},"vehicle_type_id":"4","last_reported":1701961670,"current_range_meters":0,"station_id":"ce4bhnp2rcd13ifvqgvg","pricing_plan_id":"free"},{"bike_id":"7ca5c6b9-fc0e-400b-8b3f-257849bba786","system_id":"levelo_inurba_marseille","lat":43.239588,"lon":5.366238,"is_reserved":false,"is_disabled":false,"rental_uris":{"android":"levelo://app?vid=7ca5c6b9-fc0e-400b-8b3f-257849bba786","ios":"levelo://app?vid=7ca5c6b9-fc0e-400b-8b3f-257849bba786"},"vehicle_type_id":"4","last_reported":1701961670,"current_range_meters":9600,"station_id":"ce4bhi12rcd13ifvqfp0","pricing_plan_id":"free"},{"bike_id":"c4d763e0-a870-4439-9182-df46647c88f5","system_id":"levelo_inurba_marseille","lat":43.23151,"lon":5.43719,"is_reserved":false,"is_disabled":false,"rental_uris":{"android":"levelo://app?vid=c4d763e0-a870-4439-9182-df46647c88f5","ios":"levelo://app?vid=c4d763e0-a870-4439-9182-df46647c88f5"},"vehicle_type_id":"4","last_reported":1701961670,"current_range_meters":31200,"station_id":"ce4bhmp2rcd13ifvqgog","pricing_plan_id":"free"},{"bike_id":"f2a13acd-23e0-4753-890d-e38186f79475","system_id":"levelo_inurba_marseille","lat":43.231562,"lon":5.436933,"is_reserved":false,"is_disabled":false,"rental_uris":{"android":"levelo://app?vid=f2a13acd-23e0-4753-890d-e38186f79475","ios":"levelo://app?vid=f2a13acd-23e0-4753-890d-e38186f79475"},"vehicle_type_id":"4","last_reported":1701961670,"current_range_meters":19200,"station_id":"ce4bhmp2rcd13ifvqgog","pricing_plan_id":"free"},{"bike_id":"41e229a8-b68d-42af-ba6b-b6cd94dad415","system_id":"levelo_inurba_marseille","lat":43.23151,"lon":5.4372,"is_reserved":false,"is_disabled":false,"rental_uris":{"android":"levelo://app?vid=41e229a8-b68d-42af-ba6b-b6cd94dad415","ios":"levelo://app?vid=41e229a8-b68d-42af-ba6b-b6cd94dad415"},"vehicle_type_id":"4","last_reported":1701961670,"current_range_meters":30800,"station_id":"ce4bhmp2rcd13ifvqgog","pricing_plan_id":"free"},{"bike_id":"6044dcff-6eb4-461c-91be-600815014433","system_id":"levelo_inurba_marseille","lat":43.231562,"lon":5.436933,"is_reserved":false,"is_disabled":false,"rental_uris":{"android":"levelo://app?vid=6044dcff-6eb4-461c-91be-600815014433","ios":"levelo://app?vid=6044dcff-6eb4-461c-91be-600815014433"},"vehicle_type_id":"4","last_reported":1701961670,"current_range_meters":31600,"station_id":"ce4bhmp2rcd13ifvqgog","pricing_plan_id":"free"}]}}