{"last_updated":1743588651,"ttl":60,"version":"2.2","data":{"bikes":[{"bike_id":"de6c2585-fc68-43b6-8e7c-890f3b612144","system_id":"levelo_inurba_marseille","lat":43.261919,"lon":5.374491,"is_reserved":false,"is_disabled":false,"rental_uris":{"android":"levelo://app?vid=de6c2585-fc68-43b6-8e7c-890f3b612144","ios":"levelo://app?vid=de6c2585-fc68-43b6-8e7c-890f3b612144"},"vehicle_type_id":"4","last_reported":1743588651,"current_range_meters":2800,"station_id":"ce4bhgp2rcd13ifvqfc0","pricing_plan_id":"cebpf4jnsgd1na2vs0mg"},{"bike_id":"f63df0e4-c0ed-4eb1-aba8-5eabe963493f","system_id":"levelo_inurba_marseille","lat":43.33023,"lon":5.39042,"is_reserved":false,"is_disabled":false,"rental_uris":{"android":"levelo://app?vid=f63df0e4-c0ed-4eb1-aba8-5eabe963493f","ios":"levelo://app?vid=f63df0e4-c0ed-4eb1-aba8-5eabe963493f"},"vehicle_type_id":"4","last_reported":1743588651,"current_range_meters":2800,"station_id":"ce4bhr92rcd13ifvqhrg","pricing_plan_id":"cebpf4jnsgd1na2vs0mg"},{"bike_id":"f7e0ed50-9461-4587-a005-e21b89590d83","system_id":"levelo_inurba_marseille","lat":43.33613,"lon":5.41017,"is_reserved":false,"is_disabled":false,"rental_uris":{"android":"levelo://app?vid=f7e0ed50-9461-4587-a005-e21b89590d83","ios":"levelo://app?vid=f7e0ed50-9461-4587-a005-e21b89590d83"},"vehicle_type_id":"4","last_reported":1743588651,"current_range_meters":2800,"station_id":"ce4bhqh2rcd13ifvqhmg","pricing_plan_id":"cebpf4jnsgd1na2vs0mg"},{"bike_id":"ca4104ac-18c0-403d-9d0a-b09adbc2a818","system_id":"levelo_inurba_marseille","lat":43.314983,"lon":5.373079,"is_reserved":false,"is_disabled":false,"rental_uris":{"android":"levelo://app?vid=ca4104ac-18c0-403d-9d0a-b09adbc2a818","ios":"levelo://app?vid=ca4104ac-18c0-403d-9d0a-b09adbc2a818"},"vehicle_type_id":"4","last_reported":1743588651,"current_range_meters":3200,"station_id":"ce4bgt12rcd13ifvqcd0","pricing_plan_id":"cebpf4jnsgd1na2vs0mg"},{"bike_id":"a2fe2217-cbee-4b94-a5ca-4693c6d37d46","system_id":"levelo_inurba_marseille","lat":43.289449,"lon":5.363877,"is_reserved":false,"is_disabled":false,"rental_uris":{"android":"levelo://app?vid=a2fe2217-cbee-4b94-a5ca-4693c6d37d46","ios":"levelo://app?vid=a2fe2217-cbee-4b94-a5ca-4693c6d37d46"},"vehicle_type_id":"4","last_reported":1743588651,"current_range_meters":4000,"station_id":"ce4bguh2rcd13ifvqcj0","pricing_plan_id":"cebpf4jnsgd1na2vs0mg"},{"bike_id":"c443b87c-4e4c-4282-85b3-004c06796c50","system_id":"levelo_inurba_marseille","lat":43.2848,"lon":5.38423,"is_reserved":false,"is_disabled":false,"rental_uris":{"android":"levelo://app?vid=c443b87c-4e4c-4282-85b3-004c06796c50","ios":"levelo://app?vid=c443b87c-4e4c-4282-85b3-004c06796c50"},"vehicle_type_id":"4","last_reported":1743588651,"current_range_meters":3600,"station_id":"ce4bh512rcd13ifvqe3g","pricing_plan_id":"cebpf4jnsgd1na2vs0mg"},{"bike_id":"fd2d6069-329a-446c-ba98-b3bdeaeb8a6a","system_id":"levelo_inurba_marseille","lat":43.336498,"lon":5.410091,"is_reserved":false,"is_disabled":false,"rental_uris":{"android":"levelo://app?vid=fd2d6069-329a-446c-ba98-b3bdeaeb8a6a","ios":"levelo://app?vid=fd2d6069-329a-446c-ba98-b3bdeaeb8a6a"},"vehicle_type_id":"4","last_reported":1743588651,"current_range_meters":3600,"station_id":"ce4bhqh2rcd13ifvqhmg","pricing_plan_id":"cebpf4jnsgd1na2vs0mg"},{"bike_id":"d662608d-504d-43ae-8d4a-6ba237d6c000","system_id":"levelo_inurba_marseille","lat":43.2785,"lon":5.38501,"is_reserved":false,"is_disabled":false,"rental_uris":{"android":"levelo://app?vid=d662608d-504d-43ae-8d4a-6ba237d6c000","ios":"levelo://app?vid=d662608d-504d-43ae-8d4a-6ba237d6c000"},"vehicle_type_id":"4","last_reported":1743588651,"current_range_meters":4000,"station_id":"","pricing_plan_id":"cebpf4jnsgd1na2vs0mg"},{"bike_id":"bcb97213-2abd-4a56-a558-9d6212242139","system_id":"levelo_inurba_marseille","lat":43.30967,"lon":5.39075,"is_reserved":false,"is_disabled":false,"rental_uris":{"android":"levelo://app?vid=bcb97213-2abd-4a56-a558-9d6212242139","ios":"levelo://app?vid=bcb97213-2abd-4a56-a558-9d6212242139"},"vehicle_type_id":"4","last_reported":1743588651,"current_range_meters":4000,"station_id":"ce4bgup2rcd13ifvqco0","pricing_plan_id":"cebpf4jnsgd1na2vs0mg"},{"bike_id":"7018c222-b3c9-40cc-b215-7f60e9031f8b","system_id":"levelo_inurba_marseille","lat":43.2315,"lon":5.43725,"is_reserved":false,"is_disabled":false,"rental_uris":{"android":"levelo://app?vid=7018c222-b3c9-40cc-b215-7f60e9031f8b","ios":"levelo://app?vid=7018c222-b3c9-40cc-b215-7f60e9031f8b"},"vehicle_type_id":"4","last_reported":1743588651,"current_range_meters":4400,"station_id":"ce4bhmp2rcd13ifvqgog","pricing_plan_id":"cebpf4jnsgd1na2vs0mg"},{"bike_id":"4ad73676-975d-4eb4-8ab0-34916f3a4594","system_id":"levelo_inurba_marseille","lat":43.30682,"lon":5.37143,"is_reserved":false,"is_disabled":false,"rental_uris":{"android":"levelo://app?vid=4ad73676-975d-4eb4-8ab0-34916f3a4594","ios":"levelo://app?vid=4ad73676-975d-4eb4-8ab0-34916f3a4594"},"vehicle_type_id":"4","last_reported":1743588651,"current_range_meters":4400,"station_id":"","pricing_plan_id":"cebpf4jnsgd1na2vs0mg"},{"bike_id":"e42f99be-0f67-4dd9-92c9-50e287a759ba","system_id":"levelo_inurba_marseille","lat":43.24999,"lon":5.38932,"is_reserved":false,"is_disabled":false,"rental_uris":{"android":"levelo://app?vid=e42f99be-0f67-4dd9-92c9-50e287a759ba","ios":"levelo://app?vid=e42f99be-0f67-4dd9-92c9-50e287a759ba"},"vehicle_type_id":"4","last_reported":1743588651,"current_range_meters":4000,"station_id":"ce4bhgp2rcd13ifvqfd0","pricing_plan_id":"cebpf4jnsgd1na2vs0mg"},{"bike_id":"f14be610-a04d-460a-af63-56933fe27f93","system_id":"levelo_inurba_marseille","lat":43.309307,"lon":5.401432,"is_reserved":false,"is_disabled":false,"rental_uris":{"android":"levelo://app?vid=f14be610-a04d-460a-af63-56933fe27f93","ios":"levelo://app?vid=f14be610-a04d-460a-af63-56933fe27f93"},"vehicle_type_id":"4","last_reported":1743588651,"current_range_meters":4000,"station_id":"ce4bh092rcd13ifvqd30","pricing_plan_id":"cebpf4jnsgd1na2vs0mg"},{"bike_id":"4880365f-9c3e-49ed-9807-276d21891e9f","system_id":"levelo_inurba_marseille","lat":43.27067,"lon":5.42281,"is_reserved":false,"is_disabled":false,"rental_uris":{"android":"levelo://app?vid=4880365f-9c3e-49ed-9807-276d21891e9f","ios":"levelo://app?vid=4880365f-9c3e-49ed-9807-276d21891e9f"},"vehicle_type_id":"4","last_reported":1743588651,"current_range_meters":4800,"station_id":"ce4bhk92rcd13ifvqgb0","pricing_plan_id":"cebpf4jnsgd1na2vs0mg"},{"bike_id":"d89afe5e-0120-4a59-9232-075298445f11","system_id":"levelo_inurba_marseille","lat":43.2987,"lon":5.39739,"is_reserved":false,"is_disabled":false,"rental_uris":{"android":"levelo://app?vid=d89afe5e-0120-4a59-9232-075298445f11","ios":"levelo://app?vid=d89afe5e-0120-4a59-9232-075298445f11"},"vehicle_type_id":"4","last_reported":1743588651,"current_range_meters":4800,"station_id":"ce4bh0h2rcd13ifvqd50","pricing_plan_id":"cebpf4jnsgd1na2vs0mg"},{"bike_id":"d654211b-4e34-4995-8255-b4ad241f080d","system_id":"levelo_inurba_marseille","lat":43.32539,"lon":5.41448,"is_reserved":false,"is_disabled":false,"rental_uris":{"android":"levelo://app?vid=d654211b-4e34-4995-8255-b4ad241f080d","ios":"levelo://app?vid=d654211b-4e34-4995-8255-b4ad241f080d"},"vehicle_type_id":"4","last_reported":1743588651,"current_range_meters":4800,"station_id":"ce4bhq12rcd13ifvqhhg","pricing_plan_id":"cebpf4jnsgd1na2vs0mg"},{"bike_id":"67743100-2ec3-4b74-82cd-54e3bf324f08","system_id":"levelo_inurba_marseille","lat":43.27948,"lon":5.41055,"is_reserved":false,"is_disabled":false,"rental_uris":{"android":"levelo://app?vid=67743100-2ec3-4b74-82cd-54e3bf324f08","ios":"levelo://app?vid=67743100-2ec3-4b74-82cd-54e3bf324f08"},"vehicle_type_id":"4","last_reported":1743588651,"current_range_meters":4800,"station_id":"ce4bhnp2rcd13ifvqh0g","pricing_plan_id":"cebpf4jnsgd1na2vs0mg"},{"bike_id":"1984394d-c2dd-4e69-8c8e-738d6b0996e3","system_id":"levelo_inurba_marseille","lat":43.33611,"lon":5.41028,"is_reserved":false,"is_disabled":false,"rental_uris":{"android":"levelo://app?vid=1984394d-c2dd-4e69-8c8e-738d6b0996e3","ios":"levelo://app?vid=1984394d-c2dd-4e69-8c8e-738d6b0996e3"},"vehicle_type_id":"4","last_reported":1743588651,"current_range_meters":5600,"station_id":"ce4bhqh2rcd13ifvqhmg","pricing_plan_id":"cebpf4jnsgd1na2vs0mg"},{"bike_id":"8d721327-a786-4bcc-b361-10bbd4c9bdaa","system_id":"levelo_inurba_marseille","lat":43.27496,"lon":5.42452,"is_reserved":false,"is_disabled":false,"rental_uris":{"android":"levelo://app?vid=8d721327-a786-4bcc-b361-10bbd4c9bdaa","ios":"levelo://app?vid=8d721327-a786-4bcc-b361-10bbd4c9bdaa"},"vehicle_type_id":"4","last_reported":1743588651,"current_range_meters":5600,"station_id":"ce4bhn92rcd13ifvqgrg","pricing_plan_id":"cebpf4jnsgd1na2vs0mg"},{"bike_id":"9a26cb04-c815-401c-8be1-7cee632a8aeb","system_id":"levelo_inurba_marseille","lat":43.29262,"lon":5.3684,"is_reserved":false,"is_disabled":false,"rental_uris":{"android":"levelo://app?vid=9a26cb04-c815-401c-8be1-7cee632a8aeb","ios":"levelo://app?vid=9a26cb04-c815-401c-8be1-7cee632a8aeb"},"vehicle_type_id":"4","last_reported":1743588651,"current_range_meters":5600,"station_id":"ce4bhbp2rcd13ifvqesg","pricing_plan_id":"cebpf4jnsgd1na2vs0mg"},{"bike_id":"1e087142-78e8-4375-ae5d-79b21745c218","system_id":"levelo_inurba_marseille","lat":43.25507,"lon":5.37668,"is_reserved":false,"is_disabled":false,"rental_uris":{"android":"levelo://app?vid=1e087142-78e8-4375-ae5d-79b21745c218","ios":"levelo://app?vid=1e087142-78e8-4375-ae5d-79b21745c218"},"vehicle_type_id":"4","last_reported":1743588651,"current_range_meters":5600,"station_id":"ce4bhh12rcd13ifvqff0","pricing_plan_id":"cebpf4jnsgd1na2vs0mg"},{"bike_id":"fef1d547-feef-4239-90b2-e0f3b60672f8","system_id":"levelo_inurba_marseille","lat":43.29588,"lon":5.39997,"is_reserved":false,"is_disabled":false,"rental_uris":{"android":"levelo://app?vid=fef1d547-feef-4239-90b2-e0f3b60672f8","ios":"levelo://app?vid=fef1d547-feef-4239-90b2-e0f3b60672f8"},"vehicle_type_id":"4","last_reported":1743588651,"current_range_meters":6000,"station_id":"ce4bh312rcd13ifvqdj0","pricing_plan_id":"cebpf4jnsgd1na2vs0mg"},{"bike_id":"e72967af-6b08-4c57-835e-72e327201e4b","system_id":"levelo_inurba_marseille","lat":43.23202,"lon":5.39976,"is_reserved":false,"is_disabled":false,"rental_uris":{"android":"levelo://app?vid=e72967af-6b08-4c57-835e-72e327201e4b","ios":"levelo://app?vid=e72967af-6b08-4c57-835e-72e327201e4b"},"vehicle_type_id":"4","last_reported":1743588651,"current_range_meters":6000,"station_id":"ce4bhn12rcd13ifvqgqg","pricing_plan_id":"cebpf4jnsgd1na2vs0mg"},{"bike_id":"f12a2633-3956-4783-9f4a-f45abb56025c","system_id":"levelo_inurba_marseille","lat":43.31163,"lon":5.36864,"is_reserved":false,"is_disabled":false,"rental_uris":{"android":"levelo://app?vid=f12a2633-3956-4783-9f4a-f45abb56025c","ios":"levelo://app?vid=f12a2633-3956-4783-9f4a-f45abb56025c"},"vehicle_type_id":"4","last_reported":1743588651,"current_range_meters":6000,"station_id":"ce4bgl92rcd13ifvqbq0","pricing_plan_id":"cebpf4jnsgd1na2vs0mg"},{"bike_id":"c2d7351e-347c-463b-8491-cf73e2e8d8d6","system_id":"levelo_inurba_marseille","lat":43.2656,"lon":5.39009,"is_reserved":false,"is_disabled":false,"rental_uris":{"android":"levelo://app?vid=c2d7351e-347c-463b-8491-cf73e2e8d8d6","ios":"levelo://app?vid=c2d7351e-347c-463b-8491-cf73e2e8d8d6"},"vehicle_type_id":"4","last_reported":1743588651,"current_range_meters":6000,"station_id":"ce4bhe12rcd13ifvqf30","pricing_plan_id":"cebpf4jnsgd1na2vs0mg"},{"bike_id":"58a9ca51-e7dd-4362-9448-46ba087d2940","system_id":"levelo_inurba_marseille","lat":43.30214,"lon":5.39471,"is_reserved":false,"is_disabled":false,"rental_uris":{"android":"levelo://app?vid=58a9ca51-e7dd-4362-9448-46ba087d2940","ios":"levelo://app?vid=58a9ca51-e7dd-4362-9448-46ba087d2940"},"vehicle_type_id":"4","last_reported":1743588651,"current_range_meters":6000,"station_id":"ce4bh0p2rcd13ifvqd70","pricing_plan_id":"cebpf4jnsgd1na2vs0mg"},{"bike_id":"c6b6e75c-38dd-451a-80d5-c4ac42759465","system_id":"levelo_inurba_marseille","lat":43.258198,"lon":5.394357,"is_reserved":false,"is_disabled":false,"rental_uris":{"android":"levelo://app?vid=c6b6e75c-38dd-451a-80d5-c4ac42759465","ios":"levelo://app?vid=c6b6e75c-38dd-451a-80d5-c4ac42759465"},"vehicle_type_id":"4","last_reported":1743588651,"current_range_meters":6000,"station_id":"ce4bhip2rcd13ifvqft0","pricing_plan_id":"cebpf4jnsgd1na2vs0mg"},{"bike_id":"dba33b5a-603c-4bee-a3c0-a07650624ac0","system_id":"levelo_inurba_marseille","lat":43.299219,"lon":5.374871,"is_reserved":false,"is_disabled":false,"rental_uris":{"android":"levelo://app?vid=dba33b5a-603c-4bee-a3c0-a07650624ac0","ios":"levelo://app?vid=dba33b5a-603c-4bee-a3c0-a07650624ac0"},"vehicle_type_id":"4","last_reported":1743588651,"current_range_meters":6000,"station_id":"ce4bgjh2rcd13ifvqbg0","pricing_plan_id":"cebpf4jnsgd1na2vs0mg"},{"bike_id":"0e3fd0f2-1256-4fcb-b5b6-2d498eed0785","system_id":"levelo_inurba_marseille","lat":43.24397,"lon":5.38557,"is_reserved":false,"is_disabled":false,"rental_uris":{"android":"levelo://app?vid=0e3fd0f2-1256-4fcb-b5b6-2d498eed0785","ios":"levelo://app?vid=0e3fd0f2-1256-4fcb-b5b6-2d498eed0785"},"vehicle_type_id":"4","last_reported":1743588651,"current_range_meters":6000,"station_id":"","pricing_plan_id":"cebpf4jnsgd1na2vs0mg"},{"bike_id":"d10bd936-2fca-4607-82d0-6e154162cbfd","system_id":"levelo_inurba_marseille","lat":43.30895,"lon":5.39646,"is_reserved":false,"is_disabled":true,"rental_uris":{"android":"levelo://app?vid=d10bd936-2fca-4607-82d0-6e154162cbfd","ios":"levelo://app?vid=d10bd936-2fca-4607-82d0-6e154162cbfd"},"vehicle_type_id":"4","last_reported":1743588651,"current_range_meters":6400,"station_id":"ce4bh012rcd13ifvqcv0","pricing_plan_id":"cebpf4jnsgd1na2vs0mg"},{"bike_id":"85b7488a-274e-4a57-a545-cd9b422c92bb","system_id":"levelo_inurba_marseille","lat":43.25925,"lon":5.40883,"is_reserved":false,"is_disabled":false,"rental_uris":{"android":"levelo://app?vid=85b7488a-274e-4a57-a545-cd9b422c92bb","ios":"levelo://app?vid=85b7488a-274e-4a57-a545-cd9b422c92bb"},"vehicle_type_id":"4","last_reported":1743588651,"current_range_meters":6400,"station_id":"ce4bhm92rcd13ifvqglg","pricing_plan_id":"cebpf4jnsgd1na2vs0mg"},{"bike_id":"577b084d-71c0-4e6e-b3d2-57cb9bf5c9c2","system_id":"levelo_inurba_marseille","lat":43.25913,"lon":5.4086,"is_reserved":false,"is_disabled":false,"rental_uris":{"android":"levelo://app?vid=577b084d-71c0-4e6e-b3d2-57cb9bf5c9c2","ios":"levelo://app?vid=577b084d-71c0-4e6e-b3d2-57cb9bf5c9c2"},"vehicle_type_id":"4","last_reported":1743588651,"current_range_meters":6400,"station_id":"ce4bhm92rcd13ifvqglg","pricing_plan_id":"cebpf4jnsgd1na2vs0mg"},{"bike_id":"7549bd43-15b2-4001-a4c7-d590c7fffdef","system_id":"levelo_inurba_marseille","lat":43.32103,"lon":5.36772,"is_reserved":false,"is_disabled":false,"rental_uris":{"android":"levelo://app?vid=7549bd43-15b2-4001-a4c7-d590c7fffdef","ios":"levelo://app?vid=7549bd43-15b2-4001-a4c7-d590c7fffdef"},"vehicle_type_id":"4","last_reported":1743588651,"current_range_meters":6400,"station_id":"ce4bhrh2rcd13ifvqhug","pricing_plan_id":"cebpf4jnsgd1na2vs0mg"},{"bike_id":"6221fca6-95b7-42fc-9895-f1d1deba1264","system_id":"levelo_inurba_marseille","lat":43.32552,"lon":5.41404,"is_reserved":false,"is_disabled":false,"rental_uris":{"android":"levelo://app?vid=6221fca6-95b7-42fc-9895-f1d1deba1264","ios":"levelo://app?vid=6221fca6-95b7-42fc-9895-f1d1deba1264"},"vehicle_type_id":"4","last_reported":1743588651,"current_range_meters":6400,"station_id":"ce4bhq12rcd13ifvqhhg","pricing_plan_id":"cebpf4jnsgd1na2vs0mg"},{"bike_id":"fe749eb9-9a64-4176-a590-d59c50bc1038","system_id":"levelo_inurba_marseille","lat":43.32491,"lon":5.3656,"is_reserved":false,"is_disabled":false,"rental_uris":{"android":"levelo://app?vid=fe749eb9-9a64-4176-a590-d59c50bc1038","ios":"levelo://app?vid=fe749eb9-9a64-4176-a590-d59c50bc1038"},"vehicle_type_id":"4","last_reported":1743588651,"current_range_meters":6400,"station_id":"ce4bhs12rcd13ifvqhvg","pricing_plan_id":"cebpf4jnsgd1na2vs0mg"},{"bike_id":"cc99df52-116b-4cd0-97e7-db87c9113250","system_id":"levelo_inurba_marseille","lat":43.336,"lon":5.40964,"is_reserved":false,"is_disabled":false,"rental_uris":{"android":"levelo://app?vid=cc99df52-116b-4cd0-97e7-db87c9113250","ios":"levelo://app?vid=cc99df52-116b-4cd0-97e7-db87c9113250"},"vehicle_type_id":"4","last_reported":1743588651,"current_range_meters":6800,"station_id":"","pricing_plan_id":"cebpf4jnsgd1na2vs0mg"},{"bike_id":"fa88ef52-ab29-455b-92dc-08291f43992d","system_id":"levelo_inurba_marseille","lat":43.26791,"lon":5.39409,"is_reserved":false,"is_disabled":false,"rental_uris":{"android":"levelo://app?vid=fa88ef52-ab29-455b-92dc-08291f43992d","ios":"levelo://app?vid=fa88ef52-ab29-455b-92dc-08291f43992d"},"vehicle_type_id":"4","last_reported":1743588651,"current_range_meters":6400,"station_id":"ce4bhh12rcd13ifvqfg0","pricing_plan_id":"cebpf4jnsgd1na2vs0mg"},{"bike_id":"721bcc92-6b82-4aac-988d-3c86699ef60a","system_id":"levelo_inurba_marseille","lat":43.27824,"lon":5.39228,"is_reserved":false,"is_disabled":true,"rental_uris":{"android":"levelo://app?vid=721bcc92-6b82-4aac-988d-3c86699ef60a","ios":"levelo://app?vid=721bcc92-6b82-4aac-988d-3c86699ef60a"},"vehicle_type_id":"4","last_reported":1743588651,"current_range_meters":6800,"station_id":"ce4bhjp2rcd13ifvqga0","pricing_plan_id":"cebpf4jnsgd1na2vs0mg"},{"bike_id":"1167d76f-0701-42ca-9566-e6b8288b4501","system_id":"levelo_inurba_marseille","lat":43.28278,"lon":5.37859,"is_reserved":false,"is_disabled":false,"rental_uris":{"android":"levelo://app?vid=1167d76f-0701-42ca-9566-e6b8288b4501","ios":"levelo://app?vid=1167d76f-0701-42ca-9566-e6b8288b4501"},"vehicle_type_id":"4","last_reported":1743588651,"current_range_meters":6800,"station_id":"","pricing_plan_id":"cebpf4jnsgd1na2vs0mg"},{"bike_id":"d9c382f2-75aa-4b91-a9e9-8c104163a1b1","system_id":"levelo_inurba_marseille","lat":43.246489,"lon":5.388926,"is_reserved":false,"is_disabled":false,"rental_uris":{"android":"levelo://app?vid=d9c382f2-75aa-4b91-a9e9-8c104163a1b1","ios":"levelo://app?vid=d9c382f2-75aa-4b91-a9e9-8c104163a1b1"},"vehicle_type_id":"4","last_reported":1743588651,"current_range_meters":6400,"station_id":"ce4bhg12rcd13ifvqf60","pricing_plan_id":"cebpf4jnsgd1na2vs0mg"},{"bike_id":"95ff45c5-0cac-4a4b-b7fb-1127071af21d","system_id":"levelo_inurba_marseille","lat":43.29257,"lon":5.3762,"is_reserved":false,"is_disabled":false,"rental_uris":{"android":"levelo://app?vid=95ff45c5-0cac-4a4b-b7fb-1127071af21d","ios":"levelo://app?vid=95ff45c5-0cac-4a4b-b7fb-1127071af21d"},"vehicle_type_id":"4","last_reported":1743588651,"current_range_meters":6800,"station_id":"ce4bgi12rcd13ifvqb80","pricing_plan_id":"cebpf4jnsgd1na2vs0mg"},{"bike_id":"fa692778-dc4b-489b-9330-d2a691f7f276","system_id":"levelo_inurba_marseille","lat":43.28437,"lon":5.39206,"is_reserved":false,"is_disabled":false,"rental_uris":{"android":"levelo://app?vid=fa692778-dc4b-489b-9330-d2a691f7f276","ios":"levelo://app?vid=fa692778-dc4b-489b-9330-d2a691f7f276"},"vehicle_type_id":"4","last_reported":1743588651,"current_range_meters":6800,"station_id":"ce4bhoh2rcd13ifvqh5g","pricing_plan_id":"cebpf4jnsgd1na2vs0mg"},{"bike_id":"30f9e2f9-f210-4dc4-b76a-42171b12ed7b","system_id":"levelo_inurba_marseille","lat":43.23166,"lon":5.43694,"is_reserved":false,"is_disabled":false,"rental_uris":{"android":"levelo://app?vid=30f9e2f9-f210-4dc4-b76a-42171b12ed7b","ios":"levelo://app?vid=30f9e2f9-f210-4dc4-b76a-42171b12ed7b"},"vehicle_type_id":"4","last_reported":1743588651,"current_range_meters":6800,"station_id":"ce4bhmp2rcd13ifvqgog","pricing_plan_id":"cebpf4jnsgd1na2vs0mg"},{"bike_id":"c6c438e8-d3ab-4770-968b-7a1a93e8a8c6","system_id":"levelo_inurba_marseille","lat":43.28902,"lon":5.45865,"is_reserved":false,"is_disabled":false,"rental_uris":{"android":"levelo://app?vid=c6c438e8-d3ab-4770-968b-7a1a93e8a8c6","ios":"levelo://app?vid=c6c438e8-d3ab-4770-968b-7a1a93e8a8c6"},"vehicle_type_id":"4","last_reported":1743588651,"current_range_meters":6800,"station_id":"","pricing_plan_id":"cebpf4jnsgd1na2vs0mg"},{"bike_id":"1106dcfd-3f46-4603-98fb-4efa7f70d512","system_id":"levelo_inurba_marseille","lat":43.2591,"lon":5.40853,"is_reserved":false,"is_disabled":false,"rental_uris":{"android":"levelo://app?vid=1106dcfd-3f46-4603-98fb-4efa7f70d512","ios":"levelo://app?vid=1106dcfd-3f46-4603-98fb-4efa7f70d512"},"vehicle_type_id":"4","last_reported":1743588651,"current_range_meters":7200,"station_id":"ce4bhm92rcd13ifvqglg","pricing_plan_id":"cebpf4jnsgd1na2vs0mg"},{"bike_id":"5ef6b633-cf2f-42de-995a-43dea0a55a29","system_id":"levelo_inurba_marseille","lat":43.32111,"lon":5.36768,"is_reserved":false,"is_disabled":false,"rental_uris":{"android":"levelo://app?vid=5ef6b633-cf2f-42de-995a-43dea0a55a29","ios":"levelo://app?vid=5ef6b633-cf2f-42de-995a-43dea0a55a29"},"vehicle_type_id":"4","last_reported":1743588651,"current_range_meters":7200,"station_id":"ce4bhrh2rcd13ifvqhug","pricing_plan_id":"cebpf4jnsgd1na2vs0mg"},{"bike_id":"5332b3c9-09f0-431c-bf47-b43be41b6780","system_id":"levelo_inurba_marseille","lat":43.25988,"lon":5.40944,"is_reserved":false,"is_disabled":false,"rental_uris":{"android":"levelo://app?vid=5332b3c9-09f0-431c-bf47-b43be41b6780","ios":"levelo://app?vid=5332b3c9-09f0-431c-bf47-b43be41b6780"},"vehicle_type_id":"4","last_reported":1743588651,"current_range_meters":7200,"station_id":"ce4bhm92rcd13ifvqglg","pricing_plan_id":"cebpf4jnsgd1na2vs0mg"},{"bike_id":"a495ab47-72d1-4f9e-8b95-72d772792f33","system_id":"levelo_inurba_marseille","lat":43.30434,"lon":5.36866,"is_reserved":false,"is_disabled":false,"rental_uris":{"android":"levelo://app?vid=a495ab47-72d1-4f9e-8b95-72d772792f33","ios":"levelo://app?vid=a495ab47-72d1-4f9e-8b95-72d772792f33"},"vehicle_type_id":"4","last_reported":1743588651,"current_range_meters":7200,"station_id":"","pricing_plan_id":"cebpf4jnsgd1na2vs0mg"},{"bike_id":"63366cf1-77a4-45e4-9416-4c71a5ea282e","system_id":"levelo_inurba_marseille","lat":43.231849,"lon":5.399878,"is_reserved":false,"is_disabled":false,"rental_uris":{"android":"levelo://app?vid=63366cf1-77a4-45e4-9416-4c71a5ea282e","ios":"levelo://app?vid=63366cf1-77a4-45e4-9416-4c71a5ea282e"},"vehicle_type_id":"4","last_reported":1743588651,"current_range_meters":7200,"station_id":"ce4bhn12rcd13ifvqgqg","pricing_plan_id":"cebpf4jnsgd1na2vs0mg"},{"bike_id":"66a6759f-f104-404f-ba35-7dd5d87e6d0b","system_id":"levelo_inurba_marseille","lat":43.30158,"lon":5.3766,"is_reserved":false,"is_disabled":false,"rental_uris":{"android":"levelo://app?vid=66a6759f-f104-404f-ba35-7dd5d87e6d0b","ios":"levelo://app?vid=66a6759f-f104-404f-ba35-7dd5d87e6d0b"},"vehicle_type_id":"4","last_reported":1743588651,"current_range_meters":7200,"station_id":"","pricing_plan_id":"cebpf4jnsgd1na2vs0mg"},{"bike_id":"4f1fb305-fdac-49af-98f8-e5ebaa4429a4","system_id":"levelo_inurba_marseille","lat":43.22926,"lon":5.3538,"is_reserved":false,"is_disabled":false,"rental_uris":{"android":"levelo://app?vid=4f1fb305-fdac-49af-98f8-e5ebaa4429a4","ios":"levelo://app?vid=4f1fb305-fdac-49af-98f8-e5ebaa4429a4"},"vehicle_type_id":"4","last_reported":1743588651,"current_range_meters":8000,"station_id":"cpo3532slgdg3j2ikp40","pricing_plan_id":"cebpf4jnsgd1na2vs0mg"},{"bike_id":"e47bc61d-df2d-41b3-b26b-dd94e6e5e301","system_id":"levelo_inurba_marseille","lat":43.26266,"lon":5.4215,"is_reserved":false,"is_disabled":false,"rental_uris":{"android":"levelo://app?vid=e47bc61d-df2d-41b3-b26b-dd94e6e5e301","ios":"levelo://app?vid=e47bc61d-df2d-41b3-b26b-dd94e6e5e301"},"vehicle_type_id":"4","last_reported":1743588651,"current_range_meters":8000,"station_id":"","pricing_plan_id":"cebpf4jnsgd1na2vs0mg"},{"bike_id":"7bdf0d60-3026-4723-ac07-ebb25b9cf79f","system_id":"levelo_inurba_marseille","lat":43.28787,"lon":5.3869,"is_reserved":false,"is_disabled":false,"rental_uris":{"android":"levelo://app?vid=7bdf0d60-3026-4723-ac07-ebb25b9cf79f","ios":"levelo://app?vid=7bdf0d60-3026-4723-ac07-ebb25b9cf79f"},"vehicle_type_id":"4","last_reported":1743588651,"current_range_meters":8000,"station_id":"","pricing_plan_id":"cebpf4jnsgd1na2vs0mg"},{"bike_id":"a1e07dce-ae88-43c5-a696-05014c781d3e","system_id":"levelo_inurba_marseille","lat":43.29962,"lon":5.38495,"is_reserved":false,"is_disabled":false,"rental_uris":{"android":"levelo://app?vid=a1e07dce-ae88-43c5-a696-05014c781d3e","ios":"levelo://app?vid=a1e07dce-ae88-43c5-a696-05014c781d3e"},"vehicle_type_id":"4","last_reported":1743588651,"current_range_meters":7200,"station_id":"ce4bgj92rcd13ifvqbd0","pricing_plan_id":"cebpf4jnsgd1na2vs0mg"},{"bike_id":"1d1fcf5b-c1ba-42a5-a64a-efa6d25fc73d","system_id":"levelo_inurba_marseille","lat":43.23149,"lon":5.43706,"is_reserved":false,"is_disabled":false,"rental_uris":{"android":"levelo://app?vid=1d1fcf5b-c1ba-42a5-a64a-efa6d25fc73d","ios":"levelo://app?vid=1d1fcf5b-c1ba-42a5-a64a-efa6d25fc73d"},"vehicle_type_id":"4","last_reported":1743588651,"current_range_meters":8000,"station_id":"ce4bhmp2rcd13ifvqgog","pricing_plan_id":"cebpf4jnsgd1na2vs0mg"},{"bike_id":"3e6243d1-ba41-49a7-8891-b09296288717","system_id":"levelo_inurba_marseille","lat":43.2417,"lon":5.3971,"is_reserved":false,"is_disabled":false,"rental_uris":{"android":"levelo://app?vid=3e6243d1-ba41-49a7-8891-b09296288717","ios":"levelo://app?vid=3e6243d1-ba41-49a7-8891-b09296288717"},"vehicle_type_id":"4","last_reported":1743588651,"current_range_meters":8000,"station_id":"ce4bhn12rcd13ifvqgpg","pricing_plan_id":"cebpf4jnsgd1na2vs0mg"},{"bike_id":"312ed70b-1ac3-481a-88c0-b0159fcd0caf","system_id":"levelo_inurba_marseille","lat":43.23157,"lon":5.43706,"is_reserved":false,"is_disabled":false,"rental_uris":{"android":"levelo://app?vid=312ed70b-1ac3-481a-88c0-b0159fcd0caf","ios":"levelo://app?vid=312ed70b-1ac3-481a-88c0-b0159fcd0caf"},"vehicle_type_id":"4","last_reported":1743588651,"current_range_meters":8000,"station_id":"ce4bhmp2rcd13ifvqgog","pricing_plan_id":"cebpf4jnsgd1na2vs0mg"},{"bike_id":"548f30ac-cc89-40bf-81f2-73f55f8bf66d","system_id":"levelo_inurba_marseille","lat":43.298065,"lon":5.381007,"is_reserved":false,"is_disabled":false,"rental_uris":{"android":"levelo://app?vid=548f30ac-cc89-40bf-81f2-73f55f8bf66d","ios":"levelo://app?vid=548f30ac-cc89-40bf-81f2-73f55f8bf66d"},"vehicle_type_id":"4","last_reported":1743588651,"current_range_meters":7200,"station_id":"ce4bgv12rcd13ifvqcp0","pricing_plan_id":"cebpf4jnsgd1na2vs0mg"},{"bike_id":"93eb57be-6e76-46e4-a5ce-bf21001073ab","system_id":"levelo_inurba_marseille","lat":43.23144,"lon":5.43706,"is_reserved":false,"is_disabled":false,"rental_uris":{"android":"levelo://app?vid=93eb57be-6e76-46e4-a5ce-bf21001073ab","ios":"levelo://app?vid=93eb57be-6e76-46e4-a5ce-bf21001073ab"},"vehicle_type_id":"4","last_reported":1743588651,"current_range_meters":8400,"station_id":"ce4bhmp2rcd13ifvqgog","pricing_plan_id":"cebpf4jnsgd1na2vs0mg"},{"bike_id":"89fe8972-dd2c-4d8c-9269-bdb5c639386f","system_id":"levelo_inurba_marseille","lat":43.27819,"lon":5.40718,"is_reserved":false,"is_disabled":false,"rental_uris":{"android":"levelo://app?vid=89fe8972-dd2c-4d8c-9269-bdb5c639386f","ios":"levelo://app?vid=89fe8972-dd2c-4d8c-9269-bdb5c639386f"},"vehicle_type_id":"4","last_reported":1743588651,"current_range_meters":8400,"station_id":"ce4bhnh2rcd13ifvqgtg","pricing_plan_id":"cebpf4jnsgd1na2vs0mg"},{"bike_id":"3e5329f3-c0cd-422c-afb1-2f46242590da","system_id":"levelo_inurba_marseille","lat":43.3191,"lon":5.37554,"is_reserved":false,"is_disabled":false,"rental_uris":{"android":"levelo://app?vid=3e5329f3-c0cd-422c-afb1-2f46242590da","ios":"levelo://app?vid=3e5329f3-c0cd-422c-afb1-2f46242590da"},"vehicle_type_id":"4","last_reported":1743588651,"current_range_meters":8400,"station_id":"","pricing_plan_id":"cebpf4jnsgd1na2vs0mg"},{"bike_id":"fb1fda5e-93cb-4897-95dd-35eee38c31ef","system_id":"levelo_inurba_marseille","lat":43.29417,"lon":5.38622,"is_reserved":false,"is_disabled":false,"rental_uris":{"android":"levelo://app?vid=fb1fda5e-93cb-4897-95dd-35eee38c31ef","ios":"levelo://app?vid=fb1fda5e-93cb-4897-95dd-35eee38c31ef"},"vehicle_type_id":"4","last_reported":1743588651,"current_range_meters":8400,"station_id":"ce4bh2h2rcd13ifvqdh0","pricing_plan_id":"cebpf4jnsgd1na2vs0mg"},{"bike_id":"27773214-4312-4127-aa54-e74cba3d6d07","system_id":"levelo_inurba_marseille","lat":43.278,"lon":5.40723,"is_reserved":false,"is_disabled":false,"rental_uris":{"android":"levelo://app?vid=27773214-4312-4127-aa54-e74cba3d6d07","ios":"levelo://app?vid=27773214-4312-4127-aa54-e74cba3d6d07"},"vehicle_type_id":"4","last_reported":1743588651,"current_range_meters":8400,"station_id":"ce4bhnh2rcd13ifvqgtg","pricing_plan_id":"cebpf4jnsgd1na2vs0mg"},{"bike_id":"57e5d2a3-f06f-4f04-be6a-d1526b770ad7","system_id":"levelo_inurba_marseille","lat":43.26681,"lon":5.38272,"is_reserved":false,"is_disabled":false,"rental_uris":{"android":"levelo://app?vid=57e5d2a3-f06f-4f04-be6a-d1526b770ad7","ios":"levelo://app?vid=57e5d2a3-f06f-4f04-be6a-d1526b770ad7"},"vehicle_type_id":"4","last_reported":1743588651,"current_range_meters":8800,"station_id":"ce4bhg92rcd13ifvqf90","pricing_plan_id":"cebpf4jnsgd1na2vs0mg"},{"bike_id":"f487e652-f94c-41c7-9c15-9a3ed8ce0eae","system_id":"levelo_inurba_marseille","lat":43.32659,"lon":5.40998,"is_reserved":false,"is_disabled":false,"rental_uris":{"android":"levelo://app?vid=f487e652-f94c-41c7-9c15-9a3ed8ce0eae","ios":"levelo://app?vid=f487e652-f94c-41c7-9c15-9a3ed8ce0eae"},"vehicle_type_id":"4","last_reported":1743588651,"current_range_meters":8800,"station_id":"ce4bhpp2rcd13ifvqhgg","pricing_plan_id":"cebpf4jnsgd1na2vs0mg"},{"bike_id":"a8eefa27-8b1c-40f7-80c4-c7183aff8806","system_id":"levelo_inurba_marseille","lat":43.28038,"lon":5.36957,"is_reserved":false,"is_disabled":false,"rental_uris":{"android":"levelo://app?vid=a8eefa27-8b1c-40f7-80c4-c7183aff8806","ios":"levelo://app?vid=a8eefa27-8b1c-40f7-80c4-c7183aff8806"},"vehicle_type_id":"4","last_reported":1743588651,"current_range_meters":8400,"station_id":"ce4bha12rcd13ifvqef0","pricing_plan_id":"cebpf4jnsgd1na2vs0mg"},{"bike_id":"60129d40-45b0-48c5-8fe5-8766c358d773","system_id":"levelo_inurba_marseille","lat":43.25087,"lon":5.39522,"is_reserved":false,"is_disabled":false,"rental_uris":{"android":"levelo://app?vid=60129d40-45b0-48c5-8fe5-8766c358d773","ios":"levelo://app?vid=60129d40-45b0-48c5-8fe5-8766c358d773"},"vehicle_type_id":"4","last_reported":1743588651,"current_range_meters":8800,"station_id":"ce4bhm12rcd13ifvqgkg","pricing_plan_id":"cebpf4jnsgd1na2vs0mg"},{"bike_id":"dd57aabe-70ab-468e-b57c-859ef160a8e2","system_id":"levelo_inurba_marseille","lat":43.25937,"lon":5.4091,"is_reserved":false,"is_disabled":false,"rental_uris":{"android":"levelo://app?vid=dd57aabe-70ab-468e-b57c-859ef160a8e2","ios":"levelo://app?vid=dd57aabe-70ab-468e-b57c-859ef160a8e2"},"vehicle_type_id":"4","last_reported":1743588651,"current_range_meters":8800,"station_id":"ce4bhm92rcd13ifvqglg","pricing_plan_id":"cebpf4jnsgd1na2vs0mg"},{"bike_id":"86dd6a48-678d-493e-81e0-fcdcc70febc0","system_id":"levelo_inurba_marseille","lat":43.24403,"lon":5.37049,"is_reserved":false,"is_disabled":false,"rental_uris":{"android":"levelo://app?vid=86dd6a48-678d-493e-81e0-fcdcc70febc0","ios":"levelo://app?vid=86dd6a48-678d-493e-81e0-fcdcc70febc0"},"vehicle_type_id":"4","last_reported":1743588651,"current_range_meters":8800,"station_id":"ce4bhhh2rcd13ifvqfk0","pricing_plan_id":"cebpf4jnsgd1na2vs0mg"},{"bike_id":"2d5b05ab-3fbf-4245-a566-4ad78ee6292a","system_id":"levelo_inurba_marseille","lat":43.2503,"lon":5.38909,"is_reserved":false,"is_disabled":false,"rental_uris":{"android":"levelo://app?vid=2d5b05ab-3fbf-4245-a566-4ad78ee6292a","ios":"levelo://app?vid=2d5b05ab-3fbf-4245-a566-4ad78ee6292a"},"vehicle_type_id":"4","last_reported":1743588651,"current_range_meters":8800,"station_id":"ce4bhgp2rcd13ifvqfd0","pricing_plan_id":"cebpf4jnsgd1na2vs0mg"},{"bike_id":"a3305333-c78a-4d3c-bdfb-463ffb01e5ec","system_id":"levelo_inurba_marseille","lat":43.27929,"lon":5.41051,"is_reserved":false,"is_disabled":false,"rental_uris":{"android":"levelo://app?vid=a3305333-c78a-4d3c-bdfb-463ffb01e5ec","ios":"levelo://app?vid=a3305333-c78a-4d3c-bdfb-463ffb01e5ec"},"vehicle_type_id":"4","last_reported":1743588651,"current_range_meters":8800,"station_id":"ce4bhnp2rcd13ifvqh0g","pricing_plan_id":"cebpf4jnsgd1na2vs0mg"},{"bike_id":"3ba6ccff-1eda-46d4-acbd-01dbdd65bb76","system_id":"levelo_inurba_marseille","lat":43.29893,"lon":5.43681,"is_reserved":false,"is_disabled":false,"rental_uris":{"android":"levelo://app?vid=3ba6ccff-1eda-46d4-acbd-01dbdd65bb76","ios":"levelo://app?vid=3ba6ccff-1eda-46d4-acbd-01dbdd65bb76"},"vehicle_type_id":"4","last_reported":1743588651,"current_range_meters":8800,"station_id":"ce4bhpp2rcd13ifvqhfg","pricing_plan_id":"cebpf4jnsgd1na2vs0mg"},{"bike_id":"16c82eca-3981-400e-991f-2adb3a8e456e","system_id":"levelo_inurba_marseille","lat":43.30554,"lon":5.36694,"is_reserved":false,"is_disabled":false,"rental_uris":{"android":"levelo://app?vid=16c82eca-3981-400e-991f-2adb3a8e456e","ios":"levelo://app?vid=16c82eca-3981-400e-991f-2adb3a8e456e"},"vehicle_type_id":"4","last_reported":1743588651,"current_range_meters":9200,"station_id":"ce4bgrp2rcd13ifvqc9g","pricing_plan_id":"cebpf4jnsgd1na2vs0mg"},{"bike_id":"bebeb3ed-ad16-4f23-8a95-f94fc6e8f2a1","system_id":"levelo_inurba_marseille","lat":43.2925,"lon":5.36853,"is_reserved":false,"is_disabled":false,"rental_uris":{"android":"levelo://app?vid=bebeb3ed-ad16-4f23-8a95-f94fc6e8f2a1","ios":"levelo://app?vid=bebeb3ed-ad16-4f23-8a95-f94fc6e8f2a1"},"vehicle_type_id":"4","last_reported":1743588651,"current_range_meters":9200,"station_id":"ce4bhbp2rcd13ifvqesg","pricing_plan_id":"cebpf4jnsgd1na2vs0mg"},{"bike_id":"2d0f009a-4cec-4e7e-a08a-d4fe6678642a","system_id":"levelo_inurba_marseille","lat":43.24172,"lon":5.39723,"is_reserved":false,"is_disabled":false,"rental_uris":{"android":"levelo://app?vid=2d0f009a-4cec-4e7e-a08a-d4fe6678642a","ios":"levelo://app?vid=2d0f009a-4cec-4e7e-a08a-d4fe6678642a"},"vehicle_type_id":"4","last_reported":1743588651,"current_range_meters":9200,"station_id":"ce4bhn12rcd13ifvqgpg","pricing_plan_id":"cebpf4jnsgd1na2vs0mg"},{"bike_id":"9bd19278-7aed-43b2-9eab-691ae6e9aa93","system_id":"levelo_inurba_marseille","lat":43.28664,"lon":5.3636,"is_reserved":false,"is_disabled":false,"rental_uris":{"android":"levelo://app?vid=9bd19278-7aed-43b2-9eab-691ae6e9aa93","ios":"levelo://app?vid=9bd19278-7aed-43b2-9eab-691ae6e9aa93"},"vehicle_type_id":"4","last_reported":1743588651,"current_range_meters":9200,"station_id":"ce4bhah2rcd13ifvqej0","pricing_plan_id":"cebpf4jnsgd1na2vs0mg"},{"bike_id":"f85f64ec-b47c-45a4-b305-300ca8bf507d","system_id":"levelo_inurba_marseille","lat":43.30555,"lon":5.36558,"is_reserved":false,"is_disabled":false,"rental_uris":{"android":"levelo://app?vid=f85f64ec-b47c-45a4-b305-300ca8bf507d","ios":"levelo://app?vid=f85f64ec-b47c-45a4-b305-300ca8bf507d"},"vehicle_type_id":"4","last_reported":1743588651,"current_range_meters":9200,"station_id":"ce4bgs12rcd13ifvqcag","pricing_plan_id":"cebpf4jnsgd1na2vs0mg"},{"bike_id":"d1dfe239-cebc-4f6b-91b6-11776218707e","system_id":"levelo_inurba_marseille","lat":43.29579,"lon":5.37507,"is_reserved":false,"is_disabled":false,"rental_uris":{"android":"levelo://app?vid=d1dfe239-cebc-4f6b-91b6-11776218707e","ios":"levelo://app?vid=d1dfe239-cebc-4f6b-91b6-11776218707e"},"vehicle_type_id":"4","last_reported":1743588651,"current_range_meters":9200,"station_id":"ce4bgh92rcd13ifvqb50","pricing_plan_id":"cebpf4jnsgd1na2vs0mg"},{"bike_id":"ade8fa64-b1e0-4385-9db3-a1962cc73202","system_id":"levelo_inurba_marseille","lat":43.29277,"lon":5.36838,"is_reserved":false,"is_disabled":false,"rental_uris":{"android":"levelo://app?vid=ade8fa64-b1e0-4385-9db3-a1962cc73202","ios":"levelo://app?vid=ade8fa64-b1e0-4385-9db3-a1962cc73202"},"vehicle_type_id":"4","last_reported":1743588651,"current_range_meters":9200,"station_id":"ce4bhbp2rcd13ifvqesg","pricing_plan_id":"cebpf4jnsgd1na2vs0mg"},{"bike_id":"e3d01a26-5542-45dc-8373-1b19a6bf2880","system_id":"levelo_inurba_marseille","lat":43.23165,"lon":5.43702,"is_reserved":false,"is_disabled":true,"rental_uris":{"android":"levelo://app?vid=e3d01a26-5542-45dc-8373-1b19a6bf2880","ios":"levelo://app?vid=e3d01a26-5542-45dc-8373-1b19a6bf2880"},"vehicle_type_id":"4","last_reported":1743588651,"current_range_meters":9600,"station_id":"ce4bhmp2rcd13ifvqgog","pricing_plan_id":"cebpf4jnsgd1na2vs0mg"},{"bike_id":"0684441b-572f-44a7-84e4-73075a8fb839","system_id":"levelo_inurba_marseille","lat":43.28076,"lon":5.39669,"is_reserved":false,"is_disabled":false,"rental_uris":{"android":"levelo://app?vid=0684441b-572f-44a7-84e4-73075a8fb839","ios":"levelo://app?vid=0684441b-572f-44a7-84e4-73075a8fb839"},"vehicle_type_id":"4","last_reported":1743588651,"current_range_meters":9200,"station_id":"ce4bho12rcd13ifvqh2g","pricing_plan_id":"cebpf4jnsgd1na2vs0mg"},{"bike_id":"64b138f8-a6bf-42cb-9219-bf3992bc0927","system_id":"levelo_inurba_marseille","lat":43.33623,"lon":5.41001,"is_reserved":false,"is_disabled":false,"rental_uris":{"android":"levelo://app?vid=64b138f8-a6bf-42cb-9219-bf3992bc0927","ios":"levelo://app?vid=64b138f8-a6bf-42cb-9219-bf3992bc0927"},"vehicle_type_id":"4","last_reported":1743588651,"current_range_meters":9600,"station_id":"ce4bhqh2rcd13ifvqhmg","pricing_plan_id":"cebpf4jnsgd1na2vs0mg"},{"bike_id":"ffc53036-d059-4465-b88a-5b4b3e7aeb5e","system_id":"levelo_inurba_marseille","lat":43.22934,"lon":5.35378,"is_reserved":false,"is_disabled":false,"rental_uris":{"android":"levelo://app?vid=ffc53036-d059-4465-b88a-5b4b3e7aeb5e","ios":"levelo://app?vid=ffc53036-d059-4465-b88a-5b4b3e7aeb5e"},"vehicle_type_id":"4","last_reported":1743588651,"current_range_meters":9600,"station_id":"cpo3532slgdg3j2ikp40","pricing_plan_id":"cebpf4jnsgd1na2vs0mg"},{"bike_id":"1925d2eb-79cc-4495-ac55-0d86108c91ee","system_id":"levelo_inurba_marseille","lat":43.23195,"lon":5.39989,"is_reserved":false,"is_disabled":false,"rental_uris":{"android":"levelo://app?vid=1925d2eb-79cc-4495-ac55-0d86108c91ee","ios":"levelo://app?vid=1925d2eb-79cc-4495-ac55-0d86108c91ee"},"vehicle_type_id":"4","last_reported":1743588651,"current_range_meters":9600,"station_id":"ce4bhn12rcd13ifvqgqg","pricing_plan_id":"cebpf4jnsgd1na2vs0mg"},{"bike_id":"881377c1-08bc-44d2-86e1-4a43d4e74876","system_id":"levelo_inurba_marseille","lat":43.28726,"lon":5.39977,"is_reserved":false,"is_disabled":false,"rental_uris":{"android":"levelo://app?vid=881377c1-08bc-44d2-86e1-4a43d4e74876","ios":"levelo://app?vid=881377c1-08bc-44d2-86e1-4a43d4e74876"},"vehicle_type_id":"4","last_reported":1743588651,"current_range_meters":9600,"station_id":"ce4bho92rcd13ifvqh3g","pricing_plan_id":"cebpf4jnsgd1na2vs0mg"},{"bike_id":"673cd2fb-9a5c-412d-a385-2a1c87de78c8","system_id":"levelo_inurba_marseille","lat":43.2861,"lon":5.3706,"is_reserved":false,"is_disabled":false,"rental_uris":{"android":"levelo://app?vid=673cd2fb-9a5c-412d-a385-2a1c87de78c8","ios":"levelo://app?vid=673cd2fb-9a5c-412d-a385-2a1c87de78c8"},"vehicle_type_id":"4","last_reported":1743588651,"current_range_meters":9600,"station_id":"ce4bht12rcd13ifvqi60","pricing_plan_id":"cebpf4jnsgd1na2vs0mg"},{"bike_id":"c9b6df3f-92c4-4acd-8a61-30843442f23f","system_id":"levelo_inurba_marseille","lat":43.31081,"lon":5.4243,"is_reserved":false,"is_disabled":false,"rental_uris":{"android":"levelo://app?vid=c9b6df3f-92c4-4acd-8a61-30843442f23f","ios":"levelo://app?vid=c9b6df3f-92c4-4acd-8a61-30843442f23f"},"vehicle_type_id":"4","last_reported":1743588651,"current_range_meters":10000,"station_id":"ce4bhp92rcd13ifvqhag","pricing_plan_id":"cebpf4jnsgd1na2vs0mg"},{"bike_id":"d1b5d6c6-563b-4dc0-99fd-5e93b8acdd06","system_id":"levelo_inurba_marseille","lat":43.23151,"lon":5.43715,"is_reserved":false,"is_disabled":false,"rental_uris":{"android":"levelo://app?vid=d1b5d6c6-563b-4dc0-99fd-5e93b8acdd06","ios":"levelo://app?vid=d1b5d6c6-563b-4dc0-99fd-5e93b8acdd06"},"vehicle_type_id":"4","last_reported":1743588651,"current_range_meters":10000,"station_id":"ce4bhmp2rcd13ifvqgog","pricing_plan_id":"cebpf4jnsgd1na2vs0mg"},{"bike_id":"6e6a66e5-58ca-4db1-9695-b46ed5c28827","system_id":"levelo_inurba_marseille","lat":43.31798,"lon":5.36831,"is_reserved":false,"is_disabled":false,"rental_uris":{"android":"levelo://app?vid=6e6a66e5-58ca-4db1-9695-b46ed5c28827","ios":"levelo://app?vid=6e6a66e5-58ca-4db1-9695-b46ed5c28827"},"vehicle_type_id":"4","last_reported":1743588651,"current_range_meters":10000,"station_id":"","pricing_plan_id":"cebpf4jnsgd1na2vs0mg"},{"bike_id":"f55695a6-b65f-4a30-99ab-94b2bfa63268","system_id":"levelo_inurba_marseille","lat":43.23203,"lon":5.35547,"is_reserved":false,"is_disabled":false,"rental_uris":{"android":"levelo://app?vid=f55695a6-b65f-4a30-99ab-94b2bfa63268","ios":"levelo://app?vid=f55695a6-b65f-4a30-99ab-94b2bfa63268"},"vehicle_type_id":"4","last_reported":1743588651,"current_range_meters":10000,"station_id":"ce4bhu92rcd13ifvqi70","pricing_plan_id":"cebpf4jnsgd1na2vs0mg"},{"bike_id":"1568c7df-7b1a-499d-8dbf-76a67169f4f7","system_id":"levelo_inurba_marseille","lat":43.302,"lon":5.36622,"is_reserved":false,"is_disabled":false,"rental_uris":{"android":"levelo://app?vid=1568c7df-7b1a-499d-8dbf-76a67169f4f7","ios":"levelo://app?vid=1568c7df-7b1a-499d-8dbf-76a67169f4f7"},"vehicle_type_id":"4","last_reported":1743588651,"current_range_meters":10000,"station_id":"ce4bgrh2rcd13ifvqc8g","pricing_plan_id":"cebpf4jnsgd1na2vs0mg"},{"bike_id":"154642c7-eb24-41a0-b701-db99f08a17cf","system_id":"levelo_inurba_marseille","lat":43.30207,"lon":5.39459,"is_reserved":false,"is_disabled":true,"rental_uris":{"android":"levelo://app?vid=154642c7-eb24-41a0-b701-db99f08a17cf","ios":"levelo://app?vid=154642c7-eb24-41a0-b701-db99f08a17cf"},"vehicle_type_id":"4","last_reported":1743588651,"current_range_meters":10000,"station_id":"ce4bh0p2rcd13ifvqd70","pricing_plan_id":"cebpf4jnsgd1na2vs0mg"},{"bike_id":"7b869cea-1d61-42d2-b04b-29df5bd7497f","system_id":"levelo_inurba_marseille","lat":43.3209,"lon":5.36775,"is_reserved":false,"is_disabled":false,"rental_uris":{"android":"levelo://app?vid=7b869cea-1d61-42d2-b04b-29df5bd7497f","ios":"levelo://app?vid=7b869cea-1d61-42d2-b04b-29df5bd7497f"},"vehicle_type_id":"4","last_reported":1743588651,"current_range_meters":10800,"station_id":"ce4bhrh2rcd13ifvqhug","pricing_plan_id":"cebpf4jnsgd1na2vs0mg"},{"bike_id":"b80ee275-2592-4659-b2e9-175feb839700","system_id":"levelo_inurba_marseille","lat":43.23197,"lon":5.35538,"is_reserved":false,"is_disabled":false,"rental_uris":{"android":"levelo://app?vid=b80ee275-2592-4659-b2e9-175feb839700","ios":"levelo://app?vid=b80ee275-2592-4659-b2e9-175feb839700"},"vehicle_type_id":"4","last_reported":1743588651,"current_range_meters":10800,"station_id":"ce4bhu92rcd13ifvqi70","pricing_plan_id":"cebpf4jnsgd1na2vs0mg"},{"bike_id":"a6d25717-0db4-4a18-b77c-e49dc99dee91","system_id":"levelo_inurba_marseille","lat":43.25724,"lon":5.41087,"is_reserved":false,"is_disabled":false,"rental_uris":{"android":"levelo://app?vid=a6d25717-0db4-4a18-b77c-e49dc99dee91","ios":"levelo://app?vid=a6d25717-0db4-4a18-b77c-e49dc99dee91"},"vehicle_type_id":"4","last_reported":1743588651,"current_range_meters":10800,"station_id":"ce4bhkp2rcd13ifvqgd0","pricing_plan_id":"cebpf4jnsgd1na2vs0mg"},{"bike_id":"9f94be06-29be-44da-8dc8-870612eda0bd","system_id":"levelo_inurba_marseille","lat":43.32659,"lon":5.40996,"is_reserved":false,"is_disabled":false,"rental_uris":{"android":"levelo://app?vid=9f94be06-29be-44da-8dc8-870612eda0bd","ios":"levelo://app?vid=9f94be06-29be-44da-8dc8-870612eda0bd"},"vehicle_type_id":"4","last_reported":1743588651,"current_range_meters":11200,"station_id":"ce4bhpp2rcd13ifvqhgg","pricing_plan_id":"cebpf4jnsgd1na2vs0mg"},{"bike_id":"49428efe-bbd8-4963-9aaf-ed822fd5c61b","system_id":"levelo_inurba_marseille","lat":43.29181,"lon":5.444015,"is_reserved":false,"is_disabled":false,"rental_uris":{"android":"levelo://app?vid=49428efe-bbd8-4963-9aaf-ed822fd5c61b","ios":"levelo://app?vid=49428efe-bbd8-4963-9aaf-ed822fd5c61b"},"vehicle_type_id":"4","last_reported":1743588651,"current_range_meters":10800,"station_id":"","pricing_plan_id":"cebpf4jnsgd1na2vs0mg"},{"bike_id":"8c8c904f-4688-4edc-8d5e-ac5ec4c04aa2","system_id":"levelo_inurba_marseille","lat":43.26049,"lon":5.39385,"is_reserved":false,"is_disabled":true,"rental_uris":{"android":"levelo://app?vid=8c8c904f-4688-4edc-8d5e-ac5ec4c04aa2","ios":"levelo://app?vid=8c8c904f-4688-4edc-8d5e-ac5ec4c04aa2"},"vehicle_type_id":"4","last_reported":1743588651,"current_range_meters":11200,"station_id":"ce4bhh92rcd13ifvqfj0","pricing_plan_id":"cebpf4jnsgd1na2vs0mg"},{"bike_id":"f23b5f32-bd61-441e-a815-26dbee6d9d3e","system_id":"levelo_inurba_marseille","lat":43.29628,"lon":5.37714,"is_reserved":false,"is_disabled":true,"rental_uris":{"android":"levelo://app?vid=f23b5f32-bd61-441e-a815-26dbee6d9d3e","ios":"levelo://app?vid=f23b5f32-bd61-441e-a815-26dbee6d9d3e"},"vehicle_type_id":"4","last_reported":1743588651,"current_range_meters":11200,"station_id":"ce4bgi92rcd13ifvqb90","pricing_plan_id":"cebpf4jnsgd1na2vs0mg"},{"bike_id":"fc3640cc-9381-4673-beca-985fad96c21c","system_id":"levelo_inurba_marseille","lat":43.31219,"lon":5.36833,"is_reserved":false,"is_disabled":true,"rental_uris":{"android":"levelo://app?vid=fc3640cc-9381-4673-beca-985fad96c21c","ios":"levelo://app?vid=fc3640cc-9381-4673-beca-985fad96c21c"},"vehicle_type_id":"4","last_reported":1743588651,"current_range_meters":11200,"station_id":"ce4bgl92rcd13ifvqbq0","pricing_plan_id":"cebpf4jnsgd1na2vs0mg"},{"bike_id":"d157a8ac-f1ea-480a-a1ee-9ac00962bb01","system_id":"levelo_inurba_marseille","lat":43.29548,"lon":5.42294,"is_reserved":false,"is_disabled":false,"rental_uris":{"android":"levelo://app?vid=d157a8ac-f1ea-480a-a1ee-9ac00962bb01","ios":"levelo://app?vid=d157a8ac-f1ea-480a-a1ee-9ac00962bb01"},"vehicle_type_id":"4","last_reported":1743588651,"current_range_meters":11200,"station_id":"ce4bhph2rcd13ifvqhdg","pricing_plan_id":"cebpf4jnsgd1na2vs0mg"},{"bike_id":"f87e996c-206a-47d9-8697-84a2d463fdc3","system_id":"levelo_inurba_marseille","lat":43.23197,"lon":5.35559,"is_reserved":false,"is_disabled":false,"rental_uris":{"android":"levelo://app?vid=f87e996c-206a-47d9-8697-84a2d463fdc3","ios":"levelo://app?vid=f87e996c-206a-47d9-8697-84a2d463fdc3"},"vehicle_type_id":"4","last_reported":1743588651,"current_range_meters":11200,"station_id":"ce4bhu92rcd13ifvqi70","pricing_plan_id":"cebpf4jnsgd1na2vs0mg"},{"bike_id":"d1d152b9-8f83-4dfd-819d-90885ae33fbf","system_id":"levelo_inurba_marseille","lat":43.29889,"lon":5.43651,"is_reserved":false,"is_disabled":false,"rental_uris":{"android":"levelo://app?vid=d1d152b9-8f83-4dfd-819d-90885ae33fbf","ios":"levelo://app?vid=d1d152b9-8f83-4dfd-819d-90885ae33fbf"},"vehicle_type_id":"4","last_reported":1743588651,"current_range_meters":11200,"station_id":"ce4bhpp2rcd13ifvqhfg","pricing_plan_id":"cebpf4jnsgd1na2vs0mg"},{"bike_id":"e8db9947-5ac0-4177-8798-1af9cdb816ad","system_id":"levelo_inurba_marseille","lat":43.24186,"lon":5.39741,"is_reserved":false,"is_disabled":false,"rental_uris":{"android":"levelo://app?vid=e8db9947-5ac0-4177-8798-1af9cdb816ad","ios":"levelo://app?vid=e8db9947-5ac0-4177-8798-1af9cdb816ad"},"vehicle_type_id":"4","last_reported":1743588651,"current_range_meters":11200,"station_id":"ce4bhn12rcd13ifvqgpg","pricing_plan_id":"cebpf4jnsgd1na2vs0mg"},{"bike_id":"dd3db03f-0f43-4986-9ec8-2a76818fb28c","system_id":"levelo_inurba_marseille","lat":43.2322,"lon":5.3557,"is_reserved":false,"is_disabled":false,"rental_uris":{"android":"levelo://app?vid=dd3db03f-0f43-4986-9ec8-2a76818fb28c","ios":"levelo://app?vid=dd3db03f-0f43-4986-9ec8-2a76818fb28c"},"vehicle_type_id":"4","last_reported":1743588651,"current_range_meters":11200,"station_id":"ce4bhu92rcd13ifvqi70","pricing_plan_id":"cebpf4jnsgd1na2vs0mg"},{"bike_id":"8bc6827b-b28a-40b1-8892-73e8698e4d41","system_id":"levelo_inurba_marseille","lat":43.24163,"lon":5.39727,"is_reserved":false,"is_disabled":false,"rental_uris":{"android":"levelo://app?vid=8bc6827b-b28a-40b1-8892-73e8698e4d41","ios":"levelo://app?vid=8bc6827b-b28a-40b1-8892-73e8698e4d41"},"vehicle_type_id":"4","last_reported":1743588651,"current_range_meters":11200,"station_id":"ce4bhn12rcd13ifvqgpg","pricing_plan_id":"cebpf4jnsgd1na2vs0mg"},{"bike_id":"14f83199-4ff1-475b-855b-3569cc4c8ebd","system_id":"levelo_inurba_marseille","lat":43.29716,"lon":5.36608,"is_reserved":false,"is_disabled":false,"rental_uris":{"android":"levelo://app?vid=14f83199-4ff1-475b-855b-3569cc4c8ebd","ios":"levelo://app?vid=14f83199-4ff1-475b-855b-3569cc4c8ebd"},"vehicle_type_id":"4","last_reported":1743588651,"current_range_meters":10800,"station_id":"ce4bgn12rcd13ifvqbt0","pricing_plan_id":"cebpf4jnsgd1na2vs0mg"},{"bike_id":"75dae32f-059a-4b5b-a5e8-963c6eda2f66","system_id":"levelo_inurba_marseille","lat":43.27513,"lon":5.41032,"is_reserved":false,"is_disabled":false,"rental_uris":{"android":"levelo://app?vid=75dae32f-059a-4b5b-a5e8-963c6eda2f66","ios":"levelo://app?vid=75dae32f-059a-4b5b-a5e8-963c6eda2f66"},"vehicle_type_id":"4","last_reported":1743588651,"current_range_meters":11200,"station_id":"","pricing_plan_id":"cebpf4jnsgd1na2vs0mg"},{"bike_id":"facaca46-7e62-4a2e-ab17-cc09f773590c","system_id":"levelo_inurba_marseille","lat":43.27608,"lon":5.36114,"is_reserved":false,"is_disabled":false,"rental_uris":{"android":"levelo://app?vid=facaca46-7e62-4a2e-ab17-cc09f773590c","ios":"levelo://app?vid=facaca46-7e62-4a2e-ab17-cc09f773590c"},"vehicle_type_id":"4","last_reported":1743588651,"current_range_meters":11600,"station_id":"ce4bgj92rcd13ifvqbe0","pricing_plan_id":"cebpf4jnsgd1na2vs0mg"},{"bike_id":"a42e13ed-44d2-4c34-b324-9b63cc2cba60","system_id":"levelo_inurba_marseille","lat":43.23143,"lon":5.43659,"is_reserved":false,"is_disabled":false,"rental_uris":{"android":"levelo://app?vid=a42e13ed-44d2-4c34-b324-9b63cc2cba60","ios":"levelo://app?vid=a42e13ed-44d2-4c34-b324-9b63cc2cba60"},"vehicle_type_id":"4","last_reported":1743588651,"current_range_meters":11600,"station_id":"ce4bhmp2rcd13ifvqgog","pricing_plan_id":"cebpf4jnsgd1na2vs0mg"},{"bike_id":"c1e09bd1-135e-46c4-a253-43b9efe61c0f","system_id":"levelo_inurba_marseille","lat":43.30313,"lon":5.36909,"is_reserved":false,"is_disabled":false,"rental_uris":{"android":"levelo://app?vid=c1e09bd1-135e-46c4-a253-43b9efe61c0f","ios":"levelo://app?vid=c1e09bd1-135e-46c4-a253-43b9efe61c0f"},"vehicle_type_id":"4","last_reported":1743588651,"current_range_meters":11600,"station_id":"ce4bgqh2rcd13ifvqc5g","pricing_plan_id":"cebpf4jnsgd1na2vs0mg"},{"bike_id":"eba8300c-183e-45c9-a7e8-0d76d3582079","system_id":"levelo_inurba_marseille","lat":43.30576,"lon":5.36705,"is_reserved":false,"is_disabled":true,"rental_uris":{"android":"levelo://app?vid=eba8300c-183e-45c9-a7e8-0d76d3582079","ios":"levelo://app?vid=eba8300c-183e-45c9-a7e8-0d76d3582079"},"vehicle_type_id":"4","last_reported":1743588651,"current_range_meters":12000,"station_id":"ce4bgrp2rcd13ifvqc9g","pricing_plan_id":"cebpf4jnsgd1na2vs0mg"},{"bike_id":"2c430292-bb1b-4168-b1f9-f8abf0b8081d","system_id":"levelo_inurba_marseille","lat":43.3124,"lon":5.3691,"is_reserved":false,"is_disabled":false,"rental_uris":{"android":"levelo://app?vid=2c430292-bb1b-4168-b1f9-f8abf0b8081d","ios":"levelo://app?vid=2c430292-bb1b-4168-b1f9-f8abf0b8081d"},"vehicle_type_id":"4","last_reported":1743588651,"current_range_meters":12000,"station_id":"ce4bgl92rcd13ifvqbq0","pricing_plan_id":"cebpf4jnsgd1na2vs0mg"},{"bike_id":"2d48cd09-9ee2-4630-8cab-be4140a04965","system_id":"levelo_inurba_marseille","lat":43.23201,"lon":5.35554,"is_reserved":false,"is_disabled":false,"rental_uris":{"android":"levelo://app?vid=2d48cd09-9ee2-4630-8cab-be4140a04965","ios":"levelo://app?vid=2d48cd09-9ee2-4630-8cab-be4140a04965"},"vehicle_type_id":"4","last_reported":1743588651,"current_range_meters":12000,"station_id":"ce4bhu92rcd13ifvqi70","pricing_plan_id":"cebpf4jnsgd1na2vs0mg"},{"bike_id":"8ec70021-00f5-422a-928c-5a833c315b05","system_id":"levelo_inurba_marseille","lat":43.23164,"lon":5.43726,"is_reserved":false,"is_disabled":false,"rental_uris":{"android":"levelo://app?vid=8ec70021-00f5-422a-928c-5a833c315b05","ios":"levelo://app?vid=8ec70021-00f5-422a-928c-5a833c315b05"},"vehicle_type_id":"4","last_reported":1743588651,"current_range_meters":12000,"station_id":"ce4bhmp2rcd13ifvqgog","pricing_plan_id":"cebpf4jnsgd1na2vs0mg"},{"bike_id":"b6144d09-6dd1-4ca4-97f5-4ec37918d3dd","system_id":"levelo_inurba_marseille","lat":43.26696,"lon":5.38275,"is_reserved":false,"is_disabled":false,"rental_uris":{"android":"levelo://app?vid=b6144d09-6dd1-4ca4-97f5-4ec37918d3dd","ios":"levelo://app?vid=b6144d09-6dd1-4ca4-97f5-4ec37918d3dd"},"vehicle_type_id":"4","last_reported":1743588651,"current_range_meters":12000,"station_id":"ce4bhg92rcd13ifvqf90","pricing_plan_id":"cebpf4jnsgd1na2vs0mg"},{"bike_id":"51db78ca-4e6c-4d6b-8a72-72189c57d1da","system_id":"levelo_inurba_marseille","lat":43.24181,"lon":5.39743,"is_reserved":false,"is_disabled":false,"rental_uris":{"android":"levelo://app?vid=51db78ca-4e6c-4d6b-8a72-72189c57d1da","ios":"levelo://app?vid=51db78ca-4e6c-4d6b-8a72-72189c57d1da"},"vehicle_type_id":"4","last_reported":1743588651,"current_range_meters":12400,"station_id":"ce4bhn12rcd13ifvqgpg","pricing_plan_id":"cebpf4jnsgd1na2vs0mg"},{"bike_id":"7ba67d0a-4dd2-434e-9233-c217be617343","system_id":"levelo_inurba_marseille","lat":43.33795,"lon":5.37416,"is_reserved":false,"is_disabled":false,"rental_uris":{"android":"levelo://app?vid=7ba67d0a-4dd2-434e-9233-c217be617343","ios":"levelo://app?vid=7ba67d0a-4dd2-434e-9233-c217be617343"},"vehicle_type_id":"4","last_reported":1743588651,"current_range_meters":12400,"station_id":"","pricing_plan_id":"cebpf4jnsgd1na2vs0mg"},{"bike_id":"e3999b93-278b-4a74-b851-807e8484fee9","system_id":"levelo_inurba_marseille","lat":43.30543,"lon":5.3843,"is_reserved":false,"is_disabled":false,"rental_uris":{"android":"levelo://app?vid=e3999b93-278b-4a74-b851-807e8484fee9","ios":"levelo://app?vid=e3999b93-278b-4a74-b851-807e8484fee9"},"vehicle_type_id":"4","last_reported":1743588651,"current_range_meters":12400,"station_id":"ce4bgg92rcd13ifvqb30","pricing_plan_id":"cebpf4jnsgd1na2vs0mg"},{"bike_id":"7a5cc168-8f6c-4d8f-86cb-7de15764bd5c","system_id":"levelo_inurba_marseille","lat":43.26567,"lon":5.39012,"is_reserved":false,"is_disabled":false,"rental_uris":{"android":"levelo://app?vid=7a5cc168-8f6c-4d8f-86cb-7de15764bd5c","ios":"levelo://app?vid=7a5cc168-8f6c-4d8f-86cb-7de15764bd5c"},"vehicle_type_id":"4","last_reported":1743588651,"current_range_meters":12400,"station_id":"ce4bhe12rcd13ifvqf30","pricing_plan_id":"cebpf4jnsgd1na2vs0mg"},{"bike_id":"c2e6881a-04a3-4a38-9cc0-75cacf165e78","system_id":"levelo_inurba_marseille","lat":43.28832,"lon":5.364645,"is_reserved":false,"is_disabled":false,"rental_uris":{"android":"levelo://app?vid=c2e6881a-04a3-4a38-9cc0-75cacf165e78","ios":"levelo://app?vid=c2e6881a-04a3-4a38-9cc0-75cacf165e78"},"vehicle_type_id":"4","last_reported":1743588651,"current_range_meters":12800,"station_id":"","pricing_plan_id":"cebpf4jnsgd1na2vs0mg"},{"bike_id":"30bdcd36-9af7-4ac2-a275-7e1379980444","system_id":"levelo_inurba_marseille","lat":43.23184,"lon":5.39993,"is_reserved":false,"is_disabled":false,"rental_uris":{"android":"levelo://app?vid=30bdcd36-9af7-4ac2-a275-7e1379980444","ios":"levelo://app?vid=30bdcd36-9af7-4ac2-a275-7e1379980444"},"vehicle_type_id":"4","last_reported":1743588651,"current_range_meters":12800,"station_id":"ce4bhn12rcd13ifvqgqg","pricing_plan_id":"cebpf4jnsgd1na2vs0mg"},{"bike_id":"3377c291-00ff-45d6-a038-d34a37e70d08","system_id":"levelo_inurba_marseille","lat":43.308,"lon":5.38154,"is_reserved":false,"is_disabled":false,"rental_uris":{"android":"levelo://app?vid=3377c291-00ff-45d6-a038-d34a37e70d08","ios":"levelo://app?vid=3377c291-00ff-45d6-a038-d34a37e70d08"},"vehicle_type_id":"4","last_reported":1743588651,"current_range_meters":12800,"station_id":"ce4bgt12rcd13ifvqce0","pricing_plan_id":"cebpf4jnsgd1na2vs0mg"},{"bike_id":"a9c7fdca-b712-459a-9cdb-1a2cf23a1bc4","system_id":"levelo_inurba_marseille","lat":43.30947,"lon":5.39041,"is_reserved":false,"is_disabled":false,"rental_uris":{"android":"levelo://app?vid=a9c7fdca-b712-459a-9cdb-1a2cf23a1bc4","ios":"levelo://app?vid=a9c7fdca-b712-459a-9cdb-1a2cf23a1bc4"},"vehicle_type_id":"4","last_reported":1743588651,"current_range_meters":12800,"station_id":"ce4bgup2rcd13ifvqco0","pricing_plan_id":"cebpf4jnsgd1na2vs0mg"},{"bike_id":"e1fde2b3-5152-46c3-b6ec-dfaad76c9a01","system_id":"levelo_inurba_marseille","lat":43.23167,"lon":5.43679,"is_reserved":false,"is_disabled":false,"rental_uris":{"android":"levelo://app?vid=e1fde2b3-5152-46c3-b6ec-dfaad76c9a01","ios":"levelo://app?vid=e1fde2b3-5152-46c3-b6ec-dfaad76c9a01"},"vehicle_type_id":"4","last_reported":1743588651,"current_range_meters":12800,"station_id":"ce4bhmp2rcd13ifvqgog","pricing_plan_id":"cebpf4jnsgd1na2vs0mg"},{"bike_id":"aeb12a17-ec8b-418a-8dbb-c4d1dd0bcf12","system_id":"levelo_inurba_marseille","lat":43.26696,"lon":5.3827,"is_reserved":false,"is_disabled":false,"rental_uris":{"android":"levelo://app?vid=aeb12a17-ec8b-418a-8dbb-c4d1dd0bcf12","ios":"levelo://app?vid=aeb12a17-ec8b-418a-8dbb-c4d1dd0bcf12"},"vehicle_type_id":"4","last_reported":1743588651,"current_range_meters":12800,"station_id":"ce4bhg92rcd13ifvqf90","pricing_plan_id":"cebpf4jnsgd1na2vs0mg"},{"bike_id":"70e5b39f-29e3-4ea9-aa83-5a60a8eec6f8","system_id":"levelo_inurba_marseille","lat":43.25727,"lon":5.41126,"is_reserved":false,"is_disabled":false,"rental_uris":{"android":"levelo://app?vid=70e5b39f-29e3-4ea9-aa83-5a60a8eec6f8","ios":"levelo://app?vid=70e5b39f-29e3-4ea9-aa83-5a60a8eec6f8"},"vehicle_type_id":"4","last_reported":1743588651,"current_range_meters":12800,"station_id":"ce4bhkp2rcd13ifvqgd0","pricing_plan_id":"cebpf4jnsgd1na2vs0mg"},{"bike_id":"c66c1a39-d582-429f-8915-528c566967dc","system_id":"levelo_inurba_marseille","lat":43.24171,"lon":5.39727,"is_reserved":false,"is_disabled":false,"rental_uris":{"android":"levelo://app?vid=c66c1a39-d582-429f-8915-528c566967dc","ios":"levelo://app?vid=c66c1a39-d582-429f-8915-528c566967dc"},"vehicle_type_id":"4","last_reported":1743588651,"current_range_meters":13600,"station_id":"ce4bhn12rcd13ifvqgpg","pricing_plan_id":"cebpf4jnsgd1na2vs0mg"},{"bike_id":"362aa9e2-32d8-4109-b6ed-ee3acbcd408d","system_id":"levelo_inurba_marseille","lat":43.29714,"lon":5.3661,"is_reserved":false,"is_disabled":false,"rental_uris":{"android":"levelo://app?vid=362aa9e2-32d8-4109-b6ed-ee3acbcd408d","ios":"levelo://app?vid=362aa9e2-32d8-4109-b6ed-ee3acbcd408d"},"vehicle_type_id":"4","last_reported":1743588651,"current_range_meters":12800,"station_id":"ce4bgn12rcd13ifvqbt0","pricing_plan_id":"cebpf4jnsgd1na2vs0mg"},{"bike_id":"84554551-6a42-488e-8a3a-e31132de9d2c","system_id":"levelo_inurba_marseille","lat":43.23165,"lon":5.43711,"is_reserved":false,"is_disabled":false,"rental_uris":{"android":"levelo://app?vid=84554551-6a42-488e-8a3a-e31132de9d2c","ios":"levelo://app?vid=84554551-6a42-488e-8a3a-e31132de9d2c"},"vehicle_type_id":"4","last_reported":1743588651,"current_range_meters":13600,"station_id":"ce4bhmp2rcd13ifvqgog","pricing_plan_id":"cebpf4jnsgd1na2vs0mg"},{"bike_id":"89251bfd-46b0-4663-bf52-bea985bc2092","system_id":"levelo_inurba_marseille","lat":43.246533,"lon":5.388961,"is_reserved":false,"is_disabled":false,"rental_uris":{"android":"levelo://app?vid=89251bfd-46b0-4663-bf52-bea985bc2092","ios":"levelo://app?vid=89251bfd-46b0-4663-bf52-bea985bc2092"},"vehicle_type_id":"4","last_reported":1743588651,"current_range_meters":12800,"station_id":"ce4bhg12rcd13ifvqf60","pricing_plan_id":"cebpf4jnsgd1na2vs0mg"},{"bike_id":"7d49898d-4c6e-4131-9fdb-37de62f2c79c","system_id":"levelo_inurba_marseille","lat":43.28883,"lon":5.37136,"is_reserved":false,"is_disabled":false,"rental_uris":{"android":"levelo://app?vid=7d49898d-4c6e-4131-9fdb-37de62f2c79c","ios":"levelo://app?vid=7d49898d-4c6e-4131-9fdb-37de62f2c79c"},"vehicle_type_id":"4","last_reported":1743588651,"current_range_meters":13600,"station_id":"","pricing_plan_id":"cebpf4jnsgd1na2vs0mg"},{"bike_id":"46572bb1-7848-4cef-adb2-eaf522c7f416","system_id":"levelo_inurba_marseille","lat":43.25925,"lon":5.40884,"is_reserved":false,"is_disabled":false,"rental_uris":{"android":"levelo://app?vid=46572bb1-7848-4cef-adb2-eaf522c7f416","ios":"levelo://app?vid=46572bb1-7848-4cef-adb2-eaf522c7f416"},"vehicle_type_id":"4","last_reported":1743588651,"current_range_meters":13600,"station_id":"ce4bhm92rcd13ifvqglg","pricing_plan_id":"cebpf4jnsgd1na2vs0mg"},{"bike_id":"e1b03b21-5eb0-483c-b4ac-ea8a29304382","system_id":"levelo_inurba_marseille","lat":43.23065,"lon":5.35495,"is_reserved":false,"is_disabled":false,"rental_uris":{"android":"levelo://app?vid=e1b03b21-5eb0-483c-b4ac-ea8a29304382","ios":"levelo://app?vid=e1b03b21-5eb0-483c-b4ac-ea8a29304382"},"vehicle_type_id":"4","last_reported":1743588651,"current_range_meters":14000,"station_id":"cpo3342slgdg3j2ifvpg","pricing_plan_id":"cebpf4jnsgd1na2vs0mg"},{"bike_id":"e487317c-649e-49d5-9295-a0095f402d04","system_id":"levelo_inurba_marseille","lat":43.30156,"lon":5.38087,"is_reserved":false,"is_disabled":false,"rental_uris":{"android":"levelo://app?vid=e487317c-649e-49d5-9295-a0095f402d04","ios":"levelo://app?vid=e487317c-649e-49d5-9295-a0095f402d04"},"vehicle_type_id":"4","last_reported":1743588651,"current_range_meters":14000,"station_id":"ce4bgjp2rcd13ifvqbh0","pricing_plan_id":"cebpf4jnsgd1na2vs0mg"},{"bike_id":"98012b96-ffa0-4137-a9d0-df4658df8a7d","system_id":"levelo_inurba_marseille","lat":43.29362,"lon":5.37837,"is_reserved":false,"is_disabled":false,"rental_uris":{"android":"levelo://app?vid=98012b96-ffa0-4137-a9d0-df4658df8a7d","ios":"levelo://app?vid=98012b96-ffa0-4137-a9d0-df4658df8a7d"},"vehicle_type_id":"4","last_reported":1743588651,"current_range_meters":14000,"station_id":"ce4bgjh2rcd13ifvqbf0","pricing_plan_id":"cebpf4jnsgd1na2vs0mg"},{"bike_id":"adb099cf-52ed-409b-a796-c724fb1ce34d","system_id":"levelo_inurba_marseille","lat":43.23151,"lon":5.43706,"is_reserved":false,"is_disabled":false,"rental_uris":{"android":"levelo://app?vid=adb099cf-52ed-409b-a796-c724fb1ce34d","ios":"levelo://app?vid=adb099cf-52ed-409b-a796-c724fb1ce34d"},"vehicle_type_id":"4","last_reported":1743588651,"current_range_meters":14000,"station_id":"ce4bhmp2rcd13ifvqgog","pricing_plan_id":"cebpf4jnsgd1na2vs0mg"},{"bike_id":"d0af5f19-45bd-4729-b88d-89f6bf25212c","system_id":"levelo_inurba_marseille","lat":43.30543,"lon":5.36693,"is_reserved":false,"is_disabled":false,"rental_uris":{"android":"levelo://app?vid=d0af5f19-45bd-4729-b88d-89f6bf25212c","ios":"levelo://app?vid=d0af5f19-45bd-4729-b88d-89f6bf25212c"},"vehicle_type_id":"4","last_reported":1743588651,"current_range_meters":14000,"station_id":"ce4bgrp2rcd13ifvqc9g","pricing_plan_id":"cebpf4jnsgd1na2vs0mg"},{"bike_id":"74e99970-29e9-4e9f-9e79-99e47d0243ea","system_id":"levelo_inurba_marseille","lat":43.28716,"lon":5.39997,"is_reserved":false,"is_disabled":false,"rental_uris":{"android":"levelo://app?vid=74e99970-29e9-4e9f-9e79-99e47d0243ea","ios":"levelo://app?vid=74e99970-29e9-4e9f-9e79-99e47d0243ea"},"vehicle_type_id":"4","last_reported":1743588651,"current_range_meters":14000,"station_id":"ce4bho92rcd13ifvqh3g","pricing_plan_id":"cebpf4jnsgd1na2vs0mg"},{"bike_id":"cbb1bb20-5dab-4554-8f14-df33adbfef7b","system_id":"levelo_inurba_marseille","lat":43.25925,"lon":5.40909,"is_reserved":false,"is_disabled":true,"rental_uris":{"android":"levelo://app?vid=cbb1bb20-5dab-4554-8f14-df33adbfef7b","ios":"levelo://app?vid=cbb1bb20-5dab-4554-8f14-df33adbfef7b"},"vehicle_type_id":"4","last_reported":1743588651,"current_range_meters":14000,"station_id":"ce4bhm92rcd13ifvqglg","pricing_plan_id":"cebpf4jnsgd1na2vs0mg"},{"bike_id":"99548af5-3698-4fe6-b34e-fc6c0e3ccfa1","system_id":"levelo_inurba_marseille","lat":43.27576,"lon":5.38417,"is_reserved":false,"is_disabled":false,"rental_uris":{"android":"levelo://app?vid=99548af5-3698-4fe6-b34e-fc6c0e3ccfa1","ios":"levelo://app?vid=99548af5-3698-4fe6-b34e-fc6c0e3ccfa1"},"vehicle_type_id":"4","last_reported":1743588651,"current_range_meters":14000,"station_id":"ce4bhh92rcd13ifvqfi0","pricing_plan_id":"cebpf4jnsgd1na2vs0mg"},{"bike_id":"d46e3b7d-5880-49a5-8948-03033e28397f","system_id":"levelo_inurba_marseille","lat":43.29027,"lon":5.38649,"is_reserved":false,"is_disabled":false,"rental_uris":{"android":"levelo://app?vid=d46e3b7d-5880-49a5-8948-03033e28397f","ios":"levelo://app?vid=d46e3b7d-5880-49a5-8948-03033e28397f"},"vehicle_type_id":"4","last_reported":1743588651,"current_range_meters":14400,"station_id":"ce4bh4p2rcd13ifvqe0g","pricing_plan_id":"cebpf4jnsgd1na2vs0mg"},{"bike_id":"cd83c8ac-ed09-4369-9279-b6f36f2bbd3c","system_id":"levelo_inurba_marseille","lat":43.30775,"lon":5.38259,"is_reserved":false,"is_disabled":false,"rental_uris":{"android":"levelo://app?vid=cd83c8ac-ed09-4369-9279-b6f36f2bbd3c","ios":"levelo://app?vid=cd83c8ac-ed09-4369-9279-b6f36f2bbd3c"},"vehicle_type_id":"4","last_reported":1743588651,"current_range_meters":14400,"station_id":"","pricing_plan_id":"cebpf4jnsgd1na2vs0mg"},{"bike_id":"ddf4f7bc-b429-4ca6-98cc-3ac180d0ed5f","system_id":"levelo_inurba_marseille","lat":43.23206,"lon":5.35561,"is_reserved":false,"is_disabled":false,"rental_uris":{"android":"levelo://app?vid=ddf4f7bc-b429-4ca6-98cc-3ac180d0ed5f","ios":"levelo://app?vid=ddf4f7bc-b429-4ca6-98cc-3ac180d0ed5f"},"vehicle_type_id":"4","last_reported":1743588651,"current_range_meters":14400,"station_id":"ce4bhu92rcd13ifvqi70","pricing_plan_id":"cebpf4jnsgd1na2vs0mg"},{"bike_id":"3026be77-df9c-4a4a-83d6-132b5a38a0dc","system_id":"levelo_inurba_marseille","lat":43.23178,"lon":5.39975,"is_reserved":false,"is_disabled":false,"rental_uris":{"android":"levelo://app?vid=3026be77-df9c-4a4a-83d6-132b5a38a0dc","ios":"levelo://app?vid=3026be77-df9c-4a4a-83d6-132b5a38a0dc"},"vehicle_type_id":"4","last_reported":1743588651,"current_range_meters":14400,"station_id":"ce4bhn12rcd13ifvqgqg","pricing_plan_id":"cebpf4jnsgd1na2vs0mg"},{"bike_id":"18b33a43-8113-4d0f-b40c-6a7201a04dd5","system_id":"levelo_inurba_marseille","lat":43.32362,"lon":5.36761,"is_reserved":false,"is_disabled":false,"rental_uris":{"android":"levelo://app?vid=18b33a43-8113-4d0f-b40c-6a7201a04dd5","ios":"levelo://app?vid=18b33a43-8113-4d0f-b40c-6a7201a04dd5"},"vehicle_type_id":"4","last_reported":1743588651,"current_range_meters":14400,"station_id":"ce4bhsh2rcd13ifvqi2g","pricing_plan_id":"cebpf4jnsgd1na2vs0mg"},{"bike_id":"2003c2c5-4e29-437a-ada3-c1c62717ff35","system_id":"levelo_inurba_marseille","lat":43.2695,"lon":5.38633,"is_reserved":false,"is_disabled":false,"rental_uris":{"android":"levelo://app?vid=2003c2c5-4e29-437a-ada3-c1c62717ff35","ios":"levelo://app?vid=2003c2c5-4e29-437a-ada3-c1c62717ff35"},"vehicle_type_id":"4","last_reported":1743588651,"current_range_meters":14800,"station_id":"ce4bhh92rcd13ifvqfh0","pricing_plan_id":"cebpf4jnsgd1na2vs0mg"},{"bike_id":"eca000f3-7adb-462c-b7ed-61fb5b2098fc","system_id":"levelo_inurba_marseille","lat":43.22935,"lon":5.35384,"is_reserved":false,"is_disabled":false,"rental_uris":{"android":"levelo://app?vid=eca000f3-7adb-462c-b7ed-61fb5b2098fc","ios":"levelo://app?vid=eca000f3-7adb-462c-b7ed-61fb5b2098fc"},"vehicle_type_id":"4","last_reported":1743588651,"current_range_meters":14800,"station_id":"cpo3532slgdg3j2ikp40","pricing_plan_id":"cebpf4jnsgd1na2vs0mg"},{"bike_id":"2429f6ee-21ef-4322-86cf-f82aa622183a","system_id":"levelo_inurba_marseille","lat":43.29556,"lon":5.42293,"is_reserved":false,"is_disabled":false,"rental_uris":{"android":"levelo://app?vid=2429f6ee-21ef-4322-86cf-f82aa622183a","ios":"levelo://app?vid=2429f6ee-21ef-4322-86cf-f82aa622183a"},"vehicle_type_id":"4","last_reported":1743588651,"current_range_meters":14800,"station_id":"ce4bhph2rcd13ifvqhdg","pricing_plan_id":"cebpf4jnsgd1na2vs0mg"},{"bike_id":"6e05811e-06e7-4304-8ce9-6c25e6bc01dd","system_id":"levelo_inurba_marseille","lat":43.32092,"lon":5.36775,"is_reserved":false,"is_disabled":false,"rental_uris":{"android":"levelo://app?vid=6e05811e-06e7-4304-8ce9-6c25e6bc01dd","ios":"levelo://app?vid=6e05811e-06e7-4304-8ce9-6c25e6bc01dd"},"vehicle_type_id":"4","last_reported":1743588651,"current_range_meters":15200,"station_id":"ce4bhrh2rcd13ifvqhug","pricing_plan_id":"cebpf4jnsgd1na2vs0mg"},{"bike_id":"1a592dd4-05f6-451a-a281-45bcd19f68ca","system_id":"levelo_inurba_marseille","lat":43.23182,"lon":5.39989,"is_reserved":false,"is_disabled":false,"rental_uris":{"android":"levelo://app?vid=1a592dd4-05f6-451a-a281-45bcd19f68ca","ios":"levelo://app?vid=1a592dd4-05f6-451a-a281-45bcd19f68ca"},"vehicle_type_id":"4","last_reported":1743588651,"current_range_meters":15200,"station_id":"ce4bhn12rcd13ifvqgqg","pricing_plan_id":"cebpf4jnsgd1na2vs0mg"},{"bike_id":"19819bb6-3dc6-4984-8ff3-852240d750bc","system_id":"levelo_inurba_marseille","lat":43.30221,"lon":5.39463,"is_reserved":false,"is_disabled":false,"rental_uris":{"android":"levelo://app?vid=19819bb6-3dc6-4984-8ff3-852240d750bc","ios":"levelo://app?vid=19819bb6-3dc6-4984-8ff3-852240d750bc"},"vehicle_type_id":"4","last_reported":1743588651,"current_range_meters":15200,"station_id":"ce4bh0p2rcd13ifvqd70","pricing_plan_id":"cebpf4jnsgd1na2vs0mg"},{"bike_id":"dc82e7cc-fca9-407e-94b1-12a4b04232c9","system_id":"levelo_inurba_marseille","lat":43.28733,"lon":5.39988,"is_reserved":false,"is_disabled":true,"rental_uris":{"android":"levelo://app?vid=dc82e7cc-fca9-407e-94b1-12a4b04232c9","ios":"levelo://app?vid=dc82e7cc-fca9-407e-94b1-12a4b04232c9"},"vehicle_type_id":"4","last_reported":1743588651,"current_range_meters":15200,"station_id":"ce4bho92rcd13ifvqh3g","pricing_plan_id":"cebpf4jnsgd1na2vs0mg"},{"bike_id":"9f62f29e-b083-4314-9e82-a49e79ecd17d","system_id":"levelo_inurba_marseille","lat":43.22948,"lon":5.35369,"is_reserved":false,"is_disabled":false,"rental_uris":{"android":"levelo://app?vid=9f62f29e-b083-4314-9e82-a49e79ecd17d","ios":"levelo://app?vid=9f62f29e-b083-4314-9e82-a49e79ecd17d"},"vehicle_type_id":"4","last_reported":1743588651,"current_range_meters":15200,"station_id":"cpo3532slgdg3j2ikp40","pricing_plan_id":"cebpf4jnsgd1na2vs0mg"},{"bike_id":"a1566f65-7974-4adb-bc5b-c64d03a44f23","system_id":"levelo_inurba_marseille","lat":43.25004,"lon":5.38922,"is_reserved":false,"is_disabled":false,"rental_uris":{"android":"levelo://app?vid=a1566f65-7974-4adb-bc5b-c64d03a44f23","ios":"levelo://app?vid=a1566f65-7974-4adb-bc5b-c64d03a44f23"},"vehicle_type_id":"4","last_reported":1743588651,"current_range_meters":16000,"station_id":"ce4bhgp2rcd13ifvqfd0","pricing_plan_id":"cebpf4jnsgd1na2vs0mg"},{"bike_id":"62a0631e-546d-40b2-a063-9ddec04e2276","system_id":"levelo_inurba_marseille","lat":43.32099,"lon":5.36769,"is_reserved":false,"is_disabled":false,"rental_uris":{"android":"levelo://app?vid=62a0631e-546d-40b2-a063-9ddec04e2276","ios":"levelo://app?vid=62a0631e-546d-40b2-a063-9ddec04e2276"},"vehicle_type_id":"4","last_reported":1743588651,"current_range_meters":16000,"station_id":"ce4bhrh2rcd13ifvqhug","pricing_plan_id":"cebpf4jnsgd1na2vs0mg"},{"bike_id":"ce742e8a-70db-49d4-a7e0-dc4a70358402","system_id":"levelo_inurba_marseille","lat":43.29261,"lon":5.37597,"is_reserved":false,"is_disabled":false,"rental_uris":{"android":"levelo://app?vid=ce742e8a-70db-49d4-a7e0-dc4a70358402","ios":"levelo://app?vid=ce742e8a-70db-49d4-a7e0-dc4a70358402"},"vehicle_type_id":"4","last_reported":1743588651,"current_range_meters":16000,"station_id":"ce4bgi12rcd13ifvqb80","pricing_plan_id":"cebpf4jnsgd1na2vs0mg"},{"bike_id":"352e2f30-1c52-4033-a43a-dc92205d76f3","system_id":"levelo_inurba_marseille","lat":43.29978,"lon":5.41328,"is_reserved":false,"is_disabled":false,"rental_uris":{"android":"levelo://app?vid=352e2f30-1c52-4033-a43a-dc92205d76f3","ios":"levelo://app?vid=352e2f30-1c52-4033-a43a-dc92205d76f3"},"vehicle_type_id":"4","last_reported":1743588651,"current_range_meters":16000,"station_id":"ce4bhp12rcd13ifvqh9g","pricing_plan_id":"cebpf4jnsgd1na2vs0mg"},{"bike_id":"10f9987f-6e0d-46c5-89bb-59eb0a1f7723","system_id":"levelo_inurba_marseille","lat":43.24401,"lon":5.37047,"is_reserved":false,"is_disabled":false,"rental_uris":{"android":"levelo://app?vid=10f9987f-6e0d-46c5-89bb-59eb0a1f7723","ios":"levelo://app?vid=10f9987f-6e0d-46c5-89bb-59eb0a1f7723"},"vehicle_type_id":"4","last_reported":1743588651,"current_range_meters":16000,"station_id":"ce4bhhh2rcd13ifvqfk0","pricing_plan_id":"cebpf4jnsgd1na2vs0mg"},{"bike_id":"1d901708-f2b0-4298-b219-881ba909d64b","system_id":"levelo_inurba_marseille","lat":43.25117,"lon":5.40319,"is_reserved":false,"is_disabled":false,"rental_uris":{"android":"levelo://app?vid=1d901708-f2b0-4298-b219-881ba909d64b","ios":"levelo://app?vid=1d901708-f2b0-4298-b219-881ba909d64b"},"vehicle_type_id":"4","last_reported":1743588651,"current_range_meters":15200,"station_id":"ce4bhlh2rcd13ifvqgig","pricing_plan_id":"cebpf4jnsgd1na2vs0mg"},{"bike_id":"d39b1f38-6cce-4b16-90cb-9372acd6ad39","system_id":"levelo_inurba_marseille","lat":43.29021,"lon":5.38611,"is_reserved":false,"is_disabled":false,"rental_uris":{"android":"levelo://app?vid=d39b1f38-6cce-4b16-90cb-9372acd6ad39","ios":"levelo://app?vid=d39b1f38-6cce-4b16-90cb-9372acd6ad39"},"vehicle_type_id":"4","last_reported":1743588651,"current_range_meters":15200,"station_id":"ce4bh4p2rcd13ifvqe0g","pricing_plan_id":"cebpf4jnsgd1na2vs0mg"},{"bike_id":"94ce65fd-4b4a-4349-b21d-580fec8fa1c1","system_id":"levelo_inurba_marseille","lat":43.25944,"lon":5.40901,"is_reserved":false,"is_disabled":false,"rental_uris":{"android":"levelo://app?vid=94ce65fd-4b4a-4349-b21d-580fec8fa1c1","ios":"levelo://app?vid=94ce65fd-4b4a-4349-b21d-580fec8fa1c1"},"vehicle_type_id":"4","last_reported":1743588651,"current_range_meters":16400,"station_id":"ce4bhm92rcd13ifvqglg","pricing_plan_id":"cebpf4jnsgd1na2vs0mg"},{"bike_id":"22d47046-8bb1-41ae-9bb4-96eb088b2e63","system_id":"levelo_inurba_marseille","lat":43.3212,"lon":5.36764,"is_reserved":false,"is_disabled":false,"rental_uris":{"android":"levelo://app?vid=22d47046-8bb1-41ae-9bb4-96eb088b2e63","ios":"levelo://app?vid=22d47046-8bb1-41ae-9bb4-96eb088b2e63"},"vehicle_type_id":"4","last_reported":1743588651,"current_range_meters":16400,"station_id":"ce4bhrh2rcd13ifvqhug","pricing_plan_id":"cebpf4jnsgd1na2vs0mg"},{"bike_id":"af1eb195-7b62-49b6-8333-a22bc59eb988","system_id":"levelo_inurba_marseille","lat":43.30542,"lon":5.36564,"is_reserved":false,"is_disabled":false,"rental_uris":{"android":"levelo://app?vid=af1eb195-7b62-49b6-8333-a22bc59eb988","ios":"levelo://app?vid=af1eb195-7b62-49b6-8333-a22bc59eb988"},"vehicle_type_id":"4","last_reported":1743588651,"current_range_meters":16400,"station_id":"ce4bgs12rcd13ifvqcag","pricing_plan_id":"cebpf4jnsgd1na2vs0mg"},{"bike_id":"97aa5e6f-e45b-4e21-a47e-52761ee9cdb1","system_id":"levelo_inurba_marseille","lat":43.32111,"lon":5.36775,"is_reserved":false,"is_disabled":false,"rental_uris":{"android":"levelo://app?vid=97aa5e6f-e45b-4e21-a47e-52761ee9cdb1","ios":"levelo://app?vid=97aa5e6f-e45b-4e21-a47e-52761ee9cdb1"},"vehicle_type_id":"4","last_reported":1743588651,"current_range_meters":16400,"station_id":"ce4bhrh2rcd13ifvqhug","pricing_plan_id":"cebpf4jnsgd1na2vs0mg"},{"bike_id":"bfe6083f-48dc-440e-99f1-68c630b7154b","system_id":"levelo_inurba_marseille","lat":43.24673,"lon":5.38176,"is_reserved":false,"is_disabled":false,"rental_uris":{"android":"levelo://app?vid=bfe6083f-48dc-440e-99f1-68c630b7154b","ios":"levelo://app?vid=bfe6083f-48dc-440e-99f1-68c630b7154b"},"vehicle_type_id":"4","last_reported":1743588651,"current_range_meters":16400,"station_id":"ce4bhih2rcd13ifvqfr0","pricing_plan_id":"cebpf4jnsgd1na2vs0mg"},{"bike_id":"78ca934a-98c9-4dbc-b5b6-c2ca906050d2","system_id":"levelo_inurba_marseille","lat":43.29755,"lon":5.38923,"is_reserved":false,"is_disabled":false,"rental_uris":{"android":"levelo://app?vid=78ca934a-98c9-4dbc-b5b6-c2ca906050d2","ios":"levelo://app?vid=78ca934a-98c9-4dbc-b5b6-c2ca906050d2"},"vehicle_type_id":"4","last_reported":1743588651,"current_range_meters":16400,"station_id":"","pricing_plan_id":"cebpf4jnsgd1na2vs0mg"},{"bike_id":"db4f2fea-dd78-4839-8016-eeab270922ec","system_id":"levelo_inurba_marseille","lat":43.2315,"lon":5.43715,"is_reserved":false,"is_disabled":true,"rental_uris":{"android":"levelo://app?vid=db4f2fea-dd78-4839-8016-eeab270922ec","ios":"levelo://app?vid=db4f2fea-dd78-4839-8016-eeab270922ec"},"vehicle_type_id":"4","last_reported":1743588651,"current_range_meters":16400,"station_id":"ce4bhmp2rcd13ifvqgog","pricing_plan_id":"cebpf4jnsgd1na2vs0mg"},{"bike_id":"b86b5b87-f029-48ac-aa00-3a50d7e2c1d2","system_id":"levelo_inurba_marseille","lat":43.32337,"lon":5.36643,"is_reserved":false,"is_disabled":true,"rental_uris":{"android":"levelo://app?vid=b86b5b87-f029-48ac-aa00-3a50d7e2c1d2","ios":"levelo://app?vid=b86b5b87-f029-48ac-aa00-3a50d7e2c1d2"},"vehicle_type_id":"4","last_reported":1743588651,"current_range_meters":16400,"station_id":"","pricing_plan_id":"cebpf4jnsgd1na2vs0mg"},{"bike_id":"010ff397-c0d4-49b6-ae9d-c5c094fbc4c7","system_id":"levelo_inurba_marseille","lat":43.295227,"lon":5.385195,"is_reserved":false,"is_disabled":false,"rental_uris":{"android":"levelo://app?vid=010ff397-c0d4-49b6-ae9d-c5c094fbc4c7","ios":"levelo://app?vid=010ff397-c0d4-49b6-ae9d-c5c094fbc4c7"},"vehicle_type_id":"4","last_reported":1743588651,"current_range_meters":16400,"station_id":"","pricing_plan_id":"cebpf4jnsgd1na2vs0mg"},{"bike_id":"e7b309fe-ae17-4463-bfd1-7e7e15593842","system_id":"levelo_inurba_marseille","lat":43.24408,"lon":5.37058,"is_reserved":false,"is_disabled":false,"rental_uris":{"android":"levelo://app?vid=e7b309fe-ae17-4463-bfd1-7e7e15593842","ios":"levelo://app?vid=e7b309fe-ae17-4463-bfd1-7e7e15593842"},"vehicle_type_id":"4","last_reported":1743588651,"current_range_meters":16400,"station_id":"ce4bhhh2rcd13ifvqfk0","pricing_plan_id":"cebpf4jnsgd1na2vs0mg"},{"bike_id":"7d88daa7-1ee4-4a92-b15b-50a0802372f0","system_id":"levelo_inurba_marseille","lat":43.27215,"lon":5.39179,"is_reserved":false,"is_disabled":false,"rental_uris":{"android":"levelo://app?vid=7d88daa7-1ee4-4a92-b15b-50a0802372f0","ios":"levelo://app?vid=7d88daa7-1ee4-4a92-b15b-50a0802372f0"},"vehicle_type_id":"4","last_reported":1743588651,"current_range_meters":16800,"station_id":"ce4bhhp2rcd13ifvqfm0","pricing_plan_id":"cebpf4jnsgd1na2vs0mg"},{"bike_id":"6017bfc6-b273-4ba4-9488-310f242f3a92","system_id":"levelo_inurba_marseille","lat":43.31262,"lon":5.4018,"is_reserved":false,"is_disabled":true,"rental_uris":{"android":"levelo://app?vid=6017bfc6-b273-4ba4-9488-310f242f3a92","ios":"levelo://app?vid=6017bfc6-b273-4ba4-9488-310f242f3a92"},"vehicle_type_id":"4","last_reported":1743588651,"current_range_meters":16800,"station_id":"ce4bh092rcd13ifvqd30","pricing_plan_id":"cebpf4jnsgd1na2vs0mg"},{"bike_id":"2ce15062-0447-4a3d-a704-9bfdb940eb6b","system_id":"levelo_inurba_marseille","lat":43.27213,"lon":5.39178,"is_reserved":false,"is_disabled":false,"rental_uris":{"android":"levelo://app?vid=2ce15062-0447-4a3d-a704-9bfdb940eb6b","ios":"levelo://app?vid=2ce15062-0447-4a3d-a704-9bfdb940eb6b"},"vehicle_type_id":"4","last_reported":1743588651,"current_range_meters":16400,"station_id":"ce4bhhp2rcd13ifvqfm0","pricing_plan_id":"cebpf4jnsgd1na2vs0mg"},{"bike_id":"77cf7cd2-7fb0-4af3-b65d-ece8e4f8d0f3","system_id":"levelo_inurba_marseille","lat":43.27677,"lon":5.38909,"is_reserved":false,"is_disabled":false,"rental_uris":{"android":"levelo://app?vid=77cf7cd2-7fb0-4af3-b65d-ece8e4f8d0f3","ios":"levelo://app?vid=77cf7cd2-7fb0-4af3-b65d-ece8e4f8d0f3"},"vehicle_type_id":"4","last_reported":1743588651,"current_range_meters":16800,"station_id":"ce4bhi12rcd13ifvqfo0","pricing_plan_id":"cebpf4jnsgd1na2vs0mg"},{"bike_id":"6fd15896-5697-470b-8f07-45b11106795c","system_id":"levelo_inurba_marseille","lat":43.32102,"lon":5.36766,"is_reserved":false,"is_disabled":false,"rental_uris":{"android":"levelo://app?vid=6fd15896-5697-470b-8f07-45b11106795c","ios":"levelo://app?vid=6fd15896-5697-470b-8f07-45b11106795c"},"vehicle_type_id":"4","last_reported":1743588651,"current_range_meters":16800,"station_id":"ce4bhrh2rcd13ifvqhug","pricing_plan_id":"cebpf4jnsgd1na2vs0mg"},{"bike_id":"4ac2000e-3962-48eb-aaf2-3b9ba0658f76","system_id":"levelo_inurba_marseille","lat":43.30465,"lon":5.37913,"is_reserved":false,"is_disabled":false,"rental_uris":{"android":"levelo://app?vid=4ac2000e-3962-48eb-aaf2-3b9ba0658f76","ios":"levelo://app?vid=4ac2000e-3962-48eb-aaf2-3b9ba0658f76"},"vehicle_type_id":"4","last_reported":1743588651,"current_range_meters":16800,"station_id":"ce4bgup2rcd13ifvqcn0","pricing_plan_id":"cebpf4jnsgd1na2vs0mg"},{"bike_id":"e6f02e74-383c-4bae-b8c4-037430863270","system_id":"levelo_inurba_marseille","lat":43.23053,"lon":5.35487,"is_reserved":false,"is_disabled":false,"rental_uris":{"android":"levelo://app?vid=e6f02e74-383c-4bae-b8c4-037430863270","ios":"levelo://app?vid=e6f02e74-383c-4bae-b8c4-037430863270"},"vehicle_type_id":"4","last_reported":1743588651,"current_range_meters":16800,"station_id":"cpo3342slgdg3j2ifvpg","pricing_plan_id":"cebpf4jnsgd1na2vs0mg"},{"bike_id":"c1c63035-c83b-4419-8cbf-133778d95125","system_id":"levelo_inurba_marseille","lat":43.297922,"lon":5.393558,"is_reserved":false,"is_disabled":true,"rental_uris":{"android":"levelo://app?vid=c1c63035-c83b-4419-8cbf-133778d95125","ios":"levelo://app?vid=c1c63035-c83b-4419-8cbf-133778d95125"},"vehicle_type_id":"4","last_reported":1743588651,"current_range_meters":16800,"station_id":"chh1huq6cuj3fo74tm60","pricing_plan_id":"cebpf4jnsgd1na2vs0mg"},{"bike_id":"704d09f1-37d1-4c7c-b83b-d9079afff1ad","system_id":"levelo_inurba_marseille","lat":43.2866,"lon":5.36345,"is_reserved":false,"is_disabled":true,"rental_uris":{"android":"levelo://app?vid=704d09f1-37d1-4c7c-b83b-d9079afff1ad","ios":"levelo://app?vid=704d09f1-37d1-4c7c-b83b-d9079afff1ad"},"vehicle_type_id":"4","last_reported":1743588651,"current_range_meters":16800,"station_id":"ce4bhah2rcd13ifvqej0","pricing_plan_id":"cebpf4jnsgd1na2vs0mg"},{"bike_id":"71601486-c3ad-43be-aeb2-ae490f1f69fc","system_id":"levelo_inurba_marseille","lat":43.26561,"lon":5.39012,"is_reserved":false,"is_disabled":false,"rental_uris":{"android":"levelo://app?vid=71601486-c3ad-43be-aeb2-ae490f1f69fc","ios":"levelo://app?vid=71601486-c3ad-43be-aeb2-ae490f1f69fc"},"vehicle_type_id":"4","last_reported":1743588651,"current_range_meters":16800,"station_id":"ce4bhe12rcd13ifvqf30","pricing_plan_id":"cebpf4jnsgd1na2vs0mg"},{"bike_id":"fb6581bf-a458-4db5-9bef-a53c87c6b8c4","system_id":"levelo_inurba_marseille","lat":43.30173,"lon":5.38081,"is_reserved":false,"is_disabled":false,"rental_uris":{"android":"levelo://app?vid=fb6581bf-a458-4db5-9bef-a53c87c6b8c4","ios":"levelo://app?vid=fb6581bf-a458-4db5-9bef-a53c87c6b8c4"},"vehicle_type_id":"4","last_reported":1743588651,"current_range_meters":17200,"station_id":"ce4bgjp2rcd13ifvqbh0","pricing_plan_id":"cebpf4jnsgd1na2vs0mg"},{"bike_id":"e3a29d38-a611-4b12-87ef-2fb8a21c41d5","system_id":"levelo_inurba_marseille","lat":43.22925,"lon":5.35373,"is_reserved":false,"is_disabled":false,"rental_uris":{"android":"levelo://app?vid=e3a29d38-a611-4b12-87ef-2fb8a21c41d5","ios":"levelo://app?vid=e3a29d38-a611-4b12-87ef-2fb8a21c41d5"},"vehicle_type_id":"4","last_reported":1743588651,"current_range_meters":17200,"station_id":"cpo3532slgdg3j2ikp40","pricing_plan_id":"cebpf4jnsgd1na2vs0mg"},{"bike_id":"644f36b3-dd9f-471a-848f-57f5404c5b9d","system_id":"levelo_inurba_marseille","lat":43.29043,"lon":5.3995,"is_reserved":false,"is_disabled":false,"rental_uris":{"android":"levelo://app?vid=644f36b3-dd9f-471a-848f-57f5404c5b9d","ios":"levelo://app?vid=644f36b3-dd9f-471a-848f-57f5404c5b9d"},"vehicle_type_id":"4","last_reported":1743588651,"current_range_meters":17200,"station_id":"ce4bh392rcd13ifvqdm0","pricing_plan_id":"cebpf4jnsgd1na2vs0mg"},{"bike_id":"8683a60c-bda4-43bd-bf99-387c28d1eb0a","system_id":"levelo_inurba_marseille","lat":43.3148,"lon":5.37305,"is_reserved":false,"is_disabled":false,"rental_uris":{"android":"levelo://app?vid=8683a60c-bda4-43bd-bf99-387c28d1eb0a","ios":"levelo://app?vid=8683a60c-bda4-43bd-bf99-387c28d1eb0a"},"vehicle_type_id":"4","last_reported":1743588651,"current_range_meters":17600,"station_id":"ce4bgt12rcd13ifvqcd0","pricing_plan_id":"cebpf4jnsgd1na2vs0mg"},{"bike_id":"9d22a659-d4ee-4419-9914-2392e42c4324","system_id":"levelo_inurba_marseille","lat":43.31907,"lon":5.40737,"is_reserved":false,"is_disabled":false,"rental_uris":{"android":"levelo://app?vid=9d22a659-d4ee-4419-9914-2392e42c4324","ios":"levelo://app?vid=9d22a659-d4ee-4419-9914-2392e42c4324"},"vehicle_type_id":"4","last_reported":1743588651,"current_range_meters":17200,"station_id":"ce4bhq12rcd13ifvqhig","pricing_plan_id":"cebpf4jnsgd1na2vs0mg"},{"bike_id":"fe292e84-5f35-4b6c-af67-c3ea3dfe7bec","system_id":"levelo_inurba_marseille","lat":43.27308,"lon":5.3907,"is_reserved":false,"is_disabled":true,"rental_uris":{"android":"levelo://app?vid=fe292e84-5f35-4b6c-af67-c3ea3dfe7bec","ios":"levelo://app?vid=fe292e84-5f35-4b6c-af67-c3ea3dfe7bec"},"vehicle_type_id":"4","last_reported":1743588651,"current_range_meters":17600,"station_id":"ce4bhgp2rcd13ifvqfe0","pricing_plan_id":"cebpf4jnsgd1na2vs0mg"},{"bike_id":"80721062-abfd-4ef0-8dd8-78251fda4a16","system_id":"levelo_inurba_marseille","lat":43.28271,"lon":5.35065,"is_reserved":false,"is_disabled":false,"rental_uris":{"android":"levelo://app?vid=80721062-abfd-4ef0-8dd8-78251fda4a16","ios":"levelo://app?vid=80721062-abfd-4ef0-8dd8-78251fda4a16"},"vehicle_type_id":"4","last_reported":1743588651,"current_range_meters":17600,"station_id":"ce4bhbp2rcd13ifvqerg","pricing_plan_id":"cebpf4jnsgd1na2vs0mg"},{"bike_id":"60cbeb64-2f5f-43f3-a911-70fdf571bc7c","system_id":"levelo_inurba_marseille","lat":43.30542,"lon":5.36533,"is_reserved":false,"is_disabled":false,"rental_uris":{"android":"levelo://app?vid=60cbeb64-2f5f-43f3-a911-70fdf571bc7c","ios":"levelo://app?vid=60cbeb64-2f5f-43f3-a911-70fdf571bc7c"},"vehicle_type_id":"4","last_reported":1743588651,"current_range_meters":17600,"station_id":"ce4bgs12rcd13ifvqcag","pricing_plan_id":"cebpf4jnsgd1na2vs0mg"},{"bike_id":"1bd4c5e9-3479-4a34-bfb9-e556a3bbe8ed","system_id":"levelo_inurba_marseille","lat":43.23053,"lon":5.3548,"is_reserved":false,"is_disabled":false,"rental_uris":{"android":"levelo://app?vid=1bd4c5e9-3479-4a34-bfb9-e556a3bbe8ed","ios":"levelo://app?vid=1bd4c5e9-3479-4a34-bfb9-e556a3bbe8ed"},"vehicle_type_id":"4","last_reported":1743588651,"current_range_meters":17600,"station_id":"cpo3342slgdg3j2ifvpg","pricing_plan_id":"cebpf4jnsgd1na2vs0mg"},{"bike_id":"2ec3aa0d-9266-498c-b171-6ad865ff17b3","system_id":"levelo_inurba_marseille","lat":43.27629,"lon":5.36112,"is_reserved":false,"is_disabled":false,"rental_uris":{"android":"levelo://app?vid=2ec3aa0d-9266-498c-b171-6ad865ff17b3","ios":"levelo://app?vid=2ec3aa0d-9266-498c-b171-6ad865ff17b3"},"vehicle_type_id":"4","last_reported":1743588651,"current_range_meters":17600,"station_id":"ce4bgj92rcd13ifvqbe0","pricing_plan_id":"cebpf4jnsgd1na2vs0mg"},{"bike_id":"641d2e8f-3ad6-4afa-be8f-93b61ca39595","system_id":"levelo_inurba_marseille","lat":43.31487,"lon":5.3729,"is_reserved":false,"is_disabled":false,"rental_uris":{"android":"levelo://app?vid=641d2e8f-3ad6-4afa-be8f-93b61ca39595","ios":"levelo://app?vid=641d2e8f-3ad6-4afa-be8f-93b61ca39595"},"vehicle_type_id":"4","last_reported":1743588651,"current_range_meters":17600,"station_id":"ce4bgt12rcd13ifvqcd0","pricing_plan_id":"cebpf4jnsgd1na2vs0mg"},{"bike_id":"e26ebfb6-722a-4c9e-a23d-26017d47ad14","system_id":"levelo_inurba_marseille","lat":43.258691,"lon":5.399132,"is_reserved":false,"is_disabled":false,"rental_uris":{"android":"levelo://app?vid=e26ebfb6-722a-4c9e-a23d-26017d47ad14","ios":"levelo://app?vid=e26ebfb6-722a-4c9e-a23d-26017d47ad14"},"vehicle_type_id":"4","last_reported":1743588651,"current_range_meters":18000,"station_id":"ce4bhl92rcd13ifvqghg","pricing_plan_id":"cebpf4jnsgd1na2vs0mg"},{"bike_id":"d199f456-ad1a-43c8-801b-8c5499da61f5","system_id":"levelo_inurba_marseille","lat":43.29519,"lon":5.394063,"is_reserved":false,"is_disabled":true,"rental_uris":{"android":"levelo://app?vid=d199f456-ad1a-43c8-801b-8c5499da61f5","ios":"levelo://app?vid=d199f456-ad1a-43c8-801b-8c5499da61f5"},"vehicle_type_id":"4","last_reported":1743588651,"current_range_meters":18000,"station_id":"ce4bh292rcd13ifvqdf0","pricing_plan_id":"cebpf4jnsgd1na2vs0mg"},{"bike_id":"caf523cf-cae5-4f99-8616-102de8a25a28","system_id":"levelo_inurba_marseille","lat":43.33609,"lon":5.41017,"is_reserved":false,"is_disabled":false,"rental_uris":{"android":"levelo://app?vid=caf523cf-cae5-4f99-8616-102de8a25a28","ios":"levelo://app?vid=caf523cf-cae5-4f99-8616-102de8a25a28"},"vehicle_type_id":"4","last_reported":1743588651,"current_range_meters":18000,"station_id":"ce4bhqh2rcd13ifvqhmg","pricing_plan_id":"cebpf4jnsgd1na2vs0mg"},{"bike_id":"3489a27d-122a-429d-9d52-655beebd2c0f","system_id":"levelo_inurba_marseille","lat":43.29591,"lon":5.38101,"is_reserved":false,"is_disabled":false,"rental_uris":{"android":"levelo://app?vid=3489a27d-122a-429d-9d52-655beebd2c0f","ios":"levelo://app?vid=3489a27d-122a-429d-9d52-655beebd2c0f"},"vehicle_type_id":"4","last_reported":1743588651,"current_range_meters":17600,"station_id":"ce4bgl12rcd13ifvqbo0","pricing_plan_id":"cebpf4jnsgd1na2vs0mg"},{"bike_id":"005283db-9aca-49eb-ae41-cbf0dc140b6c","system_id":"levelo_inurba_marseille","lat":43.30103,"lon":5.37247,"is_reserved":false,"is_disabled":false,"rental_uris":{"android":"levelo://app?vid=005283db-9aca-49eb-ae41-cbf0dc140b6c","ios":"levelo://app?vid=005283db-9aca-49eb-ae41-cbf0dc140b6c"},"vehicle_type_id":"4","last_reported":1743588651,"current_range_meters":18000,"station_id":"","pricing_plan_id":"cebpf4jnsgd1na2vs0mg"},{"bike_id":"f920be6b-9fea-4408-ac99-8a6954e20723","system_id":"levelo_inurba_marseille","lat":43.29979,"lon":5.38491,"is_reserved":false,"is_disabled":false,"rental_uris":{"android":"levelo://app?vid=f920be6b-9fea-4408-ac99-8a6954e20723","ios":"levelo://app?vid=f920be6b-9fea-4408-ac99-8a6954e20723"},"vehicle_type_id":"4","last_reported":1743588651,"current_range_meters":17600,"station_id":"ce4bgj92rcd13ifvqbd0","pricing_plan_id":"cebpf4jnsgd1na2vs0mg"},{"bike_id":"2d66def0-3496-4fa4-bc57-be17bf9664c3","system_id":"levelo_inurba_marseille","lat":43.31384,"lon":5.36671,"is_reserved":false,"is_disabled":false,"rental_uris":{"android":"levelo://app?vid=2d66def0-3496-4fa4-bc57-be17bf9664c3","ios":"levelo://app?vid=2d66def0-3496-4fa4-bc57-be17bf9664c3"},"vehicle_type_id":"4","last_reported":1743588651,"current_range_meters":18000,"station_id":"","pricing_plan_id":"cebpf4jnsgd1na2vs0mg"},{"bike_id":"bc678bd6-c487-4ae5-a322-a0c5f650bf98","system_id":"levelo_inurba_marseille","lat":43.26006,"lon":5.394,"is_reserved":false,"is_disabled":false,"rental_uris":{"android":"levelo://app?vid=bc678bd6-c487-4ae5-a322-a0c5f650bf98","ios":"levelo://app?vid=bc678bd6-c487-4ae5-a322-a0c5f650bf98"},"vehicle_type_id":"4","last_reported":1743588651,"current_range_meters":18000,"station_id":"","pricing_plan_id":"cebpf4jnsgd1na2vs0mg"},{"bike_id":"05064e89-e340-4380-8907-72fb2193b4b1","system_id":"levelo_inurba_marseille","lat":43.32545,"lon":5.41477,"is_reserved":false,"is_disabled":false,"rental_uris":{"android":"levelo://app?vid=05064e89-e340-4380-8907-72fb2193b4b1","ios":"levelo://app?vid=05064e89-e340-4380-8907-72fb2193b4b1"},"vehicle_type_id":"4","last_reported":1743588651,"current_range_meters":18000,"station_id":"ce4bhq12rcd13ifvqhhg","pricing_plan_id":"cebpf4jnsgd1na2vs0mg"},{"bike_id":"74152ade-d935-4661-b035-83815d4694a4","system_id":"levelo_inurba_marseille","lat":43.24166,"lon":5.36418,"is_reserved":false,"is_disabled":false,"rental_uris":{"android":"levelo://app?vid=74152ade-d935-4661-b035-83815d4694a4","ios":"levelo://app?vid=74152ade-d935-4661-b035-83815d4694a4"},"vehicle_type_id":"4","last_reported":1743588651,"current_range_meters":18000,"station_id":"cpo36qri1sfpv3e86is0","pricing_plan_id":"cebpf4jnsgd1na2vs0mg"},{"bike_id":"5b630603-bd8d-4f7b-8117-fa1d9209f959","system_id":"levelo_inurba_marseille","lat":43.27495,"lon":5.42449,"is_reserved":false,"is_disabled":false,"rental_uris":{"android":"levelo://app?vid=5b630603-bd8d-4f7b-8117-fa1d9209f959","ios":"levelo://app?vid=5b630603-bd8d-4f7b-8117-fa1d9209f959"},"vehicle_type_id":"4","last_reported":1743588651,"current_range_meters":18000,"station_id":"ce4bhn92rcd13ifvqgrg","pricing_plan_id":"cebpf4jnsgd1na2vs0mg"},{"bike_id":"9f3890d9-8b76-460c-b89f-7b218e213341","system_id":"levelo_inurba_marseille","lat":43.30562,"lon":5.36705,"is_reserved":false,"is_disabled":false,"rental_uris":{"android":"levelo://app?vid=9f3890d9-8b76-460c-b89f-7b218e213341","ios":"levelo://app?vid=9f3890d9-8b76-460c-b89f-7b218e213341"},"vehicle_type_id":"4","last_reported":1743588651,"current_range_meters":18800,"station_id":"ce4bgrp2rcd13ifvqc9g","pricing_plan_id":"cebpf4jnsgd1na2vs0mg"},{"bike_id":"ee88ad8e-1057-4a23-8306-f7f521becd3b","system_id":"levelo_inurba_marseille","lat":43.24656,"lon":5.38159,"is_reserved":false,"is_disabled":false,"rental_uris":{"android":"levelo://app?vid=ee88ad8e-1057-4a23-8306-f7f521becd3b","ios":"levelo://app?vid=ee88ad8e-1057-4a23-8306-f7f521becd3b"},"vehicle_type_id":"4","last_reported":1743588651,"current_range_meters":18800,"station_id":"ce4bhih2rcd13ifvqfr0","pricing_plan_id":"cebpf4jnsgd1na2vs0mg"},{"bike_id":"9728dc22-8fa1-4c02-9d88-0860ec488881","system_id":"levelo_inurba_marseille","lat":43.30943,"lon":5.39031,"is_reserved":false,"is_disabled":false,"rental_uris":{"android":"levelo://app?vid=9728dc22-8fa1-4c02-9d88-0860ec488881","ios":"levelo://app?vid=9728dc22-8fa1-4c02-9d88-0860ec488881"},"vehicle_type_id":"4","last_reported":1743588651,"current_range_meters":18800,"station_id":"ce4bgup2rcd13ifvqco0","pricing_plan_id":"cebpf4jnsgd1na2vs0mg"},{"bike_id":"4f1b53b0-5d65-44ba-91fd-6eddc9e789d0","system_id":"levelo_inurba_marseille","lat":43.27945,"lon":5.38678,"is_reserved":false,"is_disabled":false,"rental_uris":{"android":"levelo://app?vid=4f1b53b0-5d65-44ba-91fd-6eddc9e789d0","ios":"levelo://app?vid=4f1b53b0-5d65-44ba-91fd-6eddc9e789d0"},"vehicle_type_id":"4","last_reported":1743588651,"current_range_meters":18800,"station_id":"ce4bhg12rcd13ifvqf80","pricing_plan_id":"cebpf4jnsgd1na2vs0mg"},{"bike_id":"e167ce98-8025-47ef-ac3a-8840bc99f1ba","system_id":"levelo_inurba_marseille","lat":43.33033,"lon":5.39052,"is_reserved":false,"is_disabled":false,"rental_uris":{"android":"levelo://app?vid=e167ce98-8025-47ef-ac3a-8840bc99f1ba","ios":"levelo://app?vid=e167ce98-8025-47ef-ac3a-8840bc99f1ba"},"vehicle_type_id":"4","last_reported":1743588651,"current_range_meters":18800,"station_id":"ce4bhr92rcd13ifvqhrg","pricing_plan_id":"cebpf4jnsgd1na2vs0mg"},{"bike_id":"e7d616a3-31a6-490d-8715-61ee470f1eb8","system_id":"levelo_inurba_marseille","lat":43.32473,"lon":5.36575,"is_reserved":false,"is_disabled":false,"rental_uris":{"android":"levelo://app?vid=e7d616a3-31a6-490d-8715-61ee470f1eb8","ios":"levelo://app?vid=e7d616a3-31a6-490d-8715-61ee470f1eb8"},"vehicle_type_id":"4","last_reported":1743588651,"current_range_meters":18800,"station_id":"ce4bhs12rcd13ifvqhvg","pricing_plan_id":"cebpf4jnsgd1na2vs0mg"},{"bike_id":"bc13b432-19cc-474d-9047-a594cc23e02b","system_id":"levelo_inurba_marseille","lat":43.30931,"lon":5.36839,"is_reserved":false,"is_disabled":false,"rental_uris":{"android":"levelo://app?vid=bc13b432-19cc-474d-9047-a594cc23e02b","ios":"levelo://app?vid=bc13b432-19cc-474d-9047-a594cc23e02b"},"vehicle_type_id":"4","last_reported":1743588651,"current_range_meters":18800,"station_id":"ce4bgn92rcd13ifvqbvg","pricing_plan_id":"cebpf4jnsgd1na2vs0mg"},{"bike_id":"0da307f0-a737-4f3f-8786-4dd451d57e79","system_id":"levelo_inurba_marseille","lat":43.30847,"lon":5.36754,"is_reserved":false,"is_disabled":false,"rental_uris":{"android":"levelo://app?vid=0da307f0-a737-4f3f-8786-4dd451d57e79","ios":"levelo://app?vid=0da307f0-a737-4f3f-8786-4dd451d57e79"},"vehicle_type_id":"4","last_reported":1743588651,"current_range_meters":19200,"station_id":"","pricing_plan_id":"cebpf4jnsgd1na2vs0mg"},{"bike_id":"148639c4-eb4c-4d3b-b921-6c9d51c51851","system_id":"levelo_inurba_marseille","lat":43.27217,"lon":5.40955,"is_reserved":false,"is_disabled":false,"rental_uris":{"android":"levelo://app?vid=148639c4-eb4c-4d3b-b921-6c9d51c51851","ios":"levelo://app?vid=148639c4-eb4c-4d3b-b921-6c9d51c51851"},"vehicle_type_id":"4","last_reported":1743588651,"current_range_meters":19200,"station_id":"","pricing_plan_id":"cebpf4jnsgd1na2vs0mg"},{"bike_id":"93cbb798-f822-4f3d-aae2-19ec45d0ddc0","system_id":"levelo_inurba_marseille","lat":43.32294,"lon":5.38266,"is_reserved":false,"is_disabled":false,"rental_uris":{"android":"levelo://app?vid=93cbb798-f822-4f3d-aae2-19ec45d0ddc0","ios":"levelo://app?vid=93cbb798-f822-4f3d-aae2-19ec45d0ddc0"},"vehicle_type_id":"4","last_reported":1743588651,"current_range_meters":19200,"station_id":"ce4bhr12rcd13ifvqhqg","pricing_plan_id":"cebpf4jnsgd1na2vs0mg"},{"bike_id":"4841bd8f-bf57-489d-919b-ab2e3c0b2339","system_id":"levelo_inurba_marseille","lat":43.29034,"lon":5.3757,"is_reserved":false,"is_disabled":false,"rental_uris":{"android":"levelo://app?vid=4841bd8f-bf57-489d-919b-ab2e3c0b2339","ios":"levelo://app?vid=4841bd8f-bf57-489d-919b-ab2e3c0b2339"},"vehicle_type_id":"4","last_reported":1743588651,"current_range_meters":19200,"station_id":"ce4bh692rcd13ifvqe90","pricing_plan_id":"cebpf4jnsgd1na2vs0mg"},{"bike_id":"7ee710e8-2d87-455b-b32f-efc9a1f2c030","system_id":"levelo_inurba_marseille","lat":43.30958,"lon":5.41051,"is_reserved":false,"is_disabled":false,"rental_uris":{"android":"levelo://app?vid=7ee710e8-2d87-455b-b32f-efc9a1f2c030","ios":"levelo://app?vid=7ee710e8-2d87-455b-b32f-efc9a1f2c030"},"vehicle_type_id":"4","last_reported":1743588651,"current_range_meters":19200,"station_id":"","pricing_plan_id":"cebpf4jnsgd1na2vs0mg"},{"bike_id":"718a7408-2229-4d47-8983-c7238d4ffab4","system_id":"levelo_inurba_marseille","lat":43.28709,"lon":5.39993,"is_reserved":false,"is_disabled":false,"rental_uris":{"android":"levelo://app?vid=718a7408-2229-4d47-8983-c7238d4ffab4","ios":"levelo://app?vid=718a7408-2229-4d47-8983-c7238d4ffab4"},"vehicle_type_id":"4","last_reported":1743588651,"current_range_meters":19200,"station_id":"ce4bho92rcd13ifvqh3g","pricing_plan_id":"cebpf4jnsgd1na2vs0mg"},{"bike_id":"e3d3af5d-d2d9-43c2-8ec4-b407492af4e5","system_id":"levelo_inurba_marseille","lat":43.30151,"lon":5.38097,"is_reserved":false,"is_disabled":false,"rental_uris":{"android":"levelo://app?vid=e3d3af5d-d2d9-43c2-8ec4-b407492af4e5","ios":"levelo://app?vid=e3d3af5d-d2d9-43c2-8ec4-b407492af4e5"},"vehicle_type_id":"4","last_reported":1743588651,"current_range_meters":19200,"station_id":"ce4bgjp2rcd13ifvqbh0","pricing_plan_id":"cebpf4jnsgd1na2vs0mg"},{"bike_id":"f1bc6d57-1667-4db6-830b-0fd1007aaaae","system_id":"levelo_inurba_marseille","lat":43.30157,"lon":5.37411,"is_reserved":false,"is_disabled":false,"rental_uris":{"android":"levelo://app?vid=f1bc6d57-1667-4db6-830b-0fd1007aaaae","ios":"levelo://app?vid=f1bc6d57-1667-4db6-830b-0fd1007aaaae"},"vehicle_type_id":"4","last_reported":1743588651,"current_range_meters":19200,"station_id":"ce4bgs92rcd13ifvqcc0","pricing_plan_id":"cebpf4jnsgd1na2vs0mg"},{"bike_id":"bbbab8d5-6c66-4b28-b44e-25f46f85f931","system_id":"levelo_inurba_marseille","lat":43.23196,"lon":5.3554,"is_reserved":false,"is_disabled":false,"rental_uris":{"android":"levelo://app?vid=bbbab8d5-6c66-4b28-b44e-25f46f85f931","ios":"levelo://app?vid=bbbab8d5-6c66-4b28-b44e-25f46f85f931"},"vehicle_type_id":"4","last_reported":1743588651,"current_range_meters":19200,"station_id":"ce4bhu92rcd13ifvqi70","pricing_plan_id":"cebpf4jnsgd1na2vs0mg"},{"bike_id":"385a044b-601c-4a6c-a064-323e8b77acbb","system_id":"levelo_inurba_marseille","lat":43.22935,"lon":5.35378,"is_reserved":false,"is_disabled":false,"rental_uris":{"android":"levelo://app?vid=385a044b-601c-4a6c-a064-323e8b77acbb","ios":"levelo://app?vid=385a044b-601c-4a6c-a064-323e8b77acbb"},"vehicle_type_id":"4","last_reported":1743588651,"current_range_meters":19200,"station_id":"cpo3532slgdg3j2ikp40","pricing_plan_id":"cebpf4jnsgd1na2vs0mg"},