{"last_updated":1731269358,"ttl":60,"version":"2.2","data":{"bikes":[{"bike_id":"df427601-5082-4776-baf1-bf25773b540b","system_id":"levelo_inurba_marseille","lat":43.27806,"lon":5.40709,"is_reserved":false,"is_disabled":false,"rental_uris":{"android":"levelo://app?vid=df427601-5082-4776-baf1-bf25773b540b","ios":"levelo://app?vid=df427601-5082-4776-baf1-bf25773b540b"},"vehicle_type_id":"4","last_reported":1731269358,"current_range_meters":37600,"station_id":"ce4bhnh2rcd13ifvqgtg","pricing_plan_id":"cebpf4jnsgd1na2vs0mg"},{"bike_id":"55f338da-564d-4339-bcb5-5d0a4b68c4e6","system_id":"levelo_inurba_marseille","lat":43.31063,"lon":5.40094,"is_reserved":false,"is_disabled":false,"rental_uris":{"android":"levelo://app?vid=55f338da-564d-4339-bcb5-5d0a4b68c4e6","ios":"levelo://app?vid=55f338da-564d-4339-bcb5-5d0a4b68c4e6"},"vehicle_type_id":"4","last_reported":1731269358,"current_range_meters":6800,"station_id":"","pricing_plan_id":"cebpf4jnsgd1na2vs0mg"},{"bike_id":"8dc7790d-cfd7-41c4-b0ac-f984da9a920f","system_id":"levelo_inurba_marseille","lat":43.2943,"lon":5.38618,"is_reserved":false,"is_disabled":false,"rental_uris":{"android":"levelo://app?vid=8dc7790d-cfd7-41c4-b0ac-f984da9a920f","ios":"levelo://app?vid=8dc7790d-cfd7-41c4-b0ac-f984da9a920f"},"vehicle_type_id":"4","last_reported":1731269358,"current_range_meters":6400,"station_id":"ce4bh2h2rcd13ifvqdh0","pricing_plan_id":"cebpf4jnsgd1na2vs0mg"},{"bike_id":"ca7dc6b6-6b0d-4459-9d8a-218401f84df2","system_id":"levelo_inurba_marseille","lat":43.29189,"lon":5.39323,"is_reserved":false,"is_disabled":false,"rental_uris":{"android":"levelo://app?vid=ca7dc6b6-6b0d-4459-9d8a-218401f84df2","ios":"levelo://app?vid=ca7dc6b6-6b0d-4459-9d8a-218401f84df2"},"vehicle_type_id":"4","last_reported":1731269358,"current_range_meters":18000,"station_id":"ce4bh192rcd13ifvqdd0","pricing_plan_id":"cebpf4jnsgd1na2vs0mg"},{"bike_id":"f903ea29-30fe-46ae-8eeb-7a1975d030a7","system_id":"levelo_inurba_marseille","lat":43.31993,"lon":5.37915,"is_reserved":false,"is_disabled":false,"rental_uris":{"android":"levelo://app?vid=f903ea29-30fe-46ae-8eeb-7a1975d030a7","ios":"levelo://app?vid=f903ea29-30fe-46ae-8eeb-7a1975d030a7"},"vehicle_type_id":"4","last_reported":1731269358,"current_range_meters":22800,"station_id":"ce4bgth2rcd13ifvqch0","pricing_plan_id":"cebpf4jnsgd1na2vs0mg"},{"bike_id":"6fe6b32f-11af-4595-87a6-3b78335d8002","system_id":"levelo_inurba_marseille","lat":43.29306,"lon":5.37437,"is_reserved":false,"is_disabled":false,"rental_uris":{"android":"levelo://app?vid=6fe6b32f-11af-4595-87a6-3b78335d8002","ios":"levelo://app?vid=6fe6b32f-11af-4595-87a6-3b78335d8002"},"vehicle_type_id":"4","last_reported":1731269358,"current_range_meters":33600,"station_id":"ce4bgi12rcd13ifvqb70","pricing_plan_id":"cebpf4jnsgd1na2vs0mg"},{"bike_id":"5daf7e81-adca-4c69-ac49-7439dac41928","system_id":"levelo_inurba_marseille","lat":43.29556,"lon":5.42286,"is_reserved":false,"is_disabled":false,"rental_uris":{"android":"levelo://app?vid=5daf7e81-adca-4c69-ac49-7439dac41928","ios":"levelo://app?vid=5daf7e81-adca-4c69-ac49-7439dac41928"},"vehicle_type_id":"4","last_reported":1731269358,"current_range_meters":38800,"station_id":"ce4bhph2rcd13ifvqhdg","pricing_plan_id":"cebpf4jnsgd1na2vs0mg"},{"bike_id":"83df5554-02f7-42a9-8c5e-d00b9ca8b73e","system_id":"levelo_inurba_marseille","lat":43.29526,"lon":5.38525,"is_reserved":false,"is_disabled":false,"rental_uris":{"android":"levelo://app?vid=83df5554-02f7-42a9-8c5e-d00b9ca8b73e","ios":"levelo://app?vid=83df5554-02f7-42a9-8c5e-d00b9ca8b73e"},"vehicle_type_id":"4","last_reported":1731269358,"current_range_meters":36000,"station_id":"ce4bgih2rcd13ifvqba0","pricing_plan_id":"cebpf4jnsgd1na2vs0mg"},{"bike_id":"1adc8eee-5455-40de-beaf-9dc42987d8ee","system_id":"levelo_inurba_marseille","lat":43.24806,"lon":5.37456,"is_reserved":false,"is_disabled":false,"rental_uris":{"android":"levelo://app?vid=1adc8eee-5455-40de-beaf-9dc42987d8ee","ios":"levelo://app?vid=1adc8eee-5455-40de-beaf-9dc42987d8ee"},"vehicle_type_id":"4","last_reported":1731269358,"current_range_meters":5600,"station_id":"ce4bhgh2rcd13ifvqfb0","pricing_plan_id":"cebpf4jnsgd1na2vs0mg"},{"bike_id":"2300ca5b-3406-4406-93d4-bb2eafdfc83d","system_id":"levelo_inurba_marseille","lat":43.28356,"lon":5.38628,"is_reserved":false,"is_disabled":false,"rental_uris":{"android":"levelo://app?vid=2300ca5b-3406-4406-93d4-bb2eafdfc83d","ios":"levelo://app?vid=2300ca5b-3406-4406-93d4-bb2eafdfc83d"},"vehicle_type_id":"4","last_reported":1731269358,"current_range_meters":38800,"station_id":"ce4bh492rcd13ifvqdvg","pricing_plan_id":"cebpf4jnsgd1na2vs0mg"},{"bike_id":"921708b5-acdf-4387-81df-b8a3576276ae","system_id":"levelo_inurba_marseille","lat":43.26488,"lon":5.39547,"is_reserved":false,"is_disabled":false,"rental_uris":{"android":"levelo://app?vid=921708b5-acdf-4387-81df-b8a3576276ae","ios":"levelo://app?vid=921708b5-acdf-4387-81df-b8a3576276ae"},"vehicle_type_id":"4","last_reported":1731269358,"current_range_meters":9200,"station_id":"ce4bhi12rcd13ifvqfq0","pricing_plan_id":"cebpf4jnsgd1na2vs0mg"},{"bike_id":"c6f97e5a-514e-4913-bd65-53e9c66468c0","system_id":"levelo_inurba_marseille","lat":43.29729,"lon":5.37679,"is_reserved":false,"is_disabled":false,"rental_uris":{"android":"levelo://app?vid=c6f97e5a-514e-4913-bd65-53e9c66468c0","ios":"levelo://app?vid=c6f97e5a-514e-4913-bd65-53e9c66468c0"},"vehicle_type_id":"4","last_reported":1731269358,"current_range_meters":38800,"station_id":"ce4bgkh2rcd13ifvqbl0","pricing_plan_id":"cebpf4jnsgd1na2vs0mg"},{"bike_id":"f89d3613-8002-46d6-8a93-1bc029531b76","system_id":"levelo_inurba_marseille","lat":43.24807,"lon":5.37457,"is_reserved":false,"is_disabled":false,"rental_uris":{"android":"levelo://app?vid=f89d3613-8002-46d6-8a93-1bc029531b76","ios":"levelo://app?vid=f89d3613-8002-46d6-8a93-1bc029531b76"},"vehicle_type_id":"4","last_reported":1731269358,"current_range_meters":38800,"station_id":"ce4bhgh2rcd13ifvqfb0","pricing_plan_id":"cebpf4jnsgd1na2vs0mg"},{"bike_id":"0b89192f-97a0-4783-a2ea-55accc10ecd8","system_id":"levelo_inurba_marseille","lat":43.26057,"lon":5.39383,"is_reserved":false,"is_disabled":false,"rental_uris":{"android":"levelo://app?vid=0b89192f-97a0-4783-a2ea-55accc10ecd8","ios":"levelo://app?vid=0b89192f-97a0-4783-a2ea-55accc10ecd8"},"vehicle_type_id":"4","last_reported":1731269358,"current_range_meters":25200,"station_id":"ce4bhh92rcd13ifvqfj0","pricing_plan_id":"cebpf4jnsgd1na2vs0mg"},{"bike_id":"144664ff-24b6-47bd-9c22-0f308261013c","system_id":"levelo_inurba_marseille","lat":43.30307,"lon":5.36898,"is_reserved":false,"is_disabled":false,"rental_uris":{"android":"levelo://app?vid=144664ff-24b6-47bd-9c22-0f308261013c","ios":"levelo://app?vid=144664ff-24b6-47bd-9c22-0f308261013c"},"vehicle_type_id":"4","last_reported":1731269358,"current_range_meters":6400,"station_id":"ce4bgqh2rcd13ifvqc5g","pricing_plan_id":"cebpf4jnsgd1na2vs0mg"},{"bike_id":"294704fb-8f95-4b35-8862-e42d43f15506","system_id":"levelo_inurba_marseille","lat":43.28719,"lon":5.3795,"is_reserved":false,"is_disabled":false,"rental_uris":{"android":"levelo://app?vid=294704fb-8f95-4b35-8862-e42d43f15506","ios":"levelo://app?vid=294704fb-8f95-4b35-8862-e42d43f15506"},"vehicle_type_id":"4","last_reported":1731269358,"current_range_meters":38800,"station_id":"ce4bh9p2rcd13ifvqec0","pricing_plan_id":"cebpf4jnsgd1na2vs0mg"},{"bike_id":"ecc57760-7f1e-4811-acad-d2a43fdbfff2","system_id":"levelo_inurba_marseille","lat":43.26059,"lon":5.39392,"is_reserved":false,"is_disabled":false,"rental_uris":{"android":"levelo://app?vid=ecc57760-7f1e-4811-acad-d2a43fdbfff2","ios":"levelo://app?vid=ecc57760-7f1e-4811-acad-d2a43fdbfff2"},"vehicle_type_id":"4","last_reported":1731269358,"current_range_meters":2800,"station_id":"ce4bhh92rcd13ifvqfj0","pricing_plan_id":"cebpf4jnsgd1na2vs0mg"},{"bike_id":"9919db7a-8b4f-4220-becb-f54e10b5b1b8","system_id":"levelo_inurba_marseille","lat":43.23058,"lon":5.35489,"is_reserved":false,"is_disabled":false,"rental_uris":{"android":"levelo://app?vid=9919db7a-8b4f-4220-becb-f54e10b5b1b8","ios":"levelo://app?vid=9919db7a-8b4f-4220-becb-f54e10b5b1b8"},"vehicle_type_id":"4","last_reported":1731269358,"current_range_meters":38800,"station_id":"cpo3342slgdg3j2ifvpg","pricing_plan_id":"cebpf4jnsgd1na2vs0mg"},{"bike_id":"c7cb2f21-73cd-4e84-90c1-167ec62f1347","system_id":"levelo_inurba_marseille","lat":43.29098,"lon":5.37212,"is_reserved":false,"is_disabled":false,"rental_uris":{"android":"levelo://app?vid=c7cb2f21-73cd-4e84-90c1-167ec62f1347","ios":"levelo://app?vid=c7cb2f21-73cd-4e84-90c1-167ec62f1347"},"vehicle_type_id":"4","last_reported":1731269358,"current_range_meters":38800,"station_id":"","pricing_plan_id":"cebpf4jnsgd1na2vs0mg"},{"bike_id":"ebdd5514-8912-4bbf-bad0-44a84240c4d1","system_id":"levelo_inurba_marseille","lat":43.29539,"lon":5.38531,"is_reserved":false,"is_disabled":false,"rental_uris":{"android":"levelo://app?vid=ebdd5514-8912-4bbf-bad0-44a84240c4d1","ios":"levelo://app?vid=ebdd5514-8912-4bbf-bad0-44a84240c4d1"},"vehicle_type_id":"4","last_reported":1731269358,"current_range_meters":38400,"station_id":"ce4bgih2rcd13ifvqba0","pricing_plan_id":"cebpf4jnsgd1na2vs0mg"},{"bike_id":"3b87dcfb-1a59-4717-86a1-4f8b3263c521","system_id":"levelo_inurba_marseille","lat":43.30581,"lon":5.39342,"is_reserved":false,"is_disabled":false,"rental_uris":{"android":"levelo://app?vid=3b87dcfb-1a59-4717-86a1-4f8b3263c521","ios":"levelo://app?vid=3b87dcfb-1a59-4717-86a1-4f8b3263c521"},"vehicle_type_id":"4","last_reported":1731269358,"current_range_meters":39200,"station_id":"ce4bh0p2rcd13ifvqd80","pricing_plan_id":"cebpf4jnsgd1na2vs0mg"},{"bike_id":"4557df47-06cc-42dd-9379-8bf6e584cea1","system_id":"levelo_inurba_marseille","lat":43.29416,"lon":5.38624,"is_reserved":false,"is_disabled":false,"rental_uris":{"android":"levelo://app?vid=4557df47-06cc-42dd-9379-8bf6e584cea1","ios":"levelo://app?vid=4557df47-06cc-42dd-9379-8bf6e584cea1"},"vehicle_type_id":"4","last_reported":1731269358,"current_range_meters":39200,"station_id":"ce4bh2h2rcd13ifvqdh0","pricing_plan_id":"cebpf4jnsgd1na2vs0mg"},{"bike_id":"f14433a9-58e9-4af6-a3c8-b55b6a8a458a","system_id":"levelo_inurba_marseille","lat":43.3081,"lon":5.38162,"is_reserved":false,"is_disabled":false,"rental_uris":{"android":"levelo://app?vid=f14433a9-58e9-4af6-a3c8-b55b6a8a458a","ios":"levelo://app?vid=f14433a9-58e9-4af6-a3c8-b55b6a8a458a"},"vehicle_type_id":"4","last_reported":1731269358,"current_range_meters":11600,"station_id":"ce4bgt12rcd13ifvqce0","pricing_plan_id":"cebpf4jnsgd1na2vs0mg"},{"bike_id":"d00a89cf-7850-41a3-a4e8-b8a440e30704","system_id":"levelo_inurba_marseille","lat":43.29689,"lon":5.37285,"is_reserved":false,"is_disabled":false,"rental_uris":{"android":"levelo://app?vid=d00a89cf-7850-41a3-a4e8-b8a440e30704","ios":"levelo://app?vid=d00a89cf-7850-41a3-a4e8-b8a440e30704"},"vehicle_type_id":"4","last_reported":1731269358,"current_range_meters":31200,"station_id":"ce4bgk12rcd13ifvqbj0","pricing_plan_id":"cebpf4jnsgd1na2vs0mg"},{"bike_id":"cf8f72de-3517-4df4-a22e-4c070430ff96","system_id":"levelo_inurba_marseille","lat":43.31692,"lon":5.40467,"is_reserved":false,"is_disabled":false,"rental_uris":{"android":"levelo://app?vid=cf8f72de-3517-4df4-a22e-4c070430ff96","ios":"levelo://app?vid=cf8f72de-3517-4df4-a22e-4c070430ff96"},"vehicle_type_id":"4","last_reported":1731269358,"current_range_meters":11200,"station_id":"ce4bh012rcd13ifvqd00","pricing_plan_id":"cebpf4jnsgd1na2vs0mg"},{"bike_id":"721ffa07-5205-4352-bf52-79247567bace","system_id":"levelo_inurba_marseille","lat":43.24819,"lon":5.37461,"is_reserved":false,"is_disabled":false,"rental_uris":{"android":"levelo://app?vid=721ffa07-5205-4352-bf52-79247567bace","ios":"levelo://app?vid=721ffa07-5205-4352-bf52-79247567bace"},"vehicle_type_id":"4","last_reported":1731269358,"current_range_meters":38800,"station_id":"ce4bhgh2rcd13ifvqfb0","pricing_plan_id":"cebpf4jnsgd1na2vs0mg"},{"bike_id":"0dc25498-f23d-41f5-9cf4-1c57e9c35485","system_id":"levelo_inurba_marseille","lat":43.30798,"lon":5.36833,"is_reserved":false,"is_disabled":false,"rental_uris":{"android":"levelo://app?vid=0dc25498-f23d-41f5-9cf4-1c57e9c35485","ios":"levelo://app?vid=0dc25498-f23d-41f5-9cf4-1c57e9c35485"},"vehicle_type_id":"4","last_reported":1731269358,"current_range_meters":10800,"station_id":"","pricing_plan_id":"cebpf4jnsgd1na2vs0mg"},{"bike_id":"53842b0b-662f-45de-89f4-2ac07b1eadcf","system_id":"levelo_inurba_marseille","lat":43.28113,"lon":5.37837,"is_reserved":false,"is_disabled":false,"rental_uris":{"android":"levelo://app?vid=53842b0b-662f-45de-89f4-2ac07b1eadcf","ios":"levelo://app?vid=53842b0b-662f-45de-89f4-2ac07b1eadcf"},"vehicle_type_id":"4","last_reported":1731269358,"current_range_meters":24000,"station_id":"ce4bha12rcd13ifvqee0","pricing_plan_id":"cebpf4jnsgd1na2vs0mg"},{"bike_id":"06a655fe-6ea0-4147-bcd8-29ee81bde6ea","system_id":"levelo_inurba_marseille","lat":43.29725,"lon":5.37701,"is_reserved":false,"is_disabled":false,"rental_uris":{"android":"levelo://app?vid=06a655fe-6ea0-4147-bcd8-29ee81bde6ea","ios":"levelo://app?vid=06a655fe-6ea0-4147-bcd8-29ee81bde6ea"},"vehicle_type_id":"4","last_reported":1731269358,"current_range_meters":38800,"station_id":"ce4bgkh2rcd13ifvqbl0","pricing_plan_id":"cebpf4jnsgd1na2vs0mg"},{"bike_id":"30e346e6-71d5-4935-973d-c9a61e3a2f99","system_id":"levelo_inurba_marseille","lat":43.31084,"lon":5.42433,"is_reserved":false,"is_disabled":false,"rental_uris":{"android":"levelo://app?vid=30e346e6-71d5-4935-973d-c9a61e3a2f99","ios":"levelo://app?vid=30e346e6-71d5-4935-973d-c9a61e3a2f99"},"vehicle_type_id":"4","last_reported":1731269358,"current_range_meters":22000,"station_id":"","pricing_plan_id":"cebpf4jnsgd1na2vs0mg"},{"bike_id":"5aea10ec-cf24-4bb7-a7e2-f7dafe28fd4b","system_id":"levelo_inurba_marseille","lat":43.30809,"lon":5.38156,"is_reserved":false,"is_disabled":false,"rental_uris":{"android":"levelo://app?vid=5aea10ec-cf24-4bb7-a7e2-f7dafe28fd4b","ios":"levelo://app?vid=5aea10ec-cf24-4bb7-a7e2-f7dafe28fd4b"},"vehicle_type_id":"4","last_reported":1731269358,"current_range_meters":38800,"station_id":"ce4bgt12rcd13ifvqce0","pricing_plan_id":"cebpf4jnsgd1na2vs0mg"},{"bike_id":"e9a374cb-9d83-42e0-bdd1-bb3dfaab45f6","system_id":"levelo_inurba_marseille","lat":43.29045,"lon":5.35921,"is_reserved":false,"is_disabled":false,"rental_uris":{"android":"levelo://app?vid=e9a374cb-9d83-42e0-bdd1-bb3dfaab45f6","ios":"levelo://app?vid=e9a374cb-9d83-42e0-bdd1-bb3dfaab45f6"},"vehicle_type_id":"4","last_reported":1731269358,"current_range_meters":18000,"station_id":"ce4bha92rcd13ifvqeg0","pricing_plan_id":"cebpf4jnsgd1na2vs0mg"},{"bike_id":"c5051e4f-0df4-4667-8aad-9f2b325b16e4","system_id":"levelo_inurba_marseille","lat":43.30436,"lon":5.38903,"is_reserved":false,"is_disabled":false,"rental_uris":{"android":"levelo://app?vid=c5051e4f-0df4-4667-8aad-9f2b325b16e4","ios":"levelo://app?vid=c5051e4f-0df4-4667-8aad-9f2b325b16e4"},"vehicle_type_id":"4","last_reported":1731269358,"current_range_meters":13600,"station_id":"ce4bgk12rcd13ifvqbi0","pricing_plan_id":"cebpf4jnsgd1na2vs0mg"},{"bike_id":"017977cd-7d2c-46ce-8319-4c490b1618c5","system_id":"levelo_inurba_marseille","lat":43.29527,"lon":5.39044,"is_reserved":false,"is_disabled":false,"rental_uris":{"android":"levelo://app?vid=017977cd-7d2c-46ce-8319-4c490b1618c5","ios":"levelo://app?vid=017977cd-7d2c-46ce-8319-4c490b1618c5"},"vehicle_type_id":"4","last_reported":1731269358,"current_range_meters":6400,"station_id":"ce4bh3p2rcd13ifvqdp0","pricing_plan_id":"cebpf4jnsgd1na2vs0mg"},{"bike_id":"d62be267-852e-4474-97ce-007bc90b5db1","system_id":"levelo_inurba_marseille","lat":43.28133,"lon":5.426335,"is_reserved":false,"is_disabled":false,"rental_uris":{"android":"levelo://app?vid=d62be267-852e-4474-97ce-007bc90b5db1","ios":"levelo://app?vid=d62be267-852e-4474-97ce-007bc90b5db1"},"vehicle_type_id":"4","last_reported":1731269358,"current_range_meters":7200,"station_id":"ce4bhnh2rcd13ifvqgug","pricing_plan_id":"cebpf4jnsgd1na2vs0mg"},{"bike_id":"c221efe7-efcb-49b8-a1b0-1dd8d171a453","system_id":"levelo_inurba_marseille","lat":43.33723,"lon":5.39194,"is_reserved":false,"is_disabled":false,"rental_uris":{"android":"levelo://app?vid=c221efe7-efcb-49b8-a1b0-1dd8d171a453","ios":"levelo://app?vid=c221efe7-efcb-49b8-a1b0-1dd8d171a453"},"vehicle_type_id":"4","last_reported":1731269358,"current_range_meters":38800,"station_id":"ce4bhr92rcd13ifvqhsg","pricing_plan_id":"cebpf4jnsgd1na2vs0mg"},{"bike_id":"69b05dc1-5376-472f-a35d-b50c76a10800","system_id":"levelo_inurba_marseille","lat":43.24808,"lon":5.37457,"is_reserved":false,"is_disabled":false,"rental_uris":{"android":"levelo://app?vid=69b05dc1-5376-472f-a35d-b50c76a10800","ios":"levelo://app?vid=69b05dc1-5376-472f-a35d-b50c76a10800"},"vehicle_type_id":"4","last_reported":1731269358,"current_range_meters":38800,"station_id":"ce4bhgh2rcd13ifvqfb0","pricing_plan_id":"cebpf4jnsgd1na2vs0mg"},{"bike_id":"1bf2372b-a93d-4486-9e26-7b3eb15b2634","system_id":"levelo_inurba_marseille","lat":43.2481,"lon":5.37454,"is_reserved":false,"is_disabled":false,"rental_uris":{"android":"levelo://app?vid=1bf2372b-a93d-4486-9e26-7b3eb15b2634","ios":"levelo://app?vid=1bf2372b-a93d-4486-9e26-7b3eb15b2634"},"vehicle_type_id":"4","last_reported":1731269358,"current_range_meters":39200,"station_id":"ce4bhgh2rcd13ifvqfb0","pricing_plan_id":"cebpf4jnsgd1na2vs0mg"},{"bike_id":"5eec47bc-5160-4422-b512-29c8954564bc","system_id":"levelo_inurba_marseille","lat":43.30585,"lon":5.39349,"is_reserved":false,"is_disabled":false,"rental_uris":{"android":"levelo://app?vid=5eec47bc-5160-4422-b512-29c8954564bc","ios":"levelo://app?vid=5eec47bc-5160-4422-b512-29c8954564bc"},"vehicle_type_id":"4","last_reported":1731269358,"current_range_meters":28800,"station_id":"ce4bh0p2rcd13ifvqd80","pricing_plan_id":"cebpf4jnsgd1na2vs0mg"},{"bike_id":"835bbb3e-620b-40eb-b47f-2007fd6402e0","system_id":"levelo_inurba_marseille","lat":43.29418,"lon":5.38621,"is_reserved":false,"is_disabled":false,"rental_uris":{"android":"levelo://app?vid=835bbb3e-620b-40eb-b47f-2007fd6402e0","ios":"levelo://app?vid=835bbb3e-620b-40eb-b47f-2007fd6402e0"},"vehicle_type_id":"4","last_reported":1731269358,"current_range_meters":30800,"station_id":"ce4bh2h2rcd13ifvqdh0","pricing_plan_id":"cebpf4jnsgd1na2vs0mg"},{"bike_id":"c80b935f-a8f5-45ce-9981-0b7ab777b0ea","system_id":"levelo_inurba_marseille","lat":43.32115,"lon":5.3677,"is_reserved":false,"is_disabled":false,"rental_uris":{"android":"levelo://app?vid=c80b935f-a8f5-45ce-9981-0b7ab777b0ea","ios":"levelo://app?vid=c80b935f-a8f5-45ce-9981-0b7ab777b0ea"},"vehicle_type_id":"4","last_reported":1731269358,"current_range_meters":30800,"station_id":"ce4bhrh2rcd13ifvqhug","pricing_plan_id":"cebpf4jnsgd1na2vs0mg"},{"bike_id":"1a6a3b55-5caa-4743-80e6-c5a380fdc84a","system_id":"levelo_inurba_marseille","lat":43.30892,"lon":5.37194,"is_reserved":false,"is_disabled":false,"rental_uris":{"android":"levelo://app?vid=1a6a3b55-5caa-4743-80e6-c5a380fdc84a","ios":"levelo://app?vid=1a6a3b55-5caa-4743-80e6-c5a380fdc84a"},"vehicle_type_id":"4","last_reported":1731269358,"current_range_meters":33200,"station_id":"ce4bguh2rcd13ifvqckg","pricing_plan_id":"cebpf4jnsgd1na2vs0mg"},{"bike_id":"ddf3aab2-4bf1-4be5-8d86-9a22f8f91d27","system_id":"levelo_inurba_marseille","lat":43.3059,"lon":5.39348,"is_reserved":false,"is_disabled":false,"rental_uris":{"android":"levelo://app?vid=ddf3aab2-4bf1-4be5-8d86-9a22f8f91d27","ios":"levelo://app?vid=ddf3aab2-4bf1-4be5-8d86-9a22f8f91d27"},"vehicle_type_id":"4","last_reported":1731269358,"current_range_meters":38400,"station_id":"ce4bh0p2rcd13ifvqd80","pricing_plan_id":"cebpf4jnsgd1na2vs0mg"},{"bike_id":"e5a50779-767b-4ff2-9bfe-e2c8addca67e","system_id":"levelo_inurba_marseille","lat":43.30515,"lon":5.40088,"is_reserved":false,"is_disabled":false,"rental_uris":{"android":"levelo://app?vid=e5a50779-767b-4ff2-9bfe-e2c8addca67e","ios":"levelo://app?vid=e5a50779-767b-4ff2-9bfe-e2c8addca67e"},"vehicle_type_id":"4","last_reported":1731269358,"current_range_meters":20800,"station_id":"","pricing_plan_id":"cebpf4jnsgd1na2vs0mg"},{"bike_id":"7e285d3a-9528-4aaa-9c25-071c18c715c5","system_id":"levelo_inurba_marseille","lat":43.28725,"lon":5.37935,"is_reserved":false,"is_disabled":false,"rental_uris":{"android":"levelo://app?vid=7e285d3a-9528-4aaa-9c25-071c18c715c5","ios":"levelo://app?vid=7e285d3a-9528-4aaa-9c25-071c18c715c5"},"vehicle_type_id":"4","last_reported":1731269358,"current_range_meters":2800,"station_id":"ce4bh9p2rcd13ifvqec0","pricing_plan_id":"cebpf4jnsgd1na2vs0mg"},{"bike_id":"2972f759-c98e-4fe7-9758-85d215895273","system_id":"levelo_inurba_marseille","lat":43.23957,"lon":5.36627,"is_reserved":false,"is_disabled":false,"rental_uris":{"android":"levelo://app?vid=2972f759-c98e-4fe7-9758-85d215895273","ios":"levelo://app?vid=2972f759-c98e-4fe7-9758-85d215895273"},"vehicle_type_id":"4","last_reported":1731269358,"current_range_meters":35200,"station_id":"ce4bhi12rcd13ifvqfp0","pricing_plan_id":"cebpf4jnsgd1na2vs0mg"},{"bike_id":"186d302a-477c-4458-9409-aa95e94296a4","system_id":"levelo_inurba_marseille","lat":43.31371,"lon":5.38489,"is_reserved":false,"is_disabled":false,"rental_uris":{"android":"levelo://app?vid=186d302a-477c-4458-9409-aa95e94296a4","ios":"levelo://app?vid=186d302a-477c-4458-9409-aa95e94296a4"},"vehicle_type_id":"4","last_reported":1731269358,"current_range_meters":31200,"station_id":"ce4bgt92rcd13ifvqcf0","pricing_plan_id":"cebpf4jnsgd1na2vs0mg"},{"bike_id":"3d39d653-d82e-4af0-985c-58f52d4e35ce","system_id":"levelo_inurba_marseille","lat":43.31225,"lon":5.36859,"is_reserved":false,"is_disabled":false,"rental_uris":{"android":"levelo://app?vid=3d39d653-d82e-4af0-985c-58f52d4e35ce","ios":"levelo://app?vid=3d39d653-d82e-4af0-985c-58f52d4e35ce"},"vehicle_type_id":"4","last_reported":1731269358,"current_range_meters":38800,"station_id":"ce4bgl92rcd13ifvqbq0","pricing_plan_id":"cebpf4jnsgd1na2vs0mg"},{"bike_id":"06d13b71-2842-4614-be3b-46303d9358db","system_id":"levelo_inurba_marseille","lat":43.29293,"lon":5.37449,"is_reserved":false,"is_disabled":false,"rental_uris":{"android":"levelo://app?vid=06d13b71-2842-4614-be3b-46303d9358db","ios":"levelo://app?vid=06d13b71-2842-4614-be3b-46303d9358db"},"vehicle_type_id":"4","last_reported":1731269358,"current_range_meters":4400,"station_id":"ce4bgi12rcd13ifvqb70","pricing_plan_id":"cebpf4jnsgd1na2vs0mg"},{"bike_id":"03ed9185-b1ad-4c56-a3bf-b3481e084c51","system_id":"levelo_inurba_marseille","lat":43.26803,"lon":5.40257,"is_reserved":false,"is_disabled":false,"rental_uris":{"android":"levelo://app?vid=03ed9185-b1ad-4c56-a3bf-b3481e084c51","ios":"levelo://app?vid=03ed9185-b1ad-4c56-a3bf-b3481e084c51"},"vehicle_type_id":"4","last_reported":1731269358,"current_range_meters":30000,"station_id":"ce501612rcd8frsf0b60","pricing_plan_id":"cebpf4jnsgd1na2vs0mg"},{"bike_id":"9b076279-78e6-4a6f-971d-91280791a498","system_id":"levelo_inurba_marseille","lat":43.29536,"lon":5.38541,"is_reserved":false,"is_disabled":false,"rental_uris":{"android":"levelo://app?vid=9b076279-78e6-4a6f-971d-91280791a498","ios":"levelo://app?vid=9b076279-78e6-4a6f-971d-91280791a498"},"vehicle_type_id":"4","last_reported":1731269358,"current_range_meters":36000,"station_id":"ce4bgih2rcd13ifvqba0","pricing_plan_id":"cebpf4jnsgd1na2vs0mg"},{"bike_id":"10dbd38b-1598-4db5-82f8-224c526f7a15","system_id":"levelo_inurba_marseille","lat":43.3108,"lon":5.38341,"is_reserved":false,"is_disabled":false,"rental_uris":{"android":"levelo://app?vid=10dbd38b-1598-4db5-82f8-224c526f7a15","ios":"levelo://app?vid=10dbd38b-1598-4db5-82f8-224c526f7a15"},"vehicle_type_id":"4","last_reported":1731269358,"current_range_meters":24000,"station_id":"ce4bgv92rcd13ifvqcr0","pricing_plan_id":"cebpf4jnsgd1na2vs0mg"},{"bike_id":"d2bbaba0-0ec3-4e1e-9e11-3f59bdc5df19","system_id":"levelo_inurba_marseille","lat":43.2792,"lon":5.39574,"is_reserved":false,"is_disabled":false,"rental_uris":{"android":"levelo://app?vid=d2bbaba0-0ec3-4e1e-9e11-3f59bdc5df19","ios":"levelo://app?vid=d2bbaba0-0ec3-4e1e-9e11-3f59bdc5df19"},"vehicle_type_id":"4","last_reported":1731269358,"current_range_meters":6800,"station_id":"ce4bhf92rcd13ifvqf40","pricing_plan_id":"cebpf4jnsgd1na2vs0mg"},{"bike_id":"b6e6429c-bd4e-410c-b675-c52c8c1491f0","system_id":"levelo_inurba_marseille","lat":43.28949,"lon":5.36399,"is_reserved":false,"is_disabled":false,"rental_uris":{"android":"levelo://app?vid=b6e6429c-bd4e-410c-b675-c52c8c1491f0","ios":"levelo://app?vid=b6e6429c-bd4e-410c-b675-c52c8c1491f0"},"vehicle_type_id":"4","last_reported":1731269358,"current_range_meters":38800,"station_id":"ce4bhc92rcd13ifvqetg","pricing_plan_id":"cebpf4jnsgd1na2vs0mg"},{"bike_id":"f5e15a2f-e8a2-4d92-b750-56640dcc1ec0","system_id":"levelo_inurba_marseille","lat":43.33025,"lon":5.39039,"is_reserved":false,"is_disabled":false,"rental_uris":{"android":"levelo://app?vid=f5e15a2f-e8a2-4d92-b750-56640dcc1ec0","ios":"levelo://app?vid=f5e15a2f-e8a2-4d92-b750-56640dcc1ec0"},"vehicle_type_id":"4","last_reported":1731269358,"current_range_meters":10000,"station_id":"ce4bhr92rcd13ifvqhrg","pricing_plan_id":"cebpf4jnsgd1na2vs0mg"},{"bike_id":"0dd14db8-ce17-4b1d-aa84-49d56512b8a5","system_id":"levelo_inurba_marseille","lat":43.31225,"lon":5.36862,"is_reserved":false,"is_disabled":false,"rental_uris":{"android":"levelo://app?vid=0dd14db8-ce17-4b1d-aa84-49d56512b8a5","ios":"levelo://app?vid=0dd14db8-ce17-4b1d-aa84-49d56512b8a5"},"vehicle_type_id":"4","last_reported":1731269358,"current_range_meters":38800,"station_id":"ce4bgl92rcd13ifvqbq0","pricing_plan_id":"cebpf4jnsgd1na2vs0mg"},{"bike_id":"b9478b1d-79e3-44c9-ae60-496dd5151f62","system_id":"levelo_inurba_marseille","lat":43.29166,"lon":5.37141,"is_reserved":false,"is_disabled":false,"rental_uris":{"android":"levelo://app?vid=b9478b1d-79e3-44c9-ae60-496dd5151f62","ios":"levelo://app?vid=b9478b1d-79e3-44c9-ae60-496dd5151f62"},"vehicle_type_id":"4","last_reported":1731269358,"current_range_meters":29600,"station_id":"ce4bha92rcd13ifvqeh0","pricing_plan_id":"cebpf4jnsgd1na2vs0mg"},{"bike_id":"4daba92b-4617-451f-aa2f-a1485273590f","system_id":"levelo_inurba_marseille","lat":43.25003,"lon":5.38921,"is_reserved":false,"is_disabled":false,"rental_uris":{"android":"levelo://app?vid=4daba92b-4617-451f-aa2f-a1485273590f","ios":"levelo://app?vid=4daba92b-4617-451f-aa2f-a1485273590f"},"vehicle_type_id":"4","last_reported":1731269358,"current_range_meters":25200,"station_id":"ce4bhgp2rcd13ifvqfd0","pricing_plan_id":"cebpf4jnsgd1na2vs0mg"},{"bike_id":"eac51d77-7bf7-43cd-96f4-7bf37e90a22d","system_id":"levelo_inurba_marseille","lat":43.32116,"lon":5.36766,"is_reserved":false,"is_disabled":false,"rental_uris":{"android":"levelo://app?vid=eac51d77-7bf7-43cd-96f4-7bf37e90a22d","ios":"levelo://app?vid=eac51d77-7bf7-43cd-96f4-7bf37e90a22d"},"vehicle_type_id":"4","last_reported":1731269358,"current_range_meters":7200,"station_id":"ce4bhrh2rcd13ifvqhug","pricing_plan_id":"cebpf4jnsgd1na2vs0mg"},{"bike_id":"a8bc759e-cb4c-4e34-8dbd-0cd01cdebd96","system_id":"levelo_inurba_marseille","lat":43.29528,"lon":5.38541,"is_reserved":false,"is_disabled":false,"rental_uris":{"android":"levelo://app?vid=a8bc759e-cb4c-4e34-8dbd-0cd01cdebd96","ios":"levelo://app?vid=a8bc759e-cb4c-4e34-8dbd-0cd01cdebd96"},"vehicle_type_id":"4","last_reported":1731269358,"current_range_meters":37600,"station_id":"ce4bgih2rcd13ifvqba0","pricing_plan_id":"cebpf4jnsgd1na2vs0mg"},{"bike_id":"f32c9343-b753-4b4c-9313-033fb01441d1","system_id":"levelo_inurba_marseille","lat":43.29755,"lon":5.37789,"is_reserved":false,"is_disabled":false,"rental_uris":{"android":"levelo://app?vid=f32c9343-b753-4b4c-9313-033fb01441d1","ios":"levelo://app?vid=f32c9343-b753-4b4c-9313-033fb01441d1"},"vehicle_type_id":"4","last_reported":1731269358,"current_range_meters":19600,"station_id":"","pricing_plan_id":"cebpf4jnsgd1na2vs0mg"},{"bike_id":"b7077f66-a562-44bb-9331-0123c432d0d0","system_id":"levelo_inurba_marseille","lat":43.29968,"lon":5.37173,"is_reserved":false,"is_disabled":false,"rental_uris":{"android":"levelo://app?vid=b7077f66-a562-44bb-9331-0123c432d0d0","ios":"levelo://app?vid=b7077f66-a562-44bb-9331-0123c432d0d0"},"vehicle_type_id":"4","last_reported":1731269358,"current_range_meters":26800,"station_id":"ce4bgr92rcd13ifvqc7g","pricing_plan_id":"cebpf4jnsgd1na2vs0mg"},{"bike_id":"0add04aa-b29e-4bf7-a4a3-b8ce8391ed95","system_id":"levelo_inurba_marseille","lat":43.32003,"lon":5.38163,"is_reserved":false,"is_disabled":false,"rental_uris":{"android":"levelo://app?vid=0add04aa-b29e-4bf7-a4a3-b8ce8391ed95","ios":"levelo://app?vid=0add04aa-b29e-4bf7-a4a3-b8ce8391ed95"},"vehicle_type_id":"4","last_reported":1731269358,"current_range_meters":30400,"station_id":"ce4bhr12rcd13ifvqhpg","pricing_plan_id":"cebpf4jnsgd1na2vs0mg"},{"bike_id":"53472a6e-80be-4d44-bd83-63a983408ea9","system_id":"levelo_inurba_marseille","lat":43.24067,"lon":5.37764,"is_reserved":false,"is_disabled":false,"rental_uris":{"android":"levelo://app?vid=53472a6e-80be-4d44-bd83-63a983408ea9","ios":"levelo://app?vid=53472a6e-80be-4d44-bd83-63a983408ea9"},"vehicle_type_id":"4","last_reported":1731269358,"current_range_meters":30000,"station_id":"ce4bhnp2rcd13ifvqgvg","pricing_plan_id":"cebpf4jnsgd1na2vs0mg"},{"bike_id":"84032cfd-f507-4ffb-bfcd-2961831b6f3d","system_id":"levelo_inurba_marseille","lat":43.28721,"lon":5.37939,"is_reserved":false,"is_disabled":false,"rental_uris":{"android":"levelo://app?vid=84032cfd-f507-4ffb-bfcd-2961831b6f3d","ios":"levelo://app?vid=84032cfd-f507-4ffb-bfcd-2961831b6f3d"},"vehicle_type_id":"4","last_reported":1731269358,"current_range_meters":35600,"station_id":"ce4bh9p2rcd13ifvqec0","pricing_plan_id":"cebpf4jnsgd1na2vs0mg"},{"bike_id":"0c20ce2f-8934-466f-b493-7b98aab45105","system_id":"levelo_inurba_marseille","lat":43.26063,"lon":5.3939,"is_reserved":false,"is_disabled":false,"rental_uris":{"android":"levelo://app?vid=0c20ce2f-8934-466f-b493-7b98aab45105","ios":"levelo://app?vid=0c20ce2f-8934-466f-b493-7b98aab45105"},"vehicle_type_id":"4","last_reported":1731269358,"current_range_meters":8800,"station_id":"ce4bhh92rcd13ifvqfj0","pricing_plan_id":"cebpf4jnsgd1na2vs0mg"},{"bike_id":"758f6a61-7787-4afd-9e45-58d9a45ab63a","system_id":"levelo_inurba_marseille","lat":43.24545,"lon":5.39523,"is_reserved":false,"is_disabled":false,"rental_uris":{"android":"levelo://app?vid=758f6a61-7787-4afd-9e45-58d9a45ab63a","ios":"levelo://app?vid=758f6a61-7787-4afd-9e45-58d9a45ab63a"},"vehicle_type_id":"4","last_reported":1731269358,"current_range_meters":2800,"station_id":"ce4bhlp2rcd13ifvqgjg","pricing_plan_id":"cebpf4jnsgd1na2vs0mg"},{"bike_id":"687ac29f-5588-4087-8ccc-64cb140e6127","system_id":"levelo_inurba_marseille","lat":43.29415,"lon":5.38623,"is_reserved":false,"is_disabled":false,"rental_uris":{"android":"levelo://app?vid=687ac29f-5588-4087-8ccc-64cb140e6127","ios":"levelo://app?vid=687ac29f-5588-4087-8ccc-64cb140e6127"},"vehicle_type_id":"4","last_reported":1731269358,"current_range_meters":38800,"station_id":"ce4bh2h2rcd13ifvqdh0","pricing_plan_id":"cebpf4jnsgd1na2vs0mg"},{"bike_id":"45568fa7-77b6-4fb7-a3ae-b4ee91ba4ee7","system_id":"levelo_inurba_marseille","lat":43.30142,"lon":5.3988,"is_reserved":false,"is_disabled":false,"rental_uris":{"android":"levelo://app?vid=45568fa7-77b6-4fb7-a3ae-b4ee91ba4ee7","ios":"levelo://app?vid=45568fa7-77b6-4fb7-a3ae-b4ee91ba4ee7"},"vehicle_type_id":"4","last_reported":1731269358,"current_range_meters":38400,"station_id":"ce4bh0h2rcd13ifvqd40","pricing_plan_id":"cebpf4jnsgd1na2vs0mg"},{"bike_id":"00740450-2f03-43f4-90bd-7527d724b0c0","system_id":"levelo_inurba_marseille","lat":43.29267,"lon":5.40913,"is_reserved":false,"is_disabled":false,"rental_uris":{"android":"levelo://app?vid=00740450-2f03-43f4-90bd-7527d724b0c0","ios":"levelo://app?vid=00740450-2f03-43f4-90bd-7527d724b0c0"},"vehicle_type_id":"4","last_reported":1731269358,"current_range_meters":9200,"station_id":"ce4bh192rcd13ifvqdc0","pricing_plan_id":"cebpf4jnsgd1na2vs0mg"},{"bike_id":"9cca3aba-4b8d-433a-a9c8-b6ff095c807a","system_id":"levelo_inurba_marseille","lat":43.29368,"lon":5.37847,"is_reserved":false,"is_disabled":false,"rental_uris":{"android":"levelo://app?vid=9cca3aba-4b8d-433a-a9c8-b6ff095c807a","ios":"levelo://app?vid=9cca3aba-4b8d-433a-a9c8-b6ff095c807a"},"vehicle_type_id":"4","last_reported":1731269358,"current_range_meters":38800,"station_id":"ce4bgjh2rcd13ifvqbf0","pricing_plan_id":"cebpf4jnsgd1na2vs0mg"},{"bike_id":"f9380816-4b10-4aac-9bba-5e93de818d06","system_id":"levelo_inurba_marseille","lat":43.3013,"lon":5.39882,"is_reserved":false,"is_disabled":false,"rental_uris":{"android":"levelo://app?vid=f9380816-4b10-4aac-9bba-5e93de818d06","ios":"levelo://app?vid=f9380816-4b10-4aac-9bba-5e93de818d06"},"vehicle_type_id":"4","last_reported":1731269358,"current_range_meters":38800,"station_id":"ce4bh0h2rcd13ifvqd40","pricing_plan_id":"cebpf4jnsgd1na2vs0mg"},{"bike_id":"85e2f4f3-6aa2-4c02-8cb0-3f10017cc61a","system_id":"levelo_inurba_marseille","lat":43.25085,"lon":5.39515,"is_reserved":false,"is_disabled":false,"rental_uris":{"android":"levelo://app?vid=85e2f4f3-6aa2-4c02-8cb0-3f10017cc61a","ios":"levelo://app?vid=85e2f4f3-6aa2-4c02-8cb0-3f10017cc61a"},"vehicle_type_id":"4","last_reported":1731269358,"current_range_meters":39200,"station_id":"ce4bhm12rcd13ifvqgkg","pricing_plan_id":"cebpf4jnsgd1na2vs0mg"},{"bike_id":"010f34fa-5fe4-441f-a433-65d10dd050db","system_id":"levelo_inurba_marseille","lat":43.29555,"lon":5.42288,"is_reserved":false,"is_disabled":false,"rental_uris":{"android":"levelo://app?vid=010f34fa-5fe4-441f-a433-65d10dd050db","ios":"levelo://app?vid=010f34fa-5fe4-441f-a433-65d10dd050db"},"vehicle_type_id":"4","last_reported":1731269358,"current_range_meters":16000,"station_id":"ce4bhph2rcd13ifvqhdg","pricing_plan_id":"cebpf4jnsgd1na2vs0mg"},{"bike_id":"02e5dafe-fcef-4405-9cf5-47651341713d","system_id":"levelo_inurba_marseille","lat":43.24171,"lon":5.36395,"is_reserved":false,"is_disabled":false,"rental_uris":{"android":"levelo://app?vid=02e5dafe-fcef-4405-9cf5-47651341713d","ios":"levelo://app?vid=02e5dafe-fcef-4405-9cf5-47651341713d"},"vehicle_type_id":"4","last_reported":1731269358,"current_range_meters":7200,"station_id":"cpo36qri1sfpv3e86is0","pricing_plan_id":"cebpf4jnsgd1na2vs0mg"},{"bike_id":"47c8651c-41a7-4b07-b3d0-de53e215e982","system_id":"levelo_inurba_marseille","lat":43.33611,"lon":5.41033,"is_reserved":false,"is_disabled":false,"rental_uris":{"android":"levelo://app?vid=47c8651c-41a7-4b07-b3d0-de53e215e982","ios":"levelo://app?vid=47c8651c-41a7-4b07-b3d0-de53e215e982"},"vehicle_type_id":"4","last_reported":1731269358,"current_range_meters":22400,"station_id":"ce4bhqh2rcd13ifvqhmg","pricing_plan_id":"cebpf4jnsgd1na2vs0mg"},{"bike_id":"8bac9053-3887-4a8c-beaf-c9a3ca84e1f9","system_id":"levelo_inurba_marseille","lat":43.29914,"lon":5.37444,"is_reserved":false,"is_disabled":false,"rental_uris":{"android":"levelo://app?vid=8bac9053-3887-4a8c-beaf-c9a3ca84e1f9","ios":"levelo://app?vid=8bac9053-3887-4a8c-beaf-c9a3ca84e1f9"},"vehicle_type_id":"4","last_reported":1731269358,"current_range_meters":33600,"station_id":"ce4bgjh2rcd13ifvqbg0","pricing_plan_id":"cebpf4jnsgd1na2vs0mg"},{"bike_id":"4e89b627-0501-4db3-9362-5908885da938","system_id":"levelo_inurba_marseille","lat":43.29262,"lon":5.38437,"is_reserved":false,"is_disabled":false,"rental_uris":{"android":"levelo://app?vid=4e89b627-0501-4db3-9362-5908885da938","ios":"levelo://app?vid=4e89b627-0501-4db3-9362-5908885da938"},"vehicle_type_id":"4","last_reported":1731269358,"current_range_meters":28400,"station_id":"ce4bh692rcd13ifvqea0","pricing_plan_id":"cebpf4jnsgd1na2vs0mg"},{"bike_id":"61ebae1e-7e43-4156-bc77-b929042392dc","system_id":"levelo_inurba_marseille","lat":43.291705,"lon":5.371457,"is_reserved":false,"is_disabled":false,"rental_uris":{"android":"levelo://app?vid=61ebae1e-7e43-4156-bc77-b929042392dc","ios":"levelo://app?vid=61ebae1e-7e43-4156-bc77-b929042392dc"},"vehicle_type_id":"4","last_reported":1731269358,"current_range_meters":37600,"station_id":"ce4bha92rcd13ifvqeh0","pricing_plan_id":"cebpf4jnsgd1na2vs0mg"},{"bike_id":"60704316-353e-46a4-93ad-e22b9c1ac4f4","system_id":"levelo_inurba_marseille","lat":43.29515,"lon":5.39047,"is_reserved":false,"is_disabled":false,"rental_uris":{"android":"levelo://app?vid=60704316-353e-46a4-93ad-e22b9c1ac4f4","ios":"levelo://app?vid=60704316-353e-46a4-93ad-e22b9c1ac4f4"},"vehicle_type_id":"4","last_reported":1731269358,"current_range_meters":5600,"station_id":"ce4bh3p2rcd13ifvqdp0","pricing_plan_id":"cebpf4jnsgd1na2vs0mg"},{"bike_id":"88d3f98d-5593-457e-b86b-279db7794a34","system_id":"levelo_inurba_marseille","lat":43.33026,"lon":5.39041,"is_reserved":false,"is_disabled":false,"rental_uris":{"android":"levelo://app?vid=88d3f98d-5593-457e-b86b-279db7794a34","ios":"levelo://app?vid=88d3f98d-5593-457e-b86b-279db7794a34"},"vehicle_type_id":"4","last_reported":1731269358,"current_range_meters":28000,"station_id":"ce4bhr92rcd13ifvqhrg","pricing_plan_id":"cebpf4jnsgd1na2vs0mg"},{"bike_id":"ea1c39cc-6666-4ec8-8bcb-eb2ccb0663a6","system_id":"levelo_inurba_marseille","lat":43.29539,"lon":5.38549,"is_reserved":false,"is_disabled":false,"rental_uris":{"android":"levelo://app?vid=ea1c39cc-6666-4ec8-8bcb-eb2ccb0663a6","ios":"levelo://app?vid=ea1c39cc-6666-4ec8-8bcb-eb2ccb0663a6"},"vehicle_type_id":"4","last_reported":1731269358,"current_range_meters":35600,"station_id":"ce4bgih2rcd13ifvqba0","pricing_plan_id":"cebpf4jnsgd1na2vs0mg"},{"bike_id":"b4d5efc2-2a51-4e41-bd1b-96c22ca40fb9","system_id":"levelo_inurba_marseille","lat":43.266815,"lon":5.382771,"is_reserved":false,"is_disabled":false,"rental_uris":{"android":"levelo://app?vid=b4d5efc2-2a51-4e41-bd1b-96c22ca40fb9","ios":"levelo://app?vid=b4d5efc2-2a51-4e41-bd1b-96c22ca40fb9"},"vehicle_type_id":"4","last_reported":1731269358,"current_range_meters":38000,"station_id":"ce4bhg92rcd13ifvqf90","pricing_plan_id":"cebpf4jnsgd1na2vs0mg"},{"bike_id":"f9d800f8-7af6-405c-bf38-3c4628804c51","system_id":"levelo_inurba_marseille","lat":43.28481,"lon":5.3842,"is_reserved":false,"is_disabled":false,"rental_uris":{"android":"levelo://app?vid=f9d800f8-7af6-405c-bf38-3c4628804c51","ios":"levelo://app?vid=f9d800f8-7af6-405c-bf38-3c4628804c51"},"vehicle_type_id":"4","last_reported":1731269358,"current_range_meters":38800,"station_id":"ce4bh512rcd13ifvqe3g","pricing_plan_id":"cebpf4jnsgd1na2vs0mg"},{"bike_id":"d787b3cb-d8f4-49d7-83f5-7326dbc3a76b","system_id":"levelo_inurba_marseille","lat":43.28448,"lon":5.39209,"is_reserved":false,"is_disabled":false,"rental_uris":{"android":"levelo://app?vid=d787b3cb-d8f4-49d7-83f5-7326dbc3a76b","ios":"levelo://app?vid=d787b3cb-d8f4-49d7-83f5-7326dbc3a76b"},"vehicle_type_id":"4","last_reported":1731269358,"current_range_meters":28800,"station_id":"ce4bhoh2rcd13ifvqh5g","pricing_plan_id":"cebpf4jnsgd1na2vs0mg"},{"bike_id":"ca6bc757-afb2-47ae-8348-d50290e625d2","system_id":"levelo_inurba_marseille","lat":43.24811,"lon":5.37462,"is_reserved":false,"is_disabled":false,"rental_uris":{"android":"levelo://app?vid=ca6bc757-afb2-47ae-8348-d50290e625d2","ios":"levelo://app?vid=ca6bc757-afb2-47ae-8348-d50290e625d2"},"vehicle_type_id":"4","last_reported":1731269358,"current_range_meters":33600,"station_id":"ce4bhgh2rcd13ifvqfb0","pricing_plan_id":"cebpf4jnsgd1na2vs0mg"},{"bike_id":"4bb70753-bcf3-42e4-a2e7-c157bb499e50","system_id":"levelo_inurba_marseille","lat":43.29192,"lon":5.35801,"is_reserved":false,"is_disabled":false,"rental_uris":{"android":"levelo://app?vid=4bb70753-bcf3-42e4-a2e7-c157bb499e50","ios":"levelo://app?vid=4bb70753-bcf3-42e4-a2e7-c157bb499e50"},"vehicle_type_id":"4","last_reported":1731269358,"current_range_meters":37600,"station_id":"ce4bhb12rcd13ifvqel0","pricing_plan_id":"cebpf4jnsgd1na2vs0mg"},{"bike_id":"63525d48-ddb2-47ed-bdc7-0f0eda13a5b4","system_id":"levelo_inurba_marseille","lat":43.24547,"lon":5.39519,"is_reserved":false,"is_disabled":false,"rental_uris":{"android":"levelo://app?vid=63525d48-ddb2-47ed-bdc7-0f0eda13a5b4","ios":"levelo://app?vid=63525d48-ddb2-47ed-bdc7-0f0eda13a5b4"},"vehicle_type_id":"4","last_reported":1731269358,"current_range_meters":30400,"station_id":"ce4bhlp2rcd13ifvqgjg","pricing_plan_id":"cebpf4jnsgd1na2vs0mg"},{"bike_id":"a167ba57-7ca5-4f70-993a-ff295baad58b","system_id":"levelo_inurba_marseille","lat":43.258632,"lon":5.398992,"is_reserved":false,"is_disabled":false,"rental_uris":{"android":"levelo://app?vid=a167ba57-7ca5-4f70-993a-ff295baad58b","ios":"levelo://app?vid=a167ba57-7ca5-4f70-993a-ff295baad58b"},"vehicle_type_id":"4","last_reported":1731269358,"current_range_meters":38800,"station_id":"ce4bhl92rcd13ifvqghg","pricing_plan_id":"cebpf4jnsgd1na2vs0mg"},{"bike_id":"c248e6ea-a25f-4c63-bbcb-77234e8dbe04","system_id":"levelo_inurba_marseille","lat":43.28724,"lon":5.37938,"is_reserved":false,"is_disabled":false,"rental_uris":{"android":"levelo://app?vid=c248e6ea-a25f-4c63-bbcb-77234e8dbe04","ios":"levelo://app?vid=c248e6ea-a25f-4c63-bbcb-77234e8dbe04"},"vehicle_type_id":"4","last_reported":1731269358,"current_range_meters":10800,"station_id":"ce4bh9p2rcd13ifvqec0","pricing_plan_id":"cebpf4jnsgd1na2vs0mg"},{"bike_id":"8e8a3935-5c65-4b12-8036-d43d6ab7a3f2","system_id":"levelo_inurba_marseille","lat":43.29258,"lon":5.38434,"is_reserved":false,"is_disabled":false,"rental_uris":{"android":"levelo://app?vid=8e8a3935-5c65-4b12-8036-d43d6ab7a3f2","ios":"levelo://app?vid=8e8a3935-5c65-4b12-8036-d43d6ab7a3f2"},"vehicle_type_id":"4","last_reported":1731269358,"current_range_meters":17200,"station_id":"ce4bh692rcd13ifvqea0","pricing_plan_id":"cebpf4jnsgd1na2vs0mg"},{"bike_id":"f204905c-7b94-45eb-bd5e-9b72157ae1f2","system_id":"levelo_inurba_marseille","lat":43.23187,"lon":5.39982,"is_reserved":false,"is_disabled":false,"rental_uris":{"android":"levelo://app?vid=f204905c-7b94-45eb-bd5e-9b72157ae1f2","ios":"levelo://app?vid=f204905c-7b94-45eb-bd5e-9b72157ae1f2"},"vehicle_type_id":"4","last_reported":1731269358,"current_range_meters":38400,"station_id":"ce4bhn12rcd13ifvqgqg","pricing_plan_id":"cebpf4jnsgd1na2vs0mg"},{"bike_id":"5981f360-af30-41ca-8ebe-364c776d372b","system_id":"levelo_inurba_marseille","lat":43.31271,"lon":5.40175,"is_reserved":false,"is_disabled":false,"rental_uris":{"android":"levelo://app?vid=5981f360-af30-41ca-8ebe-364c776d372b","ios":"levelo://app?vid=5981f360-af30-41ca-8ebe-364c776d372b"},"vehicle_type_id":"4","last_reported":1731269358,"current_range_meters":11600,"station_id":"ce4bh092rcd13ifvqd30","pricing_plan_id":"cebpf4jnsgd1na2vs0mg"},{"bike_id":"f5a009d5-2491-44a6-b0ea-b4ae68b23420","system_id":"levelo_inurba_marseille","lat":43.3176,"lon":5.39022,"is_reserved":false,"is_disabled":false,"rental_uris":{"android":"levelo://app?vid=f5a009d5-2491-44a6-b0ea-b4ae68b23420","ios":"levelo://app?vid=f5a009d5-2491-44a6-b0ea-b4ae68b23420"},"vehicle_type_id":"4","last_reported":1731269358,"current_range_meters":38800,"station_id":"ce4bhqp2rcd13ifvqhng","pricing_plan_id":"cebpf4jnsgd1na2vs0mg"},{"bike_id":"aaa0d09b-cb58-4cea-86a7-0ec15c06a191","system_id":"levelo_inurba_marseille","lat":43.2988,"lon":5.38903,"is_reserved":false,"is_disabled":false,"rental_uris":{"android":"levelo://app?vid=aaa0d09b-cb58-4cea-86a7-0ec15c06a191","ios":"levelo://app?vid=aaa0d09b-cb58-4cea-86a7-0ec15c06a191"},"vehicle_type_id":"4","last_reported":1731269358,"current_range_meters":39200,"station_id":"ce4bh392rcd13ifvqdl0","pricing_plan_id":"cebpf4jnsgd1na2vs0mg"},{"bike_id":"a6466120-ac73-46ce-ab8a-35466af0e5b7","system_id":"levelo_inurba_marseille","lat":43.29868,"lon":5.39731,"is_reserved":false,"is_disabled":false,"rental_uris":{"android":"levelo://app?vid=a6466120-ac73-46ce-ab8a-35466af0e5b7","ios":"levelo://app?vid=a6466120-ac73-46ce-ab8a-35466af0e5b7"},"vehicle_type_id":"4","last_reported":1731269358,"current_range_meters":20800,"station_id":"ce4bh0h2rcd13ifvqd50","pricing_plan_id":"cebpf4jnsgd1na2vs0mg"},{"bike_id":"181fa628-fd06-4339-88f4-5d411c857699","system_id":"levelo_inurba_marseille","lat":43.27073,"lon":5.42277,"is_reserved":false,"is_disabled":false,"rental_uris":{"android":"levelo://app?vid=181fa628-fd06-4339-88f4-5d411c857699","ios":"levelo://app?vid=181fa628-fd06-4339-88f4-5d411c857699"},"vehicle_type_id":"4","last_reported":1731269358,"current_range_meters":7200,"station_id":"ce4bhk92rcd13ifvqgb0","pricing_plan_id":"cebpf4jnsgd1na2vs0mg"},{"bike_id":"f054ca35-33b8-4b86-b110-2f02434cfd09","system_id":"levelo_inurba_marseille","lat":43.29625,"lon":5.40598,"is_reserved":false,"is_disabled":false,"rental_uris":{"android":"levelo://app?vid=f054ca35-33b8-4b86-b110-2f02434cfd09","ios":"levelo://app?vid=f054ca35-33b8-4b86-b110-2f02434cfd09"},"vehicle_type_id":"4","last_reported":1731269358,"current_range_meters":12800,"station_id":"ce4bh0h2rcd13ifvqd60","pricing_plan_id":"cebpf4jnsgd1na2vs0mg"},{"bike_id":"92a5c258-ca2d-4100-b1fe-788c222ff11b","system_id":"levelo_inurba_marseille","lat":43.26501,"lon":5.39541,"is_reserved":false,"is_disabled":false,"rental_uris":{"android":"levelo://app?vid=92a5c258-ca2d-4100-b1fe-788c222ff11b","ios":"levelo://app?vid=92a5c258-ca2d-4100-b1fe-788c222ff11b"},"vehicle_type_id":"4","last_reported":1731269358,"current_range_meters":28800,"station_id":"ce4bhi12rcd13ifvqfq0","pricing_plan_id":"cebpf4jnsgd1na2vs0mg"},{"bike_id":"e193da84-3188-45b5-9fe0-86924a122ac2","system_id":"levelo_inurba_marseille","lat":43.25121,"lon":5.40318,"is_reserved":false,"is_disabled":false,"rental_uris":{"android":"levelo://app?vid=e193da84-3188-45b5-9fe0-86924a122ac2","ios":"levelo://app?vid=e193da84-3188-45b5-9fe0-86924a122ac2"},"vehicle_type_id":"4","last_reported":1731269358,"current_range_meters":38800,"station_id":"ce4bhlh2rcd13ifvqgig","pricing_plan_id":"cebpf4jnsgd1na2vs0mg"},{"bike_id":"9a5eb101-92a2-4eeb-93bd-8d070d90c1ea","system_id":"levelo_inurba_marseille","lat":43.30433,"lon":5.42528,"is_reserved":false,"is_disabled":false,"rental_uris":{"android":"levelo://app?vid=9a5eb101-92a2-4eeb-93bd-8d070d90c1ea","ios":"levelo://app?vid=9a5eb101-92a2-4eeb-93bd-8d070d90c1ea"},"vehicle_type_id":"4","last_reported":1731269358,"current_range_meters":10000,"station_id":"","pricing_plan_id":"cebpf4jnsgd1na2vs0mg"},{"bike_id":"4de74ec0-48a2-4451-a65d-5ac6f613a308","system_id":"levelo_inurba_marseille","lat":43.24812,"lon":5.37454,"is_reserved":false,"is_disabled":false,"rental_uris":{"android":"levelo://app?vid=4de74ec0-48a2-4451-a65d-5ac6f613a308","ios":"levelo://app?vid=4de74ec0-48a2-4451-a65d-5ac6f613a308"},"vehicle_type_id":"4","last_reported":1731269358,"current_range_meters":38400,"station_id":"ce4bhgh2rcd13ifvqfb0","pricing_plan_id":"cebpf4jnsgd1na2vs0mg"},{"bike_id":"686aa332-7d6a-4cd4-98d9-7bc79e65dc38","system_id":"levelo_inurba_marseille","lat":43.28002,"lon":5.40012,"is_reserved":false,"is_disabled":false,"rental_uris":{"android":"levelo://app?vid=686aa332-7d6a-4cd4-98d9-7bc79e65dc38","ios":"levelo://app?vid=686aa332-7d6a-4cd4-98d9-7bc79e65dc38"},"vehicle_type_id":"4","last_reported":1731269358,"current_range_meters":36400,"station_id":"ce4bho92rcd13ifvqh4g","pricing_plan_id":"cebpf4jnsgd1na2vs0mg"},{"bike_id":"478f7092-220a-4c15-b688-f80ac7eea75f","system_id":"levelo_inurba_marseille","lat":43.2997,"lon":5.38491,"is_reserved":false,"is_disabled":false,"rental_uris":{"android":"levelo://app?vid=478f7092-220a-4c15-b688-f80ac7eea75f","ios":"levelo://app?vid=478f7092-220a-4c15-b688-f80ac7eea75f"},"vehicle_type_id":"4","last_reported":1731269358,"current_range_meters":38400,"station_id":"ce4bgj92rcd13ifvqbd0","pricing_plan_id":"cebpf4jnsgd1na2vs0mg"},{"bike_id":"b00f8a38-9058-41f2-97a3-e25982af76b2","system_id":"levelo_inurba_marseille","lat":43.25004,"lon":5.38915,"is_reserved":false,"is_disabled":false,"rental_uris":{"android":"levelo://app?vid=b00f8a38-9058-41f2-97a3-e25982af76b2","ios":"levelo://app?vid=b00f8a38-9058-41f2-97a3-e25982af76b2"},"vehicle_type_id":"4","last_reported":1731269358,"current_range_meters":3200,"station_id":"ce4bhgp2rcd13ifvqfd0","pricing_plan_id":"cebpf4jnsgd1na2vs0mg"},{"bike_id":"b676ff9c-41d5-4040-905d-c34d3cf4e66a","system_id":"levelo_inurba_marseille","lat":43.30133,"lon":5.38771,"is_reserved":false,"is_disabled":false,"rental_uris":{"android":"levelo://app?vid=b676ff9c-41d5-4040-905d-c34d3cf4e66a","ios":"levelo://app?vid=b676ff9c-41d5-4040-905d-c34d3cf4e66a"},"vehicle_type_id":"4","last_reported":1731269358,"current_range_meters":38400,"station_id":"ce4bghh2rcd13ifvqb60","pricing_plan_id":"cebpf4jnsgd1na2vs0mg"},{"bike_id":"4c39aa19-0c48-4846-ae4a-17bcc31d5e1d","system_id":"levelo_inurba_marseille","lat":43.323678,"lon":5.38887,"is_reserved":false,"is_disabled":false,"rental_uris":{"android":"levelo://app?vid=4c39aa19-0c48-4846-ae4a-17bcc31d5e1d","ios":"levelo://app?vid=4c39aa19-0c48-4846-ae4a-17bcc31d5e1d"},"vehicle_type_id":"4","last_reported":1731269358,"current_range_meters":11200,"station_id":"ce4bhqp2rcd13ifvqhog","pricing_plan_id":"cebpf4jnsgd1na2vs0mg"},{"bike_id":"7aed7d18-f422-442e-a36e-6f60682f6903","system_id":"levelo_inurba_marseille","lat":43.28445,"lon":5.39198,"is_reserved":false,"is_disabled":false,"rental_uris":{"android":"levelo://app?vid=7aed7d18-f422-442e-a36e-6f60682f6903","ios":"levelo://app?vid=7aed7d18-f422-442e-a36e-6f60682f6903"},"vehicle_type_id":"4","last_reported":1731269358,"current_range_meters":31200,"station_id":"ce4bhoh2rcd13ifvqh5g","pricing_plan_id":"cebpf4jnsgd1na2vs0mg"},{"bike_id":"79164395-19be-49d6-b9b7-b905d7bb9cd2","system_id":"levelo_inurba_marseille","lat":43.29267,"lon":5.3844,"is_reserved":false,"is_disabled":false,"rental_uris":{"android":"levelo://app?vid=79164395-19be-49d6-b9b7-b905d7bb9cd2","ios":"levelo://app?vid=79164395-19be-49d6-b9b7-b905d7bb9cd2"},"vehicle_type_id":"4","last_reported":1731269358,"current_range_meters":34800,"station_id":"ce4bh692rcd13ifvqea0","pricing_plan_id":"cebpf4jnsgd1na2vs0mg"},{"bike_id":"1e7fd650-28c5-42ee-9922-4070c0acdb85","system_id":"levelo_inurba_marseille","lat":43.27492,"lon":5.42454,"is_reserved":false,"is_disabled":false,"rental_uris":{"android":"levelo://app?vid=1e7fd650-28c5-42ee-9922-4070c0acdb85","ios":"levelo://app?vid=1e7fd650-28c5-42ee-9922-4070c0acdb85"},"vehicle_type_id":"4","last_reported":1731269358,"current_range_meters":38000,"station_id":"ce4bhn92rcd13ifvqgrg","pricing_plan_id":"cebpf4jnsgd1na2vs0mg"},{"bike_id":"c36b9d47-5968-445e-8a08-b22bd383465f","system_id":"levelo_inurba_marseille","lat":43.31273,"lon":5.40174,"is_reserved":false,"is_disabled":false,"rental_uris":{"android":"levelo://app?vid=c36b9d47-5968-445e-8a08-b22bd383465f","ios":"levelo://app?vid=c36b9d47-5968-445e-8a08-b22bd383465f"},"vehicle_type_id":"4","last_reported":1731269358,"current_range_meters":38400,"station_id":"ce4bh092rcd13ifvqd30","pricing_plan_id":"cebpf4jnsgd1na2vs0mg"},{"bike_id":"a0c7ccd2-4ee1-482d-96e8-0a58feb4eeb1","system_id":"levelo_inurba_marseille","lat":43.25121,"lon":5.40314,"is_reserved":false,"is_disabled":false,"rental_uris":{"android":"levelo://app?vid=a0c7ccd2-4ee1-482d-96e8-0a58feb4eeb1","ios":"levelo://app?vid=a0c7ccd2-4ee1-482d-96e8-0a58feb4eeb1"},"vehicle_type_id":"4","last_reported":1731269358,"current_range_meters":38800,"station_id":"ce4bhlh2rcd13ifvqgig","pricing_plan_id":"cebpf4jnsgd1na2vs0mg"},{"bike_id":"4bf8c72e-6765-4a50-ba21-fb7b3b22f49b","system_id":"levelo_inurba_marseille","lat":43.29424,"lon":5.38619,"is_reserved":false,"is_disabled":false,"rental_uris":{"android":"levelo://app?vid=4bf8c72e-6765-4a50-ba21-fb7b3b22f49b","ios":"levelo://app?vid=4bf8c72e-6765-4a50-ba21-fb7b3b22f49b"},"vehicle_type_id":"4","last_reported":1731269358,"current_range_meters":16800,"station_id":"ce4bh2h2rcd13ifvqdh0","pricing_plan_id":"cebpf4jnsgd1na2vs0mg"},{"bike_id":"c86f9753-23bf-4b0b-99f7-a3303d896d97","system_id":"levelo_inurba_marseille","lat":43.23186,"lon":5.39985,"is_reserved":false,"is_disabled":false,"rental_uris":{"android":"levelo://app?vid=c86f9753-23bf-4b0b-99f7-a3303d896d97","ios":"levelo://app?vid=c86f9753-23bf-4b0b-99f7-a3303d896d97"},"vehicle_type_id":"4","last_reported":1731269358,"current_range_meters":8400,"station_id":"ce4bhn12rcd13ifvqgqg","pricing_plan_id":"cebpf4jnsgd1na2vs0mg"},{"bike_id":"5ab9d430-3d2b-4a66-870b-567fac89b27f","system_id":"levelo_inurba_marseille","lat":43.31333,"lon":5.39697,"is_reserved":false,"is_disabled":false,"rental_uris":{"android":"levelo://app?vid=5ab9d430-3d2b-4a66-870b-567fac89b27f","ios":"levelo://app?vid=5ab9d430-3d2b-4a66-870b-567fac89b27f"},"vehicle_type_id":"4","last_reported":1731269358,"current_range_meters":39200,"station_id":"ce4bgvp2rcd13ifvqcu0","pricing_plan_id":"cebpf4jnsgd1na2vs0mg"},{"bike_id":"28e54028-7741-493c-b6a5-e0c4509a4229","system_id":"levelo_inurba_marseille","lat":43.31216,"lon":5.36859,"is_reserved":false,"is_disabled":false,"rental_uris":{"android":"levelo://app?vid=28e54028-7741-493c-b6a5-e0c4509a4229","ios":"levelo://app?vid=28e54028-7741-493c-b6a5-e0c4509a4229"},"vehicle_type_id":"4","last_reported":1731269358,"current_range_meters":20400,"station_id":"ce4bgl92rcd13ifvqbq0","pricing_plan_id":"cebpf4jnsgd1na2vs0mg"},{"bike_id":"7aa80756-10e7-47f1-9768-cbe28a9c0202","system_id":"levelo_inurba_marseille","lat":43.28721,"lon":5.37943,"is_reserved":false,"is_disabled":false,"rental_uris":{"android":"levelo://app?vid=7aa80756-10e7-47f1-9768-cbe28a9c0202","ios":"levelo://app?vid=7aa80756-10e7-47f1-9768-cbe28a9c0202"},"vehicle_type_id":"4","last_reported":1731269358,"current_range_meters":29600,"station_id":"ce4bh9p2rcd13ifvqec0","pricing_plan_id":"cebpf4jnsgd1na2vs0mg"},{"bike_id":"07704a86-dbed-425a-854d-11b1a4e3d84c","system_id":"levelo_inurba_marseille","lat":43.33753,"lon":5.37444,"is_reserved":false,"is_disabled":false,"rental_uris":{"android":"levelo://app?vid=07704a86-dbed-425a-854d-11b1a4e3d84c","ios":"levelo://app?vid=07704a86-dbed-425a-854d-11b1a4e3d84c"},"vehicle_type_id":"4","last_reported":1731269358,"current_range_meters":28800,"station_id":"","pricing_plan_id":"cebpf4jnsgd1na2vs0mg"},{"bike_id":"d16c336c-1169-477a-94ae-f89b71b73da8","system_id":"levelo_inurba_marseille","lat":43.3091,"lon":5.3685,"is_reserved":false,"is_disabled":false,"rental_uris":{"android":"levelo://app?vid=d16c336c-1169-477a-94ae-f89b71b73da8","ios":"levelo://app?vid=d16c336c-1169-477a-94ae-f89b71b73da8"},"vehicle_type_id":"4","last_reported":1731269358,"current_range_meters":38800,"station_id":"ce4bgn92rcd13ifvqbvg","pricing_plan_id":"cebpf4jnsgd1na2vs0mg"},{"bike_id":"0b74ce83-e6b1-4485-8ca6-3897f29a426e","system_id":"levelo_inurba_marseille","lat":43.23962,"lon":5.36625,"is_reserved":false,"is_disabled":false,"rental_uris":{"android":"levelo://app?vid=0b74ce83-e6b1-4485-8ca6-3897f29a426e","ios":"levelo://app?vid=0b74ce83-e6b1-4485-8ca6-3897f29a426e"},"vehicle_type_id":"4","last_reported":1731269358,"current_range_meters":7200,"station_id":"ce4bhi12rcd13ifvqfp0","pricing_plan_id":"cebpf4jnsgd1na2vs0mg"},{"bike_id":"6a1a5935-385d-4baa-b1a0-aaf8e0d922fa","system_id":"levelo_inurba_marseille","lat":43.23181,"lon":5.3999,"is_reserved":false,"is_disabled":false,"rental_uris":{"android":"levelo://app?vid=6a1a5935-385d-4baa-b1a0-aaf8e0d922fa","ios":"levelo://app?vid=6a1a5935-385d-4baa-b1a0-aaf8e0d922fa"},"vehicle_type_id":"4","last_reported":1731269358,"current_range_meters":9600,"station_id":"ce4bhn12rcd13ifvqgqg","pricing_plan_id":"cebpf4jnsgd1na2vs0mg"},{"bike_id":"e8ba0b51-9b96-4e09-bf52-7a0da55cd7db","system_id":"levelo_inurba_marseille","lat":43.31998,"lon":5.38168,"is_reserved":false,"is_disabled":false,"rental_uris":{"android":"levelo://app?vid=e8ba0b51-9b96-4e09-bf52-7a0da55cd7db","ios":"levelo://app?vid=e8ba0b51-9b96-4e09-bf52-7a0da55cd7db"},"vehicle_type_id":"4","last_reported":1731269358,"current_range_meters":30800,"station_id":"ce4bhr12rcd13ifvqhpg","pricing_plan_id":"cebpf4jnsgd1na2vs0mg"},{"bike_id":"d0cd6b5f-bfa6-4889-b4e6-57ee1ebe82be","system_id":"levelo_inurba_marseille","lat":43.29533,"lon":5.38539,"is_reserved":false,"is_disabled":false,"rental_uris":{"android":"levelo://app?vid=d0cd6b5f-bfa6-4889-b4e6-57ee1ebe82be","ios":"levelo://app?vid=d0cd6b5f-bfa6-4889-b4e6-57ee1ebe82be"},"vehicle_type_id":"4","last_reported":1731269358,"current_range_meters":14400,"station_id":"ce4bgih2rcd13ifvqba0","pricing_plan_id":"cebpf4jnsgd1na2vs0mg"},{"bike_id":"2a98ca2a-1586-4c7d-89d0-44b5c21dd7e0","system_id":"levelo_inurba_marseille","lat":43.28105,"lon":5.37843,"is_reserved":false,"is_disabled":false,"rental_uris":{"android":"levelo://app?vid=2a98ca2a-1586-4c7d-89d0-44b5c21dd7e0","ios":"levelo://app?vid=2a98ca2a-1586-4c7d-89d0-44b5c21dd7e0"},"vehicle_type_id":"4","last_reported":1731269358,"current_range_meters":28000,"station_id":"ce4bha12rcd13ifvqee0","pricing_plan_id":"cebpf4jnsgd1na2vs0mg"},{"bike_id":"127b2825-8377-42ca-ba22-38a8084d56d1","system_id":"levelo_inurba_marseille","lat":43.2971,"lon":5.36611,"is_reserved":false,"is_disabled":false,"rental_uris":{"android":"levelo://app?vid=127b2825-8377-42ca-ba22-38a8084d56d1","ios":"levelo://app?vid=127b2825-8377-42ca-ba22-38a8084d56d1"},"vehicle_type_id":"4","last_reported":1731269358,"current_range_meters":37600,"station_id":"ce4bgn12rcd13ifvqbt0","pricing_plan_id":"cebpf4jnsgd1na2vs0mg"},{"bike_id":"baac3be3-010c-4ab7-b814-2af962c842f8","system_id":"levelo_inurba_marseille","lat":43.28365,"lon":5.37535,"is_reserved":false,"is_disabled":false,"rental_uris":{"android":"levelo://app?vid=baac3be3-010c-4ab7-b814-2af962c842f8","ios":"levelo://app?vid=baac3be3-010c-4ab7-b814-2af962c842f8"},"vehicle_type_id":"4","last_reported":1731269358,"current_range_meters":25200,"station_id":"ce4bh412rcd13ifvqds0","pricing_plan_id":"cebpf4jnsgd1na2vs0mg"},{"bike_id":"c83aa4bc-1bc7-4d74-ba2b-f5100b85b71f","system_id":"levelo_inurba_marseille","lat":43.31369,"lon":5.38491,"is_reserved":false,"is_disabled":false,"rental_uris":{"android":"levelo://app?vid=c83aa4bc-1bc7-4d74-ba2b-f5100b85b71f","ios":"levelo://app?vid=c83aa4bc-1bc7-4d74-ba2b-f5100b85b71f"},"vehicle_type_id":"4","last_reported":1731269358,"current_range_meters":12000,"station_id":"ce4bgt92rcd13ifvqcf0","pricing_plan_id":"cebpf4jnsgd1na2vs0mg"},{"bike_id":"969227a2-98bf-4ab5-b6d3-e479d8b3607b","system_id":"levelo_inurba_marseille","lat":43.31538,"lon":5.38033,"is_reserved":false,"is_disabled":false,"rental_uris":{"android":"levelo://app?vid=969227a2-98bf-4ab5-b6d3-e479d8b3607b","ios":"levelo://app?vid=969227a2-98bf-4ab5-b6d3-e479d8b3607b"},"vehicle_type_id":"4","last_reported":1731269358,"current_range_meters":26000,"station_id":"ce4bhsp2rcd13ifvqi50","pricing_plan_id":"cebpf4jnsgd1na2vs0mg"},{"bike_id":"c7991350-f502-47da-856b-da455b7bdad1","system_id":"levelo_inurba_marseille","lat":43.231416,"lon":5.437197,"is_reserved":false,"is_disabled":false,"rental_uris":{"android":"levelo://app?vid=c7991350-f502-47da-856b-da455b7bdad1","ios":"levelo://app?vid=c7991350-f502-47da-856b-da455b7bdad1"},"vehicle_type_id":"4","last_reported":1731269358,"current_range_meters":38800,"station_id":"ce4bhmp2rcd13ifvqgog","pricing_plan_id":"cebpf4jnsgd1na2vs0mg"},{"bike_id":"6cde4c04-b0af-4388-b53d-81ed2ec25717","system_id":"levelo_inurba_marseille","lat":43.31761,"lon":5.39005,"is_reserved":false,"is_disabled":false,"rental_uris":{"android":"levelo://app?vid=6cde4c04-b0af-4388-b53d-81ed2ec25717","ios":"levelo://app?vid=6cde4c04-b0af-4388-b53d-81ed2ec25717"},"vehicle_type_id":"4","last_reported":1731269358,"current_range_meters":38800,"station_id":"ce4bhqp2rcd13ifvqhng","pricing_plan_id":"cebpf4jnsgd1na2vs0mg"},{"bike_id":"8bc1e43e-b37b-49c8-8367-5379902b4936","system_id":"levelo_inurba_marseille","lat":43.30927,"lon":5.40137,"is_reserved":false,"is_disabled":false,"rental_uris":{"android":"levelo://app?vid=8bc1e43e-b37b-49c8-8367-5379902b4936","ios":"levelo://app?vid=8bc1e43e-b37b-49c8-8367-5379902b4936"},"vehicle_type_id":"4","last_reported":1731269358,"current_range_meters":38800,"station_id":"ce4bgvp2rcd13ifvqct0","pricing_plan_id":"cebpf4jnsgd1na2vs0mg"},{"bike_id":"7c59c113-339d-4f9b-b12b-18190bdaf895","system_id":"levelo_inurba_marseille","lat":43.25088,"lon":5.39517,"is_reserved":false,"is_disabled":false,"rental_uris":{"android":"levelo://app?vid=7c59c113-339d-4f9b-b12b-18190bdaf895","ios":"levelo://app?vid=7c59c113-339d-4f9b-b12b-18190bdaf895"},"vehicle_type_id":"4","last_reported":1731269358,"current_range_meters":40000,"station_id":"ce4bhm12rcd13ifvqgkg","pricing_plan_id":"cebpf4jnsgd1na2vs0mg"},{"bike_id":"320b60cb-379f-403b-9abe-0141cac929be","system_id":"levelo_inurba_marseille","lat":43.30639,"lon":5.40077,"is_reserved":false,"is_disabled":false,"rental_uris":{"android":"levelo://app?vid=320b60cb-379f-403b-9abe-0141cac929be","ios":"levelo://app?vid=320b60cb-379f-403b-9abe-0141cac929be"},"vehicle_type_id":"4","last_reported":1731269358,"current_range_meters":8400,"station_id":"ce4bh112rcd13ifvqda0","pricing_plan_id":"cebpf4jnsgd1na2vs0mg"},{"bike_id":"4fa1528e-18e5-4186-969d-418c95383671","system_id":"levelo_inurba_marseille","lat":43.26057,"lon":5.39395,"is_reserved":false,"is_disabled":false,"rental_uris":{"android":"levelo://app?vid=4fa1528e-18e5-4186-969d-418c95383671","ios":"levelo://app?vid=4fa1528e-18e5-4186-969d-418c95383671"},"vehicle_type_id":"4","last_reported":1731269358,"current_range_meters":37600,"station_id":"ce4bhh92rcd13ifvqfj0","pricing_plan_id":"cebpf4jnsgd1na2vs0mg"},{"bike_id":"82bb7774-6f63-43c2-817c-76bcb2fa945e","system_id":"levelo_inurba_marseille","lat":43.306542,"lon":5.400905,"is_reserved":false,"is_disabled":false,"rental_uris":{"android":"levelo://app?vid=82bb7774-6f63-43c2-817c-76bcb2fa945e","ios":"levelo://app?vid=82bb7774-6f63-43c2-817c-76bcb2fa945e"},"vehicle_type_id":"4","last_reported":1731269358,"current_range_meters":9600,"station_id":"ce4bhph2rcd13ifvqhdg","pricing_plan_id":"cebpf4jnsgd1na2vs0mg"},{"bike_id":"3d7d5d6d-c6a7-4c5e-94fd-d628aecdce64","system_id":"levelo_inurba_marseille","lat":43.3048,"lon":5.3663,"is_reserved":false,"is_disabled":false,"rental_uris":{"android":"levelo://app?vid=3d7d5d6d-c6a7-4c5e-94fd-d628aecdce64","ios":"levelo://app?vid=3d7d5d6d-c6a7-4c5e-94fd-d628aecdce64"},"vehicle_type_id":"4","last_reported":1731269358,"current_range_meters":16000,"station_id":"","pricing_plan_id":"cebpf4jnsgd1na2vs0mg"},{"bike_id":"56250046-bffe-4317-80aa-970218fffd00","system_id":"levelo_inurba_marseille","lat":43.30807,"lon":5.38165,"is_reserved":false,"is_disabled":false,"rental_uris":{"android":"levelo://app?vid=56250046-bffe-4317-80aa-970218fffd00","ios":"levelo://app?vid=56250046-bffe-4317-80aa-970218fffd00"},"vehicle_type_id":"4","last_reported":1731269358,"current_range_meters":7200,"station_id":"ce4bgt12rcd13ifvqce0","pricing_plan_id":"cebpf4jnsgd1na2vs0mg"},{"bike_id":"3c236245-c89f-47ba-9523-4f57bb7eb0c2","system_id":"levelo_inurba_marseille","lat":43.30097,"lon":5.39072,"is_reserved":false,"is_disabled":false,"rental_uris":{"android":"levelo://app?vid=3c236245-c89f-47ba-9523-4f57bb7eb0c2","ios":"levelo://app?vid=3c236245-c89f-47ba-9523-4f57bb7eb0c2"},"vehicle_type_id":"4","last_reported":1731269358,"current_range_meters":38800,"station_id":"ce4bh192rcd13ifvqdb0","pricing_plan_id":"cebpf4jnsgd1na2vs0mg"},{"bike_id":"1ff9565f-c603-4f50-84ac-2bf59232a61b","system_id":"levelo_inurba_marseille","lat":43.297083,"lon":5.376804,"is_reserved":false,"is_disabled":false,"rental_uris":{"android":"levelo://app?vid=1ff9565f-c603-4f50-84ac-2bf59232a61b","ios":"levelo://app?vid=1ff9565f-c603-4f50-84ac-2bf59232a61b"},"vehicle_type_id":"4","last_reported":1731269358,"current_range_meters":28000,"station_id":"ce4bgkh2rcd13ifvqbl0","pricing_plan_id":"cebpf4jnsgd1na2vs0mg"},{"bike_id":"70361384-6385-4337-9222-6090aea0c082","system_id":"levelo_inurba_marseille","lat":43.29309,"lon":5.37178,"is_reserved":false,"is_disabled":false,"rental_uris":{"android":"levelo://app?vid=70361384-6385-4337-9222-6090aea0c082","ios":"levelo://app?vid=70361384-6385-4337-9222-6090aea0c082"},"vehicle_type_id":"4","last_reported":1731269358,"current_range_meters":10000,"station_id":"ce4bgh92rcd13ifvqb40","pricing_plan_id":"cebpf4jnsgd1na2vs0mg"},{"bike_id":"7b1f3804-3d71-4f18-b551-4e13ca10cf74","system_id":"levelo_inurba_marseille","lat":43.30583,"lon":5.39346,"is_reserved":false,"is_disabled":false,"rental_uris":{"android":"levelo://app?vid=7b1f3804-3d71-4f18-b551-4e13ca10cf74","ios":"levelo://app?vid=7b1f3804-3d71-4f18-b551-4e13ca10cf74"},"vehicle_type_id":"4","last_reported":1731269358,"current_range_meters":38000,"station_id":"ce4bh0p2rcd13ifvqd80","pricing_plan_id":"cebpf4jnsgd1na2vs0mg"},{"bike_id":"ba9a9d91-8cb5-4e16-af79-0022eba54c29","system_id":"levelo_inurba_marseille","lat":43.31224,"lon":5.36861,"is_reserved":false,"is_disabled":false,"rental_uris":{"android":"levelo://app?vid=ba9a9d91-8cb5-4e16-af79-0022eba54c29","ios":"levelo://app?vid=ba9a9d91-8cb5-4e16-af79-0022eba54c29"},"vehicle_type_id":"4","last_reported":1731269358,"current_range_meters":4800,"station_id":"ce4bgl92rcd13ifvqbq0","pricing_plan_id":"cebpf4jnsgd1na2vs0mg"},{"bike_id":"6da06f85-e08e-4d62-b03d-37391773fb47","system_id":"levelo_inurba_marseille","lat":43.32495,"lon":5.3657,"is_reserved":false,"is_disabled":false,"rental_uris":{"android":"levelo://app?vid=6da06f85-e08e-4d62-b03d-37391773fb47","ios":"levelo://app?vid=6da06f85-e08e-4d62-b03d-37391773fb47"},"vehicle_type_id":"4","last_reported":1731269358,"current_range_meters":39200,"station_id":"ce4bhs12rcd13ifvqhvg","pricing_plan_id":"cebpf4jnsgd1na2vs0mg"},{"bike_id":"76cb7de1-c6cf-46f4-817f-a13daaf098d0","system_id":"levelo_inurba_marseille","lat":43.31529,"lon":5.38032,"is_reserved":false,"is_disabled":false,"rental_uris":{"android":"levelo://app?vid=76cb7de1-c6cf-46f4-817f-a13daaf098d0","ios":"levelo://app?vid=76cb7de1-c6cf-46f4-817f-a13daaf098d0"},"vehicle_type_id":"4","last_reported":1731269358,"current_range_meters":4800,"station_id":"ce4bhsp2rcd13ifvqi50","pricing_plan_id":"cebpf4jnsgd1na2vs0mg"},{"bike_id":"16c8c8d4-140c-462c-b302-ae425a898e7c","system_id":"levelo_inurba_marseille","lat":43.24803,"lon":5.37453,"is_reserved":false,"is_disabled":false,"rental_uris":{"android":"levelo://app?vid=16c8c8d4-140c-462c-b302-ae425a898e7c","ios":"levelo://app?vid=16c8c8d4-140c-462c-b302-ae425a898e7c"},"vehicle_type_id":"4","last_reported":1731269358,"current_range_meters":33600,"station_id":"ce4bhgh2rcd13ifvqfb0","pricing_plan_id":"cebpf4jnsgd1na2vs0mg"},{"bike_id":"aaf41b3d-9e95-4484-854c-c5df7bf8fab2","system_id":"levelo_inurba_marseille","lat":43.28406,"lon":5.37519,"is_reserved":false,"is_disabled":false,"rental_uris":{"android":"levelo://app?vid=aaf41b3d-9e95-4484-854c-c5df7bf8fab2","ios":"levelo://app?vid=aaf41b3d-9e95-4484-854c-c5df7bf8fab2"},"vehicle_type_id":"4","last_reported":1731269358,"current_range_meters":25200,"station_id":"ce4bh412rcd13ifvqds0","pricing_plan_id":"cebpf4jnsgd1na2vs0mg"},{"bike_id":"97561af8-0629-4226-8299-61cbcbd98f9d","system_id":"levelo_inurba_marseille","lat":43.29419,"lon":5.3864,"is_reserved":false,"is_disabled":false,"rental_uris":{"android":"levelo://app?vid=97561af8-0629-4226-8299-61cbcbd98f9d","ios":"levelo://app?vid=97561af8-0629-4226-8299-61cbcbd98f9d"},"vehicle_type_id":"4","last_reported":1731269358,"current_range_meters":12800,"station_id":"ce4bh2h2rcd13ifvqdh0","pricing_plan_id":"cebpf4jnsgd1na2vs0mg"},{"bike_id":"58456880-108f-4854-bd37-9a9d96f58604","system_id":"levelo_inurba_marseille","lat":43.29538,"lon":5.38534,"is_reserved":false,"is_disabled":false,"rental_uris":{"android":"levelo://app?vid=58456880-108f-4854-bd37-9a9d96f58604","ios":"levelo://app?vid=58456880-108f-4854-bd37-9a9d96f58604"},"vehicle_type_id":"4","last_reported":1731269358,"current_range_meters":38400,"station_id":"ce4bgih2rcd13ifvqba0","pricing_plan_id":"cebpf4jnsgd1na2vs0mg"},{"bike_id":"ffaba2e6-4b89-4374-8f98-331cf4f5a8d8","system_id":"levelo_inurba_marseille","lat":43.2603,"lon":5.37544,"is_reserved":false,"is_disabled":false,"rental_uris":{"android":"levelo://app?vid=ffaba2e6-4b89-4374-8f98-331cf4f5a8d8","ios":"levelo://app?vid=ffaba2e6-4b89-4374-8f98-331cf4f5a8d8"},"vehicle_type_id":"4","last_reported":1731269358,"current_range_meters":37600,"station_id":"ce4bhgh2rcd13ifvqfa0","pricing_plan_id":"cebpf4jnsgd1na2vs0mg"},{"bike_id":"15126981-6d35-42cb-954b-f5f1f52e3d20","system_id":"levelo_inurba_marseille","lat":43.30184,"lon":5.38955,"is_reserved":false,"is_disabled":false,"rental_uris":{"android":"levelo://app?vid=15126981-6d35-42cb-954b-f5f1f52e3d20","ios":"levelo://app?vid=15126981-6d35-42cb-954b-f5f1f52e3d20"},"vehicle_type_id":"4","last_reported":1731269358,"current_range_meters":34800,"station_id":"","pricing_plan_id":"cebpf4jnsgd1na2vs0mg"},{"bike_id":"c860c5ae-d933-4471-b44d-395402b56a25","system_id":"levelo_inurba_marseille","lat":43.27432,"lon":5.39413,"is_reserved":false,"is_disabled":false,"rental_uris":{"android":"levelo://app?vid=c860c5ae-d933-4471-b44d-395402b56a25","ios":"levelo://app?vid=c860c5ae-d933-4471-b44d-395402b56a25"},"vehicle_type_id":"4","last_reported":1731269358,"current_range_meters":11200,"station_id":"ce4bhdp2rcd13ifvqf20","pricing_plan_id":"cebpf4jnsgd1na2vs0mg"},{"bike_id":"170f9e2d-c67b-40fd-932d-5dcf242be3f1","system_id":"levelo_inurba_marseille","lat":43.29537,"lon":5.38542,"is_reserved":false,"is_disabled":false,"rental_uris":{"android":"levelo://app?vid=170f9e2d-c67b-40fd-932d-5dcf242be3f1","ios":"levelo://app?vid=170f9e2d-c67b-40fd-932d-5dcf242be3f1"},"vehicle_type_id":"4","last_reported":1731269358,"current_range_meters":10000,"station_id":"ce4bgih2rcd13ifvqba0","pricing_plan_id":"cebpf4jnsgd1na2vs0mg"},{"bike_id":"9ab3b81e-4cd0-44e1-aa28-4461d425e0c0","system_id":"levelo_inurba_marseille","lat":43.32662,"lon":5.4099,"is_reserved":false,"is_disabled":false,"rental_uris":{"android":"levelo://app?vid=9ab3b81e-4cd0-44e1-aa28-4461d425e0c0","ios":"levelo://app?vid=9ab3b81e-4cd0-44e1-aa28-4461d425e0c0"},"vehicle_type_id":"4","last_reported":1731269358,"current_range_meters":36800,"station_id":"ce4bhpp2rcd13ifvqhgg","pricing_plan_id":"cebpf4jnsgd1na2vs0mg"},{"bike_id":"30de2e8a-2067-4723-b10c-0ae5e73636b6","system_id":"levelo_inurba_marseille","lat":43.29535,"lon":5.3854,"is_reserved":false,"is_disabled":false,"rental_uris":{"android":"levelo://app?vid=30de2e8a-2067-4723-b10c-0ae5e73636b6","ios":"levelo://app?vid=30de2e8a-2067-4723-b10c-0ae5e73636b6"},"vehicle_type_id":"4","last_reported":1731269358,"current_range_meters":36800,"station_id":"ce4bgih2rcd13ifvqba0","pricing_plan_id":"cebpf4jnsgd1na2vs0mg"},{"bike_id":"0c3ada0e-ab2f-4c37-a6b8-8b70c2ea99d0","system_id":"levelo_inurba_marseille","lat":43.32048,"lon":5.41575,"is_reserved":false,"is_disabled":false,"rental_uris":{"android":"levelo://app?vid=0c3ada0e-ab2f-4c37-a6b8-8b70c2ea99d0","ios":"levelo://app?vid=0c3ada0e-ab2f-4c37-a6b8-8b70c2ea99d0"},"vehicle_type_id":"4","last_reported":1731269358,"current_range_meters":6800,"station_id":"ce4bhq92rcd13ifvqhkg","pricing_plan_id":"cebpf4jnsgd1na2vs0mg"},{"bike_id":"89a0e6b6-9cf7-45e7-8938-17013a67a8ad","system_id":"levelo_inurba_marseille","lat":43.29033,"lon":5.38646,"is_reserved":false,"is_disabled":false,"rental_uris":{"android":"levelo://app?vid=89a0e6b6-9cf7-45e7-8938-17013a67a8ad","ios":"levelo://app?vid=89a0e6b6-9cf7-45e7-8938-17013a67a8ad"},"vehicle_type_id":"4","last_reported":1731269358,"current_range_meters":27200,"station_id":"ce4bh4p2rcd13ifvqe0g","pricing_plan_id":"cebpf4jnsgd1na2vs0mg"},{"bike_id":"ac659186-70a1-4190-99a4-216b54d87779","system_id":"levelo_inurba_marseille","lat":43.231802,"lon":5.435815,"is_reserved":false,"is_disabled":false,"rental_uris":{"android":"levelo://app?vid=ac659186-70a1-4190-99a4-216b54d87779","ios":"levelo://app?vid=ac659186-70a1-4190-99a4-216b54d87779"},"vehicle_type_id":"4","last_reported":1731269358,"current_range_meters":38800,"station_id":"","pricing_plan_id":"cebpf4jnsgd1na2vs0mg"},{"bike_id":"b72ca6e7-47e9-42be-9a97-b74e22acdc0e","system_id":"levelo_inurba_marseille","lat":43.32105,"lon":5.36768,"is_reserved":false,"is_disabled":false,"rental_uris":{"android":"levelo://app?vid=b72ca6e7-47e9-42be-9a97-b74e22acdc0e","ios":"levelo://app?vid=b72ca6e7-47e9-42be-9a97-b74e22acdc0e"},"vehicle_type_id":"4","last_reported":1731269358,"current_range_meters":36000,"station_id":"ce4bhrh2rcd13ifvqhug","pricing_plan_id":"cebpf4jnsgd1na2vs0mg"},{"bike_id":"92f0dd9d-770c-49ba-b49f-add0a8f63df7","system_id":"levelo_inurba_marseille","lat":43.264636,"lon":5.380511,"is_reserved":false,"is_disabled":false,"rental_uris":{"android":"levelo://app?vid=92f0dd9d-770c-49ba-b49f-add0a8f63df7","ios":"levelo://app?vid=92f0dd9d-770c-49ba-b49f-add0a8f63df7"},"vehicle_type_id":"4","last_reported":1731269358,"current_range_meters":33200,"station_id":"","pricing_plan_id":"cebpf4jnsgd1na2vs0mg"},{"bike_id":"3cb06d37-d171-46f7-b418-e8d09a4f4667","system_id":"levelo_inurba_marseille","lat":43.29266,"lon":5.38439,"is_reserved":false,"is_disabled":false,"rental_uris":{"android":"levelo://app?vid=3cb06d37-d171-46f7-b418-e8d09a4f4667","ios":"levelo://app?vid=3cb06d37-d171-46f7-b418-e8d09a4f4667"},"vehicle_type_id":"4","last_reported":1731269358,"current_range_meters":6000,"station_id":"ce4bh692rcd13ifvqea0","pricing_plan_id":"cebpf4jnsgd1na2vs0mg"},{"bike_id":"d6618551-a726-47ce-ace5-9be2ffde6071","system_id":"levelo_inurba_marseille","lat":43.29947,"lon":5.38148,"is_reserved":false,"is_disabled":false,"rental_uris":{"android":"levelo://app?vid=d6618551-a726-47ce-ace5-9be2ffde6071","ios":"levelo://app?vid=d6618551-a726-47ce-ace5-9be2ffde6071"},"vehicle_type_id":"4","last_reported":1731269358,"current_range_meters":38800,"station_id":"ce4bgj12rcd13ifvqbc0","pricing_plan_id":"cebpf4jnsgd1na2vs0mg"},{"bike_id":"c0adf7cc-ad53-4b30-988f-c0e3f3eb38b8","system_id":"levelo_inurba_marseille","lat":43.2811,"lon":5.3784,"is_reserved":false,"is_disabled":false,"rental_uris":{"android":"levelo://app?vid=c0adf7cc-ad53-4b30-988f-c0e3f3eb38b8","ios":"levelo://app?vid=c0adf7cc-ad53-4b30-988f-c0e3f3eb38b8"},"vehicle_type_id":"4","last_reported":1731269358,"current_range_meters":39200,"station_id":"ce4bha12rcd13ifvqee0","pricing_plan_id":"cebpf4jnsgd1na2vs0mg"},{"bike_id":"d0552319-8354-4260-9c82-0ddc3b90f027","system_id":"levelo_inurba_marseille","lat":43.28351,"lon":5.38109,"is_reserved":false,"is_disabled":false,"rental_uris":{"android":"levelo://app?vid=d0552319-8354-4260-9c82-0ddc3b90f027","ios":"levelo://app?vid=d0552319-8354-4260-9c82-0ddc3b90f027"},"vehicle_type_id":"4","last_reported":1731269358,"current_range_meters":12000,"station_id":"ce4bh412rcd13ifvqdr0","pricing_plan_id":"cebpf4jnsgd1na2vs0mg"},{"bike_id":"db2e6139-0551-4de2-8e50-fffa4eceeafd","system_id":"levelo_inurba_marseille","lat":43.29274,"lon":5.36841,"is_reserved":false,"is_disabled":false,"rental_uris":{"android":"levelo://app?vid=db2e6139-0551-4de2-8e50-fffa4eceeafd","ios":"levelo://app?vid=db2e6139-0551-4de2-8e50-fffa4eceeafd"},"vehicle_type_id":"4","last_reported":1731269358,"current_range_meters":27600,"station_id":"ce4bhbp2rcd13ifvqesg","pricing_plan_id":"cebpf4jnsgd1na2vs0mg"},{"bike_id":"ecf991fb-272f-48ac-bfd3-028c5c875379","system_id":"levelo_inurba_marseille","lat":43.32661,"lon":5.40993,"is_reserved":false,"is_disabled":false,"rental_uris":{"android":"levelo://app?vid=ecf991fb-272f-48ac-bfd3-028c5c875379","ios":"levelo://app?vid=ecf991fb-272f-48ac-bfd3-028c5c875379"},"vehicle_type_id":"4","last_reported":1731269358,"current_range_meters":24400,"station_id":"ce4bhpp2rcd13ifvqhgg","pricing_plan_id":"cebpf4jnsgd1na2vs0mg"},{"bike_id":"82fd821f-a147-4720-908f-5efe2211d1ec","system_id":"levelo_inurba_marseille","lat":43.2977,"lon":5.37107,"is_reserved":false,"is_disabled":false,"rental_uris":{"android":"levelo://app?vid=82fd821f-a147-4720-908f-5efe2211d1ec","ios":"levelo://app?vid=82fd821f-a147-4720-908f-5efe2211d1ec"},"vehicle_type_id":"4","last_reported":1731269358,"current_range_meters":37600,"station_id":"ce4bgop2rcd13ifvqc1g","pricing_plan_id":"cebpf4jnsgd1na2vs0mg"},{"bike_id":"d72a7f71-abee-4b8d-a6df-01eba3805d0d","system_id":"levelo_inurba_marseille","lat":43.29896,"lon":5.43662,"is_reserved":false,"is_disabled":false,"rental_uris":{"android":"levelo://app?vid=d72a7f71-abee-4b8d-a6df-01eba3805d0d","ios":"levelo://app?vid=d72a7f71-abee-4b8d-a6df-01eba3805d0d"},"vehicle_type_id":"4","last_reported":1731269358,"current_range_meters":16800,"station_id":"ce4bhpp2rcd13ifvqhfg","pricing_plan_id":"cebpf4jnsgd1na2vs0mg"},{"bike_id":"52a71ef5-8ef7-4a13-9edb-b931936b8cfb","system_id":"levelo_inurba_marseille","lat":43.33731,"lon":5.39189,"is_reserved":false,"is_disabled":false,"rental_uris":{"android":"levelo://app?vid=52a71ef5-8ef7-4a13-9edb-b931936b8cfb","ios":"levelo://app?vid=52a71ef5-8ef7-4a13-9edb-b931936b8cfb"},"vehicle_type_id":"4","last_reported":1731269358,"current_range_meters":34000,"station_id":"ce4bhr92rcd13ifvqhsg","pricing_plan_id":"cebpf4jnsgd1na2vs0mg"},{"bike_id":"f23d7e81-bd37-43fe-a9a9-a09f7a4dfad6","system_id":"levelo_inurba_marseille","lat":43.30093,"lon":5.39073,"is_reserved":false,"is_disabled":false,"rental_uris":{"android":"levelo://app?vid=f23d7e81-bd37-43fe-a9a9-a09f7a4dfad6","ios":"levelo://app?vid=f23d7e81-bd37-43fe-a9a9-a09f7a4dfad6"},"vehicle_type_id":"4","last_reported":1731269358,"current_range_meters":17600,"station_id":"ce4bh192rcd13ifvqdb0","pricing_plan_id":"cebpf4jnsgd1na2vs0mg"},{"bike_id":"ad086397-534f-4a0c-bc69-75a241990385","system_id":"levelo_inurba_marseille","lat":43.291701,"lon":5.371543,"is_reserved":false,"is_disabled":false,"rental_uris":{"android":"levelo://app?vid=ad086397-534f-4a0c-bc69-75a241990385","ios":"levelo://app?vid=ad086397-534f-4a0c-bc69-75a241990385"},"vehicle_type_id":"4","last_reported":1731269358,"current_range_meters":27600,"station_id":"ce4bha92rcd13ifvqeh0","pricing_plan_id":"cebpf4jnsgd1na2vs0mg"},{"bike_id":"10356833-33b6-41fe-9ef0-40c7be270586","system_id":"levelo_inurba_marseille","lat":43.29536,"lon":5.38535,"is_reserved":false,"is_disabled":false,"rental_uris":{"android":"levelo://app?vid=10356833-33b6-41fe-9ef0-40c7be270586","ios":"levelo://app?vid=10356833-33b6-41fe-9ef0-40c7be270586"},"vehicle_type_id":"4","last_reported":1731269358,"current_range_meters":30400,"station_id":"ce4bgih2rcd13ifvqba0","pricing_plan_id":"cebpf4jnsgd1na2vs0mg"},{"bike_id":"cf678ceb-3446-4937-b2e7-921edbcce60b","system_id":"levelo_inurba_marseille","lat":43.32292,"lon":5.38266,"is_reserved":false,"is_disabled":false,"rental_uris":{"android":"levelo://app?vid=cf678ceb-3446-4937-b2e7-921edbcce60b","ios":"levelo://app?vid=cf678ceb-3446-4937-b2e7-921edbcce60b"},"vehicle_type_id":"4","last_reported":1731269358,"current_range_meters":32800,"station_id":"ce4bhr12rcd13ifvqhqg","pricing_plan_id":"cebpf4jnsgd1na2vs0mg"},{"bike_id":"c606c8ab-ae1e-4e0c-8e55-8a9ba495616e","system_id":"levelo_inurba_marseille","lat":43.25724,"lon":5.41108,"is_reserved":false,"is_disabled":false,"rental_uris":{"android":"levelo://app?vid=c606c8ab-ae1e-4e0c-8e55-8a9ba495616e","ios":"levelo://app?vid=c606c8ab-ae1e-4e0c-8e55-8a9ba495616e"},"vehicle_type_id":"4","last_reported":1731269358,"current_range_meters":16400,"station_id":"ce4bhkp2rcd13ifvqgd0","pricing_plan_id":"cebpf4jnsgd1na2vs0mg"},{"bike_id":"11c45fd9-3e93-4785-983d-bba9dabc1443","system_id":"levelo_inurba_marseille","lat":43.28376,"lon":5.38638,"is_reserved":false,"is_disabled":false,"rental_uris":{"android":"levelo://app?vid=11c45fd9-3e93-4785-983d-bba9dabc1443","ios":"levelo://app?vid=11c45fd9-3e93-4785-983d-bba9dabc1443"},"vehicle_type_id":"4","last_reported":1731269358,"current_range_meters":11600,"station_id":"ce4bh492rcd13ifvqdvg","pricing_plan_id":"cebpf4jnsgd1na2vs0mg"},{"bike_id":"f0c09653-5fa9-48e7-865b-cc4f9a7b4b43","system_id":"levelo_inurba_marseille","lat":43.25826,"lon":5.39434,"is_reserved":false,"is_disabled":false,"rental_uris":{"android":"levelo://app?vid=f0c09653-5fa9-48e7-865b-cc4f9a7b4b43","ios":"levelo://app?vid=f0c09653-5fa9-48e7-865b-cc4f9a7b4b43"},"vehicle_type_id":"4","last_reported":1731269358,"current_range_meters":22800,"station_id":"ce4bhip2rcd13ifvqft0","pricing_plan_id":"cebpf4jnsgd1na2vs0mg"},{"bike_id":"b635eb37-9c59-484e-991d-91f329ce145f","system_id":"levelo_inurba_marseille","lat":43.30932,"lon":5.40139,"is_reserved":false,"is_disabled":false,"rental_uris":{"android":"levelo://app?vid=b635eb37-9c59-484e-991d-91f329ce145f","ios":"levelo://app?vid=b635eb37-9c59-484e-991d-91f329ce145f"},"vehicle_type_id":"4","last_reported":1731269358,"current_range_meters":30000,"station_id":"ce4bgvp2rcd13ifvqct0","pricing_plan_id":"cebpf4jnsgd1na2vs0mg"},{"bike_id":"e88b95ba-3b50-479e-a4fb-1ef1bbfecace","system_id":"levelo_inurba_marseille","lat":43.31325,"lon":5.397,"is_reserved":false,"is_disabled":false,"rental_uris":{"android":"levelo://app?vid=e88b95ba-3b50-479e-a4fb-1ef1bbfecace","ios":"levelo://app?vid=e88b95ba-3b50-479e-a4fb-1ef1bbfecace"},"vehicle_type_id":"4","last_reported":1731269358,"current_range_meters":38000,"station_id":"ce4bgvp2rcd13ifvqcu0","pricing_plan_id":"cebpf4jnsgd1na2vs0mg"},{"bike_id":"16edd5e5-0497-4831-bb6b-d18eb7e92293","system_id":"levelo_inurba_marseille","lat":43.24812,"lon":5.37457,"is_reserved":false,"is_disabled":false,"rental_uris":{"android":"levelo://app?vid=16edd5e5-0497-4831-bb6b-d18eb7e92293","ios":"levelo://app?vid=16edd5e5-0497-4831-bb6b-d18eb7e92293"},"vehicle_type_id":"4","last_reported":1731269358,"current_range_meters":28400,"station_id":"ce4bhgh2rcd13ifvqfb0","pricing_plan_id":"cebpf4jnsgd1na2vs0mg"},{"bike_id":"feb86f62-2c80-4064-8e38-33c5534046da","system_id":"levelo_inurba_marseille","lat":43.28199,"lon":5.39891,"is_reserved":false,"is_disabled":false,"rental_uris":{"android":"levelo://app?vid=feb86f62-2c80-4064-8e38-33c5534046da","ios":"levelo://app?vid=feb86f62-2c80-4064-8e38-33c5534046da"},"vehicle_type_id":"4","last_reported":1731269358,"current_range_meters":20400,"station_id":"","pricing_plan_id":"cebpf4jnsgd1na2vs0mg"},{"bike_id":"6079ea05-1be4-4b51-98f1-6008d13d6046","system_id":"levelo_inurba_marseille","lat":43.28478,"lon":5.3858,"is_reserved":false,"is_disabled":false,"rental_uris":{"android":"levelo://app?vid=6079ea05-1be4-4b51-98f1-6008d13d6046","ios":"levelo://app?vid=6079ea05-1be4-4b51-98f1-6008d13d6046"},"vehicle_type_id":"4","last_reported":1731269358,"current_range_meters":38800,"station_id":"ce4bh8p2rcd13ifvqeb0","pricing_plan_id":"cebpf4jnsgd1na2vs0mg"},{"bike_id":"a2e0dbd8-6bb6-4f58-81e6-a5bb2ebfdca4","system_id":"levelo_inurba_marseille","lat":43.23198,"lon":5.35559,"is_reserved":false,"is_disabled":false,"rental_uris":{"android":"levelo://app?vid=a2e0dbd8-6bb6-4f58-81e6-a5bb2ebfdca4","ios":"levelo://app?vid=a2e0dbd8-6bb6-4f58-81e6-a5bb2ebfdca4"},"vehicle_type_id":"4","last_reported":1731269358,"current_range_meters":40000,"station_id":"ce4bhu92rcd13ifvqi70","pricing_plan_id":"cebpf4jnsgd1na2vs0mg"},{"bike_id":"1f80f70e-3019-44b8-acec-ff0a3264baf6","system_id":"levelo_inurba_marseille","lat":43.33027,"lon":5.39041,"is_reserved":false,"is_disabled":false,"rental_uris":{"android":"levelo://app?vid=1f80f70e-3019-44b8-acec-ff0a3264baf6","ios":"levelo://app?vid=1f80f70e-3019-44b8-acec-ff0a3264baf6"},"vehicle_type_id":"4","last_reported":1731269358,"current_range_meters":19200,"station_id":"ce4bhr92rcd13ifvqhrg","pricing_plan_id":"cebpf4jnsgd1na2vs0mg"},{"bike_id":"2253a08e-c630-4fea-a5bd-7d0c33c01446","system_id":"levelo_inurba_marseille","lat":43.26673,"lon":5.38255,"is_reserved":false,"is_disabled":false,"rental_uris":{"android":"levelo://app?vid=2253a08e-c630-4fea-a5bd-7d0c33c01446","ios":"levelo://app?vid=2253a08e-c630-4fea-a5bd-7d0c33c01446"},"vehicle_type_id":"4","last_reported":1731269358,"current_range_meters":31200,"station_id":"","pricing_plan_id":"cebpf4jnsgd1na2vs0mg"},{"bike_id":"aa9f8549-1b7b-4bf9-8974-4b5f5335949b","system_id":"levelo_inurba_marseille","lat":43.28036,"lon":5.36953,"is_reserved":false,"is_disabled":false,"rental_uris":{"android":"levelo://app?vid=aa9f8549-1b7b-4bf9-8974-4b5f5335949b","ios":"levelo://app?vid=aa9f8549-1b7b-4bf9-8974-4b5f5335949b"},"vehicle_type_id":"4","last_reported":1731269358,"current_range_meters":34800,"station_id":"ce4bha12rcd13ifvqef0","pricing_plan_id":"cebpf4jnsgd1na2vs0mg"},{"bike_id":"792a3234-7943-43e5-8b51-9fa2b9be4d1d","system_id":"levelo_inurba_marseille","lat":43.30602,"lon":5.37237,"is_reserved":false,"is_disabled":false,"rental_uris":{"android":"levelo://app?vid=792a3234-7943-43e5-8b51-9fa2b9be4d1d","ios":"levelo://app?vid=792a3234-7943-43e5-8b51-9fa2b9be4d1d"},"vehicle_type_id":"4","last_reported":1731269358,"current_range_meters":38800,"station_id":"ce4bgqh2rcd13ifvqc4g","pricing_plan_id":"cebpf4jnsgd1na2vs0mg"},{"bike_id":"40822e85-2ee2-4002-a4ec-1277fa6e2a47","system_id":"levelo_inurba_marseille","lat":43.28489,"lon":5.38573,"is_reserved":false,"is_disabled":false,"rental_uris":{"android":"levelo://app?vid=40822e85-2ee2-4002-a4ec-1277fa6e2a47","ios":"levelo://app?vid=40822e85-2ee2-4002-a4ec-1277fa6e2a47"},"vehicle_type_id":"4","last_reported":1731269358,"current_range_meters":7200,"station_id":"ce4bh8p2rcd13ifvqeb0","pricing_plan_id":"cebpf4jnsgd1na2vs0mg"},{"bike_id":"404b7870-5608-4a31-9f96-59b607026637","system_id":"levelo_inurba_marseille","lat":43.28401,"lon":5.37512,"is_reserved":false,"is_disabled":false,"rental_uris":{"android":"levelo://app?vid=404b7870-5608-4a31-9f96-59b607026637","ios":"levelo://app?vid=404b7870-5608-4a31-9f96-59b607026637"},"vehicle_type_id":"4","last_reported":1731269358,"current_range_meters":31200,"station_id":"ce4bh412rcd13ifvqds0","pricing_plan_id":"cebpf4jnsgd1na2vs0mg"},{"bike_id":"71d04bf7-3099-4526-8f04-dc3d4afa54d8","system_id":"levelo_inurba_marseille","lat":43.29311,"lon":5.37176,"is_reserved":false,"is_disabled":false,"rental_uris":{"android":"levelo://app?vid=71d04bf7-3099-4526-8f04-dc3d4afa54d8","ios":"levelo://app?vid=71d04bf7-3099-4526-8f04-dc3d4afa54d8"},"vehicle_type_id":"4","last_reported":1731269358,"current_range_meters":36000,"station_id":"ce4bgh92rcd13ifvqb40","pricing_plan_id":"cebpf4jnsgd1na2vs0mg"},{"bike_id":"5c91adf0-ee2c-4ae6-8882-91ad0f428980","system_id":"levelo_inurba_marseille","lat":43.30894,"lon":5.39644,"is_reserved":false,"is_disabled":false,"rental_uris":{"android":"levelo://app?vid=5c91adf0-ee2c-4ae6-8882-91ad0f428980","ios":"levelo://app?vid=5c91adf0-ee2c-4ae6-8882-91ad0f428980"},"vehicle_type_id":"4","last_reported":1731269358,"current_range_meters":25200,"station_id":"ce4bh012rcd13ifvqcv0","pricing_plan_id":"cebpf4jnsgd1na2vs0mg"},{"bike_id":"7ca74166-6ab5-495b-9696-584d02466e1d","system_id":"levelo_inurba_marseille","lat":43.33604,"lon":5.41026,"is_reserved":false,"is_disabled":false,"rental_uris":{"android":"levelo://app?vid=7ca74166-6ab5-495b-9696-584d02466e1d","ios":"levelo://app?vid=7ca74166-6ab5-495b-9696-584d02466e1d"},"vehicle_type_id":"4","last_reported":1731269358,"current_range_meters":19600,"station_id":"ce4bhqh2rcd13ifvqhmg","pricing_plan_id":"cebpf4jnsgd1na2vs0mg"},{"bike_id":"8acdc592-cfd9-403f-b8c7-01eaac0cc66e","system_id":"levelo_inurba_marseille","lat":43.29423,"lon":5.38626,"is_reserved":false,"is_disabled":false,"rental_uris":{"android":"levelo://app?vid=8acdc592-cfd9-403f-b8c7-01eaac0cc66e","ios":"levelo://app?vid=8acdc592-cfd9-403f-b8c7-01eaac0cc66e"},"vehicle_type_id":"4","last_reported":1731269358,"current_range_meters":8400,"station_id":"ce4bh2h2rcd13ifvqdh0","pricing_plan_id":"cebpf4jnsgd1na2vs0mg"},{"bike_id":"dc14e9f5-5034-46fc-ba4c-a60506ede142","system_id":"levelo_inurba_marseille","lat":43.31226,"lon":5.36834,"is_reserved":false,"is_disabled":false,"rental_uris":{"android":"levelo://app?vid=dc14e9f5-5034-46fc-ba4c-a60506ede142","ios":"levelo://app?vid=dc14e9f5-5034-46fc-ba4c-a60506ede142"},"vehicle_type_id":"4","last_reported":1731269358,"current_range_meters":38800,"station_id":"ce4bgl92rcd13ifvqbq0","pricing_plan_id":"cebpf4jnsgd1na2vs0mg"},{"bike_id":"705681ac-353b-43ea-b2a4-1b336050d878","system_id":"levelo_inurba_marseille","lat":43.31268,"lon":5.40169,"is_reserved":false,"is_disabled":false,"rental_uris":{"android":"levelo://app?vid=705681ac-353b-43ea-b2a4-1b336050d878","ios":"levelo://app?vid=705681ac-353b-43ea-b2a4-1b336050d878"},"vehicle_type_id":"4","last_reported":1731269358,"current_range_meters":28000,"station_id":"ce4bh092rcd13ifvqd30","pricing_plan_id":"cebpf4jnsgd1na2vs0mg"},{"bike_id":"b16943e1-6e4b-4767-8789-7da828786277","system_id":"levelo_inurba_marseille","lat":43.34188,"lon":5.38609,"is_reserved":false,"is_disabled":false,"rental_uris":{"android":"levelo://app?vid=b16943e1-6e4b-4767-8789-7da828786277","ios":"levelo://app?vid=b16943e1-6e4b-4767-8789-7da828786277"},"vehicle_type_id":"4","last_reported":1731269358,"current_range_meters":17600,"station_id":"","pricing_plan_id":"cebpf4jnsgd1na2vs0mg"},{"bike_id":"3f629cc3-99b5-464f-8f7f-443a9cd73806","system_id":"levelo_inurba_marseille","lat":43.28411,"lon":5.37508,"is_reserved":false,"is_disabled":false,"rental_uris":{"android":"levelo://app?vid=3f629cc3-99b5-464f-8f7f-443a9cd73806","ios":"levelo://app?vid=3f629cc3-99b5-464f-8f7f-443a9cd73806"},"vehicle_type_id":"4","last_reported":1731269358,"current_range_meters":9200,"station_id":"ce4bh412rcd13ifvqds0","pricing_plan_id":"cebpf4jnsgd1na2vs0mg"},{"bike_id":"cddcfc8b-25a7-430a-9f6e-4a4467bb746e","system_id":"levelo_inurba_marseille","lat":43.30296,"lon":5.39211,"is_reserved":false,"is_disabled":false,"rental_uris":{"android":"levelo://app?vid=cddcfc8b-25a7-430a-9f6e-4a4467bb746e","ios":"levelo://app?vid=cddcfc8b-25a7-430a-9f6e-4a4467bb746e"},"vehicle_type_id":"4","last_reported":1731269358,"current_range_meters":30800,"station_id":"ce4bgkh2rcd13ifvqbk0","pricing_plan_id":"cebpf4jnsgd1na2vs0mg"},{"bike_id":"9dc49127-682d-431d-987f-d55974f32dfd","system_id":"levelo_inurba_marseille","lat":43.284511,"lon":5.358712,"is_reserved":false,"is_disabled":false,"rental_uris":{"android":"levelo://app?vid=9dc49127-682d-431d-987f-d55974f32dfd","ios":"levelo://app?vid=9dc49127-682d-431d-987f-d55974f32dfd"},"vehicle_type_id":"4","last_reported":1731269358,"current_range_meters":19200,"station_id":"ce4bhah2rcd13ifvqei0","pricing_plan_id":"cebpf4jnsgd1na2vs0mg"},{"bike_id":"0acccacb-5c5e-4293-af73-a3ca4b76801a","system_id":"levelo_inurba_marseille","lat":43.27953,"lon":5.41045,"is_reserved":false,"is_disabled":false,"rental_uris":{"android":"levelo://app?vid=0acccacb-5c5e-4293-af73-a3ca4b76801a","ios":"levelo://app?vid=0acccacb-5c5e-4293-af73-a3ca4b76801a"},"vehicle_type_id":"4","last_reported":1731269358,"current_range_meters":11200,"station_id":"ce4bhnp2rcd13ifvqh0g","pricing_plan_id":"cebpf4jnsgd1na2vs0mg"},{"bike_id":"5316c163-4d86-432f-ba24-4204689f53c7","system_id":"levelo_inurba_marseille","lat":43.29419,"lon":5.38626,"is_reserved":false,"is_disabled":false,"rental_uris":{"android":"levelo://app?vid=5316c163-4d86-432f-ba24-4204689f53c7","ios":"levelo://app?vid=5316c163-4d86-432f-ba24-4204689f53c7"},"vehicle_type_id":"4","last_reported":1731269358,"current_range_meters":38800,"station_id":"ce4bh2h2rcd13ifvqdh0","pricing_plan_id":"cebpf4jnsgd1na2vs0mg"},{"bike_id":"e7d0aa3b-63b9-4bdc-a314-0ca326a13c45","system_id":"levelo_inurba_marseille","lat":43.32332,"lon":5.40624,"is_reserved":false,"is_disabled":false,"rental_uris":{"android":"levelo://app?vid=e7d0aa3b-63b9-4bdc-a314-0ca326a13c45","ios":"levelo://app?vid=e7d0aa3b-63b9-4bdc-a314-0ca326a13c45"},"vehicle_type_id":"4","last_reported":1731269358,"current_range_meters":14000,"station_id":"ce4bhq92rcd13ifvqhjg","pricing_plan_id":"cebpf4jnsgd1na2vs0mg"},{"bike_id":"83afddec-c1a0-4d5a-a9f3-d52e05581f98","system_id":"levelo_inurba_marseille","lat":43.29424,"lon":5.38621,"is_reserved":false,"is_disabled":false,"rental_uris":{"android":"levelo://app?vid=83afddec-c1a0-4d5a-a9f3-d52e05581f98","ios":"levelo://app?vid=83afddec-c1a0-4d5a-a9f3-d52e05581f98"},"vehicle_type_id":"4","last_reported":1731269358,"current_range_meters":38000,"station_id":"ce4bh2h2rcd13ifvqdh0","pricing_plan_id":"cebpf4jnsgd1na2vs0mg"},{"bike_id":"6cb682fb-9aa9-4912-8624-25d5fc8e69ee","system_id":"levelo_inurba_marseille","lat":43.28719,"lon":5.37941,"is_reserved":false,"is_disabled":false,"rental_uris":{"android":"levelo://app?vid=6cb682fb-9aa9-4912-8624-25d5fc8e69ee","ios":"levelo://app?vid=6cb682fb-9aa9-4912-8624-25d5fc8e69ee"},"vehicle_type_id":"4","last_reported":1731269358,"current_range_meters":20400,"station_id":"ce4bh9p2rcd13ifvqec0","pricing_plan_id":"cebpf4jnsgd1na2vs0mg"},{"bike_id":"db7b2574-be0b-4a2b-8788-ac78d9f6523e","system_id":"levelo_inurba_marseille","lat":43.29938,"lon":5.36535,"is_reserved":false,"is_disabled":false,"rental_uris":{"android":"levelo://app?vid=db7b2574-be0b-4a2b-8788-ac78d9f6523e","ios":"levelo://app?vid=db7b2574-be0b-4a2b-8788-ac78d9f6523e"},"vehicle_type_id":"4","last_reported":1731269358,"current_range_meters":4800,"station_id":"ce4bgm92rcd13ifvqbr0","pricing_plan_id":"cebpf4jnsgd1na2vs0mg"},{"bike_id":"a347c9be-d588-4eb0-b9e9-73e02db827dd","system_id":"levelo_inurba_marseille","lat":43.28965,"lon":5.36466,"is_reserved":false,"is_disabled":false,"rental_uris":{"android":"levelo://app?vid=a347c9be-d588-4eb0-b9e9-73e02db827dd","ios":"levelo://app?vid=a347c9be-d588-4eb0-b9e9-73e02db827dd"},"vehicle_type_id":"4","last_reported":1731269358,"current_range_meters":32000,"station_id":"","pricing_plan_id":"cebpf4jnsgd1na2vs0mg"},{"bike_id":"97acac95-0956-4034-8594-0d70ef3141b8","system_id":"levelo_inurba_marseille","lat":43.2867,"lon":5.38673,"is_reserved":false,"is_disabled":false,"rental_uris":{"android":"levelo://app?vid=97acac95-0956-4034-8594-0d70ef3141b8","ios":"levelo://app?vid=97acac95-0956-4034-8594-0d70ef3141b8"},"vehicle_type_id":"4","last_reported":1731269358,"current_range_meters":30400,"station_id":"ce4bh492rcd13ifvqdug","pricing_plan_id":"cebpf4jnsgd1na2vs0mg"},{"bike_id":"7e514a83-c0dd-47db-9deb-0c35bed0ce43","system_id":"levelo_inurba_marseille","lat":43.246395,"lon":5.388827,"is_reserved":false,"is_disabled":false,"rental_uris":{"android":"levelo://app?vid=7e514a83-c0dd-47db-9deb-0c35bed0ce43","ios":"levelo://app?vid=7e514a83-c0dd-47db-9deb-0c35bed0ce43"},"vehicle_type_id":"4","last_reported":1731269358,"current_range_meters":10800,"station_id":"","pricing_plan_id":"cebpf4jnsgd1na2vs0mg"},{"bike_id":"a5a29ac5-b855-41e7-9a78-00cbb0bc17e4","system_id":"levelo_inurba_marseille","lat":43.25505,"lon":5.37668,"is_reserved":false,"is_disabled":false,"rental_uris":{"android":"levelo://app?vid=a5a29ac5-b855-41e7-9a78-00cbb0bc17e4","ios":"levelo://app?vid=a5a29ac5-b855-41e7-9a78-00cbb0bc17e4"},"vehicle_type_id":"4","last_reported":1731269358,"current_range_meters":38800,"station_id":"ce4bhh12rcd13ifvqff0","pricing_plan_id":"cebpf4jnsgd1na2vs0mg"},{"bike_id":"ed37336f-4074-417d-9dee-f52352b37bfc","system_id":"levelo_inurba_marseille","lat":43.27205,"lon":5.39188,"is_reserved":false,"is_disabled":false,"rental_uris":{"android":"levelo://app?vid=ed37336f-4074-417d-9dee-f52352b37bfc","ios":"levelo://app?vid=ed37336f-4074-417d-9dee-f52352b37bfc"},"vehicle_type_id":"4","last_reported":1731269358,"current_range_meters":35200,"station_id":"ce4bhhp2rcd13ifvqfm0","pricing_plan_id":"cebpf4jnsgd1na2vs0mg"},{"bike_id":"cba3c553-24c1-418c-b230-4b77804e0fa7","system_id":"levelo_inurba_marseille","lat":43.26499,"lon":5.3953,"is_reserved":false,"is_disabled":false,"rental_uris":{"android":"levelo://app?vid=cba3c553-24c1-418c-b230-4b77804e0fa7","ios":"levelo://app?vid=cba3c553-24c1-418c-b230-4b77804e0fa7"},"vehicle_type_id":"4","last_reported":1731269358,"current_range_meters":30400,"station_id":"ce4bhi12rcd13ifvqfq0","pricing_plan_id":"cebpf4jnsgd1na2vs0mg"},{"bike_id":"ac44a4a7-0974-45db-a6e2-c790cfe8518f","system_id":"levelo_inurba_marseille","lat":43.29418,"lon":5.3862,"is_reserved":false,"is_disabled":false,"rental_uris":{"android":"levelo://app?vid=ac44a4a7-0974-45db-a6e2-c790cfe8518f","ios":"levelo://app?vid=ac44a4a7-0974-45db-a6e2-c790cfe8518f"},"vehicle_type_id":"4","last_reported":1731269358,"current_range_meters":9600,"station_id":"ce4bh2h2rcd13ifvqdh0","pricing_plan_id":"cebpf4jnsgd1na2vs0mg"},{"bike_id":"d222278c-8a23-42c2-b721-01fc139212f2","system_id":"levelo_inurba_marseille","lat":43.31363,"lon":5.38493,"is_reserved":false,"is_disabled":false,"rental_uris":{"android":"levelo://app?vid=d222278c-8a23-42c2-b721-01fc139212f2","ios":"levelo://app?vid=d222278c-8a23-42c2-b721-01fc139212f2"},"vehicle_type_id":"4","last_reported":1731269358,"current_range_meters":17200,"station_id":"ce4bgt92rcd13ifvqcf0","pricing_plan_id":"cebpf4jnsgd1na2vs0mg"},{"bike_id":"60a1cd2f-6044-4228-9bca-ed7d2a6a7596","system_id":"levelo_inurba_marseille","lat":43.28726,"lon":5.3794,"is_reserved":false,"is_disabled":false,"rental_uris":{"android":"levelo://app?vid=60a1cd2f-6044-4228-9bca-ed7d2a6a7596","ios":"levelo://app?vid=60a1cd2f-6044-4228-9bca-ed7d2a6a7596"},"vehicle_type_id":"4","last_reported":1731269358,"current_range_meters":40000,"station_id":"ce4bh9p2rcd13ifvqec0","pricing_plan_id":"cebpf4jnsgd1na2vs0mg"},{"bike_id":"7737e147-61f8-4bbf-98dc-c954b52fc73f","system_id":"levelo_inurba_marseille","lat":43.27811,"lon":5.40714,"is_reserved":false,"is_disabled":false,"rental_uris":{"android":"levelo://app?vid=7737e147-61f8-4bbf-98dc-c954b52fc73f","ios":"levelo://app?vid=7737e147-61f8-4bbf-98dc-c954b52fc73f"},"vehicle_type_id":"4","last_reported":1731269358,"current_range_meters":31200,"station_id":"ce4bhnh2rcd13ifvqgtg","pricing_plan_id":"cebpf4jnsgd1na2vs0mg"},{"bike_id":"95a29b49-7218-4ae2-8a20-f16d50246826","system_id":"levelo_inurba_marseille","lat":43.31717,"lon":5.43708,"is_reserved":false,"is_disabled":false,"rental_uris":{"android":"levelo://app?vid=95a29b49-7218-4ae2-8a20-f16d50246826","ios":"levelo://app?vid=95a29b49-7218-4ae2-8a20-f16d50246826"},"vehicle_type_id":"4","last_reported":1731269358,"current_range_meters":22800,"station_id":"ce4bhp92rcd13ifvqhcg","pricing_plan_id":"cebpf4jnsgd1na2vs0mg"},{"bike_id":"07d8bef7-a49f-412e-993b-b8654f9e8ba8","system_id":"levelo_inurba_marseille","lat":43.29689,"lon":5.37298,"is_reserved":false,"is_disabled":false,"rental_uris":{"android":"levelo://app?vid=07d8bef7-a49f-412e-993b-b8654f9e8ba8","ios":"levelo://app?vid=07d8bef7-a49f-412e-993b-b8654f9e8ba8"},"vehicle_type_id":"4","last_reported":1731269358,"current_range_meters":38000,"station_id":"ce4bgk12rcd13ifvqbj0","pricing_plan_id":"cebpf4jnsgd1na2vs0mg"},{"bike_id":"23bc4ffc-3aeb-465c-8c7b-a99943ec4719","system_id":"levelo_inurba_marseille","lat":43.26193,"lon":5.37446,"is_reserved":false,"is_disabled":false,"rental_uris":{"android":"levelo://app?vid=23bc4ffc-3aeb-465c-8c7b-a99943ec4719","ios":"levelo://app?vid=23bc4ffc-3aeb-465c-8c7b-a99943ec4719"},"vehicle_type_id":"4","last_reported":1731269358,"current_range_meters":28800,"station_id":"ce4bhgp2rcd13ifvqfc0","pricing_plan_id":"cebpf4jnsgd1na2vs0mg"},{"bike_id":"e165bfd5-4d45-4bd7-b141-78d6201e0afd","system_id":"levelo_inurba_marseille","lat":43.3033,"lon":5.40438,"is_reserved":false,"is_disabled":false,"rental_uris":{"android":"levelo://app?vid=e165bfd5-4d45-4bd7-b141-78d6201e0afd","ios":"levelo://app?vid=e165bfd5-4d45-4bd7-b141-78d6201e0afd"},"vehicle_type_id":"4","last_reported":1731269358,"current_range_meters":38800,"station_id":"ce4bh012rcd13ifvqd10","pricing_plan_id":"cebpf4jnsgd1na2vs0mg"},{"bike_id":"feecf765-5892-4643-b18b-16c4c9587128","system_id":"levelo_inurba_marseille","lat":43.31066,"lon":5.38349,"is_reserved":false,"is_disabled":false,"rental_uris":{"android":"levelo://app?vid=feecf765-5892-4643-b18b-16c4c9587128","ios":"levelo://app?vid=feecf765-5892-4643-b18b-16c4c9587128"},"vehicle_type_id":"4","last_reported":1731269358,"current_range_meters":30000,"station_id":"ce4bgv92rcd13ifvqcr0","pricing_plan_id":"cebpf4jnsgd1na2vs0mg"},{"bike_id":"07553a07-6226-4358-bbd2-8ea91a8d68b6","system_id":"levelo_inurba_marseille","lat":43.2894,"lon":5.36635,"is_reserved":false,"is_disabled":false,"rental_uris":{"android":"levelo://app?vid=07553a07-6226-4358-bbd2-8ea91a8d68b6","ios":"levelo://app?vid=07553a07-6226-4358-bbd2-8ea91a8d68b6"},"vehicle_type_id":"4","last_reported":1731269358,"current_range_meters":38800,"station_id":"ce4bhap2rcd13ifvqek0","pricing_plan_id":"cebpf4jnsgd1na2vs0mg"},