{"last_updated":1760928032,"ttl":60,"version":"2.2","data":{"bikes":[{"bike_id":"f55709e0-4b78-4850-8db3-b4d73728152f","system_id":"levelo_inurba_marseille","lat":43.351656,"lon":5.364597,"is_reserved":false,"is_disabled":false,"rental_uris":{"android":"levelo://app?vid=f55709e0-4b78-4850-8db3-b4d73728152f","ios":"levelo://app?vid=f55709e0-4b78-4850-8db3-b4d73728152f"},"vehicle_type_id":"4","last_reported":1760928032,"current_range_meters":2800,"station_id":"","pricing_plan_id":"cebpf4jnsgd1na2vs0mg"},{"bike_id":"4296b8ab-f1bb-4d6b-9a57-6838b639ad0c","system_id":"levelo_inurba_marseille","lat":43.28576,"lon":5.38994,"is_reserved":false,"is_disabled":false,"rental_uris":{"android":"levelo://app?vid=4296b8ab-f1bb-4d6b-9a57-6838b639ad0c","ios":"levelo://app?vid=4296b8ab-f1bb-4d6b-9a57-6838b639ad0c"},"vehicle_type_id":"4","last_reported":1760928032,"current_range_meters":2800,"station_id":"","pricing_plan_id":"cebpf4jnsgd1na2vs0mg"},{"bike_id":"924ac669-be8b-47aa-9a8e-6f22baf815eb","system_id":"levelo_inurba_marseille","lat":43.337692,"lon":5.374734,"is_reserved":false,"is_disabled":false,"rental_uris":{"android":"levelo://app?vid=924ac669-be8b-47aa-9a8e-6f22baf815eb","ios":"levelo://app?vid=924ac669-be8b-47aa-9a8e-6f22baf815eb"},"vehicle_type_id":"4","last_reported":1760928032,"current_range_meters":3200,"station_id":"","pricing_plan_id":"cebpf4jnsgd1na2vs0mg"},{"bike_id":"f3ad0bb2-dbc7-4ab9-86e9-c9fb0cd7b13f","system_id":"levelo_inurba_marseille","lat":43.26217,"lon":5.37442,"is_reserved":false,"is_disabled":false,"rental_uris":{"android":"levelo://app?vid=f3ad0bb2-dbc7-4ab9-86e9-c9fb0cd7b13f","ios":"levelo://app?vid=f3ad0bb2-dbc7-4ab9-86e9-c9fb0cd7b13f"},"vehicle_type_id":"4","last_reported":1760928032,"current_range_meters":3200,"station_id":"ce4bhgp2rcd13ifvqfc0","pricing_plan_id":"cebpf4jnsgd1na2vs0mg"},{"bike_id":"ecc5d849-d8d0-4c5b-9565-8cc47bb17e8b","system_id":"levelo_inurba_marseille","lat":43.284264,"lon":5.434794,"is_reserved":false,"is_disabled":false,"rental_uris":{"android":"levelo://app?vid=ecc5d849-d8d0-4c5b-9565-8cc47bb17e8b","ios":"levelo://app?vid=ecc5d849-d8d0-4c5b-9565-8cc47bb17e8b"},"vehicle_type_id":"4","last_reported":1760928032,"current_range_meters":3200,"station_id":"","pricing_plan_id":"cebpf4jnsgd1na2vs0mg"},{"bike_id":"ef1d3efc-4e43-438c-8f55-8e29754b02e8","system_id":"levelo_inurba_marseille","lat":43.28895,"lon":5.45985,"is_reserved":false,"is_disabled":false,"rental_uris":{"android":"levelo://app?vid=ef1d3efc-4e43-438c-8f55-8e29754b02e8","ios":"levelo://app?vid=ef1d3efc-4e43-438c-8f55-8e29754b02e8"},"vehicle_type_id":"4","last_reported":1760928032,"current_range_meters":4000,"station_id":"","pricing_plan_id":"cebpf4jnsgd1na2vs0mg"},{"bike_id":"75b02a51-1325-435e-9661-29bb451a696a","system_id":"levelo_inurba_marseille","lat":43.31448,"lon":5.38488,"is_reserved":false,"is_disabled":false,"rental_uris":{"android":"levelo://app?vid=75b02a51-1325-435e-9661-29bb451a696a","ios":"levelo://app?vid=75b02a51-1325-435e-9661-29bb451a696a"},"vehicle_type_id":"4","last_reported":1760928032,"current_range_meters":4400,"station_id":"","pricing_plan_id":"cebpf4jnsgd1na2vs0mg"},{"bike_id":"0b170382-a38a-48fc-b060-b901de311f1a","system_id":"levelo_inurba_marseille","lat":43.33047,"lon":5.39024,"is_reserved":false,"is_disabled":true,"rental_uris":{"android":"levelo://app?vid=0b170382-a38a-48fc-b060-b901de311f1a","ios":"levelo://app?vid=0b170382-a38a-48fc-b060-b901de311f1a"},"vehicle_type_id":"4","last_reported":1760928032,"current_range_meters":4800,"station_id":"ce4bhr92rcd13ifvqhrg","pricing_plan_id":"cebpf4jnsgd1na2vs0mg"},{"bike_id":"cda25308-51e2-47bf-bfcb-7735e1fc4de3","system_id":"levelo_inurba_marseille","lat":43.26569,"lon":5.39036,"is_reserved":false,"is_disabled":false,"rental_uris":{"android":"levelo://app?vid=cda25308-51e2-47bf-bfcb-7735e1fc4de3","ios":"levelo://app?vid=cda25308-51e2-47bf-bfcb-7735e1fc4de3"},"vehicle_type_id":"4","last_reported":1760928032,"current_range_meters":4800,"station_id":"ce4bhe12rcd13ifvqf30","pricing_plan_id":"cebpf4jnsgd1na2vs0mg"},{"bike_id":"909c56fc-a484-4c5b-a236-761b67b328e4","system_id":"levelo_inurba_marseille","lat":43.31687,"lon":5.40475,"is_reserved":false,"is_disabled":false,"rental_uris":{"android":"levelo://app?vid=909c56fc-a484-4c5b-a236-761b67b328e4","ios":"levelo://app?vid=909c56fc-a484-4c5b-a236-761b67b328e4"},"vehicle_type_id":"4","last_reported":1760928032,"current_range_meters":4800,"station_id":"ce4bh012rcd13ifvqd00","pricing_plan_id":"cebpf4jnsgd1na2vs0mg"},{"bike_id":"383132c7-6568-4b3f-85e0-394f17b8ed8c","system_id":"levelo_inurba_marseille","lat":43.24648,"lon":5.38902,"is_reserved":false,"is_disabled":true,"rental_uris":{"android":"levelo://app?vid=383132c7-6568-4b3f-85e0-394f17b8ed8c","ios":"levelo://app?vid=383132c7-6568-4b3f-85e0-394f17b8ed8c"},"vehicle_type_id":"4","last_reported":1760928032,"current_range_meters":5600,"station_id":"ce4bhg12rcd13ifvqf60","pricing_plan_id":"cebpf4jnsgd1na2vs0mg"},{"bike_id":"676fd588-494b-4028-8203-f37ef89d1fbb","system_id":"levelo_inurba_marseille","lat":43.22566,"lon":5.41624,"is_reserved":false,"is_disabled":false,"rental_uris":{"android":"levelo://app?vid=676fd588-494b-4028-8203-f37ef89d1fbb","ios":"levelo://app?vid=676fd588-494b-4028-8203-f37ef89d1fbb"},"vehicle_type_id":"4","last_reported":1760928032,"current_range_meters":5600,"station_id":"st_d2o4gvlbi1j2169b742g","pricing_plan_id":"cebpf4jnsgd1na2vs0mg"},{"bike_id":"fc98f019-2b4d-45f5-b664-5928e89fb440","system_id":"levelo_inurba_marseille","lat":43.217475,"lon":5.345974,"is_reserved":false,"is_disabled":false,"rental_uris":{"android":"levelo://app?vid=fc98f019-2b4d-45f5-b664-5928e89fb440","ios":"levelo://app?vid=fc98f019-2b4d-45f5-b664-5928e89fb440"},"vehicle_type_id":"4","last_reported":1760928032,"current_range_meters":5600,"station_id":"st_cvj6r9ubvosntc0bgbag","pricing_plan_id":"cebpf4jnsgd1na2vs0mg"},{"bike_id":"4b22b6f3-6e7b-4436-8439-6da4227bd8f6","system_id":"levelo_inurba_marseille","lat":43.26422,"lon":5.37006,"is_reserved":false,"is_disabled":false,"rental_uris":{"android":"levelo://app?vid=4b22b6f3-6e7b-4436-8439-6da4227bd8f6","ios":"levelo://app?vid=4b22b6f3-6e7b-4436-8439-6da4227bd8f6"},"vehicle_type_id":"4","last_reported":1760928032,"current_range_meters":5600,"station_id":"","pricing_plan_id":"cebpf4jnsgd1na2vs0mg"},{"bike_id":"9b35f520-b47c-4550-9804-23f27fab5ce9","system_id":"levelo_inurba_marseille","lat":43.25444,"lon":5.38115,"is_reserved":false,"is_disabled":true,"rental_uris":{"android":"levelo://app?vid=9b35f520-b47c-4550-9804-23f27fab5ce9","ios":"levelo://app?vid=9b35f520-b47c-4550-9804-23f27fab5ce9"},"vehicle_type_id":"4","last_reported":1760928032,"current_range_meters":5600,"station_id":"","pricing_plan_id":"cebpf4jnsgd1na2vs0mg"},{"bike_id":"5ec36f29-a595-43fb-81bc-e1f6ecf04525","system_id":"levelo_inurba_marseille","lat":43.21195,"lon":5.35074,"is_reserved":false,"is_disabled":true,"rental_uris":{"android":"levelo://app?vid=5ec36f29-a595-43fb-81bc-e1f6ecf04525","ios":"levelo://app?vid=5ec36f29-a595-43fb-81bc-e1f6ecf04525"},"vehicle_type_id":"4","last_reported":1760928032,"current_range_meters":5600,"station_id":"st_cvj6sg6p6f1abm77japg","pricing_plan_id":"cebpf4jnsgd1na2vs0mg"},{"bike_id":"425855e1-41d2-469c-8ce7-d53e3184a075","system_id":"levelo_inurba_marseille","lat":43.23192,"lon":5.35543,"is_reserved":false,"is_disabled":false,"rental_uris":{"android":"levelo://app?vid=425855e1-41d2-469c-8ce7-d53e3184a075","ios":"levelo://app?vid=425855e1-41d2-469c-8ce7-d53e3184a075"},"vehicle_type_id":"4","last_reported":1760928032,"current_range_meters":6000,"station_id":"ce4bhu92rcd13ifvqi70","pricing_plan_id":"cebpf4jnsgd1na2vs0mg"},{"bike_id":"d15a00a7-adef-4170-baff-a7fa16b2cee6","system_id":"levelo_inurba_marseille","lat":43.28999,"lon":5.356059,"is_reserved":false,"is_disabled":true,"rental_uris":{"android":"levelo://app?vid=d15a00a7-adef-4170-baff-a7fa16b2cee6","ios":"levelo://app?vid=d15a00a7-adef-4170-baff-a7fa16b2cee6"},"vehicle_type_id":"4","last_reported":1760928032,"current_range_meters":6000,"station_id":"ce4bhb92rcd13ifvqen0","pricing_plan_id":"cebpf4jnsgd1na2vs0mg"},{"bike_id":"4d867105-d216-4a43-ab43-df809132c1f3","system_id":"levelo_inurba_marseille","lat":43.245415,"lon":5.395177,"is_reserved":false,"is_disabled":false,"rental_uris":{"android":"levelo://app?vid=4d867105-d216-4a43-ab43-df809132c1f3","ios":"levelo://app?vid=4d867105-d216-4a43-ab43-df809132c1f3"},"vehicle_type_id":"4","last_reported":1760928032,"current_range_meters":6000,"station_id":"ce4bhlp2rcd13ifvqgjg","pricing_plan_id":"cebpf4jnsgd1na2vs0mg"},{"bike_id":"8e6781bb-2e20-454e-8191-54182f17bdfc","system_id":"levelo_inurba_marseille","lat":43.21746,"lon":5.34597,"is_reserved":false,"is_disabled":true,"rental_uris":{"android":"levelo://app?vid=8e6781bb-2e20-454e-8191-54182f17bdfc","ios":"levelo://app?vid=8e6781bb-2e20-454e-8191-54182f17bdfc"},"vehicle_type_id":"4","last_reported":1760928032,"current_range_meters":6000,"station_id":"st_cvj6r9ubvosntc0bgbag","pricing_plan_id":"cebpf4jnsgd1na2vs0mg"},{"bike_id":"0a414463-fe1a-4833-8a11-178a3c2c879a","system_id":"levelo_inurba_marseille","lat":43.29852,"lon":5.37897,"is_reserved":false,"is_disabled":false,"rental_uris":{"android":"levelo://app?vid=0a414463-fe1a-4833-8a11-178a3c2c879a","ios":"levelo://app?vid=0a414463-fe1a-4833-8a11-178a3c2c879a"},"vehicle_type_id":"4","last_reported":1760928032,"current_range_meters":6400,"station_id":"","pricing_plan_id":"cebpf4jnsgd1na2vs0mg"},{"bike_id":"e7e8b93c-02d4-466b-82b5-3f4c4f15c2ae","system_id":"levelo_inurba_marseille","lat":43.28829,"lon":5.43828,"is_reserved":false,"is_disabled":false,"rental_uris":{"android":"levelo://app?vid=e7e8b93c-02d4-466b-82b5-3f4c4f15c2ae","ios":"levelo://app?vid=e7e8b93c-02d4-466b-82b5-3f4c4f15c2ae"},"vehicle_type_id":"4","last_reported":1760928032,"current_range_meters":6400,"station_id":"","pricing_plan_id":"cebpf4jnsgd1na2vs0mg"},{"bike_id":"bde21026-5f9f-4a92-b1af-1cb1310e3ac8","system_id":"levelo_inurba_marseille","lat":43.30512,"lon":5.3681,"is_reserved":false,"is_disabled":false,"rental_uris":{"android":"levelo://app?vid=bde21026-5f9f-4a92-b1af-1cb1310e3ac8","ios":"levelo://app?vid=bde21026-5f9f-4a92-b1af-1cb1310e3ac8"},"vehicle_type_id":"4","last_reported":1760928032,"current_range_meters":6400,"station_id":"","pricing_plan_id":"cebpf4jnsgd1na2vs0mg"},{"bike_id":"341025ca-ef2d-442d-80ac-78ca83dc4a7c","system_id":"levelo_inurba_marseille","lat":43.29914,"lon":5.36953,"is_reserved":false,"is_disabled":false,"rental_uris":{"android":"levelo://app?vid=341025ca-ef2d-442d-80ac-78ca83dc4a7c","ios":"levelo://app?vid=341025ca-ef2d-442d-80ac-78ca83dc4a7c"},"vehicle_type_id":"4","last_reported":1760928032,"current_range_meters":6400,"station_id":"","pricing_plan_id":"cebpf4jnsgd1na2vs0mg"},{"bike_id":"f7c8f693-1cb9-4f45-a809-cd76181c6642","system_id":"levelo_inurba_marseille","lat":43.22539,"lon":5.34833,"is_reserved":false,"is_disabled":false,"rental_uris":{"android":"levelo://app?vid=f7c8f693-1cb9-4f45-a809-cd76181c6642","ios":"levelo://app?vid=f7c8f693-1cb9-4f45-a809-cd76181c6642"},"vehicle_type_id":"4","last_reported":1760928032,"current_range_meters":6400,"station_id":"ce4bhoh2rcd13ifvqh5g","pricing_plan_id":"cebpf4jnsgd1na2vs0mg"},{"bike_id":"92154a7b-ae97-41cb-92d8-2a3e6f8b4393","system_id":"levelo_inurba_marseille","lat":43.27919,"lon":5.39577,"is_reserved":false,"is_disabled":false,"rental_uris":{"android":"levelo://app?vid=92154a7b-ae97-41cb-92d8-2a3e6f8b4393","ios":"levelo://app?vid=92154a7b-ae97-41cb-92d8-2a3e6f8b4393"},"vehicle_type_id":"4","last_reported":1760928032,"current_range_meters":6800,"station_id":"ce4bhf92rcd13ifvqf40","pricing_plan_id":"cebpf4jnsgd1na2vs0mg"},{"bike_id":"dca4a436-717b-4da1-a33d-3e27103807a1","system_id":"levelo_inurba_marseille","lat":43.29169,"lon":5.39307,"is_reserved":false,"is_disabled":false,"rental_uris":{"android":"levelo://app?vid=dca4a436-717b-4da1-a33d-3e27103807a1","ios":"levelo://app?vid=dca4a436-717b-4da1-a33d-3e27103807a1"},"vehicle_type_id":"4","last_reported":1760928032,"current_range_meters":6800,"station_id":"ce4bh192rcd13ifvqdd0","pricing_plan_id":"cebpf4jnsgd1na2vs0mg"},{"bike_id":"9dd1d8fe-c2a8-4a70-a175-61f5f9fe7fd2","system_id":"levelo_inurba_marseille","lat":43.31547,"lon":5.39045,"is_reserved":false,"is_disabled":false,"rental_uris":{"android":"levelo://app?vid=9dd1d8fe-c2a8-4a70-a175-61f5f9fe7fd2","ios":"levelo://app?vid=9dd1d8fe-c2a8-4a70-a175-61f5f9fe7fd2"},"vehicle_type_id":"4","last_reported":1760928032,"current_range_meters":7200,"station_id":"","pricing_plan_id":"cebpf4jnsgd1na2vs0mg"},{"bike_id":"3586afa5-19c6-4385-ae3b-80726606c1bb","system_id":"levelo_inurba_marseille","lat":43.26428,"lon":5.39885,"is_reserved":false,"is_disabled":false,"rental_uris":{"android":"levelo://app?vid=3586afa5-19c6-4385-ae3b-80726606c1bb","ios":"levelo://app?vid=3586afa5-19c6-4385-ae3b-80726606c1bb"},"vehicle_type_id":"4","last_reported":1760928032,"current_range_meters":7200,"station_id":"","pricing_plan_id":"cebpf4jnsgd1na2vs0mg"},{"bike_id":"01631119-7160-4843-9224-8e6830b019a0","system_id":"levelo_inurba_marseille","lat":43.25934,"lon":5.40909,"is_reserved":false,"is_disabled":false,"rental_uris":{"android":"levelo://app?vid=01631119-7160-4843-9224-8e6830b019a0","ios":"levelo://app?vid=01631119-7160-4843-9224-8e6830b019a0"},"vehicle_type_id":"4","last_reported":1760928032,"current_range_meters":7200,"station_id":"ce4bhm92rcd13ifvqglg","pricing_plan_id":"cebpf4jnsgd1na2vs0mg"},{"bike_id":"def75867-fa61-4912-a34a-72dacfcd7880","system_id":"levelo_inurba_marseille","lat":43.303,"lon":5.39158,"is_reserved":false,"is_disabled":false,"rental_uris":{"android":"levelo://app?vid=def75867-fa61-4912-a34a-72dacfcd7880","ios":"levelo://app?vid=def75867-fa61-4912-a34a-72dacfcd7880"},"vehicle_type_id":"4","last_reported":1760928032,"current_range_meters":8000,"station_id":"ce4bgkh2rcd13ifvqbk0","pricing_plan_id":"cebpf4jnsgd1na2vs0mg"},{"bike_id":"e978660f-731d-4a95-8df5-e0a54d8fe8be","system_id":"levelo_inurba_marseille","lat":43.21178,"lon":5.35098,"is_reserved":false,"is_disabled":true,"rental_uris":{"android":"levelo://app?vid=e978660f-731d-4a95-8df5-e0a54d8fe8be","ios":"levelo://app?vid=e978660f-731d-4a95-8df5-e0a54d8fe8be"},"vehicle_type_id":"4","last_reported":1760928032,"current_range_meters":8000,"station_id":"st_cvj6sg6p6f1abm77japg","pricing_plan_id":"cebpf4jnsgd1na2vs0mg"},{"bike_id":"5d864119-6822-44a8-91aa-3e2d0dc6c355","system_id":"levelo_inurba_marseille","lat":43.30616,"lon":5.37239,"is_reserved":false,"is_disabled":false,"rental_uris":{"android":"levelo://app?vid=5d864119-6822-44a8-91aa-3e2d0dc6c355","ios":"levelo://app?vid=5d864119-6822-44a8-91aa-3e2d0dc6c355"},"vehicle_type_id":"4","last_reported":1760928032,"current_range_meters":8000,"station_id":"ce4bgqh2rcd13ifvqc4g","pricing_plan_id":"cebpf4jnsgd1na2vs0mg"},{"bike_id":"4faf10ef-a2a0-406b-9855-9f84e1d62e88","system_id":"levelo_inurba_marseille","lat":43.30891,"lon":5.39637,"is_reserved":false,"is_disabled":false,"rental_uris":{"android":"levelo://app?vid=4faf10ef-a2a0-406b-9855-9f84e1d62e88","ios":"levelo://app?vid=4faf10ef-a2a0-406b-9855-9f84e1d62e88"},"vehicle_type_id":"4","last_reported":1760928032,"current_range_meters":8000,"station_id":"ce4bh012rcd13ifvqcv0","pricing_plan_id":"cebpf4jnsgd1na2vs0mg"},{"bike_id":"132be3c6-e803-499b-82b0-edeb26e83d45","system_id":"levelo_inurba_marseille","lat":43.259605,"lon":5.413635,"is_reserved":false,"is_disabled":false,"rental_uris":{"android":"levelo://app?vid=132be3c6-e803-499b-82b0-edeb26e83d45","ios":"levelo://app?vid=132be3c6-e803-499b-82b0-edeb26e83d45"},"vehicle_type_id":"4","last_reported":1760928032,"current_range_meters":8000,"station_id":"","pricing_plan_id":"cebpf4jnsgd1na2vs0mg"},{"bike_id":"5bd9155f-156c-49c8-8b0f-833732c1c592","system_id":"levelo_inurba_marseille","lat":43.285376,"lon":5.441063,"is_reserved":false,"is_disabled":false,"rental_uris":{"android":"levelo://app?vid=5bd9155f-156c-49c8-8b0f-833732c1c592","ios":"levelo://app?vid=5bd9155f-156c-49c8-8b0f-833732c1c592"},"vehicle_type_id":"4","last_reported":1760928032,"current_range_meters":8400,"station_id":"st_d3j3df2ikq2c7380ej80","pricing_plan_id":"cebpf4jnsgd1na2vs0mg"},{"bike_id":"ac6d2c4d-74a8-443d-a9f9-0d9807feacda","system_id":"levelo_inurba_marseille","lat":43.33772,"lon":5.37469,"is_reserved":false,"is_disabled":false,"rental_uris":{"android":"levelo://app?vid=ac6d2c4d-74a8-443d-a9f9-0d9807feacda","ios":"levelo://app?vid=ac6d2c4d-74a8-443d-a9f9-0d9807feacda"},"vehicle_type_id":"4","last_reported":1760928032,"current_range_meters":8400,"station_id":"","pricing_plan_id":"cebpf4jnsgd1na2vs0mg"},{"bike_id":"100b94e3-35cd-4191-b5b7-bc383c83cd43","system_id":"levelo_inurba_marseille","lat":43.262963,"lon":5.399145,"is_reserved":false,"is_disabled":false,"rental_uris":{"android":"levelo://app?vid=100b94e3-35cd-4191-b5b7-bc383c83cd43","ios":"levelo://app?vid=100b94e3-35cd-4191-b5b7-bc383c83cd43"},"vehicle_type_id":"4","last_reported":1760928032,"current_range_meters":8400,"station_id":"","pricing_plan_id":"cebpf4jnsgd1na2vs0mg"},{"bike_id":"365b1110-8604-4b2d-ad9b-3263b8a258f2","system_id":"levelo_inurba_marseille","lat":43.28655,"lon":5.3634,"is_reserved":false,"is_disabled":false,"rental_uris":{"android":"levelo://app?vid=365b1110-8604-4b2d-ad9b-3263b8a258f2","ios":"levelo://app?vid=365b1110-8604-4b2d-ad9b-3263b8a258f2"},"vehicle_type_id":"4","last_reported":1760928032,"current_range_meters":8800,"station_id":"ce4bhah2rcd13ifvqej0","pricing_plan_id":"cebpf4jnsgd1na2vs0mg"},{"bike_id":"d712d0ff-3096-41ad-87d0-b640167ff060","system_id":"levelo_inurba_marseille","lat":43.31541,"lon":5.38512,"is_reserved":false,"is_disabled":false,"rental_uris":{"android":"levelo://app?vid=d712d0ff-3096-41ad-87d0-b640167ff060","ios":"levelo://app?vid=d712d0ff-3096-41ad-87d0-b640167ff060"},"vehicle_type_id":"4","last_reported":1760928032,"current_range_meters":8800,"station_id":"","pricing_plan_id":"cebpf4jnsgd1na2vs0mg"},{"bike_id":"f5eda7fc-872e-4f8e-9d95-c0a57bf82381","system_id":"levelo_inurba_marseille","lat":43.292287,"lon":5.360602,"is_reserved":false,"is_disabled":false,"rental_uris":{"android":"levelo://app?vid=f5eda7fc-872e-4f8e-9d95-c0a57bf82381","ios":"levelo://app?vid=f5eda7fc-872e-4f8e-9d95-c0a57bf82381"},"vehicle_type_id":"4","last_reported":1760928032,"current_range_meters":8800,"station_id":"","pricing_plan_id":"cebpf4jnsgd1na2vs0mg"},{"bike_id":"1dcd2007-9a94-4bc0-bcab-451392c0c825","system_id":"levelo_inurba_marseille","lat":43.29824,"lon":5.37557,"is_reserved":false,"is_disabled":false,"rental_uris":{"android":"levelo://app?vid=1dcd2007-9a94-4bc0-bcab-451392c0c825","ios":"levelo://app?vid=1dcd2007-9a94-4bc0-bcab-451392c0c825"},"vehicle_type_id":"4","last_reported":1760928032,"current_range_meters":8800,"station_id":"","pricing_plan_id":"cebpf4jnsgd1na2vs0mg"},{"bike_id":"0fe5f988-499b-40e5-a930-cd6431a1b2ca","system_id":"levelo_inurba_marseille","lat":43.283576,"lon":5.398022,"is_reserved":false,"is_disabled":false,"rental_uris":{"android":"levelo://app?vid=0fe5f988-499b-40e5-a930-cd6431a1b2ca","ios":"levelo://app?vid=0fe5f988-499b-40e5-a930-cd6431a1b2ca"},"vehicle_type_id":"4","last_reported":1760928032,"current_range_meters":8800,"station_id":"","pricing_plan_id":"cebpf4jnsgd1na2vs0mg"},{"bike_id":"83a31b7a-f959-41eb-9572-a9545a8175b6","system_id":"levelo_inurba_marseille","lat":43.289366,"lon":5.366417,"is_reserved":false,"is_disabled":false,"rental_uris":{"android":"levelo://app?vid=83a31b7a-f959-41eb-9572-a9545a8175b6","ios":"levelo://app?vid=83a31b7a-f959-41eb-9572-a9545a8175b6"},"vehicle_type_id":"4","last_reported":1760928032,"current_range_meters":9200,"station_id":"ce4bhap2rcd13ifvqek0","pricing_plan_id":"cebpf4jnsgd1na2vs0mg"},{"bike_id":"409682f5-17cc-4e17-8962-df457387b791","system_id":"levelo_inurba_marseille","lat":43.288532,"lon":5.393046,"is_reserved":false,"is_disabled":false,"rental_uris":{"android":"levelo://app?vid=409682f5-17cc-4e17-8962-df457387b791","ios":"levelo://app?vid=409682f5-17cc-4e17-8962-df457387b791"},"vehicle_type_id":"4","last_reported":1760928032,"current_range_meters":9200,"station_id":"ce4bh2p2rcd13ifvqdi0","pricing_plan_id":"cebpf4jnsgd1na2vs0mg"},{"bike_id":"c4957fd5-b015-47fb-99e3-c886824005e6","system_id":"levelo_inurba_marseille","lat":43.28414,"lon":5.37524,"is_reserved":false,"is_disabled":false,"rental_uris":{"android":"levelo://app?vid=c4957fd5-b015-47fb-99e3-c886824005e6","ios":"levelo://app?vid=c4957fd5-b015-47fb-99e3-c886824005e6"},"vehicle_type_id":"4","last_reported":1760928032,"current_range_meters":9200,"station_id":"ce4bh412rcd13ifvqds0","pricing_plan_id":"cebpf4jnsgd1na2vs0mg"},{"bike_id":"26a835fa-082a-43e2-876f-d3625bca086b","system_id":"levelo_inurba_marseille","lat":43.320003,"lon":5.381485,"is_reserved":false,"is_disabled":false,"rental_uris":{"android":"levelo://app?vid=26a835fa-082a-43e2-876f-d3625bca086b","ios":"levelo://app?vid=26a835fa-082a-43e2-876f-d3625bca086b"},"vehicle_type_id":"4","last_reported":1760928032,"current_range_meters":9200,"station_id":"ce4bhr12rcd13ifvqhpg","pricing_plan_id":"cebpf4jnsgd1na2vs0mg"},{"bike_id":"b9f4c452-f1a0-4b31-854c-2325a5b73556","system_id":"levelo_inurba_marseille","lat":43.21694,"lon":5.34394,"is_reserved":false,"is_disabled":false,"rental_uris":{"android":"levelo://app?vid=b9f4c452-f1a0-4b31-854c-2325a5b73556","ios":"levelo://app?vid=b9f4c452-f1a0-4b31-854c-2325a5b73556"},"vehicle_type_id":"4","last_reported":1760928032,"current_range_meters":9200,"station_id":"","pricing_plan_id":"cebpf4jnsgd1na2vs0mg"},{"bike_id":"f7c6e770-6df6-4b85-9b01-a920542e2bde","system_id":"levelo_inurba_marseille","lat":43.31322,"lon":5.39708,"is_reserved":false,"is_disabled":false,"rental_uris":{"android":"levelo://app?vid=f7c6e770-6df6-4b85-9b01-a920542e2bde","ios":"levelo://app?vid=f7c6e770-6df6-4b85-9b01-a920542e2bde"},"vehicle_type_id":"4","last_reported":1760928032,"current_range_meters":9600,"station_id":"ce4bgvp2rcd13ifvqcu0","pricing_plan_id":"cebpf4jnsgd1na2vs0mg"},{"bike_id":"7a5bb2b1-d4ae-4e05-b73e-e9ce74c422c7","system_id":"levelo_inurba_marseille","lat":43.292839,"lon":5.401386,"is_reserved":false,"is_disabled":false,"rental_uris":{"android":"levelo://app?vid=7a5bb2b1-d4ae-4e05-b73e-e9ce74c422c7","ios":"levelo://app?vid=7a5bb2b1-d4ae-4e05-b73e-e9ce74c422c7"},"vehicle_type_id":"4","last_reported":1760928032,"current_range_meters":9600,"station_id":"ce4bh312rcd13ifvqdk0","pricing_plan_id":"cebpf4jnsgd1na2vs0mg"},{"bike_id":"de39e3b5-7291-4d84-9320-a3b906d20326","system_id":"levelo_inurba_marseille","lat":43.28405,"lon":5.37522,"is_reserved":false,"is_disabled":false,"rental_uris":{"android":"levelo://app?vid=de39e3b5-7291-4d84-9320-a3b906d20326","ios":"levelo://app?vid=de39e3b5-7291-4d84-9320-a3b906d20326"},"vehicle_type_id":"4","last_reported":1760928032,"current_range_meters":10000,"station_id":"ce4bh412rcd13ifvqds0","pricing_plan_id":"cebpf4jnsgd1na2vs0mg"},{"bike_id":"98751a2f-4f31-40b4-9800-8112de3c851a","system_id":"levelo_inurba_marseille","lat":43.30788,"lon":5.37633,"is_reserved":false,"is_disabled":false,"rental_uris":{"android":"levelo://app?vid=98751a2f-4f31-40b4-9800-8112de3c851a","ios":"levelo://app?vid=98751a2f-4f31-40b4-9800-8112de3c851a"},"vehicle_type_id":"4","last_reported":1760928032,"current_range_meters":10000,"station_id":"ce4bgv92rcd13ifvqcq0","pricing_plan_id":"cebpf4jnsgd1na2vs0mg"},{"bike_id":"86ce52f8-f590-4694-90e1-216ddc477b29","system_id":"levelo_inurba_marseille","lat":43.30968,"lon":5.3812,"is_reserved":false,"is_disabled":false,"rental_uris":{"android":"levelo://app?vid=86ce52f8-f590-4694-90e1-216ddc477b29","ios":"levelo://app?vid=86ce52f8-f590-4694-90e1-216ddc477b29"},"vehicle_type_id":"4","last_reported":1760928032,"current_range_meters":10000,"station_id":"","pricing_plan_id":"cebpf4jnsgd1na2vs0mg"},{"bike_id":"fbe586dc-ebc7-45f2-b699-4812fb9ca15d","system_id":"levelo_inurba_marseille","lat":43.25485,"lon":5.376437,"is_reserved":false,"is_disabled":true,"rental_uris":{"android":"levelo://app?vid=fbe586dc-ebc7-45f2-b699-4812fb9ca15d","ios":"levelo://app?vid=fbe586dc-ebc7-45f2-b699-4812fb9ca15d"},"vehicle_type_id":"4","last_reported":1760928032,"current_range_meters":10000,"station_id":"ce4bhh12rcd13ifvqff0","pricing_plan_id":"cebpf4jnsgd1na2vs0mg"},{"bike_id":"778ccbfb-369b-40e2-98f2-f17901dc7e11","system_id":"levelo_inurba_marseille","lat":43.284333,"lon":5.3498,"is_reserved":false,"is_disabled":true,"rental_uris":{"android":"levelo://app?vid=778ccbfb-369b-40e2-98f2-f17901dc7e11","ios":"levelo://app?vid=778ccbfb-369b-40e2-98f2-f17901dc7e11"},"vehicle_type_id":"4","last_reported":1760928032,"current_range_meters":10000,"station_id":"ce4bhbh2rcd13ifvqepg","pricing_plan_id":"cebpf4jnsgd1na2vs0mg"},{"bike_id":"3cab6837-9492-4b2f-9f11-6d7fb4de0695","system_id":"levelo_inurba_marseille","lat":43.29593,"lon":5.36774,"is_reserved":false,"is_disabled":true,"rental_uris":{"android":"levelo://app?vid=3cab6837-9492-4b2f-9f11-6d7fb4de0695","ios":"levelo://app?vid=3cab6837-9492-4b2f-9f11-6d7fb4de0695"},"vehicle_type_id":"4","last_reported":1760928032,"current_range_meters":10800,"station_id":"ce4bgph2rcd13ifvqc2g","pricing_plan_id":"cebpf4jnsgd1na2vs0mg"},{"bike_id":"245a030c-0c43-41f8-a4cc-088d55252b06","system_id":"levelo_inurba_marseille","lat":43.24478,"lon":5.36937,"is_reserved":false,"is_disabled":false,"rental_uris":{"android":"levelo://app?vid=245a030c-0c43-41f8-a4cc-088d55252b06","ios":"levelo://app?vid=245a030c-0c43-41f8-a4cc-088d55252b06"},"vehicle_type_id":"4","last_reported":1760928032,"current_range_meters":10800,"station_id":"","pricing_plan_id":"cebpf4jnsgd1na2vs0mg"},{"bike_id":"676d88a8-f06e-4192-886d-e52926318b91","system_id":"levelo_inurba_marseille","lat":43.21199,"lon":5.35074,"is_reserved":false,"is_disabled":false,"rental_uris":{"android":"levelo://app?vid=676d88a8-f06e-4192-886d-e52926318b91","ios":"levelo://app?vid=676d88a8-f06e-4192-886d-e52926318b91"},"vehicle_type_id":"4","last_reported":1760928032,"current_range_meters":10800,"station_id":"st_cvj6sg6p6f1abm77japg","pricing_plan_id":"cebpf4jnsgd1na2vs0mg"},{"bike_id":"8cd818e3-a9e2-4f48-92b2-26306f507696","system_id":"levelo_inurba_marseille","lat":43.31349,"lon":5.37913,"is_reserved":false,"is_disabled":false,"rental_uris":{"android":"levelo://app?vid=8cd818e3-a9e2-4f48-92b2-26306f507696","ios":"levelo://app?vid=8cd818e3-a9e2-4f48-92b2-26306f507696"},"vehicle_type_id":"4","last_reported":1760928032,"current_range_meters":10800,"station_id":"","pricing_plan_id":"cebpf4jnsgd1na2vs0mg"},{"bike_id":"246d27fc-3b00-4522-89f1-147fb61ae727","system_id":"levelo_inurba_marseille","lat":43.30252,"lon":5.40078,"is_reserved":false,"is_disabled":false,"rental_uris":{"android":"levelo://app?vid=246d27fc-3b00-4522-89f1-147fb61ae727","ios":"levelo://app?vid=246d27fc-3b00-4522-89f1-147fb61ae727"},"vehicle_type_id":"4","last_reported":1760928032,"current_range_meters":10800,"station_id":"ce4bgvh2rcd13ifvqcs0","pricing_plan_id":"cebpf4jnsgd1na2vs0mg"},{"bike_id":"4574f60f-2571-4cbf-9f4a-fb042e55eb72","system_id":"levelo_inurba_marseille","lat":43.25088,"lon":5.39519,"is_reserved":false,"is_disabled":false,"rental_uris":{"android":"levelo://app?vid=4574f60f-2571-4cbf-9f4a-fb042e55eb72","ios":"levelo://app?vid=4574f60f-2571-4cbf-9f4a-fb042e55eb72"},"vehicle_type_id":"4","last_reported":1760928032,"current_range_meters":10800,"station_id":"ce4bhm12rcd13ifvqgkg","pricing_plan_id":"cebpf4jnsgd1na2vs0mg"},{"bike_id":"703401b8-e576-4a54-9b9d-4e5804912d35","system_id":"levelo_inurba_marseille","lat":43.23969,"lon":5.366242,"is_reserved":false,"is_disabled":false,"rental_uris":{"android":"levelo://app?vid=703401b8-e576-4a54-9b9d-4e5804912d35","ios":"levelo://app?vid=703401b8-e576-4a54-9b9d-4e5804912d35"},"vehicle_type_id":"4","last_reported":1760928032,"current_range_meters":11200,"station_id":"ce4bhi12rcd13ifvqfp0","pricing_plan_id":"cebpf4jnsgd1na2vs0mg"},{"bike_id":"6c065587-f970-4c8d-a529-1ea57f0b7dae","system_id":"levelo_inurba_marseille","lat":43.23191,"lon":5.35557,"is_reserved":false,"is_disabled":false,"rental_uris":{"android":"levelo://app?vid=6c065587-f970-4c8d-a529-1ea57f0b7dae","ios":"levelo://app?vid=6c065587-f970-4c8d-a529-1ea57f0b7dae"},"vehicle_type_id":"4","last_reported":1760928032,"current_range_meters":11200,"station_id":"ce4bhu92rcd13ifvqi70","pricing_plan_id":"cebpf4jnsgd1na2vs0mg"},{"bike_id":"58c7a9ca-2aa7-422d-98a5-7f8c7d5bc7da","system_id":"levelo_inurba_marseille","lat":43.28701,"lon":5.37387,"is_reserved":false,"is_disabled":false,"rental_uris":{"android":"levelo://app?vid=58c7a9ca-2aa7-422d-98a5-7f8c7d5bc7da","ios":"levelo://app?vid=58c7a9ca-2aa7-422d-98a5-7f8c7d5bc7da"},"vehicle_type_id":"4","last_reported":1760928032,"current_range_meters":11200,"station_id":"ce4bh3p2rcd13ifvqdq0","pricing_plan_id":"cebpf4jnsgd1na2vs0mg"},{"bike_id":"679c3c1f-72e8-4456-b0d9-4c2ad9c70dd9","system_id":"levelo_inurba_marseille","lat":43.211958,"lon":5.350722,"is_reserved":false,"is_disabled":false,"rental_uris":{"android":"levelo://app?vid=679c3c1f-72e8-4456-b0d9-4c2ad9c70dd9","ios":"levelo://app?vid=679c3c1f-72e8-4456-b0d9-4c2ad9c70dd9"},"vehicle_type_id":"4","last_reported":1760928032,"current_range_meters":11200,"station_id":"st_cvj6sg6p6f1abm77japg","pricing_plan_id":"cebpf4jnsgd1na2vs0mg"},{"bike_id":"0a950a0d-01ce-40b2-be0e-ad7894fd72f2","system_id":"levelo_inurba_marseille","lat":43.32093,"lon":5.36812,"is_reserved":false,"is_disabled":true,"rental_uris":{"android":"levelo://app?vid=0a950a0d-01ce-40b2-be0e-ad7894fd72f2","ios":"levelo://app?vid=0a950a0d-01ce-40b2-be0e-ad7894fd72f2"},"vehicle_type_id":"4","last_reported":1760928032,"current_range_meters":11200,"station_id":"ce4bhrh2rcd13ifvqhug","pricing_plan_id":"cebpf4jnsgd1na2vs0mg"},{"bike_id":"2c59cc86-a348-4735-8f6f-75bf0e4aac2c","system_id":"levelo_inurba_marseille","lat":43.333398,"lon":5.398604,"is_reserved":false,"is_disabled":false,"rental_uris":{"android":"levelo://app?vid=2c59cc86-a348-4735-8f6f-75bf0e4aac2c","ios":"levelo://app?vid=2c59cc86-a348-4735-8f6f-75bf0e4aac2c"},"vehicle_type_id":"4","last_reported":1760928032,"current_range_meters":11200,"station_id":"","pricing_plan_id":"cebpf4jnsgd1na2vs0mg"},{"bike_id":"0f787efd-37ca-4060-a03d-15d3c3ce389f","system_id":"levelo_inurba_marseille","lat":43.29998,"lon":5.37361,"is_reserved":false,"is_disabled":false,"rental_uris":{"android":"levelo://app?vid=0f787efd-37ca-4060-a03d-15d3c3ce389f","ios":"levelo://app?vid=0f787efd-37ca-4060-a03d-15d3c3ce389f"},"vehicle_type_id":"4","last_reported":1760928032,"current_range_meters":11200,"station_id":"","pricing_plan_id":"cebpf4jnsgd1na2vs0mg"},{"bike_id":"7a8ac50b-c3a4-490a-8f96-9c005f89ed5d","system_id":"levelo_inurba_marseille","lat":43.26521,"lon":5.39049,"is_reserved":false,"is_disabled":false,"rental_uris":{"android":"levelo://app?vid=7a8ac50b-c3a4-490a-8f96-9c005f89ed5d","ios":"levelo://app?vid=7a8ac50b-c3a4-490a-8f96-9c005f89ed5d"},"vehicle_type_id":"4","last_reported":1760928032,"current_range_meters":11600,"station_id":"","pricing_plan_id":"cebpf4jnsgd1na2vs0mg"},{"bike_id":"6f5458d3-9f2a-47d5-b18c-590daf6a6f7f","system_id":"levelo_inurba_marseille","lat":43.291883,"lon":5.357902,"is_reserved":false,"is_disabled":true,"rental_uris":{"android":"levelo://app?vid=6f5458d3-9f2a-47d5-b18c-590daf6a6f7f","ios":"levelo://app?vid=6f5458d3-9f2a-47d5-b18c-590daf6a6f7f"},"vehicle_type_id":"4","last_reported":1760928032,"current_range_meters":11600,"station_id":"ce4bhb12rcd13ifvqel0","pricing_plan_id":"cebpf4jnsgd1na2vs0mg"},{"bike_id":"11e092ad-2801-45a6-bba8-7e73c23960ae","system_id":"levelo_inurba_marseille","lat":43.28738,"lon":5.36074,"is_reserved":false,"is_disabled":false,"rental_uris":{"android":"levelo://app?vid=11e092ad-2801-45a6-bba8-7e73c23960ae","ios":"levelo://app?vid=11e092ad-2801-45a6-bba8-7e73c23960ae"},"vehicle_type_id":"4","last_reported":1760928032,"current_range_meters":11600,"station_id":"cki0cbj6b192h4jlfktg","pricing_plan_id":"cebpf4jnsgd1na2vs0mg"},{"bike_id":"7fd36eea-805d-4dce-89b5-46f277eaf158","system_id":"levelo_inurba_marseille","lat":43.305097,"lon":5.366695,"is_reserved":false,"is_disabled":false,"rental_uris":{"android":"levelo://app?vid=7fd36eea-805d-4dce-89b5-46f277eaf158","ios":"levelo://app?vid=7fd36eea-805d-4dce-89b5-46f277eaf158"},"vehicle_type_id":"4","last_reported":1760928032,"current_range_meters":11600,"station_id":"","pricing_plan_id":"cebpf4jnsgd1na2vs0mg"},{"bike_id":"9652283e-21f4-4490-ac9e-ffa9429f0005","system_id":"levelo_inurba_marseille","lat":43.290577,"lon":5.405253,"is_reserved":false,"is_disabled":false,"rental_uris":{"android":"levelo://app?vid=9652283e-21f4-4490-ac9e-ffa9429f0005","ios":"levelo://app?vid=9652283e-21f4-4490-ac9e-ffa9429f0005"},"vehicle_type_id":"4","last_reported":1760928032,"current_range_meters":11600,"station_id":"","pricing_plan_id":"cebpf4jnsgd1na2vs0mg"},{"bike_id":"e015a312-f4e2-4fa5-962c-4dc7593461dd","system_id":"levelo_inurba_marseille","lat":43.27377,"lon":5.36251,"is_reserved":false,"is_disabled":false,"rental_uris":{"android":"levelo://app?vid=e015a312-f4e2-4fa5-962c-4dc7593461dd","ios":"levelo://app?vid=e015a312-f4e2-4fa5-962c-4dc7593461dd"},"vehicle_type_id":"4","last_reported":1760928032,"current_range_meters":12000,"station_id":"","pricing_plan_id":"cebpf4jnsgd1na2vs0mg"},{"bike_id":"4bbd6801-e86f-4670-a08c-5a08e1dabb92","system_id":"levelo_inurba_marseille","lat":43.29221,"lon":5.38096,"is_reserved":false,"is_disabled":false,"rental_uris":{"android":"levelo://app?vid=4bbd6801-e86f-4670-a08c-5a08e1dabb92","ios":"levelo://app?vid=4bbd6801-e86f-4670-a08c-5a08e1dabb92"},"vehicle_type_id":"4","last_reported":1760928032,"current_range_meters":12000,"station_id":"","pricing_plan_id":"cebpf4jnsgd1na2vs0mg"},{"bike_id":"486fdc60-6474-4ddf-ab7c-3d68e10cdc63","system_id":"levelo_inurba_marseille","lat":43.28761,"lon":5.38435,"is_reserved":false,"is_disabled":false,"rental_uris":{"android":"levelo://app?vid=486fdc60-6474-4ddf-ab7c-3d68e10cdc63","ios":"levelo://app?vid=486fdc60-6474-4ddf-ab7c-3d68e10cdc63"},"vehicle_type_id":"4","last_reported":1760928032,"current_range_meters":12000,"station_id":"","pricing_plan_id":"cebpf4jnsgd1na2vs0mg"},{"bike_id":"f12a77bb-96ec-4de9-9130-a47791bab336","system_id":"levelo_inurba_marseille","lat":43.2656,"lon":5.37237,"is_reserved":false,"is_disabled":false,"rental_uris":{"android":"levelo://app?vid=f12a77bb-96ec-4de9-9130-a47791bab336","ios":"levelo://app?vid=f12a77bb-96ec-4de9-9130-a47791bab336"},"vehicle_type_id":"4","last_reported":1760928032,"current_range_meters":12000,"station_id":"ce4bhg12rcd13ifvqf70","pricing_plan_id":"cebpf4jnsgd1na2vs0mg"},{"bike_id":"d1668fd5-d05d-42a9-b5d1-4388db8ac6a3","system_id":"levelo_inurba_marseille","lat":43.31764,"lon":5.39029,"is_reserved":false,"is_disabled":false,"rental_uris":{"android":"levelo://app?vid=d1668fd5-d05d-42a9-b5d1-4388db8ac6a3","ios":"levelo://app?vid=d1668fd5-d05d-42a9-b5d1-4388db8ac6a3"},"vehicle_type_id":"4","last_reported":1760928032,"current_range_meters":12000,"station_id":"ce4bhqp2rcd13ifvqhng","pricing_plan_id":"cebpf4jnsgd1na2vs0mg"},{"bike_id":"4a1df5f0-2e41-42fc-8cca-7c41a13e237b","system_id":"levelo_inurba_marseille","lat":43.28848,"lon":5.35877,"is_reserved":false,"is_disabled":false,"rental_uris":{"android":"levelo://app?vid=4a1df5f0-2e41-42fc-8cca-7c41a13e237b","ios":"levelo://app?vid=4a1df5f0-2e41-42fc-8cca-7c41a13e237b"},"vehicle_type_id":"4","last_reported":1760928032,"current_range_meters":12400,"station_id":"ce4bhb12rcd13ifvqem0","pricing_plan_id":"cebpf4jnsgd1na2vs0mg"},{"bike_id":"3f276aa3-8dac-4193-90e8-334f79b3c89b","system_id":"levelo_inurba_marseille","lat":43.26564,"lon":5.40325,"is_reserved":false,"is_disabled":false,"rental_uris":{"android":"levelo://app?vid=3f276aa3-8dac-4193-90e8-334f79b3c89b","ios":"levelo://app?vid=3f276aa3-8dac-4193-90e8-334f79b3c89b"},"vehicle_type_id":"4","last_reported":1760928032,"current_range_meters":12400,"station_id":"ce4bhmp2rcd13ifvqgng","pricing_plan_id":"cebpf4jnsgd1na2vs0mg"},{"bike_id":"551b071f-6296-4762-bf09-1f1114253086","system_id":"levelo_inurba_marseille","lat":43.30009,"lon":5.37202,"is_reserved":false,"is_disabled":true,"rental_uris":{"android":"levelo://app?vid=551b071f-6296-4762-bf09-1f1114253086","ios":"levelo://app?vid=551b071f-6296-4762-bf09-1f1114253086"},"vehicle_type_id":"4","last_reported":1760928032,"current_range_meters":12400,"station_id":"ce4bgr92rcd13ifvqc7g","pricing_plan_id":"cebpf4jnsgd1na2vs0mg"},{"bike_id":"a7f997d3-a4f9-4f30-bdce-2ddde27a7b05","system_id":"levelo_inurba_marseille","lat":43.28228,"lon":5.377,"is_reserved":false,"is_disabled":false,"rental_uris":{"android":"levelo://app?vid=a7f997d3-a4f9-4f30-bdce-2ddde27a7b05","ios":"levelo://app?vid=a7f997d3-a4f9-4f30-bdce-2ddde27a7b05"},"vehicle_type_id":"4","last_reported":1760928032,"current_range_meters":12400,"station_id":"","pricing_plan_id":"cebpf4jnsgd1na2vs0mg"},{"bike_id":"f7f28c4c-51a6-4da6-a8bf-607b55f01fe5","system_id":"levelo_inurba_marseille","lat":43.25084,"lon":5.39526,"is_reserved":false,"is_disabled":false,"rental_uris":{"android":"levelo://app?vid=f7f28c4c-51a6-4da6-a8bf-607b55f01fe5","ios":"levelo://app?vid=f7f28c4c-51a6-4da6-a8bf-607b55f01fe5"},"vehicle_type_id":"4","last_reported":1760928032,"current_range_meters":12400,"station_id":"ce4bhm12rcd13ifvqgkg","pricing_plan_id":"cebpf4jnsgd1na2vs0mg"},{"bike_id":"9aa893ee-1807-4639-a1a7-1714b8f2dc9d","system_id":"levelo_inurba_marseille","lat":43.27496,"lon":5.42446,"is_reserved":false,"is_disabled":false,"rental_uris":{"android":"levelo://app?vid=9aa893ee-1807-4639-a1a7-1714b8f2dc9d","ios":"levelo://app?vid=9aa893ee-1807-4639-a1a7-1714b8f2dc9d"},"vehicle_type_id":"4","last_reported":1760928032,"current_range_meters":12800,"station_id":"ce4bhn92rcd13ifvqgrg","pricing_plan_id":"cebpf4jnsgd1na2vs0mg"},{"bike_id":"e869a169-2abc-4954-94a6-1fa3489471d1","system_id":"levelo_inurba_marseille","lat":43.30124,"lon":5.39883,"is_reserved":false,"is_disabled":true,"rental_uris":{"android":"levelo://app?vid=e869a169-2abc-4954-94a6-1fa3489471d1","ios":"levelo://app?vid=e869a169-2abc-4954-94a6-1fa3489471d1"},"vehicle_type_id":"4","last_reported":1760928032,"current_range_meters":12800,"station_id":"ce4bh0h2rcd13ifvqd40","pricing_plan_id":"cebpf4jnsgd1na2vs0mg"},{"bike_id":"da22a6bb-ece8-4168-87fa-39fdca8adc0a","system_id":"levelo_inurba_marseille","lat":43.248064,"lon":5.374574,"is_reserved":false,"is_disabled":false,"rental_uris":{"android":"levelo://app?vid=da22a6bb-ece8-4168-87fa-39fdca8adc0a","ios":"levelo://app?vid=da22a6bb-ece8-4168-87fa-39fdca8adc0a"},"vehicle_type_id":"4","last_reported":1760928032,"current_range_meters":12800,"station_id":"ce4bhgh2rcd13ifvqfb0","pricing_plan_id":"cebpf4jnsgd1na2vs0mg"},{"bike_id":"e66fe696-1fc0-49e9-a884-8cb640dc737a","system_id":"levelo_inurba_marseille","lat":43.30122,"lon":5.39883,"is_reserved":false,"is_disabled":true,"rental_uris":{"android":"levelo://app?vid=e66fe696-1fc0-49e9-a884-8cb640dc737a","ios":"levelo://app?vid=e66fe696-1fc0-49e9-a884-8cb640dc737a"},"vehicle_type_id":"4","last_reported":1760928032,"current_range_meters":13600,"station_id":"ce4bh0h2rcd13ifvqd40","pricing_plan_id":"cebpf4jnsgd1na2vs0mg"},{"bike_id":"1094a61f-8d4c-4bff-ab14-27791ceae065","system_id":"levelo_inurba_marseille","lat":43.29784,"lon":5.38102,"is_reserved":false,"is_disabled":false,"rental_uris":{"android":"levelo://app?vid=1094a61f-8d4c-4bff-ab14-27791ceae065","ios":"levelo://app?vid=1094a61f-8d4c-4bff-ab14-27791ceae065"},"vehicle_type_id":"4","last_reported":1760928032,"current_range_meters":13600,"station_id":"ce4bgip2rcd13ifvqbb0","pricing_plan_id":"cebpf4jnsgd1na2vs0mg"},{"bike_id":"6d9392ed-1417-4737-be7f-20b2cefaa83e","system_id":"levelo_inurba_marseille","lat":43.28603,"lon":5.37081,"is_reserved":false,"is_disabled":true,"rental_uris":{"android":"levelo://app?vid=6d9392ed-1417-4737-be7f-20b2cefaa83e","ios":"levelo://app?vid=6d9392ed-1417-4737-be7f-20b2cefaa83e"},"vehicle_type_id":"4","last_reported":1760928032,"current_range_meters":13600,"station_id":"ce4bht12rcd13ifvqi60","pricing_plan_id":"cebpf4jnsgd1na2vs0mg"},{"bike_id":"5a35347d-1dbb-434c-8651-0148cd77cd1e","system_id":"levelo_inurba_marseille","lat":43.316718,"lon":5.389522,"is_reserved":false,"is_disabled":false,"rental_uris":{"android":"levelo://app?vid=5a35347d-1dbb-434c-8651-0148cd77cd1e","ios":"levelo://app?vid=5a35347d-1dbb-434c-8651-0148cd77cd1e"},"vehicle_type_id":"4","last_reported":1760928032,"current_range_meters":13600,"station_id":"","pricing_plan_id":"cebpf4jnsgd1na2vs0mg"},{"bike_id":"eee6a2ae-85c0-45be-9187-8fcc06113a61","system_id":"levelo_inurba_marseille","lat":43.30883,"lon":5.3964,"is_reserved":false,"is_disabled":false,"rental_uris":{"android":"levelo://app?vid=eee6a2ae-85c0-45be-9187-8fcc06113a61","ios":"levelo://app?vid=eee6a2ae-85c0-45be-9187-8fcc06113a61"},"vehicle_type_id":"4","last_reported":1760928032,"current_range_meters":13600,"station_id":"ce4bh012rcd13ifvqcv0","pricing_plan_id":"cebpf4jnsgd1na2vs0mg"},{"bike_id":"fbf45233-5b2e-47b2-8f6d-b078fe72be0d","system_id":"levelo_inurba_marseille","lat":43.298121,"lon":5.440671,"is_reserved":false,"is_disabled":false,"rental_uris":{"android":"levelo://app?vid=fbf45233-5b2e-47b2-8f6d-b078fe72be0d","ios":"levelo://app?vid=fbf45233-5b2e-47b2-8f6d-b078fe72be0d"},"vehicle_type_id":"4","last_reported":1760928032,"current_range_meters":14000,"station_id":"","pricing_plan_id":"cebpf4jnsgd1na2vs0mg"},{"bike_id":"3553478a-b75b-49ed-a56b-83b2c345fccc","system_id":"levelo_inurba_marseille","lat":43.2535,"lon":5.42159,"is_reserved":false,"is_disabled":false,"rental_uris":{"android":"levelo://app?vid=3553478a-b75b-49ed-a56b-83b2c345fccc","ios":"levelo://app?vid=3553478a-b75b-49ed-a56b-83b2c345fccc"},"vehicle_type_id":"4","last_reported":1760928032,"current_range_meters":14000,"station_id":"st_d2m65c5bi1j21697t3ng","pricing_plan_id":"cebpf4jnsgd1na2vs0mg"},{"bike_id":"348ab8cc-81cc-4702-b12d-7027572c1935","system_id":"levelo_inurba_marseille","lat":43.27367,"lon":5.36233,"is_reserved":false,"is_disabled":true,"rental_uris":{"android":"levelo://app?vid=348ab8cc-81cc-4702-b12d-7027572c1935","ios":"levelo://app?vid=348ab8cc-81cc-4702-b12d-7027572c1935"},"vehicle_type_id":"4","last_reported":1760928032,"current_range_meters":14000,"station_id":"ce4bhbh2rcd13ifvqeo0","pricing_plan_id":"cebpf4jnsgd1na2vs0mg"},{"bike_id":"bd22288f-66c3-4f5f-8057-2ae34cf63646","system_id":"levelo_inurba_marseille","lat":43.29193,"lon":5.39324,"is_reserved":false,"is_disabled":false,"rental_uris":{"android":"levelo://app?vid=bd22288f-66c3-4f5f-8057-2ae34cf63646","ios":"levelo://app?vid=bd22288f-66c3-4f5f-8057-2ae34cf63646"},"vehicle_type_id":"4","last_reported":1760928032,"current_range_meters":14000,"station_id":"ce4bh192rcd13ifvqdd0","pricing_plan_id":"cebpf4jnsgd1na2vs0mg"},{"bike_id":"4ca1a358-8c1c-4f7e-9010-0b012c65e17b","system_id":"levelo_inurba_marseille","lat":43.28765,"lon":5.38508,"is_reserved":false,"is_disabled":false,"rental_uris":{"android":"levelo://app?vid=4ca1a358-8c1c-4f7e-9010-0b012c65e17b","ios":"levelo://app?vid=4ca1a358-8c1c-4f7e-9010-0b012c65e17b"},"vehicle_type_id":"4","last_reported":1760928032,"current_range_meters":14000,"station_id":"","pricing_plan_id":"cebpf4jnsgd1na2vs0mg"},{"bike_id":"793bd619-12af-4bc1-a674-b70d86b415bd","system_id":"levelo_inurba_marseille","lat":43.33145,"lon":5.39137,"is_reserved":false,"is_disabled":false,"rental_uris":{"android":"levelo://app?vid=793bd619-12af-4bc1-a674-b70d86b415bd","ios":"levelo://app?vid=793bd619-12af-4bc1-a674-b70d86b415bd"},"vehicle_type_id":"4","last_reported":1760928032,"current_range_meters":14000,"station_id":"","pricing_plan_id":"cebpf4jnsgd1na2vs0mg"},{"bike_id":"9aca6410-dfe2-4f0b-8309-4bbe61aef318","system_id":"levelo_inurba_marseille","lat":43.33043,"lon":5.39051,"is_reserved":false,"is_disabled":false,"rental_uris":{"android":"levelo://app?vid=9aca6410-dfe2-4f0b-8309-4bbe61aef318","ios":"levelo://app?vid=9aca6410-dfe2-4f0b-8309-4bbe61aef318"},"vehicle_type_id":"4","last_reported":1760928032,"current_range_meters":14400,"station_id":"ce4bhr92rcd13ifvqhrg","pricing_plan_id":"cebpf4jnsgd1na2vs0mg"},{"bike_id":"909d1a0f-5535-4e0e-bef7-264d0b64c3ae","system_id":"levelo_inurba_marseille","lat":43.30244,"lon":5.40053,"is_reserved":false,"is_disabled":true,"rental_uris":{"android":"levelo://app?vid=909d1a0f-5535-4e0e-bef7-264d0b64c3ae","ios":"levelo://app?vid=909d1a0f-5535-4e0e-bef7-264d0b64c3ae"},"vehicle_type_id":"4","last_reported":1760928032,"current_range_meters":14400,"station_id":"ce4bgvh2rcd13ifvqcs0","pricing_plan_id":"cebpf4jnsgd1na2vs0mg"},{"bike_id":"c530e950-50a8-4b2f-81e6-a5f7e6f752e8","system_id":"levelo_inurba_marseille","lat":43.33759,"lon":5.37473,"is_reserved":false,"is_disabled":false,"rental_uris":{"android":"levelo://app?vid=c530e950-50a8-4b2f-81e6-a5f7e6f752e8","ios":"levelo://app?vid=c530e950-50a8-4b2f-81e6-a5f7e6f752e8"},"vehicle_type_id":"4","last_reported":1760928032,"current_range_meters":14400,"station_id":"","pricing_plan_id":"cebpf4jnsgd1na2vs0mg"},{"bike_id":"b64f5a90-0c5f-4ae5-b1e4-8d412cb049d3","system_id":"levelo_inurba_marseille","lat":43.27343,"lon":5.415,"is_reserved":false,"is_disabled":false,"rental_uris":{"android":"levelo://app?vid=b64f5a90-0c5f-4ae5-b1e4-8d412cb049d3","ios":"levelo://app?vid=b64f5a90-0c5f-4ae5-b1e4-8d412cb049d3"},"vehicle_type_id":"4","last_reported":1760928032,"current_range_meters":14400,"station_id":"","pricing_plan_id":"cebpf4jnsgd1na2vs0mg"},{"bike_id":"62f27eb7-c7be-49c3-a52e-6b1bedc8587c","system_id":"levelo_inurba_marseille","lat":43.29269,"lon":5.38426,"is_reserved":false,"is_disabled":true,"rental_uris":{"android":"levelo://app?vid=62f27eb7-c7be-49c3-a52e-6b1bedc8587c","ios":"levelo://app?vid=62f27eb7-c7be-49c3-a52e-6b1bedc8587c"},"vehicle_type_id":"4","last_reported":1760928032,"current_range_meters":14400,"station_id":"ce4bh692rcd13ifvqea0","pricing_plan_id":"cebpf4jnsgd1na2vs0mg"},{"bike_id":"8f5b4e3f-d0c8-438b-955e-3fd6c08bc9d3","system_id":"levelo_inurba_marseille","lat":43.24172,"lon":5.36393,"is_reserved":false,"is_disabled":false,"rental_uris":{"android":"levelo://app?vid=8f5b4e3f-d0c8-438b-955e-3fd6c08bc9d3","ios":"levelo://app?vid=8f5b4e3f-d0c8-438b-955e-3fd6c08bc9d3"},"vehicle_type_id":"4","last_reported":1760928032,"current_range_meters":14400,"station_id":"cpo36qri1sfpv3e86is0","pricing_plan_id":"cebpf4jnsgd1na2vs0mg"},{"bike_id":"e343fae2-abdd-419f-add3-4252cf1a7c5a","system_id":"levelo_inurba_marseille","lat":43.30482,"lon":5.40078,"is_reserved":false,"is_disabled":false,"rental_uris":{"android":"levelo://app?vid=e343fae2-abdd-419f-add3-4252cf1a7c5a","ios":"levelo://app?vid=e343fae2-abdd-419f-add3-4252cf1a7c5a"},"vehicle_type_id":"4","last_reported":1760928032,"current_range_meters":14400,"station_id":"","pricing_plan_id":"cebpf4jnsgd1na2vs0mg"},{"bike_id":"ad9ff92d-a73f-4591-b6d4-bb3f850fa8bd","system_id":"levelo_inurba_marseille","lat":43.30944,"lon":5.40055,"is_reserved":false,"is_disabled":false,"rental_uris":{"android":"levelo://app?vid=ad9ff92d-a73f-4591-b6d4-bb3f850fa8bd","ios":"levelo://app?vid=ad9ff92d-a73f-4591-b6d4-bb3f850fa8bd"},"vehicle_type_id":"4","last_reported":1760928032,"current_range_meters":14400,"station_id":"","pricing_plan_id":"cebpf4jnsgd1na2vs0mg"},{"bike_id":"59aed43f-13a8-4014-b2c4-38bf40a4080c","system_id":"levelo_inurba_marseille","lat":43.268068,"lon":5.402629,"is_reserved":false,"is_disabled":true,"rental_uris":{"android":"levelo://app?vid=59aed43f-13a8-4014-b2c4-38bf40a4080c","ios":"levelo://app?vid=59aed43f-13a8-4014-b2c4-38bf40a4080c"},"vehicle_type_id":"4","last_reported":1760928032,"current_range_meters":14800,"station_id":"ce501612rcd8frsf0b60","pricing_plan_id":"cebpf4jnsgd1na2vs0mg"},{"bike_id":"b7ddea43-28dc-4fbe-a7ed-b00d6badff2a","system_id":"levelo_inurba_marseille","lat":43.29029,"lon":5.3755,"is_reserved":false,"is_disabled":true,"rental_uris":{"android":"levelo://app?vid=b7ddea43-28dc-4fbe-a7ed-b00d6badff2a","ios":"levelo://app?vid=b7ddea43-28dc-4fbe-a7ed-b00d6badff2a"},"vehicle_type_id":"4","last_reported":1760928032,"current_range_meters":14800,"station_id":"ce4bh692rcd13ifvqe90","pricing_plan_id":"cebpf4jnsgd1na2vs0mg"},{"bike_id":"4fd7871f-2852-42a2-85f5-19067502927c","system_id":"levelo_inurba_marseille","lat":43.28111,"lon":5.37823,"is_reserved":false,"is_disabled":false,"rental_uris":{"android":"levelo://app?vid=4fd7871f-2852-42a2-85f5-19067502927c","ios":"levelo://app?vid=4fd7871f-2852-42a2-85f5-19067502927c"},"vehicle_type_id":"4","last_reported":1760928032,"current_range_meters":14800,"station_id":"ce4bha12rcd13ifvqee0","pricing_plan_id":"cebpf4jnsgd1na2vs0mg"},{"bike_id":"3f09d2b9-5540-46f4-940a-bf28e7d80fa2","system_id":"levelo_inurba_marseille","lat":43.258619,"lon":5.399033,"is_reserved":false,"is_disabled":false,"rental_uris":{"android":"levelo://app?vid=3f09d2b9-5540-46f4-940a-bf28e7d80fa2","ios":"levelo://app?vid=3f09d2b9-5540-46f4-940a-bf28e7d80fa2"},"vehicle_type_id":"4","last_reported":1760928032,"current_range_meters":14800,"station_id":"ce4bhl92rcd13ifvqghg","pricing_plan_id":"cebpf4jnsgd1na2vs0mg"},{"bike_id":"cb60bd9b-dbee-44a6-a143-7825e40beac2","system_id":"levelo_inurba_marseille","lat":43.26214,"lon":5.37451,"is_reserved":false,"is_disabled":false,"rental_uris":{"android":"levelo://app?vid=cb60bd9b-dbee-44a6-a143-7825e40beac2","ios":"levelo://app?vid=cb60bd9b-dbee-44a6-a143-7825e40beac2"},"vehicle_type_id":"4","last_reported":1760928032,"current_range_meters":15200,"station_id":"ce4bhgp2rcd13ifvqfc0","pricing_plan_id":"cebpf4jnsgd1na2vs0mg"},{"bike_id":"3bf4985a-327d-4d5f-87da-3f85b071c1ec","system_id":"levelo_inurba_marseille","lat":43.25081,"lon":5.39517,"is_reserved":false,"is_disabled":false,"rental_uris":{"android":"levelo://app?vid=3bf4985a-327d-4d5f-87da-3f85b071c1ec","ios":"levelo://app?vid=3bf4985a-327d-4d5f-87da-3f85b071c1ec"},"vehicle_type_id":"4","last_reported":1760928032,"current_range_meters":15200,"station_id":"ce4bhm12rcd13ifvqgkg","pricing_plan_id":"cebpf4jnsgd1na2vs0mg"},{"bike_id":"d80a8315-5108-453f-a407-278f47d1bb18","system_id":"levelo_inurba_marseille","lat":43.23193,"lon":5.35596,"is_reserved":false,"is_disabled":false,"rental_uris":{"android":"levelo://app?vid=d80a8315-5108-453f-a407-278f47d1bb18","ios":"levelo://app?vid=d80a8315-5108-453f-a407-278f47d1bb18"},"vehicle_type_id":"4","last_reported":1760928032,"current_range_meters":15200,"station_id":"ce4bhu92rcd13ifvqi70","pricing_plan_id":"cebpf4jnsgd1na2vs0mg"},{"bike_id":"78fe83c7-5376-41e5-afa1-483e220954a6","system_id":"levelo_inurba_marseille","lat":43.291771,"lon":5.3707,"is_reserved":false,"is_disabled":false,"rental_uris":{"android":"levelo://app?vid=78fe83c7-5376-41e5-afa1-483e220954a6","ios":"levelo://app?vid=78fe83c7-5376-41e5-afa1-483e220954a6"},"vehicle_type_id":"4","last_reported":1760928032,"current_range_meters":15200,"station_id":"","pricing_plan_id":"cebpf4jnsgd1na2vs0mg"},{"bike_id":"bb211116-29a7-4e48-93ed-d4ab1a1c4665","system_id":"levelo_inurba_marseille","lat":43.25948,"lon":5.40904,"is_reserved":false,"is_disabled":false,"rental_uris":{"android":"levelo://app?vid=bb211116-29a7-4e48-93ed-d4ab1a1c4665","ios":"levelo://app?vid=bb211116-29a7-4e48-93ed-d4ab1a1c4665"},"vehicle_type_id":"4","last_reported":1760928032,"current_range_meters":15200,"station_id":"ce4bhm92rcd13ifvqglg","pricing_plan_id":"cebpf4jnsgd1na2vs0mg"},{"bike_id":"62b6f7f9-fe05-4ff8-873b-d89e0663efc9","system_id":"levelo_inurba_marseille","lat":43.25125,"lon":5.40311,"is_reserved":false,"is_disabled":false,"rental_uris":{"android":"levelo://app?vid=62b6f7f9-fe05-4ff8-873b-d89e0663efc9","ios":"levelo://app?vid=62b6f7f9-fe05-4ff8-873b-d89e0663efc9"},"vehicle_type_id":"4","last_reported":1760928032,"current_range_meters":15200,"station_id":"ce4bhlh2rcd13ifvqgig","pricing_plan_id":"cebpf4jnsgd1na2vs0mg"},{"bike_id":"63e75f80-9d1c-4fca-996f-d8a0437f48a7","system_id":"levelo_inurba_marseille","lat":43.336,"lon":5.40983,"is_reserved":false,"is_disabled":false,"rental_uris":{"android":"levelo://app?vid=63e75f80-9d1c-4fca-996f-d8a0437f48a7","ios":"levelo://app?vid=63e75f80-9d1c-4fca-996f-d8a0437f48a7"},"vehicle_type_id":"4","last_reported":1760928032,"current_range_meters":16000,"station_id":"ce4bhqh2rcd13ifvqhmg","pricing_plan_id":"cebpf4jnsgd1na2vs0mg"},{"bike_id":"d6318f9e-0184-4ff6-931a-ee0c5a28c2b7","system_id":"levelo_inurba_marseille","lat":43.23198,"lon":5.35567,"is_reserved":false,"is_disabled":false,"rental_uris":{"android":"levelo://app?vid=d6318f9e-0184-4ff6-931a-ee0c5a28c2b7","ios":"levelo://app?vid=d6318f9e-0184-4ff6-931a-ee0c5a28c2b7"},"vehicle_type_id":"4","last_reported":1760928032,"current_range_meters":16000,"station_id":"ce4bhu92rcd13ifvqi70","pricing_plan_id":"cebpf4jnsgd1na2vs0mg"},{"bike_id":"6e8ed827-a6f7-46f1-ad28-2f0468b71691","system_id":"levelo_inurba_marseille","lat":43.32096,"lon":5.36801,"is_reserved":false,"is_disabled":true,"rental_uris":{"android":"levelo://app?vid=6e8ed827-a6f7-46f1-ad28-2f0468b71691","ios":"levelo://app?vid=6e8ed827-a6f7-46f1-ad28-2f0468b71691"},"vehicle_type_id":"4","last_reported":1760928032,"current_range_meters":16000,"station_id":"ce4bhrh2rcd13ifvqhug","pricing_plan_id":"cebpf4jnsgd1na2vs0mg"},{"bike_id":"c38d4779-18e1-43c4-a71d-5d81c3a33a62","system_id":"levelo_inurba_marseille","lat":43.297849,"lon":5.381129,"is_reserved":false,"is_disabled":true,"rental_uris":{"android":"levelo://app?vid=c38d4779-18e1-43c4-a71d-5d81c3a33a62","ios":"levelo://app?vid=c38d4779-18e1-43c4-a71d-5d81c3a33a62"},"vehicle_type_id":"4","last_reported":1760928032,"current_range_meters":16000,"station_id":"ce4bgip2rcd13ifvqbb0","pricing_plan_id":"cebpf4jnsgd1na2vs0mg"},{"bike_id":"a470e1e9-0594-4b5c-9b26-2114268fb06d","system_id":"levelo_inurba_marseille","lat":43.29864,"lon":5.36291,"is_reserved":false,"is_disabled":true,"rental_uris":{"android":"levelo://app?vid=a470e1e9-0594-4b5c-9b26-2114268fb06d","ios":"levelo://app?vid=a470e1e9-0594-4b5c-9b26-2114268fb06d"},"vehicle_type_id":"4","last_reported":1760928032,"current_range_meters":16000,"station_id":"ce4bgpp2rcd13ifvqc3g","pricing_plan_id":"cebpf4jnsgd1na2vs0mg"},{"bike_id":"1f3c0ce6-6e38-4dfd-be96-1206482159ff","system_id":"levelo_inurba_marseille","lat":43.280792,"lon":5.396309,"is_reserved":false,"is_disabled":false,"rental_uris":{"android":"levelo://app?vid=1f3c0ce6-6e38-4dfd-be96-1206482159ff","ios":"levelo://app?vid=1f3c0ce6-6e38-4dfd-be96-1206482159ff"},"vehicle_type_id":"4","last_reported":1760928032,"current_range_meters":16400,"station_id":"ce4bho12rcd13ifvqh2g","pricing_plan_id":"cebpf4jnsgd1na2vs0mg"},{"bike_id":"6e749a81-5b32-4f83-be54-446f2d8a3e2e","system_id":"levelo_inurba_marseille","lat":43.28433,"lon":5.35013,"is_reserved":false,"is_disabled":true,"rental_uris":{"android":"levelo://app?vid=6e749a81-5b32-4f83-be54-446f2d8a3e2e","ios":"levelo://app?vid=6e749a81-5b32-4f83-be54-446f2d8a3e2e"},"vehicle_type_id":"4","last_reported":1760928032,"current_range_meters":16400,"station_id":"ce4bhbh2rcd13ifvqepg","pricing_plan_id":"cebpf4jnsgd1na2vs0mg"},{"bike_id":"81fee18c-da25-4715-ae44-9f4e3a7b4702","system_id":"levelo_inurba_marseille","lat":43.28405,"lon":5.3495,"is_reserved":false,"is_disabled":false,"rental_uris":{"android":"levelo://app?vid=81fee18c-da25-4715-ae44-9f4e3a7b4702","ios":"levelo://app?vid=81fee18c-da25-4715-ae44-9f4e3a7b4702"},"vehicle_type_id":"4","last_reported":1760928032,"current_range_meters":16400,"station_id":"","pricing_plan_id":"cebpf4jnsgd1na2vs0mg"},{"bike_id":"5767cc7b-e609-46b6-a9f9-bb84446076db","system_id":"levelo_inurba_marseille","lat":43.28433,"lon":5.34998,"is_reserved":false,"is_disabled":true,"rental_uris":{"android":"levelo://app?vid=5767cc7b-e609-46b6-a9f9-bb84446076db","ios":"levelo://app?vid=5767cc7b-e609-46b6-a9f9-bb84446076db"},"vehicle_type_id":"4","last_reported":1760928032,"current_range_meters":16400,"station_id":"ce4bhbh2rcd13ifvqepg","pricing_plan_id":"cebpf4jnsgd1na2vs0mg"},{"bike_id":"44def8bb-fc22-46bb-a308-b8e670ec5dfd","system_id":"levelo_inurba_marseille","lat":43.30131,"lon":5.37428,"is_reserved":false,"is_disabled":true,"rental_uris":{"android":"levelo://app?vid=44def8bb-fc22-46bb-a308-b8e670ec5dfd","ios":"levelo://app?vid=44def8bb-fc22-46bb-a308-b8e670ec5dfd"},"vehicle_type_id":"4","last_reported":1760928032,"current_range_meters":16400,"station_id":"ce4bgs92rcd13ifvqcc0","pricing_plan_id":"cebpf4jnsgd1na2vs0mg"},{"bike_id":"a6e1884f-76ca-449a-9150-7e1f37794b6c","system_id":"levelo_inurba_marseille","lat":43.28952,"lon":5.3638,"is_reserved":false,"is_disabled":true,"rental_uris":{"android":"levelo://app?vid=a6e1884f-76ca-449a-9150-7e1f37794b6c","ios":"levelo://app?vid=a6e1884f-76ca-449a-9150-7e1f37794b6c"},"vehicle_type_id":"4","last_reported":1760928032,"current_range_meters":16400,"station_id":"ce4bhc92rcd13ifvqetg","pricing_plan_id":"cebpf4jnsgd1na2vs0mg"},{"bike_id":"faa3e668-6719-4125-8206-72a0a37494c0","system_id":"levelo_inurba_marseille","lat":43.26913,"lon":5.40241,"is_reserved":false,"is_disabled":true,"rental_uris":{"android":"levelo://app?vid=faa3e668-6719-4125-8206-72a0a37494c0","ios":"levelo://app?vid=faa3e668-6719-4125-8206-72a0a37494c0"},"vehicle_type_id":"4","last_reported":1760928032,"current_range_meters":16400,"station_id":"cjm6bp8fraef2m0cb0m0","pricing_plan_id":"cebpf4jnsgd1na2vs0mg"},{"bike_id":"d7c2ff2d-80c2-4bd2-8a3e-d2125ee8c463","system_id":"levelo_inurba_marseille","lat":43.25155,"lon":5.4035,"is_reserved":false,"is_disabled":false,"rental_uris":{"android":"levelo://app?vid=d7c2ff2d-80c2-4bd2-8a3e-d2125ee8c463","ios":"levelo://app?vid=d7c2ff2d-80c2-4bd2-8a3e-d2125ee8c463"},"vehicle_type_id":"4","last_reported":1760928032,"current_range_meters":16400,"station_id":"","pricing_plan_id":"cebpf4jnsgd1na2vs0mg"},{"bike_id":"65ca66a9-9564-40e8-97af-ea93c8292211","system_id":"levelo_inurba_marseille","lat":43.29194,"lon":5.39291,"is_reserved":false,"is_disabled":false,"rental_uris":{"android":"levelo://app?vid=65ca66a9-9564-40e8-97af-ea93c8292211","ios":"levelo://app?vid=65ca66a9-9564-40e8-97af-ea93c8292211"},"vehicle_type_id":"4","last_reported":1760928032,"current_range_meters":16800,"station_id":"ce4bh192rcd13ifvqdd0","pricing_plan_id":"cebpf4jnsgd1na2vs0mg"},{"bike_id":"8758806c-a775-4e20-b8bd-1fb9bd76f1c5","system_id":"levelo_inurba_marseille","lat":43.296666,"lon":5.387036,"is_reserved":false,"is_disabled":false,"rental_uris":{"android":"levelo://app?vid=8758806c-a775-4e20-b8bd-1fb9bd76f1c5","ios":"levelo://app?vid=8758806c-a775-4e20-b8bd-1fb9bd76f1c5"},"vehicle_type_id":"4","last_reported":1760928032,"current_range_meters":16800,"station_id":"","pricing_plan_id":"cebpf4jnsgd1na2vs0mg"},{"bike_id":"dc5f0855-4e05-4d2b-9e12-61a2cbf4643f","system_id":"levelo_inurba_marseille","lat":43.25119,"lon":5.40314,"is_reserved":false,"is_disabled":false,"rental_uris":{"android":"levelo://app?vid=dc5f0855-4e05-4d2b-9e12-61a2cbf4643f","ios":"levelo://app?vid=dc5f0855-4e05-4d2b-9e12-61a2cbf4643f"},"vehicle_type_id":"4","last_reported":1760928032,"current_range_meters":16800,"station_id":"ce4bhlh2rcd13ifvqgig","pricing_plan_id":"cebpf4jnsgd1na2vs0mg"},{"bike_id":"32a45e69-e10b-4aaa-bd8c-15393bafa01e","system_id":"levelo_inurba_marseille","lat":43.27921,"lon":5.39574,"is_reserved":false,"is_disabled":false,"rental_uris":{"android":"levelo://app?vid=32a45e69-e10b-4aaa-bd8c-15393bafa01e","ios":"levelo://app?vid=32a45e69-e10b-4aaa-bd8c-15393bafa01e"},"vehicle_type_id":"4","last_reported":1760928032,"current_range_meters":16800,"station_id":"ce4bhf92rcd13ifvqf40","pricing_plan_id":"cebpf4jnsgd1na2vs0mg"},{"bike_id":"9842524c-a3f9-467c-a4f9-88e38737d84f","system_id":"levelo_inurba_marseille","lat":43.287143,"lon":5.399784,"is_reserved":false,"is_disabled":false,"rental_uris":{"android":"levelo://app?vid=9842524c-a3f9-467c-a4f9-88e38737d84f","ios":"levelo://app?vid=9842524c-a3f9-467c-a4f9-88e38737d84f"},"vehicle_type_id":"4","last_reported":1760928032,"current_range_meters":16800,"station_id":"ce4bho92rcd13ifvqh3g","pricing_plan_id":"cebpf4jnsgd1na2vs0mg"},{"bike_id":"06c84d1b-6e81-4ab2-ab43-e166647822bc","system_id":"levelo_inurba_marseille","lat":43.289291,"lon":5.368448,"is_reserved":false,"is_disabled":false,"rental_uris":{"android":"levelo://app?vid=06c84d1b-6e81-4ab2-ab43-e166647822bc","ios":"levelo://app?vid=06c84d1b-6e81-4ab2-ab43-e166647822bc"},"vehicle_type_id":"4","last_reported":1760928032,"current_range_meters":17200,"station_id":"","pricing_plan_id":"cebpf4jnsgd1na2vs0mg"},{"bike_id":"9953bb32-6d68-488a-9e42-24a31e2ab81f","system_id":"levelo_inurba_marseille","lat":43.31525,"lon":5.38034,"is_reserved":false,"is_disabled":false,"rental_uris":{"android":"levelo://app?vid=9953bb32-6d68-488a-9e42-24a31e2ab81f","ios":"levelo://app?vid=9953bb32-6d68-488a-9e42-24a31e2ab81f"},"vehicle_type_id":"4","last_reported":1760928032,"current_range_meters":17200,"station_id":"ce4bhsp2rcd13ifvqi50","pricing_plan_id":"cebpf4jnsgd1na2vs0mg"},{"bike_id":"490c187a-0098-44bd-9010-902ebf6f6ea9","system_id":"levelo_inurba_marseille","lat":43.28301,"lon":5.35126,"is_reserved":false,"is_disabled":true,"rental_uris":{"android":"levelo://app?vid=490c187a-0098-44bd-9010-902ebf6f6ea9","ios":"levelo://app?vid=490c187a-0098-44bd-9010-902ebf6f6ea9"},"vehicle_type_id":"4","last_reported":1760928032,"current_range_meters":17200,"station_id":"","pricing_plan_id":"cebpf4jnsgd1na2vs0mg"},{"bike_id":"c7ef02a0-3644-47f9-9c13-7e92b869ef9a","system_id":"levelo_inurba_marseille","lat":43.30245,"lon":5.40052,"is_reserved":false,"is_disabled":false,"rental_uris":{"android":"levelo://app?vid=c7ef02a0-3644-47f9-9c13-7e92b869ef9a","ios":"levelo://app?vid=c7ef02a0-3644-47f9-9c13-7e92b869ef9a"},"vehicle_type_id":"4","last_reported":1760928032,"current_range_meters":17200,"station_id":"ce4bgvh2rcd13ifvqcs0","pricing_plan_id":"cebpf4jnsgd1na2vs0mg"},{"bike_id":"0db80e04-751c-4dcb-bd09-24a3a4841483","system_id":"levelo_inurba_marseille","lat":43.31333,"lon":5.39697,"is_reserved":false,"is_disabled":false,"rental_uris":{"android":"levelo://app?vid=0db80e04-751c-4dcb-bd09-24a3a4841483","ios":"levelo://app?vid=0db80e04-751c-4dcb-bd09-24a3a4841483"},"vehicle_type_id":"4","last_reported":1760928032,"current_range_meters":17200,"station_id":"ce4bgvp2rcd13ifvqcu0","pricing_plan_id":"cebpf4jnsgd1na2vs0mg"},{"bike_id":"12759272-9ae9-4531-88bf-492c68a538d1","system_id":"levelo_inurba_marseille","lat":43.3054,"lon":5.38414,"is_reserved":false,"is_disabled":true,"rental_uris":{"android":"levelo://app?vid=12759272-9ae9-4531-88bf-492c68a538d1","ios":"levelo://app?vid=12759272-9ae9-4531-88bf-492c68a538d1"},"vehicle_type_id":"4","last_reported":1760928032,"current_range_meters":17200,"station_id":"ce4bgg92rcd13ifvqb30","pricing_plan_id":"cebpf4jnsgd1na2vs0mg"},{"bike_id":"0c7d590a-9438-473d-a150-6fc56779a9ef","system_id":"levelo_inurba_marseille","lat":43.303263,"lon":5.404395,"is_reserved":false,"is_disabled":true,"rental_uris":{"android":"levelo://app?vid=0c7d590a-9438-473d-a150-6fc56779a9ef","ios":"levelo://app?vid=0c7d590a-9438-473d-a150-6fc56779a9ef"},"vehicle_type_id":"4","last_reported":1760928032,"current_range_meters":17200,"station_id":"ce4bh012rcd13ifvqd10","pricing_plan_id":"cebpf4jnsgd1na2vs0mg"},{"bike_id":"32dbdba0-e039-4c71-9c95-70d7b309a29d","system_id":"levelo_inurba_marseille","lat":43.28256,"lon":5.34966,"is_reserved":false,"is_disabled":false,"rental_uris":{"android":"levelo://app?vid=32dbdba0-e039-4c71-9c95-70d7b309a29d","ios":"levelo://app?vid=32dbdba0-e039-4c71-9c95-70d7b309a29d"},"vehicle_type_id":"4","last_reported":1760928032,"current_range_meters":17200,"station_id":"","pricing_plan_id":"cebpf4jnsgd1na2vs0mg"},{"bike_id":"f3efa22c-2579-4853-893c-124b5973ae90","system_id":"levelo_inurba_marseille","lat":43.307812,"lon":5.376466,"is_reserved":false,"is_disabled":false,"rental_uris":{"android":"levelo://app?vid=f3efa22c-2579-4853-893c-124b5973ae90","ios":"levelo://app?vid=f3efa22c-2579-4853-893c-124b5973ae90"},"vehicle_type_id":"4","last_reported":1760928032,"current_range_meters":17200,"station_id":"ce4bgv92rcd13ifvqcq0","pricing_plan_id":"cebpf4jnsgd1na2vs0mg"},{"bike_id":"10d8f9b2-43ec-44c7-ac26-a2089e0bb2c8","system_id":"levelo_inurba_marseille","lat":43.24652,"lon":5.3817,"is_reserved":false,"is_disabled":false,"rental_uris":{"android":"levelo://app?vid=10d8f9b2-43ec-44c7-ac26-a2089e0bb2c8","ios":"levelo://app?vid=10d8f9b2-43ec-44c7-ac26-a2089e0bb2c8"},"vehicle_type_id":"4","last_reported":1760928032,"current_range_meters":17200,"station_id":"ce4bhih2rcd13ifvqfr0","pricing_plan_id":"cebpf4jnsgd1na2vs0mg"},{"bike_id":"2ab235ce-ce1c-4e5a-b8f7-e903ac97becc","system_id":"levelo_inurba_marseille","lat":43.334755,"lon":5.399946,"is_reserved":false,"is_disabled":false,"rental_uris":{"android":"levelo://app?vid=2ab235ce-ce1c-4e5a-b8f7-e903ac97becc","ios":"levelo://app?vid=2ab235ce-ce1c-4e5a-b8f7-e903ac97becc"},"vehicle_type_id":"4","last_reported":1760928032,"current_range_meters":17200,"station_id":"","pricing_plan_id":"cebpf4jnsgd1na2vs0mg"},{"bike_id":"b795dcee-745f-4569-9cc0-ecc3631ffb10","system_id":"levelo_inurba_marseille","lat":43.30278,"lon":5.37793,"is_reserved":false,"is_disabled":false,"rental_uris":{"android":"levelo://app?vid=b795dcee-745f-4569-9cc0-ecc3631ffb10","ios":"levelo://app?vid=b795dcee-745f-4569-9cc0-ecc3631ffb10"},"vehicle_type_id":"4","last_reported":1760928032,"current_range_meters":17600,"station_id":"","pricing_plan_id":"cebpf4jnsgd1na2vs0mg"},{"bike_id":"50256437-f563-4e18-83ab-119789c51b86","system_id":"levelo_inurba_marseille","lat":43.316478,"lon":5.375995,"is_reserved":false,"is_disabled":false,"rental_uris":{"android":"levelo://app?vid=50256437-f563-4e18-83ab-119789c51b86","ios":"levelo://app?vid=50256437-f563-4e18-83ab-119789c51b86"},"vehicle_type_id":"4","last_reported":1760928032,"current_range_meters":17600,"station_id":"","pricing_plan_id":"cebpf4jnsgd1na2vs0mg"},{"bike_id":"41b8dbb3-55e8-4d34-9fd3-8f4a52d30a28","system_id":"levelo_inurba_marseille","lat":43.28472,"lon":5.38421,"is_reserved":false,"is_disabled":true,"rental_uris":{"android":"levelo://app?vid=41b8dbb3-55e8-4d34-9fd3-8f4a52d30a28","ios":"levelo://app?vid=41b8dbb3-55e8-4d34-9fd3-8f4a52d30a28"},"vehicle_type_id":"4","last_reported":1760928032,"current_range_meters":17600,"station_id":"","pricing_plan_id":"cebpf4jnsgd1na2vs0mg"},{"bike_id":"fa4da7d0-9f39-4083-9ce5-f84443fcf4b0","system_id":"levelo_inurba_marseille","lat":43.2888,"lon":5.42511,"is_reserved":false,"is_disabled":false,"rental_uris":{"android":"levelo://app?vid=fa4da7d0-9f39-4083-9ce5-f84443fcf4b0","ios":"levelo://app?vid=fa4da7d0-9f39-4083-9ce5-f84443fcf4b0"},"vehicle_type_id":"4","last_reported":1760928032,"current_range_meters":17600,"station_id":"st_d3b462108ojc7389ooeg","pricing_plan_id":"cebpf4jnsgd1na2vs0mg"},{"bike_id":"a7ba6a6a-8dda-4e76-8a63-3f1cbbb0d6aa","system_id":"levelo_inurba_marseille","lat":43.34133,"lon":5.40907,"is_reserved":false,"is_disabled":false,"rental_uris":{"android":"levelo://app?vid=a7ba6a6a-8dda-4e76-8a63-3f1cbbb0d6aa","ios":"levelo://app?vid=a7ba6a6a-8dda-4e76-8a63-3f1cbbb0d6aa"},"vehicle_type_id":"4","last_reported":1760928032,"current_range_meters":17600,"station_id":"ce4bhqh2rcd13ifvqhlg","pricing_plan_id":"cebpf4jnsgd1na2vs0mg"},{"bike_id":"34d94e4b-9efa-4c21-9a89-df2e723a226d","system_id":"levelo_inurba_marseille","lat":43.240703,"lon":5.377654,"is_reserved":false,"is_disabled":false,"rental_uris":{"android":"levelo://app?vid=34d94e4b-9efa-4c21-9a89-df2e723a226d","ios":"levelo://app?vid=34d94e4b-9efa-4c21-9a89-df2e723a226d"},"vehicle_type_id":"4","last_reported":1760928032,"current_range_meters":17600,"station_id":"ce4bhnp2rcd13ifvqgvg","pricing_plan_id":"cebpf4jnsgd1na2vs0mg"},{"bike_id":"506bca0f-d476-42af-a425-74ffd168b7c6","system_id":"levelo_inurba_marseille","lat":43.3132,"lon":5.39698,"is_reserved":false,"is_disabled":false,"rental_uris":{"android":"levelo://app?vid=506bca0f-d476-42af-a425-74ffd168b7c6","ios":"levelo://app?vid=506bca0f-d476-42af-a425-74ffd168b7c6"},"vehicle_type_id":"4","last_reported":1760928032,"current_range_meters":17600,"station_id":"ce4bgvp2rcd13ifvqcu0","pricing_plan_id":"cebpf4jnsgd1na2vs0mg"},{"bike_id":"2e67643b-d341-4102-ab0e-b8ecc435eb92","system_id":"levelo_inurba_marseille","lat":43.315393,"lon":5.387346,"is_reserved":false,"is_disabled":false,"rental_uris":{"android":"levelo://app?vid=2e67643b-d341-4102-ab0e-b8ecc435eb92","ios":"levelo://app?vid=2e67643b-d341-4102-ab0e-b8ecc435eb92"},"vehicle_type_id":"4","last_reported":1760928032,"current_range_meters":17600,"station_id":"","pricing_plan_id":"cebpf4jnsgd1na2vs0mg"},{"bike_id":"b07441bb-fa99-479d-8a33-8889d79b6bfd","system_id":"levelo_inurba_marseille","lat":43.253262,"lon":5.421662,"is_reserved":false,"is_disabled":false,"rental_uris":{"android":"levelo://app?vid=b07441bb-fa99-479d-8a33-8889d79b6bfd","ios":"levelo://app?vid=b07441bb-fa99-479d-8a33-8889d79b6bfd"},"vehicle_type_id":"4","last_reported":1760928032,"current_range_meters":17600,"station_id":"st_d2m65c5bi1j21697t3ng","pricing_plan_id":"cebpf4jnsgd1na2vs0mg"},{"bike_id":"7c9f9928-86c8-40d2-b070-648cd4cefac8","system_id":"levelo_inurba_marseille","lat":43.30742,"lon":5.37661,"is_reserved":false,"is_disabled":false,"rental_uris":{"android":"levelo://app?vid=7c9f9928-86c8-40d2-b070-648cd4cefac8","ios":"levelo://app?vid=7c9f9928-86c8-40d2-b070-648cd4cefac8"},"vehicle_type_id":"4","last_reported":1760928032,"current_range_meters":17600,"station_id":"","pricing_plan_id":"cebpf4jnsgd1na2vs0mg"},{"bike_id":"f2344842-ad92-47b2-83fc-4747d03700b7","system_id":"levelo_inurba_marseille","lat":43.25106,"lon":5.40311,"is_reserved":false,"is_disabled":false,"rental_uris":{"android":"levelo://app?vid=f2344842-ad92-47b2-83fc-4747d03700b7","ios":"levelo://app?vid=f2344842-ad92-47b2-83fc-4747d03700b7"},"vehicle_type_id":"4","last_reported":1760928032,"current_range_meters":17600,"station_id":"ce4bhlh2rcd13ifvqgig","pricing_plan_id":"cebpf4jnsgd1na2vs0mg"},{"bike_id":"7659da69-8d23-470d-9b18-297d4edc943d","system_id":"levelo_inurba_marseille","lat":43.25386,"lon":5.41851,"is_reserved":false,"is_disabled":false,"rental_uris":{"android":"levelo://app?vid=7659da69-8d23-470d-9b18-297d4edc943d","ios":"levelo://app?vid=7659da69-8d23-470d-9b18-297d4edc943d"},"vehicle_type_id":"4","last_reported":1760928032,"current_range_meters":17600,"station_id":"","pricing_plan_id":"cebpf4jnsgd1na2vs0mg"},{"bike_id":"9a0318f7-5faa-483d-b968-1d7a43090f4e","system_id":"levelo_inurba_marseille","lat":43.317,"lon":5.40466,"is_reserved":false,"is_disabled":false,"rental_uris":{"android":"levelo://app?vid=9a0318f7-5faa-483d-b968-1d7a43090f4e","ios":"levelo://app?vid=9a0318f7-5faa-483d-b968-1d7a43090f4e"},"vehicle_type_id":"4","last_reported":1760928032,"current_range_meters":17600,"station_id":"ce4bh012rcd13ifvqd00","pricing_plan_id":"cebpf4jnsgd1na2vs0mg"},{"bike_id":"598dd51e-5071-4448-81a9-9ce4b36e7a72","system_id":"levelo_inurba_marseille","lat":43.29544,"lon":5.38547,"is_reserved":false,"is_disabled":true,"rental_uris":{"android":"levelo://app?vid=598dd51e-5071-4448-81a9-9ce4b36e7a72","ios":"levelo://app?vid=598dd51e-5071-4448-81a9-9ce4b36e7a72"},"vehicle_type_id":"4","last_reported":1760928032,"current_range_meters":18000,"station_id":"ce4bgih2rcd13ifvqba0","pricing_plan_id":"cebpf4jnsgd1na2vs0mg"},{"bike_id":"a27423e0-ceb0-4a8f-86e7-7b89077ab2b5","system_id":"levelo_inurba_marseille","lat":43.281672,"lon":5.361189,"is_reserved":false,"is_disabled":false,"rental_uris":{"android":"levelo://app?vid=a27423e0-ceb0-4a8f-86e7-7b89077ab2b5","ios":"levelo://app?vid=a27423e0-ceb0-4a8f-86e7-7b89077ab2b5"},"vehicle_type_id":"4","last_reported":1760928032,"current_range_meters":18000,"station_id":"","pricing_plan_id":"cebpf4jnsgd1na2vs0mg"},{"bike_id":"20d9d3c4-a46a-4dac-bafb-410f46cebfba","system_id":"levelo_inurba_marseille","lat":43.2584,"lon":5.3935,"is_reserved":false,"is_disabled":false,"rental_uris":{"android":"levelo://app?vid=20d9d3c4-a46a-4dac-bafb-410f46cebfba","ios":"levelo://app?vid=20d9d3c4-a46a-4dac-bafb-410f46cebfba"},"vehicle_type_id":"4","last_reported":1760928032,"current_range_meters":18000,"station_id":"","pricing_plan_id":"cebpf4jnsgd1na2vs0mg"},{"bike_id":"d3de842d-e8bd-4e91-a0eb-bbade3635f0c","system_id":"levelo_inurba_marseille","lat":43.28679,"lon":5.38668,"is_reserved":false,"is_disabled":false,"rental_uris":{"android":"levelo://app?vid=d3de842d-e8bd-4e91-a0eb-bbade3635f0c","ios":"levelo://app?vid=d3de842d-e8bd-4e91-a0eb-bbade3635f0c"},"vehicle_type_id":"4","last_reported":1760928032,"current_range_meters":18000,"station_id":"ce4bh492rcd13ifvqdug","pricing_plan_id":"cebpf4jnsgd1na2vs0mg"},{"bike_id":"1c3a62d6-9dc5-4b1d-b145-ff75c0ccb3b4","system_id":"levelo_inurba_marseille","lat":43.2827,"lon":5.35058,"is_reserved":false,"is_disabled":true,"rental_uris":{"android":"levelo://app?vid=1c3a62d6-9dc5-4b1d-b145-ff75c0ccb3b4","ios":"levelo://app?vid=1c3a62d6-9dc5-4b1d-b145-ff75c0ccb3b4"},"vehicle_type_id":"4","last_reported":1760928032,"current_range_meters":18000,"station_id":"","pricing_plan_id":"cebpf4jnsgd1na2vs0mg"},{"bike_id":"4e3c4615-3052-4a0e-a995-a8a3b01d0293","system_id":"levelo_inurba_marseille","lat":43.3095,"lon":5.39043,"is_reserved":false,"is_disabled":false,"rental_uris":{"android":"levelo://app?vid=4e3c4615-3052-4a0e-a995-a8a3b01d0293","ios":"levelo://app?vid=4e3c4615-3052-4a0e-a995-a8a3b01d0293"},"vehicle_type_id":"4","last_reported":1760928032,"current_range_meters":18000,"station_id":"ce4bgup2rcd13ifvqco0","pricing_plan_id":"cebpf4jnsgd1na2vs0mg"},{"bike_id":"5f1015a4-e527-423a-8450-0f79576a99ad","system_id":"levelo_inurba_marseille","lat":43.30294,"lon":5.43525,"is_reserved":false,"is_disabled":false,"rental_uris":{"android":"levelo://app?vid=5f1015a4-e527-423a-8450-0f79576a99ad","ios":"levelo://app?vid=5f1015a4-e527-423a-8450-0f79576a99ad"},"vehicle_type_id":"4","last_reported":1760928032,"current_range_meters":18000,"station_id":"","pricing_plan_id":"cebpf4jnsgd1na2vs0mg"},{"bike_id":"15bd2618-731d-4ccc-ba77-10aa0ba78d82","system_id":"levelo_inurba_marseille","lat":43.287125,"lon":5.37939,"is_reserved":false,"is_disabled":false,"rental_uris":{"android":"levelo://app?vid=15bd2618-731d-4ccc-ba77-10aa0ba78d82","ios":"levelo://app?vid=15bd2618-731d-4ccc-ba77-10aa0ba78d82"},"vehicle_type_id":"4","last_reported":1760928032,"current_range_meters":18000,"station_id":"ce4bh9p2rcd13ifvqec0","pricing_plan_id":"cebpf4jnsgd1na2vs0mg"},{"bike_id":"d02c9fd0-4424-4348-b5d4-785d621bef7c","system_id":"levelo_inurba_marseille","lat":43.281083,"lon":5.378484,"is_reserved":false,"is_disabled":false,"rental_uris":{"android":"levelo://app?vid=d02c9fd0-4424-4348-b5d4-785d621bef7c","ios":"levelo://app?vid=d02c9fd0-4424-4348-b5d4-785d621bef7c"},"vehicle_type_id":"4","last_reported":1760928032,"current_range_meters":18000,"station_id":"ce4bha12rcd13ifvqee0","pricing_plan_id":"cebpf4jnsgd1na2vs0mg"},{"bike_id":"9855bf2e-ac22-4961-a285-8f095da01ced","system_id":"levelo_inurba_marseille","lat":43.28411,"lon":5.37521,"is_reserved":false,"is_disabled":true,"rental_uris":{"android":"levelo://app?vid=9855bf2e-ac22-4961-a285-8f095da01ced","ios":"levelo://app?vid=9855bf2e-ac22-4961-a285-8f095da01ced"},"vehicle_type_id":"4","last_reported":1760928032,"current_range_meters":18800,"station_id":"ce4bh412rcd13ifvqds0","pricing_plan_id":"cebpf4jnsgd1na2vs0mg"},{"bike_id":"47738a8a-1cb6-4dc6-8b61-1b856a0dbd08","system_id":"levelo_inurba_marseille","lat":43.30878,"lon":5.39606,"is_reserved":false,"is_disabled":false,"rental_uris":{"android":"levelo://app?vid=47738a8a-1cb6-4dc6-8b61-1b856a0dbd08","ios":"levelo://app?vid=47738a8a-1cb6-4dc6-8b61-1b856a0dbd08"},"vehicle_type_id":"4","last_reported":1760928032,"current_range_meters":18800,"station_id":"ce4bh012rcd13ifvqcv0","pricing_plan_id":"cebpf4jnsgd1na2vs0mg"},{"bike_id":"1984e85a-3f40-44b8-adbf-fb46e6f2f857","system_id":"levelo_inurba_marseille","lat":43.29191,"lon":5.393217,"is_reserved":false,"is_disabled":false,"rental_uris":{"android":"levelo://app?vid=1984e85a-3f40-44b8-adbf-fb46e6f2f857","ios":"levelo://app?vid=1984e85a-3f40-44b8-adbf-fb46e6f2f857"},"vehicle_type_id":"4","last_reported":1760928032,"current_range_meters":18800,"station_id":"ce4bh192rcd13ifvqdd0","pricing_plan_id":"cebpf4jnsgd1na2vs0mg"},{"bike_id":"d21d91e8-7a75-4548-82c3-1b3109a71ef6","system_id":"levelo_inurba_marseille","lat":43.33146,"lon":5.35496,"is_reserved":false,"is_disabled":false,"rental_uris":{"android":"levelo://app?vid=d21d91e8-7a75-4548-82c3-1b3109a71ef6","ios":"levelo://app?vid=d21d91e8-7a75-4548-82c3-1b3109a71ef6"},"vehicle_type_id":"4","last_reported":1760928032,"current_range_meters":18800,"station_id":"","pricing_plan_id":"cebpf4jnsgd1na2vs0mg"},{"bike_id":"caf374fc-fa68-4a8a-8ba8-5e7b330c893d","system_id":"levelo_inurba_marseille","lat":43.28366,"lon":5.38668,"is_reserved":false,"is_disabled":true,"rental_uris":{"android":"levelo://app?vid=caf374fc-fa68-4a8a-8ba8-5e7b330c893d","ios":"levelo://app?vid=caf374fc-fa68-4a8a-8ba8-5e7b330c893d"},"vehicle_type_id":"4","last_reported":1760928032,"current_range_meters":18800,"station_id":"ce4bh492rcd13ifvqdvg","pricing_plan_id":"cebpf4jnsgd1na2vs0mg"},{"bike_id":"2f09c9be-359a-414b-9339-b6dbcd93427c","system_id":"levelo_inurba_marseille","lat":43.295997,"lon":5.381113,"is_reserved":false,"is_disabled":true,"rental_uris":{"android":"levelo://app?vid=2f09c9be-359a-414b-9339-b6dbcd93427c","ios":"levelo://app?vid=2f09c9be-359a-414b-9339-b6dbcd93427c"},"vehicle_type_id":"4","last_reported":1760928032,"current_range_meters":18800,"station_id":"ce4bgl12rcd13ifvqbo0","pricing_plan_id":"cebpf4jnsgd1na2vs0mg"},{"bike_id":"f1b8e04f-457e-461e-a0a7-0d512845fe50","system_id":"levelo_inurba_marseille","lat":43.34091,"lon":5.4042,"is_reserved":false,"is_disabled":false,"rental_uris":{"android":"levelo://app?vid=f1b8e04f-457e-461e-a0a7-0d512845fe50","ios":"levelo://app?vid=f1b8e04f-457e-461e-a0a7-0d512845fe50"},"vehicle_type_id":"4","last_reported":1760928032,"current_range_meters":18800,"station_id":"","pricing_plan_id":"cebpf4jnsgd1na2vs0mg"},{"bike_id":"733be2f4-9d50-460f-a6d8-89980ac16a54","system_id":"levelo_inurba_marseille","lat":43.3062,"lon":5.37217,"is_reserved":false,"is_disabled":false,"rental_uris":{"android":"levelo://app?vid=733be2f4-9d50-460f-a6d8-89980ac16a54","ios":"levelo://app?vid=733be2f4-9d50-460f-a6d8-89980ac16a54"},"vehicle_type_id":"4","last_reported":1760928032,"current_range_meters":18800,"station_id":"ce4bgqh2rcd13ifvqc4g","pricing_plan_id":"cebpf4jnsgd1na2vs0mg"},{"bike_id":"3500c908-297e-4054-9aba-70ee2962e831","system_id":"levelo_inurba_marseille","lat":43.31754,"lon":5.39003,"is_reserved":false,"is_disabled":false,"rental_uris":{"android":"levelo://app?vid=3500c908-297e-4054-9aba-70ee2962e831","ios":"levelo://app?vid=3500c908-297e-4054-9aba-70ee2962e831"},"vehicle_type_id":"4","last_reported":1760928032,"current_range_meters":19200,"station_id":"ce4bhqp2rcd13ifvqhng","pricing_plan_id":"cebpf4jnsgd1na2vs0mg"},{"bike_id":"1476193b-f846-4812-b24e-901a9a9c810a","system_id":"levelo_inurba_marseille","lat":43.29023,"lon":5.38654,"is_reserved":false,"is_disabled":true,"rental_uris":{"android":"levelo://app?vid=1476193b-f846-4812-b24e-901a9a9c810a","ios":"levelo://app?vid=1476193b-f846-4812-b24e-901a9a9c810a"},"vehicle_type_id":"4","last_reported":1760928032,"current_range_meters":19200,"station_id":"ce4bh4p2rcd13ifvqe0g","pricing_plan_id":"cebpf4jnsgd1na2vs0mg"},{"bike_id":"04047c9d-6365-4778-aa6a-bf54d79ae867","system_id":"levelo_inurba_marseille","lat":43.28687,"lon":5.3732,"is_reserved":false,"is_disabled":false,"rental_uris":{"android":"levelo://app?vid=04047c9d-6365-4778-aa6a-bf54d79ae867","ios":"levelo://app?vid=04047c9d-6365-4778-aa6a-bf54d79ae867"},"vehicle_type_id":"4","last_reported":1760928032,"current_range_meters":19200,"station_id":"ce4bh3p2rcd13ifvqdq0","pricing_plan_id":"cebpf4jnsgd1na2vs0mg"},{"bike_id":"c71062df-2e0b-4447-9245-37625669e5c2","system_id":"levelo_inurba_marseille","lat":43.29312,"lon":5.40363,"is_reserved":false,"is_disabled":true,"rental_uris":{"android":"levelo://app?vid=c71062df-2e0b-4447-9245-37625669e5c2","ios":"levelo://app?vid=c71062df-2e0b-4447-9245-37625669e5c2"},"vehicle_type_id":"4","last_reported":1760928032,"current_range_meters":19200,"station_id":"","pricing_plan_id":"cebpf4jnsgd1na2vs0mg"},{"bike_id":"d30da285-e009-408c-89fe-152b49543528","system_id":"levelo_inurba_marseille","lat":43.230549,"lon":5.354899,"is_reserved":false,"is_disabled":false,"rental_uris":{"android":"levelo://app?vid=d30da285-e009-408c-89fe-152b49543528","ios":"levelo://app?vid=d30da285-e009-408c-89fe-152b49543528"},"vehicle_type_id":"4","last_reported":1760928032,"current_range_meters":19200,"station_id":"cpo3342slgdg3j2ifvpg","pricing_plan_id":"cebpf4jnsgd1na2vs0mg"},{"bike_id":"b63f4144-84f6-4ba1-b6df-f6ebabe9ef26","system_id":"levelo_inurba_marseille","lat":43.27899,"lon":5.40466,"is_reserved":false,"is_disabled":false,"rental_uris":{"android":"levelo://app?vid=b63f4144-84f6-4ba1-b6df-f6ebabe9ef26","ios":"levelo://app?vid=b63f4144-84f6-4ba1-b6df-f6ebabe9ef26"},"vehicle_type_id":"4","last_reported":1760928032,"current_range_meters":19200,"station_id":"","pricing_plan_id":"cebpf4jnsgd1na2vs0mg"},{"bike_id":"71212c75-900b-4a53-820c-455a2e9dd872","system_id":"levelo_inurba_marseille","lat":43.25725,"lon":5.41102,"is_reserved":false,"is_disabled":false,"rental_uris":{"android":"levelo://app?vid=71212c75-900b-4a53-820c-455a2e9dd872","ios":"levelo://app?vid=71212c75-900b-4a53-820c-455a2e9dd872"},"vehicle_type_id":"4","last_reported":1760928032,"current_range_meters":19200,"station_id":"ce4bhkp2rcd13ifvqgd0","pricing_plan_id":"cebpf4jnsgd1na2vs0mg"},{"bike_id":"2652929c-f4a3-4976-b023-0f5061663916","system_id":"levelo_inurba_marseille","lat":43.31067,"lon":5.38351,"is_reserved":false,"is_disabled":false,"rental_uris":{"android":"levelo://app?vid=2652929c-f4a3-4976-b023-0f5061663916","ios":"levelo://app?vid=2652929c-f4a3-4976-b023-0f5061663916"},"vehicle_type_id":"4","last_reported":1760928032,"current_range_meters":19600,"station_id":"ce4bgv92rcd13ifvqcr0","pricing_plan_id":"cebpf4jnsgd1na2vs0mg"},{"bike_id":"b2944c35-e552-4421-b65e-1156f830b6f9","system_id":"levelo_inurba_marseille","lat":43.28607,"lon":5.35099,"is_reserved":false,"is_disabled":true,"rental_uris":{"android":"levelo://app?vid=b2944c35-e552-4421-b65e-1156f830b6f9","ios":"levelo://app?vid=b2944c35-e552-4421-b65e-1156f830b6f9"},"vehicle_type_id":"4","last_reported":1760928032,"current_range_meters":19600,"station_id":"ce4bhch2rcd13ifvqeug","pricing_plan_id":"cebpf4jnsgd1na2vs0mg"},{"bike_id":"2affe8d3-de97-4cde-bb95-e2b3f788b570","system_id":"levelo_inurba_marseille","lat":43.249626,"lon":5.404852,"is_reserved":false,"is_disabled":false,"rental_uris":{"android":"levelo://app?vid=2affe8d3-de97-4cde-bb95-e2b3f788b570","ios":"levelo://app?vid=2affe8d3-de97-4cde-bb95-e2b3f788b570"},"vehicle_type_id":"4","last_reported":1760928032,"current_range_meters":19600,"station_id":"st_d2ngiaodas8pm72gd1h0","pricing_plan_id":"cebpf4jnsgd1na2vs0mg"},{"bike_id":"bb0a544e-f6d9-40db-99f0-33086fd0d7e9","system_id":"levelo_inurba_marseille","lat":43.307946,"lon":5.435149,"is_reserved":false,"is_disabled":true,"rental_uris":{"android":"levelo://app?vid=bb0a544e-f6d9-40db-99f0-33086fd0d7e9","ios":"levelo://app?vid=bb0a544e-f6d9-40db-99f0-33086fd0d7e9"},"vehicle_type_id":"4","last_reported":1760928032,"current_range_meters":19600,"station_id":"ce4bhph2rcd13ifvqheg","pricing_plan_id":"cebpf4jnsgd1na2vs0mg"},{"bike_id":"ca5e2e5d-fed5-4fa1-8ba3-92006b0507c7","system_id":"levelo_inurba_marseille","lat":43.28701,"lon":5.373941,"is_reserved":false,"is_disabled":false,"rental_uris":{"android":"levelo://app?vid=ca5e2e5d-fed5-4fa1-8ba3-92006b0507c7","ios":"levelo://app?vid=ca5e2e5d-fed5-4fa1-8ba3-92006b0507c7"},"vehicle_type_id":"4","last_reported":1760928032,"current_range_meters":19600,"station_id":"ce4bh3p2rcd13ifvqdq0","pricing_plan_id":"cebpf4jnsgd1na2vs0mg"},{"bike_id":"9c882443-49a2-480d-8caf-b6fafbd1ba97","system_id":"levelo_inurba_marseille","lat":43.27533,"lon":5.4279,"is_reserved":false,"is_disabled":false,"rental_uris":{"android":"levelo://app?vid=9c882443-49a2-480d-8caf-b6fafbd1ba97","ios":"levelo://app?vid=9c882443-49a2-480d-8caf-b6fafbd1ba97"},"vehicle_type_id":"4","last_reported":1760928032,"current_range_meters":19600,"station_id":"","pricing_plan_id":"cebpf4jnsgd1na2vs0mg"},{"bike_id":"5b727575-fd4d-4995-91c2-a5a9f0907577","system_id":"levelo_inurba_marseille","lat":43.29067,"lon":5.37151,"is_reserved":false,"is_disabled":true,"rental_uris":{"android":"levelo://app?vid=5b727575-fd4d-4995-91c2-a5a9f0907577","ios":"levelo://app?vid=5b727575-fd4d-4995-91c2-a5a9f0907577"},"vehicle_type_id":"4","last_reported":1760928032,"current_range_meters":19600,"station_id":"ce4bh5p2rcd13ifvqe4g","pricing_plan_id":"cebpf4jnsgd1na2vs0mg"},{"bike_id":"ca57f763-d1c7-429a-a3d9-f367d976ec1a","system_id":"levelo_inurba_marseille","lat":43.2495,"lon":5.40497,"is_reserved":false,"is_disabled":false,"rental_uris":{"android":"levelo://app?vid=ca57f763-d1c7-429a-a3d9-f367d976ec1a","ios":"levelo://app?vid=ca57f763-d1c7-429a-a3d9-f367d976ec1a"},"vehicle_type_id":"4","last_reported":1760928032,"current_range_meters":19600,"station_id":"st_d2ngiaodas8pm72gd1h0","pricing_plan_id":"cebpf4jnsgd1na2vs0mg"},{"bike_id":"ecc71f2f-a8c8-48f2-a3d5-7917b274cd85","system_id":"levelo_inurba_marseille","lat":43.28291,"lon":5.39663,"is_reserved":false,"is_disabled":false,"rental_uris":{"android":"levelo://app?vid=ecc71f2f-a8c8-48f2-a3d5-7917b274cd85","ios":"levelo://app?vid=ecc71f2f-a8c8-48f2-a3d5-7917b274cd85"},"vehicle_type_id":"4","last_reported":1760928032,"current_range_meters":20000,"station_id":"","pricing_plan_id":"cebpf4jnsgd1na2vs0mg"},{"bike_id":"0db9ab5d-e4b9-4e8d-8841-4099a10de2ae","system_id":"levelo_inurba_marseille","lat":43.28472,"lon":5.48407,"is_reserved":false,"is_disabled":false,"rental_uris":{"android":"levelo://app?vid=0db9ab5d-e4b9-4e8d-8841-4099a10de2ae","ios":"levelo://app?vid=0db9ab5d-e4b9-4e8d-8841-4099a10de2ae"},"vehicle_type_id":"4","last_reported":1760928032,"current_range_meters":20000,"station_id":"st_d3jp68qikq2c7381ktn0","pricing_plan_id":"cebpf4jnsgd1na2vs0mg"},{"bike_id":"00c1ab0a-4883-4f75-89ea-e531d28dffd8","system_id":"levelo_inurba_marseille","lat":43.30148,"lon":5.380913,"is_reserved":false,"is_disabled":true,"rental_uris":{"android":"levelo://app?vid=00c1ab0a-4883-4f75-89ea-e531d28dffd8","ios":"levelo://app?vid=00c1ab0a-4883-4f75-89ea-e531d28dffd8"},"vehicle_type_id":"4","last_reported":1760928032,"current_range_meters":20000,"station_id":"ce4bgjp2rcd13ifvqbh0","pricing_plan_id":"cebpf4jnsgd1na2vs0mg"},{"bike_id":"38d903de-f333-4b72-9163-b3382968f741","system_id":"levelo_inurba_marseille","lat":43.30897,"lon":5.39633,"is_reserved":false,"is_disabled":false,"rental_uris":{"android":"levelo://app?vid=38d903de-f333-4b72-9163-b3382968f741","ios":"levelo://app?vid=38d903de-f333-4b72-9163-b3382968f741"},"vehicle_type_id":"4","last_reported":1760928032,"current_range_meters":20000,"station_id":"ce4bh012rcd13ifvqcv0","pricing_plan_id":"cebpf4jnsgd1na2vs0mg"},{"bike_id":"737796b0-9eed-4879-8123-81b53466978c","system_id":"levelo_inurba_marseille","lat":43.27987,"lon":5.41656,"is_reserved":false,"is_disabled":false,"rental_uris":{"android":"levelo://app?vid=737796b0-9eed-4879-8123-81b53466978c","ios":"levelo://app?vid=737796b0-9eed-4879-8123-81b53466978c"},"vehicle_type_id":"4","last_reported":1760928032,"current_range_meters":20000,"station_id":"ce4bho12rcd13ifvqh1g","pricing_plan_id":"cebpf4jnsgd1na2vs0mg"},{"bike_id":"fa344610-9bdf-47a1-9d9d-a659d006d2c1","system_id":"levelo_inurba_marseille","lat":43.27615,"lon":5.36104,"is_reserved":false,"is_disabled":true,"rental_uris":{"android":"levelo://app?vid=fa344610-9bdf-47a1-9d9d-a659d006d2c1","ios":"levelo://app?vid=fa344610-9bdf-47a1-9d9d-a659d006d2c1"},"vehicle_type_id":"4","last_reported":1760928032,"current_range_meters":20000,"station_id":"ce4bgj92rcd13ifvqbe0","pricing_plan_id":"cebpf4jnsgd1na2vs0mg"},{"bike_id":"18388441-6ad8-4c35-813f-4bbb580e6f6a","system_id":"levelo_inurba_marseille","lat":43.24654,"lon":5.38161,"is_reserved":false,"is_disabled":false,"rental_uris":{"android":"levelo://app?vid=18388441-6ad8-4c35-813f-4bbb580e6f6a","ios":"levelo://app?vid=18388441-6ad8-4c35-813f-4bbb580e6f6a"},"vehicle_type_id":"4","last_reported":1760928032,"current_range_meters":20000,"station_id":"ce4bhih2rcd13ifvqfr0","pricing_plan_id":"cebpf4jnsgd1na2vs0mg"},{"bike_id":"c59c567f-c17d-4df7-a41f-7e8cec6e902f","system_id":"levelo_inurba_marseille","lat":43.29195,"lon":5.35829,"is_reserved":false,"is_disabled":true,"rental_uris":{"android":"levelo://app?vid=c59c567f-c17d-4df7-a41f-7e8cec6e902f","ios":"levelo://app?vid=c59c567f-c17d-4df7-a41f-7e8cec6e902f"},"vehicle_type_id":"4","last_reported":1760928032,"current_range_meters":20000,"station_id":"ce4bhb12rcd13ifvqel0","pricing_plan_id":"cebpf4jnsgd1na2vs0mg"},{"bike_id":"1e1f2733-7c9b-4860-beb6-6399d4ca1935","system_id":"levelo_inurba_marseille","lat":43.28716,"lon":5.40026,"is_reserved":false,"is_disabled":false,"rental_uris":{"android":"levelo://app?vid=1e1f2733-7c9b-4860-beb6-6399d4ca1935","ios":"levelo://app?vid=1e1f2733-7c9b-4860-beb6-6399d4ca1935"},"vehicle_type_id":"4","last_reported":1760928032,"current_range_meters":20000,"station_id":"ce4bho92rcd13ifvqh3g","pricing_plan_id":"cebpf4jnsgd1na2vs0mg"},{"bike_id":"71cee5ed-263d-4be4-bae8-d28c66bbdb4d","system_id":"levelo_inurba_marseille","lat":43.31999,"lon":5.38158,"is_reserved":false,"is_disabled":false,"rental_uris":{"android":"levelo://app?vid=71cee5ed-263d-4be4-bae8-d28c66bbdb4d","ios":"levelo://app?vid=71cee5ed-263d-4be4-bae8-d28c66bbdb4d"},"vehicle_type_id":"4","last_reported":1760928032,"current_range_meters":20000,"station_id":"ce4bhr12rcd13ifvqhpg","pricing_plan_id":"cebpf4jnsgd1na2vs0mg"},{"bike_id":"26a47936-248a-4509-9172-73bff6c9fadc","system_id":"levelo_inurba_marseille","lat":43.309998,"lon":5.389321,"is_reserved":false,"is_disabled":false,"rental_uris":{"android":"levelo://app?vid=26a47936-248a-4509-9172-73bff6c9fadc","ios":"levelo://app?vid=26a47936-248a-4509-9172-73bff6c9fadc"},"vehicle_type_id":"4","last_reported":1760928032,"current_range_meters":20400,"station_id":"ce4bgup2rcd13ifvqco0","pricing_plan_id":"cebpf4jnsgd1na2vs0mg"},{"bike_id":"e1f4e2e7-e979-4bb5-8ac3-370c17ac4622","system_id":"levelo_inurba_marseille","lat":43.28874,"lon":5.42515,"is_reserved":false,"is_disabled":false,"rental_uris":{"android":"levelo://app?vid=e1f4e2e7-e979-4bb5-8ac3-370c17ac4622","ios":"levelo://app?vid=e1f4e2e7-e979-4bb5-8ac3-370c17ac4622"},"vehicle_type_id":"4","last_reported":1760928032,"current_range_meters":20400,"station_id":"st_d3b462108ojc7389ooeg","pricing_plan_id":"cebpf4jnsgd1na2vs0mg"},{"bike_id":"a3dea9bf-14ba-467a-b315-65a09d5ef352","system_id":"levelo_inurba_marseille","lat":43.26569,"lon":5.39007,"is_reserved":false,"is_disabled":false,"rental_uris":{"android":"levelo://app?vid=a3dea9bf-14ba-467a-b315-65a09d5ef352","ios":"levelo://app?vid=a3dea9bf-14ba-467a-b315-65a09d5ef352"},"vehicle_type_id":"4","last_reported":1760928032,"current_range_meters":20400,"station_id":"ce4bhe12rcd13ifvqf30","pricing_plan_id":"cebpf4jnsgd1na2vs0mg"},{"bike_id":"25d08ad0-0b62-4f36-9359-2f67deecc13f","system_id":"levelo_inurba_marseille","lat":43.28377,"lon":5.38628,"is_reserved":false,"is_disabled":true,"rental_uris":{"android":"levelo://app?vid=25d08ad0-0b62-4f36-9359-2f67deecc13f","ios":"levelo://app?vid=25d08ad0-0b62-4f36-9359-2f67deecc13f"},"vehicle_type_id":"4","last_reported":1760928032,"current_range_meters":20400,"station_id":"ce4bh492rcd13ifvqdvg","pricing_plan_id":"cebpf4jnsgd1na2vs0mg"},{"bike_id":"1fcb8ae6-2550-4841-a344-3532b3b87ed5","system_id":"levelo_inurba_marseille","lat":43.261897,"lon":5.374463,"is_reserved":false,"is_disabled":false,"rental_uris":{"android":"levelo://app?vid=1fcb8ae6-2550-4841-a344-3532b3b87ed5","ios":"levelo://app?vid=1fcb8ae6-2550-4841-a344-3532b3b87ed5"},"vehicle_type_id":"4","last_reported":1760928032,"current_range_meters":20400,"station_id":"ce4bhgp2rcd13ifvqfc0","pricing_plan_id":"cebpf4jnsgd1na2vs0mg"},{"bike_id":"64634a09-82b9-4097-99ec-1aaa9aa729a2","system_id":"levelo_inurba_marseille","lat":43.31991,"lon":5.41291,"is_reserved":false,"is_disabled":false,"rental_uris":{"android":"levelo://app?vid=64634a09-82b9-4097-99ec-1aaa9aa729a2","ios":"levelo://app?vid=64634a09-82b9-4097-99ec-1aaa9aa729a2"},"vehicle_type_id":"4","last_reported":1760928032,"current_range_meters":20400,"station_id":"","pricing_plan_id":"cebpf4jnsgd1na2vs0mg"},{"bike_id":"361b6c0d-762c-49d2-b9f3-6a159b39f503","system_id":"levelo_inurba_marseille","lat":43.32488,"lon":5.36568,"is_reserved":false,"is_disabled":false,"rental_uris":{"android":"levelo://app?vid=361b6c0d-762c-49d2-b9f3-6a159b39f503","ios":"levelo://app?vid=361b6c0d-762c-49d2-b9f3-6a159b39f503"},"vehicle_type_id":"4","last_reported":1760928032,"current_range_meters":20400,"station_id":"ce4bhs12rcd13ifvqhvg","pricing_plan_id":"cebpf4jnsgd1na2vs0mg"},{"bike_id":"1c4164bf-7342-4d5c-94af-5183284e19c2","system_id":"levelo_inurba_marseille","lat":43.287252,"lon":5.360742,"is_reserved":false,"is_disabled":false,"rental_uris":{"android":"levelo://app?vid=1c4164bf-7342-4d5c-94af-5183284e19c2","ios":"levelo://app?vid=1c4164bf-7342-4d5c-94af-5183284e19c2"},"vehicle_type_id":"4","last_reported":1760928032,"current_range_meters":20800,"station_id":"cki0cbj6b192h4jlfktg","pricing_plan_id":"cebpf4jnsgd1na2vs0mg"},{"bike_id":"c464bf8d-cb97-4d40-9429-d3105ca64b2a","system_id":"levelo_inurba_marseille","lat":43.31325,"lon":5.39702,"is_reserved":false,"is_disabled":false,"rental_uris":{"android":"levelo://app?vid=c464bf8d-cb97-4d40-9429-d3105ca64b2a","ios":"levelo://app?vid=c464bf8d-cb97-4d40-9429-d3105ca64b2a"},"vehicle_type_id":"4","last_reported":1760928032,"current_range_meters":20800,"station_id":"ce4bgvp2rcd13ifvqcu0","pricing_plan_id":"cebpf4jnsgd1na2vs0mg"},{"bike_id":"158f5c6c-d9a4-4452-9fb1-747cdf44f6e2","system_id":"levelo_inurba_marseille","lat":43.299861,"lon":5.371846,"is_reserved":false,"is_disabled":false,"rental_uris":{"android":"levelo://app?vid=158f5c6c-d9a4-4452-9fb1-747cdf44f6e2","ios":"levelo://app?vid=158f5c6c-d9a4-4452-9fb1-747cdf44f6e2"},"vehicle_type_id":"4","last_reported":1760928032,"current_range_meters":20800,"station_id":"ce4bgr92rcd13ifvqc7g","pricing_plan_id":"cebpf4jnsgd1na2vs0mg"},{"bike_id":"72d5bbb6-0721-4f71-9159-fb97b85cb230","system_id":"levelo_inurba_marseille","lat":43.3238,"lon":5.36783,"is_reserved":false,"is_disabled":false,"rental_uris":{"android":"levelo://app?vid=72d5bbb6-0721-4f71-9159-fb97b85cb230","ios":"levelo://app?vid=72d5bbb6-0721-4f71-9159-fb97b85cb230"},"vehicle_type_id":"4","last_reported":1760928032,"current_range_meters":20800,"station_id":"ce4bhsh2rcd13ifvqi2g","pricing_plan_id":"cebpf4jnsgd1na2vs0mg"},{"bike_id":"30cdf71b-143a-4e5f-baef-0aadfaa94c9e","system_id":"levelo_inurba_marseille","lat":43.28127,"lon":5.37852,"is_reserved":false,"is_disabled":false,"rental_uris":{"android":"levelo://app?vid=30cdf71b-143a-4e5f-baef-0aadfaa94c9e","ios":"levelo://app?vid=30cdf71b-143a-4e5f-baef-0aadfaa94c9e"},"vehicle_type_id":"4","last_reported":1760928032,"current_range_meters":20800,"station_id":"ce4bha12rcd13ifvqee0","pricing_plan_id":"cebpf4jnsgd1na2vs0mg"},{"bike_id":"25dff80e-2099-492b-bf79-8faf3d8173c1","system_id":"levelo_inurba_marseille","lat":43.28488,"lon":5.38428,"is_reserved":false,"is_disabled":false,"rental_uris":{"android":"levelo://app?vid=25dff80e-2099-492b-bf79-8faf3d8173c1","ios":"levelo://app?vid=25dff80e-2099-492b-bf79-8faf3d8173c1"},"vehicle_type_id":"4","last_reported":1760928032,"current_range_meters":20800,"station_id":"ce4bh512rcd13ifvqe3g","pricing_plan_id":"cebpf4jnsgd1na2vs0mg"},{"bike_id":"1de6ebd8-d371-4192-8a8a-740773cc8f40","system_id":"levelo_inurba_marseille","lat":43.28666,"lon":5.38536,"is_reserved":false,"is_disabled":false,"rental_uris":{"android":"levelo://app?vid=1de6ebd8-d371-4192-8a8a-740773cc8f40","ios":"levelo://app?vid=1de6ebd8-d371-4192-8a8a-740773cc8f40"},"vehicle_type_id":"4","last_reported":1760928032,"current_range_meters":21600,"station_id":"","pricing_plan_id":"cebpf4jnsgd1na2vs0mg"},{"bike_id":"c5da4514-3ec8-4b6c-8163-ee4d76a2dc12","system_id":"levelo_inurba_marseille","lat":43.32471,"lon":5.36573,"is_reserved":false,"is_disabled":true,"rental_uris":{"android":"levelo://app?vid=c5da4514-3ec8-4b6c-8163-ee4d76a2dc12","ios":"levelo://app?vid=c5da4514-3ec8-4b6c-8163-ee4d76a2dc12"},"vehicle_type_id":"4","last_reported":1760928032,"current_range_meters":21600,"station_id":"ce4bhs12rcd13ifvqhvg","pricing_plan_id":"cebpf4jnsgd1na2vs0mg"},{"bike_id":"300b6146-b630-45fd-a80d-f211d48c8e32","system_id":"levelo_inurba_marseille","lat":43.286113,"lon":5.351016,"is_reserved":false,"is_disabled":false,"rental_uris":{"android":"levelo://app?vid=300b6146-b630-45fd-a80d-f211d48c8e32","ios":"levelo://app?vid=300b6146-b630-45fd-a80d-f211d48c8e32"},"vehicle_type_id":"4","last_reported":1760928032,"current_range_meters":21600,"station_id":"","pricing_plan_id":"cebpf4jnsgd1na2vs0mg"},{"bike_id":"16dc714d-3640-4a9e-8934-de463a5453c1","system_id":"levelo_inurba_marseille","lat":43.29726,"lon":5.37154,"is_reserved":false,"is_disabled":false,"rental_uris":{"android":"levelo://app?vid=16dc714d-3640-4a9e-8934-de463a5453c1","ios":"levelo://app?vid=16dc714d-3640-4a9e-8934-de463a5453c1"},"vehicle_type_id":"4","last_reported":1760928032,"current_range_meters":21600,"station_id":"","pricing_plan_id":"cebpf4jnsgd1na2vs0mg"},{"bike_id":"ad04aa29-7725-4d94-9c03-3dc9757bd8e8","system_id":"levelo_inurba_marseille","lat":43.29668,"lon":5.35988,"is_reserved":false,"is_disabled":false,"rental_uris":{"android":"levelo://app?vid=ad04aa29-7725-4d94-9c03-3dc9757bd8e8","ios":"levelo://app?vid=ad04aa29-7725-4d94-9c03-3dc9757bd8e8"},"vehicle_type_id":"4","last_reported":1760928032,"current_range_meters":21600,"station_id":"","pricing_plan_id":"cebpf4jnsgd1na2vs0mg"},{"bike_id":"6ff8313e-6fe6-4231-a73d-db28318d930e","system_id":"levelo_inurba_marseille","lat":43.31079,"lon":5.38347,"is_reserved":false,"is_disabled":false,"rental_uris":{"android":"levelo://app?vid=6ff8313e-6fe6-4231-a73d-db28318d930e","ios":"levelo://app?vid=6ff8313e-6fe6-4231-a73d-db28318d930e"},"vehicle_type_id":"4","last_reported":1760928032,"current_range_meters":22000,"station_id":"ce4bgv92rcd13ifvqcr0","pricing_plan_id":"cebpf4jnsgd1na2vs0mg"},{"bike_id":"def69989-8786-4897-a47c-3e70fe4798fb","system_id":"levelo_inurba_marseille","lat":43.27498,"lon":5.42457,"is_reserved":false,"is_disabled":false,"rental_uris":{"android":"levelo://app?vid=def69989-8786-4897-a47c-3e70fe4798fb","ios":"levelo://app?vid=def69989-8786-4897-a47c-3e70fe4798fb"},"vehicle_type_id":"4","last_reported":1760928032,"current_range_meters":22000,"station_id":"ce4bhn92rcd13ifvqgrg","pricing_plan_id":"cebpf4jnsgd1na2vs0mg"},{"bike_id":"4bc5b268-f3cc-42f9-b1b5-ce5629a64f46","system_id":"levelo_inurba_marseille","lat":43.310406,"lon":5.378797,"is_reserved":false,"is_disabled":true,"rental_uris":{"android":"levelo://app?vid=4bc5b268-f3cc-42f9-b1b5-ce5629a64f46","ios":"levelo://app?vid=4bc5b268-f3cc-42f9-b1b5-ce5629a64f46"},"vehicle_type_id":"4","last_reported":1760928032,"current_range_meters":22000,"station_id":"","pricing_plan_id":"cebpf4jnsgd1na2vs0mg"},{"bike_id":"dfb5e55a-78bd-4a4f-9c13-2eecd2ebfd2d","system_id":"levelo_inurba_marseille","lat":43.3309,"lon":5.390022,"is_reserved":false,"is_disabled":false,"rental_uris":{"android":"levelo://app?vid=dfb5e55a-78bd-4a4f-9c13-2eecd2ebfd2d","ios":"levelo://app?vid=dfb5e55a-78bd-4a4f-9c13-2eecd2ebfd2d"},"vehicle_type_id":"4","last_reported":1760928032,"current_range_meters":22000,"station_id":"","pricing_plan_id":"cebpf4jnsgd1na2vs0mg"},{"bike_id":"60c90d7b-451e-4a2f-b2ae-0e7f7c294c3d","system_id":"levelo_inurba_marseille","lat":43.30878,"lon":5.39625,"is_reserved":false,"is_disabled":false,"rental_uris":{"android":"levelo://app?vid=60c90d7b-451e-4a2f-b2ae-0e7f7c294c3d","ios":"levelo://app?vid=60c90d7b-451e-4a2f-b2ae-0e7f7c294c3d"},