{"last_updated":1707170862,"ttl":30,"version":"2.2","data":{"bikes":[{"bike_id":"279a426c-c49d-4de2-aa7b-ef0fcbfbe737","system_id":"levelo_inurba_marseille","lat":43.312239,"lon":5.368562,"is_reserved":false,"is_disabled":false,"rental_uris":{"android":"levelo://app?vid=279a426c-c49d-4de2-aa7b-ef0fcbfbe737","ios":"levelo://app?vid=279a426c-c49d-4de2-aa7b-ef0fcbfbe737"},"vehicle_type_id":"4","last_reported":1707170862,"current_range_meters":18800,"station_id":"ce4bgl92rcd13ifvqbq0","pricing_plan_id":"free"},{"bike_id":"c9314a85-d4f9-4e17-a6bc-6fdc39e98cb3","system_id":"levelo_inurba_marseille","lat":43.314811,"lon":5.373103,"is_reserved":false,"is_disabled":false,"rental_uris":{"android":"levelo://app?vid=c9314a85-d4f9-4e17-a6bc-6fdc39e98cb3","ios":"levelo://app?vid=c9314a85-d4f9-4e17-a6bc-6fdc39e98cb3"},"vehicle_type_id":"4","last_reported":1707170862,"current_range_meters":17600,"station_id":"ce4bgt12rcd13ifvqcd0","pricing_plan_id":"free"},{"bike_id":"73dbda8f-0bab-4cad-bdfd-050d2837173a","system_id":"levelo_inurba_marseille","lat":43.314811,"lon":5.373103,"is_reserved":false,"is_disabled":false,"rental_uris":{"android":"levelo://app?vid=73dbda8f-0bab-4cad-bdfd-050d2837173a","ios":"levelo://app?vid=73dbda8f-0bab-4cad-bdfd-050d2837173a"},"vehicle_type_id":"4","last_reported":1707170862,"current_range_meters":4000,"station_id":"ce4bgt12rcd13ifvqcd0","pricing_plan_id":"free"},{"bike_id":"adb532bf-f153-4e2a-a69e-eed90a253329","system_id":"levelo_inurba_marseille","lat":43.309039,"lon":5.371797,"is_reserved":false,"is_disabled":false,"rental_uris":{"android":"levelo://app?vid=adb532bf-f153-4e2a-a69e-eed90a253329","ios":"levelo://app?vid=adb532bf-f153-4e2a-a69e-eed90a253329"},"vehicle_type_id":"4","last_reported":1707170862,"current_range_meters":19200,"station_id":"ce4bguh2rcd13ifvqckg","pricing_plan_id":"free"},{"bike_id":"5e2c4ce9-6ec2-4459-b07e-ee3d4902e597","system_id":"levelo_inurba_marseille","lat":43.30627,"lon":5.365735,"is_reserved":false,"is_disabled":false,"rental_uris":{"android":"levelo://app?vid=5e2c4ce9-6ec2-4459-b07e-ee3d4902e597","ios":"levelo://app?vid=5e2c4ce9-6ec2-4459-b07e-ee3d4902e597"},"vehicle_type_id":"4","last_reported":1707170862,"current_range_meters":17600,"station_id":"","pricing_plan_id":"free"},{"bike_id":"8fe84584-0a28-48d3-89df-88458d55ba8f","system_id":"levelo_inurba_marseille","lat":43.305368,"lon":5.367343,"is_reserved":false,"is_disabled":false,"rental_uris":{"android":"levelo://app?vid=8fe84584-0a28-48d3-89df-88458d55ba8f","ios":"levelo://app?vid=8fe84584-0a28-48d3-89df-88458d55ba8f"},"vehicle_type_id":"4","last_reported":1707170862,"current_range_meters":0,"station_id":"ce4bgrp2rcd13ifvqc9g","pricing_plan_id":"free"},{"bike_id":"81415ccb-48e9-40f1-b245-1502fca5535f","system_id":"levelo_inurba_marseille","lat":43.305989,"lon":5.37225,"is_reserved":false,"is_disabled":false,"rental_uris":{"android":"levelo://app?vid=81415ccb-48e9-40f1-b245-1502fca5535f","ios":"levelo://app?vid=81415ccb-48e9-40f1-b245-1502fca5535f"},"vehicle_type_id":"4","last_reported":1707170862,"current_range_meters":16000,"station_id":"ce4bgqh2rcd13ifvqc4g","pricing_plan_id":"free"},{"bike_id":"da3a1ce5-dcff-4188-9c8e-db1fc13aa675","system_id":"levelo_inurba_marseille","lat":43.305989,"lon":5.37225,"is_reserved":false,"is_disabled":false,"rental_uris":{"android":"levelo://app?vid=da3a1ce5-dcff-4188-9c8e-db1fc13aa675","ios":"levelo://app?vid=da3a1ce5-dcff-4188-9c8e-db1fc13aa675"},"vehicle_type_id":"4","last_reported":1707170862,"current_range_meters":22800,"station_id":"ce4bgqh2rcd13ifvqc4g","pricing_plan_id":"free"},{"bike_id":"98de5ce1-a00e-4ddf-9acf-f925c33042e5","system_id":"levelo_inurba_marseille","lat":43.31127,"lon":5.37761,"is_reserved":false,"is_disabled":false,"rental_uris":{"android":"levelo://app?vid=98de5ce1-a00e-4ddf-9acf-f925c33042e5","ios":"levelo://app?vid=98de5ce1-a00e-4ddf-9acf-f925c33042e5"},"vehicle_type_id":"4","last_reported":1707170862,"current_range_meters":0,"station_id":"ce4bgt92rcd13ifvqcg0","pricing_plan_id":"free"},{"bike_id":"aa2aa635-b90b-413b-87b0-85e078f804e8","system_id":"levelo_inurba_marseille","lat":43.311125,"lon":5.377624,"is_reserved":false,"is_disabled":false,"rental_uris":{"android":"levelo://app?vid=aa2aa635-b90b-413b-87b0-85e078f804e8","ios":"levelo://app?vid=aa2aa635-b90b-413b-87b0-85e078f804e8"},"vehicle_type_id":"4","last_reported":1707170862,"current_range_meters":12800,"station_id":"ce4bgt92rcd13ifvqcg0","pricing_plan_id":"free"},{"bike_id":"597680cb-ba6d-4ee0-87df-3861ed373faa","system_id":"levelo_inurba_marseille","lat":43.311131,"lon":5.377651,"is_reserved":false,"is_disabled":false,"rental_uris":{"android":"levelo://app?vid=597680cb-ba6d-4ee0-87df-3861ed373faa","ios":"levelo://app?vid=597680cb-ba6d-4ee0-87df-3861ed373faa"},"vehicle_type_id":"4","last_reported":1707170862,"current_range_meters":20400,"station_id":"ce4bgt92rcd13ifvqcg0","pricing_plan_id":"free"},{"bike_id":"1693d5dd-c74a-4048-9a20-78f31ad4c84e","system_id":"levelo_inurba_marseille","lat":43.311125,"lon":5.377624,"is_reserved":false,"is_disabled":false,"rental_uris":{"android":"levelo://app?vid=1693d5dd-c74a-4048-9a20-78f31ad4c84e","ios":"levelo://app?vid=1693d5dd-c74a-4048-9a20-78f31ad4c84e"},"vehicle_type_id":"4","last_reported":1707170862,"current_range_meters":24400,"station_id":"ce4bgt92rcd13ifvqcg0","pricing_plan_id":"free"},{"bike_id":"d869b894-5ea0-4cb5-ade4-07f1016675cc","system_id":"levelo_inurba_marseille","lat":43.31125,"lon":5.37771,"is_reserved":false,"is_disabled":false,"rental_uris":{"android":"levelo://app?vid=d869b894-5ea0-4cb5-ade4-07f1016675cc","ios":"levelo://app?vid=d869b894-5ea0-4cb5-ade4-07f1016675cc"},"vehicle_type_id":"4","last_reported":1707170862,"current_range_meters":4800,"station_id":"ce4bgt92rcd13ifvqcg0","pricing_plan_id":"free"},{"bike_id":"4cef5466-f755-4790-8869-ac4743470f82","system_id":"levelo_inurba_marseille","lat":43.311125,"lon":5.377624,"is_reserved":false,"is_disabled":false,"rental_uris":{"android":"levelo://app?vid=4cef5466-f755-4790-8869-ac4743470f82","ios":"levelo://app?vid=4cef5466-f755-4790-8869-ac4743470f82"},"vehicle_type_id":"4","last_reported":1707170862,"current_range_meters":17600,"station_id":"ce4bgt92rcd13ifvqcg0","pricing_plan_id":"free"},{"bike_id":"9f627477-7ccf-4709-b6be-75724d7504d3","system_id":"levelo_inurba_marseille","lat":43.311199,"lon":5.377734,"is_reserved":false,"is_disabled":false,"rental_uris":{"android":"levelo://app?vid=9f627477-7ccf-4709-b6be-75724d7504d3","ios":"levelo://app?vid=9f627477-7ccf-4709-b6be-75724d7504d3"},"vehicle_type_id":"4","last_reported":1707170862,"current_range_meters":30000,"station_id":"ce4bgt92rcd13ifvqcg0","pricing_plan_id":"free"},{"bike_id":"c56929c2-ab55-4eeb-a4eb-44b90cf33cf2","system_id":"levelo_inurba_marseille","lat":43.307945,"lon":5.376487,"is_reserved":false,"is_disabled":false,"rental_uris":{"android":"levelo://app?vid=c56929c2-ab55-4eeb-a4eb-44b90cf33cf2","ios":"levelo://app?vid=c56929c2-ab55-4eeb-a4eb-44b90cf33cf2"},"vehicle_type_id":"4","last_reported":1707170862,"current_range_meters":5200,"station_id":"ce4bgv92rcd13ifvqcq0","pricing_plan_id":"free"},{"bike_id":"e00c74e5-4282-47e4-aa1c-cd7f1b7c0cc9","system_id":"levelo_inurba_marseille","lat":43.307945,"lon":5.376487,"is_reserved":false,"is_disabled":false,"rental_uris":{"android":"levelo://app?vid=e00c74e5-4282-47e4-aa1c-cd7f1b7c0cc9","ios":"levelo://app?vid=e00c74e5-4282-47e4-aa1c-cd7f1b7c0cc9"},"vehicle_type_id":"4","last_reported":1707170862,"current_range_meters":18000,"station_id":"ce4bgv92rcd13ifvqcq0","pricing_plan_id":"free"},{"bike_id":"01d5dcf5-c416-4815-884a-8fb92230de22","system_id":"levelo_inurba_marseille","lat":43.307945,"lon":5.376487,"is_reserved":false,"is_disabled":false,"rental_uris":{"android":"levelo://app?vid=01d5dcf5-c416-4815-884a-8fb92230de22","ios":"levelo://app?vid=01d5dcf5-c416-4815-884a-8fb92230de22"},"vehicle_type_id":"4","last_reported":1707170862,"current_range_meters":28000,"station_id":"ce4bgv92rcd13ifvqcq0","pricing_plan_id":"free"},{"bike_id":"929beef4-557d-4b94-b906-93bdb251d0fc","system_id":"levelo_inurba_marseille","lat":43.307945,"lon":5.376487,"is_reserved":false,"is_disabled":false,"rental_uris":{"android":"levelo://app?vid=929beef4-557d-4b94-b906-93bdb251d0fc","ios":"levelo://app?vid=929beef4-557d-4b94-b906-93bdb251d0fc"},"vehicle_type_id":"4","last_reported":1707170862,"current_range_meters":6400,"station_id":"ce4bgv92rcd13ifvqcq0","pricing_plan_id":"free"},{"bike_id":"720e0343-79e1-4a7f-b67b-a5e9e8907370","system_id":"levelo_inurba_marseille","lat":43.31712,"lon":5.37766,"is_reserved":false,"is_disabled":false,"rental_uris":{"android":"levelo://app?vid=720e0343-79e1-4a7f-b67b-a5e9e8907370","ios":"levelo://app?vid=720e0343-79e1-4a7f-b67b-a5e9e8907370"},"vehicle_type_id":"4","last_reported":1707170862,"current_range_meters":0,"station_id":"ce4bgth2rcd13ifvqch0","pricing_plan_id":"free"},{"bike_id":"b77cd263-525e-4280-a83f-5d1542201c76","system_id":"levelo_inurba_marseille","lat":43.30304,"lon":5.368987,"is_reserved":false,"is_disabled":false,"rental_uris":{"android":"levelo://app?vid=b77cd263-525e-4280-a83f-5d1542201c76","ios":"levelo://app?vid=b77cd263-525e-4280-a83f-5d1542201c76"},"vehicle_type_id":"4","last_reported":1707170862,"current_range_meters":22400,"station_id":"ce4bgqh2rcd13ifvqc5g","pricing_plan_id":"free"},{"bike_id":"af881081-433d-43ab-ab2a-93fb7b5262d7","system_id":"levelo_inurba_marseille","lat":43.315293,"lon":5.380349,"is_reserved":false,"is_disabled":false,"rental_uris":{"android":"levelo://app?vid=af881081-433d-43ab-ab2a-93fb7b5262d7","ios":"levelo://app?vid=af881081-433d-43ab-ab2a-93fb7b5262d7"},"vehicle_type_id":"4","last_reported":1707170862,"current_range_meters":20800,"station_id":"ce4bhsp2rcd13ifvqi50","pricing_plan_id":"free"},{"bike_id":"b93f270d-a107-48ad-8b4a-532afb5fe8db","system_id":"levelo_inurba_marseille","lat":43.315293,"lon":5.380349,"is_reserved":false,"is_disabled":false,"rental_uris":{"android":"levelo://app?vid=b93f270d-a107-48ad-8b4a-532afb5fe8db","ios":"levelo://app?vid=b93f270d-a107-48ad-8b4a-532afb5fe8db"},"vehicle_type_id":"4","last_reported":1707170862,"current_range_meters":31600,"station_id":"ce4bhsp2rcd13ifvqi50","pricing_plan_id":"free"},{"bike_id":"07016c87-34f8-4755-8230-b5bf26994769","system_id":"levelo_inurba_marseille","lat":43.301939,"lon":5.366286,"is_reserved":false,"is_disabled":false,"rental_uris":{"android":"levelo://app?vid=07016c87-34f8-4755-8230-b5bf26994769","ios":"levelo://app?vid=07016c87-34f8-4755-8230-b5bf26994769"},"vehicle_type_id":"4","last_reported":1707170862,"current_range_meters":18800,"station_id":"ce4bgrh2rcd13ifvqc8g","pricing_plan_id":"free"},{"bike_id":"f0dae5ea-f02b-4272-8108-8abb688edb0e","system_id":"levelo_inurba_marseille","lat":43.308055,"lon":5.381535,"is_reserved":false,"is_disabled":false,"rental_uris":{"android":"levelo://app?vid=f0dae5ea-f02b-4272-8108-8abb688edb0e","ios":"levelo://app?vid=f0dae5ea-f02b-4272-8108-8abb688edb0e"},"vehicle_type_id":"4","last_reported":1707170862,"current_range_meters":31200,"station_id":"","pricing_plan_id":"free"},{"bike_id":"08e3efdc-13dc-40c8-bcfe-39ce95f42f37","system_id":"levelo_inurba_marseille","lat":43.308012,"lon":5.381511,"is_reserved":false,"is_disabled":false,"rental_uris":{"android":"levelo://app?vid=08e3efdc-13dc-40c8-bcfe-39ce95f42f37","ios":"levelo://app?vid=08e3efdc-13dc-40c8-bcfe-39ce95f42f37"},"vehicle_type_id":"4","last_reported":1707170862,"current_range_meters":22800,"station_id":"ce4bgt12rcd13ifvqce0","pricing_plan_id":"free"},{"bike_id":"029050c2-6172-4e20-a96e-dfca5547c97b","system_id":"levelo_inurba_marseille","lat":43.308012,"lon":5.381511,"is_reserved":false,"is_disabled":false,"rental_uris":{"android":"levelo://app?vid=029050c2-6172-4e20-a96e-dfca5547c97b","ios":"levelo://app?vid=029050c2-6172-4e20-a96e-dfca5547c97b"},"vehicle_type_id":"4","last_reported":1707170862,"current_range_meters":31600,"station_id":"ce4bgt12rcd13ifvqce0","pricing_plan_id":"free"},{"bike_id":"7b6c792e-4ce7-4fed-bd87-f69a6c028290","system_id":"levelo_inurba_marseille","lat":43.308012,"lon":5.381511,"is_reserved":false,"is_disabled":false,"rental_uris":{"android":"levelo://app?vid=7b6c792e-4ce7-4fed-bd87-f69a6c028290","ios":"levelo://app?vid=7b6c792e-4ce7-4fed-bd87-f69a6c028290"},"vehicle_type_id":"4","last_reported":1707170862,"current_range_meters":13600,"station_id":"ce4bgt12rcd13ifvqce0","pricing_plan_id":"free"},{"bike_id":"88c08848-7b21-4e20-852c-6b45b128fecc","system_id":"levelo_inurba_marseille","lat":43.308012,"lon":5.381511,"is_reserved":false,"is_disabled":false,"rental_uris":{"android":"levelo://app?vid=88c08848-7b21-4e20-852c-6b45b128fecc","ios":"levelo://app?vid=88c08848-7b21-4e20-852c-6b45b128fecc"},"vehicle_type_id":"4","last_reported":1707170862,"current_range_meters":31600,"station_id":"ce4bgt12rcd13ifvqce0","pricing_plan_id":"free"},{"bike_id":"d0b4ff06-82aa-4d6c-a7bb-410d5f248bde","system_id":"levelo_inurba_marseille","lat":43.308012,"lon":5.381511,"is_reserved":false,"is_disabled":false,"rental_uris":{"android":"levelo://app?vid=d0b4ff06-82aa-4d6c-a7bb-410d5f248bde","ios":"levelo://app?vid=d0b4ff06-82aa-4d6c-a7bb-410d5f248bde"},"vehicle_type_id":"4","last_reported":1707170862,"current_range_meters":27600,"station_id":"ce4bgt12rcd13ifvqce0","pricing_plan_id":"free"},{"bike_id":"5a1e9e1b-7505-4dce-9bad-4de72ab19db5","system_id":"levelo_inurba_marseille","lat":43.308012,"lon":5.381511,"is_reserved":false,"is_disabled":false,"rental_uris":{"android":"levelo://app?vid=5a1e9e1b-7505-4dce-9bad-4de72ab19db5","ios":"levelo://app?vid=5a1e9e1b-7505-4dce-9bad-4de72ab19db5"},"vehicle_type_id":"4","last_reported":1707170862,"current_range_meters":6800,"station_id":"ce4bgt12rcd13ifvqce0","pricing_plan_id":"free"},{"bike_id":"7ae1dd2c-8de1-40a2-8060-3bedf79a4541","system_id":"levelo_inurba_marseille","lat":43.30347,"lon":5.37694,"is_reserved":false,"is_disabled":false,"rental_uris":{"android":"levelo://app?vid=7ae1dd2c-8de1-40a2-8060-3bedf79a4541","ios":"levelo://app?vid=7ae1dd2c-8de1-40a2-8060-3bedf79a4541"},"vehicle_type_id":"4","last_reported":1707170862,"current_range_meters":2800,"station_id":"","pricing_plan_id":"free"},{"bike_id":"af194b2f-e009-4732-aa23-9b2c04ad31e7","system_id":"levelo_inurba_marseille","lat":43.324771,"lon":5.36557,"is_reserved":false,"is_disabled":false,"rental_uris":{"android":"levelo://app?vid=af194b2f-e009-4732-aa23-9b2c04ad31e7","ios":"levelo://app?vid=af194b2f-e009-4732-aa23-9b2c04ad31e7"},"vehicle_type_id":"4","last_reported":1707170862,"current_range_meters":8000,"station_id":"ce4bhs12rcd13ifvqhvg","pricing_plan_id":"free"},{"bike_id":"dab176e5-b901-462f-b780-4d4f13205619","system_id":"levelo_inurba_marseille","lat":43.324771,"lon":5.36557,"is_reserved":false,"is_disabled":false,"rental_uris":{"android":"levelo://app?vid=dab176e5-b901-462f-b780-4d4f13205619","ios":"levelo://app?vid=dab176e5-b901-462f-b780-4d4f13205619"},"vehicle_type_id":"4","last_reported":1707170862,"current_range_meters":27600,"station_id":"ce4bhs12rcd13ifvqhvg","pricing_plan_id":"free"},{"bike_id":"01116000-e724-4563-98cb-fa96552fd80d","system_id":"levelo_inurba_marseille","lat":43.31073,"lon":5.38352,"is_reserved":false,"is_disabled":false,"rental_uris":{"android":"levelo://app?vid=01116000-e724-4563-98cb-fa96552fd80d","ios":"levelo://app?vid=01116000-e724-4563-98cb-fa96552fd80d"},"vehicle_type_id":"4","last_reported":1707170862,"current_range_meters":18000,"station_id":"ce4bgv92rcd13ifvqcr0","pricing_plan_id":"free"},{"bike_id":"2a2951e9-2fd8-4fe4-91dd-d08909f6b091","system_id":"levelo_inurba_marseille","lat":43.310804,"lon":5.38359,"is_reserved":false,"is_disabled":false,"rental_uris":{"android":"levelo://app?vid=2a2951e9-2fd8-4fe4-91dd-d08909f6b091","ios":"levelo://app?vid=2a2951e9-2fd8-4fe4-91dd-d08909f6b091"},"vehicle_type_id":"4","last_reported":1707170862,"current_range_meters":9600,"station_id":"ce4bgv92rcd13ifvqcr0","pricing_plan_id":"free"},{"bike_id":"bbce9044-ada2-4ca7-9e4f-2e7fff72f1ae","system_id":"levelo_inurba_marseille","lat":43.310804,"lon":5.38359,"is_reserved":false,"is_disabled":false,"rental_uris":{"android":"levelo://app?vid=bbce9044-ada2-4ca7-9e4f-2e7fff72f1ae","ios":"levelo://app?vid=bbce9044-ada2-4ca7-9e4f-2e7fff72f1ae"},"vehicle_type_id":"4","last_reported":1707170862,"current_range_meters":6400,"station_id":"ce4bgv92rcd13ifvqcr0","pricing_plan_id":"free"},{"bike_id":"812ea0e4-d508-4005-bc38-471e19c4a342","system_id":"levelo_inurba_marseille","lat":43.31075,"lon":5.38359,"is_reserved":false,"is_disabled":false,"rental_uris":{"android":"levelo://app?vid=812ea0e4-d508-4005-bc38-471e19c4a342","ios":"levelo://app?vid=812ea0e4-d508-4005-bc38-471e19c4a342"},"vehicle_type_id":"4","last_reported":1707170862,"current_range_meters":16400,"station_id":"ce4bgv92rcd13ifvqcr0","pricing_plan_id":"free"},{"bike_id":"bd78d3c4-a058-4024-97d2-201824988c23","system_id":"levelo_inurba_marseille","lat":43.302784,"lon":5.377158,"is_reserved":false,"is_disabled":false,"rental_uris":{"android":"levelo://app?vid=bd78d3c4-a058-4024-97d2-201824988c23","ios":"levelo://app?vid=bd78d3c4-a058-4024-97d2-201824988c23"},"vehicle_type_id":"4","last_reported":1707170862,"current_range_meters":13200,"station_id":"ce4bguh2rcd13ifvqcj0","pricing_plan_id":"free"},{"bike_id":"1cdc8df9-000e-4e0e-a6f3-f37b19fd07b2","system_id":"levelo_inurba_marseille","lat":43.31991,"lon":5.38156,"is_reserved":false,"is_disabled":false,"rental_uris":{"android":"levelo://app?vid=1cdc8df9-000e-4e0e-a6f3-f37b19fd07b2","ios":"levelo://app?vid=1cdc8df9-000e-4e0e-a6f3-f37b19fd07b2"},"vehicle_type_id":"4","last_reported":1707170862,"current_range_meters":800,"station_id":"ce4bhr12rcd13ifvqhpg","pricing_plan_id":"free"},{"bike_id":"2b9206d7-f3be-4516-95f3-0cd0f4a3318b","system_id":"levelo_inurba_marseille","lat":43.31999,"lon":5.38151,"is_reserved":false,"is_disabled":false,"rental_uris":{"android":"levelo://app?vid=2b9206d7-f3be-4516-95f3-0cd0f4a3318b","ios":"levelo://app?vid=2b9206d7-f3be-4516-95f3-0cd0f4a3318b"},"vehicle_type_id":"4","last_reported":1707170862,"current_range_meters":20400,"station_id":"ce4bhr12rcd13ifvqhpg","pricing_plan_id":"free"},{"bike_id":"12ce1b51-e513-48d4-8826-d38689553faa","system_id":"levelo_inurba_marseille","lat":43.31998,"lon":5.38152,"is_reserved":false,"is_disabled":false,"rental_uris":{"android":"levelo://app?vid=12ce1b51-e513-48d4-8826-d38689553faa","ios":"levelo://app?vid=12ce1b51-e513-48d4-8826-d38689553faa"},"vehicle_type_id":"4","last_reported":1707170862,"current_range_meters":1600,"station_id":"ce4bhr12rcd13ifvqhpg","pricing_plan_id":"free"},{"bike_id":"d91ddaaf-996a-434e-b562-f2ffb54f2299","system_id":"levelo_inurba_marseille","lat":43.32,"lon":5.38153,"is_reserved":false,"is_disabled":false,"rental_uris":{"android":"levelo://app?vid=d91ddaaf-996a-434e-b562-f2ffb54f2299","ios":"levelo://app?vid=d91ddaaf-996a-434e-b562-f2ffb54f2299"},"vehicle_type_id":"4","last_reported":1707170862,"current_range_meters":4000,"station_id":"ce4bhr12rcd13ifvqhpg","pricing_plan_id":"free"},{"bike_id":"558d8bdf-83d4-4028-81f8-4e9c2899b640","system_id":"levelo_inurba_marseille","lat":43.313571,"lon":5.384829,"is_reserved":false,"is_disabled":false,"rental_uris":{"android":"levelo://app?vid=558d8bdf-83d4-4028-81f8-4e9c2899b640","ios":"levelo://app?vid=558d8bdf-83d4-4028-81f8-4e9c2899b640"},"vehicle_type_id":"4","last_reported":1707170862,"current_range_meters":11600,"station_id":"ce4bgt92rcd13ifvqcf0","pricing_plan_id":"free"},{"bike_id":"bc89e135-51b7-4cdd-95e6-79023fc4fece","system_id":"levelo_inurba_marseille","lat":43.313571,"lon":5.384829,"is_reserved":false,"is_disabled":false,"rental_uris":{"android":"levelo://app?vid=bc89e135-51b7-4cdd-95e6-79023fc4fece","ios":"levelo://app?vid=bc89e135-51b7-4cdd-95e6-79023fc4fece"},"vehicle_type_id":"4","last_reported":1707170862,"current_range_meters":8400,"station_id":"ce4bgt92rcd13ifvqcf0","pricing_plan_id":"free"},{"bike_id":"56f6dc9b-ee8e-4663-8253-9f395f529ece","system_id":"levelo_inurba_marseille","lat":43.313571,"lon":5.384829,"is_reserved":false,"is_disabled":false,"rental_uris":{"android":"levelo://app?vid=56f6dc9b-ee8e-4663-8253-9f395f529ece","ios":"levelo://app?vid=56f6dc9b-ee8e-4663-8253-9f395f529ece"},"vehicle_type_id":"4","last_reported":1707170862,"current_range_meters":26000,"station_id":"ce4bgt92rcd13ifvqcf0","pricing_plan_id":"free"},{"bike_id":"16ce4cde-baa2-4dc2-8407-846a4d2969cf","system_id":"levelo_inurba_marseille","lat":43.29955,"lon":5.36538,"is_reserved":false,"is_disabled":false,"rental_uris":{"android":"levelo://app?vid=16ce4cde-baa2-4dc2-8407-846a4d2969cf","ios":"levelo://app?vid=16ce4cde-baa2-4dc2-8407-846a4d2969cf"},"vehicle_type_id":"4","last_reported":1707170862,"current_range_meters":5200,"station_id":"ce4bgm92rcd13ifvqbr0","pricing_plan_id":"free"},{"bike_id":"3765f6d9-605f-4b9a-b247-534fed5a17df","system_id":"levelo_inurba_marseille","lat":43.299222,"lon":5.365554,"is_reserved":false,"is_disabled":false,"rental_uris":{"android":"levelo://app?vid=3765f6d9-605f-4b9a-b247-534fed5a17df","ios":"levelo://app?vid=3765f6d9-605f-4b9a-b247-534fed5a17df"},"vehicle_type_id":"4","last_reported":1707170862,"current_range_meters":12000,"station_id":"ce4bgm92rcd13ifvqbr0","pricing_plan_id":"free"},{"bike_id":"c7984497-c141-48b9-8188-60baae32902a","system_id":"levelo_inurba_marseille","lat":43.299222,"lon":5.365554,"is_reserved":false,"is_disabled":false,"rental_uris":{"android":"levelo://app?vid=c7984497-c141-48b9-8188-60baae32902a","ios":"levelo://app?vid=c7984497-c141-48b9-8188-60baae32902a"},"vehicle_type_id":"4","last_reported":1707170862,"current_range_meters":31600,"station_id":"ce4bgm92rcd13ifvqbr0","pricing_plan_id":"free"},{"bike_id":"36227054-42cb-42b9-b2cd-4514df2f2d0d","system_id":"levelo_inurba_marseille","lat":43.305364,"lon":5.384119,"is_reserved":false,"is_disabled":false,"rental_uris":{"android":"levelo://app?vid=36227054-42cb-42b9-b2cd-4514df2f2d0d","ios":"levelo://app?vid=36227054-42cb-42b9-b2cd-4514df2f2d0d"},"vehicle_type_id":"4","last_reported":1707170862,"current_range_meters":22000,"station_id":"ce4bgg92rcd13ifvqb30","pricing_plan_id":"free"},{"bike_id":"d73908e2-2bfd-489b-804e-d4e95fac72d2","system_id":"levelo_inurba_marseille","lat":43.326525,"lon":5.36078,"is_reserved":false,"is_disabled":false,"rental_uris":{"android":"levelo://app?vid=d73908e2-2bfd-489b-804e-d4e95fac72d2","ios":"levelo://app?vid=d73908e2-2bfd-489b-804e-d4e95fac72d2"},"vehicle_type_id":"4","last_reported":1707170862,"current_range_meters":16800,"station_id":"","pricing_plan_id":"free"},{"bike_id":"d3206ae6-343c-41c5-a164-4fe5c1bebd16","system_id":"levelo_inurba_marseille","lat":43.305364,"lon":5.384119,"is_reserved":false,"is_disabled":false,"rental_uris":{"android":"levelo://app?vid=d3206ae6-343c-41c5-a164-4fe5c1bebd16","ios":"levelo://app?vid=d3206ae6-343c-41c5-a164-4fe5c1bebd16"},"vehicle_type_id":"4","last_reported":1707170862,"current_range_meters":12400,"station_id":"ce4bgg92rcd13ifvqb30","pricing_plan_id":"free"},{"bike_id":"4c37e107-c706-41ca-9256-00391d6b1474","system_id":"levelo_inurba_marseille","lat":43.305364,"lon":5.384119,"is_reserved":false,"is_disabled":false,"rental_uris":{"android":"levelo://app?vid=4c37e107-c706-41ca-9256-00391d6b1474","ios":"levelo://app?vid=4c37e107-c706-41ca-9256-00391d6b1474"},"vehicle_type_id":"4","last_reported":1707170862,"current_range_meters":31600,"station_id":"ce4bgg92rcd13ifvqb30","pricing_plan_id":"free"},{"bike_id":"fe7959e9-bbea-4d3c-afa7-a6a8ba5a73ef","system_id":"levelo_inurba_marseille","lat":43.305364,"lon":5.384119,"is_reserved":false,"is_disabled":false,"rental_uris":{"android":"levelo://app?vid=fe7959e9-bbea-4d3c-afa7-a6a8ba5a73ef","ios":"levelo://app?vid=fe7959e9-bbea-4d3c-afa7-a6a8ba5a73ef"},"vehicle_type_id":"4","last_reported":1707170862,"current_range_meters":12800,"station_id":"ce4bgg92rcd13ifvqb30","pricing_plan_id":"free"},{"bike_id":"50ef4410-4669-4490-9944-823e5450d96b","system_id":"levelo_inurba_marseille","lat":43.30539,"lon":5.38429,"is_reserved":false,"is_disabled":false,"rental_uris":{"android":"levelo://app?vid=50ef4410-4669-4490-9944-823e5450d96b","ios":"levelo://app?vid=50ef4410-4669-4490-9944-823e5450d96b"},"vehicle_type_id":"4","last_reported":1707170862,"current_range_meters":10400,"station_id":"ce4bgg92rcd13ifvqb30","pricing_plan_id":"free"},{"bike_id":"26dfc857-121a-45a5-9871-f0689f3e8e44","system_id":"levelo_inurba_marseille","lat":43.305364,"lon":5.384119,"is_reserved":false,"is_disabled":false,"rental_uris":{"android":"levelo://app?vid=26dfc857-121a-45a5-9871-f0689f3e8e44","ios":"levelo://app?vid=26dfc857-121a-45a5-9871-f0689f3e8e44"},"vehicle_type_id":"4","last_reported":1707170862,"current_range_meters":26400,"station_id":"ce4bgg92rcd13ifvqb30","pricing_plan_id":"free"},{"bike_id":"64a23d42-750a-4261-a71b-2e0efa217dd6","system_id":"levelo_inurba_marseille","lat":43.311722,"lon":5.387247,"is_reserved":false,"is_disabled":false,"rental_uris":{"android":"levelo://app?vid=64a23d42-750a-4261-a71b-2e0efa217dd6","ios":"levelo://app?vid=64a23d42-750a-4261-a71b-2e0efa217dd6"},"vehicle_type_id":"4","last_reported":1707170862,"current_range_meters":30400,"station_id":"ce4bgv12rcd13ifvqcp0","pricing_plan_id":"free"},{"bike_id":"69f55d5a-bc56-4c1f-9f71-69c4115cbdca","system_id":"levelo_inurba_marseille","lat":43.311722,"lon":5.387247,"is_reserved":false,"is_disabled":false,"rental_uris":{"android":"levelo://app?vid=69f55d5a-bc56-4c1f-9f71-69c4115cbdca","ios":"levelo://app?vid=69f55d5a-bc56-4c1f-9f71-69c4115cbdca"},"vehicle_type_id":"4","last_reported":1707170862,"current_range_meters":26000,"station_id":"ce4bgv12rcd13ifvqcp0","pricing_plan_id":"free"},{"bike_id":"e4af9860-fd73-4ffa-98be-4d90fa316446","system_id":"levelo_inurba_marseille","lat":43.297794,"lon":5.370888,"is_reserved":false,"is_disabled":false,"rental_uris":{"android":"levelo://app?vid=e4af9860-fd73-4ffa-98be-4d90fa316446","ios":"levelo://app?vid=e4af9860-fd73-4ffa-98be-4d90fa316446"},"vehicle_type_id":"4","last_reported":1707170862,"current_range_meters":14400,"station_id":"ce4bgop2rcd13ifvqc1g","pricing_plan_id":"free"},{"bike_id":"0210949c-3f39-45fb-9d4d-ff3a27e7b63b","system_id":"levelo_inurba_marseille","lat":43.29783,"lon":5.371152,"is_reserved":false,"is_disabled":false,"rental_uris":{"android":"levelo://app?vid=0210949c-3f39-45fb-9d4d-ff3a27e7b63b","ios":"levelo://app?vid=0210949c-3f39-45fb-9d4d-ff3a27e7b63b"},"vehicle_type_id":"4","last_reported":1707170862,"current_range_meters":28800,"station_id":"ce4bgop2rcd13ifvqc1g","pricing_plan_id":"free"},{"bike_id":"d1a9283b-3f8a-4d4a-88bd-e22c8fb3bf88","system_id":"levelo_inurba_marseille","lat":43.297774,"lon":5.370875,"is_reserved":false,"is_disabled":false,"rental_uris":{"android":"levelo://app?vid=d1a9283b-3f8a-4d4a-88bd-e22c8fb3bf88","ios":"levelo://app?vid=d1a9283b-3f8a-4d4a-88bd-e22c8fb3bf88"},"vehicle_type_id":"4","last_reported":1707170862,"current_range_meters":24800,"station_id":"ce4bgop2rcd13ifvqc1g","pricing_plan_id":"free"},{"bike_id":"642b6707-55dc-499a-96df-e1892771c3ea","system_id":"levelo_inurba_marseille","lat":43.322872,"lon":5.382756,"is_reserved":false,"is_disabled":false,"rental_uris":{"android":"levelo://app?vid=642b6707-55dc-499a-96df-e1892771c3ea","ios":"levelo://app?vid=642b6707-55dc-499a-96df-e1892771c3ea"},"vehicle_type_id":"4","last_reported":1707170862,"current_range_meters":30800,"station_id":"ce4bhr12rcd13ifvqhqg","pricing_plan_id":"free"},{"bike_id":"acb0b184-9bf5-46e1-94e9-e996216dd8a0","system_id":"levelo_inurba_marseille","lat":43.322872,"lon":5.382756,"is_reserved":false,"is_disabled":false,"rental_uris":{"android":"levelo://app?vid=acb0b184-9bf5-46e1-94e9-e996216dd8a0","ios":"levelo://app?vid=acb0b184-9bf5-46e1-94e9-e996216dd8a0"},"vehicle_type_id":"4","last_reported":1707170862,"current_range_meters":30400,"station_id":"ce4bhr12rcd13ifvqhqg","pricing_plan_id":"free"},{"bike_id":"067f66e1-9b81-4458-bb45-5c10a4329356","system_id":"levelo_inurba_marseille","lat":43.322872,"lon":5.382756,"is_reserved":false,"is_disabled":false,"rental_uris":{"android":"levelo://app?vid=067f66e1-9b81-4458-bb45-5c10a4329356","ios":"levelo://app?vid=067f66e1-9b81-4458-bb45-5c10a4329356"},"vehicle_type_id":"4","last_reported":1707170862,"current_range_meters":31600,"station_id":"ce4bhr12rcd13ifvqhqg","pricing_plan_id":"free"},{"bike_id":"2d35649e-5275-4c8a-a083-907f59a3cbfa","system_id":"levelo_inurba_marseille","lat":43.322872,"lon":5.382756,"is_reserved":false,"is_disabled":false,"rental_uris":{"android":"levelo://app?vid=2d35649e-5275-4c8a-a083-907f59a3cbfa","ios":"levelo://app?vid=2d35649e-5275-4c8a-a083-907f59a3cbfa"},"vehicle_type_id":"4","last_reported":1707170862,"current_range_meters":5600,"station_id":"ce4bhr12rcd13ifvqhqg","pricing_plan_id":"free"},{"bike_id":"1900e2ea-9239-49b1-933e-57903fa99707","system_id":"levelo_inurba_marseille","lat":43.32826,"lon":5.36695,"is_reserved":false,"is_disabled":false,"rental_uris":{"android":"levelo://app?vid=1900e2ea-9239-49b1-933e-57903fa99707","ios":"levelo://app?vid=1900e2ea-9239-49b1-933e-57903fa99707"},"vehicle_type_id":"4","last_reported":1707170862,"current_range_meters":5600,"station_id":"ce4bhs92rcd13ifvqi0g","pricing_plan_id":"free"},{"bike_id":"068825c3-0e30-4039-9991-0f25d2c61d15","system_id":"levelo_inurba_marseille","lat":43.32827,"lon":5.36691,"is_reserved":false,"is_disabled":false,"rental_uris":{"android":"levelo://app?vid=068825c3-0e30-4039-9991-0f25d2c61d15","ios":"levelo://app?vid=068825c3-0e30-4039-9991-0f25d2c61d15"},"vehicle_type_id":"4","last_reported":1707170862,"current_range_meters":19600,"station_id":"ce4bhs92rcd13ifvqi0g","pricing_plan_id":"free"},{"bike_id":"a7f79efb-1544-4a9c-90b1-63c97e52bce2","system_id":"levelo_inurba_marseille","lat":43.328371,"lon":5.366909,"is_reserved":false,"is_disabled":false,"rental_uris":{"android":"levelo://app?vid=a7f79efb-1544-4a9c-90b1-63c97e52bce2","ios":"levelo://app?vid=a7f79efb-1544-4a9c-90b1-63c97e52bce2"},"vehicle_type_id":"4","last_reported":1707170862,"current_range_meters":14800,"station_id":"ce4bhs92rcd13ifvqi0g","pricing_plan_id":"free"},{"bike_id":"1b62cabb-9b3a-466c-ad29-dbce48b4ca81","system_id":"levelo_inurba_marseille","lat":43.32829,"lon":5.36678,"is_reserved":false,"is_disabled":false,"rental_uris":{"android":"levelo://app?vid=1b62cabb-9b3a-466c-ad29-dbce48b4ca81","ios":"levelo://app?vid=1b62cabb-9b3a-466c-ad29-dbce48b4ca81"},"vehicle_type_id":"4","last_reported":1707170862,"current_range_meters":31600,"station_id":"ce4bhs92rcd13ifvqi0g","pricing_plan_id":"free"},{"bike_id":"36243836-0b62-45d5-b00e-078a5c9e3add","system_id":"levelo_inurba_marseille","lat":43.32829,"lon":5.36677,"is_reserved":false,"is_disabled":false,"rental_uris":{"android":"levelo://app?vid=36243836-0b62-45d5-b00e-078a5c9e3add","ios":"levelo://app?vid=36243836-0b62-45d5-b00e-078a5c9e3add"},"vehicle_type_id":"4","last_reported":1707170862,"current_range_meters":9200,"station_id":"ce4bhs92rcd13ifvqi0g","pricing_plan_id":"free"},{"bike_id":"6cd6b889-8d57-4573-b2a2-aa0a2c9636a8","system_id":"levelo_inurba_marseille","lat":43.328371,"lon":5.366909,"is_reserved":false,"is_disabled":false,"rental_uris":{"android":"levelo://app?vid=6cd6b889-8d57-4573-b2a2-aa0a2c9636a8","ios":"levelo://app?vid=6cd6b889-8d57-4573-b2a2-aa0a2c9636a8"},"vehicle_type_id":"4","last_reported":1707170862,"current_range_meters":4800,"station_id":"ce4bhs92rcd13ifvqi0g","pricing_plan_id":"free"},{"bike_id":"9ce9a188-09f7-43f0-9439-fcd52731acf1","system_id":"levelo_inurba_marseille","lat":43.328371,"lon":5.366909,"is_reserved":false,"is_disabled":false,"rental_uris":{"android":"levelo://app?vid=9ce9a188-09f7-43f0-9439-fcd52731acf1","ios":"levelo://app?vid=9ce9a188-09f7-43f0-9439-fcd52731acf1"},"vehicle_type_id":"4","last_reported":1707170862,"current_range_meters":30400,"station_id":"ce4bhs92rcd13ifvqi0g","pricing_plan_id":"free"},{"bike_id":"62aabb2b-c9f9-48ea-a3a4-e4eb79305b81","system_id":"levelo_inurba_marseille","lat":43.328371,"lon":5.366909,"is_reserved":false,"is_disabled":false,"rental_uris":{"android":"levelo://app?vid=62aabb2b-c9f9-48ea-a3a4-e4eb79305b81","ios":"levelo://app?vid=62aabb2b-c9f9-48ea-a3a4-e4eb79305b81"},"vehicle_type_id":"4","last_reported":1707170862,"current_range_meters":7600,"station_id":"ce4bhs92rcd13ifvqi0g","pricing_plan_id":"free"},{"bike_id":"06bce1ca-ce4b-4ab5-8885-d98d4090f0f5","system_id":"levelo_inurba_marseille","lat":43.32835,"lon":5.36674,"is_reserved":false,"is_disabled":false,"rental_uris":{"android":"levelo://app?vid=06bce1ca-ce4b-4ab5-8885-d98d4090f0f5","ios":"levelo://app?vid=06bce1ca-ce4b-4ab5-8885-d98d4090f0f5"},"vehicle_type_id":"4","last_reported":1707170862,"current_range_meters":27600,"station_id":"ce4bhs92rcd13ifvqi0g","pricing_plan_id":"free"},{"bike_id":"98fb478c-2c90-4367-b2fe-e3ba20dfacae","system_id":"levelo_inurba_marseille","lat":43.314888,"lon":5.388899,"is_reserved":false,"is_disabled":false,"rental_uris":{"android":"levelo://app?vid=98fb478c-2c90-4367-b2fe-e3ba20dfacae","ios":"levelo://app?vid=98fb478c-2c90-4367-b2fe-e3ba20dfacae"},"vehicle_type_id":"4","last_reported":1707170862,"current_range_meters":25200,"station_id":"","pricing_plan_id":"free"},{"bike_id":"50b08a96-15dc-4a5d-9d6a-a831c874af68","system_id":"levelo_inurba_marseille","lat":43.297781,"lon":5.375384,"is_reserved":false,"is_disabled":false,"rental_uris":{"android":"levelo://app?vid=50b08a96-15dc-4a5d-9d6a-a831c874af68","ios":"levelo://app?vid=50b08a96-15dc-4a5d-9d6a-a831c874af68"},"vehicle_type_id":"4","last_reported":1707170862,"current_range_meters":15200,"station_id":"","pricing_plan_id":"free"},{"bike_id":"869c01b8-9afa-48d7-a628-653c52d1e330","system_id":"levelo_inurba_marseille","lat":43.299028,"lon":5.381509,"is_reserved":false,"is_disabled":false,"rental_uris":{"android":"levelo://app?vid=869c01b8-9afa-48d7-a628-653c52d1e330","ios":"levelo://app?vid=869c01b8-9afa-48d7-a628-653c52d1e330"},"vehicle_type_id":"4","last_reported":1707170862,"current_range_meters":12800,"station_id":"ce4bgj12rcd13ifvqbc0","pricing_plan_id":"free"},{"bike_id":"c0ccc028-d0b8-49ed-a86b-571f96fc550a","system_id":"levelo_inurba_marseille","lat":43.299028,"lon":5.381509,"is_reserved":false,"is_disabled":false,"rental_uris":{"android":"levelo://app?vid=c0ccc028-d0b8-49ed-a86b-571f96fc550a","ios":"levelo://app?vid=c0ccc028-d0b8-49ed-a86b-571f96fc550a"},"vehicle_type_id":"4","last_reported":1707170862,"current_range_meters":29200,"station_id":"ce4bgj12rcd13ifvqbc0","pricing_plan_id":"free"},{"bike_id":"e1c31943-c6a1-4069-8257-d9f3674fe881","system_id":"levelo_inurba_marseille","lat":43.3095,"lon":5.39026,"is_reserved":false,"is_disabled":false,"rental_uris":{"android":"levelo://app?vid=e1c31943-c6a1-4069-8257-d9f3674fe881","ios":"levelo://app?vid=e1c31943-c6a1-4069-8257-d9f3674fe881"},"vehicle_type_id":"4","last_reported":1707170862,"current_range_meters":18400,"station_id":"ce4bgup2rcd13ifvqco0","pricing_plan_id":"free"},{"bike_id":"2ae0df79-2c92-4e9d-a4cd-1b09866554b1","system_id":"levelo_inurba_marseille","lat":43.317557,"lon":5.390173,"is_reserved":false,"is_disabled":false,"rental_uris":{"android":"levelo://app?vid=2ae0df79-2c92-4e9d-a4cd-1b09866554b1","ios":"levelo://app?vid=2ae0df79-2c92-4e9d-a4cd-1b09866554b1"},"vehicle_type_id":"4","last_reported":1707170862,"current_range_meters":28800,"station_id":"ce4bhqp2rcd13ifvqhng","pricing_plan_id":"free"},{"bike_id":"986b6c9f-34fd-4704-b8c8-1b7477a55cca","system_id":"levelo_inurba_marseille","lat":43.309589,"lon":5.390258,"is_reserved":false,"is_disabled":false,"rental_uris":{"android":"levelo://app?vid=986b6c9f-34fd-4704-b8c8-1b7477a55cca","ios":"levelo://app?vid=986b6c9f-34fd-4704-b8c8-1b7477a55cca"},"vehicle_type_id":"4","last_reported":1707170862,"current_range_meters":15600,"station_id":"ce4bgup2rcd13ifvqco0","pricing_plan_id":"free"},{"bike_id":"fa3edbd3-ffbc-4447-9335-a817e916f6da","system_id":"levelo_inurba_marseille","lat":43.309589,"lon":5.390258,"is_reserved":false,"is_disabled":false,"rental_uris":{"android":"levelo://app?vid=fa3edbd3-ffbc-4447-9335-a817e916f6da","ios":"levelo://app?vid=fa3edbd3-ffbc-4447-9335-a817e916f6da"},"vehicle_type_id":"4","last_reported":1707170862,"current_range_meters":28000,"station_id":"ce4bgup2rcd13ifvqco0","pricing_plan_id":"free"},{"bike_id":"4f752cbf-1ca6-40f6-9f34-64f0e4f4d3c2","system_id":"levelo_inurba_marseille","lat":43.309589,"lon":5.390258,"is_reserved":false,"is_disabled":false,"rental_uris":{"android":"levelo://app?vid=4f752cbf-1ca6-40f6-9f34-64f0e4f4d3c2","ios":"levelo://app?vid=4f752cbf-1ca6-40f6-9f34-64f0e4f4d3c2"},"vehicle_type_id":"4","last_reported":1707170862,"current_range_meters":15600,"station_id":"ce4bgup2rcd13ifvqco0","pricing_plan_id":"free"},{"bike_id":"90e02760-0c46-48ac-8940-38c33e37b113","system_id":"levelo_inurba_marseille","lat":43.309589,"lon":5.390258,"is_reserved":false,"is_disabled":false,"rental_uris":{"android":"levelo://app?vid=90e02760-0c46-48ac-8940-38c33e37b113","ios":"levelo://app?vid=90e02760-0c46-48ac-8940-38c33e37b113"},"vehicle_type_id":"4","last_reported":1707170862,"current_range_meters":6800,"station_id":"ce4bgup2rcd13ifvqco0","pricing_plan_id":"free"},{"bike_id":"a19f363b-05e8-4df9-894f-36b478efe04a","system_id":"levelo_inurba_marseille","lat":43.309589,"lon":5.390258,"is_reserved":false,"is_disabled":false,"rental_uris":{"android":"levelo://app?vid=a19f363b-05e8-4df9-894f-36b478efe04a","ios":"levelo://app?vid=a19f363b-05e8-4df9-894f-36b478efe04a"},"vehicle_type_id":"4","last_reported":1707170862,"current_range_meters":21200,"station_id":"ce4bgup2rcd13ifvqco0","pricing_plan_id":"free"},{"bike_id":"2180d5bc-a1ff-4f28-924e-e51b8a619ab4","system_id":"levelo_inurba_marseille","lat":43.317553,"lon":5.390133,"is_reserved":false,"is_disabled":false,"rental_uris":{"android":"levelo://app?vid=2180d5bc-a1ff-4f28-924e-e51b8a619ab4","ios":"levelo://app?vid=2180d5bc-a1ff-4f28-924e-e51b8a619ab4"},"vehicle_type_id":"4","last_reported":1707170862,"current_range_meters":15600,"station_id":"ce4bhqp2rcd13ifvqhng","pricing_plan_id":"free"},{"bike_id":"5f4bbffd-645d-4394-9713-b7d56fa1e800","system_id":"levelo_inurba_marseille","lat":43.31762,"lon":5.390138,"is_reserved":false,"is_disabled":false,"rental_uris":{"android":"levelo://app?vid=5f4bbffd-645d-4394-9713-b7d56fa1e800","ios":"levelo://app?vid=5f4bbffd-645d-4394-9713-b7d56fa1e800"},"vehicle_type_id":"4","last_reported":1707170862,"current_range_meters":9600,"station_id":"ce4bhqp2rcd13ifvqhng","pricing_plan_id":"free"},{"bike_id":"bf5596bb-afb2-46d3-93c4-a5572d7667f8","system_id":"levelo_inurba_marseille","lat":43.31759,"lon":5.39018,"is_reserved":false,"is_disabled":false,"rental_uris":{"android":"levelo://app?vid=bf5596bb-afb2-46d3-93c4-a5572d7667f8","ios":"levelo://app?vid=bf5596bb-afb2-46d3-93c4-a5572d7667f8"},"vehicle_type_id":"4","last_reported":1707170862,"current_range_meters":30800,"station_id":"ce4bhqp2rcd13ifvqhng","pricing_plan_id":"free"},{"bike_id":"b023b8de-681e-4a4f-921a-3ae0e7b207d6","system_id":"levelo_inurba_marseille","lat":43.317557,"lon":5.390173,"is_reserved":false,"is_disabled":false,"rental_uris":{"android":"levelo://app?vid=b023b8de-681e-4a4f-921a-3ae0e7b207d6","ios":"levelo://app?vid=b023b8de-681e-4a4f-921a-3ae0e7b207d6"},"vehicle_type_id":"4","last_reported":1707170862,"current_range_meters":24400,"station_id":"ce4bhqp2rcd13ifvqhng","pricing_plan_id":"free"},{"bike_id":"40a85205-af79-43c2-bdc9-257280312aae","system_id":"levelo_inurba_marseille","lat":43.31756,"lon":5.39023,"is_reserved":false,"is_disabled":false,"rental_uris":{"android":"levelo://app?vid=40a85205-af79-43c2-bdc9-257280312aae","ios":"levelo://app?vid=40a85205-af79-43c2-bdc9-257280312aae"},"vehicle_type_id":"4","last_reported":1707170862,"current_range_meters":23200,"station_id":"ce4bhqp2rcd13ifvqhng","pricing_plan_id":"free"},{"bike_id":"79d14bfc-06e9-4997-bbc0-831f3a1a5fef","system_id":"levelo_inurba_marseille","lat":43.31756,"lon":5.39025,"is_reserved":false,"is_disabled":false,"rental_uris":{"android":"levelo://app?vid=79d14bfc-06e9-4997-bbc0-831f3a1a5fef","ios":"levelo://app?vid=79d14bfc-06e9-4997-bbc0-831f3a1a5fef"},"vehicle_type_id":"4","last_reported":1707170862,"current_range_meters":0,"station_id":"ce4bhqp2rcd13ifvqhng","pricing_plan_id":"free"},{"bike_id":"1033b78d-f901-4cfa-8cae-54cb1e173be4","system_id":"levelo_inurba_marseille","lat":43.31757,"lon":5.39026,"is_reserved":false,"is_disabled":false,"rental_uris":{"android":"levelo://app?vid=1033b78d-f901-4cfa-8cae-54cb1e173be4","ios":"levelo://app?vid=1033b78d-f901-4cfa-8cae-54cb1e173be4"},"vehicle_type_id":"4","last_reported":1707170862,"current_range_meters":25200,"station_id":"ce4bhqp2rcd13ifvqhng","pricing_plan_id":"free"},{"bike_id":"2036d8e5-20c5-4d21-922c-61fbcf72be64","system_id":"levelo_inurba_marseille","lat":43.304408,"lon":5.388812,"is_reserved":false,"is_disabled":false,"rental_uris":{"android":"levelo://app?vid=2036d8e5-20c5-4d21-922c-61fbcf72be64","ios":"levelo://app?vid=2036d8e5-20c5-4d21-922c-61fbcf72be64"},"vehicle_type_id":"4","last_reported":1707170862,"current_range_meters":6800,"station_id":"ce4bgk12rcd13ifvqbi0","pricing_plan_id":"free"},{"bike_id":"14a2a679-c5ab-4cd5-b946-9401b58cb7c7","system_id":"levelo_inurba_marseille","lat":43.29573,"lon":5.375,"is_reserved":false,"is_disabled":false,"rental_uris":{"android":"levelo://app?vid=14a2a679-c5ab-4cd5-b946-9401b58cb7c7","ios":"levelo://app?vid=14a2a679-c5ab-4cd5-b946-9401b58cb7c7"},"vehicle_type_id":"4","last_reported":1707170862,"current_range_meters":31200,"station_id":"ce4bgh92rcd13ifvqb50","pricing_plan_id":"free"},{"bike_id":"72b6bb8b-c7df-47dd-8b9f-c49ac5c18da3","system_id":"levelo_inurba_marseille","lat":43.304368,"lon":5.388836,"is_reserved":false,"is_disabled":false,"rental_uris":{"android":"levelo://app?vid=72b6bb8b-c7df-47dd-8b9f-c49ac5c18da3","ios":"levelo://app?vid=72b6bb8b-c7df-47dd-8b9f-c49ac5c18da3"},"vehicle_type_id":"4","last_reported":1707170862,"current_range_meters":20800,"station_id":"ce4bgk12rcd13ifvqbi0","pricing_plan_id":"free"},{"bike_id":"33cafe7d-6a9a-4de8-9ce8-d77b985be376","system_id":"levelo_inurba_marseille","lat":43.304218,"lon":5.38877,"is_reserved":false,"is_disabled":false,"rental_uris":{"android":"levelo://app?vid=33cafe7d-6a9a-4de8-9ce8-d77b985be376","ios":"levelo://app?vid=33cafe7d-6a9a-4de8-9ce8-d77b985be376"},"vehicle_type_id":"4","last_reported":1707170862,"current_range_meters":2000,"station_id":"ce4bgk12rcd13ifvqbi0","pricing_plan_id":"free"},{"bike_id":"1805feba-fa9d-48b3-8273-91b849c82b90","system_id":"levelo_inurba_marseille","lat":43.304274,"lon":5.388873,"is_reserved":false,"is_disabled":false,"rental_uris":{"android":"levelo://app?vid=1805feba-fa9d-48b3-8273-91b849c82b90","ios":"levelo://app?vid=1805feba-fa9d-48b3-8273-91b849c82b90"},"vehicle_type_id":"4","last_reported":1707170862,"current_range_meters":27200,"station_id":"ce4bgk12rcd13ifvqbi0","pricing_plan_id":"free"},{"bike_id":"158faa6a-c384-478a-baf9-7d129a844858","system_id":"levelo_inurba_marseille","lat":43.30438,"lon":5.38893,"is_reserved":false,"is_disabled":false,"rental_uris":{"android":"levelo://app?vid=158faa6a-c384-478a-baf9-7d129a844858","ios":"levelo://app?vid=158faa6a-c384-478a-baf9-7d129a844858"},"vehicle_type_id":"4","last_reported":1707170862,"current_range_meters":12000,"station_id":"ce4bgk12rcd13ifvqbi0","pricing_plan_id":"free"},{"bike_id":"bb44c58b-c05c-480f-8c27-e2e6bf908e53","system_id":"levelo_inurba_marseille","lat":43.30432,"lon":5.38891,"is_reserved":false,"is_disabled":false,"rental_uris":{"android":"levelo://app?vid=bb44c58b-c05c-480f-8c27-e2e6bf908e53","ios":"levelo://app?vid=bb44c58b-c05c-480f-8c27-e2e6bf908e53"},"vehicle_type_id":"4","last_reported":1707170862,"current_range_meters":24000,"station_id":"ce4bgk12rcd13ifvqbi0","pricing_plan_id":"free"},{"bike_id":"6fe77834-24ec-40bf-bd72-2ee8f3678e74","system_id":"levelo_inurba_marseille","lat":43.30431,"lon":5.38891,"is_reserved":false,"is_disabled":false,"rental_uris":{"android":"levelo://app?vid=6fe77834-24ec-40bf-bd72-2ee8f3678e74","ios":"levelo://app?vid=6fe77834-24ec-40bf-bd72-2ee8f3678e74"},"vehicle_type_id":"4","last_reported":1707170862,"current_range_meters":30400,"station_id":"ce4bgk12rcd13ifvqbi0","pricing_plan_id":"free"},{"bike_id":"ad4eda27-f819-46f2-97d2-2b8a94a95886","system_id":"levelo_inurba_marseille","lat":43.296277,"lon":5.377108,"is_reserved":false,"is_disabled":false,"rental_uris":{"android":"levelo://app?vid=ad4eda27-f819-46f2-97d2-2b8a94a95886","ios":"levelo://app?vid=ad4eda27-f819-46f2-97d2-2b8a94a95886"},"vehicle_type_id":"4","last_reported":1707170862,"current_range_meters":8800,"station_id":"ce4bgi92rcd13ifvqb90","pricing_plan_id":"free"},{"bike_id":"a34c4a0b-ba08-474f-9956-20e7bb33d586","system_id":"levelo_inurba_marseille","lat":43.304278,"lon":5.388868,"is_reserved":false,"is_disabled":false,"rental_uris":{"android":"levelo://app?vid=a34c4a0b-ba08-474f-9956-20e7bb33d586","ios":"levelo://app?vid=a34c4a0b-ba08-474f-9956-20e7bb33d586"},"vehicle_type_id":"4","last_reported":1707170862,"current_range_meters":30000,"station_id":"ce4bgk12rcd13ifvqbi0","pricing_plan_id":"free"},{"bike_id":"93557e75-511e-4bed-a082-d407a68e9d59","system_id":"levelo_inurba_marseille","lat":43.304278,"lon":5.388868,"is_reserved":false,"is_disabled":false,"rental_uris":{"android":"levelo://app?vid=93557e75-511e-4bed-a082-d407a68e9d59","ios":"levelo://app?vid=93557e75-511e-4bed-a082-d407a68e9d59"},"vehicle_type_id":"4","last_reported":1707170862,"current_range_meters":16800,"station_id":"ce4bgk12rcd13ifvqbi0","pricing_plan_id":"free"},{"bike_id":"ebbe71c2-e550-41d1-86df-b9e8c4a7b313","system_id":"levelo_inurba_marseille","lat":43.29608,"lon":5.37718,"is_reserved":false,"is_disabled":false,"rental_uris":{"android":"levelo://app?vid=ebbe71c2-e550-41d1-86df-b9e8c4a7b313","ios":"levelo://app?vid=ebbe71c2-e550-41d1-86df-b9e8c4a7b313"},"vehicle_type_id":"4","last_reported":1707170862,"current_range_meters":25600,"station_id":"ce4bgi92rcd13ifvqb90","pricing_plan_id":"free"},{"bike_id":"4ac27ddc-3414-4f05-b38e-0b90bcc21d19","system_id":"levelo_inurba_marseille","lat":43.295279,"lon":5.375048,"is_reserved":false,"is_disabled":false,"rental_uris":{"android":"levelo://app?vid=4ac27ddc-3414-4f05-b38e-0b90bcc21d19","ios":"levelo://app?vid=4ac27ddc-3414-4f05-b38e-0b90bcc21d19"},"vehicle_type_id":"4","last_reported":1707170862,"current_range_meters":20800,"station_id":"ce4bgkp2rcd13ifvqbmg","pricing_plan_id":"free"},{"bike_id":"8480d9f7-f5a5-4e5f-837e-01e4caae9e45","system_id":"levelo_inurba_marseille","lat":43.32367,"lon":5.388836,"is_reserved":false,"is_disabled":false,"rental_uris":{"android":"levelo://app?vid=8480d9f7-f5a5-4e5f-837e-01e4caae9e45","ios":"levelo://app?vid=8480d9f7-f5a5-4e5f-837e-01e4caae9e45"},"vehicle_type_id":"4","last_reported":1707170862,"current_range_meters":31200,"station_id":"ce4bhqp2rcd13ifvqhog","pricing_plan_id":"free"},{"bike_id":"a671ba84-b7e4-4d4f-9ad5-03ba550b9cb2","system_id":"levelo_inurba_marseille","lat":43.32367,"lon":5.388836,"is_reserved":false,"is_disabled":false,"rental_uris":{"android":"levelo://app?vid=a671ba84-b7e4-4d4f-9ad5-03ba550b9cb2","ios":"levelo://app?vid=a671ba84-b7e4-4d4f-9ad5-03ba550b9cb2"},"vehicle_type_id":"4","last_reported":1707170862,"current_range_meters":31200,"station_id":"ce4bhqp2rcd13ifvqhog","pricing_plan_id":"free"},{"bike_id":"dcddecd6-5758-46ce-92ae-47071e0dbc69","system_id":"levelo_inurba_marseille","lat":43.32367,"lon":5.388836,"is_reserved":false,"is_disabled":false,"rental_uris":{"android":"levelo://app?vid=dcddecd6-5758-46ce-92ae-47071e0dbc69","ios":"levelo://app?vid=dcddecd6-5758-46ce-92ae-47071e0dbc69"},"vehicle_type_id":"4","last_reported":1707170862,"current_range_meters":28800,"station_id":"ce4bhqp2rcd13ifvqhog","pricing_plan_id":"free"},{"bike_id":"ffbb2138-bb75-4165-a2b5-f3272a2be3e3","system_id":"levelo_inurba_marseille","lat":43.32367,"lon":5.388836,"is_reserved":false,"is_disabled":false,"rental_uris":{"android":"levelo://app?vid=ffbb2138-bb75-4165-a2b5-f3272a2be3e3","ios":"levelo://app?vid=ffbb2138-bb75-4165-a2b5-f3272a2be3e3"},"vehicle_type_id":"4","last_reported":1707170862,"current_range_meters":13200,"station_id":"ce4bhqp2rcd13ifvqhog","pricing_plan_id":"free"},{"bike_id":"61e81190-42e2-45ed-a13d-88af3455070d","system_id":"levelo_inurba_marseille","lat":43.29601,"lon":5.381084,"is_reserved":false,"is_disabled":false,"rental_uris":{"android":"levelo://app?vid=61e81190-42e2-45ed-a13d-88af3455070d","ios":"levelo://app?vid=61e81190-42e2-45ed-a13d-88af3455070d"},"vehicle_type_id":"4","last_reported":1707170862,"current_range_meters":21200,"station_id":"ce4bgl12rcd13ifvqbo0","pricing_plan_id":"free"},{"bike_id":"8e33c9cf-c78c-4aa6-ae16-af87fb46df58","system_id":"levelo_inurba_marseille","lat":43.29602,"lon":5.381084,"is_reserved":false,"is_disabled":false,"rental_uris":{"android":"levelo://app?vid=8e33c9cf-c78c-4aa6-ae16-af87fb46df58","ios":"levelo://app?vid=8e33c9cf-c78c-4aa6-ae16-af87fb46df58"},"vehicle_type_id":"4","last_reported":1707170862,"current_range_meters":7200,"station_id":"ce4bgl12rcd13ifvqbo0","pricing_plan_id":"free"},{"bike_id":"cf7e3586-a0de-4c8b-a33a-96117b4181bd","system_id":"levelo_inurba_marseille","lat":43.292749,"lon":5.368402,"is_reserved":false,"is_disabled":false,"rental_uris":{"android":"levelo://app?vid=cf7e3586-a0de-4c8b-a33a-96117b4181bd","ios":"levelo://app?vid=cf7e3586-a0de-4c8b-a33a-96117b4181bd"},"vehicle_type_id":"4","last_reported":1707170862,"current_range_meters":13200,"station_id":"ce4bhbp2rcd13ifvqesg","pricing_plan_id":"free"},{"bike_id":"29623b3a-ac6a-45db-89a6-486d88380fc1","system_id":"levelo_inurba_marseille","lat":43.305994,"lon":5.393687,"is_reserved":false,"is_disabled":false,"rental_uris":{"android":"levelo://app?vid=29623b3a-ac6a-45db-89a6-486d88380fc1","ios":"levelo://app?vid=29623b3a-ac6a-45db-89a6-486d88380fc1"},"vehicle_type_id":"4","last_reported":1707170862,"current_range_meters":25600,"station_id":"ce4bh0p2rcd13ifvqd80","pricing_plan_id":"free"},{"bike_id":"3e131715-07a3-430a-a5cf-eccf19db0881","system_id":"levelo_inurba_marseille","lat":43.30588,"lon":5.39349,"is_reserved":false,"is_disabled":false,"rental_uris":{"android":"levelo://app?vid=3e131715-07a3-430a-a5cf-eccf19db0881","ios":"levelo://app?vid=3e131715-07a3-430a-a5cf-eccf19db0881"},"vehicle_type_id":"4","last_reported":1707170862,"current_range_meters":18400,"station_id":"ce4bh0p2rcd13ifvqd80","pricing_plan_id":"free"},{"bike_id":"e6693499-32d1-44ec-96b9-06fe854f4e7f","system_id":"levelo_inurba_marseille","lat":43.305994,"lon":5.393687,"is_reserved":false,"is_disabled":false,"rental_uris":{"android":"levelo://app?vid=e6693499-32d1-44ec-96b9-06fe854f4e7f","ios":"levelo://app?vid=e6693499-32d1-44ec-96b9-06fe854f4e7f"},"vehicle_type_id":"4","last_reported":1707170862,"current_range_meters":22800,"station_id":"ce4bh0p2rcd13ifvqd80","pricing_plan_id":"free"},{"bike_id":"58ce6322-a791-48f0-8bcc-95a1314180fc","system_id":"levelo_inurba_marseille","lat":43.29508,"lon":5.38132,"is_reserved":false,"is_disabled":false,"rental_uris":{"android":"levelo://app?vid=58ce6322-a791-48f0-8bcc-95a1314180fc","ios":"levelo://app?vid=58ce6322-a791-48f0-8bcc-95a1314180fc"},"vehicle_type_id":"4","last_reported":1707170862,"current_range_meters":12000,"station_id":"","pricing_plan_id":"free"},{"bike_id":"6d66f854-732c-48ac-8f63-b816b527ad32","system_id":"levelo_inurba_marseille","lat":43.303002,"lon":5.392142,"is_reserved":false,"is_disabled":false,"rental_uris":{"android":"levelo://app?vid=6d66f854-732c-48ac-8f63-b816b527ad32","ios":"levelo://app?vid=6d66f854-732c-48ac-8f63-b816b527ad32"},"vehicle_type_id":"4","last_reported":1707170862,"current_range_meters":16400,"station_id":"ce4bgkh2rcd13ifvqbk0","pricing_plan_id":"free"},{"bike_id":"7c3d2f5e-08a1-467e-9dfb-4eb70571d2f5","system_id":"levelo_inurba_marseille","lat":43.303091,"lon":5.392119,"is_reserved":false,"is_disabled":false,"rental_uris":{"android":"levelo://app?vid=7c3d2f5e-08a1-467e-9dfb-4eb70571d2f5","ios":"levelo://app?vid=7c3d2f5e-08a1-467e-9dfb-4eb70571d2f5"},"vehicle_type_id":"4","last_reported":1707170862,"current_range_meters":29200,"station_id":"ce4bgkh2rcd13ifvqbk0","pricing_plan_id":"free"},{"bike_id":"adfdc9f5-7ebd-4d79-b7bc-e8de606f1e98","system_id":"levelo_inurba_marseille","lat":43.303002,"lon":5.392142,"is_reserved":false,"is_disabled":false,"rental_uris":{"android":"levelo://app?vid=adfdc9f5-7ebd-4d79-b7bc-e8de606f1e98","ios":"levelo://app?vid=adfdc9f5-7ebd-4d79-b7bc-e8de606f1e98"},"vehicle_type_id":"4","last_reported":1707170862,"current_range_meters":20800,"station_id":"ce4bgkh2rcd13ifvqbk0","pricing_plan_id":"free"},{"bike_id":"4febbf1b-a352-407c-ab11-cac3abcddc0e","system_id":"levelo_inurba_marseille","lat":43.303002,"lon":5.392142,"is_reserved":false,"is_disabled":false,"rental_uris":{"android":"levelo://app?vid=4febbf1b-a352-407c-ab11-cac3abcddc0e","ios":"levelo://app?vid=4febbf1b-a352-407c-ab11-cac3abcddc0e"},"vehicle_type_id":"4","last_reported":1707170862,"current_range_meters":18000,"station_id":"ce4bgkh2rcd13ifvqbk0","pricing_plan_id":"free"},{"bike_id":"3ca41cfa-809e-41c3-b667-b7cf099388fd","system_id":"levelo_inurba_marseille","lat":43.302992,"lon":5.392136,"is_reserved":false,"is_disabled":false,"rental_uris":{"android":"levelo://app?vid=3ca41cfa-809e-41c3-b667-b7cf099388fd","ios":"levelo://app?vid=3ca41cfa-809e-41c3-b667-b7cf099388fd"},"vehicle_type_id":"4","last_reported":1707170862,"current_range_meters":15200,"station_id":"ce4bgkh2rcd13ifvqbk0","pricing_plan_id":"free"},{"bike_id":"46a9cdab-4c33-47f9-bea2-7afb472dab95","system_id":"levelo_inurba_marseille","lat":43.300852,"lon":5.390859,"is_reserved":false,"is_disabled":false,"rental_uris":{"android":"levelo://app?vid=46a9cdab-4c33-47f9-bea2-7afb472dab95","ios":"levelo://app?vid=46a9cdab-4c33-47f9-bea2-7afb472dab95"},"vehicle_type_id":"4","last_reported":1707170862,"current_range_meters":24800,"station_id":"ce4bh192rcd13ifvqdb0","pricing_plan_id":"free"},{"bike_id":"2b54da50-da42-469c-9fa6-27782163ca0e","system_id":"levelo_inurba_marseille","lat":43.292311,"lon":5.360731,"is_reserved":false,"is_disabled":false,"rental_uris":{"android":"levelo://app?vid=2b54da50-da42-469c-9fa6-27782163ca0e","ios":"levelo://app?vid=2b54da50-da42-469c-9fa6-27782163ca0e"},"vehicle_type_id":"4","last_reported":1707170862,"current_range_meters":31600,"station_id":"ce4bhbh2rcd13ifvqeqg","pricing_plan_id":"free"},{"bike_id":"1597e819-5b10-413c-8eff-964f283950c8","system_id":"levelo_inurba_marseille","lat":43.300852,"lon":5.390859,"is_reserved":false,"is_disabled":false,"rental_uris":{"android":"levelo://app?vid=1597e819-5b10-413c-8eff-964f283950c8","ios":"levelo://app?vid=1597e819-5b10-413c-8eff-964f283950c8"},"vehicle_type_id":"4","last_reported":1707170862,"current_range_meters":30400,"station_id":"ce4bh192rcd13ifvqdb0","pricing_plan_id":"free"},{"bike_id":"fc848809-688a-4985-875d-67f0418d07fa","system_id":"levelo_inurba_marseille","lat":43.30093,"lon":5.39066,"is_reserved":false,"is_disabled":false,"rental_uris":{"android":"levelo://app?vid=fc848809-688a-4985-875d-67f0418d07fa","ios":"levelo://app?vid=fc848809-688a-4985-875d-67f0418d07fa"},"vehicle_type_id":"4","last_reported":1707170862,"current_range_meters":4400,"station_id":"ce4bh192rcd13ifvqdb0","pricing_plan_id":"free"},{"bike_id":"50ffd882-31ac-4176-a11e-0756f70de274","system_id":"levelo_inurba_marseille","lat":43.292311,"lon":5.360731,"is_reserved":false,"is_disabled":false,"rental_uris":{"android":"levelo://app?vid=50ffd882-31ac-4176-a11e-0756f70de274","ios":"levelo://app?vid=50ffd882-31ac-4176-a11e-0756f70de274"},"vehicle_type_id":"4","last_reported":1707170862,"current_range_meters":16000,"station_id":"ce4bhbh2rcd13ifvqeqg","pricing_plan_id":"free"},{"bike_id":"53b904be-74d9-4696-8647-d050bdb453d4","system_id":"levelo_inurba_marseille","lat":43.291671,"lon":5.371575,"is_reserved":false,"is_disabled":false,"rental_uris":{"android":"levelo://app?vid=53b904be-74d9-4696-8647-d050bdb453d4","ios":"levelo://app?vid=53b904be-74d9-4696-8647-d050bdb453d4"},"vehicle_type_id":"4","last_reported":1707170862,"current_range_meters":31200,"station_id":"ce4bha92rcd13ifvqeh0","pricing_plan_id":"free"},{"bike_id":"5ee21015-9a4d-4577-813c-9c84c8aab881","system_id":"levelo_inurba_marseille","lat":43.298764,"lon":5.388973,"is_reserved":false,"is_disabled":false,"rental_uris":{"android":"levelo://app?vid=5ee21015-9a4d-4577-813c-9c84c8aab881","ios":"levelo://app?vid=5ee21015-9a4d-4577-813c-9c84c8aab881"},"vehicle_type_id":"4","last_reported":1707170862,"current_range_meters":18800,"station_id":"ce4bh392rcd13ifvqdl0","pricing_plan_id":"free"},{"bike_id":"e11ff7e5-c753-4092-bc27-75dd3ddba33f","system_id":"levelo_inurba_marseille","lat":43.298764,"lon":5.388973,"is_reserved":false,"is_disabled":false,"rental_uris":{"android":"levelo://app?vid=e11ff7e5-c753-4092-bc27-75dd3ddba33f","ios":"levelo://app?vid=e11ff7e5-c753-4092-bc27-75dd3ddba33f"},"vehicle_type_id":"4","last_reported":1707170862,"current_range_meters":800,"station_id":"ce4bh392rcd13ifvqdl0","pricing_plan_id":"free"},{"bike_id":"6e18c83c-4423-4b39-ad69-146e43212d20","system_id":"levelo_inurba_marseille","lat":43.298764,"lon":5.388973,"is_reserved":false,"is_disabled":false,"rental_uris":{"android":"levelo://app?vid=6e18c83c-4423-4b39-ad69-146e43212d20","ios":"levelo://app?vid=6e18c83c-4423-4b39-ad69-146e43212d20"},"vehicle_type_id":"4","last_reported":1707170862,"current_range_meters":25600,"station_id":"ce4bh392rcd13ifvqdl0","pricing_plan_id":"free"},{"bike_id":"8324566f-6423-49f4-843c-99f04a68cac0","system_id":"levelo_inurba_marseille","lat":43.298764,"lon":5.388973,"is_reserved":false,"is_disabled":false,"rental_uris":{"android":"levelo://app?vid=8324566f-6423-49f4-843c-99f04a68cac0","ios":"levelo://app?vid=8324566f-6423-49f4-843c-99f04a68cac0"},"vehicle_type_id":"4","last_reported":1707170862,"current_range_meters":28800,"station_id":"ce4bh392rcd13ifvqdl0","pricing_plan_id":"free"},{"bike_id":"af155b65-7503-49a1-acd7-96ad546c2bb4","system_id":"levelo_inurba_marseille","lat":43.298764,"lon":5.388973,"is_reserved":false,"is_disabled":false,"rental_uris":{"android":"levelo://app?vid=af155b65-7503-49a1-acd7-96ad546c2bb4","ios":"levelo://app?vid=af155b65-7503-49a1-acd7-96ad546c2bb4"},"vehicle_type_id":"4","last_reported":1707170862,"current_range_meters":24400,"station_id":"ce4bh392rcd13ifvqdl0","pricing_plan_id":"free"},{"bike_id":"a0f80542-26d8-4903-ae17-0e124c678084","system_id":"levelo_inurba_marseille","lat":43.291994,"lon":5.357886,"is_reserved":false,"is_disabled":false,"rental_uris":{"android":"levelo://app?vid=a0f80542-26d8-4903-ae17-0e124c678084","ios":"levelo://app?vid=a0f80542-26d8-4903-ae17-0e124c678084"},"vehicle_type_id":"4","last_reported":1707170862,"current_range_meters":22800,"station_id":"ce4bhb12rcd13ifvqel0","pricing_plan_id":"free"},{"bike_id":"764e7bf2-e37b-48ab-b09a-d8389fa7ca99","system_id":"levelo_inurba_marseille","lat":43.308894,"lon":5.396336,"is_reserved":false,"is_disabled":false,"rental_uris":{"android":"levelo://app?vid=764e7bf2-e37b-48ab-b09a-d8389fa7ca99","ios":"levelo://app?vid=764e7bf2-e37b-48ab-b09a-d8389fa7ca99"},"vehicle_type_id":"4","last_reported":1707170862,"current_range_meters":16800,"station_id":"ce4bh012rcd13ifvqcv0","pricing_plan_id":"free"},{"bike_id":"99e50f6b-1a9c-46d7-ae1f-d3c40ccc505c","system_id":"levelo_inurba_marseille","lat":43.30884,"lon":5.396324,"is_reserved":false,"is_disabled":false,"rental_uris":{"android":"levelo://app?vid=99e50f6b-1a9c-46d7-ae1f-d3c40ccc505c","ios":"levelo://app?vid=99e50f6b-1a9c-46d7-ae1f-d3c40ccc505c"},"vehicle_type_id":"4","last_reported":1707170862,"current_range_meters":28000,"station_id":"ce4bh012rcd13ifvqcv0","pricing_plan_id":"free"},{"bike_id":"d92a2dd8-c86b-4665-824d-ff216b077688","system_id":"levelo_inurba_marseille","lat":43.291994,"lon":5.357886,"is_reserved":false,"is_disabled":false,"rental_uris":{"android":"levelo://app?vid=d92a2dd8-c86b-4665-824d-ff216b077688","ios":"levelo://app?vid=d92a2dd8-c86b-4665-824d-ff216b077688"},"vehicle_type_id":"4","last_reported":1707170862,"current_range_meters":0,"station_id":"ce4bhb12rcd13ifvqel0","pricing_plan_id":"free"},{"bike_id":"63e641d1-ae91-4f5d-8666-76945c47a59f","system_id":"levelo_inurba_marseille","lat":43.309038,"lon":5.396546,"is_reserved":false,"is_disabled":false,"rental_uris":{"android":"levelo://app?vid=63e641d1-ae91-4f5d-8666-76945c47a59f","ios":"levelo://app?vid=63e641d1-ae91-4f5d-8666-76945c47a59f"},"vehicle_type_id":"4","last_reported":1707170862,"current_range_meters":29600,"station_id":"ce4bh012rcd13ifvqcv0","pricing_plan_id":"free"},{"bike_id":"69bc5529-7d4d-45ec-9a30-4d9356d03867","system_id":"levelo_inurba_marseille","lat":43.308828,"lon":5.39638,"is_reserved":false,"is_disabled":false,"rental_uris":{"android":"levelo://app?vid=69bc5529-7d4d-45ec-9a30-4d9356d03867","ios":"levelo://app?vid=69bc5529-7d4d-45ec-9a30-4d9356d03867"},"vehicle_type_id":"4","last_reported":1707170862,"current_range_meters":6400,"station_id":"ce4bh012rcd13ifvqcv0","pricing_plan_id":"free"},{"bike_id":"a308fa7e-cfac-4908-a9b8-68902fdf16fb","system_id":"levelo_inurba_marseille","lat":43.313291,"lon":5.396838,"is_reserved":false,"is_disabled":false,"rental_uris":{"android":"levelo://app?vid=a308fa7e-cfac-4908-a9b8-68902fdf16fb","ios":"levelo://app?vid=a308fa7e-cfac-4908-a9b8-68902fdf16fb"},"vehicle_type_id":"4","last_reported":1707170862,"current_range_meters":3600,"station_id":"ce4bgvp2rcd13ifvqcu0","pricing_plan_id":"free"},{"bike_id":"f5feeb80-cf01-4560-a6c3-eec7ab8745d0","system_id":"levelo_inurba_marseille","lat":43.3133,"lon":5.39687,"is_reserved":false,"is_disabled":false,"rental_uris":{"android":"levelo://app?vid=f5feeb80-cf01-4560-a6c3-eec7ab8745d0","ios":"levelo://app?vid=f5feeb80-cf01-4560-a6c3-eec7ab8745d0"},"vehicle_type_id":"4","last_reported":1707170862,"current_range_meters":0,"station_id":"ce4bgvp2rcd13ifvqcu0","pricing_plan_id":"free"},{"bike_id":"263290b7-3f5f-4422-9b7a-33f2739d74f4","system_id":"levelo_inurba_marseille","lat":43.291924,"lon":5.357991,"is_reserved":false,"is_disabled":false,"rental_uris":{"android":"levelo://app?vid=263290b7-3f5f-4422-9b7a-33f2739d74f4","ios":"levelo://app?vid=263290b7-3f5f-4422-9b7a-33f2739d74f4"},"vehicle_type_id":"4","last_reported":1707170862,"current_range_meters":0,"station_id":"ce4bhb12rcd13ifvqel0","pricing_plan_id":"free"},{"bike_id":"d50e4198-709e-4bf6-ac70-eb9c531c6d7c","system_id":"levelo_inurba_marseille","lat":43.31331,"lon":5.39689,"is_reserved":false,"is_disabled":false,"rental_uris":{"android":"levelo://app?vid=d50e4198-709e-4bf6-ac70-eb9c531c6d7c","ios":"levelo://app?vid=d50e4198-709e-4bf6-ac70-eb9c531c6d7c"},"vehicle_type_id":"4","last_reported":1707170862,"current_range_meters":3600,"station_id":"ce4bgvp2rcd13ifvqcu0","pricing_plan_id":"free"},{"bike_id":"7a39ef44-818b-4cad-8a92-86a8a2ab2638","system_id":"levelo_inurba_marseille","lat":43.309038,"lon":5.396546,"is_reserved":false,"is_disabled":false,"rental_uris":{"android":"levelo://app?vid=7a39ef44-818b-4cad-8a92-86a8a2ab2638","ios":"levelo://app?vid=7a39ef44-818b-4cad-8a92-86a8a2ab2638"},"vehicle_type_id":"4","last_reported":1707170862,"current_range_meters":10400,"station_id":"ce4bh012rcd13ifvqcv0","pricing_plan_id":"free"},{"bike_id":"1ddeecfd-cfa5-49b6-9cdb-2c7f29fe1be0","system_id":"levelo_inurba_marseille","lat":43.291994,"lon":5.357886,"is_reserved":false,"is_disabled":false,"rental_uris":{"android":"levelo://app?vid=1ddeecfd-cfa5-49b6-9cdb-2c7f29fe1be0","ios":"levelo://app?vid=1ddeecfd-cfa5-49b6-9cdb-2c7f29fe1be0"},"vehicle_type_id":"4","last_reported":1707170862,"current_range_meters":14000,"station_id":"ce4bhb12rcd13ifvqel0","pricing_plan_id":"free"},{"bike_id":"00b2ceb5-080f-4b6b-8f11-43ff114ce4a8","system_id":"levelo_inurba_marseille","lat":43.313291,"lon":5.396838,"is_reserved":false,"is_disabled":false,"rental_uris":{"android":"levelo://app?vid=00b2ceb5-080f-4b6b-8f11-43ff114ce4a8","ios":"levelo://app?vid=00b2ceb5-080f-4b6b-8f11-43ff114ce4a8"},"vehicle_type_id":"4","last_reported":1707170862,"current_range_meters":18400,"station_id":"ce4bgvp2rcd13ifvqcu0","pricing_plan_id":"free"},{"bike_id":"b2d69ced-47ee-4cb8-87b8-d2050325ab8f","system_id":"levelo_inurba_marseille","lat":43.309038,"lon":5.396546,"is_reserved":false,"is_disabled":false,"rental_uris":{"android":"levelo://app?vid=b2d69ced-47ee-4cb8-87b8-d2050325ab8f","ios":"levelo://app?vid=b2d69ced-47ee-4cb8-87b8-d2050325ab8f"},"vehicle_type_id":"4","last_reported":1707170862,"current_range_meters":21200,"station_id":"ce4bh012rcd13ifvqcv0","pricing_plan_id":"free"},{"bike_id":"2ddb9959-d35b-4c21-96c7-383dadd13f9a","system_id":"levelo_inurba_marseille","lat":43.3133,"lon":5.39691,"is_reserved":false,"is_disabled":false,"rental_uris":{"android":"levelo://app?vid=2ddb9959-d35b-4c21-96c7-383dadd13f9a","ios":"levelo://app?vid=2ddb9959-d35b-4c21-96c7-383dadd13f9a"},"vehicle_type_id":"4","last_reported":1707170862,"current_range_meters":7200,"station_id":"ce4bgvp2rcd13ifvqcu0","pricing_plan_id":"free"},{"bike_id":"0631623c-4a9e-4247-bdad-cc5d5cc2457f","system_id":"levelo_inurba_marseille","lat":43.31328,"lon":5.39692,"is_reserved":false,"is_disabled":false,"rental_uris":{"android":"levelo://app?vid=0631623c-4a9e-4247-bdad-cc5d5cc2457f","ios":"levelo://app?vid=0631623c-4a9e-4247-bdad-cc5d5cc2457f"},"vehicle_type_id":"4","last_reported":1707170862,"current_range_meters":2800,"station_id":"ce4bgvp2rcd13ifvqcu0","pricing_plan_id":"free"},{"bike_id":"6a09dc80-7eb1-4ddd-8d94-06f0801c356c","system_id":"levelo_inurba_marseille","lat":43.313291,"lon":5.396838,"is_reserved":false,"is_disabled":false,"rental_uris":{"android":"levelo://app?vid=6a09dc80-7eb1-4ddd-8d94-06f0801c356c","ios":"levelo://app?vid=6a09dc80-7eb1-4ddd-8d94-06f0801c356c"},"vehicle_type_id":"4","last_reported":1707170862,"current_range_meters":22000,"station_id":"ce4bgvp2rcd13ifvqcu0","pricing_plan_id":"free"},{"bike_id":"eaef20c1-ab88-43b8-8eff-87ab0cbd9be6","system_id":"levelo_inurba_marseille","lat":43.313303,"lon":5.39693,"is_reserved":false,"is_disabled":false,"rental_uris":{"android":"levelo://app?vid=eaef20c1-ab88-43b8-8eff-87ab0cbd9be6","ios":"levelo://app?vid=eaef20c1-ab88-43b8-8eff-87ab0cbd9be6"},"vehicle_type_id":"4","last_reported":1707170862,"current_range_meters":30000,"station_id":"ce4bgvp2rcd13ifvqcu0","pricing_plan_id":"free"},{"bike_id":"7189e1db-2648-4106-8cc0-ca80993b8e39","system_id":"levelo_inurba_marseille","lat":43.313291,"lon":5.396838,"is_reserved":false,"is_disabled":false,"rental_uris":{"android":"levelo://app?vid=7189e1db-2648-4106-8cc0-ca80993b8e39","ios":"levelo://app?vid=7189e1db-2648-4106-8cc0-ca80993b8e39"},"vehicle_type_id":"4","last_reported":1707170862,"current_range_meters":12800,"station_id":"ce4bgvp2rcd13ifvqcu0","pricing_plan_id":"free"},{"bike_id":"bd0334eb-789b-4ae2-b843-6a42e0c0f9a4","system_id":"levelo_inurba_marseille","lat":43.313291,"lon":5.396838,"is_reserved":false,"is_disabled":false,"rental_uris":{"android":"levelo://app?vid=bd0334eb-789b-4ae2-b843-6a42e0c0f9a4","ios":"levelo://app?vid=bd0334eb-789b-4ae2-b843-6a42e0c0f9a4"},"vehicle_type_id":"4","last_reported":1707170862,"current_range_meters":26000,"station_id":"ce4bgvp2rcd13ifvqcu0","pricing_plan_id":"free"},{"bike_id":"d5f7fbe3-b606-4835-a2c8-e85284b426d5","system_id":"levelo_inurba_marseille","lat":43.309047,"lon":5.396551,"is_reserved":false,"is_disabled":false,"rental_uris":{"android":"levelo://app?vid=d5f7fbe3-b606-4835-a2c8-e85284b426d5","ios":"levelo://app?vid=d5f7fbe3-b606-4835-a2c8-e85284b426d5"},"vehicle_type_id":"4","last_reported":1707170862,"current_range_meters":5200,"station_id":"ce4bh012rcd13ifvqcv0","pricing_plan_id":"free"},{"bike_id":"f854cbab-ad84-46d7-8b64-e84752f72ad5","system_id":"levelo_inurba_marseille","lat":43.309047,"lon":5.396551,"is_reserved":false,"is_disabled":false,"rental_uris":{"android":"levelo://app?vid=f854cbab-ad84-46d7-8b64-e84752f72ad5","ios":"levelo://app?vid=f854cbab-ad84-46d7-8b64-e84752f72ad5"},"vehicle_type_id":"4","last_reported":1707170862,"current_range_meters":30800,"station_id":"ce4bh012rcd13ifvqcv0","pricing_plan_id":"free"},{"bike_id":"44681513-b64f-4df8-a1df-e2842fff5354","system_id":"levelo_inurba_marseille","lat":43.31331,"lon":5.39695,"is_reserved":false,"is_disabled":false,"rental_uris":{"android":"levelo://app?vid=44681513-b64f-4df8-a1df-e2842fff5354","ios":"levelo://app?vid=44681513-b64f-4df8-a1df-e2842fff5354"},"vehicle_type_id":"4","last_reported":1707170862,"current_range_meters":1200,"station_id":"ce4bgvp2rcd13ifvqcu0","pricing_plan_id":"free"},{"bike_id":"7447e538-93ea-496b-9139-de1f49c84e8d","system_id":"levelo_inurba_marseille","lat":43.31331,"lon":5.39695,"is_reserved":false,"is_disabled":false,"rental_uris":{"android":"levelo://app?vid=7447e538-93ea-496b-9139-de1f49c84e8d","ios":"levelo://app?vid=7447e538-93ea-496b-9139-de1f49c84e8d"},"vehicle_type_id":"4","last_reported":1707170862,"current_range_meters":30000,"station_id":"ce4bgvp2rcd13ifvqcu0","pricing_plan_id":"free"},{"bike_id":"24acd523-dffc-4e9d-bdb3-17e5be54ba12","system_id":"levelo_inurba_marseille","lat":43.313235,"lon":5.396956,"is_reserved":false,"is_disabled":false,"rental_uris":{"android":"levelo://app?vid=24acd523-dffc-4e9d-bdb3-17e5be54ba12","ios":"levelo://app?vid=24acd523-dffc-4e9d-bdb3-17e5be54ba12"},"vehicle_type_id":"4","last_reported":1707170862,"current_range_meters":4800,"station_id":"ce4bgvp2rcd13ifvqcu0","pricing_plan_id":"free"},{"bike_id":"e3ce010b-9cae-4639-95a5-e8ba0c545a2e","system_id":"levelo_inurba_marseille","lat":43.31323,"lon":5.39697,"is_reserved":false,"is_disabled":false,"rental_uris":{"android":"levelo://app?vid=e3ce010b-9cae-4639-95a5-e8ba0c545a2e","ios":"levelo://app?vid=e3ce010b-9cae-4639-95a5-e8ba0c545a2e"},"vehicle_type_id":"4","last_reported":1707170862,"current_range_meters":24000,"station_id":"ce4bgvp2rcd13ifvqcu0","pricing_plan_id":"free"},{"bike_id":"028b69b2-5e8e-4463-8efe-bc9cb2f47340","system_id":"levelo_inurba_marseille","lat":43.31332,"lon":5.39697,"is_reserved":false,"is_disabled":false,"rental_uris":{"android":"levelo://app?vid=028b69b2-5e8e-4463-8efe-bc9cb2f47340","ios":"levelo://app?vid=028b69b2-5e8e-4463-8efe-bc9cb2f47340"},"vehicle_type_id":"4","last_reported":1707170862,"current_range_meters":22000,"station_id":"ce4bgvp2rcd13ifvqcu0","pricing_plan_id":"free"},{"bike_id":"3f1adaa1-f082-4b01-b176-05fce19e59a0","system_id":"levelo_inurba_marseille","lat":43.31326,"lon":5.39698,"is_reserved":false,"is_disabled":false,"rental_uris":{"android":"levelo://app?vid=3f1adaa1-f082-4b01-b176-05fce19e59a0","ios":"levelo://app?vid=3f1adaa1-f082-4b01-b176-05fce19e59a0"},"vehicle_type_id":"4","last_reported":1707170862,"current_range_meters":22400,"station_id":"ce4bgvp2rcd13ifvqcu0","pricing_plan_id":"free"},{"bike_id":"ff0b2937-db5e-461e-b998-b08c472342eb","system_id":"levelo_inurba_marseille","lat":43.31324,"lon":5.397,"is_reserved":false,"is_disabled":false,"rental_uris":{"android":"levelo://app?vid=ff0b2937-db5e-461e-b998-b08c472342eb","ios":"levelo://app?vid=ff0b2937-db5e-461e-b998-b08c472342eb"},"vehicle_type_id":"4","last_reported":1707170862,"current_range_meters":1200,"station_id":"ce4bgvp2rcd13ifvqcu0","pricing_plan_id":"free"},{"bike_id":"aff7b945-31be-4f2c-bc30-c744e348bb62","system_id":"levelo_inurba_marseille","lat":43.313291,"lon":5.396838,"is_reserved":false,"is_disabled":false,"rental_uris":{"android":"levelo://app?vid=aff7b945-31be-4f2c-bc30-c744e348bb62","ios":"levelo://app?vid=aff7b945-31be-4f2c-bc30-c744e348bb62"},"vehicle_type_id":"4","last_reported":1707170862,"current_range_meters":26400,"station_id":"ce4bgvp2rcd13ifvqcu0","pricing_plan_id":"free"},{"bike_id":"fe9a8a76-eac5-40c7-a1d5-daf22af3c9d2","system_id":"levelo_inurba_marseille","lat":43.313291,"lon":5.396838,"is_reserved":false,"is_disabled":false,"rental_uris":{"android":"levelo://app?vid=fe9a8a76-eac5-40c7-a1d5-daf22af3c9d2","ios":"levelo://app?vid=fe9a8a76-eac5-40c7-a1d5-daf22af3c9d2"},"vehicle_type_id":"4","last_reported":1707170862,"current_range_meters":24400,"station_id":"ce4bgvp2rcd13ifvqcu0","pricing_plan_id":"free"},{"bike_id":"93bb70ec-9ab9-4935-b816-df1199adf729","system_id":"levelo_inurba_marseille","lat":43.309038,"lon":5.396546,"is_reserved":false,"is_disabled":false,"rental_uris":{"android":"levelo://app?vid=93bb70ec-9ab9-4935-b816-df1199adf729","ios":"levelo://app?vid=93bb70ec-9ab9-4935-b816-df1199adf729"},"vehicle_type_id":"4","last_reported":1707170862,"current_range_meters":14000,"station_id":"ce4bh012rcd13ifvqcv0","pricing_plan_id":"free"},{"bike_id":"3d78babf-b6b5-494b-8319-25c9c350bed9","system_id":"levelo_inurba_marseille","lat":43.313291,"lon":5.396838,"is_reserved":false,"is_disabled":false,"rental_uris":{"android":"levelo://app?vid=3d78babf-b6b5-494b-8319-25c9c350bed9","ios":"levelo://app?vid=3d78babf-b6b5-494b-8319-25c9c350bed9"},"vehicle_type_id":"4","last_reported":1707170862,"current_range_meters":30800,"station_id":"ce4bgvp2rcd13ifvqcu0","pricing_plan_id":"free"},{"bike_id":"4419a724-5255-4916-9ab6-08c2c5ae2fc3","system_id":"levelo_inurba_marseille","lat":43.316361,"lon":5.396746,"is_reserved":false,"is_disabled":false,"rental_uris":{"android":"levelo://app?vid=4419a724-5255-4916-9ab6-08c2c5ae2fc3","ios":"levelo://app?vid=4419a724-5255-4916-9ab6-08c2c5ae2fc3"},"vehicle_type_id":"4","last_reported":1707170862,"current_range_meters":22800,"station_id":"","pricing_plan_id":"free"},{"bike_id":"5958fd2b-78ce-408e-9df9-b106c2e8521f","system_id":"levelo_inurba_marseille","lat":43.295349,"lon":5.385484,"is_reserved":false,"is_disabled":false,"rental_uris":{"android":"levelo://app?vid=5958fd2b-78ce-408e-9df9-b106c2e8521f","ios":"levelo://app?vid=5958fd2b-78ce-408e-9df9-b106c2e8521f"},"vehicle_type_id":"4","last_reported":1707170862,"current_range_meters":29600,"station_id":"ce4bgih2rcd13ifvqba0","pricing_plan_id":"free"},{"bike_id":"05ca97bf-6068-4d10-b646-1980f8f47eaf","system_id":"levelo_inurba_marseille","lat":43.29529,"lon":5.385581,"is_reserved":false,"is_disabled":false,"rental_uris":{"android":"levelo://app?vid=05ca97bf-6068-4d10-b646-1980f8f47eaf","ios":"levelo://app?vid=05ca97bf-6068-4d10-b646-1980f8f47eaf"},"vehicle_type_id":"4","last_reported":1707170862,"current_range_meters":26400,"station_id":"ce4bgih2rcd13ifvqba0","pricing_plan_id":"free"},{"bike_id":"75073c43-5de9-401e-b7db-1b8a5550737a","system_id":"levelo_inurba_marseille","lat":43.30215,"lon":5.39468,"is_reserved":false,"is_disabled":false,"rental_uris":{"android":"levelo://app?vid=75073c43-5de9-401e-b7db-1b8a5550737a","ios":"levelo://app?vid=75073c43-5de9-401e-b7db-1b8a5550737a"},"vehicle_type_id":"4","last_reported":1707170862,"current_range_meters":2800,"station_id":"ce4bh0p2rcd13ifvqd70","pricing_plan_id":"free"},{"bike_id":"c43c66c8-47ae-4a02-96c5-4d507d6a780d","system_id":"levelo_inurba_marseille","lat":43.290631,"lon":5.359244,"is_reserved":false,"is_disabled":false,"rental_uris":{"android":"levelo://app?vid=c43c66c8-47ae-4a02-96c5-4d507d6a780d","ios":"levelo://app?vid=c43c66c8-47ae-4a02-96c5-4d507d6a780d"},"vehicle_type_id":"4","last_reported":1707170862,"current_range_meters":31200,"station_id":"ce4bha92rcd13ifvqeg0","pricing_plan_id":"free"},{"bike_id":"12b3451f-b1ed-4494-986d-fc5ece406b00","system_id":"levelo_inurba_marseille","lat":43.29422,"lon":5.38622,"is_reserved":false,"is_disabled":false,"rental_uris":{"android":"levelo://app?vid=12b3451f-b1ed-4494-986d-fc5ece406b00","ios":"levelo://app?vid=12b3451f-b1ed-4494-986d-fc5ece406b00"},"vehicle_type_id":"4","last_reported":1707170862,"current_range_meters":18400,"station_id":"ce4bh2h2rcd13ifvqdh0","pricing_plan_id":"free"},{"bike_id":"20a34e85-b25a-4fc6-8e4c-0f8b268df227","system_id":"levelo_inurba_marseille","lat":43.294203,"lon":5.38627,"is_reserved":false,"is_disabled":false,"rental_uris":{"android":"levelo://app?vid=20a34e85-b25a-4fc6-8e4c-0f8b268df227","ios":"levelo://app?vid=20a34e85-b25a-4fc6-8e4c-0f8b268df227"},"vehicle_type_id":"4","last_reported":1707170862,"current_range_meters":29600,"station_id":"ce4bh2h2rcd13ifvqdh0","pricing_plan_id":"free"},{"bike_id":"25af15b5-ca88-4519-9fa9-205aa1bf441d","system_id":"levelo_inurba_marseille","lat":43.290327,"lon":5.375711,"is_reserved":false,"is_disabled":false,"rental_uris":{"android":"levelo://app?vid=25af15b5-ca88-4519-9fa9-205aa1bf441d","ios":"levelo://app?vid=25af15b5-ca88-4519-9fa9-205aa1bf441d"},"vehicle_type_id":"4","last_reported":1707170862,"current_range_meters":26000,"station_id":"ce4bh692rcd13ifvqe90","pricing_plan_id":"free"},{"bike_id":"83f3e67d-c6da-4188-91dc-4b5a7f82723a","system_id":"levelo_inurba_marseille","lat":43.294153,"lon":5.386305,"is_reserved":false,"is_disabled":false,"rental_uris":{"android":"levelo://app?vid=83f3e67d-c6da-4188-91dc-4b5a7f82723a","ios":"levelo://app?vid=83f3e67d-c6da-4188-91dc-4b5a7f82723a"},"vehicle_type_id":"4","last_reported":1707170862,"current_range_meters":22000,"station_id":"ce4bh2h2rcd13ifvqdh0","pricing_plan_id":"free"},{"bike_id":"f82558e5-e692-4eb3-ae40-e5cbaad114cb","system_id":"levelo_inurba_marseille","lat":43.29417,"lon":5.386294,"is_reserved":false,"is_disabled":false,"rental_uris":{"android":"levelo://app?vid=f82558e5-e692-4eb3-ae40-e5cbaad114cb","ios":"levelo://app?vid=f82558e5-e692-4eb3-ae40-e5cbaad114cb"},"vehicle_type_id":"4","last_reported":1707170862,"current_range_meters":31200,"station_id":"ce4bh2h2rcd13ifvqdh0","pricing_plan_id":"free"},{"bike_id":"244e72d7-3ba8-4e26-8f32-dc3b75c656e7","system_id":"levelo_inurba_marseille","lat":43.289184,"lon":5.366408,"is_reserved":false,"is_disabled":false,"rental_uris":{"android":"levelo://app?vid=244e72d7-3ba8-4e26-8f32-dc3b75c656e7","ios":"levelo://app?vid=244e72d7-3ba8-4e26-8f32-dc3b75c656e7"},"vehicle_type_id":"4","last_reported":1707170862,"current_range_meters":31600,"station_id":"ce4bhap2rcd13ifvqek0","pricing_plan_id":"free"},{"bike_id":"ac506a4f-3e73-43c9-9d29-713ff3ed32cd","system_id":"levelo_inurba_marseille","lat":43.289184,"lon":5.366408,"is_reserved":false,"is_disabled":false,"rental_uris":{"android":"levelo://app?vid=ac506a4f-3e73-43c9-9d29-713ff3ed32cd","ios":"levelo://app?vid=ac506a4f-3e73-43c9-9d29-713ff3ed32cd"},"vehicle_type_id":"4","last_reported":1707170862,"current_range_meters":20800,"station_id":"ce4bhap2rcd13ifvqek0","pricing_plan_id":"free"},{"bike_id":"fc7d8f5c-f000-44ba-a383-e454b1baee36","system_id":"levelo_inurba_marseille","lat":43.289468,"lon":5.363719,"is_reserved":false,"is_disabled":false,"rental_uris":{"android":"levelo://app?vid=fc7d8f5c-f000-44ba-a383-e454b1baee36","ios":"levelo://app?vid=fc7d8f5c-f000-44ba-a383-e454b1baee36"},"vehicle_type_id":"4","last_reported":1707170862,"current_range_meters":30800,"station_id":"ce4bhc92rcd13ifvqetg","pricing_plan_id":"free"},{"bike_id":"e587fde1-6971-4fe2-aa05-e7d4efca285e","system_id":"levelo_inurba_marseille","lat":43.28936,"lon":5.36631,"is_reserved":false,"is_disabled":false,"rental_uris":{"android":"levelo://app?vid=e587fde1-6971-4fe2-aa05-e7d4efca285e","ios":"levelo://app?vid=e587fde1-6971-4fe2-aa05-e7d4efca285e"},"vehicle_type_id":"4","last_reported":1707170862,"current_range_meters":4000,"station_id":"ce4bhap2rcd13ifvqek0","pricing_plan_id":"free"},{"bike_id":"e2e49b5b-5def-4ac3-a348-3d5913850d6c","system_id":"levelo_inurba_marseille","lat":43.28935,"lon":5.36636,"is_reserved":false,"is_disabled":false,"rental_uris":{"android":"levelo://app?vid=e2e49b5b-5def-4ac3-a348-3d5913850d6c","ios":"levelo://app?vid=e2e49b5b-5def-4ac3-a348-3d5913850d6c"},"vehicle_type_id":"4","last_reported":1707170862,"current_range_meters":22800,"station_id":"ce4bhap2rcd13ifvqek0","pricing_plan_id":"free"},{"bike_id":"214c6f0a-8b71-4327-89b8-5e0d94d9557e","system_id":"levelo_inurba_marseille","lat":43.289468,"lon":5.363719,"is_reserved":false,"is_disabled":false,"rental_uris":{"android":"levelo://app?vid=214c6f0a-8b71-4327-89b8-5e0d94d9557e","ios":"levelo://app?vid=214c6f0a-8b71-4327-89b8-5e0d94d9557e"},"vehicle_type_id":"4","last_reported":1707170862,"current_range_meters":27200,"station_id":"ce4bhc92rcd13ifvqetg","pricing_plan_id":"free"},{"bike_id":"8249ce6c-6c4d-4143-a530-e120180786e5","system_id":"levelo_inurba_marseille","lat":43.28933,"lon":5.36639,"is_reserved":false,"is_disabled":false,"rental_uris":{"android":"levelo://app?vid=8249ce6c-6c4d-4143-a530-e120180786e5","ios":"levelo://app?vid=8249ce6c-6c4d-4143-a530-e120180786e5"},"vehicle_type_id":"4","last_reported":1707170862,"current_range_meters":0,"station_id":"ce4bhap2rcd13ifvqek0","pricing_plan_id":"free"},{"bike_id":"bda46709-d167-413b-b592-a6c1898a91a9","system_id":"levelo_inurba_marseille","lat":43.289468,"lon":5.363719,"is_reserved":false,"is_disabled":false,"rental_uris":{"android":"levelo://app?vid=bda46709-d167-413b-b592-a6c1898a91a9","ios":"levelo://app?vid=bda46709-d167-413b-b592-a6c1898a91a9"},"vehicle_type_id":"4","last_reported":1707170862,"current_range_meters":15600,"station_id":"ce4bhc92rcd13ifvqetg","pricing_plan_id":"free"},{"bike_id":"30e63aee-ebd5-4086-b7ae-6180eb491738","system_id":"levelo_inurba_marseille","lat":43.28931,"lon":5.36631,"is_reserved":false,"is_disabled":false,"rental_uris":{"android":"levelo://app?vid=30e63aee-ebd5-4086-b7ae-6180eb491738","ios":"levelo://app?vid=30e63aee-ebd5-4086-b7ae-6180eb491738"},"vehicle_type_id":"4","last_reported":1707170862,"current_range_meters":12800,"station_id":"ce4bhap2rcd13ifvqek0","pricing_plan_id":"free"},{"bike_id":"89bc92f6-2212-4fe1-a9bb-618a545329cc","system_id":"levelo_inurba_marseille","lat":43.289468,"lon":5.363719,"is_reserved":false,"is_disabled":false,"rental_uris":{"android":"levelo://app?vid=89bc92f6-2212-4fe1-a9bb-618a545329cc","ios":"levelo://app?vid=89bc92f6-2212-4fe1-a9bb-618a545329cc"},"vehicle_type_id":"4","last_reported":1707170862,"current_range_meters":10000,"station_id":"ce4bhc92rcd13ifvqetg","pricing_plan_id":"free"},{"bike_id":"c343f3fe-ab42-49e3-8f91-565e26a752f5","system_id":"levelo_inurba_marseille","lat":43.289468,"lon":5.363719,"is_reserved":false,"is_disabled":false,"rental_uris":{"android":"levelo://app?vid=c343f3fe-ab42-49e3-8f91-565e26a752f5","ios":"levelo://app?vid=c343f3fe-ab42-49e3-8f91-565e26a752f5"},"vehicle_type_id":"4","last_reported":1707170862,"current_range_meters":18000,"station_id":"ce4bhc92rcd13ifvqetg","pricing_plan_id":"free"},{"bike_id":"75a1e213-5dd1-4bda-85ab-92fb8600611a","system_id":"levelo_inurba_marseille","lat":43.289468,"lon":5.363719,"is_reserved":false,"is_disabled":false,"rental_uris":{"android":"levelo://app?vid=75a1e213-5dd1-4bda-85ab-92fb8600611a","ios":"levelo://app?vid=75a1e213-5dd1-4bda-85ab-92fb8600611a"},"vehicle_type_id":"4","last_reported":1707170862,"current_range_meters":28800,"station_id":"ce4bhc92rcd13ifvqetg","pricing_plan_id":"free"},{"bike_id":"85301286-d2f9-4d99-8402-83e8a43c0e72","system_id":"levelo_inurba_marseille","lat":43.292642,"lon":5.384254,"is_reserved":false,"is_disabled":false,"rental_uris":{"android":"levelo://app?vid=85301286-d2f9-4d99-8402-83e8a43c0e72","ios":"levelo://app?vid=85301286-d2f9-4d99-8402-83e8a43c0e72"},"vehicle_type_id":"4","last_reported":1707170862,"current_range_meters":0,"station_id":"ce4bh692rcd13ifvqea0","pricing_plan_id":"free"},{"bike_id":"f4a70ade-789b-4422-8de5-b8540d89a4ee","system_id":"levelo_inurba_marseille","lat":43.292736,"lon":5.384473,"is_reserved":false,"is_disabled":false,"rental_uris":{"android":"levelo://app?vid=f4a70ade-789b-4422-8de5-b8540d89a4ee","ios":"levelo://app?vid=f4a70ade-789b-4422-8de5-b8540d89a4ee"},"vehicle_type_id":"4","last_reported":1707170862,"current_range_meters":0,"station_id":"ce4bh692rcd13ifvqea0","pricing_plan_id":"free"},{"bike_id":"d461d8d2-2622-4af7-b997-7f42cac1e5e2","system_id":"levelo_inurba_marseille","lat":43.304296,"lon":5.397513,"is_reserved":false,"is_disabled":false,"rental_uris":{"android":"levelo://app?vid=d461d8d2-2622-4af7-b997-7f42cac1e5e2","ios":"levelo://app?vid=d461d8d2-2622-4af7-b997-7f42cac1e5e2"},"vehicle_type_id":"4","last_reported":1707170862,"current_range_meters":2400,"station_id":"ce4bh092rcd13ifvqd20","pricing_plan_id":"free"},{"bike_id":"1ab4c7dd-fe68-4704-a4be-a304fd0fb638","system_id":"levelo_inurba_marseille","lat":43.305994,"lon":5.393687,"is_reserved":false,"is_disabled":false,"rental_uris":{"android":"levelo://app?vid=1ab4c7dd-fe68-4704-a4be-a304fd0fb638","ios":"levelo://app?vid=1ab4c7dd-fe68-4704-a4be-a304fd0fb638"},"vehicle_type_id":"4","last_reported":1707170862,"current_range_meters":6800,"station_id":"ce4bh0p2rcd13ifvqd80","pricing_plan_id":"free"},{"bike_id":"b7baa3d1-5071-4fd3-8b38-f110752a25b3","system_id":"levelo_inurba_marseille","lat":43.292642,"lon":5.384254,"is_reserved":false,"is_disabled":false,"rental_uris":{"android":"levelo://app?vid=b7baa3d1-5071-4fd3-8b38-f110752a25b3","ios":"levelo://app?vid=b7baa3d1-5071-4fd3-8b38-f110752a25b3"},"vehicle_type_id":"4","last_reported":1707170862,"current_range_meters":6000,"station_id":"ce4bh692rcd13ifvqea0","pricing_plan_id":"free"},{"bike_id":"1c86cad6-c7e1-427d-96d7-3ed897233140","system_id":"levelo_inurba_marseille","lat":43.29014,"lon":5.35613,"is_reserved":false,"is_disabled":false,"rental_uris":{"android":"levelo://app?vid=1c86cad6-c7e1-427d-96d7-3ed897233140","ios":"levelo://app?vid=1c86cad6-c7e1-427d-96d7-3ed897233140"},"vehicle_type_id":"4","last_reported":1707170862,"current_range_meters":1200,"station_id":"ce4bhb92rcd13ifvqen0","pricing_plan_id":"free"},{"bike_id":"4184b14e-8b3e-406d-a783-b476af9c7d3b","system_id":"levelo_inurba_marseille","lat":43.290123,"lon":5.356111,"is_reserved":false,"is_disabled":false,"rental_uris":{"android":"levelo://app?vid=4184b14e-8b3e-406d-a783-b476af9c7d3b","ios":"levelo://app?vid=4184b14e-8b3e-406d-a783-b476af9c7d3b"},"vehicle_type_id":"4","last_reported":1707170862,"current_range_meters":0,"station_id":"ce4bhb92rcd13ifvqen0","pricing_plan_id":"free"},{"bike_id":"51600653-b20d-40fb-949d-d2317248c790","system_id":"levelo_inurba_marseille","lat":43.29008,"lon":5.35609,"is_reserved":false,"is_disabled":false,"rental_uris":{"android":"levelo://app?vid=51600653-b20d-40fb-949d-d2317248c790","ios":"levelo://app?vid=51600653-b20d-40fb-949d-d2317248c790"},"vehicle_type_id":"4","last_reported":1707170862,"current_range_meters":1200,"station_id":"ce4bhb92rcd13ifvqen0","pricing_plan_id":"free"},{"bike_id":"51e30060-191b-41e8-8bc5-bcd31c1dc89c","system_id":"levelo_inurba_marseille","lat":43.289741,"lon":5.378306,"is_reserved":false,"is_disabled":false,"rental_uris":{"android":"levelo://app?vid=51e30060-191b-41e8-8bc5-bcd31c1dc89c","ios":"levelo://app?vid=51e30060-191b-41e8-8bc5-bcd31c1dc89c"},"vehicle_type_id":"4","last_reported":1707170862,"current_range_meters":12000,"station_id":"ce4bh9p2rcd13ifvqed0","pricing_plan_id":"free"},{"bike_id":"3fe6d1f0-cf87-410d-bcbb-b9715ccec449","system_id":"levelo_inurba_marseille","lat":43.297815,"lon":5.393548,"is_reserved":false,"is_disabled":false,"rental_uris":{"android":"levelo://app?vid=3fe6d1f0-cf87-410d-bcbb-b9715ccec449","ios":"levelo://app?vid=3fe6d1f0-cf87-410d-bcbb-b9715ccec449"},"vehicle_type_id":"4","last_reported":1707170862,"current_range_meters":22800,"station_id":"chh1huq6cuj3fo74tm60","pricing_plan_id":"free"},{"bike_id":"b7a7d7af-765d-4977-bfad-5a7575380362","system_id":"levelo_inurba_marseille","lat":43.297815,"lon":5.393548,"is_reserved":false,"is_disabled":false,"rental_uris":{"android":"levelo://app?vid=b7a7d7af-765d-4977-bfad-5a7575380362","ios":"levelo://app?vid=b7a7d7af-765d-4977-bfad-5a7575380362"},"vehicle_type_id":"4","last_reported":1707170862,"current_range_meters":18400,"station_id":"chh1huq6cuj3fo74tm60","pricing_plan_id":"free"},{"bike_id":"383fecf4-c283-4ff2-a945-f97c814fb9e5","system_id":"levelo_inurba_marseille","lat":43.297815,"lon":5.393548,"is_reserved":false,"is_disabled":false,"rental_uris":{"android":"levelo://app?vid=383fecf4-c283-4ff2-a945-f97c814fb9e5","ios":"levelo://app?vid=383fecf4-c283-4ff2-a945-f97c814fb9e5"},"vehicle_type_id":"4","last_reported":1707170862,"current_range_meters":17200,"station_id":"chh1huq6cuj3fo74tm60","pricing_plan_id":"free"},{"bike_id":"94bb7d01-01a2-4190-8e02-6cf5c5556a05","system_id":"levelo_inurba_marseille","lat":43.297815,"lon":5.393548,"is_reserved":false,"is_disabled":false,"rental_uris":{"android":"levelo://app?vid=94bb7d01-01a2-4190-8e02-6cf5c5556a05","ios":"levelo://app?vid=94bb7d01-01a2-4190-8e02-6cf5c5556a05"},"vehicle_type_id":"4","last_reported":1707170862,"current_range_meters":0,"station_id":"chh1huq6cuj3fo74tm60","pricing_plan_id":"free"},{"bike_id":"a8d88db6-f9dd-46e5-a730-a629bcf2a310","system_id":"levelo_inurba_marseille","lat":43.330442,"lon":5.389148,"is_reserved":false,"is_disabled":false,"rental_uris":{"android":"levelo://app?vid=a8d88db6-f9dd-46e5-a730-a629bcf2a310","ios":"levelo://app?vid=a8d88db6-f9dd-46e5-a730-a629bcf2a310"},"vehicle_type_id":"4","last_reported":1707170862,"current_range_meters":30400,"station_id":"ce4bhr92rcd13ifvqhrg","pricing_plan_id":"free"},{"bike_id":"89f49965-87aa-4437-a02e-3d53c2fe3382","system_id":"levelo_inurba_marseille","lat":43.330442,"lon":5.389148,"is_reserved":false,"is_disabled":false,"rental_uris":{"android":"levelo://app?vid=89f49965-87aa-4437-a02e-3d53c2fe3382","ios":"levelo://app?vid=89f49965-87aa-4437-a02e-3d53c2fe3382"},"vehicle_type_id":"4","last_reported":1707170862,"current_range_meters":25600,"station_id":"ce4bhr92rcd13ifvqhrg","pricing_plan_id":"free"},{"bike_id":"e3cdd8db-1a8c-42b0-8a1d-74e27724a81e","system_id":"levelo_inurba_marseille","lat":43.330442,"lon":5.389148,"is_reserved":false,"is_disabled":false,"rental_uris":{"android":"levelo://app?vid=e3cdd8db-1a8c-42b0-8a1d-74e27724a81e","ios":"levelo://app?vid=e3cdd8db-1a8c-42b0-8a1d-74e27724a81e"},"vehicle_type_id":"4","last_reported":1707170862,"current_range_meters":31200,"station_id":"ce4bhr92rcd13ifvqhrg","pricing_plan_id":"free"},{"bike_id":"baa26e4d-1d69-4d44-9c43-7fa7bc9a94af","system_id":"levelo_inurba_marseille","lat":43.330442,"lon":5.389148,"is_reserved":false,"is_disabled":false,"rental_uris":{"android":"levelo://app?vid=baa26e4d-1d69-4d44-9c43-7fa7bc9a94af","ios":"levelo://app?vid=baa26e4d-1d69-4d44-9c43-7fa7bc9a94af"},"vehicle_type_id":"4","last_reported":1707170862,"current_range_meters":24800,"station_id":"ce4bhr92rcd13ifvqhrg","pricing_plan_id":"free"},{"bike_id":"ba7895df-fdf0-43d4-b40a-e7e64d29137d","system_id":"levelo_inurba_marseille","lat":43.330442,"lon":5.389148,"is_reserved":false,"is_disabled":false,"rental_uris":{"android":"levelo://app?vid=ba7895df-fdf0-43d4-b40a-e7e64d29137d","ios":"levelo://app?vid=ba7895df-fdf0-43d4-b40a-e7e64d29137d"},"vehicle_type_id":"4","last_reported":1707170862,"current_range_meters":31200,"station_id":"ce4bhr92rcd13ifvqhrg","pricing_plan_id":"free"},{"bike_id":"b5772277-1e5a-490d-974c-370957e07eed","system_id":"levelo_inurba_marseille","lat":43.330442,"lon":5.389148,"is_reserved":false,"is_disabled":false,"rental_uris":{"android":"levelo://app?vid=b5772277-1e5a-490d-974c-370957e07eed","ios":"levelo://app?vid=b5772277-1e5a-490d-974c-370957e07eed"},"vehicle_type_id":"4","last_reported":1707170862,"current_range_meters":5600,"station_id":"ce4bhr92rcd13ifvqhrg","pricing_plan_id":"free"},{"bike_id":"02654401-c1b2-40a6-a09a-3ff882525df7","system_id":"levelo_inurba_marseille","lat":43.330442,"lon":5.389148,"is_reserved":false,"is_disabled":false,"rental_uris":{"android":"levelo://app?vid=02654401-c1b2-40a6-a09a-3ff882525df7","ios":"levelo://app?vid=02654401-c1b2-40a6-a09a-3ff882525df7"},"vehicle_type_id":"4","last_reported":1707170862,"current_range_meters":23200,"station_id":"ce4bhr92rcd13ifvqhrg","pricing_plan_id":"free"},{"bike_id":"d665d324-ff95-4f94-8553-a4fac9077957","system_id":"levelo_inurba_marseille","lat":43.330442,"lon":5.389148,"is_reserved":false,"is_disabled":false,"rental_uris":{"android":"levelo://app?vid=d665d324-ff95-4f94-8553-a4fac9077957","ios":"levelo://app?vid=d665d324-ff95-4f94-8553-a4fac9077957"},"vehicle_type_id":"4","last_reported":1707170862,"current_range_meters":29600,"station_id":"ce4bhr92rcd13ifvqhrg","pricing_plan_id":"free"},{"bike_id":"32c118b0-c898-48d6-ae3e-91767397bede","system_id":"levelo_inurba_marseille","lat":43.330283,"lon":5.39041,"is_reserved":false,"is_disabled":false,"rental_uris":{"android":"levelo://app?vid=32c118b0-c898-48d6-ae3e-91767397bede","ios":"levelo://app?vid=32c118b0-c898-48d6-ae3e-91767397bede"},"vehicle_type_id":"4","last_reported":1707170862,"current_range_meters":3600,"station_id":"ce4bhr92rcd13ifvqhrg","pricing_plan_id":"free"},{"bike_id":"6ef41720-a67d-415a-a58f-7a7dc774e5ff","system_id":"levelo_inurba_marseille","lat":43.28856,"lon":5.358371,"is_reserved":false,"is_disabled":false,"rental_uris":{"android":"levelo://app?vid=6ef41720-a67d-415a-a58f-7a7dc774e5ff","ios":"levelo://app?vid=6ef41720-a67d-415a-a58f-7a7dc774e5ff"},"vehicle_type_id":"4","last_reported":1707170862,"current_range_meters":0,"station_id":"ce4bhb12rcd13ifvqem0","pricing_plan_id":"free"},{"bike_id":"f799c0a7-6554-479a-808f-d81a63363393","system_id":"levelo_inurba_marseille","lat":43.312609,"lon":5.401662,"is_reserved":false,"is_disabled":false,"rental_uris":{"android":"levelo://app?vid=f799c0a7-6554-479a-808f-d81a63363393","ios":"levelo://app?vid=f799c0a7-6554-479a-808f-d81a63363393"},"vehicle_type_id":"4","last_reported":1707170862,"current_range_meters":6400,"station_id":"ce4bh092rcd13ifvqd30","pricing_plan_id":"free"},{"bike_id":"8ba03e55-e11d-42a9-aea2-c76b52121341","system_id":"levelo_inurba_marseille","lat":43.28856,"lon":5.358371,"is_reserved":false,"is_disabled":false,"rental_uris":{"android":"levelo://app?vid=8ba03e55-e11d-42a9-aea2-c76b52121341","ios":"levelo://app?vid=8ba03e55-e11d-42a9-aea2-c76b52121341"},"vehicle_type_id":"4","last_reported":1707170862,"current_range_meters":20800,"station_id":"ce4bhb12rcd13ifvqem0","pricing_plan_id":"free"},{"bike_id":"d01e54af-f0ad-4541-824c-86e8425aa5e7","system_id":"levelo_inurba_marseille","lat":43.28856,"lon":5.358371,"is_reserved":false,"is_disabled":false,"rental_uris":{"android":"levelo://app?vid=d01e54af-f0ad-4541-824c-86e8425aa5e7","ios":"levelo://app?vid=d01e54af-f0ad-4541-824c-86e8425aa5e7"},"vehicle_type_id":"4","last_reported":1707170862,"current_range_meters":18400,"station_id":"ce4bhb12rcd13ifvqem0","pricing_plan_id":"free"},{"bike_id":"2ce473c3-9d30-49bd-a4db-d97f4cee8463","system_id":"levelo_inurba_marseille","lat":43.28856,"lon":5.358371,"is_reserved":false,"is_disabled":false,"rental_uris":{"android":"levelo://app?vid=2ce473c3-9d30-49bd-a4db-d97f4cee8463","ios":"levelo://app?vid=2ce473c3-9d30-49bd-a4db-d97f4cee8463"},"vehicle_type_id":"4","last_reported":1707170862,"current_range_meters":6000,"station_id":"ce4bhb12rcd13ifvqem0","pricing_plan_id":"free"},{"bike_id":"c449b1d9-a91f-403a-bf29-f3a1e48b9703","system_id":"levelo_inurba_marseille","lat":43.28856,"lon":5.358371,"is_reserved":false,"is_disabled":false,"rental_uris":{"android":"levelo://app?vid=c449b1d9-a91f-403a-bf29-f3a1e48b9703","ios":"levelo://app?vid=c449b1d9-a91f-403a-bf29-f3a1e48b9703"},"vehicle_type_id":"4","last_reported":1707170862,"current_range_meters":20800,"station_id":"ce4bhb12rcd13ifvqem0","pricing_plan_id":"free"},{"bike_id":"4475a748-44e8-4b81-a3b8-2d83771dd8e5","system_id":"levelo_inurba_marseille","lat":43.28856,"lon":5.358371,"is_reserved":false,"is_disabled":false,"rental_uris":{"android":"levelo://app?vid=4475a748-44e8-4b81-a3b8-2d83771dd8e5","ios":"levelo://app?vid=4475a748-44e8-4b81-a3b8-2d83771dd8e5"},"vehicle_type_id":"4","last_reported":1707170862,"current_range_meters":13600,"station_id":"ce4bhb12rcd13ifvqem0","pricing_plan_id":"free"},{"bike_id":"c6985197-b734-4d32-b4be-f2281b3f6d91","system_id":"levelo_inurba_marseille","lat":43.28856,"lon":5.358371,"is_reserved":false,"is_disabled":false,"rental_uris":{"android":"levelo://app?vid=c6985197-b734-4d32-b4be-f2281b3f6d91","ios":"levelo://app?vid=c6985197-b734-4d32-b4be-f2281b3f6d91"},"vehicle_type_id":"4","last_reported":1707170862,"current_range_meters":6400,"station_id":"ce4bhb12rcd13ifvqem0","pricing_plan_id":"free"},{"bike_id":"cc9f828a-79fa-4292-8818-143a25e9609d","system_id":"levelo_inurba_marseille","lat":43.28856,"lon":5.358371,"is_reserved":false,"is_disabled":false,"rental_uris":{"android":"levelo://app?vid=cc9f828a-79fa-4292-8818-143a25e9609d","ios":"levelo://app?vid=cc9f828a-79fa-4292-8818-143a25e9609d"},"vehicle_type_id":"4","last_reported":1707170862,"current_range_meters":15200,"station_id":"ce4bhb12rcd13ifvqem0","pricing_plan_id":"free"},{"bike_id":"ed9a2a96-daae-4f1c-b257-c03c57957d88","system_id":"levelo_inurba_marseille","lat":43.28856,"lon":5.358371,"is_reserved":false,"is_disabled":false,"rental_uris":{"android":"levelo://app?vid=ed9a2a96-daae-4f1c-b257-c03c57957d88","ios":"levelo://app?vid=ed9a2a96-daae-4f1c-b257-c03c57957d88"},"vehicle_type_id":"4","last_reported":1707170862,"current_range_meters":11600,"station_id":"ce4bhb12rcd13ifvqem0","pricing_plan_id":"free"},{"bike_id":"c623ed3b-c03c-4636-8716-7e9b14d1c7e9","system_id":"levelo_inurba_marseille","lat":43.337405,"lon":5.374496,"is_reserved":false,"is_disabled":false,"rental_uris":{"android":"levelo://app?vid=c623ed3b-c03c-4636-8716-7e9b14d1c7e9","ios":"levelo://app?vid=c623ed3b-c03c-4636-8716-7e9b14d1c7e9"},"vehicle_type_id":"4","last_reported":1707170862,"current_range_meters":30400,"station_id":"","pricing_plan_id":"free"},{"bike_id":"d019aae9-15fd-4a6f-a27e-be3035201242","system_id":"levelo_inurba_marseille","lat":43.312609,"lon":5.401662,"is_reserved":false,"is_disabled":false,"rental_uris":{"android":"levelo://app?vid=d019aae9-15fd-4a6f-a27e-be3035201242","ios":"levelo://app?vid=d019aae9-15fd-4a6f-a27e-be3035201242"},"vehicle_type_id":"4","last_reported":1707170862,"current_range_meters":10800,"station_id":"ce4bh092rcd13ifvqd30","pricing_plan_id":"free"},{"bike_id":"2abce4d7-b371-41a7-85a5-2dd1075a6ac6","system_id":"levelo_inurba_marseille","lat":43.312609,"lon":5.401662,"is_reserved":false,"is_disabled":false,"rental_uris":{"android":"levelo://app?vid=2abce4d7-b371-41a7-85a5-2dd1075a6ac6","ios":"levelo://app?vid=2abce4d7-b371-41a7-85a5-2dd1075a6ac6"},"vehicle_type_id":"4","last_reported":1707170862,"current_range_meters":1200,"station_id":"ce4bh092rcd13ifvqd30","pricing_plan_id":"free"},{"bike_id":"0f9c9477-c6af-4237-b8cf-be59a28d4545","system_id":"levelo_inurba_marseille","lat":43.309371,"lon":5.401449,"is_reserved":false,"is_disabled":false,"rental_uris":{"android":"levelo://app?vid=0f9c9477-c6af-4237-b8cf-be59a28d4545","ios":"levelo://app?vid=0f9c9477-c6af-4237-b8cf-be59a28d4545"},"vehicle_type_id":"4","last_reported":1707170862,"current_range_meters":15600,"station_id":"ce4bgvp2rcd13ifvqct0","pricing_plan_id":"free"},{"bike_id":"0cbb4923-9753-46b2-802c-fc001737c530","system_id":"levelo_inurba_marseille","lat":43.337456,"lon":5.374561,"is_reserved":false,"is_disabled":false,"rental_uris":{"android":"levelo://app?vid=0cbb4923-9753-46b2-802c-fc001737c530","ios":"levelo://app?vid=0cbb4923-9753-46b2-802c-fc001737c530"},"vehicle_type_id":"4","last_reported":1707170862,"current_range_meters":29200,"station_id":"","pricing_plan_id":"free"},{"bike_id":"d3608585-baf1-4d13-a7b6-61e77cee46b7","system_id":"levelo_inurba_marseille","lat":43.309371,"lon":5.401449,"is_reserved":false,"is_disabled":false,"rental_uris":{"android":"levelo://app?vid=d3608585-baf1-4d13-a7b6-61e77cee46b7","ios":"levelo://app?vid=d3608585-baf1-4d13-a7b6-61e77cee46b7"},"vehicle_type_id":"4","last_reported":1707170862,"current_range_meters":28800,"station_id":"ce4bgvp2rcd13ifvqct0","pricing_plan_id":"free"},{"bike_id":"32b208e5-a780-48f9-97f3-16d5a755cda5","system_id":"levelo_inurba_marseille","lat":43.312609,"lon":5.401662,"is_reserved":false,"is_disabled":false,"rental_uris":{"android":"levelo://app?vid=32b208e5-a780-48f9-97f3-16d5a755cda5","ios":"levelo://app?vid=32b208e5-a780-48f9-97f3-16d5a755cda5"},"vehicle_type_id":"4","last_reported":1707170862,"current_range_meters":0,"station_id":"ce4bh092rcd13ifvqd30","pricing_plan_id":"free"},