{"last_updated":1730905753,"ttl":60,"version":"2.2","data":{"bikes":[{"bike_id":"7ae96026-45f8-4be1-a705-40a234940d94","system_id":"levelo_inurba_marseille","lat":43.27991,"lon":5.40022,"is_reserved":false,"is_disabled":false,"rental_uris":{"android":"levelo://app?vid=7ae96026-45f8-4be1-a705-40a234940d94","ios":"levelo://app?vid=7ae96026-45f8-4be1-a705-40a234940d94"},"vehicle_type_id":"4","last_reported":1730905753,"current_range_meters":38400,"station_id":"ce4bho92rcd13ifvqh4g","pricing_plan_id":"cebpf4jnsgd1na2vs0mg"},{"bike_id":"19df1608-2db4-4a64-8a9a-d0d9548fc94a","system_id":"levelo_inurba_marseille","lat":43.32111,"lon":5.36774,"is_reserved":false,"is_disabled":false,"rental_uris":{"android":"levelo://app?vid=19df1608-2db4-4a64-8a9a-d0d9548fc94a","ios":"levelo://app?vid=19df1608-2db4-4a64-8a9a-d0d9548fc94a"},"vehicle_type_id":"4","last_reported":1730905753,"current_range_meters":38800,"station_id":"ce4bhrh2rcd13ifvqhug","pricing_plan_id":"cebpf4jnsgd1na2vs0mg"},{"bike_id":"a598dc46-92d1-4892-a6de-b358c33f13b9","system_id":"levelo_inurba_marseille","lat":43.32658,"lon":5.41001,"is_reserved":false,"is_disabled":false,"rental_uris":{"android":"levelo://app?vid=a598dc46-92d1-4892-a6de-b358c33f13b9","ios":"levelo://app?vid=a598dc46-92d1-4892-a6de-b358c33f13b9"},"vehicle_type_id":"4","last_reported":1730905753,"current_range_meters":20800,"station_id":"ce4bhpp2rcd13ifvqhgg","pricing_plan_id":"cebpf4jnsgd1na2vs0mg"},{"bike_id":"bc869811-1aad-4ece-b858-9965c373b037","system_id":"levelo_inurba_marseille","lat":43.23152,"lon":5.43699,"is_reserved":false,"is_disabled":false,"rental_uris":{"android":"levelo://app?vid=bc869811-1aad-4ece-b858-9965c373b037","ios":"levelo://app?vid=bc869811-1aad-4ece-b858-9965c373b037"},"vehicle_type_id":"4","last_reported":1730905753,"current_range_meters":37600,"station_id":"ce4bhmp2rcd13ifvqgog","pricing_plan_id":"cebpf4jnsgd1na2vs0mg"},{"bike_id":"fb1b00eb-787c-4f18-9c49-5c3c7dbc28a0","system_id":"levelo_inurba_marseille","lat":43.27997,"lon":5.40016,"is_reserved":false,"is_disabled":false,"rental_uris":{"android":"levelo://app?vid=fb1b00eb-787c-4f18-9c49-5c3c7dbc28a0","ios":"levelo://app?vid=fb1b00eb-787c-4f18-9c49-5c3c7dbc28a0"},"vehicle_type_id":"4","last_reported":1730905753,"current_range_meters":30400,"station_id":"ce4bho92rcd13ifvqh4g","pricing_plan_id":"cebpf4jnsgd1na2vs0mg"},{"bike_id":"69989f8f-05a4-4c29-947a-e8d5b41d18c9","system_id":"levelo_inurba_marseille","lat":43.27923,"lon":5.395695,"is_reserved":false,"is_disabled":false,"rental_uris":{"android":"levelo://app?vid=69989f8f-05a4-4c29-947a-e8d5b41d18c9","ios":"levelo://app?vid=69989f8f-05a4-4c29-947a-e8d5b41d18c9"},"vehicle_type_id":"4","last_reported":1730905753,"current_range_meters":9600,"station_id":"ce4bhf92rcd13ifvqf40","pricing_plan_id":"cebpf4jnsgd1na2vs0mg"},{"bike_id":"4573464f-ba7d-4175-b40b-a1ddf13412ad","system_id":"levelo_inurba_marseille","lat":43.29517,"lon":5.39409,"is_reserved":false,"is_disabled":false,"rental_uris":{"android":"levelo://app?vid=4573464f-ba7d-4175-b40b-a1ddf13412ad","ios":"levelo://app?vid=4573464f-ba7d-4175-b40b-a1ddf13412ad"},"vehicle_type_id":"4","last_reported":1730905753,"current_range_meters":7200,"station_id":"ce4bh292rcd13ifvqdf0","pricing_plan_id":"cebpf4jnsgd1na2vs0mg"},{"bike_id":"dbb61991-7592-4e4d-ac73-387ebf8886c5","system_id":"levelo_inurba_marseille","lat":43.28845,"lon":5.35859,"is_reserved":false,"is_disabled":false,"rental_uris":{"android":"levelo://app?vid=dbb61991-7592-4e4d-ac73-387ebf8886c5","ios":"levelo://app?vid=dbb61991-7592-4e4d-ac73-387ebf8886c5"},"vehicle_type_id":"4","last_reported":1730905753,"current_range_meters":38800,"station_id":"ce4bhb12rcd13ifvqem0","pricing_plan_id":"cebpf4jnsgd1na2vs0mg"},{"bike_id":"aaf896be-23fc-4cde-b212-d643c208e7c1","system_id":"levelo_inurba_marseille","lat":43.30414,"lon":5.41297,"is_reserved":false,"is_disabled":false,"rental_uris":{"android":"levelo://app?vid=aaf896be-23fc-4cde-b212-d643c208e7c1","ios":"levelo://app?vid=aaf896be-23fc-4cde-b212-d643c208e7c1"},"vehicle_type_id":"4","last_reported":1730905753,"current_range_meters":37600,"station_id":"ce4bhop2rcd13ifvqh8g","pricing_plan_id":"cebpf4jnsgd1na2vs0mg"},{"bike_id":"8a4b6770-0950-44b1-a583-2029ee1e2d58","system_id":"levelo_inurba_marseille","lat":43.26675,"lon":5.38268,"is_reserved":false,"is_disabled":false,"rental_uris":{"android":"levelo://app?vid=8a4b6770-0950-44b1-a583-2029ee1e2d58","ios":"levelo://app?vid=8a4b6770-0950-44b1-a583-2029ee1e2d58"},"vehicle_type_id":"4","last_reported":1730905753,"current_range_meters":30400,"station_id":"ce4bhg92rcd13ifvqf90","pricing_plan_id":"cebpf4jnsgd1na2vs0mg"},{"bike_id":"72efadbb-bf11-43ff-96cf-c421a3f198ee","system_id":"levelo_inurba_marseille","lat":43.27618,"lon":5.36108,"is_reserved":false,"is_disabled":false,"rental_uris":{"android":"levelo://app?vid=72efadbb-bf11-43ff-96cf-c421a3f198ee","ios":"levelo://app?vid=72efadbb-bf11-43ff-96cf-c421a3f198ee"},"vehicle_type_id":"4","last_reported":1730905753,"current_range_meters":16000,"station_id":"ce4bgj92rcd13ifvqbe0","pricing_plan_id":"cebpf4jnsgd1na2vs0mg"},{"bike_id":"3e44a259-abe4-4226-9633-ae30cd00b80d","system_id":"levelo_inurba_marseille","lat":43.30802,"lon":5.38191,"is_reserved":false,"is_disabled":false,"rental_uris":{"android":"levelo://app?vid=3e44a259-abe4-4226-9633-ae30cd00b80d","ios":"levelo://app?vid=3e44a259-abe4-4226-9633-ae30cd00b80d"},"vehicle_type_id":"4","last_reported":1730905753,"current_range_meters":36400,"station_id":"ce4bgt12rcd13ifvqce0","pricing_plan_id":"cebpf4jnsgd1na2vs0mg"},{"bike_id":"858932af-9f9f-4b7b-8dd4-b4e7b7a92d6a","system_id":"levelo_inurba_marseille","lat":43.291955,"lon":5.39325,"is_reserved":false,"is_disabled":false,"rental_uris":{"android":"levelo://app?vid=858932af-9f9f-4b7b-8dd4-b4e7b7a92d6a","ios":"levelo://app?vid=858932af-9f9f-4b7b-8dd4-b4e7b7a92d6a"},"vehicle_type_id":"4","last_reported":1730905753,"current_range_meters":30800,"station_id":"ce4bh192rcd13ifvqdd0","pricing_plan_id":"cebpf4jnsgd1na2vs0mg"},{"bike_id":"007d4b55-4552-4c03-ad03-dcee8ee44f0c","system_id":"levelo_inurba_marseille","lat":43.27212,"lon":5.39189,"is_reserved":false,"is_disabled":false,"rental_uris":{"android":"levelo://app?vid=007d4b55-4552-4c03-ad03-dcee8ee44f0c","ios":"levelo://app?vid=007d4b55-4552-4c03-ad03-dcee8ee44f0c"},"vehicle_type_id":"4","last_reported":1730905753,"current_range_meters":34800,"station_id":"ce4bhhp2rcd13ifvqfm0","pricing_plan_id":"cebpf4jnsgd1na2vs0mg"},{"bike_id":"8af378d1-5bc4-457f-9470-74e88c52bda7","system_id":"levelo_inurba_marseille","lat":43.31996,"lon":5.38167,"is_reserved":false,"is_disabled":false,"rental_uris":{"android":"levelo://app?vid=8af378d1-5bc4-457f-9470-74e88c52bda7","ios":"levelo://app?vid=8af378d1-5bc4-457f-9470-74e88c52bda7"},"vehicle_type_id":"4","last_reported":1730905753,"current_range_meters":7200,"station_id":"ce4bhr12rcd13ifvqhpg","pricing_plan_id":"cebpf4jnsgd1na2vs0mg"},{"bike_id":"26478a6f-2260-4242-83b9-a18e165ff742","system_id":"levelo_inurba_marseille","lat":43.30529,"lon":5.38417,"is_reserved":false,"is_disabled":false,"rental_uris":{"android":"levelo://app?vid=26478a6f-2260-4242-83b9-a18e165ff742","ios":"levelo://app?vid=26478a6f-2260-4242-83b9-a18e165ff742"},"vehicle_type_id":"4","last_reported":1730905753,"current_range_meters":14400,"station_id":"ce4bgg92rcd13ifvqb30","pricing_plan_id":"cebpf4jnsgd1na2vs0mg"},{"bike_id":"6d449a12-8c4a-4219-9bf2-88212215eca5","system_id":"levelo_inurba_marseille","lat":43.30951,"lon":5.39049,"is_reserved":false,"is_disabled":false,"rental_uris":{"android":"levelo://app?vid=6d449a12-8c4a-4219-9bf2-88212215eca5","ios":"levelo://app?vid=6d449a12-8c4a-4219-9bf2-88212215eca5"},"vehicle_type_id":"4","last_reported":1730905753,"current_range_meters":26800,"station_id":"ce4bgup2rcd13ifvqco0","pricing_plan_id":"cebpf4jnsgd1na2vs0mg"},{"bike_id":"46c4b230-c415-4509-ac9e-7963542b584c","system_id":"levelo_inurba_marseille","lat":43.2961,"lon":5.37723,"is_reserved":false,"is_disabled":false,"rental_uris":{"android":"levelo://app?vid=46c4b230-c415-4509-ac9e-7963542b584c","ios":"levelo://app?vid=46c4b230-c415-4509-ac9e-7963542b584c"},"vehicle_type_id":"4","last_reported":1730905753,"current_range_meters":16000,"station_id":"ce4bgi92rcd13ifvqb90","pricing_plan_id":"cebpf4jnsgd1na2vs0mg"},{"bike_id":"75b27179-3ad5-4666-b8df-d1762c42db50","system_id":"levelo_inurba_marseille","lat":43.30557,"lon":5.36557,"is_reserved":false,"is_disabled":false,"rental_uris":{"android":"levelo://app?vid=75b27179-3ad5-4666-b8df-d1762c42db50","ios":"levelo://app?vid=75b27179-3ad5-4666-b8df-d1762c42db50"},"vehicle_type_id":"4","last_reported":1730905753,"current_range_meters":3200,"station_id":"ce4bgs12rcd13ifvqcag","pricing_plan_id":"cebpf4jnsgd1na2vs0mg"},{"bike_id":"a213fa16-3a18-406f-b424-76f795b2c79a","system_id":"levelo_inurba_marseille","lat":43.30535,"lon":5.36711,"is_reserved":false,"is_disabled":false,"rental_uris":{"android":"levelo://app?vid=a213fa16-3a18-406f-b424-76f795b2c79a","ios":"levelo://app?vid=a213fa16-3a18-406f-b424-76f795b2c79a"},"vehicle_type_id":"4","last_reported":1730905753,"current_range_meters":33600,"station_id":"ce4bgrp2rcd13ifvqc9g","pricing_plan_id":"cebpf4jnsgd1na2vs0mg"},{"bike_id":"d6d201d7-a86a-47cd-800a-529982a50722","system_id":"levelo_inurba_marseille","lat":43.30551,"lon":5.3655,"is_reserved":false,"is_disabled":false,"rental_uris":{"android":"levelo://app?vid=d6d201d7-a86a-47cd-800a-529982a50722","ios":"levelo://app?vid=d6d201d7-a86a-47cd-800a-529982a50722"},"vehicle_type_id":"4","last_reported":1730905753,"current_range_meters":35200,"station_id":"ce4bgs12rcd13ifvqcag","pricing_plan_id":"cebpf4jnsgd1na2vs0mg"},{"bike_id":"0a5ab3d6-99d6-4d94-8161-313ec979c615","system_id":"levelo_inurba_marseille","lat":43.26932,"lon":5.39352,"is_reserved":false,"is_disabled":false,"rental_uris":{"android":"levelo://app?vid=0a5ab3d6-99d6-4d94-8161-313ec979c615","ios":"levelo://app?vid=0a5ab3d6-99d6-4d94-8161-313ec979c615"},"vehicle_type_id":"4","last_reported":1730905753,"current_range_meters":26000,"station_id":"ce4bh192rcd13ifvqdd0","pricing_plan_id":"cebpf4jnsgd1na2vs0mg"},{"bike_id":"fdad7c30-93d5-41d6-a8f7-ef1ef2e83268","system_id":"levelo_inurba_marseille","lat":43.27623,"lon":5.36111,"is_reserved":false,"is_disabled":false,"rental_uris":{"android":"levelo://app?vid=fdad7c30-93d5-41d6-a8f7-ef1ef2e83268","ios":"levelo://app?vid=fdad7c30-93d5-41d6-a8f7-ef1ef2e83268"},"vehicle_type_id":"4","last_reported":1730905753,"current_range_meters":22000,"station_id":"ce4bgj92rcd13ifvqbe0","pricing_plan_id":"cebpf4jnsgd1na2vs0mg"},{"bike_id":"c3df37ad-4006-4ceb-9973-dff6e59652b4","system_id":"levelo_inurba_marseille","lat":43.29975,"lon":5.37181,"is_reserved":false,"is_disabled":false,"rental_uris":{"android":"levelo://app?vid=c3df37ad-4006-4ceb-9973-dff6e59652b4","ios":"levelo://app?vid=c3df37ad-4006-4ceb-9973-dff6e59652b4"},"vehicle_type_id":"4","last_reported":1730905753,"current_range_meters":38000,"station_id":"ce4bgr92rcd13ifvqc7g","pricing_plan_id":"cebpf4jnsgd1na2vs0mg"},{"bike_id":"b5f01ca1-08a3-4b12-8a1e-5c3219f2f4c8","system_id":"levelo_inurba_marseille","lat":43.2781,"lon":5.40712,"is_reserved":false,"is_disabled":false,"rental_uris":{"android":"levelo://app?vid=b5f01ca1-08a3-4b12-8a1e-5c3219f2f4c8","ios":"levelo://app?vid=b5f01ca1-08a3-4b12-8a1e-5c3219f2f4c8"},"vehicle_type_id":"4","last_reported":1730905753,"current_range_meters":35600,"station_id":"ce4bhnh2rcd13ifvqgtg","pricing_plan_id":"cebpf4jnsgd1na2vs0mg"},{"bike_id":"3b6962ec-e739-4580-bb6c-2bfa414ba058","system_id":"levelo_inurba_marseille","lat":43.27175,"lon":5.41004,"is_reserved":false,"is_disabled":false,"rental_uris":{"android":"levelo://app?vid=3b6962ec-e739-4580-bb6c-2bfa414ba058","ios":"levelo://app?vid=3b6962ec-e739-4580-bb6c-2bfa414ba058"},"vehicle_type_id":"4","last_reported":1730905753,"current_range_meters":7200,"station_id":"ce4bhl12rcd13ifvqgf0","pricing_plan_id":"cebpf4jnsgd1na2vs0mg"},{"bike_id":"8a401a8a-30f9-4643-ad63-74116d1b600f","system_id":"levelo_inurba_marseille","lat":43.337444,"lon":5.374475,"is_reserved":false,"is_disabled":false,"rental_uris":{"android":"levelo://app?vid=8a401a8a-30f9-4643-ad63-74116d1b600f","ios":"levelo://app?vid=8a401a8a-30f9-4643-ad63-74116d1b600f"},"vehicle_type_id":"4","last_reported":1730905753,"current_range_meters":30800,"station_id":"","pricing_plan_id":"cebpf4jnsgd1na2vs0mg"},{"bike_id":"e10a265c-6cec-4cf1-a0ae-4528eeeaf535","system_id":"levelo_inurba_marseille","lat":43.29705,"lon":5.3662,"is_reserved":false,"is_disabled":false,"rental_uris":{"android":"levelo://app?vid=e10a265c-6cec-4cf1-a0ae-4528eeeaf535","ios":"levelo://app?vid=e10a265c-6cec-4cf1-a0ae-4528eeeaf535"},"vehicle_type_id":"4","last_reported":1730905753,"current_range_meters":38800,"station_id":"ce4bgn12rcd13ifvqbt0","pricing_plan_id":"cebpf4jnsgd1na2vs0mg"},{"bike_id":"bcf94556-2246-41f1-8c06-a98f1a3ca966","system_id":"levelo_inurba_marseille","lat":43.28924,"lon":5.38399,"is_reserved":false,"is_disabled":false,"rental_uris":{"android":"levelo://app?vid=bcf94556-2246-41f1-8c06-a98f1a3ca966","ios":"levelo://app?vid=bcf94556-2246-41f1-8c06-a98f1a3ca966"},"vehicle_type_id":"4","last_reported":1730905753,"current_range_meters":22800,"station_id":"ce4bh612rcd13ifvqe6g","pricing_plan_id":"cebpf4jnsgd1na2vs0mg"},{"bike_id":"e94692c3-e695-4b7c-aa83-b5b5beb3a57d","system_id":"levelo_inurba_marseille","lat":43.2781,"lon":5.4072,"is_reserved":false,"is_disabled":false,"rental_uris":{"android":"levelo://app?vid=e94692c3-e695-4b7c-aa83-b5b5beb3a57d","ios":"levelo://app?vid=e94692c3-e695-4b7c-aa83-b5b5beb3a57d"},"vehicle_type_id":"4","last_reported":1730905753,"current_range_meters":37600,"station_id":"ce4bhnh2rcd13ifvqgtg","pricing_plan_id":"cebpf4jnsgd1na2vs0mg"},{"bike_id":"d229beaa-ac54-4996-9589-9d5015965115","system_id":"levelo_inurba_marseille","lat":43.28573,"lon":5.39501,"is_reserved":false,"is_disabled":false,"rental_uris":{"android":"levelo://app?vid=d229beaa-ac54-4996-9589-9d5015965115","ios":"levelo://app?vid=d229beaa-ac54-4996-9589-9d5015965115"},"vehicle_type_id":"4","last_reported":1730905753,"current_range_meters":13600,"station_id":"ce4bh292rcd13ifvqdg0","pricing_plan_id":"cebpf4jnsgd1na2vs0mg"},{"bike_id":"e09626d7-6ad5-4f83-99e0-4ecc70ad6a62","system_id":"levelo_inurba_marseille","lat":43.2842,"lon":5.34995,"is_reserved":false,"is_disabled":false,"rental_uris":{"android":"levelo://app?vid=e09626d7-6ad5-4f83-99e0-4ecc70ad6a62","ios":"levelo://app?vid=e09626d7-6ad5-4f83-99e0-4ecc70ad6a62"},"vehicle_type_id":"4","last_reported":1730905753,"current_range_meters":38800,"station_id":"ce4bhbh2rcd13ifvqepg","pricing_plan_id":"cebpf4jnsgd1na2vs0mg"},{"bike_id":"ed09d0ed-8081-4b36-96cb-db45661a5280","system_id":"levelo_inurba_marseille","lat":43.29905,"lon":5.38146,"is_reserved":false,"is_disabled":false,"rental_uris":{"android":"levelo://app?vid=ed09d0ed-8081-4b36-96cb-db45661a5280","ios":"levelo://app?vid=ed09d0ed-8081-4b36-96cb-db45661a5280"},"vehicle_type_id":"4","last_reported":1730905753,"current_range_meters":30000,"station_id":"ce4bgj12rcd13ifvqbc0","pricing_plan_id":"cebpf4jnsgd1na2vs0mg"},{"bike_id":"43a5e930-16c7-4db5-967c-4eb0f03d62b3","system_id":"levelo_inurba_marseille","lat":43.29918,"lon":5.38155,"is_reserved":false,"is_disabled":false,"rental_uris":{"android":"levelo://app?vid=43a5e930-16c7-4db5-967c-4eb0f03d62b3","ios":"levelo://app?vid=43a5e930-16c7-4db5-967c-4eb0f03d62b3"},"vehicle_type_id":"4","last_reported":1730905753,"current_range_meters":38800,"station_id":"ce4bgj12rcd13ifvqbc0","pricing_plan_id":"cebpf4jnsgd1na2vs0mg"},{"bike_id":"0e5b3cd5-de11-4424-a18c-bcbc10cdb23c","system_id":"levelo_inurba_marseille","lat":43.30796,"lon":5.38166,"is_reserved":false,"is_disabled":false,"rental_uris":{"android":"levelo://app?vid=0e5b3cd5-de11-4424-a18c-bcbc10cdb23c","ios":"levelo://app?vid=0e5b3cd5-de11-4424-a18c-bcbc10cdb23c"},"vehicle_type_id":"4","last_reported":1730905753,"current_range_meters":35600,"station_id":"ce4bgt12rcd13ifvqce0","pricing_plan_id":"cebpf4jnsgd1na2vs0mg"},{"bike_id":"692f31da-ed64-4e18-b7cc-350f01a2fb79","system_id":"levelo_inurba_marseille","lat":43.29897,"lon":5.43679,"is_reserved":false,"is_disabled":false,"rental_uris":{"android":"levelo://app?vid=692f31da-ed64-4e18-b7cc-350f01a2fb79","ios":"levelo://app?vid=692f31da-ed64-4e18-b7cc-350f01a2fb79"},"vehicle_type_id":"4","last_reported":1730905753,"current_range_meters":18800,"station_id":"ce4bhpp2rcd13ifvqhfg","pricing_plan_id":"cebpf4jnsgd1na2vs0mg"},{"bike_id":"473a17a5-88e1-486b-9eec-ba2d8c308a41","system_id":"levelo_inurba_marseille","lat":43.30798,"lon":5.38164,"is_reserved":false,"is_disabled":false,"rental_uris":{"android":"levelo://app?vid=473a17a5-88e1-486b-9eec-ba2d8c308a41","ios":"levelo://app?vid=473a17a5-88e1-486b-9eec-ba2d8c308a41"},"vehicle_type_id":"4","last_reported":1730905753,"current_range_meters":35600,"station_id":"ce4bgt12rcd13ifvqce0","pricing_plan_id":"cebpf4jnsgd1na2vs0mg"},{"bike_id":"6f99ce44-c63b-49f9-ac8d-b48dd9e074c0","system_id":"levelo_inurba_marseille","lat":43.31074,"lon":5.3836,"is_reserved":false,"is_disabled":false,"rental_uris":{"android":"levelo://app?vid=6f99ce44-c63b-49f9-ac8d-b48dd9e074c0","ios":"levelo://app?vid=6f99ce44-c63b-49f9-ac8d-b48dd9e074c0"},"vehicle_type_id":"4","last_reported":1730905753,"current_range_meters":29600,"station_id":"ce4bgv92rcd13ifvqcr0","pricing_plan_id":"cebpf4jnsgd1na2vs0mg"},{"bike_id":"cef088fc-14e6-41c6-992b-1fc7bb5e4aa9","system_id":"levelo_inurba_marseille","lat":43.30281,"lon":5.37716,"is_reserved":false,"is_disabled":false,"rental_uris":{"android":"levelo://app?vid=cef088fc-14e6-41c6-992b-1fc7bb5e4aa9","ios":"levelo://app?vid=cef088fc-14e6-41c6-992b-1fc7bb5e4aa9"},"vehicle_type_id":"4","last_reported":1730905753,"current_range_meters":38800,"station_id":"ce4bguh2rcd13ifvqcj0","pricing_plan_id":"cebpf4jnsgd1na2vs0mg"},{"bike_id":"b8990243-01a4-4ec4-a216-0c2dbe762ac7","system_id":"levelo_inurba_marseille","lat":43.2937,"lon":5.37829,"is_reserved":false,"is_disabled":false,"rental_uris":{"android":"levelo://app?vid=b8990243-01a4-4ec4-a216-0c2dbe762ac7","ios":"levelo://app?vid=b8990243-01a4-4ec4-a216-0c2dbe762ac7"},"vehicle_type_id":"4","last_reported":1730905753,"current_range_meters":13600,"station_id":"ce4bgjh2rcd13ifvqbf0","pricing_plan_id":"cebpf4jnsgd1na2vs0mg"},{"bike_id":"eba5ce4f-5b27-4527-a15a-5b3d38f9d8dd","system_id":"levelo_inurba_marseille","lat":43.26557,"lon":5.37287,"is_reserved":false,"is_disabled":false,"rental_uris":{"android":"levelo://app?vid=eba5ce4f-5b27-4527-a15a-5b3d38f9d8dd","ios":"levelo://app?vid=eba5ce4f-5b27-4527-a15a-5b3d38f9d8dd"},"vehicle_type_id":"4","last_reported":1730905753,"current_range_meters":34000,"station_id":"ce4bhg12rcd13ifvqf70","pricing_plan_id":"cebpf4jnsgd1na2vs0mg"},{"bike_id":"587e2033-43ab-44e0-a4f4-b4fc67d83408","system_id":"levelo_inurba_marseille","lat":43.3055,"lon":5.36727,"is_reserved":false,"is_disabled":false,"rental_uris":{"android":"levelo://app?vid=587e2033-43ab-44e0-a4f4-b4fc67d83408","ios":"levelo://app?vid=587e2033-43ab-44e0-a4f4-b4fc67d83408"},"vehicle_type_id":"4","last_reported":1730905753,"current_range_meters":38800,"station_id":"ce4bgrp2rcd13ifvqc9g","pricing_plan_id":"cebpf4jnsgd1na2vs0mg"},{"bike_id":"14369dd9-2c9a-49d9-96a4-1a60db71f9ac","system_id":"levelo_inurba_marseille","lat":43.2972,"lon":5.37691,"is_reserved":false,"is_disabled":false,"rental_uris":{"android":"levelo://app?vid=14369dd9-2c9a-49d9-96a4-1a60db71f9ac","ios":"levelo://app?vid=14369dd9-2c9a-49d9-96a4-1a60db71f9ac"},"vehicle_type_id":"4","last_reported":1730905753,"current_range_meters":36000,"station_id":"ce4bgkh2rcd13ifvqbl0","pricing_plan_id":"cebpf4jnsgd1na2vs0mg"},{"bike_id":"c0314875-546c-4af6-b76f-540f33ba13ae","system_id":"levelo_inurba_marseille","lat":43.2857,"lon":5.39499,"is_reserved":false,"is_disabled":false,"rental_uris":{"android":"levelo://app?vid=c0314875-546c-4af6-b76f-540f33ba13ae","ios":"levelo://app?vid=c0314875-546c-4af6-b76f-540f33ba13ae"},"vehicle_type_id":"4","last_reported":1730905753,"current_range_meters":8800,"station_id":"ce4bh292rcd13ifvqdg0","pricing_plan_id":"cebpf4jnsgd1na2vs0mg"},{"bike_id":"35212c80-7cc3-498e-92c4-d412d52227df","system_id":"levelo_inurba_marseille","lat":43.30925,"lon":5.40134,"is_reserved":false,"is_disabled":false,"rental_uris":{"android":"levelo://app?vid=35212c80-7cc3-498e-92c4-d412d52227df","ios":"levelo://app?vid=35212c80-7cc3-498e-92c4-d412d52227df"},"vehicle_type_id":"4","last_reported":1730905753,"current_range_meters":37600,"station_id":"ce4bgvp2rcd13ifvqct0","pricing_plan_id":"cebpf4jnsgd1na2vs0mg"},{"bike_id":"b30b3076-6dc0-4cb5-80a1-9fcabfa933da","system_id":"levelo_inurba_marseille","lat":43.30259,"lon":5.40085,"is_reserved":false,"is_disabled":false,"rental_uris":{"android":"levelo://app?vid=b30b3076-6dc0-4cb5-80a1-9fcabfa933da","ios":"levelo://app?vid=b30b3076-6dc0-4cb5-80a1-9fcabfa933da"},"vehicle_type_id":"4","last_reported":1730905753,"current_range_meters":30000,"station_id":"ce4bgvh2rcd13ifvqcs0","pricing_plan_id":"cebpf4jnsgd1na2vs0mg"},{"bike_id":"95c9ca03-5a37-479f-af3f-a85137c7b24c","system_id":"levelo_inurba_marseille","lat":43.29371,"lon":5.37859,"is_reserved":false,"is_disabled":false,"rental_uris":{"android":"levelo://app?vid=95c9ca03-5a37-479f-af3f-a85137c7b24c","ios":"levelo://app?vid=95c9ca03-5a37-479f-af3f-a85137c7b24c"},"vehicle_type_id":"4","last_reported":1730905753,"current_range_meters":36000,"station_id":"ce4bgjh2rcd13ifvqbf0","pricing_plan_id":"cebpf4jnsgd1na2vs0mg"},{"bike_id":"61351ca8-3a9e-4c11-b416-724c0af3756b","system_id":"levelo_inurba_marseille","lat":43.29192,"lon":5.39333,"is_reserved":false,"is_disabled":false,"rental_uris":{"android":"levelo://app?vid=61351ca8-3a9e-4c11-b416-724c0af3756b","ios":"levelo://app?vid=61351ca8-3a9e-4c11-b416-724c0af3756b"},"vehicle_type_id":"4","last_reported":1730905753,"current_range_meters":37600,"station_id":"ce4bh192rcd13ifvqdd0","pricing_plan_id":"cebpf4jnsgd1na2vs0mg"},{"bike_id":"66cadc2f-87dc-4b78-bb91-c6d6eee1cfce","system_id":"levelo_inurba_marseille","lat":43.30142,"lon":5.39882,"is_reserved":false,"is_disabled":false,"rental_uris":{"android":"levelo://app?vid=66cadc2f-87dc-4b78-bb91-c6d6eee1cfce","ios":"levelo://app?vid=66cadc2f-87dc-4b78-bb91-c6d6eee1cfce"},"vehicle_type_id":"4","last_reported":1730905753,"current_range_meters":18800,"station_id":"ce4bh0h2rcd13ifvqd40","pricing_plan_id":"cebpf4jnsgd1na2vs0mg"},{"bike_id":"c491fa16-4b4a-458c-ac66-986c67921221","system_id":"levelo_inurba_marseille","lat":43.27814,"lon":5.40712,"is_reserved":false,"is_disabled":false,"rental_uris":{"android":"levelo://app?vid=c491fa16-4b4a-458c-ac66-986c67921221","ios":"levelo://app?vid=c491fa16-4b4a-458c-ac66-986c67921221"},"vehicle_type_id":"4","last_reported":1730905753,"current_range_meters":20400,"station_id":"ce4bhnh2rcd13ifvqgtg","pricing_plan_id":"cebpf4jnsgd1na2vs0mg"},{"bike_id":"e5f32691-52b3-49a0-bf2d-4ae76cb03ca6","system_id":"levelo_inurba_marseille","lat":43.30191,"lon":5.36608,"is_reserved":false,"is_disabled":false,"rental_uris":{"android":"levelo://app?vid=e5f32691-52b3-49a0-bf2d-4ae76cb03ca6","ios":"levelo://app?vid=e5f32691-52b3-49a0-bf2d-4ae76cb03ca6"},"vehicle_type_id":"4","last_reported":1730905753,"current_range_meters":22800,"station_id":"ce4bgrh2rcd13ifvqc8g","pricing_plan_id":"cebpf4jnsgd1na2vs0mg"},{"bike_id":"6c0ec494-6a8d-470b-8cc1-989fb91438d3","system_id":"levelo_inurba_marseille","lat":43.23186,"lon":5.39995,"is_reserved":false,"is_disabled":false,"rental_uris":{"android":"levelo://app?vid=6c0ec494-6a8d-470b-8cc1-989fb91438d3","ios":"levelo://app?vid=6c0ec494-6a8d-470b-8cc1-989fb91438d3"},"vehicle_type_id":"4","last_reported":1730905753,"current_range_meters":30000,"station_id":"ce4bhn12rcd13ifvqgqg","pricing_plan_id":"cebpf4jnsgd1na2vs0mg"},{"bike_id":"504a2677-e7f9-490d-8752-2a9c4e557185","system_id":"levelo_inurba_marseille","lat":43.27176,"lon":5.41,"is_reserved":false,"is_disabled":false,"rental_uris":{"android":"levelo://app?vid=504a2677-e7f9-490d-8752-2a9c4e557185","ios":"levelo://app?vid=504a2677-e7f9-490d-8752-2a9c4e557185"},"vehicle_type_id":"4","last_reported":1730905753,"current_range_meters":29600,"station_id":"ce4bhl12rcd13ifvqgf0","pricing_plan_id":"cebpf4jnsgd1na2vs0mg"},{"bike_id":"a9134a2c-0cd3-42f1-aaa5-22766e2fb6e3","system_id":"levelo_inurba_marseille","lat":43.30597,"lon":5.37239,"is_reserved":false,"is_disabled":false,"rental_uris":{"android":"levelo://app?vid=a9134a2c-0cd3-42f1-aaa5-22766e2fb6e3","ios":"levelo://app?vid=a9134a2c-0cd3-42f1-aaa5-22766e2fb6e3"},"vehicle_type_id":"4","last_reported":1730905753,"current_range_meters":19600,"station_id":"ce4bgqh2rcd13ifvqc4g","pricing_plan_id":"cebpf4jnsgd1na2vs0mg"},{"bike_id":"37774ffa-74c3-422f-bd7d-aad1d5ecd167","system_id":"levelo_inurba_marseille","lat":43.28615,"lon":5.35106,"is_reserved":false,"is_disabled":false,"rental_uris":{"android":"levelo://app?vid=37774ffa-74c3-422f-bd7d-aad1d5ecd167","ios":"levelo://app?vid=37774ffa-74c3-422f-bd7d-aad1d5ecd167"},"vehicle_type_id":"4","last_reported":1730905753,"current_range_meters":8400,"station_id":"ce4bhch2rcd13ifvqeug","pricing_plan_id":"cebpf4jnsgd1na2vs0mg"},{"bike_id":"3fa571d9-68df-40a4-a9eb-4a058fc24b7b","system_id":"levelo_inurba_marseille","lat":43.25009,"lon":5.38918,"is_reserved":false,"is_disabled":false,"rental_uris":{"android":"levelo://app?vid=3fa571d9-68df-40a4-a9eb-4a058fc24b7b","ios":"levelo://app?vid=3fa571d9-68df-40a4-a9eb-4a058fc24b7b"},"vehicle_type_id":"4","last_reported":1730905753,"current_range_meters":2000,"station_id":"ce4bhgp2rcd13ifvqfd0","pricing_plan_id":"cebpf4jnsgd1na2vs0mg"},{"bike_id":"42163e3e-5009-401f-a1ce-f09eb7e2a510","system_id":"levelo_inurba_marseille","lat":43.31325,"lon":5.39713,"is_reserved":false,"is_disabled":false,"rental_uris":{"android":"levelo://app?vid=42163e3e-5009-401f-a1ce-f09eb7e2a510","ios":"levelo://app?vid=42163e3e-5009-401f-a1ce-f09eb7e2a510"},"vehicle_type_id":"4","last_reported":1730905753,"current_range_meters":39200,"station_id":"ce4bgvp2rcd13ifvqcu0","pricing_plan_id":"cebpf4jnsgd1na2vs0mg"},{"bike_id":"cae6509b-9edd-49be-8357-202cd2690387","system_id":"levelo_inurba_marseille","lat":43.26209,"lon":5.37447,"is_reserved":false,"is_disabled":false,"rental_uris":{"android":"levelo://app?vid=cae6509b-9edd-49be-8357-202cd2690387","ios":"levelo://app?vid=cae6509b-9edd-49be-8357-202cd2690387"},"vehicle_type_id":"4","last_reported":1730905753,"current_range_meters":25200,"station_id":"ce4bhgp2rcd13ifvqfc0","pricing_plan_id":"cebpf4jnsgd1na2vs0mg"},{"bike_id":"7483a60a-2a69-4b72-8d91-4411dd19ce55","system_id":"levelo_inurba_marseille","lat":43.30307,"lon":5.36848,"is_reserved":false,"is_disabled":false,"rental_uris":{"android":"levelo://app?vid=7483a60a-2a69-4b72-8d91-4411dd19ce55","ios":"levelo://app?vid=7483a60a-2a69-4b72-8d91-4411dd19ce55"},"vehicle_type_id":"4","last_reported":1730905753,"current_range_meters":28400,"station_id":"ce4bgqh2rcd13ifvqc5g","pricing_plan_id":"cebpf4jnsgd1na2vs0mg"},{"bike_id":"a0db1695-32d8-4d9c-9829-ab1da773a69e","system_id":"levelo_inurba_marseille","lat":43.30146,"lon":5.39871,"is_reserved":false,"is_disabled":false,"rental_uris":{"android":"levelo://app?vid=a0db1695-32d8-4d9c-9829-ab1da773a69e","ios":"levelo://app?vid=a0db1695-32d8-4d9c-9829-ab1da773a69e"},"vehicle_type_id":"4","last_reported":1730905753,"current_range_meters":36800,"station_id":"ce4bh0h2rcd13ifvqd40","pricing_plan_id":"cebpf4jnsgd1na2vs0mg"},{"bike_id":"9d5bb832-736f-447e-90e2-4b4afdee42a6","system_id":"levelo_inurba_marseille","lat":43.29277,"lon":5.36853,"is_reserved":false,"is_disabled":false,"rental_uris":{"android":"levelo://app?vid=9d5bb832-736f-447e-90e2-4b4afdee42a6","ios":"levelo://app?vid=9d5bb832-736f-447e-90e2-4b4afdee42a6"},"vehicle_type_id":"4","last_reported":1730905753,"current_range_meters":8800,"station_id":"ce4bhbp2rcd13ifvqesg","pricing_plan_id":"cebpf4jnsgd1na2vs0mg"},{"bike_id":"6ba15a90-335c-4201-8661-982499677023","system_id":"levelo_inurba_marseille","lat":43.30898,"lon":5.37193,"is_reserved":false,"is_disabled":false,"rental_uris":{"android":"levelo://app?vid=6ba15a90-335c-4201-8661-982499677023","ios":"levelo://app?vid=6ba15a90-335c-4201-8661-982499677023"},"vehicle_type_id":"4","last_reported":1730905753,"current_range_meters":2000,"station_id":"ce4bguh2rcd13ifvqckg","pricing_plan_id":"cebpf4jnsgd1na2vs0mg"},{"bike_id":"305ce754-dda4-452f-a713-e0d2d593c5da","system_id":"levelo_inurba_marseille","lat":43.26938,"lon":5.40253,"is_reserved":false,"is_disabled":false,"rental_uris":{"android":"levelo://app?vid=305ce754-dda4-452f-a713-e0d2d593c5da","ios":"levelo://app?vid=305ce754-dda4-452f-a713-e0d2d593c5da"},"vehicle_type_id":"4","last_reported":1730905753,"current_range_meters":2800,"station_id":"cjm6bp8fraef2m0cb0m0","pricing_plan_id":"cebpf4jnsgd1na2vs0mg"},{"bike_id":"0c84bbe2-0f5a-47d0-9ba5-d2b9c7fb1a05","system_id":"levelo_inurba_marseille","lat":43.30913,"lon":5.36843,"is_reserved":false,"is_disabled":false,"rental_uris":{"android":"levelo://app?vid=0c84bbe2-0f5a-47d0-9ba5-d2b9c7fb1a05","ios":"levelo://app?vid=0c84bbe2-0f5a-47d0-9ba5-d2b9c7fb1a05"},"vehicle_type_id":"4","last_reported":1730905753,"current_range_meters":15200,"station_id":"ce4bgn92rcd13ifvqbvg","pricing_plan_id":"cebpf4jnsgd1na2vs0mg"},{"bike_id":"9dee2a82-0da7-4471-ad6f-a2711259dd5f","system_id":"levelo_inurba_marseille","lat":43.30143,"lon":5.37412,"is_reserved":false,"is_disabled":false,"rental_uris":{"android":"levelo://app?vid=9dee2a82-0da7-4471-ad6f-a2711259dd5f","ios":"levelo://app?vid=9dee2a82-0da7-4471-ad6f-a2711259dd5f"},"vehicle_type_id":"4","last_reported":1730905753,"current_range_meters":38800,"station_id":"ce4bgs92rcd13ifvqcc0","pricing_plan_id":"cebpf4jnsgd1na2vs0mg"},{"bike_id":"2be58595-1ee4-4e97-90d2-c6d933b5e1c7","system_id":"levelo_inurba_marseille","lat":43.29892,"lon":5.43658,"is_reserved":false,"is_disabled":false,"rental_uris":{"android":"levelo://app?vid=2be58595-1ee4-4e97-90d2-c6d933b5e1c7","ios":"levelo://app?vid=2be58595-1ee4-4e97-90d2-c6d933b5e1c7"},"vehicle_type_id":"4","last_reported":1730905753,"current_range_meters":19200,"station_id":"ce4bhpp2rcd13ifvqhfg","pricing_plan_id":"cebpf4jnsgd1na2vs0mg"},{"bike_id":"56774acb-db67-4ad7-a357-929e677f3cc8","system_id":"levelo_inurba_marseille","lat":43.2808,"lon":5.39652,"is_reserved":false,"is_disabled":false,"rental_uris":{"android":"levelo://app?vid=56774acb-db67-4ad7-a357-929e677f3cc8","ios":"levelo://app?vid=56774acb-db67-4ad7-a357-929e677f3cc8"},"vehicle_type_id":"4","last_reported":1730905753,"current_range_meters":39200,"station_id":"ce4bho12rcd13ifvqh2g","pricing_plan_id":"cebpf4jnsgd1na2vs0mg"},{"bike_id":"359ccc8a-f269-4994-9a36-c8aed51e39df","system_id":"levelo_inurba_marseille","lat":43.30256,"lon":5.40069,"is_reserved":false,"is_disabled":false,"rental_uris":{"android":"levelo://app?vid=359ccc8a-f269-4994-9a36-c8aed51e39df","ios":"levelo://app?vid=359ccc8a-f269-4994-9a36-c8aed51e39df"},"vehicle_type_id":"4","last_reported":1730905753,"current_range_meters":24000,"station_id":"ce4bgvh2rcd13ifvqcs0","pricing_plan_id":"cebpf4jnsgd1na2vs0mg"},{"bike_id":"5f7cc900-56a1-4478-a9ef-9a8002294427","system_id":"levelo_inurba_marseille","lat":43.30451,"lon":5.37911,"is_reserved":false,"is_disabled":false,"rental_uris":{"android":"levelo://app?vid=5f7cc900-56a1-4478-a9ef-9a8002294427","ios":"levelo://app?vid=5f7cc900-56a1-4478-a9ef-9a8002294427"},"vehicle_type_id":"4","last_reported":1730905753,"current_range_meters":34000,"station_id":"ce4bgup2rcd13ifvqcn0","pricing_plan_id":"cebpf4jnsgd1na2vs0mg"},{"bike_id":"47b4a8e3-35a9-44e4-bbb6-0cea9414bfad","system_id":"levelo_inurba_marseille","lat":43.28155,"lon":5.42647,"is_reserved":false,"is_disabled":false,"rental_uris":{"android":"levelo://app?vid=47b4a8e3-35a9-44e4-bbb6-0cea9414bfad","ios":"levelo://app?vid=47b4a8e3-35a9-44e4-bbb6-0cea9414bfad"},"vehicle_type_id":"4","last_reported":1730905753,"current_range_meters":6400,"station_id":"ce4bhnh2rcd13ifvqgug","pricing_plan_id":"cebpf4jnsgd1na2vs0mg"},{"bike_id":"0ef8de58-21b1-49f6-9fb4-7906556155f6","system_id":"levelo_inurba_marseille","lat":43.27371,"lon":5.36261,"is_reserved":false,"is_disabled":false,"rental_uris":{"android":"levelo://app?vid=0ef8de58-21b1-49f6-9fb4-7906556155f6","ios":"levelo://app?vid=0ef8de58-21b1-49f6-9fb4-7906556155f6"},"vehicle_type_id":"4","last_reported":1730905753,"current_range_meters":9600,"station_id":"ce4bhbh2rcd13ifvqeo0","pricing_plan_id":"cebpf4jnsgd1na2vs0mg"},{"bike_id":"7c4e4407-2e0a-4970-b60b-e4c318769401","system_id":"levelo_inurba_marseille","lat":43.30152,"lon":5.37418,"is_reserved":false,"is_disabled":false,"rental_uris":{"android":"levelo://app?vid=7c4e4407-2e0a-4970-b60b-e4c318769401","ios":"levelo://app?vid=7c4e4407-2e0a-4970-b60b-e4c318769401"},"vehicle_type_id":"4","last_reported":1730905753,"current_range_meters":6800,"station_id":"ce4bgs92rcd13ifvqcc0","pricing_plan_id":"cebpf4jnsgd1na2vs0mg"},{"bike_id":"f348c9f4-9a66-4443-89e4-59eadd84ea52","system_id":"levelo_inurba_marseille","lat":43.31529,"lon":5.37251,"is_reserved":false,"is_disabled":false,"rental_uris":{"android":"levelo://app?vid=f348c9f4-9a66-4443-89e4-59eadd84ea52","ios":"levelo://app?vid=f348c9f4-9a66-4443-89e4-59eadd84ea52"},"vehicle_type_id":"4","last_reported":1730905753,"current_range_meters":7200,"station_id":"","pricing_plan_id":"cebpf4jnsgd1na2vs0mg"},{"bike_id":"7a0ff30b-886d-4e53-adab-9697b909dd1f","system_id":"levelo_inurba_marseille","lat":43.28269,"lon":5.35076,"is_reserved":false,"is_disabled":false,"rental_uris":{"android":"levelo://app?vid=7a0ff30b-886d-4e53-adab-9697b909dd1f","ios":"levelo://app?vid=7a0ff30b-886d-4e53-adab-9697b909dd1f"},"vehicle_type_id":"4","last_reported":1730905753,"current_range_meters":10000,"station_id":"ce4bhbp2rcd13ifvqerg","pricing_plan_id":"cebpf4jnsgd1na2vs0mg"},{"bike_id":"9b2f57d3-e63b-492b-9e39-a1d03caa84bd","system_id":"levelo_inurba_marseille","lat":43.24071,"lon":5.37756,"is_reserved":false,"is_disabled":false,"rental_uris":{"android":"levelo://app?vid=9b2f57d3-e63b-492b-9e39-a1d03caa84bd","ios":"levelo://app?vid=9b2f57d3-e63b-492b-9e39-a1d03caa84bd"},"vehicle_type_id":"4","last_reported":1730905753,"current_range_meters":6400,"station_id":"ce4bhnp2rcd13ifvqgvg","pricing_plan_id":"cebpf4jnsgd1na2vs0mg"},{"bike_id":"dfc5a11b-cfc2-4ce9-8698-799cdda3d684","system_id":"levelo_inurba_marseille","lat":43.28078,"lon":5.39663,"is_reserved":false,"is_disabled":false,"rental_uris":{"android":"levelo://app?vid=dfc5a11b-cfc2-4ce9-8698-799cdda3d684","ios":"levelo://app?vid=dfc5a11b-cfc2-4ce9-8698-799cdda3d684"},"vehicle_type_id":"4","last_reported":1730905753,"current_range_meters":39200,"station_id":"ce4bho12rcd13ifvqh2g","pricing_plan_id":"cebpf4jnsgd1na2vs0mg"},{"bike_id":"41d1f86c-47c8-47d8-9882-96d09b861f50","system_id":"levelo_inurba_marseille","lat":43.30941,"lon":5.38244,"is_reserved":false,"is_disabled":false,"rental_uris":{"android":"levelo://app?vid=41d1f86c-47c8-47d8-9882-96d09b861f50","ios":"levelo://app?vid=41d1f86c-47c8-47d8-9882-96d09b861f50"},"vehicle_type_id":"4","last_reported":1730905753,"current_range_meters":25200,"station_id":"","pricing_plan_id":"cebpf4jnsgd1na2vs0mg"},{"bike_id":"7a992303-b781-4519-b839-62bb865e5c1f","system_id":"levelo_inurba_marseille","lat":43.30461,"lon":5.37906,"is_reserved":false,"is_disabled":false,"rental_uris":{"android":"levelo://app?vid=7a992303-b781-4519-b839-62bb865e5c1f","ios":"levelo://app?vid=7a992303-b781-4519-b839-62bb865e5c1f"},"vehicle_type_id":"4","last_reported":1730905753,"current_range_meters":15200,"station_id":"ce4bgup2rcd13ifvqcn0","pricing_plan_id":"cebpf4jnsgd1na2vs0mg"},{"bike_id":"fd6b15d1-dd35-4cfd-b810-98486a32c3fa","system_id":"levelo_inurba_marseille","lat":43.29727,"lon":5.37688,"is_reserved":false,"is_disabled":false,"rental_uris":{"android":"levelo://app?vid=fd6b15d1-dd35-4cfd-b810-98486a32c3fa","ios":"levelo://app?vid=fd6b15d1-dd35-4cfd-b810-98486a32c3fa"},"vehicle_type_id":"4","last_reported":1730905753,"current_range_meters":39200,"station_id":"ce4bgkh2rcd13ifvqbl0","pricing_plan_id":"cebpf4jnsgd1na2vs0mg"},{"bike_id":"4ff64ffd-ab9b-49fc-9447-387d286174e1","system_id":"levelo_inurba_marseille","lat":43.29677,"lon":5.37285,"is_reserved":false,"is_disabled":false,"rental_uris":{"android":"levelo://app?vid=4ff64ffd-ab9b-49fc-9447-387d286174e1","ios":"levelo://app?vid=4ff64ffd-ab9b-49fc-9447-387d286174e1"},"vehicle_type_id":"4","last_reported":1730905753,"current_range_meters":38000,"station_id":"ce4bgk12rcd13ifvqbj0","pricing_plan_id":"cebpf4jnsgd1na2vs0mg"},{"bike_id":"730c3de6-8006-4f66-9ff5-9156a26fbed7","system_id":"levelo_inurba_marseille","lat":43.27319,"lon":5.39075,"is_reserved":false,"is_disabled":false,"rental_uris":{"android":"levelo://app?vid=730c3de6-8006-4f66-9ff5-9156a26fbed7","ios":"levelo://app?vid=730c3de6-8006-4f66-9ff5-9156a26fbed7"},"vehicle_type_id":"4","last_reported":1730905753,"current_range_meters":27600,"station_id":"ce4bhgp2rcd13ifvqfe0","pricing_plan_id":"cebpf4jnsgd1na2vs0mg"},{"bike_id":"bdd117ca-e1f1-4e1e-986d-f8c35615d02a","system_id":"levelo_inurba_marseille","lat":43.30931,"lon":5.40145,"is_reserved":false,"is_disabled":false,"rental_uris":{"android":"levelo://app?vid=bdd117ca-e1f1-4e1e-986d-f8c35615d02a","ios":"levelo://app?vid=bdd117ca-e1f1-4e1e-986d-f8c35615d02a"},"vehicle_type_id":"4","last_reported":1730905753,"current_range_meters":36000,"station_id":"ce4bgvp2rcd13ifvqct0","pricing_plan_id":"cebpf4jnsgd1na2vs0mg"},{"bike_id":"edd54ce5-09dc-4109-8395-d6e4023edc11","system_id":"levelo_inurba_marseille","lat":43.31325,"lon":5.39697,"is_reserved":false,"is_disabled":false,"rental_uris":{"android":"levelo://app?vid=edd54ce5-09dc-4109-8395-d6e4023edc11","ios":"levelo://app?vid=edd54ce5-09dc-4109-8395-d6e4023edc11"},"vehicle_type_id":"4","last_reported":1730905753,"current_range_meters":18800,"station_id":"ce4bgvp2rcd13ifvqcu0","pricing_plan_id":"cebpf4jnsgd1na2vs0mg"},{"bike_id":"1f47ed8e-1934-48ce-892b-9aee2605272e","system_id":"levelo_inurba_marseille","lat":43.28925,"lon":5.38405,"is_reserved":false,"is_disabled":false,"rental_uris":{"android":"levelo://app?vid=1f47ed8e-1934-48ce-892b-9aee2605272e","ios":"levelo://app?vid=1f47ed8e-1934-48ce-892b-9aee2605272e"},"vehicle_type_id":"4","last_reported":1730905753,"current_range_meters":39200,"station_id":"ce4bh612rcd13ifvqe6g","pricing_plan_id":"cebpf4jnsgd1na2vs0mg"},{"bike_id":"61ba7a55-d9d7-4591-8bfb-28f37618abea","system_id":"levelo_inurba_marseille","lat":43.29717,"lon":5.37697,"is_reserved":false,"is_disabled":false,"rental_uris":{"android":"levelo://app?vid=61ba7a55-d9d7-4591-8bfb-28f37618abea","ios":"levelo://app?vid=61ba7a55-d9d7-4591-8bfb-28f37618abea"},"vehicle_type_id":"4","last_reported":1730905753,"current_range_meters":36800,"station_id":"ce4bgkh2rcd13ifvqbl0","pricing_plan_id":"cebpf4jnsgd1na2vs0mg"},{"bike_id":"2fd23dd6-005c-4cae-a126-97bd9f7f6f6d","system_id":"levelo_inurba_marseille","lat":43.2867,"lon":5.38666,"is_reserved":false,"is_disabled":false,"rental_uris":{"android":"levelo://app?vid=2fd23dd6-005c-4cae-a126-97bd9f7f6f6d","ios":"levelo://app?vid=2fd23dd6-005c-4cae-a126-97bd9f7f6f6d"},"vehicle_type_id":"4","last_reported":1730905753,"current_range_meters":35200,"station_id":"ce4bh492rcd13ifvqdug","pricing_plan_id":"cebpf4jnsgd1na2vs0mg"},{"bike_id":"b4678c20-7935-41da-9eb4-bbd1cd730c71","system_id":"levelo_inurba_marseille","lat":43.25867,"lon":5.39906,"is_reserved":false,"is_disabled":false,"rental_uris":{"android":"levelo://app?vid=b4678c20-7935-41da-9eb4-bbd1cd730c71","ios":"levelo://app?vid=b4678c20-7935-41da-9eb4-bbd1cd730c71"},"vehicle_type_id":"4","last_reported":1730905753,"current_range_meters":37600,"station_id":"ce4bhl92rcd13ifvqghg","pricing_plan_id":"cebpf4jnsgd1na2vs0mg"},{"bike_id":"37623bdb-f74e-46f8-93ef-89f67fb6b8bf","system_id":"levelo_inurba_marseille","lat":43.29005,"lon":5.35616,"is_reserved":false,"is_disabled":false,"rental_uris":{"android":"levelo://app?vid=37623bdb-f74e-46f8-93ef-89f67fb6b8bf","ios":"levelo://app?vid=37623bdb-f74e-46f8-93ef-89f67fb6b8bf"},"vehicle_type_id":"4","last_reported":1730905753,"current_range_meters":29600,"station_id":"ce4bhb92rcd13ifvqen0","pricing_plan_id":"cebpf4jnsgd1na2vs0mg"},{"bike_id":"cde33d01-4fdf-4588-9993-50576e545d63","system_id":"levelo_inurba_marseille","lat":43.29901,"lon":5.43665,"is_reserved":false,"is_disabled":false,"rental_uris":{"android":"levelo://app?vid=cde33d01-4fdf-4588-9993-50576e545d63","ios":"levelo://app?vid=cde33d01-4fdf-4588-9993-50576e545d63"},"vehicle_type_id":"4","last_reported":1730905753,"current_range_meters":37600,"station_id":"ce4bhpp2rcd13ifvqhfg","pricing_plan_id":"cebpf4jnsgd1na2vs0mg"},{"bike_id":"7b0fa45b-73b1-43d0-b318-c7b89f93ae59","system_id":"levelo_inurba_marseille","lat":43.3132,"lon":5.39703,"is_reserved":false,"is_disabled":false,"rental_uris":{"android":"levelo://app?vid=7b0fa45b-73b1-43d0-b318-c7b89f93ae59","ios":"levelo://app?vid=7b0fa45b-73b1-43d0-b318-c7b89f93ae59"},"vehicle_type_id":"4","last_reported":1730905753,"current_range_meters":8800,"station_id":"ce4bgvp2rcd13ifvqcu0","pricing_plan_id":"cebpf4jnsgd1na2vs0mg"},{"bike_id":"a9a07d55-8a5c-4444-951d-b08b7d2e7752","system_id":"levelo_inurba_marseille","lat":43.29795,"lon":5.38081,"is_reserved":false,"is_disabled":false,"rental_uris":{"android":"levelo://app?vid=a9a07d55-8a5c-4444-951d-b08b7d2e7752","ios":"levelo://app?vid=a9a07d55-8a5c-4444-951d-b08b7d2e7752"},"vehicle_type_id":"4","last_reported":1730905753,"current_range_meters":39200,"station_id":"ce4bgip2rcd13ifvqbb0","pricing_plan_id":"cebpf4jnsgd1na2vs0mg"},{"bike_id":"2e130446-378a-46a2-a44f-c9b1198655c9","system_id":"levelo_inurba_marseille","lat":43.31118,"lon":5.37763,"is_reserved":false,"is_disabled":false,"rental_uris":{"android":"levelo://app?vid=2e130446-378a-46a2-a44f-c9b1198655c9","ios":"levelo://app?vid=2e130446-378a-46a2-a44f-c9b1198655c9"},"vehicle_type_id":"4","last_reported":1730905753,"current_range_meters":38000,"station_id":"ce4bgt92rcd13ifvqcg0","pricing_plan_id":"cebpf4jnsgd1na2vs0mg"},{"bike_id":"1ee3abd9-b5d8-49ad-a7b9-42fd857fd658","system_id":"levelo_inurba_marseille","lat":43.28842,"lon":5.39303,"is_reserved":false,"is_disabled":false,"rental_uris":{"android":"levelo://app?vid=1ee3abd9-b5d8-49ad-a7b9-42fd857fd658","ios":"levelo://app?vid=1ee3abd9-b5d8-49ad-a7b9-42fd857fd658"},"vehicle_type_id":"4","last_reported":1730905753,"current_range_meters":28400,"station_id":"ce4bh2p2rcd13ifvqdi0","pricing_plan_id":"cebpf4jnsgd1na2vs0mg"},{"bike_id":"9d9dc117-b422-4432-b305-2ee17862cef6","system_id":"levelo_inurba_marseille","lat":43.31221,"lon":5.36911,"is_reserved":false,"is_disabled":false,"rental_uris":{"android":"levelo://app?vid=9d9dc117-b422-4432-b305-2ee17862cef6","ios":"levelo://app?vid=9d9dc117-b422-4432-b305-2ee17862cef6"},"vehicle_type_id":"4","last_reported":1730905753,"current_range_meters":28000,"station_id":"ce4bgl92rcd13ifvqbq0","pricing_plan_id":"cebpf4jnsgd1na2vs0mg"},{"bike_id":"7c11a563-75b5-427a-8e7e-4e83724c2cde","system_id":"levelo_inurba_marseille","lat":43.2586,"lon":5.39903,"is_reserved":false,"is_disabled":false,"rental_uris":{"android":"levelo://app?vid=7c11a563-75b5-427a-8e7e-4e83724c2cde","ios":"levelo://app?vid=7c11a563-75b5-427a-8e7e-4e83724c2cde"},"vehicle_type_id":"4","last_reported":1730905753,"current_range_meters":28800,"station_id":"ce4bhl92rcd13ifvqghg","pricing_plan_id":"cebpf4jnsgd1na2vs0mg"},{"bike_id":"f5596869-7913-4686-95ca-aa0c6c69ba13","system_id":"levelo_inurba_marseille","lat":43.3091,"lon":5.36856,"is_reserved":false,"is_disabled":false,"rental_uris":{"android":"levelo://app?vid=f5596869-7913-4686-95ca-aa0c6c69ba13","ios":"levelo://app?vid=f5596869-7913-4686-95ca-aa0c6c69ba13"},"vehicle_type_id":"4","last_reported":1730905753,"current_range_meters":38800,"station_id":"ce4bgn92rcd13ifvqbvg","pricing_plan_id":"cebpf4jnsgd1na2vs0mg"},{"bike_id":"6eb85ccd-da9a-4ffe-af26-c8aa9f5f40f1","system_id":"levelo_inurba_marseille","lat":43.27617,"lon":5.36113,"is_reserved":false,"is_disabled":false,"rental_uris":{"android":"levelo://app?vid=6eb85ccd-da9a-4ffe-af26-c8aa9f5f40f1","ios":"levelo://app?vid=6eb85ccd-da9a-4ffe-af26-c8aa9f5f40f1"},"vehicle_type_id":"4","last_reported":1730905753,"current_range_meters":24800,"station_id":"ce4bgj92rcd13ifvqbe0","pricing_plan_id":"cebpf4jnsgd1na2vs0mg"},{"bike_id":"bc8ee944-4095-408e-9184-b2d4e6d962c5","system_id":"levelo_inurba_marseille","lat":43.29194,"lon":5.39318,"is_reserved":false,"is_disabled":false,"rental_uris":{"android":"levelo://app?vid=bc8ee944-4095-408e-9184-b2d4e6d962c5","ios":"levelo://app?vid=bc8ee944-4095-408e-9184-b2d4e6d962c5"},"vehicle_type_id":"4","last_reported":1730905753,"current_range_meters":36000,"station_id":"ce4bh192rcd13ifvqdd0","pricing_plan_id":"cebpf4jnsgd1na2vs0mg"},{"bike_id":"5174ae6b-73b7-4eb9-b82e-9c61c1f78ce8","system_id":"levelo_inurba_marseille","lat":43.31228,"lon":5.4064,"is_reserved":false,"is_disabled":false,"rental_uris":{"android":"levelo://app?vid=5174ae6b-73b7-4eb9-b82e-9c61c1f78ce8","ios":"levelo://app?vid=5174ae6b-73b7-4eb9-b82e-9c61c1f78ce8"},"vehicle_type_id":"4","last_reported":1730905753,"current_range_meters":22800,"station_id":"","pricing_plan_id":"cebpf4jnsgd1na2vs0mg"},{"bike_id":"d2a908f1-8722-488b-84d0-b5034d83c83b","system_id":"levelo_inurba_marseille","lat":43.27207,"lon":5.3919,"is_reserved":false,"is_disabled":false,"rental_uris":{"android":"levelo://app?vid=d2a908f1-8722-488b-84d0-b5034d83c83b","ios":"levelo://app?vid=d2a908f1-8722-488b-84d0-b5034d83c83b"},"vehicle_type_id":"4","last_reported":1730905753,"current_range_meters":10800,"station_id":"ce4bhhp2rcd13ifvqfm0","pricing_plan_id":"cebpf4jnsgd1na2vs0mg"},{"bike_id":"9b9f96d4-f47d-4212-9034-69730d3ee4a6","system_id":"levelo_inurba_marseille","lat":43.30562,"lon":5.3658,"is_reserved":false,"is_disabled":false,"rental_uris":{"android":"levelo://app?vid=9b9f96d4-f47d-4212-9034-69730d3ee4a6","ios":"levelo://app?vid=9b9f96d4-f47d-4212-9034-69730d3ee4a6"},"vehicle_type_id":"4","last_reported":1730905753,"current_range_meters":12400,"station_id":"ce4bgs12rcd13ifvqcag","pricing_plan_id":"cebpf4jnsgd1na2vs0mg"},{"bike_id":"abe2948c-ebf4-4868-99bf-717699faba72","system_id":"levelo_inurba_marseille","lat":43.30608,"lon":5.37229,"is_reserved":false,"is_disabled":false,"rental_uris":{"android":"levelo://app?vid=abe2948c-ebf4-4868-99bf-717699faba72","ios":"levelo://app?vid=abe2948c-ebf4-4868-99bf-717699faba72"},"vehicle_type_id":"4","last_reported":1730905753,"current_range_meters":10800,"station_id":"ce4bgqh2rcd13ifvqc4g","pricing_plan_id":"cebpf4jnsgd1na2vs0mg"},{"bike_id":"5c2fa243-c581-49b7-8bab-74f280a8144a","system_id":"levelo_inurba_marseille","lat":43.29264,"lon":5.36849,"is_reserved":false,"is_disabled":false,"rental_uris":{"android":"levelo://app?vid=5c2fa243-c581-49b7-8bab-74f280a8144a","ios":"levelo://app?vid=5c2fa243-c581-49b7-8bab-74f280a8144a"},"vehicle_type_id":"4","last_reported":1730905753,"current_range_meters":17600,"station_id":"ce4bhbp2rcd13ifvqesg","pricing_plan_id":"cebpf4jnsgd1na2vs0mg"},{"bike_id":"661f5001-e57e-484d-b03c-9eedf36f448c","system_id":"levelo_inurba_marseille","lat":43.28673,"lon":5.38675,"is_reserved":false,"is_disabled":false,"rental_uris":{"android":"levelo://app?vid=661f5001-e57e-484d-b03c-9eedf36f448c","ios":"levelo://app?vid=661f5001-e57e-484d-b03c-9eedf36f448c"},"vehicle_type_id":"4","last_reported":1730905753,"current_range_meters":28800,"station_id":"ce4bh492rcd13ifvqdug","pricing_plan_id":"cebpf4jnsgd1na2vs0mg"},{"bike_id":"bff19b85-fa9d-4d2e-a404-1b3282f15d63","system_id":"levelo_inurba_marseille","lat":43.28001,"lon":5.4002,"is_reserved":false,"is_disabled":false,"rental_uris":{"android":"levelo://app?vid=bff19b85-fa9d-4d2e-a404-1b3282f15d63","ios":"levelo://app?vid=bff19b85-fa9d-4d2e-a404-1b3282f15d63"},"vehicle_type_id":"4","last_reported":1730905753,"current_range_meters":38400,"station_id":"ce4bho92rcd13ifvqh4g","pricing_plan_id":"cebpf4jnsgd1na2vs0mg"},{"bike_id":"dc8b553a-ede4-41ca-afeb-471fbb9c074f","system_id":"levelo_inurba_marseille","lat":43.28571,"lon":5.39499,"is_reserved":false,"is_disabled":false,"rental_uris":{"android":"levelo://app?vid=dc8b553a-ede4-41ca-afeb-471fbb9c074f","ios":"levelo://app?vid=dc8b553a-ede4-41ca-afeb-471fbb9c074f"},"vehicle_type_id":"4","last_reported":1730905753,"current_range_meters":32800,"station_id":"ce4bh292rcd13ifvqdg0","pricing_plan_id":"cebpf4jnsgd1na2vs0mg"},{"bike_id":"34bb6386-09b5-43a4-a2d3-3cf731f7f71f","system_id":"levelo_inurba_marseille","lat":43.28407,"lon":5.34996,"is_reserved":false,"is_disabled":false,"rental_uris":{"android":"levelo://app?vid=34bb6386-09b5-43a4-a2d3-3cf731f7f71f","ios":"levelo://app?vid=34bb6386-09b5-43a4-a2d3-3cf731f7f71f"},"vehicle_type_id":"4","last_reported":1730905753,"current_range_meters":36400,"station_id":"ce4bhbh2rcd13ifvqepg","pricing_plan_id":"cebpf4jnsgd1na2vs0mg"},{"bike_id":"31a9ee20-6554-4af8-a0eb-815725c30b2e","system_id":"levelo_inurba_marseille","lat":43.29034,"lon":5.39972,"is_reserved":false,"is_disabled":false,"rental_uris":{"android":"levelo://app?vid=31a9ee20-6554-4af8-a0eb-815725c30b2e","ios":"levelo://app?vid=31a9ee20-6554-4af8-a0eb-815725c30b2e"},"vehicle_type_id":"4","last_reported":1730905753,"current_range_meters":38800,"station_id":"ce4bh392rcd13ifvqdm0","pricing_plan_id":"cebpf4jnsgd1na2vs0mg"},{"bike_id":"facaddb7-865b-4fc0-aede-e7720a798ab7","system_id":"levelo_inurba_marseille","lat":43.30146,"lon":5.37419,"is_reserved":false,"is_disabled":false,"rental_uris":{"android":"levelo://app?vid=facaddb7-865b-4fc0-aede-e7720a798ab7","ios":"levelo://app?vid=facaddb7-865b-4fc0-aede-e7720a798ab7"},"vehicle_type_id":"4","last_reported":1730905753,"current_range_meters":31200,"station_id":"ce4bgs92rcd13ifvqcc0","pricing_plan_id":"cebpf4jnsgd1na2vs0mg"},{"bike_id":"ebcf6733-e41e-4f70-b758-d56fe1de23df","system_id":"levelo_inurba_marseille","lat":43.30537,"lon":5.36538,"is_reserved":false,"is_disabled":false,"rental_uris":{"android":"levelo://app?vid=ebcf6733-e41e-4f70-b758-d56fe1de23df","ios":"levelo://app?vid=ebcf6733-e41e-4f70-b758-d56fe1de23df"},"vehicle_type_id":"4","last_reported":1730905753,"current_range_meters":38800,"station_id":"ce4bgs12rcd13ifvqcag","pricing_plan_id":"cebpf4jnsgd1na2vs0mg"},{"bike_id":"dbd0a870-3175-4e8a-86e2-8f3039739848","system_id":"levelo_inurba_marseille","lat":43.245815,"lon":5.393121,"is_reserved":false,"is_disabled":false,"rental_uris":{"android":"levelo://app?vid=dbd0a870-3175-4e8a-86e2-8f3039739848","ios":"levelo://app?vid=dbd0a870-3175-4e8a-86e2-8f3039739848"},"vehicle_type_id":"4","last_reported":1730905753,"current_range_meters":38000,"station_id":"ce4bhg12rcd13ifvqf60","pricing_plan_id":"cebpf4jnsgd1na2vs0mg"},{"bike_id":"dc397fa6-87ca-400e-beb0-b20e68c09032","system_id":"levelo_inurba_marseille","lat":43.31484,"lon":5.37306,"is_reserved":false,"is_disabled":false,"rental_uris":{"android":"levelo://app?vid=dc397fa6-87ca-400e-beb0-b20e68c09032","ios":"levelo://app?vid=dc397fa6-87ca-400e-beb0-b20e68c09032"},"vehicle_type_id":"4","last_reported":1730905753,"current_range_meters":20400,"station_id":"ce4bgt12rcd13ifvqcd0","pricing_plan_id":"cebpf4jnsgd1na2vs0mg"},{"bike_id":"097dd610-02a5-4fc8-8a3d-1082f852a16d","system_id":"levelo_inurba_marseille","lat":43.309347,"lon":5.401487,"is_reserved":false,"is_disabled":false,"rental_uris":{"android":"levelo://app?vid=097dd610-02a5-4fc8-8a3d-1082f852a16d","ios":"levelo://app?vid=097dd610-02a5-4fc8-8a3d-1082f852a16d"},"vehicle_type_id":"4","last_reported":1730905753,"current_range_meters":39200,"station_id":"ce4bgvp2rcd13ifvqct0","pricing_plan_id":"cebpf4jnsgd1na2vs0mg"},{"bike_id":"2a5509de-6497-4aae-8d52-766b60683833","system_id":"levelo_inurba_marseille","lat":43.30925,"lon":5.40144,"is_reserved":false,"is_disabled":false,"rental_uris":{"android":"levelo://app?vid=2a5509de-6497-4aae-8d52-766b60683833","ios":"levelo://app?vid=2a5509de-6497-4aae-8d52-766b60683833"},"vehicle_type_id":"4","last_reported":1730905753,"current_range_meters":38800,"station_id":"ce4bgvp2rcd13ifvqct0","pricing_plan_id":"cebpf4jnsgd1na2vs0mg"},{"bike_id":"f812dff3-9575-4258-b727-30dc233df4f0","system_id":"levelo_inurba_marseille","lat":43.298,"lon":5.38094,"is_reserved":false,"is_disabled":false,"rental_uris":{"android":"levelo://app?vid=f812dff3-9575-4258-b727-30dc233df4f0","ios":"levelo://app?vid=f812dff3-9575-4258-b727-30dc233df4f0"},"vehicle_type_id":"4","last_reported":1730905753,"current_range_meters":37600,"station_id":"ce4bgip2rcd13ifvqbb0","pricing_plan_id":"cebpf4jnsgd1na2vs0mg"},{"bike_id":"13cd7d8f-f0c7-4a5b-93d1-3d08557326e9","system_id":"levelo_inurba_marseille","lat":43.31174,"lon":5.38716,"is_reserved":false,"is_disabled":false,"rental_uris":{"android":"levelo://app?vid=13cd7d8f-f0c7-4a5b-93d1-3d08557326e9","ios":"levelo://app?vid=13cd7d8f-f0c7-4a5b-93d1-3d08557326e9"},"vehicle_type_id":"4","last_reported":1730905753,"current_range_meters":38000,"station_id":"ce4bgv12rcd13ifvqcp0","pricing_plan_id":"cebpf4jnsgd1na2vs0mg"},{"bike_id":"d0621f33-b702-449e-bdb8-2aaea5f7d5a4","system_id":"levelo_inurba_marseille","lat":43.29655,"lon":5.37827,"is_reserved":false,"is_disabled":false,"rental_uris":{"android":"levelo://app?vid=d0621f33-b702-449e-bdb8-2aaea5f7d5a4","ios":"levelo://app?vid=d0621f33-b702-449e-bdb8-2aaea5f7d5a4"},"vehicle_type_id":"4","last_reported":1730905753,"current_range_meters":36400,"station_id":"ce4bgi92rcd13ifvqb90","pricing_plan_id":"cebpf4jnsgd1na2vs0mg"},{"bike_id":"67c65a4c-d5fc-45c3-aaae-b079185a8771","system_id":"levelo_inurba_marseille","lat":43.28728,"lon":5.36089,"is_reserved":false,"is_disabled":false,"rental_uris":{"android":"levelo://app?vid=67c65a4c-d5fc-45c3-aaae-b079185a8771","ios":"levelo://app?vid=67c65a4c-d5fc-45c3-aaae-b079185a8771"},"vehicle_type_id":"4","last_reported":1730905753,"current_range_meters":10000,"station_id":"cki0cbj6b192h4jlfktg","pricing_plan_id":"cebpf4jnsgd1na2vs0mg"},{"bike_id":"a5bc2fce-204d-4ecc-bd2f-0a758ce61f0d","system_id":"levelo_inurba_marseille","lat":43.27992,"lon":5.40012,"is_reserved":false,"is_disabled":false,"rental_uris":{"android":"levelo://app?vid=a5bc2fce-204d-4ecc-bd2f-0a758ce61f0d","ios":"levelo://app?vid=a5bc2fce-204d-4ecc-bd2f-0a758ce61f0d"},"vehicle_type_id":"4","last_reported":1730905753,"current_range_meters":8400,"station_id":"ce4bho92rcd13ifvqh4g","pricing_plan_id":"cebpf4jnsgd1na2vs0mg"},{"bike_id":"d0196702-7429-4a2d-86eb-6777a267cff3","system_id":"levelo_inurba_marseille","lat":43.29992,"lon":5.37181,"is_reserved":false,"is_disabled":false,"rental_uris":{"android":"levelo://app?vid=d0196702-7429-4a2d-86eb-6777a267cff3","ios":"levelo://app?vid=d0196702-7429-4a2d-86eb-6777a267cff3"},"vehicle_type_id":"4","last_reported":1730905753,"current_range_meters":9600,"station_id":"ce4bgr92rcd13ifvqc7g","pricing_plan_id":"cebpf4jnsgd1na2vs0mg"},{"bike_id":"a340668b-5f25-49c9-8a20-7d200c07d3e9","system_id":"levelo_inurba_marseille","lat":43.29485,"lon":5.42022,"is_reserved":false,"is_disabled":false,"rental_uris":{"android":"levelo://app?vid=a340668b-5f25-49c9-8a20-7d200c07d3e9","ios":"levelo://app?vid=a340668b-5f25-49c9-8a20-7d200c07d3e9"},"vehicle_type_id":"4","last_reported":1730905753,"current_range_meters":19200,"station_id":"ce4bhph2rcd13ifvqhdg","pricing_plan_id":"cebpf4jnsgd1na2vs0mg"},{"bike_id":"5db54759-eb75-4c4e-82f4-46eb11edcd15","system_id":"levelo_inurba_marseille","lat":43.29261,"lon":5.38451,"is_reserved":false,"is_disabled":false,"rental_uris":{"android":"levelo://app?vid=5db54759-eb75-4c4e-82f4-46eb11edcd15","ios":"levelo://app?vid=5db54759-eb75-4c4e-82f4-46eb11edcd15"},"vehicle_type_id":"4","last_reported":1730905753,"current_range_meters":26800,"station_id":"ce4bh692rcd13ifvqea0","pricing_plan_id":"cebpf4jnsgd1na2vs0mg"},{"bike_id":"fa7b0e37-7e18-4a6e-9d36-9bc2f765b5d0","system_id":"levelo_inurba_marseille","lat":43.33772,"lon":5.37427,"is_reserved":false,"is_disabled":false,"rental_uris":{"android":"levelo://app?vid=fa7b0e37-7e18-4a6e-9d36-9bc2f765b5d0","ios":"levelo://app?vid=fa7b0e37-7e18-4a6e-9d36-9bc2f765b5d0"},"vehicle_type_id":"4","last_reported":1730905753,"current_range_meters":36400,"station_id":"","pricing_plan_id":"cebpf4jnsgd1na2vs0mg"},{"bike_id":"b7dd8bea-767b-4a90-a1d4-bc825086e891","system_id":"levelo_inurba_marseille","lat":43.3013,"lon":5.39883,"is_reserved":false,"is_disabled":false,"rental_uris":{"android":"levelo://app?vid=b7dd8bea-767b-4a90-a1d4-bc825086e891","ios":"levelo://app?vid=b7dd8bea-767b-4a90-a1d4-bc825086e891"},"vehicle_type_id":"4","last_reported":1730905753,"current_range_meters":28000,"station_id":"ce4bh0h2rcd13ifvqd40","pricing_plan_id":"cebpf4jnsgd1na2vs0mg"},{"bike_id":"2c4af81a-61a4-4b7d-9737-a21161e3b7d5","system_id":"levelo_inurba_marseille","lat":43.30552,"lon":5.36554,"is_reserved":false,"is_disabled":false,"rental_uris":{"android":"levelo://app?vid=2c4af81a-61a4-4b7d-9737-a21161e3b7d5","ios":"levelo://app?vid=2c4af81a-61a4-4b7d-9737-a21161e3b7d5"},"vehicle_type_id":"4","last_reported":1730905753,"current_range_meters":32800,"station_id":"ce4bgs12rcd13ifvqcag","pricing_plan_id":"cebpf4jnsgd1na2vs0mg"},{"bike_id":"acd44d90-1d24-4712-b3a7-5d82cacdff6b","system_id":"levelo_inurba_marseille","lat":43.30802,"lon":5.38161,"is_reserved":false,"is_disabled":false,"rental_uris":{"android":"levelo://app?vid=acd44d90-1d24-4712-b3a7-5d82cacdff6b","ios":"levelo://app?vid=acd44d90-1d24-4712-b3a7-5d82cacdff6b"},"vehicle_type_id":"4","last_reported":1730905753,"current_range_meters":39200,"station_id":"ce4bgt12rcd13ifvqce0","pricing_plan_id":"cebpf4jnsgd1na2vs0mg"},{"bike_id":"b8d968c2-430e-4297-9b22-19cd8c0f916d","system_id":"levelo_inurba_marseille","lat":43.23154,"lon":5.43696,"is_reserved":false,"is_disabled":false,"rental_uris":{"android":"levelo://app?vid=b8d968c2-430e-4297-9b22-19cd8c0f916d","ios":"levelo://app?vid=b8d968c2-430e-4297-9b22-19cd8c0f916d"},"vehicle_type_id":"4","last_reported":1730905753,"current_range_meters":37600,"station_id":"ce4bhmp2rcd13ifvqgog","pricing_plan_id":"cebpf4jnsgd1na2vs0mg"},{"bike_id":"4eb50040-f52f-46c0-a67d-2e65f9d92d61","system_id":"levelo_inurba_marseille","lat":43.29275,"lon":5.40136,"is_reserved":false,"is_disabled":false,"rental_uris":{"android":"levelo://app?vid=4eb50040-f52f-46c0-a67d-2e65f9d92d61","ios":"levelo://app?vid=4eb50040-f52f-46c0-a67d-2e65f9d92d61"},"vehicle_type_id":"4","last_reported":1730905753,"current_range_meters":36800,"station_id":"ce4bh312rcd13ifvqdk0","pricing_plan_id":"cebpf4jnsgd1na2vs0mg"},{"bike_id":"462f2583-18ff-4bd3-b2d4-01f8e7cb060e","system_id":"levelo_inurba_marseille","lat":43.25581,"lon":5.38238,"is_reserved":false,"is_disabled":false,"rental_uris":{"android":"levelo://app?vid=462f2583-18ff-4bd3-b2d4-01f8e7cb060e","ios":"levelo://app?vid=462f2583-18ff-4bd3-b2d4-01f8e7cb060e"},"vehicle_type_id":"4","last_reported":1730905753,"current_range_meters":6000,"station_id":"ce4bhih2rcd13ifvqfs0","pricing_plan_id":"cebpf4jnsgd1na2vs0mg"},{"bike_id":"55a677bd-87c6-4021-ae5c-c9a5693b7d71","system_id":"levelo_inurba_marseille","lat":43.31324,"lon":5.39699,"is_reserved":false,"is_disabled":false,"rental_uris":{"android":"levelo://app?vid=55a677bd-87c6-4021-ae5c-c9a5693b7d71","ios":"levelo://app?vid=55a677bd-87c6-4021-ae5c-c9a5693b7d71"},"vehicle_type_id":"4","last_reported":1730905753,"current_range_meters":38800,"station_id":"ce4bgvp2rcd13ifvqcu0","pricing_plan_id":"cebpf4jnsgd1na2vs0mg"},{"bike_id":"4e5d727a-7c34-44b8-af94-45a54b88c1cc","system_id":"levelo_inurba_marseille","lat":43.3372,"lon":5.39186,"is_reserved":false,"is_disabled":false,"rental_uris":{"android":"levelo://app?vid=4e5d727a-7c34-44b8-af94-45a54b88c1cc","ios":"levelo://app?vid=4e5d727a-7c34-44b8-af94-45a54b88c1cc"},"vehicle_type_id":"4","last_reported":1730905753,"current_range_meters":38800,"station_id":"ce4bhr92rcd13ifvqhsg","pricing_plan_id":"cebpf4jnsgd1na2vs0mg"},{"bike_id":"37d671ca-73f2-41a5-8af5-b44a52953c9c","system_id":"levelo_inurba_marseille","lat":43.30911,"lon":5.36851,"is_reserved":false,"is_disabled":false,"rental_uris":{"android":"levelo://app?vid=37d671ca-73f2-41a5-8af5-b44a52953c9c","ios":"levelo://app?vid=37d671ca-73f2-41a5-8af5-b44a52953c9c"},"vehicle_type_id":"4","last_reported":1730905753,"current_range_meters":20000,"station_id":"ce4bgn92rcd13ifvqbvg","pricing_plan_id":"cebpf4jnsgd1na2vs0mg"},{"bike_id":"e05534e4-0f3e-4db6-a1a1-e10522afa877","system_id":"levelo_inurba_marseille","lat":43.26579,"lon":5.39005,"is_reserved":false,"is_disabled":false,"rental_uris":{"android":"levelo://app?vid=e05534e4-0f3e-4db6-a1a1-e10522afa877","ios":"levelo://app?vid=e05534e4-0f3e-4db6-a1a1-e10522afa877"},"vehicle_type_id":"4","last_reported":1730905753,"current_range_meters":27600,"station_id":"ce4bhe12rcd13ifvqf30","pricing_plan_id":"cebpf4jnsgd1na2vs0mg"},{"bike_id":"2ac59b30-95ad-4d41-84cd-66b709f67fc4","system_id":"levelo_inurba_marseille","lat":43.337444,"lon":5.374475,"is_reserved":false,"is_disabled":false,"rental_uris":{"android":"levelo://app?vid=2ac59b30-95ad-4d41-84cd-66b709f67fc4","ios":"levelo://app?vid=2ac59b30-95ad-4d41-84cd-66b709f67fc4"},"vehicle_type_id":"4","last_reported":1730905753,"current_range_meters":36400,"station_id":"","pricing_plan_id":"cebpf4jnsgd1na2vs0mg"},{"bike_id":"f1782029-15e4-4990-8ef8-55f2d9f1602d","system_id":"levelo_inurba_marseille","lat":43.23147,"lon":5.43729,"is_reserved":false,"is_disabled":false,"rental_uris":{"android":"levelo://app?vid=f1782029-15e4-4990-8ef8-55f2d9f1602d","ios":"levelo://app?vid=f1782029-15e4-4990-8ef8-55f2d9f1602d"},"vehicle_type_id":"4","last_reported":1730905753,"current_range_meters":26000,"station_id":"ce4bhmp2rcd13ifvqgog","pricing_plan_id":"cebpf4jnsgd1na2vs0mg"},{"bike_id":"198e4f0a-aad9-484c-8a93-c134530f4de4","system_id":"levelo_inurba_marseille","lat":43.31321,"lon":5.39701,"is_reserved":false,"is_disabled":false,"rental_uris":{"android":"levelo://app?vid=198e4f0a-aad9-484c-8a93-c134530f4de4","ios":"levelo://app?vid=198e4f0a-aad9-484c-8a93-c134530f4de4"},"vehicle_type_id":"4","last_reported":1730905753,"current_range_meters":8400,"station_id":"ce4bgvp2rcd13ifvqcu0","pricing_plan_id":"cebpf4jnsgd1na2vs0mg"},{"bike_id":"77f0f942-cc19-4114-9693-f96851c5cf8b","system_id":"levelo_inurba_marseille","lat":43.31071,"lon":5.38351,"is_reserved":false,"is_disabled":false,"rental_uris":{"android":"levelo://app?vid=77f0f942-cc19-4114-9693-f96851c5cf8b","ios":"levelo://app?vid=77f0f942-cc19-4114-9693-f96851c5cf8b"},"vehicle_type_id":"4","last_reported":1730905753,"current_range_meters":9200,"station_id":"ce4bgv92rcd13ifvqcr0","pricing_plan_id":"cebpf4jnsgd1na2vs0mg"},{"bike_id":"3ccfbee8-2ea2-41b4-b98e-05eed0345147","system_id":"levelo_inurba_marseille","lat":43.29035,"lon":5.3864,"is_reserved":false,"is_disabled":false,"rental_uris":{"android":"levelo://app?vid=3ccfbee8-2ea2-41b4-b98e-05eed0345147","ios":"levelo://app?vid=3ccfbee8-2ea2-41b4-b98e-05eed0345147"},"vehicle_type_id":"4","last_reported":1730905753,"current_range_meters":2800,"station_id":"ce4bh4p2rcd13ifvqe0g","pricing_plan_id":"cebpf4jnsgd1na2vs0mg"},{"bike_id":"9b127e37-1670-4d8b-a75f-bea48484b033","system_id":"levelo_inurba_marseille","lat":43.31094,"lon":5.3785,"is_reserved":false,"is_disabled":false,"rental_uris":{"android":"levelo://app?vid=9b127e37-1670-4d8b-a75f-bea48484b033","ios":"levelo://app?vid=9b127e37-1670-4d8b-a75f-bea48484b033"},"vehicle_type_id":"4","last_reported":1730905753,"current_range_meters":38800,"station_id":"ce4bgt92rcd13ifvqcg0","pricing_plan_id":"cebpf4jnsgd1na2vs0mg"},{"bike_id":"21f4b24e-edd7-487c-870f-ac4e842a5a51","system_id":"levelo_inurba_marseille","lat":43.30096,"lon":5.39084,"is_reserved":false,"is_disabled":false,"rental_uris":{"android":"levelo://app?vid=21f4b24e-edd7-487c-870f-ac4e842a5a51","ios":"levelo://app?vid=21f4b24e-edd7-487c-870f-ac4e842a5a51"},"vehicle_type_id":"4","last_reported":1730905753,"current_range_meters":16400,"station_id":"ce4bh192rcd13ifvqdb0","pricing_plan_id":"cebpf4jnsgd1na2vs0mg"},{"bike_id":"bae98c80-026e-47bf-b635-e817e573c9b6","system_id":"levelo_inurba_marseille","lat":43.29905,"lon":5.38137,"is_reserved":false,"is_disabled":false,"rental_uris":{"android":"levelo://app?vid=bae98c80-026e-47bf-b635-e817e573c9b6","ios":"levelo://app?vid=bae98c80-026e-47bf-b635-e817e573c9b6"},"vehicle_type_id":"4","last_reported":1730905753,"current_range_meters":38000,"station_id":"ce4bgj12rcd13ifvqbc0","pricing_plan_id":"cebpf4jnsgd1na2vs0mg"},{"bike_id":"2a9ceb86-08b2-45ce-b34b-fb24912f0df1","system_id":"levelo_inurba_marseille","lat":43.31085,"lon":5.42433,"is_reserved":false,"is_disabled":false,"rental_uris":{"android":"levelo://app?vid=2a9ceb86-08b2-45ce-b34b-fb24912f0df1","ios":"levelo://app?vid=2a9ceb86-08b2-45ce-b34b-fb24912f0df1"},"vehicle_type_id":"4","last_reported":1730905753,"current_range_meters":39200,"station_id":"ce4bhp92rcd13ifvqhag","pricing_plan_id":"cebpf4jnsgd1na2vs0mg"},{"bike_id":"0072c09f-84dc-4387-89a5-d8c408b867ad","system_id":"levelo_inurba_marseille","lat":43.30136,"lon":5.39868,"is_reserved":false,"is_disabled":false,"rental_uris":{"android":"levelo://app?vid=0072c09f-84dc-4387-89a5-d8c408b867ad","ios":"levelo://app?vid=0072c09f-84dc-4387-89a5-d8c408b867ad"},"vehicle_type_id":"4","last_reported":1730905753,"current_range_meters":39200,"station_id":"ce4bh0h2rcd13ifvqd40","pricing_plan_id":"cebpf4jnsgd1na2vs0mg"},{"bike_id":"5f11cf48-311d-48b2-9e6c-6da9b2376d00","system_id":"levelo_inurba_marseille","lat":43.26554,"lon":5.37285,"is_reserved":false,"is_disabled":false,"rental_uris":{"android":"levelo://app?vid=5f11cf48-311d-48b2-9e6c-6da9b2376d00","ios":"levelo://app?vid=5f11cf48-311d-48b2-9e6c-6da9b2376d00"},"vehicle_type_id":"4","last_reported":1730905753,"current_range_meters":32000,"station_id":"ce4bhg12rcd13ifvqf70","pricing_plan_id":"cebpf4jnsgd1na2vs0mg"},{"bike_id":"3158667e-e690-48d7-acae-7d318c4fda7b","system_id":"levelo_inurba_marseille","lat":43.24163,"lon":5.36404,"is_reserved":false,"is_disabled":false,"rental_uris":{"android":"levelo://app?vid=3158667e-e690-48d7-acae-7d318c4fda7b","ios":"levelo://app?vid=3158667e-e690-48d7-acae-7d318c4fda7b"},"vehicle_type_id":"4","last_reported":1730905753,"current_range_meters":28800,"station_id":"cpo36qri1sfpv3e86is0","pricing_plan_id":"cebpf4jnsgd1na2vs0mg"},{"bike_id":"88b98dba-2073-4983-9539-ecdaff941dda","system_id":"levelo_inurba_marseille","lat":43.30526,"lon":5.36557,"is_reserved":false,"is_disabled":false,"rental_uris":{"android":"levelo://app?vid=88b98dba-2073-4983-9539-ecdaff941dda","ios":"levelo://app?vid=88b98dba-2073-4983-9539-ecdaff941dda"},"vehicle_type_id":"4","last_reported":1730905753,"current_range_meters":28800,"station_id":"ce4bgs12rcd13ifvqcag","pricing_plan_id":"cebpf4jnsgd1na2vs0mg"},{"bike_id":"72dde65e-6cb9-4b4a-b5d7-a49ad8641ffd","system_id":"levelo_inurba_marseille","lat":43.29412,"lon":5.39784,"is_reserved":false,"is_disabled":false,"rental_uris":{"android":"levelo://app?vid=72dde65e-6cb9-4b4a-b5d7-a49ad8641ffd","ios":"levelo://app?vid=72dde65e-6cb9-4b4a-b5d7-a49ad8641ffd"},"vehicle_type_id":"4","last_reported":1730905753,"current_range_meters":34000,"station_id":"ce4bh3h2rcd13ifvqdo0","pricing_plan_id":"cebpf4jnsgd1na2vs0mg"},{"bike_id":"7d1a67f1-0513-43ca-88bf-12e59adf70dc","system_id":"levelo_inurba_marseille","lat":43.29959,"lon":5.41324,"is_reserved":false,"is_disabled":false,"rental_uris":{"android":"levelo://app?vid=7d1a67f1-0513-43ca-88bf-12e59adf70dc","ios":"levelo://app?vid=7d1a67f1-0513-43ca-88bf-12e59adf70dc"},"vehicle_type_id":"4","last_reported":1730905753,"current_range_meters":38400,"station_id":"ce4bhp12rcd13ifvqh9g","pricing_plan_id":"cebpf4jnsgd1na2vs0mg"},{"bike_id":"db1a4b9e-246b-4ada-a159-7cd5891f0a18","system_id":"levelo_inurba_marseille","lat":43.27213,"lon":5.39194,"is_reserved":false,"is_disabled":false,"rental_uris":{"android":"levelo://app?vid=db1a4b9e-246b-4ada-a159-7cd5891f0a18","ios":"levelo://app?vid=db1a4b9e-246b-4ada-a159-7cd5891f0a18"},"vehicle_type_id":"4","last_reported":1730905753,"current_range_meters":8800,"station_id":"ce4bhhp2rcd13ifvqfm0","pricing_plan_id":"cebpf4jnsgd1na2vs0mg"},{"bike_id":"13d6bed8-4343-46cf-8feb-d327220ee05d","system_id":"levelo_inurba_marseille","lat":43.28724,"lon":5.36096,"is_reserved":false,"is_disabled":false,"rental_uris":{"android":"levelo://app?vid=13d6bed8-4343-46cf-8feb-d327220ee05d","ios":"levelo://app?vid=13d6bed8-4343-46cf-8feb-d327220ee05d"},"vehicle_type_id":"4","last_reported":1730905753,"current_range_meters":38800,"station_id":"cki0cbj6b192h4jlfktg","pricing_plan_id":"cebpf4jnsgd1na2vs0mg"},{"bike_id":"526e733f-fcdf-4b06-991d-5618c82caeec","system_id":"levelo_inurba_marseille","lat":43.25936,"lon":5.3985,"is_reserved":false,"is_disabled":false,"rental_uris":{"android":"levelo://app?vid=526e733f-fcdf-4b06-991d-5618c82caeec","ios":"levelo://app?vid=526e733f-fcdf-4b06-991d-5618c82caeec"},"vehicle_type_id":"4","last_reported":1730905753,"current_range_meters":31200,"station_id":"ce4bhl92rcd13ifvqghg","pricing_plan_id":"cebpf4jnsgd1na2vs0mg"},{"bike_id":"e487ef51-fb1c-4d2a-aad5-179689f16512","system_id":"levelo_inurba_marseille","lat":43.27906,"lon":5.38018,"is_reserved":false,"is_disabled":false,"rental_uris":{"android":"levelo://app?vid=e487ef51-fb1c-4d2a-aad5-179689f16512","ios":"levelo://app?vid=e487ef51-fb1c-4d2a-aad5-179689f16512"},"vehicle_type_id":"4","last_reported":1730905753,"current_range_meters":37600,"station_id":"ce4bhf92rcd13ifvqf50","pricing_plan_id":"cebpf4jnsgd1na2vs0mg"},{"bike_id":"c16b245b-e7ce-40cb-bd2f-80dcb63d5613","system_id":"levelo_inurba_marseille","lat":43.29529,"lon":5.39408,"is_reserved":false,"is_disabled":false,"rental_uris":{"android":"levelo://app?vid=c16b245b-e7ce-40cb-bd2f-80dcb63d5613","ios":"levelo://app?vid=c16b245b-e7ce-40cb-bd2f-80dcb63d5613"},"vehicle_type_id":"4","last_reported":1730905753,"current_range_meters":38800,"station_id":"ce4bh292rcd13ifvqdf0","pricing_plan_id":"cebpf4jnsgd1na2vs0mg"},{"bike_id":"ef65c891-f7da-4796-bc0f-1118289dbc8f","system_id":"levelo_inurba_marseille","lat":43.30144,"lon":5.39881,"is_reserved":false,"is_disabled":false,"rental_uris":{"android":"levelo://app?vid=ef65c891-f7da-4796-bc0f-1118289dbc8f","ios":"levelo://app?vid=ef65c891-f7da-4796-bc0f-1118289dbc8f"},"vehicle_type_id":"4","last_reported":1730905753,"current_range_meters":20000,"station_id":"ce4bh0h2rcd13ifvqd40","pricing_plan_id":"cebpf4jnsgd1na2vs0mg"},{"bike_id":"111ba766-00f0-4f42-9a4a-cdb1221f4ba1","system_id":"levelo_inurba_marseille","lat":43.318987,"lon":5.407295,"is_reserved":false,"is_disabled":false,"rental_uris":{"android":"levelo://app?vid=111ba766-00f0-4f42-9a4a-cdb1221f4ba1","ios":"levelo://app?vid=111ba766-00f0-4f42-9a4a-cdb1221f4ba1"},"vehicle_type_id":"4","last_reported":1730905753,"current_range_meters":10000,"station_id":"ce4bhq12rcd13ifvqhig","pricing_plan_id":"cebpf4jnsgd1na2vs0mg"},{"bike_id":"bbdf1426-ef58-4e7c-8890-61373cd2cf49","system_id":"levelo_inurba_marseille","lat":43.27616,"lon":5.36112,"is_reserved":false,"is_disabled":false,"rental_uris":{"android":"levelo://app?vid=bbdf1426-ef58-4e7c-8890-61373cd2cf49","ios":"levelo://app?vid=bbdf1426-ef58-4e7c-8890-61373cd2cf49"},"vehicle_type_id":"4","last_reported":1730905753,"current_range_meters":18000,"station_id":"ce4bgj92rcd13ifvqbe0","pricing_plan_id":"cebpf4jnsgd1na2vs0mg"},{"bike_id":"9cb50e7e-7dde-4041-8a33-60a1776edf54","system_id":"levelo_inurba_marseille","lat":43.277802,"lon":5.362306,"is_reserved":false,"is_disabled":false,"rental_uris":{"android":"levelo://app?vid=9cb50e7e-7dde-4041-8a33-60a1776edf54","ios":"levelo://app?vid=9cb50e7e-7dde-4041-8a33-60a1776edf54"},"vehicle_type_id":"4","last_reported":1730905753,"current_range_meters":21600,"station_id":"ce4bhh12rcd13ifvqff0","pricing_plan_id":"cebpf4jnsgd1na2vs0mg"},{"bike_id":"bb619e20-1a3b-494a-a406-148a8d5a6c5a","system_id":"levelo_inurba_marseille","lat":43.29273,"lon":5.38435,"is_reserved":false,"is_disabled":false,"rental_uris":{"android":"levelo://app?vid=bb619e20-1a3b-494a-a406-148a8d5a6c5a","ios":"levelo://app?vid=bb619e20-1a3b-494a-a406-148a8d5a6c5a"},"vehicle_type_id":"4","last_reported":1730905753,"current_range_meters":2000,"station_id":"ce4bh692rcd13ifvqea0","pricing_plan_id":"cebpf4jnsgd1na2vs0mg"},{"bike_id":"e914ee6d-6b53-44f6-bc04-ce69ab2eabbe","system_id":"levelo_inurba_marseille","lat":43.26785,"lon":5.39417,"is_reserved":false,"is_disabled":false,"rental_uris":{"android":"levelo://app?vid=e914ee6d-6b53-44f6-bc04-ce69ab2eabbe","ios":"levelo://app?vid=e914ee6d-6b53-44f6-bc04-ce69ab2eabbe"},"vehicle_type_id":"4","last_reported":1730905753,"current_range_meters":38800,"station_id":"ce4bhh12rcd13ifvqfg0","pricing_plan_id":"cebpf4jnsgd1na2vs0mg"},{"bike_id":"e58aacf2-a8a5-4ce2-835e-5eb9a75e9200","system_id":"levelo_inurba_marseille","lat":43.29231,"lon":5.36387,"is_reserved":false,"is_disabled":false,"rental_uris":{"android":"levelo://app?vid=e58aacf2-a8a5-4ce2-835e-5eb9a75e9200","ios":"levelo://app?vid=e58aacf2-a8a5-4ce2-835e-5eb9a75e9200"},"vehicle_type_id":"4","last_reported":1730905753,"current_range_meters":38800,"station_id":"","pricing_plan_id":"cebpf4jnsgd1na2vs0mg"},{"bike_id":"4ba708c0-8ced-418c-bdca-7748a87a5ef6","system_id":"levelo_inurba_marseille","lat":43.29043,"lon":5.39967,"is_reserved":false,"is_disabled":false,"rental_uris":{"android":"levelo://app?vid=4ba708c0-8ced-418c-bdca-7748a87a5ef6","ios":"levelo://app?vid=4ba708c0-8ced-418c-bdca-7748a87a5ef6"},"vehicle_type_id":"4","last_reported":1730905753,"current_range_meters":34000,"station_id":"ce4bh392rcd13ifvqdm0","pricing_plan_id":"cebpf4jnsgd1na2vs0mg"},{"bike_id":"bb1b40e5-7cd8-4573-adba-21612a498e79","system_id":"levelo_inurba_marseille","lat":43.30127,"lon":5.37428,"is_reserved":false,"is_disabled":false,"rental_uris":{"android":"levelo://app?vid=bb1b40e5-7cd8-4573-adba-21612a498e79","ios":"levelo://app?vid=bb1b40e5-7cd8-4573-adba-21612a498e79"},"vehicle_type_id":"4","last_reported":1730905753,"current_range_meters":39200,"station_id":"ce4bgs92rcd13ifvqcc0","pricing_plan_id":"cebpf4jnsgd1na2vs0mg"},{"bike_id":"2f076aaa-29b0-4fb9-a4cc-3fad6e37f57d","system_id":"levelo_inurba_marseille","lat":43.3053,"lon":5.36548,"is_reserved":false,"is_disabled":false,"rental_uris":{"android":"levelo://app?vid=2f076aaa-29b0-4fb9-a4cc-3fad6e37f57d","ios":"levelo://app?vid=2f076aaa-29b0-4fb9-a4cc-3fad6e37f57d"},"vehicle_type_id":"4","last_reported":1730905753,"current_range_meters":38400,"station_id":"ce4bgs12rcd13ifvqcag","pricing_plan_id":"cebpf4jnsgd1na2vs0mg"},{"bike_id":"ed058e4f-9ac0-418d-bdc9-6394a770ce1f","system_id":"levelo_inurba_marseille","lat":43.29252,"lon":5.40914,"is_reserved":false,"is_disabled":false,"rental_uris":{"android":"levelo://app?vid=ed058e4f-9ac0-418d-bdc9-6394a770ce1f","ios":"levelo://app?vid=ed058e4f-9ac0-418d-bdc9-6394a770ce1f"},"vehicle_type_id":"4","last_reported":1730905753,"current_range_meters":38800,"station_id":"ce4bh192rcd13ifvqdc0","pricing_plan_id":"cebpf4jnsgd1na2vs0mg"},{"bike_id":"571eac64-4580-4d8f-9920-748f804b4c6a","system_id":"levelo_inurba_marseille","lat":43.29533,"lon":5.39046,"is_reserved":false,"is_disabled":false,"rental_uris":{"android":"levelo://app?vid=571eac64-4580-4d8f-9920-748f804b4c6a","ios":"levelo://app?vid=571eac64-4580-4d8f-9920-748f804b4c6a"},"vehicle_type_id":"4","last_reported":1730905753,"current_range_meters":17200,"station_id":"ce4bh3p2rcd13ifvqdp0","pricing_plan_id":"cebpf4jnsgd1na2vs0mg"},{"bike_id":"37c4356f-53a4-4fc1-9027-d635783b81a2","system_id":"levelo_inurba_marseille","lat":43.299,"lon":5.38139,"is_reserved":false,"is_disabled":false,"rental_uris":{"android":"levelo://app?vid=37c4356f-53a4-4fc1-9027-d635783b81a2","ios":"levelo://app?vid=37c4356f-53a4-4fc1-9027-d635783b81a2"},"vehicle_type_id":"4","last_reported":1730905753,"current_range_meters":35600,"station_id":"ce4bgj12rcd13ifvqbc0","pricing_plan_id":"cebpf4jnsgd1na2vs0mg"},{"bike_id":"fd74afea-7eed-437e-9798-dbb158e97572","system_id":"levelo_inurba_marseille","lat":43.30609,"lon":5.37232,"is_reserved":false,"is_disabled":false,"rental_uris":{"android":"levelo://app?vid=fd74afea-7eed-437e-9798-dbb158e97572","ios":"levelo://app?vid=fd74afea-7eed-437e-9798-dbb158e97572"},"vehicle_type_id":"4","last_reported":1730905753,"current_range_meters":39200,"station_id":"ce4bgqh2rcd13ifvqc4g","pricing_plan_id":"cebpf4jnsgd1na2vs0mg"},{"bike_id":"ac3085be-2aba-453a-b37c-d1057ee9d66b","system_id":"levelo_inurba_marseille","lat":43.31268,"lon":5.4017,"is_reserved":false,"is_disabled":false,"rental_uris":{"android":"levelo://app?vid=ac3085be-2aba-453a-b37c-d1057ee9d66b","ios":"levelo://app?vid=ac3085be-2aba-453a-b37c-d1057ee9d66b"},"vehicle_type_id":"4","last_reported":1730905753,"current_range_meters":24400,"station_id":"ce4bh092rcd13ifvqd30","pricing_plan_id":"cebpf4jnsgd1na2vs0mg"},{"bike_id":"b618ff37-03ac-46c7-a1fb-6d0704361fa9","system_id":"levelo_inurba_marseille","lat":43.25582,"lon":5.38242,"is_reserved":false,"is_disabled":false,"rental_uris":{"android":"levelo://app?vid=b618ff37-03ac-46c7-a1fb-6d0704361fa9","ios":"levelo://app?vid=b618ff37-03ac-46c7-a1fb-6d0704361fa9"},"vehicle_type_id":"4","last_reported":1730905753,"current_range_meters":18000,"station_id":"ce4bhih2rcd13ifvqfs0","pricing_plan_id":"cebpf4jnsgd1na2vs0mg"},{"bike_id":"9ae8301a-f21b-491d-aa1f-4c70f8037797","system_id":"levelo_inurba_marseille","lat":43.29369,"lon":5.37839,"is_reserved":false,"is_disabled":false,"rental_uris":{"android":"levelo://app?vid=9ae8301a-f21b-491d-aa1f-4c70f8037797","ios":"levelo://app?vid=9ae8301a-f21b-491d-aa1f-4c70f8037797"},"vehicle_type_id":"4","last_reported":1730905753,"current_range_meters":38800,"station_id":"ce4bgjh2rcd13ifvqbf0","pricing_plan_id":"cebpf4jnsgd1na2vs0mg"},{"bike_id":"818f01a2-70c1-4282-8f3e-a5df75b74421","system_id":"levelo_inurba_marseille","lat":43.23149,"lon":5.43706,"is_reserved":false,"is_disabled":false,"rental_uris":{"android":"levelo://app?vid=818f01a2-70c1-4282-8f3e-a5df75b74421","ios":"levelo://app?vid=818f01a2-70c1-4282-8f3e-a5df75b74421"},"vehicle_type_id":"4","last_reported":1730905753,"current_range_meters":39200,"station_id":"ce4bhmp2rcd13ifvqgog","pricing_plan_id":"cebpf4jnsgd1na2vs0mg"},{"bike_id":"c61c261f-6e7c-47f2-9517-7b46566fdc27","system_id":"levelo_inurba_marseille","lat":43.24388,"lon":5.37061,"is_reserved":false,"is_disabled":false,"rental_uris":{"android":"levelo://app?vid=c61c261f-6e7c-47f2-9517-7b46566fdc27","ios":"levelo://app?vid=c61c261f-6e7c-47f2-9517-7b46566fdc27"},"vehicle_type_id":"4","last_reported":1730905753,"current_range_meters":33200,"station_id":"ce4bhhh2rcd13ifvqfk0","pricing_plan_id":"cebpf4jnsgd1na2vs0mg"},{"bike_id":"d42e973d-2c93-4443-b098-71d6d11cc36d","system_id":"levelo_inurba_marseille","lat":43.29578,"lon":5.3674,"is_reserved":false,"is_disabled":false,"rental_uris":{"android":"levelo://app?vid=d42e973d-2c93-4443-b098-71d6d11cc36d","ios":"levelo://app?vid=d42e973d-2c93-4443-b098-71d6d11cc36d"},"vehicle_type_id":"4","last_reported":1730905753,"current_range_meters":24400,"station_id":"ce4bgph2rcd13ifvqc2g","pricing_plan_id":"cebpf4jnsgd1na2vs0mg"},{"bike_id":"89b72991-99c2-4b3e-a7af-f3a408a8007f","system_id":"levelo_inurba_marseille","lat":43.2315,"lon":5.43705,"is_reserved":false,"is_disabled":false,"rental_uris":{"android":"levelo://app?vid=89b72991-99c2-4b3e-a7af-f3a408a8007f","ios":"levelo://app?vid=89b72991-99c2-4b3e-a7af-f3a408a8007f"},"vehicle_type_id":"4","last_reported":1730905753,"current_range_meters":24800,"station_id":"ce4bhmp2rcd13ifvqgog","pricing_plan_id":"cebpf4jnsgd1na2vs0mg"},{"bike_id":"aff4cc40-c923-4034-be9c-e88ce8ea159c","system_id":"levelo_inurba_marseille","lat":43.30908,"lon":5.36861,"is_reserved":false,"is_disabled":false,"rental_uris":{"android":"levelo://app?vid=aff4cc40-c923-4034-be9c-e88ce8ea159c","ios":"levelo://app?vid=aff4cc40-c923-4034-be9c-e88ce8ea159c"},"vehicle_type_id":"4","last_reported":1730905753,"current_range_meters":40000,"station_id":"ce4bgn92rcd13ifvqbvg","pricing_plan_id":"cebpf4jnsgd1na2vs0mg"},{"bike_id":"76a6e6d2-4686-4b04-b754-fb622b90a2bd","system_id":"levelo_inurba_marseille","lat":43.30129,"lon":5.39881,"is_reserved":false,"is_disabled":false,"rental_uris":{"android":"levelo://app?vid=76a6e6d2-4686-4b04-b754-fb622b90a2bd","ios":"levelo://app?vid=76a6e6d2-4686-4b04-b754-fb622b90a2bd"},"vehicle_type_id":"4","last_reported":1730905753,"current_range_meters":7200,"station_id":"ce4bh0h2rcd13ifvqd40","pricing_plan_id":"cebpf4jnsgd1na2vs0mg"},{"bike_id":"8eb7ca66-5ae1-4c86-9460-7b59fa013861","system_id":"levelo_inurba_marseille","lat":43.31073,"lon":5.38355,"is_reserved":false,"is_disabled":false,"rental_uris":{"android":"levelo://app?vid=8eb7ca66-5ae1-4c86-9460-7b59fa013861","ios":"levelo://app?vid=8eb7ca66-5ae1-4c86-9460-7b59fa013861"},"vehicle_type_id":"4","last_reported":1730905753,"current_range_meters":26800,"station_id":"ce4bgv92rcd13ifvqcr0","pricing_plan_id":"cebpf4jnsgd1na2vs0mg"},{"bike_id":"cb88ee8d-5c92-46c2-8b0d-47e01176a68d","system_id":"levelo_inurba_marseille","lat":43.25714,"lon":5.41127,"is_reserved":false,"is_disabled":false,"rental_uris":{"android":"levelo://app?vid=cb88ee8d-5c92-46c2-8b0d-47e01176a68d","ios":"levelo://app?vid=cb88ee8d-5c92-46c2-8b0d-47e01176a68d"},"vehicle_type_id":"4","last_reported":1730905753,"current_range_meters":38800,"station_id":"ce4bhkp2rcd13ifvqgd0","pricing_plan_id":"cebpf4jnsgd1na2vs0mg"},{"bike_id":"0621bc65-e0fa-45fd-a83e-4b6f424b1f9a","system_id":"levelo_inurba_marseille","lat":43.30211,"lon":5.39478,"is_reserved":false,"is_disabled":false,"rental_uris":{"android":"levelo://app?vid=0621bc65-e0fa-45fd-a83e-4b6f424b1f9a","ios":"levelo://app?vid=0621bc65-e0fa-45fd-a83e-4b6f424b1f9a"},"vehicle_type_id":"4","last_reported":1730905753,"current_range_meters":13600,"station_id":"ce4bh0p2rcd13ifvqd70","pricing_plan_id":"cebpf4jnsgd1na2vs0mg"},{"bike_id":"2c0700cf-1f8e-4517-aa06-8630cd1b440f","system_id":"levelo_inurba_marseille","lat":43.3013,"lon":5.37429,"is_reserved":false,"is_disabled":false,"rental_uris":{"android":"levelo://app?vid=2c0700cf-1f8e-4517-aa06-8630cd1b440f","ios":"levelo://app?vid=2c0700cf-1f8e-4517-aa06-8630cd1b440f"},"vehicle_type_id":"4","last_reported":1730905753,"current_range_meters":25200,"station_id":"ce4bgs92rcd13ifvqcc0","pricing_plan_id":"cebpf4jnsgd1na2vs0mg"},{"bike_id":"ce1990ac-3390-413c-9a93-5d1336a43aa1","system_id":"levelo_inurba_marseille","lat":43.27378,"lon":5.36251,"is_reserved":false,"is_disabled":false,"rental_uris":{"android":"levelo://app?vid=ce1990ac-3390-413c-9a93-5d1336a43aa1","ios":"levelo://app?vid=ce1990ac-3390-413c-9a93-5d1336a43aa1"},"vehicle_type_id":"4","last_reported":1730905753,"current_range_meters":36000,"station_id":"ce4bhbh2rcd13ifvqeo0","pricing_plan_id":"cebpf4jnsgd1na2vs0mg"},{"bike_id":"74695514-743b-4a43-8a3c-3ee8c9a28175","system_id":"levelo_inurba_marseille","lat":43.23196,"lon":5.35553,"is_reserved":false,"is_disabled":false,"rental_uris":{"android":"levelo://app?vid=74695514-743b-4a43-8a3c-3ee8c9a28175","ios":"levelo://app?vid=74695514-743b-4a43-8a3c-3ee8c9a28175"},"vehicle_type_id":"4","last_reported":1730905753,"current_range_meters":38800,"station_id":"ce4bhu92rcd13ifvqi70","pricing_plan_id":"cebpf4jnsgd1na2vs0mg"},{"bike_id":"93ae9130-8a73-4d3d-b59d-a07712547fae","system_id":"levelo_inurba_marseille","lat":43.29573,"lon":5.37516,"is_reserved":false,"is_disabled":false,"rental_uris":{"android":"levelo://app?vid=93ae9130-8a73-4d3d-b59d-a07712547fae","ios":"levelo://app?vid=93ae9130-8a73-4d3d-b59d-a07712547fae"},"vehicle_type_id":"4","last_reported":1730905753,"current_range_meters":38800,"station_id":"ce4bgh92rcd13ifvqb50","pricing_plan_id":"cebpf4jnsgd1na2vs0mg"},{"bike_id":"1f127e32-7467-4299-af3a-4750a3aad6d6","system_id":"levelo_inurba_marseille","lat":43.30548,"lon":5.36552,"is_reserved":false,"is_disabled":false,"rental_uris":{"android":"levelo://app?vid=1f127e32-7467-4299-af3a-4750a3aad6d6","ios":"levelo://app?vid=1f127e32-7467-4299-af3a-4750a3aad6d6"},"vehicle_type_id":"4","last_reported":1730905753,"current_range_meters":38400,"station_id":"ce4bgs12rcd13ifvqcag","pricing_plan_id":"cebpf4jnsgd1na2vs0mg"},{"bike_id":"f775dd0d-0976-4a84-bddc-c8b4040cdcc6","system_id":"levelo_inurba_marseille","lat":43.27069,"lon":5.42284,"is_reserved":false,"is_disabled":false,"rental_uris":{"android":"levelo://app?vid=f775dd0d-0976-4a84-bddc-c8b4040cdcc6","ios":"levelo://app?vid=f775dd0d-0976-4a84-bddc-c8b4040cdcc6"},"vehicle_type_id":"4","last_reported":1730905753,"current_range_meters":38400,"station_id":"ce4bhk92rcd13ifvqgb0","pricing_plan_id":"cebpf4jnsgd1na2vs0mg"},{"bike_id":"d01eeb08-252d-4cb1-aac1-24520eeea741","system_id":"levelo_inurba_marseille","lat":43.24652,"lon":5.38895,"is_reserved":false,"is_disabled":false,"rental_uris":{"android":"levelo://app?vid=d01eeb08-252d-4cb1-aac1-24520eeea741","ios":"levelo://app?vid=d01eeb08-252d-4cb1-aac1-24520eeea741"},"vehicle_type_id":"4","last_reported":1730905753,"current_range_meters":8800,"station_id":"ce4bhg12rcd13ifvqf60","pricing_plan_id":"cebpf4jnsgd1na2vs0mg"},{"bike_id":"f9a8c473-50f6-461e-98fa-f58e5ab7fcbc","system_id":"levelo_inurba_marseille","lat":43.30787,"lon":5.37387,"is_reserved":false,"is_disabled":false,"rental_uris":{"android":"levelo://app?vid=f9a8c473-50f6-461e-98fa-f58e5ab7fcbc","ios":"levelo://app?vid=f9a8c473-50f6-461e-98fa-f58e5ab7fcbc"},"vehicle_type_id":"4","last_reported":1730905753,"current_range_meters":7200,"station_id":"","pricing_plan_id":"cebpf4jnsgd1na2vs0mg"},{"bike_id":"97ba58dc-281a-4f34-935f-2fd13fdcced9","system_id":"levelo_inurba_marseille","lat":43.27808,"lon":5.40713,"is_reserved":false,"is_disabled":false,"rental_uris":{"android":"levelo://app?vid=97ba58dc-281a-4f34-935f-2fd13fdcced9","ios":"levelo://app?vid=97ba58dc-281a-4f34-935f-2fd13fdcced9"},"vehicle_type_id":"4","last_reported":1730905753,"current_range_meters":14800,"station_id":"ce4bhnh2rcd13ifvqgtg","pricing_plan_id":"cebpf4jnsgd1na2vs0mg"},{"bike_id":"9c07c115-8458-42eb-a90e-dec43e520f3f","system_id":"levelo_inurba_marseille","lat":43.26028,"lon":5.37565,"is_reserved":false,"is_disabled":false,"rental_uris":{"android":"levelo://app?vid=9c07c115-8458-42eb-a90e-dec43e520f3f","ios":"levelo://app?vid=9c07c115-8458-42eb-a90e-dec43e520f3f"},"vehicle_type_id":"4","last_reported":1730905753,"current_range_meters":37600,"station_id":"ce4bhgh2rcd13ifvqfa0","pricing_plan_id":"cebpf4jnsgd1na2vs0mg"},{"bike_id":"063ac76c-7dc9-49c1-80b2-af40a50c2880","system_id":"levelo_inurba_marseille","lat":43.30541,"lon":5.36537,"is_reserved":false,"is_disabled":false,"rental_uris":{"android":"levelo://app?vid=063ac76c-7dc9-49c1-80b2-af40a50c2880","ios":"levelo://app?vid=063ac76c-7dc9-49c1-80b2-af40a50c2880"},"vehicle_type_id":"4","last_reported":1730905753,"current_range_meters":22400,"station_id":"ce4bgs12rcd13ifvqcag","pricing_plan_id":"cebpf4jnsgd1na2vs0mg"},{"bike_id":"bdc9455e-653a-451a-b32f-9537b6be4cd9","system_id":"levelo_inurba_marseille","lat":43.27324,"lon":5.3908,"is_reserved":false,"is_disabled":false,"rental_uris":{"android":"levelo://app?vid=bdc9455e-653a-451a-b32f-9537b6be4cd9","ios":"levelo://app?vid=bdc9455e-653a-451a-b32f-9537b6be4cd9"},"vehicle_type_id":"4","last_reported":1730905753,"current_range_meters":28400,"station_id":"ce4bhgp2rcd13ifvqfe0","pricing_plan_id":"cebpf4jnsgd1na2vs0mg"},{"bike_id":"5762ed2d-019a-4513-8343-3f40a713eb9c","system_id":"levelo_inurba_marseille","lat":43.31689,"lon":5.40475,"is_reserved":false,"is_disabled":false,"rental_uris":{"android":"levelo://app?vid=5762ed2d-019a-4513-8343-3f40a713eb9c","ios":"levelo://app?vid=5762ed2d-019a-4513-8343-3f40a713eb9c"},"vehicle_type_id":"4","last_reported":1730905753,"current_range_meters":39200,"station_id":"ce4bh012rcd13ifvqd00","pricing_plan_id":"cebpf4jnsgd1na2vs0mg"},{"bike_id":"ce2b7b0a-da9e-4ad7-9541-832f2fe5f5ed","system_id":"levelo_inurba_marseille","lat":43.32481,"lon":5.36572,"is_reserved":false,"is_disabled":false,"rental_uris":{"android":"levelo://app?vid=ce2b7b0a-da9e-4ad7-9541-832f2fe5f5ed","ios":"levelo://app?vid=ce2b7b0a-da9e-4ad7-9541-832f2fe5f5ed"},"vehicle_type_id":"4","last_reported":1730905753,"current_range_meters":25600,"station_id":"ce4bhs12rcd13ifvqhvg","pricing_plan_id":"cebpf4jnsgd1na2vs0mg"},{"bike_id":"2cc98d62-8db6-4424-88b3-c6172c713eb9","system_id":"levelo_inurba_marseille","lat":43.29043,"lon":5.39965,"is_reserved":false,"is_disabled":false,"rental_uris":{"android":"levelo://app?vid=2cc98d62-8db6-4424-88b3-c6172c713eb9","ios":"levelo://app?vid=2cc98d62-8db6-4424-88b3-c6172c713eb9"},"vehicle_type_id":"4","last_reported":1730905753,"current_range_meters":38800,"station_id":"ce4bh392rcd13ifvqdm0","pricing_plan_id":"cebpf4jnsgd1na2vs0mg"},{"bike_id":"45bbeff1-3b22-42de-89b1-4ff5a5fd33e8","system_id":"levelo_inurba_marseille","lat":43.28264,"lon":5.35073,"is_reserved":false,"is_disabled":false,"rental_uris":{"android":"levelo://app?vid=45bbeff1-3b22-42de-89b1-4ff5a5fd33e8","ios":"levelo://app?vid=45bbeff1-3b22-42de-89b1-4ff5a5fd33e8"},"vehicle_type_id":"4","last_reported":1730905753,"current_range_meters":6400,"station_id":"ce4bhbp2rcd13ifvqerg","pricing_plan_id":"cebpf4jnsgd1na2vs0mg"},{"bike_id":"058e845b-3f35-400d-90ac-100f90420198","system_id":"levelo_inurba_marseille","lat":43.30145,"lon":5.38097,"is_reserved":false,"is_disabled":false,"rental_uris":{"android":"levelo://app?vid=058e845b-3f35-400d-90ac-100f90420198","ios":"levelo://app?vid=058e845b-3f35-400d-90ac-100f90420198"},"vehicle_type_id":"4","last_reported":1730905753,"current_range_meters":17600,"station_id":"ce4bgjp2rcd13ifvqbh0","pricing_plan_id":"cebpf4jnsgd1na2vs0mg"},{"bike_id":"ebe471b4-7c83-4e16-8a94-b633ef6ba24c","system_id":"levelo_inurba_marseille","lat":43.29722,"lon":5.37703,"is_reserved":false,"is_disabled":false,"rental_uris":{"android":"levelo://app?vid=ebe471b4-7c83-4e16-8a94-b633ef6ba24c","ios":"levelo://app?vid=ebe471b4-7c83-4e16-8a94-b633ef6ba24c"},"vehicle_type_id":"4","last_reported":1730905753,"current_range_meters":21600,"station_id":"ce4bgkh2rcd13ifvqbl0","pricing_plan_id":"cebpf4jnsgd1na2vs0mg"},{"bike_id":"7dcd8e6e-f1a9-4416-9505-f86d49a701dc","system_id":"levelo_inurba_marseille","lat":43.27373,"lon":5.36257,"is_reserved":false,"is_disabled":false,"rental_uris":{"android":"levelo://app?vid=7dcd8e6e-f1a9-4416-9505-f86d49a701dc","ios":"levelo://app?vid=7dcd8e6e-f1a9-4416-9505-f86d49a701dc"},"vehicle_type_id":"4","last_reported":1730905753,"current_range_meters":20400,"station_id":"ce4bhbh2rcd13ifvqeo0","pricing_plan_id":"cebpf4jnsgd1na2vs0mg"},{"bike_id":"a0ad9079-fe37-4893-b447-7ef4518a09ca","system_id":"levelo_inurba_marseille","lat":43.29852,"lon":5.36282,"is_reserved":false,"is_disabled":false,"rental_uris":{"android":"levelo://app?vid=a0ad9079-fe37-4893-b447-7ef4518a09ca","ios":"levelo://app?vid=a0ad9079-fe37-4893-b447-7ef4518a09ca"},"vehicle_type_id":"4","last_reported":1730905753,"current_range_meters":38000,"station_id":"ce4bgpp2rcd13ifvqc3g","pricing_plan_id":"cebpf4jnsgd1na2vs0mg"},{"bike_id":"1f0c5b52-0098-4313-86a8-5984af0206da","system_id":"levelo_inurba_marseille","lat":43.30134,"lon":5.37423,"is_reserved":false,"is_disabled":false,"rental_uris":{"android":"levelo://app?vid=1f0c5b52-0098-4313-86a8-5984af0206da","ios":"levelo://app?vid=1f0c5b52-0098-4313-86a8-5984af0206da"},"vehicle_type_id":"4","last_reported":1730905753,"current_range_meters":38800,"station_id":"ce4bgs92rcd13ifvqcc0","pricing_plan_id":"cebpf4jnsgd1na2vs0mg"},{"bike_id":"6e711fe6-67f9-414d-892d-6a4585420a11","system_id":"levelo_inurba_marseille","lat":43.3372,"lon":5.39189,"is_reserved":false,"is_disabled":false,"rental_uris":{"android":"levelo://app?vid=6e711fe6-67f9-414d-892d-6a4585420a11","ios":"levelo://app?vid=6e711fe6-67f9-414d-892d-6a4585420a11"},"vehicle_type_id":"4","last_reported":1730905753,"current_range_meters":25200,"station_id":"ce4bhr92rcd13ifvqhsg","pricing_plan_id":"cebpf4jnsgd1na2vs0mg"},{"bike_id":"c155839b-03f1-436a-a446-27ed1f81ab03","system_id":"levelo_inurba_marseille","lat":43.2904,"lon":5.3591,"is_reserved":false,"is_disabled":false,"rental_uris":{"android":"levelo://app?vid=c155839b-03f1-436a-a446-27ed1f81ab03","ios":"levelo://app?vid=c155839b-03f1-436a-a446-27ed1f81ab03"},"vehicle_type_id":"4","last_reported":1730905753,"current_range_meters":19600,"station_id":"ce4bha92rcd13ifvqeg0","pricing_plan_id":"cebpf4jnsgd1na2vs0mg"},{"bike_id":"e2d34608-6456-47a2-8884-d461e179d5b1","system_id":"levelo_inurba_marseille","lat":43.3088,"lon":5.39652,"is_reserved":false,"is_disabled":false,"rental_uris":{"android":"levelo://app?vid=e2d34608-6456-47a2-8884-d461e179d5b1","ios":"levelo://app?vid=e2d34608-6456-47a2-8884-d461e179d5b1"},"vehicle_type_id":"4","last_reported":1730905753,"current_range_meters":36800,"station_id":"ce4bh012rcd13ifvqcv0","pricing_plan_id":"cebpf4jnsgd1na2vs0mg"},{"bike_id":"c7f7d5b6-35fa-45fb-82c1-d829b7c49566","system_id":"levelo_inurba_marseille","lat":43.29581,"lon":5.36746,"is_reserved":false,"is_disabled":false,"rental_uris":{"android":"levelo://app?vid=c7f7d5b6-35fa-45fb-82c1-d829b7c49566","ios":"levelo://app?vid=c7f7d5b6-35fa-45fb-82c1-d829b7c49566"},"vehicle_type_id":"4","last_reported":1730905753,"current_range_meters":38800,"station_id":"ce4bgph2rcd13ifvqc2g","pricing_plan_id":"cebpf4jnsgd1na2vs0mg"},{"bike_id":"490c65ca-1a1f-421f-a555-68ad6bbf85a2","system_id":"levelo_inurba_marseille","lat":43.28366,"lon":5.38635,"is_reserved":false,"is_disabled":false,"rental_uris":{"android":"levelo://app?vid=490c65ca-1a1f-421f-a555-68ad6bbf85a2","ios":"levelo://app?vid=490c65ca-1a1f-421f-a555-68ad6bbf85a2"},"vehicle_type_id":"4","last_reported":1730905753,"current_range_meters":18000,"station_id":"ce4bh492rcd13ifvqdvg","pricing_plan_id":"cebpf4jnsgd1na2vs0mg"},{"bike_id":"53223ec0-7f8b-4b4b-b840-977e0a938748","system_id":"levelo_inurba_marseille","lat":43.3028,"lon":5.37706,"is_reserved":false,"is_disabled":false,"rental_uris":{"android":"levelo://app?vid=53223ec0-7f8b-4b4b-b840-977e0a938748","ios":"levelo://app?vid=53223ec0-7f8b-4b4b-b840-977e0a938748"},"vehicle_type_id":"4","last_reported":1730905753,"current_range_meters":35600,"station_id":"ce4bguh2rcd13ifvqcj0","pricing_plan_id":"cebpf4jnsgd1na2vs0mg"},{"bike_id":"f55cc1d3-66e2-4092-8a56-209373b1b8a1","system_id":"levelo_inurba_marseille","lat":43.27615,"lon":5.3612,"is_reserved":false,"is_disabled":false,"rental_uris":{"android":"levelo://app?vid=f55cc1d3-66e2-4092-8a56-209373b1b8a1","ios":"levelo://app?vid=f55cc1d3-66e2-4092-8a56-209373b1b8a1"},"vehicle_type_id":"4","last_reported":1730905753,"current_range_meters":22800,"station_id":"ce4bgj92rcd13ifvqbe0","pricing_plan_id":"cebpf4jnsgd1na2vs0mg"},{"bike_id":"a27e7fb2-a76c-4de6-9d53-0d5bb1f0b390","system_id":"levelo_inurba_marseille","lat":43.2794,"lon":5.41053,"is_reserved":false,"is_disabled":false,"rental_uris":{"android":"levelo://app?vid=a27e7fb2-a76c-4de6-9d53-0d5bb1f0b390","ios":"levelo://app?vid=a27e7fb2-a76c-4de6-9d53-0d5bb1f0b390"},"vehicle_type_id":"4","last_reported":1730905753,"current_range_meters":32000,"station_id":"ce4bhnp2rcd13ifvqh0g","pricing_plan_id":"cebpf4jnsgd1na2vs0mg"},{"bike_id":"c7cc5bd2-2325-4292-af38-91b775478549","system_id":"levelo_inurba_marseille","lat":43.29908,"lon":5.38136,"is_reserved":false,"is_disabled":false,"rental_uris":{"android":"levelo://app?vid=c7cc5bd2-2325-4292-af38-91b775478549","ios":"levelo://app?vid=c7cc5bd2-2325-4292-af38-91b775478549"},"vehicle_type_id":"4","last_reported":1730905753,"current_range_meters":38800,"station_id":"ce4bgj12rcd13ifvqbc0","pricing_plan_id":"cebpf4jnsgd1na2vs0mg"},{"bike_id":"0aec6a2c-56f5-4d66-b1b6-9f87f225c988","system_id":"levelo_inurba_marseille","lat":43.29271,"lon":5.38448,"is_reserved":false,"is_disabled":false,"rental_uris":{"android":"levelo://app?vid=0aec6a2c-56f5-4d66-b1b6-9f87f225c988","ios":"levelo://app?vid=0aec6a2c-56f5-4d66-b1b6-9f87f225c988"},"vehicle_type_id":"4","last_reported":1730905753,"current_range_meters":2800,"station_id":"ce4bh692rcd13ifvqea0","pricing_plan_id":"cebpf4jnsgd1na2vs0mg"},{"bike_id":"228b59c5-128d-401f-94a2-1718a7b294f8","system_id":"levelo_inurba_marseille","lat":43.25111,"lon":5.40324,"is_reserved":false,"is_disabled":false,"rental_uris":{"android":"levelo://app?vid=228b59c5-128d-401f-94a2-1718a7b294f8","ios":"levelo://app?vid=228b59c5-128d-401f-94a2-1718a7b294f8"},"vehicle_type_id":"4","last_reported":1730905753,"current_range_meters":14400,"station_id":"ce4bhlh2rcd13ifvqgig","pricing_plan_id":"cebpf4jnsgd1na2vs0mg"},{"bike_id":"9feacb46-d667-457b-b7bf-911af31ef033","system_id":"levelo_inurba_marseille","lat":43.26781,"lon":5.39421,"is_reserved":false,"is_disabled":false,"rental_uris":{"android":"levelo://app?vid=9feacb46-d667-457b-b7bf-911af31ef033","ios":"levelo://app?vid=9feacb46-d667-457b-b7bf-911af31ef033"},"vehicle_type_id":"4","last_reported":1730905753,"current_range_meters":32800,"station_id":"ce4bhh12rcd13ifvqfg0","pricing_plan_id":"cebpf4jnsgd1na2vs0mg"},{"bike_id":"c38ed51f-4d38-4e1e-b571-8deaf9489fca","system_id":"levelo_inurba_marseille","lat":43.29912,"lon":5.38139,"is_reserved":false,"is_disabled":false,"rental_uris":{"android":"levelo://app?vid=c38ed51f-4d38-4e1e-b571-8deaf9489fca","ios":"levelo://app?vid=c38ed51f-4d38-4e1e-b571-8deaf9489fca"},"vehicle_type_id":"4","last_reported":1730905753,"current_range_meters":38800,"station_id":"ce4bgj12rcd13ifvqbc0","pricing_plan_id":"cebpf4jnsgd1na2vs0mg"},{"bike_id":"d7409f1b-79a3-4e20-90d4-4159260b154c","system_id":"levelo_inurba_marseille","lat":43.3042,"lon":5.41283,"is_reserved":false,"is_disabled":false,"rental_uris":{"android":"levelo://app?vid=d7409f1b-79a3-4e20-90d4-4159260b154c","ios":"levelo://app?vid=d7409f1b-79a3-4e20-90d4-4159260b154c"},"vehicle_type_id":"4","last_reported":1730905753,"current_range_meters":30800,"station_id":"ce4bhop2rcd13ifvqh8g","pricing_plan_id":"cebpf4jnsgd1na2vs0mg"},{"bike_id":"9f819501-5ae1-4c50-807f-031d07b47e1d","system_id":"levelo_inurba_marseille","lat":43.30535,"lon":5.36711,"is_reserved":false,"is_disabled":false,"rental_uris":{"android":"levelo://app?vid=9f819501-5ae1-4c50-807f-031d07b47e1d","ios":"levelo://app?vid=9f819501-5ae1-4c50-807f-031d07b47e1d"},"vehicle_type_id":"4","last_reported":1730905753,"current_range_meters":24400,"station_id":"ce4bgrp2rcd13ifvqc9g","pricing_plan_id":"cebpf4jnsgd1na2vs0mg"},{"bike_id":"615280ca-f059-40fe-82f2-b888639b02a5","system_id":"levelo_inurba_marseille","lat":43.326584,"lon":5.409937,"is_reserved":false,"is_disabled":false,"rental_uris":{"android":"levelo://app?vid=615280ca-f059-40fe-82f2-b888639b02a5","ios":"levelo://app?vid=615280ca-f059-40fe-82f2-b888639b02a5"},"vehicle_type_id":"4","last_reported":1730905753,"current_range_meters":32400,"station_id":"ce4bhpp2rcd13ifvqhgg","pricing_plan_id":"cebpf4jnsgd1na2vs0mg"},{"bike_id":"e82f4761-9e16-4fd0-b3c0-62b0a88aaf2d","system_id":"levelo_inurba_marseille","lat":43.28936,"lon":5.39633,"is_reserved":false,"is_disabled":false,"rental_uris":{"android":"levelo://app?vid=e82f4761-9e16-4fd0-b3c0-62b0a88aaf2d","ios":"levelo://app?vid=e82f4761-9e16-4fd0-b3c0-62b0a88aaf2d"},"vehicle_type_id":"4","last_reported":1730905753,"current_range_meters":36400,"station_id":"ce4bh3h2rcd13ifvqdn0","pricing_plan_id":"cebpf4jnsgd1na2vs0mg"},{"bike_id":"61e68236-7c96-48ea-937f-863da20e4553","system_id":"levelo_inurba_marseille","lat":43.2293,"lon":5.35373,"is_reserved":false,"is_disabled":false,"rental_uris":{"android":"levelo://app?vid=61e68236-7c96-48ea-937f-863da20e4553","ios":"levelo://app?vid=61e68236-7c96-48ea-937f-863da20e4553"},"vehicle_type_id":"4","last_reported":1730905753,"current_range_meters":38400,"station_id":"cpo3532slgdg3j2ikp40","pricing_plan_id":"cebpf4jnsgd1na2vs0mg"},{"bike_id":"eacbfd83-35b6-4d42-ba39-69cf353082d8","system_id":"levelo_inurba_marseille","lat":43.293955,"lon":5.384929,"is_reserved":false,"is_disabled":false,"rental_uris":{"android":"levelo://app?vid=eacbfd83-35b6-4d42-ba39-69cf353082d8","ios":"levelo://app?vid=eacbfd83-35b6-4d42-ba39-69cf353082d8"},"vehicle_type_id":"4","last_reported":1730905753,"current_range_meters":20800,"station_id":"ce4bgv12rcd13ifvqcp0","pricing_plan_id":"cebpf4jnsgd1na2vs0mg"},