{"last_updated":1748679186,"ttl":60,"version":"2.2","data":{"bikes":[{"bike_id":"55d42eeb-6b71-4987-a0f2-3d758b10d43e","system_id":"levelo_inurba_marseille","lat":43.33771,"lon":5.37424,"is_reserved":false,"is_disabled":true,"rental_uris":{"android":"levelo://app?vid=55d42eeb-6b71-4987-a0f2-3d758b10d43e","ios":"levelo://app?vid=55d42eeb-6b71-4987-a0f2-3d758b10d43e"},"vehicle_type_id":"4","last_reported":1748679187,"current_range_meters":0,"station_id":"","pricing_plan_id":"cebpf4jnsgd1na2vs0mg"},{"bike_id":"b7fe4621-b706-42f0-9085-4811142f84e8","system_id":"levelo_inurba_marseille","lat":43.337499,"lon":5.374469,"is_reserved":false,"is_disabled":true,"rental_uris":{"android":"levelo://app?vid=b7fe4621-b706-42f0-9085-4811142f84e8","ios":"levelo://app?vid=b7fe4621-b706-42f0-9085-4811142f84e8"},"vehicle_type_id":"4","last_reported":1748679187,"current_range_meters":0,"station_id":"","pricing_plan_id":"cebpf4jnsgd1na2vs0mg"},{"bike_id":"c8db4e53-1959-4129-b007-36bf92cfe0f1","system_id":"levelo_inurba_marseille","lat":43.3176,"lon":5.38952,"is_reserved":false,"is_disabled":true,"rental_uris":{"android":"levelo://app?vid=c8db4e53-1959-4129-b007-36bf92cfe0f1","ios":"levelo://app?vid=c8db4e53-1959-4129-b007-36bf92cfe0f1"},"vehicle_type_id":"4","last_reported":1748679187,"current_range_meters":0,"station_id":"","pricing_plan_id":"cebpf4jnsgd1na2vs0mg"},{"bike_id":"ad402f0f-3192-410c-afac-8cf064a40c6d","system_id":"levelo_inurba_marseille","lat":43.337444,"lon":5.374475,"is_reserved":false,"is_disabled":true,"rental_uris":{"android":"levelo://app?vid=ad402f0f-3192-410c-afac-8cf064a40c6d","ios":"levelo://app?vid=ad402f0f-3192-410c-afac-8cf064a40c6d"},"vehicle_type_id":"4","last_reported":1748679187,"current_range_meters":0,"station_id":"","pricing_plan_id":"cebpf4jnsgd1na2vs0mg"},{"bike_id":"e8d8ddad-17f0-4297-b743-7c17818146e6","system_id":"levelo_inurba_marseille","lat":43.2821,"lon":5.4297,"is_reserved":false,"is_disabled":true,"rental_uris":{"android":"levelo://app?vid=e8d8ddad-17f0-4297-b743-7c17818146e6","ios":"levelo://app?vid=e8d8ddad-17f0-4297-b743-7c17818146e6"},"vehicle_type_id":"4","last_reported":1748679187,"current_range_meters":0,"station_id":"","pricing_plan_id":"cebpf4jnsgd1na2vs0mg"},{"bike_id":"5066fbdb-00f8-44c8-912c-f3d62e14f5d8","system_id":"levelo_inurba_marseille","lat":43.30684,"lon":5.40635,"is_reserved":false,"is_disabled":true,"rental_uris":{"android":"levelo://app?vid=5066fbdb-00f8-44c8-912c-f3d62e14f5d8","ios":"levelo://app?vid=5066fbdb-00f8-44c8-912c-f3d62e14f5d8"},"vehicle_type_id":"4","last_reported":1748679187,"current_range_meters":0,"station_id":"","pricing_plan_id":"cebpf4jnsgd1na2vs0mg"},{"bike_id":"e3f4a748-d432-4598-9895-6507bad78d39","system_id":"levelo_inurba_marseille","lat":43.33601,"lon":5.4329,"is_reserved":false,"is_disabled":true,"rental_uris":{"android":"levelo://app?vid=e3f4a748-d432-4598-9895-6507bad78d39","ios":"levelo://app?vid=e3f4a748-d432-4598-9895-6507bad78d39"},"vehicle_type_id":"4","last_reported":1748679187,"current_range_meters":0,"station_id":"","pricing_plan_id":"cebpf4jnsgd1na2vs0mg"},{"bike_id":"80dc1064-d63f-4a22-ad21-d8abd70986c0","system_id":"levelo_inurba_marseille","lat":43.33811,"lon":5.37503,"is_reserved":false,"is_disabled":true,"rental_uris":{"android":"levelo://app?vid=80dc1064-d63f-4a22-ad21-d8abd70986c0","ios":"levelo://app?vid=80dc1064-d63f-4a22-ad21-d8abd70986c0"},"vehicle_type_id":"4","last_reported":1748679187,"current_range_meters":0,"station_id":"","pricing_plan_id":"cebpf4jnsgd1na2vs0mg"},{"bike_id":"ce41cc54-d72c-4430-9b83-2d4b132d5130","system_id":"levelo_inurba_marseille","lat":43.29531,"lon":5.38553,"is_reserved":false,"is_disabled":true,"rental_uris":{"android":"levelo://app?vid=ce41cc54-d72c-4430-9b83-2d4b132d5130","ios":"levelo://app?vid=ce41cc54-d72c-4430-9b83-2d4b132d5130"},"vehicle_type_id":"4","last_reported":1748679187,"current_range_meters":0,"station_id":"ce4bgih2rcd13ifvqba0","pricing_plan_id":"cebpf4jnsgd1na2vs0mg"},{"bike_id":"fb22c8fc-c3ab-4f2b-bb62-1d7a5dd38724","system_id":"levelo_inurba_marseille","lat":43.3111,"lon":5.37786,"is_reserved":false,"is_disabled":true,"rental_uris":{"android":"levelo://app?vid=fb22c8fc-c3ab-4f2b-bb62-1d7a5dd38724","ios":"levelo://app?vid=fb22c8fc-c3ab-4f2b-bb62-1d7a5dd38724"},"vehicle_type_id":"4","last_reported":1748679187,"current_range_meters":0,"station_id":"ce4bgt92rcd13ifvqcg0","pricing_plan_id":"cebpf4jnsgd1na2vs0mg"},{"bike_id":"60395e77-6615-480f-8fb3-fe73277e331b","system_id":"levelo_inurba_marseille","lat":43.31074,"lon":5.38364,"is_reserved":false,"is_disabled":true,"rental_uris":{"android":"levelo://app?vid=60395e77-6615-480f-8fb3-fe73277e331b","ios":"levelo://app?vid=60395e77-6615-480f-8fb3-fe73277e331b"},"vehicle_type_id":"4","last_reported":1748679187,"current_range_meters":0,"station_id":"ce4bgv92rcd13ifvqcr0","pricing_plan_id":"cebpf4jnsgd1na2vs0mg"},{"bike_id":"dd0821c7-dd47-4d0f-bba3-1a9e49bc6a26","system_id":"levelo_inurba_marseille","lat":43.29963,"lon":5.41331,"is_reserved":false,"is_disabled":true,"rental_uris":{"android":"levelo://app?vid=dd0821c7-dd47-4d0f-bba3-1a9e49bc6a26","ios":"levelo://app?vid=dd0821c7-dd47-4d0f-bba3-1a9e49bc6a26"},"vehicle_type_id":"4","last_reported":1748679187,"current_range_meters":0,"station_id":"ce4bhp12rcd13ifvqh9g","pricing_plan_id":"cebpf4jnsgd1na2vs0mg"},{"bike_id":"bab9b8de-9af3-4736-9107-3b1ec5552f03","system_id":"levelo_inurba_marseille","lat":43.32096,"lon":5.36819,"is_reserved":false,"is_disabled":true,"rental_uris":{"android":"levelo://app?vid=bab9b8de-9af3-4736-9107-3b1ec5552f03","ios":"levelo://app?vid=bab9b8de-9af3-4736-9107-3b1ec5552f03"},"vehicle_type_id":"4","last_reported":1748679187,"current_range_meters":0,"station_id":"ce4bhrh2rcd13ifvqhug","pricing_plan_id":"cebpf4jnsgd1na2vs0mg"},{"bike_id":"7efd1012-2815-43a2-acf7-e56b4769746c","system_id":"levelo_inurba_marseille","lat":43.269353,"lon":5.40263,"is_reserved":false,"is_disabled":true,"rental_uris":{"android":"levelo://app?vid=7efd1012-2815-43a2-acf7-e56b4769746c","ios":"levelo://app?vid=7efd1012-2815-43a2-acf7-e56b4769746c"},"vehicle_type_id":"4","last_reported":1748679187,"current_range_meters":0,"station_id":"cjm6bp8fraef2m0cb0m0","pricing_plan_id":"cebpf4jnsgd1na2vs0mg"},{"bike_id":"bca8997c-ca56-4d92-9c61-d7e9c3800782","system_id":"levelo_inurba_marseille","lat":43.21757,"lon":5.3456,"is_reserved":false,"is_disabled":true,"rental_uris":{"android":"levelo://app?vid=bca8997c-ca56-4d92-9c61-d7e9c3800782","ios":"levelo://app?vid=bca8997c-ca56-4d92-9c61-d7e9c3800782"},"vehicle_type_id":"4","last_reported":1748679187,"current_range_meters":0,"station_id":"st_cvj6r9ubvosntc0bgbag","pricing_plan_id":"cebpf4jnsgd1na2vs0mg"},{"bike_id":"773c1455-d022-4f8e-8c6e-cf957b22d221","system_id":"levelo_inurba_marseille","lat":43.21755,"lon":5.34606,"is_reserved":false,"is_disabled":true,"rental_uris":{"android":"levelo://app?vid=773c1455-d022-4f8e-8c6e-cf957b22d221","ios":"levelo://app?vid=773c1455-d022-4f8e-8c6e-cf957b22d221"},"vehicle_type_id":"4","last_reported":1748679187,"current_range_meters":0,"station_id":"st_cvj6r9ubvosntc0bgbag","pricing_plan_id":"cebpf4jnsgd1na2vs0mg"},{"bike_id":"ab9c9983-bf72-44ed-ad75-a96b382dad3c","system_id":"levelo_inurba_marseille","lat":43.2174,"lon":5.34618,"is_reserved":false,"is_disabled":true,"rental_uris":{"android":"levelo://app?vid=ab9c9983-bf72-44ed-ad75-a96b382dad3c","ios":"levelo://app?vid=ab9c9983-bf72-44ed-ad75-a96b382dad3c"},"vehicle_type_id":"4","last_reported":1748679187,"current_range_meters":0,"station_id":"st_cvj6r9ubvosntc0bgbag","pricing_plan_id":"cebpf4jnsgd1na2vs0mg"},{"bike_id":"db111e29-c7bc-419e-9b00-20231fbec330","system_id":"levelo_inurba_marseille","lat":43.217561,"lon":5.346176,"is_reserved":false,"is_disabled":true,"rental_uris":{"android":"levelo://app?vid=db111e29-c7bc-419e-9b00-20231fbec330","ios":"levelo://app?vid=db111e29-c7bc-419e-9b00-20231fbec330"},"vehicle_type_id":"4","last_reported":1748679187,"current_range_meters":0,"station_id":"st_cvj6r9ubvosntc0bgbag","pricing_plan_id":"cebpf4jnsgd1na2vs0mg"},{"bike_id":"c9a8ab5e-4f64-4e9c-8db2-4dbad5a71d1d","system_id":"levelo_inurba_marseille","lat":43.217537,"lon":5.34599,"is_reserved":false,"is_disabled":true,"rental_uris":{"android":"levelo://app?vid=c9a8ab5e-4f64-4e9c-8db2-4dbad5a71d1d","ios":"levelo://app?vid=c9a8ab5e-4f64-4e9c-8db2-4dbad5a71d1d"},"vehicle_type_id":"4","last_reported":1748679187,"current_range_meters":0,"station_id":"st_cvj6r9ubvosntc0bgbag","pricing_plan_id":"cebpf4jnsgd1na2vs0mg"},{"bike_id":"edcb0dfe-bdaa-4cf7-84cb-f40080951379","system_id":"levelo_inurba_marseille","lat":43.21743,"lon":5.34596,"is_reserved":false,"is_disabled":true,"rental_uris":{"android":"levelo://app?vid=edcb0dfe-bdaa-4cf7-84cb-f40080951379","ios":"levelo://app?vid=edcb0dfe-bdaa-4cf7-84cb-f40080951379"},"vehicle_type_id":"4","last_reported":1748679187,"current_range_meters":0,"station_id":"st_cvj6r9ubvosntc0bgbag","pricing_plan_id":"cebpf4jnsgd1na2vs0mg"},{"bike_id":"bb21dbe0-b12f-4edc-a49e-f3401f3f3d23","system_id":"levelo_inurba_marseille","lat":43.31737,"lon":5.387886,"is_reserved":false,"is_disabled":true,"rental_uris":{"android":"levelo://app?vid=bb21dbe0-b12f-4edc-a49e-f3401f3f3d23","ios":"levelo://app?vid=bb21dbe0-b12f-4edc-a49e-f3401f3f3d23"},"vehicle_type_id":"4","last_reported":1748679187,"current_range_meters":1200,"station_id":"","pricing_plan_id":"cebpf4jnsgd1na2vs0mg"},{"bike_id":"b6a30918-535b-4e1d-88c0-4b93f3406df2","system_id":"levelo_inurba_marseille","lat":43.25107,"lon":5.40323,"is_reserved":false,"is_disabled":true,"rental_uris":{"android":"levelo://app?vid=b6a30918-535b-4e1d-88c0-4b93f3406df2","ios":"levelo://app?vid=b6a30918-535b-4e1d-88c0-4b93f3406df2"},"vehicle_type_id":"4","last_reported":1748679187,"current_range_meters":1600,"station_id":"ce4bhlh2rcd13ifvqgig","pricing_plan_id":"cebpf4jnsgd1na2vs0mg"},{"bike_id":"3ca548e5-9f66-4dd5-97be-2b9e3cf6db20","system_id":"levelo_inurba_marseille","lat":43.24394,"lon":5.3705,"is_reserved":false,"is_disabled":true,"rental_uris":{"android":"levelo://app?vid=3ca548e5-9f66-4dd5-97be-2b9e3cf6db20","ios":"levelo://app?vid=3ca548e5-9f66-4dd5-97be-2b9e3cf6db20"},"vehicle_type_id":"4","last_reported":1748679187,"current_range_meters":2000,"station_id":"ce4bhhh2rcd13ifvqfk0","pricing_plan_id":"cebpf4jnsgd1na2vs0mg"},{"bike_id":"7c789bdf-af8a-422d-b02a-2a0b5159308a","system_id":"levelo_inurba_marseille","lat":43.24541,"lon":5.39521,"is_reserved":false,"is_disabled":true,"rental_uris":{"android":"levelo://app?vid=7c789bdf-af8a-422d-b02a-2a0b5159308a","ios":"levelo://app?vid=7c789bdf-af8a-422d-b02a-2a0b5159308a"},"vehicle_type_id":"4","last_reported":1748679187,"current_range_meters":2000,"station_id":"ce4bhlp2rcd13ifvqgjg","pricing_plan_id":"cebpf4jnsgd1na2vs0mg"},{"bike_id":"a24ed859-7ffe-447b-a280-957c836eb856","system_id":"levelo_inurba_marseille","lat":43.31365,"lon":5.37603,"is_reserved":false,"is_disabled":false,"rental_uris":{"android":"levelo://app?vid=a24ed859-7ffe-447b-a280-957c836eb856","ios":"levelo://app?vid=a24ed859-7ffe-447b-a280-957c836eb856"},"vehicle_type_id":"4","last_reported":1748679187,"current_range_meters":3200,"station_id":"","pricing_plan_id":"cebpf4jnsgd1na2vs0mg"},{"bike_id":"4606a288-c4b4-467c-bdcc-a9515d68faf4","system_id":"levelo_inurba_marseille","lat":43.271799,"lon":5.390126,"is_reserved":false,"is_disabled":false,"rental_uris":{"android":"levelo://app?vid=4606a288-c4b4-467c-bdcc-a9515d68faf4","ios":"levelo://app?vid=4606a288-c4b4-467c-bdcc-a9515d68faf4"},"vehicle_type_id":"4","last_reported":1748679187,"current_range_meters":3200,"station_id":"","pricing_plan_id":"cebpf4jnsgd1na2vs0mg"},{"bike_id":"36240f0a-66a2-43ec-8330-1f3a9d08cc7e","system_id":"levelo_inurba_marseille","lat":43.23901,"lon":5.36259,"is_reserved":false,"is_disabled":false,"rental_uris":{"android":"levelo://app?vid=36240f0a-66a2-43ec-8330-1f3a9d08cc7e","ios":"levelo://app?vid=36240f0a-66a2-43ec-8330-1f3a9d08cc7e"},"vehicle_type_id":"4","last_reported":1748679187,"current_range_meters":3600,"station_id":"","pricing_plan_id":"cebpf4jnsgd1na2vs0mg"},{"bike_id":"15338f80-3c5b-491b-989c-d02467ed80a5","system_id":"levelo_inurba_marseille","lat":43.287109,"lon":5.37938,"is_reserved":false,"is_disabled":false,"rental_uris":{"android":"levelo://app?vid=15338f80-3c5b-491b-989c-d02467ed80a5","ios":"levelo://app?vid=15338f80-3c5b-491b-989c-d02467ed80a5"},"vehicle_type_id":"4","last_reported":1748679187,"current_range_meters":3600,"station_id":"ce4bh9p2rcd13ifvqec0","pricing_plan_id":"cebpf4jnsgd1na2vs0mg"},{"bike_id":"c40b5fb1-fb87-4a87-bbd6-c1f33aaedd7f","system_id":"levelo_inurba_marseille","lat":43.303714,"lon":5.424899,"is_reserved":false,"is_disabled":false,"rental_uris":{"android":"levelo://app?vid=c40b5fb1-fb87-4a87-bbd6-c1f33aaedd7f","ios":"levelo://app?vid=c40b5fb1-fb87-4a87-bbd6-c1f33aaedd7f"},"vehicle_type_id":"4","last_reported":1748679187,"current_range_meters":4000,"station_id":"ce4bhoh2rcd13ifvqh6g","pricing_plan_id":"cebpf4jnsgd1na2vs0mg"},{"bike_id":"5617527c-81f3-4d9b-a1fb-52b3a8e8ebda","system_id":"levelo_inurba_marseille","lat":43.23189,"lon":5.3997,"is_reserved":false,"is_disabled":false,"rental_uris":{"android":"levelo://app?vid=5617527c-81f3-4d9b-a1fb-52b3a8e8ebda","ios":"levelo://app?vid=5617527c-81f3-4d9b-a1fb-52b3a8e8ebda"},"vehicle_type_id":"4","last_reported":1748679187,"current_range_meters":4400,"station_id":"ce4bhn12rcd13ifvqgqg","pricing_plan_id":"cebpf4jnsgd1na2vs0mg"},{"bike_id":"26904eab-0040-4a23-9aec-04ac31ff2d99","system_id":"levelo_inurba_marseille","lat":43.24166,"lon":5.36397,"is_reserved":false,"is_disabled":false,"rental_uris":{"android":"levelo://app?vid=26904eab-0040-4a23-9aec-04ac31ff2d99","ios":"levelo://app?vid=26904eab-0040-4a23-9aec-04ac31ff2d99"},"vehicle_type_id":"4","last_reported":1748679187,"current_range_meters":4400,"station_id":"cpo36qri1sfpv3e86is0","pricing_plan_id":"cebpf4jnsgd1na2vs0mg"},{"bike_id":"2315e989-158e-4fcf-b12b-f290abc89f0c","system_id":"levelo_inurba_marseille","lat":43.2962,"lon":5.37172,"is_reserved":false,"is_disabled":false,"rental_uris":{"android":"levelo://app?vid=2315e989-158e-4fcf-b12b-f290abc89f0c","ios":"levelo://app?vid=2315e989-158e-4fcf-b12b-f290abc89f0c"},"vehicle_type_id":"4","last_reported":1748679187,"current_range_meters":4800,"station_id":"ce4bgnh2rcd13ifvqc0g","pricing_plan_id":"cebpf4jnsgd1na2vs0mg"},{"bike_id":"4134fe01-5d14-4615-9d7b-0a524ae01da0","system_id":"levelo_inurba_marseille","lat":43.23149,"lon":5.43725,"is_reserved":false,"is_disabled":false,"rental_uris":{"android":"levelo://app?vid=4134fe01-5d14-4615-9d7b-0a524ae01da0","ios":"levelo://app?vid=4134fe01-5d14-4615-9d7b-0a524ae01da0"},"vehicle_type_id":"4","last_reported":1748679187,"current_range_meters":4800,"station_id":"ce4bhmp2rcd13ifvqgog","pricing_plan_id":"cebpf4jnsgd1na2vs0mg"},{"bike_id":"e5d113e9-a907-4483-a607-193e3c6f0534","system_id":"levelo_inurba_marseille","lat":43.24154,"lon":5.36403,"is_reserved":false,"is_disabled":false,"rental_uris":{"android":"levelo://app?vid=e5d113e9-a907-4483-a607-193e3c6f0534","ios":"levelo://app?vid=e5d113e9-a907-4483-a607-193e3c6f0534"},"vehicle_type_id":"4","last_reported":1748679187,"current_range_meters":4800,"station_id":"cpo36qri1sfpv3e86is0","pricing_plan_id":"cebpf4jnsgd1na2vs0mg"},{"bike_id":"10d75ef7-2da9-4b34-9988-e053cde9ff8e","system_id":"levelo_inurba_marseille","lat":43.26933,"lon":5.40259,"is_reserved":false,"is_disabled":false,"rental_uris":{"android":"levelo://app?vid=10d75ef7-2da9-4b34-9988-e053cde9ff8e","ios":"levelo://app?vid=10d75ef7-2da9-4b34-9988-e053cde9ff8e"},"vehicle_type_id":"4","last_reported":1748679187,"current_range_meters":5600,"station_id":"cjm6bp8fraef2m0cb0m0","pricing_plan_id":"cebpf4jnsgd1na2vs0mg"},{"bike_id":"2ee778be-4602-41f8-8eb7-7caf28ab6f0e","system_id":"levelo_inurba_marseille","lat":43.337444,"lon":5.374475,"is_reserved":false,"is_disabled":false,"rental_uris":{"android":"levelo://app?vid=2ee778be-4602-41f8-8eb7-7caf28ab6f0e","ios":"levelo://app?vid=2ee778be-4602-41f8-8eb7-7caf28ab6f0e"},"vehicle_type_id":"4","last_reported":1748679187,"current_range_meters":6000,"station_id":"","pricing_plan_id":"cebpf4jnsgd1na2vs0mg"},{"bike_id":"da5921cd-e75b-4ce7-b109-06c28f720590","system_id":"levelo_inurba_marseille","lat":43.28743,"lon":5.36171,"is_reserved":false,"is_disabled":false,"rental_uris":{"android":"levelo://app?vid=da5921cd-e75b-4ce7-b109-06c28f720590","ios":"levelo://app?vid=da5921cd-e75b-4ce7-b109-06c28f720590"},"vehicle_type_id":"4","last_reported":1748679187,"current_range_meters":6000,"station_id":"","pricing_plan_id":"cebpf4jnsgd1na2vs0mg"},{"bike_id":"989bbd90-1d0a-4fd4-853d-0c7f62f08e27","system_id":"levelo_inurba_marseille","lat":43.30952,"lon":5.39024,"is_reserved":false,"is_disabled":false,"rental_uris":{"android":"levelo://app?vid=989bbd90-1d0a-4fd4-853d-0c7f62f08e27","ios":"levelo://app?vid=989bbd90-1d0a-4fd4-853d-0c7f62f08e27"},"vehicle_type_id":"4","last_reported":1748679187,"current_range_meters":6000,"station_id":"ce4bgup2rcd13ifvqco0","pricing_plan_id":"cebpf4jnsgd1na2vs0mg"},{"bike_id":"8af5e327-fbf3-4fc0-8b8a-501df6d392b0","system_id":"levelo_inurba_marseille","lat":43.30935,"lon":5.40171,"is_reserved":false,"is_disabled":false,"rental_uris":{"android":"levelo://app?vid=8af5e327-fbf3-4fc0-8b8a-501df6d392b0","ios":"levelo://app?vid=8af5e327-fbf3-4fc0-8b8a-501df6d392b0"},"vehicle_type_id":"4","last_reported":1748679187,"current_range_meters":6000,"station_id":"ce4bgvp2rcd13ifvqct0","pricing_plan_id":"cebpf4jnsgd1na2vs0mg"},{"bike_id":"6a5393cf-3bb2-4d9a-9fd5-17d0b9b8b71c","system_id":"levelo_inurba_marseille","lat":43.23964,"lon":5.36628,"is_reserved":false,"is_disabled":false,"rental_uris":{"android":"levelo://app?vid=6a5393cf-3bb2-4d9a-9fd5-17d0b9b8b71c","ios":"levelo://app?vid=6a5393cf-3bb2-4d9a-9fd5-17d0b9b8b71c"},"vehicle_type_id":"4","last_reported":1748679187,"current_range_meters":6000,"station_id":"ce4bhi12rcd13ifvqfp0","pricing_plan_id":"cebpf4jnsgd1na2vs0mg"},{"bike_id":"37dc2036-b76c-4b45-b95d-417bfa70580d","system_id":"levelo_inurba_marseille","lat":43.29265,"lon":5.38453,"is_reserved":false,"is_disabled":false,"rental_uris":{"android":"levelo://app?vid=37dc2036-b76c-4b45-b95d-417bfa70580d","ios":"levelo://app?vid=37dc2036-b76c-4b45-b95d-417bfa70580d"},"vehicle_type_id":"4","last_reported":1748679187,"current_range_meters":6400,"station_id":"ce4bh692rcd13ifvqea0","pricing_plan_id":"cebpf4jnsgd1na2vs0mg"},{"bike_id":"57211eca-7d2d-4a9c-8044-0308ba07cb42","system_id":"levelo_inurba_marseille","lat":43.28669,"lon":5.38654,"is_reserved":false,"is_disabled":false,"rental_uris":{"android":"levelo://app?vid=57211eca-7d2d-4a9c-8044-0308ba07cb42","ios":"levelo://app?vid=57211eca-7d2d-4a9c-8044-0308ba07cb42"},"vehicle_type_id":"4","last_reported":1748679187,"current_range_meters":6800,"station_id":"ce4bh492rcd13ifvqdug","pricing_plan_id":"cebpf4jnsgd1na2vs0mg"},{"bike_id":"91194276-c829-42e5-a6ed-8393753c90e5","system_id":"levelo_inurba_marseille","lat":43.24386,"lon":5.37063,"is_reserved":false,"is_disabled":false,"rental_uris":{"android":"levelo://app?vid=91194276-c829-42e5-a6ed-8393753c90e5","ios":"levelo://app?vid=91194276-c829-42e5-a6ed-8393753c90e5"},"vehicle_type_id":"4","last_reported":1748679187,"current_range_meters":6800,"station_id":"ce4bhhh2rcd13ifvqfk0","pricing_plan_id":"cebpf4jnsgd1na2vs0mg"},{"bike_id":"1b178ea1-044a-4bf5-83e5-c6b8ba930547","system_id":"levelo_inurba_marseille","lat":43.27183,"lon":5.40992,"is_reserved":false,"is_disabled":false,"rental_uris":{"android":"levelo://app?vid=1b178ea1-044a-4bf5-83e5-c6b8ba930547","ios":"levelo://app?vid=1b178ea1-044a-4bf5-83e5-c6b8ba930547"},"vehicle_type_id":"4","last_reported":1748679187,"current_range_meters":6800,"station_id":"ce4bhl12rcd13ifvqgf0","pricing_plan_id":"cebpf4jnsgd1na2vs0mg"},{"bike_id":"83f58932-5e4f-4759-9290-dfe976998719","system_id":"levelo_inurba_marseille","lat":43.231873,"lon":5.35552,"is_reserved":false,"is_disabled":false,"rental_uris":{"android":"levelo://app?vid=83f58932-5e4f-4759-9290-dfe976998719","ios":"levelo://app?vid=83f58932-5e4f-4759-9290-dfe976998719"},"vehicle_type_id":"4","last_reported":1748679187,"current_range_meters":6800,"station_id":"ce4bhu92rcd13ifvqi70","pricing_plan_id":"cebpf4jnsgd1na2vs0mg"},{"bike_id":"cad99567-44b2-4a22-8fd6-658aac86f8e9","system_id":"levelo_inurba_marseille","lat":43.31115,"lon":5.37761,"is_reserved":false,"is_disabled":false,"rental_uris":{"android":"levelo://app?vid=cad99567-44b2-4a22-8fd6-658aac86f8e9","ios":"levelo://app?vid=cad99567-44b2-4a22-8fd6-658aac86f8e9"},"vehicle_type_id":"4","last_reported":1748679187,"current_range_meters":7200,"station_id":"ce4bgt92rcd13ifvqcg0","pricing_plan_id":"cebpf4jnsgd1na2vs0mg"},{"bike_id":"7eef1f8f-5d95-4320-a013-277c66264c38","system_id":"levelo_inurba_marseille","lat":43.30923,"lon":5.40156,"is_reserved":false,"is_disabled":false,"rental_uris":{"android":"levelo://app?vid=7eef1f8f-5d95-4320-a013-277c66264c38","ios":"levelo://app?vid=7eef1f8f-5d95-4320-a013-277c66264c38"},"vehicle_type_id":"4","last_reported":1748679187,"current_range_meters":7200,"station_id":"ce4bgvp2rcd13ifvqct0","pricing_plan_id":"cebpf4jnsgd1na2vs0mg"},{"bike_id":"764b93a0-026f-4bda-8b3f-829144a02e78","system_id":"levelo_inurba_marseille","lat":43.28835,"lon":5.39336,"is_reserved":false,"is_disabled":false,"rental_uris":{"android":"levelo://app?vid=764b93a0-026f-4bda-8b3f-829144a02e78","ios":"levelo://app?vid=764b93a0-026f-4bda-8b3f-829144a02e78"},"vehicle_type_id":"4","last_reported":1748679187,"current_range_meters":7200,"station_id":"ce4bh2p2rcd13ifvqdi0","pricing_plan_id":"cebpf4jnsgd1na2vs0mg"},{"bike_id":"87e0bf49-7ca0-4436-a1a9-9a6d33d485c5","system_id":"levelo_inurba_marseille","lat":43.25113,"lon":5.40345,"is_reserved":false,"is_disabled":false,"rental_uris":{"android":"levelo://app?vid=87e0bf49-7ca0-4436-a1a9-9a6d33d485c5","ios":"levelo://app?vid=87e0bf49-7ca0-4436-a1a9-9a6d33d485c5"},"vehicle_type_id":"4","last_reported":1748679187,"current_range_meters":7200,"station_id":"ce4bhlh2rcd13ifvqgig","pricing_plan_id":"cebpf4jnsgd1na2vs0mg"},{"bike_id":"07cc432b-34ff-437e-9ff8-8475bd1fc1cd","system_id":"levelo_inurba_marseille","lat":43.27982,"lon":5.41672,"is_reserved":false,"is_disabled":false,"rental_uris":{"android":"levelo://app?vid=07cc432b-34ff-437e-9ff8-8475bd1fc1cd","ios":"levelo://app?vid=07cc432b-34ff-437e-9ff8-8475bd1fc1cd"},"vehicle_type_id":"4","last_reported":1748679187,"current_range_meters":7200,"station_id":"ce4bho12rcd13ifvqh1g","pricing_plan_id":"cebpf4jnsgd1na2vs0mg"},{"bike_id":"d451e630-8fd8-4701-9cd1-43ccfdcc67c9","system_id":"levelo_inurba_marseille","lat":43.31548,"lon":5.38002,"is_reserved":false,"is_disabled":false,"rental_uris":{"android":"levelo://app?vid=d451e630-8fd8-4701-9cd1-43ccfdcc67c9","ios":"levelo://app?vid=d451e630-8fd8-4701-9cd1-43ccfdcc67c9"},"vehicle_type_id":"4","last_reported":1748679187,"current_range_meters":7200,"station_id":"ce4bhsp2rcd13ifvqi50","pricing_plan_id":"cebpf4jnsgd1na2vs0mg"},{"bike_id":"934904aa-b6fe-443c-8d85-9d5ac099efe4","system_id":"levelo_inurba_marseille","lat":43.2175,"lon":5.34599,"is_reserved":false,"is_disabled":false,"rental_uris":{"android":"levelo://app?vid=934904aa-b6fe-443c-8d85-9d5ac099efe4","ios":"levelo://app?vid=934904aa-b6fe-443c-8d85-9d5ac099efe4"},"vehicle_type_id":"4","last_reported":1748679187,"current_range_meters":7200,"station_id":"st_cvj6r9ubvosntc0bgbag","pricing_plan_id":"cebpf4jnsgd1na2vs0mg"},{"bike_id":"097f7401-e6a9-4229-a551-d1ac94833fde","system_id":"levelo_inurba_marseille","lat":43.282684,"lon":5.350627,"is_reserved":false,"is_disabled":false,"rental_uris":{"android":"levelo://app?vid=097f7401-e6a9-4229-a551-d1ac94833fde","ios":"levelo://app?vid=097f7401-e6a9-4229-a551-d1ac94833fde"},"vehicle_type_id":"4","last_reported":1748679187,"current_range_meters":8000,"station_id":"ce4bhbp2rcd13ifvqerg","pricing_plan_id":"cebpf4jnsgd1na2vs0mg"},{"bike_id":"fd83b61e-b87d-4f6d-bd75-fc58d611300c","system_id":"levelo_inurba_marseille","lat":43.29281,"lon":5.36851,"is_reserved":false,"is_disabled":false,"rental_uris":{"android":"levelo://app?vid=fd83b61e-b87d-4f6d-bd75-fc58d611300c","ios":"levelo://app?vid=fd83b61e-b87d-4f6d-bd75-fc58d611300c"},"vehicle_type_id":"4","last_reported":1748679187,"current_range_meters":8000,"station_id":"ce4bhbp2rcd13ifvqesg","pricing_plan_id":"cebpf4jnsgd1na2vs0mg"},{"bike_id":"e80c2554-a5fd-4f6a-80de-c3bb2b4cc78a","system_id":"levelo_inurba_marseille","lat":43.251202,"lon":5.403273,"is_reserved":false,"is_disabled":false,"rental_uris":{"android":"levelo://app?vid=e80c2554-a5fd-4f6a-80de-c3bb2b4cc78a","ios":"levelo://app?vid=e80c2554-a5fd-4f6a-80de-c3bb2b4cc78a"},"vehicle_type_id":"4","last_reported":1748679187,"current_range_meters":8000,"station_id":"ce4bhlh2rcd13ifvqgig","pricing_plan_id":"cebpf4jnsgd1na2vs0mg"},{"bike_id":"deb97c7e-e60a-4705-a8a7-b4a5223f99c8","system_id":"levelo_inurba_marseille","lat":43.28158,"lon":5.42646,"is_reserved":false,"is_disabled":false,"rental_uris":{"android":"levelo://app?vid=deb97c7e-e60a-4705-a8a7-b4a5223f99c8","ios":"levelo://app?vid=deb97c7e-e60a-4705-a8a7-b4a5223f99c8"},"vehicle_type_id":"4","last_reported":1748679187,"current_range_meters":8000,"station_id":"ce4bhnh2rcd13ifvqgug","pricing_plan_id":"cebpf4jnsgd1na2vs0mg"},{"bike_id":"a882f5db-172f-4f11-bf66-7e2c36364bb7","system_id":"levelo_inurba_marseille","lat":43.29554,"lon":5.42294,"is_reserved":false,"is_disabled":false,"rental_uris":{"android":"levelo://app?vid=a882f5db-172f-4f11-bf66-7e2c36364bb7","ios":"levelo://app?vid=a882f5db-172f-4f11-bf66-7e2c36364bb7"},"vehicle_type_id":"4","last_reported":1748679187,"current_range_meters":8000,"station_id":"ce4bhph2rcd13ifvqhdg","pricing_plan_id":"cebpf4jnsgd1na2vs0mg"},{"bike_id":"4dc07d80-e63c-43e9-9b6b-30ab182521fd","system_id":"levelo_inurba_marseille","lat":43.27309,"lon":5.391159,"is_reserved":false,"is_disabled":false,"rental_uris":{"android":"levelo://app?vid=4dc07d80-e63c-43e9-9b6b-30ab182521fd","ios":"levelo://app?vid=4dc07d80-e63c-43e9-9b6b-30ab182521fd"},"vehicle_type_id":"4","last_reported":1748679187,"current_range_meters":8400,"station_id":"ce4bhgp2rcd13ifvqfe0","pricing_plan_id":"cebpf4jnsgd1na2vs0mg"},{"bike_id":"18c1bc8d-773b-414a-b410-344762faee23","system_id":"levelo_inurba_marseille","lat":43.27203,"lon":5.40992,"is_reserved":false,"is_disabled":false,"rental_uris":{"android":"levelo://app?vid=18c1bc8d-773b-414a-b410-344762faee23","ios":"levelo://app?vid=18c1bc8d-773b-414a-b410-344762faee23"},"vehicle_type_id":"4","last_reported":1748679187,"current_range_meters":8400,"station_id":"ce4bhl12rcd13ifvqgf0","pricing_plan_id":"cebpf4jnsgd1na2vs0mg"},{"bike_id":"7da11492-a011-4779-9fdc-c1508eade447","system_id":"levelo_inurba_marseille","lat":43.27985,"lon":5.41685,"is_reserved":false,"is_disabled":false,"rental_uris":{"android":"levelo://app?vid=7da11492-a011-4779-9fdc-c1508eade447","ios":"levelo://app?vid=7da11492-a011-4779-9fdc-c1508eade447"},"vehicle_type_id":"4","last_reported":1748679187,"current_range_meters":8400,"station_id":"ce4bho12rcd13ifvqh1g","pricing_plan_id":"cebpf4jnsgd1na2vs0mg"},{"bike_id":"3d36103b-c043-47dc-a225-42e79dcf6cf6","system_id":"levelo_inurba_marseille","lat":43.32285,"lon":5.38285,"is_reserved":false,"is_disabled":false,"rental_uris":{"android":"levelo://app?vid=3d36103b-c043-47dc-a225-42e79dcf6cf6","ios":"levelo://app?vid=3d36103b-c043-47dc-a225-42e79dcf6cf6"},"vehicle_type_id":"4","last_reported":1748679187,"current_range_meters":8400,"station_id":"ce4bhr12rcd13ifvqhqg","pricing_plan_id":"cebpf4jnsgd1na2vs0mg"},{"bike_id":"7243d7c8-02f5-4392-89cf-8c360e846d55","system_id":"levelo_inurba_marseille","lat":43.25279,"lon":5.37817,"is_reserved":false,"is_disabled":false,"rental_uris":{"android":"levelo://app?vid=7243d7c8-02f5-4392-89cf-8c360e846d55","ios":"levelo://app?vid=7243d7c8-02f5-4392-89cf-8c360e846d55"},"vehicle_type_id":"4","last_reported":1748679187,"current_range_meters":8800,"station_id":"","pricing_plan_id":"cebpf4jnsgd1na2vs0mg"},{"bike_id":"11d5a3c3-b5c3-45ee-9c59-63e06770cf8b","system_id":"levelo_inurba_marseille","lat":43.2515,"lon":5.4036,"is_reserved":false,"is_disabled":false,"rental_uris":{"android":"levelo://app?vid=11d5a3c3-b5c3-45ee-9c59-63e06770cf8b","ios":"levelo://app?vid=11d5a3c3-b5c3-45ee-9c59-63e06770cf8b"},"vehicle_type_id":"4","last_reported":1748679187,"current_range_meters":8800,"station_id":"","pricing_plan_id":"cebpf4jnsgd1na2vs0mg"},{"bike_id":"0d2e6c88-f279-4b0e-8089-337b6594bf4b","system_id":"levelo_inurba_marseille","lat":43.30463,"lon":5.37906,"is_reserved":false,"is_disabled":false,"rental_uris":{"android":"levelo://app?vid=0d2e6c88-f279-4b0e-8089-337b6594bf4b","ios":"levelo://app?vid=0d2e6c88-f279-4b0e-8089-337b6594bf4b"},"vehicle_type_id":"4","last_reported":1748679187,"current_range_meters":8800,"station_id":"ce4bgup2rcd13ifvqcn0","pricing_plan_id":"cebpf4jnsgd1na2vs0mg"},{"bike_id":"b953c4ab-62d9-49e1-b582-366b8568892e","system_id":"levelo_inurba_marseille","lat":43.2926,"lon":5.40902,"is_reserved":false,"is_disabled":false,"rental_uris":{"android":"levelo://app?vid=b953c4ab-62d9-49e1-b582-366b8568892e","ios":"levelo://app?vid=b953c4ab-62d9-49e1-b582-366b8568892e"},"vehicle_type_id":"4","last_reported":1748679187,"current_range_meters":8800,"station_id":"ce4bh192rcd13ifvqdc0","pricing_plan_id":"cebpf4jnsgd1na2vs0mg"},{"bike_id":"1f7ebc70-8e15-4aea-adb3-010beac9c8f2","system_id":"levelo_inurba_marseille","lat":43.28554,"lon":5.39477,"is_reserved":false,"is_disabled":false,"rental_uris":{"android":"levelo://app?vid=1f7ebc70-8e15-4aea-adb3-010beac9c8f2","ios":"levelo://app?vid=1f7ebc70-8e15-4aea-adb3-010beac9c8f2"},"vehicle_type_id":"4","last_reported":1748679187,"current_range_meters":8800,"station_id":"ce4bh292rcd13ifvqdg0","pricing_plan_id":"cebpf4jnsgd1na2vs0mg"},{"bike_id":"a9c74be0-ec3c-4ce2-8664-2b13432ba51e","system_id":"levelo_inurba_marseille","lat":43.29032,"lon":5.39976,"is_reserved":false,"is_disabled":false,"rental_uris":{"android":"levelo://app?vid=a9c74be0-ec3c-4ce2-8664-2b13432ba51e","ios":"levelo://app?vid=a9c74be0-ec3c-4ce2-8664-2b13432ba51e"},"vehicle_type_id":"4","last_reported":1748679187,"current_range_meters":8800,"station_id":"ce4bh392rcd13ifvqdm0","pricing_plan_id":"cebpf4jnsgd1na2vs0mg"},{"bike_id":"498d9e89-d9cf-4a24-b0fb-b7780140c66c","system_id":"levelo_inurba_marseille","lat":43.28656,"lon":5.36337,"is_reserved":false,"is_disabled":false,"rental_uris":{"android":"levelo://app?vid=498d9e89-d9cf-4a24-b0fb-b7780140c66c","ios":"levelo://app?vid=498d9e89-d9cf-4a24-b0fb-b7780140c66c"},"vehicle_type_id":"4","last_reported":1748679187,"current_range_meters":8800,"station_id":"ce4bhah2rcd13ifvqej0","pricing_plan_id":"cebpf4jnsgd1na2vs0mg"},{"bike_id":"cad8af3e-639b-4880-b523-52b4d8fe5f17","system_id":"levelo_inurba_marseille","lat":43.290066,"lon":5.356213,"is_reserved":false,"is_disabled":false,"rental_uris":{"android":"levelo://app?vid=cad8af3e-639b-4880-b523-52b4d8fe5f17","ios":"levelo://app?vid=cad8af3e-639b-4880-b523-52b4d8fe5f17"},"vehicle_type_id":"4","last_reported":1748679187,"current_range_meters":8800,"station_id":"ce4bhb92rcd13ifvqen0","pricing_plan_id":"cebpf4jnsgd1na2vs0mg"},{"bike_id":"44b60998-4830-410a-a786-acb20b6de1bc","system_id":"levelo_inurba_marseille","lat":43.29222,"lon":5.36071,"is_reserved":false,"is_disabled":false,"rental_uris":{"android":"levelo://app?vid=44b60998-4830-410a-a786-acb20b6de1bc","ios":"levelo://app?vid=44b60998-4830-410a-a786-acb20b6de1bc"},"vehicle_type_id":"4","last_reported":1748679187,"current_range_meters":8800,"station_id":"ce4bhbh2rcd13ifvqeqg","pricing_plan_id":"cebpf4jnsgd1na2vs0mg"},{"bike_id":"adec08ad-7cab-4b8d-984d-1616c13b6452","system_id":"levelo_inurba_marseille","lat":43.26933,"lon":5.40247,"is_reserved":false,"is_disabled":false,"rental_uris":{"android":"levelo://app?vid=adec08ad-7cab-4b8d-984d-1616c13b6452","ios":"levelo://app?vid=adec08ad-7cab-4b8d-984d-1616c13b6452"},"vehicle_type_id":"4","last_reported":1748679187,"current_range_meters":8800,"station_id":"cjm6bp8fraef2m0cb0m0","pricing_plan_id":"cebpf4jnsgd1na2vs0mg"},{"bike_id":"e31a1e1f-1f99-4d47-9ad9-848f9f016670","system_id":"levelo_inurba_marseille","lat":43.29263,"lon":5.37627,"is_reserved":false,"is_disabled":false,"rental_uris":{"android":"levelo://app?vid=e31a1e1f-1f99-4d47-9ad9-848f9f016670","ios":"levelo://app?vid=e31a1e1f-1f99-4d47-9ad9-848f9f016670"},"vehicle_type_id":"4","last_reported":1748679187,"current_range_meters":9200,"station_id":"ce4bgi12rcd13ifvqb80","pricing_plan_id":"cebpf4jnsgd1na2vs0mg"},{"bike_id":"76749e45-957b-40bb-9b95-4da7298a2cca","system_id":"levelo_inurba_marseille","lat":43.30447,"lon":5.38894,"is_reserved":false,"is_disabled":false,"rental_uris":{"android":"levelo://app?vid=76749e45-957b-40bb-9b95-4da7298a2cca","ios":"levelo://app?vid=76749e45-957b-40bb-9b95-4da7298a2cca"},"vehicle_type_id":"4","last_reported":1748679187,"current_range_meters":9200,"station_id":"ce4bgk12rcd13ifvqbi0","pricing_plan_id":"cebpf4jnsgd1na2vs0mg"},{"bike_id":"7c7fec64-17f3-4a2f-8115-abaabf78da4e","system_id":"levelo_inurba_marseille","lat":43.28845,"lon":5.39318,"is_reserved":false,"is_disabled":false,"rental_uris":{"android":"levelo://app?vid=7c7fec64-17f3-4a2f-8115-abaabf78da4e","ios":"levelo://app?vid=7c7fec64-17f3-4a2f-8115-abaabf78da4e"},"vehicle_type_id":"4","last_reported":1748679187,"current_range_meters":9200,"station_id":"ce4bh2p2rcd13ifvqdi0","pricing_plan_id":"cebpf4jnsgd1na2vs0mg"},{"bike_id":"6cab2d10-7f2c-4dac-ba3d-4f103803cc6a","system_id":"levelo_inurba_marseille","lat":43.2892,"lon":5.38387,"is_reserved":false,"is_disabled":false,"rental_uris":{"android":"levelo://app?vid=6cab2d10-7f2c-4dac-ba3d-4f103803cc6a","ios":"levelo://app?vid=6cab2d10-7f2c-4dac-ba3d-4f103803cc6a"},"vehicle_type_id":"4","last_reported":1748679187,"current_range_meters":9200,"station_id":"ce4bh612rcd13ifvqe6g","pricing_plan_id":"cebpf4jnsgd1na2vs0mg"},{"bike_id":"aae1c45e-1c0a-429f-92f0-a7e867892607","system_id":"levelo_inurba_marseille","lat":43.29198,"lon":5.35805,"is_reserved":false,"is_disabled":false,"rental_uris":{"android":"levelo://app?vid=aae1c45e-1c0a-429f-92f0-a7e867892607","ios":"levelo://app?vid=aae1c45e-1c0a-429f-92f0-a7e867892607"},"vehicle_type_id":"4","last_reported":1748679187,"current_range_meters":9200,"station_id":"ce4bhb12rcd13ifvqel0","pricing_plan_id":"cebpf4jnsgd1na2vs0mg"},{"bike_id":"9483a7bd-846c-4c6e-a304-71a2f38946f5","system_id":"levelo_inurba_marseille","lat":43.2794,"lon":5.39552,"is_reserved":false,"is_disabled":false,"rental_uris":{"android":"levelo://app?vid=9483a7bd-846c-4c6e-a304-71a2f38946f5","ios":"levelo://app?vid=9483a7bd-846c-4c6e-a304-71a2f38946f5"},"vehicle_type_id":"4","last_reported":1748679187,"current_range_meters":9200,"station_id":"ce4bhf92rcd13ifvqf40","pricing_plan_id":"cebpf4jnsgd1na2vs0mg"},{"bike_id":"d6c26779-e321-4cb0-a227-f591ed2b2ed1","system_id":"levelo_inurba_marseille","lat":43.2721,"lon":5.39187,"is_reserved":false,"is_disabled":false,"rental_uris":{"android":"levelo://app?vid=d6c26779-e321-4cb0-a227-f591ed2b2ed1","ios":"levelo://app?vid=d6c26779-e321-4cb0-a227-f591ed2b2ed1"},"vehicle_type_id":"4","last_reported":1748679187,"current_range_meters":9200,"station_id":"ce4bhhp2rcd13ifvqfm0","pricing_plan_id":"cebpf4jnsgd1na2vs0mg"},{"bike_id":"662af0d9-b4f1-4513-bbd2-fd65be6229e5","system_id":"levelo_inurba_marseille","lat":43.25926,"lon":5.40869,"is_reserved":false,"is_disabled":false,"rental_uris":{"android":"levelo://app?vid=662af0d9-b4f1-4513-bbd2-fd65be6229e5","ios":"levelo://app?vid=662af0d9-b4f1-4513-bbd2-fd65be6229e5"},"vehicle_type_id":"4","last_reported":1748679187,"current_range_meters":9200,"station_id":"ce4bhm92rcd13ifvqglg","pricing_plan_id":"cebpf4jnsgd1na2vs0mg"},{"bike_id":"d42b65af-38ed-48b1-9f62-d79f47c848dd","system_id":"levelo_inurba_marseille","lat":43.240628,"lon":5.377629,"is_reserved":false,"is_disabled":false,"rental_uris":{"android":"levelo://app?vid=d42b65af-38ed-48b1-9f62-d79f47c848dd","ios":"levelo://app?vid=d42b65af-38ed-48b1-9f62-d79f47c848dd"},"vehicle_type_id":"4","last_reported":1748679187,"current_range_meters":9200,"station_id":"ce4bhnp2rcd13ifvqgvg","pricing_plan_id":"cebpf4jnsgd1na2vs0mg"},{"bike_id":"d16f5222-3d1e-4d65-a992-1bc93f719178","system_id":"levelo_inurba_marseille","lat":43.30313,"lon":5.36601,"is_reserved":false,"is_disabled":false,"rental_uris":{"android":"levelo://app?vid=d16f5222-3d1e-4d65-a992-1bc93f719178","ios":"levelo://app?vid=d16f5222-3d1e-4d65-a992-1bc93f719178"},"vehicle_type_id":"4","last_reported":1748679187,"current_range_meters":9600,"station_id":"","pricing_plan_id":"cebpf4jnsgd1na2vs0mg"},{"bike_id":"64a3d9b3-30f8-4a8c-b831-0d99a9fae7a2","system_id":"levelo_inurba_marseille","lat":43.31748,"lon":5.40464,"is_reserved":false,"is_disabled":false,"rental_uris":{"android":"levelo://app?vid=64a3d9b3-30f8-4a8c-b831-0d99a9fae7a2","ios":"levelo://app?vid=64a3d9b3-30f8-4a8c-b831-0d99a9fae7a2"},"vehicle_type_id":"4","last_reported":1748679187,"current_range_meters":9600,"station_id":"","pricing_plan_id":"cebpf4jnsgd1na2vs0mg"},{"bike_id":"3f009739-7b87-4913-91fd-13cec0d166e8","system_id":"levelo_inurba_marseille","lat":43.28112,"lon":5.37825,"is_reserved":false,"is_disabled":false,"rental_uris":{"android":"levelo://app?vid=3f009739-7b87-4913-91fd-13cec0d166e8","ios":"levelo://app?vid=3f009739-7b87-4913-91fd-13cec0d166e8"},"vehicle_type_id":"4","last_reported":1748679187,"current_range_meters":9600,"station_id":"ce4bha12rcd13ifvqee0","pricing_plan_id":"cebpf4jnsgd1na2vs0mg"},{"bike_id":"3d7becb0-1eb1-42e3-a876-7221addb0848","system_id":"levelo_inurba_marseille","lat":43.273743,"lon":5.362607,"is_reserved":false,"is_disabled":false,"rental_uris":{"android":"levelo://app?vid=3d7becb0-1eb1-42e3-a876-7221addb0848","ios":"levelo://app?vid=3d7becb0-1eb1-42e3-a876-7221addb0848"},"vehicle_type_id":"4","last_reported":1748679187,"current_range_meters":9600,"station_id":"ce4bhbh2rcd13ifvqeo0","pricing_plan_id":"cebpf4jnsgd1na2vs0mg"},{"bike_id":"9ee87dbe-3990-4764-9a6b-2020fac42886","system_id":"levelo_inurba_marseille","lat":43.321059,"lon":5.367754,"is_reserved":false,"is_disabled":false,"rental_uris":{"android":"levelo://app?vid=9ee87dbe-3990-4764-9a6b-2020fac42886","ios":"levelo://app?vid=9ee87dbe-3990-4764-9a6b-2020fac42886"},"vehicle_type_id":"4","last_reported":1748679187,"current_range_meters":9600,"station_id":"ce4bhrh2rcd13ifvqhug","pricing_plan_id":"cebpf4jnsgd1na2vs0mg"},{"bike_id":"008a8b5c-da32-426f-bdcf-6db4c9f404d8","system_id":"levelo_inurba_marseille","lat":43.22925,"lon":5.35381,"is_reserved":false,"is_disabled":false,"rental_uris":{"android":"levelo://app?vid=008a8b5c-da32-426f-bdcf-6db4c9f404d8","ios":"levelo://app?vid=008a8b5c-da32-426f-bdcf-6db4c9f404d8"},"vehicle_type_id":"4","last_reported":1748679187,"current_range_meters":9600,"station_id":"cpo3532slgdg3j2ikp40","pricing_plan_id":"cebpf4jnsgd1na2vs0mg"},{"bike_id":"a672e2ce-ff65-491a-baf8-b5fcce4f4059","system_id":"levelo_inurba_marseille","lat":43.31686,"lon":5.39099,"is_reserved":false,"is_disabled":false,"rental_uris":{"android":"levelo://app?vid=a672e2ce-ff65-491a-baf8-b5fcce4f4059","ios":"levelo://app?vid=a672e2ce-ff65-491a-baf8-b5fcce4f4059"},"vehicle_type_id":"4","last_reported":1748679187,"current_range_meters":10000,"station_id":"","pricing_plan_id":"cebpf4jnsgd1na2vs0mg"},{"bike_id":"b601bd0b-d384-4fb2-9e4d-ad2cc6a1b992","system_id":"levelo_inurba_marseille","lat":43.23285,"lon":5.36052,"is_reserved":false,"is_disabled":false,"rental_uris":{"android":"levelo://app?vid=b601bd0b-d384-4fb2-9e4d-ad2cc6a1b992","ios":"levelo://app?vid=b601bd0b-d384-4fb2-9e4d-ad2cc6a1b992"},"vehicle_type_id":"4","last_reported":1748679187,"current_range_meters":10000,"station_id":"","pricing_plan_id":"cebpf4jnsgd1na2vs0mg"},{"bike_id":"dfa43c4c-7c06-4ef3-bc0f-2418c1a843e8","system_id":"levelo_inurba_marseille","lat":43.24184,"lon":5.39716,"is_reserved":false,"is_disabled":false,"rental_uris":{"android":"levelo://app?vid=dfa43c4c-7c06-4ef3-bc0f-2418c1a843e8","ios":"levelo://app?vid=dfa43c4c-7c06-4ef3-bc0f-2418c1a843e8"},"vehicle_type_id":"4","last_reported":1748679187,"current_range_meters":10000,"station_id":"ce4bhn12rcd13ifvqgpg","pricing_plan_id":"cebpf4jnsgd1na2vs0mg"},{"bike_id":"ecd196d5-d8f3-4d27-b30f-3bc682a97087","system_id":"levelo_inurba_marseille","lat":43.31887,"lon":5.4074,"is_reserved":false,"is_disabled":false,"rental_uris":{"android":"levelo://app?vid=ecd196d5-d8f3-4d27-b30f-3bc682a97087","ios":"levelo://app?vid=ecd196d5-d8f3-4d27-b30f-3bc682a97087"},"vehicle_type_id":"4","last_reported":1748679187,"current_range_meters":10000,"station_id":"ce4bhq12rcd13ifvqhig","pricing_plan_id":"cebpf4jnsgd1na2vs0mg"},{"bike_id":"8d48119e-760e-4c00-b401-59af0a322afa","system_id":"levelo_inurba_marseille","lat":43.256534,"lon":5.408559,"is_reserved":false,"is_disabled":false,"rental_uris":{"android":"levelo://app?vid=8d48119e-760e-4c00-b401-59af0a322afa","ios":"levelo://app?vid=8d48119e-760e-4c00-b401-59af0a322afa"},"vehicle_type_id":"4","last_reported":1748679187,"current_range_meters":10800,"station_id":"","pricing_plan_id":"cebpf4jnsgd1na2vs0mg"},{"bike_id":"c40e5f1d-d9aa-4a4a-b63e-04e8dab3d041","system_id":"levelo_inurba_marseille","lat":43.29869,"lon":5.38904,"is_reserved":false,"is_disabled":false,"rental_uris":{"android":"levelo://app?vid=c40e5f1d-d9aa-4a4a-b63e-04e8dab3d041","ios":"levelo://app?vid=c40e5f1d-d9aa-4a4a-b63e-04e8dab3d041"},"vehicle_type_id":"4","last_reported":1748679187,"current_range_meters":10800,"station_id":"","pricing_plan_id":"cebpf4jnsgd1na2vs0mg"},{"bike_id":"122162cf-9982-4860-b534-576857b6c74c","system_id":"levelo_inurba_marseille","lat":43.29518,"lon":5.37504,"is_reserved":false,"is_disabled":false,"rental_uris":{"android":"levelo://app?vid=122162cf-9982-4860-b534-576857b6c74c","ios":"levelo://app?vid=122162cf-9982-4860-b534-576857b6c74c"},"vehicle_type_id":"4","last_reported":1748679187,"current_range_meters":10800,"station_id":"ce4bgkp2rcd13ifvqbmg","pricing_plan_id":"cebpf4jnsgd1na2vs0mg"},{"bike_id":"b18036e4-cdbb-441f-a4f1-99c9cdbece34","system_id":"levelo_inurba_marseille","lat":43.29498,"lon":5.39066,"is_reserved":false,"is_disabled":false,"rental_uris":{"android":"levelo://app?vid=b18036e4-cdbb-441f-a4f1-99c9cdbece34","ios":"levelo://app?vid=b18036e4-cdbb-441f-a4f1-99c9cdbece34"},"vehicle_type_id":"4","last_reported":1748679187,"current_range_meters":10800,"station_id":"ce4bh3p2rcd13ifvqdp0","pricing_plan_id":"cebpf4jnsgd1na2vs0mg"},{"bike_id":"6b5f4852-177e-4567-ae76-6705d14c17b3","system_id":"levelo_inurba_marseille","lat":43.27903,"lon":5.3959,"is_reserved":false,"is_disabled":false,"rental_uris":{"android":"levelo://app?vid=6b5f4852-177e-4567-ae76-6705d14c17b3","ios":"levelo://app?vid=6b5f4852-177e-4567-ae76-6705d14c17b3"},"vehicle_type_id":"4","last_reported":1748679187,"current_range_meters":10800,"station_id":"ce4bhf92rcd13ifvqf40","pricing_plan_id":"cebpf4jnsgd1na2vs0mg"},{"bike_id":"0d98bba6-2957-40e5-890c-b7ff52c5dcd4","system_id":"levelo_inurba_marseille","lat":43.27663,"lon":5.389023,"is_reserved":false,"is_disabled":false,"rental_uris":{"android":"levelo://app?vid=0d98bba6-2957-40e5-890c-b7ff52c5dcd4","ios":"levelo://app?vid=0d98bba6-2957-40e5-890c-b7ff52c5dcd4"},"vehicle_type_id":"4","last_reported":1748679187,"current_range_meters":10800,"station_id":"ce4bhi12rcd13ifvqfo0","pricing_plan_id":"cebpf4jnsgd1na2vs0mg"},{"bike_id":"84c1e71b-c6ad-414e-9795-3675bda248d5","system_id":"levelo_inurba_marseille","lat":43.2315,"lon":5.43715,"is_reserved":false,"is_disabled":false,"rental_uris":{"android":"levelo://app?vid=84c1e71b-c6ad-414e-9795-3675bda248d5","ios":"levelo://app?vid=84c1e71b-c6ad-414e-9795-3675bda248d5"},"vehicle_type_id":"4","last_reported":1748679187,"current_range_meters":10800,"station_id":"ce4bhmp2rcd13ifvqgog","pricing_plan_id":"cebpf4jnsgd1na2vs0mg"},{"bike_id":"4cd7920c-3de7-424e-a239-9000b4b9557f","system_id":"levelo_inurba_marseille","lat":43.23178,"lon":5.39986,"is_reserved":false,"is_disabled":false,"rental_uris":{"android":"levelo://app?vid=4cd7920c-3de7-424e-a239-9000b4b9557f","ios":"levelo://app?vid=4cd7920c-3de7-424e-a239-9000b4b9557f"},"vehicle_type_id":"4","last_reported":1748679187,"current_range_meters":10800,"station_id":"ce4bhn12rcd13ifvqgqg","pricing_plan_id":"cebpf4jnsgd1na2vs0mg"},{"bike_id":"9535d247-00f5-4fc0-a9bc-060387d498c6","system_id":"levelo_inurba_marseille","lat":43.23186,"lon":5.39984,"is_reserved":false,"is_disabled":false,"rental_uris":{"android":"levelo://app?vid=9535d247-00f5-4fc0-a9bc-060387d498c6","ios":"levelo://app?vid=9535d247-00f5-4fc0-a9bc-060387d498c6"},"vehicle_type_id":"4","last_reported":1748679187,"current_range_meters":10800,"station_id":"ce4bhn12rcd13ifvqgqg","pricing_plan_id":"cebpf4jnsgd1na2vs0mg"},{"bike_id":"5291cf4b-2021-40c9-9a7c-11e51c847979","system_id":"levelo_inurba_marseille","lat":43.231448,"lon":5.437332,"is_reserved":false,"is_disabled":false,"rental_uris":{"android":"levelo://app?vid=5291cf4b-2021-40c9-9a7c-11e51c847979","ios":"levelo://app?vid=5291cf4b-2021-40c9-9a7c-11e51c847979"},"vehicle_type_id":"4","last_reported":1748679187,"current_range_meters":11200,"station_id":"ce4bhmp2rcd13ifvqgog","pricing_plan_id":"cebpf4jnsgd1na2vs0mg"},{"bike_id":"5d499ed8-eea6-4e38-8682-13a5cb3cec96","system_id":"levelo_inurba_marseille","lat":43.24175,"lon":5.39722,"is_reserved":false,"is_disabled":false,"rental_uris":{"android":"levelo://app?vid=5d499ed8-eea6-4e38-8682-13a5cb3cec96","ios":"levelo://app?vid=5d499ed8-eea6-4e38-8682-13a5cb3cec96"},"vehicle_type_id":"4","last_reported":1748679187,"current_range_meters":11200,"station_id":"ce4bhn12rcd13ifvqgpg","pricing_plan_id":"cebpf4jnsgd1na2vs0mg"},{"bike_id":"e13d439a-db79-45a7-b0c8-35d796c45bc9","system_id":"levelo_inurba_marseille","lat":43.26803,"lon":5.40267,"is_reserved":false,"is_disabled":false,"rental_uris":{"android":"levelo://app?vid=e13d439a-db79-45a7-b0c8-35d796c45bc9","ios":"levelo://app?vid=e13d439a-db79-45a7-b0c8-35d796c45bc9"},"vehicle_type_id":"4","last_reported":1748679187,"current_range_meters":11600,"station_id":"ce501612rcd8frsf0b60","pricing_plan_id":"cebpf4jnsgd1na2vs0mg"},{"bike_id":"1c97e8db-e304-4244-bb2d-5629af62c239","system_id":"levelo_inurba_marseille","lat":43.30664,"lon":5.40047,"is_reserved":false,"is_disabled":false,"rental_uris":{"android":"levelo://app?vid=1c97e8db-e304-4244-bb2d-5629af62c239","ios":"levelo://app?vid=1c97e8db-e304-4244-bb2d-5629af62c239"},"vehicle_type_id":"4","last_reported":1748679187,"current_range_meters":12000,"station_id":"","pricing_plan_id":"cebpf4jnsgd1na2vs0mg"},{"bike_id":"f86183e6-3897-41a1-97fc-4d508dda07c1","system_id":"levelo_inurba_marseille","lat":43.3132,"lon":5.39689,"is_reserved":false,"is_disabled":false,"rental_uris":{"android":"levelo://app?vid=f86183e6-3897-41a1-97fc-4d508dda07c1","ios":"levelo://app?vid=f86183e6-3897-41a1-97fc-4d508dda07c1"},"vehicle_type_id":"4","last_reported":1748679187,"current_range_meters":12000,"station_id":"ce4bgvp2rcd13ifvqcu0","pricing_plan_id":"cebpf4jnsgd1na2vs0mg"},{"bike_id":"51ff81bd-a7d7-478a-8705-17b1b3980fdd","system_id":"levelo_inurba_marseille","lat":43.26958,"lon":5.38638,"is_reserved":false,"is_disabled":false,"rental_uris":{"android":"levelo://app?vid=51ff81bd-a7d7-478a-8705-17b1b3980fdd","ios":"levelo://app?vid=51ff81bd-a7d7-478a-8705-17b1b3980fdd"},"vehicle_type_id":"4","last_reported":1748679187,"current_range_meters":12000,"station_id":"ce4bhh92rcd13ifvqfh0","pricing_plan_id":"cebpf4jnsgd1na2vs0mg"},{"bike_id":"b35fd950-24e0-465e-96d1-082254f22158","system_id":"levelo_inurba_marseille","lat":43.278341,"lon":5.391992,"is_reserved":false,"is_disabled":false,"rental_uris":{"android":"levelo://app?vid=b35fd950-24e0-465e-96d1-082254f22158","ios":"levelo://app?vid=b35fd950-24e0-465e-96d1-082254f22158"},"vehicle_type_id":"4","last_reported":1748679187,"current_range_meters":12000,"station_id":"ce4bhjp2rcd13ifvqga0","pricing_plan_id":"cebpf4jnsgd1na2vs0mg"},{"bike_id":"bbf25ded-718e-41f5-8ebc-a2000cac04a7","system_id":"levelo_inurba_marseille","lat":43.30774,"lon":5.38128,"is_reserved":false,"is_disabled":false,"rental_uris":{"android":"levelo://app?vid=bbf25ded-718e-41f5-8ebc-a2000cac04a7","ios":"levelo://app?vid=bbf25ded-718e-41f5-8ebc-a2000cac04a7"},"vehicle_type_id":"4","last_reported":1748679187,"current_range_meters":12400,"station_id":"ce4bgt12rcd13ifvqce0","pricing_plan_id":"cebpf4jnsgd1na2vs0mg"},{"bike_id":"5986ce22-08ff-4b34-9b83-a2440ce2767f","system_id":"levelo_inurba_marseille","lat":43.31107,"lon":5.37781,"is_reserved":false,"is_disabled":false,"rental_uris":{"android":"levelo://app?vid=5986ce22-08ff-4b34-9b83-a2440ce2767f","ios":"levelo://app?vid=5986ce22-08ff-4b34-9b83-a2440ce2767f"},"vehicle_type_id":"4","last_reported":1748679187,"current_range_meters":12400,"station_id":"ce4bgt92rcd13ifvqcg0","pricing_plan_id":"cebpf4jnsgd1na2vs0mg"},{"bike_id":"893cccc3-5573-41c4-a76f-851cbc7df082","system_id":"levelo_inurba_marseille","lat":43.309315,"lon":5.401533,"is_reserved":false,"is_disabled":false,"rental_uris":{"android":"levelo://app?vid=893cccc3-5573-41c4-a76f-851cbc7df082","ios":"levelo://app?vid=893cccc3-5573-41c4-a76f-851cbc7df082"},"vehicle_type_id":"4","last_reported":1748679187,"current_range_meters":12400,"station_id":"ce4bgvp2rcd13ifvqct0","pricing_plan_id":"cebpf4jnsgd1na2vs0mg"},{"bike_id":"b088722a-52ac-4d8a-8a13-26f07e3ba92d","system_id":"levelo_inurba_marseille","lat":43.290381,"lon":5.399728,"is_reserved":false,"is_disabled":false,"rental_uris":{"android":"levelo://app?vid=b088722a-52ac-4d8a-8a13-26f07e3ba92d","ios":"levelo://app?vid=b088722a-52ac-4d8a-8a13-26f07e3ba92d"},"vehicle_type_id":"4","last_reported":1748679187,"current_range_meters":12400,"station_id":"ce4bh392rcd13ifvqdm0","pricing_plan_id":"cebpf4jnsgd1na2vs0mg"},{"bike_id":"f5203c73-50f5-43c5-bd88-3e2f1ea3bb4a","system_id":"levelo_inurba_marseille","lat":43.27376,"lon":5.36255,"is_reserved":false,"is_disabled":false,"rental_uris":{"android":"levelo://app?vid=f5203c73-50f5-43c5-bd88-3e2f1ea3bb4a","ios":"levelo://app?vid=f5203c73-50f5-43c5-bd88-3e2f1ea3bb4a"},"vehicle_type_id":"4","last_reported":1748679187,"current_range_meters":12400,"station_id":"ce4bhbh2rcd13ifvqeo0","pricing_plan_id":"cebpf4jnsgd1na2vs0mg"},{"bike_id":"990df701-79a7-41ec-b963-3693dc590a87","system_id":"levelo_inurba_marseille","lat":43.30155,"lon":5.37913,"is_reserved":false,"is_disabled":false,"rental_uris":{"android":"levelo://app?vid=990df701-79a7-41ec-b963-3693dc590a87","ios":"levelo://app?vid=990df701-79a7-41ec-b963-3693dc590a87"},"vehicle_type_id":"4","last_reported":1748679187,"current_range_meters":12800,"station_id":"","pricing_plan_id":"cebpf4jnsgd1na2vs0mg"},{"bike_id":"89078aea-3143-4672-abc6-7a22ca9d8951","system_id":"levelo_inurba_marseille","lat":43.29713,"lon":5.36615,"is_reserved":false,"is_disabled":false,"rental_uris":{"android":"levelo://app?vid=89078aea-3143-4672-abc6-7a22ca9d8951","ios":"levelo://app?vid=89078aea-3143-4672-abc6-7a22ca9d8951"},"vehicle_type_id":"4","last_reported":1748679187,"current_range_meters":12800,"station_id":"ce4bgn12rcd13ifvqbt0","pricing_plan_id":"cebpf4jnsgd1na2vs0mg"},{"bike_id":"21501f3b-3adc-4044-ae75-db236a244cbf","system_id":"levelo_inurba_marseille","lat":43.28362,"lon":5.38145,"is_reserved":false,"is_disabled":false,"rental_uris":{"android":"levelo://app?vid=21501f3b-3adc-4044-ae75-db236a244cbf","ios":"levelo://app?vid=21501f3b-3adc-4044-ae75-db236a244cbf"},"vehicle_type_id":"4","last_reported":1748679187,"current_range_meters":12800,"station_id":"ce4bh412rcd13ifvqdr0","pricing_plan_id":"cebpf4jnsgd1na2vs0mg"},{"bike_id":"03c1751e-ef60-4175-a52f-4759bb9df88b","system_id":"levelo_inurba_marseille","lat":43.27962,"lon":5.38725,"is_reserved":false,"is_disabled":false,"rental_uris":{"android":"levelo://app?vid=03c1751e-ef60-4175-a52f-4759bb9df88b","ios":"levelo://app?vid=03c1751e-ef60-4175-a52f-4759bb9df88b"},"vehicle_type_id":"4","last_reported":1748679187,"current_range_meters":12800,"station_id":"ce4bhg12rcd13ifvqf80","pricing_plan_id":"cebpf4jnsgd1na2vs0mg"},{"bike_id":"67614841-9f24-4f1f-81f7-acf09b9bb6b8","system_id":"levelo_inurba_marseille","lat":43.25739,"lon":5.4114,"is_reserved":false,"is_disabled":false,"rental_uris":{"android":"levelo://app?vid=67614841-9f24-4f1f-81f7-acf09b9bb6b8","ios":"levelo://app?vid=67614841-9f24-4f1f-81f7-acf09b9bb6b8"},"vehicle_type_id":"4","last_reported":1748679187,"current_range_meters":12800,"station_id":"ce4bhkp2rcd13ifvqgd0","pricing_plan_id":"cebpf4jnsgd1na2vs0mg"},{"bike_id":"4eb27fe7-2925-45a1-b43c-b8c44fea6a4a","system_id":"levelo_inurba_marseille","lat":43.31078,"lon":5.42434,"is_reserved":false,"is_disabled":false,"rental_uris":{"android":"levelo://app?vid=4eb27fe7-2925-45a1-b43c-b8c44fea6a4a","ios":"levelo://app?vid=4eb27fe7-2925-45a1-b43c-b8c44fea6a4a"},"vehicle_type_id":"4","last_reported":1748679187,"current_range_meters":12800,"station_id":"ce4bhp92rcd13ifvqhag","pricing_plan_id":"cebpf4jnsgd1na2vs0mg"},{"bike_id":"6b95874c-e69d-49fb-9e75-1bcaf3ffce3f","system_id":"levelo_inurba_marseille","lat":43.28026,"lon":5.36955,"is_reserved":false,"is_disabled":false,"rental_uris":{"android":"levelo://app?vid=6b95874c-e69d-49fb-9e75-1bcaf3ffce3f","ios":"levelo://app?vid=6b95874c-e69d-49fb-9e75-1bcaf3ffce3f"},"vehicle_type_id":"4","last_reported":1748679187,"current_range_meters":13600,"station_id":"ce4bha12rcd13ifvqef0","pricing_plan_id":"cebpf4jnsgd1na2vs0mg"},{"bike_id":"d8af0821-bc5d-459f-b24d-bbfca9521714","system_id":"levelo_inurba_marseille","lat":43.241711,"lon":5.397349,"is_reserved":false,"is_disabled":false,"rental_uris":{"android":"levelo://app?vid=d8af0821-bc5d-459f-b24d-bbfca9521714","ios":"levelo://app?vid=d8af0821-bc5d-459f-b24d-bbfca9521714"},"vehicle_type_id":"4","last_reported":1748679187,"current_range_meters":13600,"station_id":"ce4bhn12rcd13ifvqgpg","pricing_plan_id":"cebpf4jnsgd1na2vs0mg"},{"bike_id":"d5d0bfbb-f2bc-4297-a453-115bac476736","system_id":"levelo_inurba_marseille","lat":43.29383,"lon":5.37506,"is_reserved":false,"is_disabled":false,"rental_uris":{"android":"levelo://app?vid=d5d0bfbb-f2bc-4297-a453-115bac476736","ios":"levelo://app?vid=d5d0bfbb-f2bc-4297-a453-115bac476736"},"vehicle_type_id":"4","last_reported":1748679187,"current_range_meters":14000,"station_id":"","pricing_plan_id":"cebpf4jnsgd1na2vs0mg"},{"bike_id":"80276b70-d128-4510-a003-e57dd1d62c68","system_id":"levelo_inurba_marseille","lat":43.30922,"lon":5.40172,"is_reserved":false,"is_disabled":false,"rental_uris":{"android":"levelo://app?vid=80276b70-d128-4510-a003-e57dd1d62c68","ios":"levelo://app?vid=80276b70-d128-4510-a003-e57dd1d62c68"},"vehicle_type_id":"4","last_reported":1748679187,"current_range_meters":14000,"station_id":"ce4bgvp2rcd13ifvqct0","pricing_plan_id":"cebpf4jnsgd1na2vs0mg"},{"bike_id":"fd5474d2-9211-428e-86e4-1f5814481f64","system_id":"levelo_inurba_marseille","lat":43.28407,"lon":5.37528,"is_reserved":false,"is_disabled":false,"rental_uris":{"android":"levelo://app?vid=fd5474d2-9211-428e-86e4-1f5814481f64","ios":"levelo://app?vid=fd5474d2-9211-428e-86e4-1f5814481f64"},"vehicle_type_id":"4","last_reported":1748679187,"current_range_meters":14000,"station_id":"ce4bh412rcd13ifvqds0","pricing_plan_id":"cebpf4jnsgd1na2vs0mg"},{"bike_id":"f15b9505-47d1-4a3f-9d7d-841ff37bfa73","system_id":"levelo_inurba_marseille","lat":43.2558,"lon":5.38248,"is_reserved":false,"is_disabled":false,"rental_uris":{"android":"levelo://app?vid=f15b9505-47d1-4a3f-9d7d-841ff37bfa73","ios":"levelo://app?vid=f15b9505-47d1-4a3f-9d7d-841ff37bfa73"},"vehicle_type_id":"4","last_reported":1748679187,"current_range_meters":14000,"station_id":"ce4bhih2rcd13ifvqfs0","pricing_plan_id":"cebpf4jnsgd1na2vs0mg"},{"bike_id":"e2ae118e-d72e-4689-8ce8-ded84aed50bd","system_id":"levelo_inurba_marseille","lat":43.27827,"lon":5.392109,"is_reserved":false,"is_disabled":false,"rental_uris":{"android":"levelo://app?vid=e2ae118e-d72e-4689-8ce8-ded84aed50bd","ios":"levelo://app?vid=e2ae118e-d72e-4689-8ce8-ded84aed50bd"},"vehicle_type_id":"4","last_reported":1748679187,"current_range_meters":14000,"station_id":"ce4bhjp2rcd13ifvqga0","pricing_plan_id":"cebpf4jnsgd1na2vs0mg"},{"bike_id":"99586cd6-a2a0-47d9-ab46-a364f046973a","system_id":"levelo_inurba_marseille","lat":43.251102,"lon":5.403282,"is_reserved":false,"is_disabled":false,"rental_uris":{"android":"levelo://app?vid=99586cd6-a2a0-47d9-ab46-a364f046973a","ios":"levelo://app?vid=99586cd6-a2a0-47d9-ab46-a364f046973a"},"vehicle_type_id":"4","last_reported":1748679187,"current_range_meters":14000,"station_id":"ce4bhlh2rcd13ifvqgig","pricing_plan_id":"cebpf4jnsgd1na2vs0mg"},{"bike_id":"14036455-f919-44f7-8d5e-0b2e84f48674","system_id":"levelo_inurba_marseille","lat":43.309173,"lon":5.403944,"is_reserved":false,"is_disabled":false,"rental_uris":{"android":"levelo://app?vid=14036455-f919-44f7-8d5e-0b2e84f48674","ios":"levelo://app?vid=14036455-f919-44f7-8d5e-0b2e84f48674"},"vehicle_type_id":"4","last_reported":1748679187,"current_range_meters":14400,"station_id":"","pricing_plan_id":"cebpf4jnsgd1na2vs0mg"},{"bike_id":"a1afee0d-636a-4145-8e38-9b2384426a66","system_id":"levelo_inurba_marseille","lat":43.32284,"lon":5.38283,"is_reserved":false,"is_disabled":false,"rental_uris":{"android":"levelo://app?vid=a1afee0d-636a-4145-8e38-9b2384426a66","ios":"levelo://app?vid=a1afee0d-636a-4145-8e38-9b2384426a66"},"vehicle_type_id":"4","last_reported":1748679187,"current_range_meters":14400,"station_id":"ce4bhr12rcd13ifvqhqg","pricing_plan_id":"cebpf4jnsgd1na2vs0mg"},{"bike_id":"b4a389d7-474d-4a9d-8dec-223a88612b5c","system_id":"levelo_inurba_marseille","lat":43.24985,"lon":5.37939,"is_reserved":false,"is_disabled":false,"rental_uris":{"android":"levelo://app?vid=b4a389d7-474d-4a9d-8dec-223a88612b5c","ios":"levelo://app?vid=b4a389d7-474d-4a9d-8dec-223a88612b5c"},"vehicle_type_id":"4","last_reported":1748679187,"current_range_meters":14800,"station_id":"","pricing_plan_id":"cebpf4jnsgd1na2vs0mg"},{"bike_id":"a203cef1-97cb-47f9-9ab1-78869ad668ec","system_id":"levelo_inurba_marseille","lat":43.24388,"lon":5.37059,"is_reserved":false,"is_disabled":false,"rental_uris":{"android":"levelo://app?vid=a203cef1-97cb-47f9-9ab1-78869ad668ec","ios":"levelo://app?vid=a203cef1-97cb-47f9-9ab1-78869ad668ec"},"vehicle_type_id":"4","last_reported":1748679187,"current_range_meters":14800,"station_id":"ce4bhhh2rcd13ifvqfk0","pricing_plan_id":"cebpf4jnsgd1na2vs0mg"},{"bike_id":"c2319c95-523a-4385-a540-a2f6322d592b","system_id":"levelo_inurba_marseille","lat":43.27832,"lon":5.3921,"is_reserved":false,"is_disabled":false,"rental_uris":{"android":"levelo://app?vid=c2319c95-523a-4385-a540-a2f6322d592b","ios":"levelo://app?vid=c2319c95-523a-4385-a540-a2f6322d592b"},"vehicle_type_id":"4","last_reported":1748679187,"current_range_meters":14800,"station_id":"ce4bhjp2rcd13ifvqga0","pricing_plan_id":"cebpf4jnsgd1na2vs0mg"},{"bike_id":"a7bc0857-ba13-43fa-9be2-c26b232e5a26","system_id":"levelo_inurba_marseille","lat":43.25931,"lon":5.40907,"is_reserved":false,"is_disabled":false,"rental_uris":{"android":"levelo://app?vid=a7bc0857-ba13-43fa-9be2-c26b232e5a26","ios":"levelo://app?vid=a7bc0857-ba13-43fa-9be2-c26b232e5a26"},"vehicle_type_id":"4","last_reported":1748679187,"current_range_meters":14800,"station_id":"ce4bhm92rcd13ifvqglg","pricing_plan_id":"cebpf4jnsgd1na2vs0mg"},{"bike_id":"27c4e716-f6f5-419e-bfc6-de67c97be330","system_id":"levelo_inurba_marseille","lat":43.2417,"lon":5.39734,"is_reserved":false,"is_disabled":false,"rental_uris":{"android":"levelo://app?vid=27c4e716-f6f5-419e-bfc6-de67c97be330","ios":"levelo://app?vid=27c4e716-f6f5-419e-bfc6-de67c97be330"},"vehicle_type_id":"4","last_reported":1748679187,"current_range_meters":14800,"station_id":"ce4bhn12rcd13ifvqgpg","pricing_plan_id":"cebpf4jnsgd1na2vs0mg"},{"bike_id":"9dd8b8cc-b2f3-445f-a172-5fd0cc0494af","system_id":"levelo_inurba_marseille","lat":43.28159,"lon":5.4264,"is_reserved":false,"is_disabled":false,"rental_uris":{"android":"levelo://app?vid=9dd8b8cc-b2f3-445f-a172-5fd0cc0494af","ios":"levelo://app?vid=9dd8b8cc-b2f3-445f-a172-5fd0cc0494af"},"vehicle_type_id":"4","last_reported":1748679187,"current_range_meters":14800,"station_id":"ce4bhnh2rcd13ifvqgug","pricing_plan_id":"cebpf4jnsgd1na2vs0mg"},{"bike_id":"3684317d-8c7d-4406-83d3-99a336dbaba1","system_id":"levelo_inurba_marseille","lat":43.27924,"lon":5.41055,"is_reserved":false,"is_disabled":false,"rental_uris":{"android":"levelo://app?vid=3684317d-8c7d-4406-83d3-99a336dbaba1","ios":"levelo://app?vid=3684317d-8c7d-4406-83d3-99a336dbaba1"},"vehicle_type_id":"4","last_reported":1748679187,"current_range_meters":14800,"station_id":"ce4bhnp2rcd13ifvqh0g","pricing_plan_id":"cebpf4jnsgd1na2vs0mg"},{"bike_id":"cab4f028-3927-4b81-9250-4d8c1ef42f75","system_id":"levelo_inurba_marseille","lat":43.30949,"lon":5.39047,"is_reserved":false,"is_disabled":false,"rental_uris":{"android":"levelo://app?vid=cab4f028-3927-4b81-9250-4d8c1ef42f75","ios":"levelo://app?vid=cab4f028-3927-4b81-9250-4d8c1ef42f75"},"vehicle_type_id":"4","last_reported":1748679187,"current_range_meters":15200,"station_id":"ce4bgup2rcd13ifvqco0","pricing_plan_id":"cebpf4jnsgd1na2vs0mg"},{"bike_id":"348ddc31-f232-46b0-bbef-5931b86212cf","system_id":"levelo_inurba_marseille","lat":43.24173,"lon":5.39729,"is_reserved":false,"is_disabled":false,"rental_uris":{"android":"levelo://app?vid=348ddc31-f232-46b0-bbef-5931b86212cf","ios":"levelo://app?vid=348ddc31-f232-46b0-bbef-5931b86212cf"},"vehicle_type_id":"4","last_reported":1748679187,"current_range_meters":15200,"station_id":"ce4bhn12rcd13ifvqgpg","pricing_plan_id":"cebpf4jnsgd1na2vs0mg"},{"bike_id":"480f043b-d440-4de0-ad40-c9601fac61aa","system_id":"levelo_inurba_marseille","lat":43.27912,"lon":5.39576,"is_reserved":false,"is_disabled":false,"rental_uris":{"android":"levelo://app?vid=480f043b-d440-4de0-ad40-c9601fac61aa","ios":"levelo://app?vid=480f043b-d440-4de0-ad40-c9601fac61aa"},"vehicle_type_id":"4","last_reported":1748679187,"current_range_meters":16000,"station_id":"ce4bhf92rcd13ifvqf40","pricing_plan_id":"cebpf4jnsgd1na2vs0mg"},{"bike_id":"d124288c-6377-4881-ba37-55fc38f2f2c1","system_id":"levelo_inurba_marseille","lat":43.26941,"lon":5.38915,"is_reserved":false,"is_disabled":false,"rental_uris":{"android":"levelo://app?vid=d124288c-6377-4881-ba37-55fc38f2f2c1","ios":"levelo://app?vid=d124288c-6377-4881-ba37-55fc38f2f2c1"},"vehicle_type_id":"4","last_reported":1748679187,"current_range_meters":16000,"station_id":"ce4bhhh2rcd13ifvqfl0","pricing_plan_id":"cebpf4jnsgd1na2vs0mg"},{"bike_id":"45754ac1-53f3-4153-8b8d-8e4c362d497f","system_id":"levelo_inurba_marseille","lat":43.2784,"lon":5.39204,"is_reserved":false,"is_disabled":false,"rental_uris":{"android":"levelo://app?vid=45754ac1-53f3-4153-8b8d-8e4c362d497f","ios":"levelo://app?vid=45754ac1-53f3-4153-8b8d-8e4c362d497f"},"vehicle_type_id":"4","last_reported":1748679187,"current_range_meters":16000,"station_id":"ce4bhjp2rcd13ifvqga0","pricing_plan_id":"cebpf4jnsgd1na2vs0mg"},{"bike_id":"093bbd9a-3376-4f5e-8a41-7cc8b8b4e4b7","system_id":"levelo_inurba_marseille","lat":43.251234,"lon":5.403314,"is_reserved":false,"is_disabled":false,"rental_uris":{"android":"levelo://app?vid=093bbd9a-3376-4f5e-8a41-7cc8b8b4e4b7","ios":"levelo://app?vid=093bbd9a-3376-4f5e-8a41-7cc8b8b4e4b7"},"vehicle_type_id":"4","last_reported":1748679187,"current_range_meters":16000,"station_id":"ce4bhlh2rcd13ifvqgig","pricing_plan_id":"cebpf4jnsgd1na2vs0mg"},{"bike_id":"bbb06921-e716-4ace-a092-eccc1bcc3204","system_id":"levelo_inurba_marseille","lat":43.31287,"lon":5.38286,"is_reserved":false,"is_disabled":false,"rental_uris":{"android":"levelo://app?vid=bbb06921-e716-4ace-a092-eccc1bcc3204","ios":"levelo://app?vid=bbb06921-e716-4ace-a092-eccc1bcc3204"},"vehicle_type_id":"4","last_reported":1748679187,"current_range_meters":16400,"station_id":"","pricing_plan_id":"cebpf4jnsgd1na2vs0mg"},{"bike_id":"90e10d46-71c6-4a38-aa62-fe3e9eeefc9b","system_id":"levelo_inurba_marseille","lat":43.294708,"lon":5.374635,"is_reserved":false,"is_disabled":false,"rental_uris":{"android":"levelo://app?vid=90e10d46-71c6-4a38-aa62-fe3e9eeefc9b","ios":"levelo://app?vid=90e10d46-71c6-4a38-aa62-fe3e9eeefc9b"},"vehicle_type_id":"4","last_reported":1748679187,"current_range_meters":16400,"station_id":"ce4bgh92rcd13ifvqb50","pricing_plan_id":"cebpf4jnsgd1na2vs0mg"},{"bike_id":"fd58be44-efe0-4ddd-a4ac-a9782f7bce3c","system_id":"levelo_inurba_marseille","lat":43.28276,"lon":5.35081,"is_reserved":false,"is_disabled":false,"rental_uris":{"android":"levelo://app?vid=fd58be44-efe0-4ddd-a4ac-a9782f7bce3c","ios":"levelo://app?vid=fd58be44-efe0-4ddd-a4ac-a9782f7bce3c"},"vehicle_type_id":"4","last_reported":1748679187,"current_range_meters":16400,"station_id":"ce4bhbp2rcd13ifvqerg","pricing_plan_id":"cebpf4jnsgd1na2vs0mg"},{"bike_id":"98ec307e-7ec1-4c12-8327-791809e3259d","system_id":"levelo_inurba_marseille","lat":43.27837,"lon":5.39211,"is_reserved":false,"is_disabled":false,"rental_uris":{"android":"levelo://app?vid=98ec307e-7ec1-4c12-8327-791809e3259d","ios":"levelo://app?vid=98ec307e-7ec1-4c12-8327-791809e3259d"},"vehicle_type_id":"4","last_reported":1748679187,"current_range_meters":16400,"station_id":"ce4bhjp2rcd13ifvqga0","pricing_plan_id":"cebpf4jnsgd1na2vs0mg"},{"bike_id":"acf16947-b203-4b81-91fe-aabb86c76086","system_id":"levelo_inurba_marseille","lat":43.25727,"lon":5.41111,"is_reserved":false,"is_disabled":false,"rental_uris":{"android":"levelo://app?vid=acf16947-b203-4b81-91fe-aabb86c76086","ios":"levelo://app?vid=acf16947-b203-4b81-91fe-aabb86c76086"},"vehicle_type_id":"4","last_reported":1748679187,"current_range_meters":16400,"station_id":"ce4bhkp2rcd13ifvqgd0","pricing_plan_id":"cebpf4jnsgd1na2vs0mg"},{"bike_id":"1e3afdce-4772-41e6-b0a8-ad3714dc985c","system_id":"levelo_inurba_marseille","lat":43.2794,"lon":5.41043,"is_reserved":false,"is_disabled":false,"rental_uris":{"android":"levelo://app?vid=1e3afdce-4772-41e6-b0a8-ad3714dc985c","ios":"levelo://app?vid=1e3afdce-4772-41e6-b0a8-ad3714dc985c"},"vehicle_type_id":"4","last_reported":1748679187,"current_range_meters":16400,"station_id":"ce4bhnp2rcd13ifvqh0g","pricing_plan_id":"cebpf4jnsgd1na2vs0mg"},{"bike_id":"9a724ef8-d819-47e7-a9f7-9a3986491294","system_id":"levelo_inurba_marseille","lat":43.29358,"lon":5.38827,"is_reserved":false,"is_disabled":false,"rental_uris":{"android":"levelo://app?vid=9a724ef8-d819-47e7-a9f7-9a3986491294","ios":"levelo://app?vid=9a724ef8-d819-47e7-a9f7-9a3986491294"},"vehicle_type_id":"4","last_reported":1748679187,"current_range_meters":16800,"station_id":"","pricing_plan_id":"cebpf4jnsgd1na2vs0mg"},{"bike_id":"e210be7e-07b8-44d3-ae09-6702f28e2ae8","system_id":"levelo_inurba_marseille","lat":43.25138,"lon":5.39358,"is_reserved":false,"is_disabled":false,"rental_uris":{"android":"levelo://app?vid=e210be7e-07b8-44d3-ae09-6702f28e2ae8","ios":"levelo://app?vid=e210be7e-07b8-44d3-ae09-6702f28e2ae8"},"vehicle_type_id":"4","last_reported":1748679187,"current_range_meters":16800,"station_id":"","pricing_plan_id":"cebpf4jnsgd1na2vs0mg"},{"bike_id":"3eaead60-b0dc-45e6-a8e7-fbfc92e6881b","system_id":"levelo_inurba_marseille","lat":43.29535,"lon":5.37504,"is_reserved":false,"is_disabled":false,"rental_uris":{"android":"levelo://app?vid=3eaead60-b0dc-45e6-a8e7-fbfc92e6881b","ios":"levelo://app?vid=3eaead60-b0dc-45e6-a8e7-fbfc92e6881b"},"vehicle_type_id":"4","last_reported":1748679187,"current_range_meters":16800,"station_id":"ce4bgkp2rcd13ifvqbmg","pricing_plan_id":"cebpf4jnsgd1na2vs0mg"},{"bike_id":"10cccf0e-5e24-4b75-8e4f-e089b2d3e656","system_id":"levelo_inurba_marseille","lat":43.23187,"lon":5.39987,"is_reserved":false,"is_disabled":false,"rental_uris":{"android":"levelo://app?vid=10cccf0e-5e24-4b75-8e4f-e089b2d3e656","ios":"levelo://app?vid=10cccf0e-5e24-4b75-8e4f-e089b2d3e656"},"vehicle_type_id":"4","last_reported":1748679187,"current_range_meters":16800,"station_id":"ce4bhn12rcd13ifvqgqg","pricing_plan_id":"cebpf4jnsgd1na2vs0mg"},{"bike_id":"f5eb51ff-08f3-458c-8e99-1dbc609fde4b","system_id":"levelo_inurba_marseille","lat":43.229258,"lon":5.353773,"is_reserved":false,"is_disabled":false,"rental_uris":{"android":"levelo://app?vid=f5eb51ff-08f3-458c-8e99-1dbc609fde4b","ios":"levelo://app?vid=f5eb51ff-08f3-458c-8e99-1dbc609fde4b"},"vehicle_type_id":"4","last_reported":1748679187,"current_range_meters":16800,"station_id":"cpo3532slgdg3j2ikp40","pricing_plan_id":"cebpf4jnsgd1na2vs0mg"},{"bike_id":"9a189ee8-27ed-444b-b171-f705371af28f","system_id":"levelo_inurba_marseille","lat":43.28265,"lon":5.34919,"is_reserved":false,"is_disabled":false,"rental_uris":{"android":"levelo://app?vid=9a189ee8-27ed-444b-b171-f705371af28f","ios":"levelo://app?vid=9a189ee8-27ed-444b-b171-f705371af28f"},"vehicle_type_id":"4","last_reported":1748679187,"current_range_meters":17200,"station_id":"","pricing_plan_id":"cebpf4jnsgd1na2vs0mg"},{"bike_id":"59cc9f64-369b-40a4-aef4-571b231df862","system_id":"levelo_inurba_marseille","lat":43.28092,"lon":5.35203,"is_reserved":false,"is_disabled":false,"rental_uris":{"android":"levelo://app?vid=59cc9f64-369b-40a4-aef4-571b231df862","ios":"levelo://app?vid=59cc9f64-369b-40a4-aef4-571b231df862"},"vehicle_type_id":"4","last_reported":1748679187,"current_range_meters":17200,"station_id":"","pricing_plan_id":"cebpf4jnsgd1na2vs0mg"},{"bike_id":"976af7b1-ab37-4ca7-93b8-c53b4012c652","system_id":"levelo_inurba_marseille","lat":43.29321,"lon":5.37181,"is_reserved":false,"is_disabled":false,"rental_uris":{"android":"levelo://app?vid=976af7b1-ab37-4ca7-93b8-c53b4012c652","ios":"levelo://app?vid=976af7b1-ab37-4ca7-93b8-c53b4012c652"},"vehicle_type_id":"4","last_reported":1748679187,"current_range_meters":17200,"station_id":"ce4bgh92rcd13ifvqb40","pricing_plan_id":"cebpf4jnsgd1na2vs0mg"},{"bike_id":"d1e1d7dc-d511-4a84-b08e-b668c20425a2","system_id":"levelo_inurba_marseille","lat":43.30155,"lon":5.38088,"is_reserved":false,"is_disabled":false,"rental_uris":{"android":"levelo://app?vid=d1e1d7dc-d511-4a84-b08e-b668c20425a2","ios":"levelo://app?vid=d1e1d7dc-d511-4a84-b08e-b668c20425a2"},"vehicle_type_id":"4","last_reported":1748679187,"current_range_meters":17200,"station_id":"ce4bgjp2rcd13ifvqbh0","pricing_plan_id":"cebpf4jnsgd1na2vs0mg"},{"bike_id":"aa732485-43cf-4818-b780-95241493f162","system_id":"levelo_inurba_marseille","lat":43.31475,"lon":5.37306,"is_reserved":false,"is_disabled":false,"rental_uris":{"android":"levelo://app?vid=aa732485-43cf-4818-b780-95241493f162","ios":"levelo://app?vid=aa732485-43cf-4818-b780-95241493f162"},"vehicle_type_id":"4","last_reported":1748679187,"current_range_meters":17200,"station_id":"ce4bgt12rcd13ifvqcd0","pricing_plan_id":"cebpf4jnsgd1na2vs0mg"},{"bike_id":"2e5e60f1-c8b3-40e8-af50-40f107ffc321","system_id":"levelo_inurba_marseille","lat":43.30467,"lon":5.37903,"is_reserved":false,"is_disabled":false,"rental_uris":{"android":"levelo://app?vid=2e5e60f1-c8b3-40e8-af50-40f107ffc321","ios":"levelo://app?vid=2e5e60f1-c8b3-40e8-af50-40f107ffc321"},"vehicle_type_id":"4","last_reported":1748679187,"current_range_meters":17200,"station_id":"ce4bgup2rcd13ifvqcn0","pricing_plan_id":"cebpf4jnsgd1na2vs0mg"},{"bike_id":"46f360c2-538e-4d9c-aa46-690cefc148d7","system_id":"levelo_inurba_marseille","lat":43.2855,"lon":5.39508,"is_reserved":false,"is_disabled":false,"rental_uris":{"android":"levelo://app?vid=46f360c2-538e-4d9c-aa46-690cefc148d7","ios":"levelo://app?vid=46f360c2-538e-4d9c-aa46-690cefc148d7"},"vehicle_type_id":"4","last_reported":1748679187,"current_range_meters":17200,"station_id":"ce4bh292rcd13ifvqdg0","pricing_plan_id":"cebpf4jnsgd1na2vs0mg"},{"bike_id":"f3ff4efe-ab3c-4481-8fbf-fbacdb020815","system_id":"levelo_inurba_marseille","lat":43.29198,"lon":5.35808,"is_reserved":false,"is_disabled":false,"rental_uris":{"android":"levelo://app?vid=f3ff4efe-ab3c-4481-8fbf-fbacdb020815","ios":"levelo://app?vid=f3ff4efe-ab3c-4481-8fbf-fbacdb020815"},"vehicle_type_id":"4","last_reported":1748679187,"current_range_meters":17200,"station_id":"ce4bhb12rcd13ifvqel0","pricing_plan_id":"cebpf4jnsgd1na2vs0mg"},{"bike_id":"11b79d64-3454-4a1a-aee0-363b46bc3876","system_id":"levelo_inurba_marseille","lat":43.279146,"lon":5.395861,"is_reserved":false,"is_disabled":false,"rental_uris":{"android":"levelo://app?vid=11b79d64-3454-4a1a-aee0-363b46bc3876","ios":"levelo://app?vid=11b79d64-3454-4a1a-aee0-363b46bc3876"},"vehicle_type_id":"4","last_reported":1748679187,"current_range_meters":17200,"station_id":"ce4bhf92rcd13ifvqf40","pricing_plan_id":"cebpf4jnsgd1na2vs0mg"},{"bike_id":"175eb398-2048-4167-91a2-3d0d654b0a53","system_id":"levelo_inurba_marseille","lat":43.251,"lon":5.40327,"is_reserved":false,"is_disabled":false,"rental_uris":{"android":"levelo://app?vid=175eb398-2048-4167-91a2-3d0d654b0a53","ios":"levelo://app?vid=175eb398-2048-4167-91a2-3d0d654b0a53"},"vehicle_type_id":"4","last_reported":1748679187,"current_range_meters":17200,"station_id":"ce4bhlh2rcd13ifvqgig","pricing_plan_id":"cebpf4jnsgd1na2vs0mg"},{"bike_id":"f5a90625-b7e8-48a8-90c6-777efe255a32","system_id":"levelo_inurba_marseille","lat":43.2511,"lon":5.40977,"is_reserved":false,"is_disabled":false,"rental_uris":{"android":"levelo://app?vid=f5a90625-b7e8-48a8-90c6-777efe255a32","ios":"levelo://app?vid=f5a90625-b7e8-48a8-90c6-777efe255a32"},"vehicle_type_id":"4","last_reported":1748679187,"current_range_meters":17600,"station_id":"","pricing_plan_id":"cebpf4jnsgd1na2vs0mg"},{"bike_id":"b433c371-fa62-4ef0-9c6a-19d8581a9331","system_id":"levelo_inurba_marseille","lat":43.28151,"lon":5.38173,"is_reserved":false,"is_disabled":false,"rental_uris":{"android":"levelo://app?vid=b433c371-fa62-4ef0-9c6a-19d8581a9331","ios":"levelo://app?vid=b433c371-fa62-4ef0-9c6a-19d8581a9331"},"vehicle_type_id":"4","last_reported":1748679187,"current_range_meters":17600,"station_id":"","pricing_plan_id":"cebpf4jnsgd1na2vs0mg"},{"bike_id":"0e4227ee-3381-46ac-a3a7-08a091dfb481","system_id":"levelo_inurba_marseille","lat":43.30095,"lon":5.39078,"is_reserved":false,"is_disabled":false,"rental_uris":{"android":"levelo://app?vid=0e4227ee-3381-46ac-a3a7-08a091dfb481","ios":"levelo://app?vid=0e4227ee-3381-46ac-a3a7-08a091dfb481"},"vehicle_type_id":"4","last_reported":1748679187,"current_range_meters":17600,"station_id":"ce4bh192rcd13ifvqdb0","pricing_plan_id":"cebpf4jnsgd1na2vs0mg"},{"bike_id":"9a87b717-f8e2-4016-bc78-03583a62a953","system_id":"levelo_inurba_marseille","lat":43.265549,"lon":5.403283,"is_reserved":false,"is_disabled":false,"rental_uris":{"android":"levelo://app?vid=9a87b717-f8e2-4016-bc78-03583a62a953","ios":"levelo://app?vid=9a87b717-f8e2-4016-bc78-03583a62a953"},"vehicle_type_id":"4","last_reported":1748679187,"current_range_meters":18000,"station_id":"","pricing_plan_id":"cebpf4jnsgd1na2vs0mg"},{"bike_id":"77520d45-03bf-4b26-9f9b-8ac6c162ce6b","system_id":"levelo_inurba_marseille","lat":43.243584,"lon":5.41144,"is_reserved":false,"is_disabled":false,"rental_uris":{"android":"levelo://app?vid=77520d45-03bf-4b26-9f9b-8ac6c162ce6b","ios":"levelo://app?vid=77520d45-03bf-4b26-9f9b-8ac6c162ce6b"},"vehicle_type_id":"4","last_reported":1748679187,"current_range_meters":18000,"station_id":"","pricing_plan_id":"cebpf4jnsgd1na2vs0mg"},{"bike_id":"a53ddec2-f5c8-42e1-a820-dcfa1df25788","system_id":"levelo_inurba_marseille","lat":43.287,"lon":5.37924,"is_reserved":false,"is_disabled":false,"rental_uris":{"android":"levelo://app?vid=a53ddec2-f5c8-42e1-a820-dcfa1df25788","ios":"levelo://app?vid=a53ddec2-f5c8-42e1-a820-dcfa1df25788"},"vehicle_type_id":"4","last_reported":1748679187,"current_range_meters":18000,"station_id":"ce4bh9p2rcd13ifvqec0","pricing_plan_id":"cebpf4jnsgd1na2vs0mg"},{"bike_id":"29336ef3-a2cd-49ba-9481-b3d395f42bd6","system_id":"levelo_inurba_marseille","lat":43.29189,"lon":5.35804,"is_reserved":false,"is_disabled":false,"rental_uris":{"android":"levelo://app?vid=29336ef3-a2cd-49ba-9481-b3d395f42bd6","ios":"levelo://app?vid=29336ef3-a2cd-49ba-9481-b3d395f42bd6"},"vehicle_type_id":"4","last_reported":1748679187,"current_range_meters":18000,"station_id":"ce4bhb12rcd13ifvqel0","pricing_plan_id":"cebpf4jnsgd1na2vs0mg"},{"bike_id":"62b02994-5210-426a-980f-6cb47507004d","system_id":"levelo_inurba_marseille","lat":43.2922,"lon":5.36052,"is_reserved":false,"is_disabled":false,"rental_uris":{"android":"levelo://app?vid=62b02994-5210-426a-980f-6cb47507004d","ios":"levelo://app?vid=62b02994-5210-426a-980f-6cb47507004d"},"vehicle_type_id":"4","last_reported":1748679187,"current_range_meters":18000,"station_id":"ce4bhbh2rcd13ifvqeqg","pricing_plan_id":"cebpf4jnsgd1na2vs0mg"},{"bike_id":"2a7bc085-bb7c-4f27-8e51-39d6306f1a6b","system_id":"levelo_inurba_marseille","lat":43.27978,"lon":5.3875,"is_reserved":false,"is_disabled":false,"rental_uris":{"android":"levelo://app?vid=2a7bc085-bb7c-4f27-8e51-39d6306f1a6b","ios":"levelo://app?vid=2a7bc085-bb7c-4f27-8e51-39d6306f1a6b"},"vehicle_type_id":"4","last_reported":1748679187,"current_range_meters":18000,"station_id":"ce4bhg12rcd13ifvqf80","pricing_plan_id":"cebpf4jnsgd1na2vs0mg"},{"bike_id":"e30757e1-f101-4442-b172-d191304e9b62","system_id":"levelo_inurba_marseille","lat":43.27833,"lon":5.39205,"is_reserved":false,"is_disabled":false,"rental_uris":{"android":"levelo://app?vid=e30757e1-f101-4442-b172-d191304e9b62","ios":"levelo://app?vid=e30757e1-f101-4442-b172-d191304e9b62"},"vehicle_type_id":"4","last_reported":1748679187,"current_range_meters":18000,"station_id":"ce4bhjp2rcd13ifvqga0","pricing_plan_id":"cebpf4jnsgd1na2vs0mg"},{"bike_id":"a3ee8593-5318-49af-9991-0d3fbdf1b702","system_id":"levelo_inurba_marseille","lat":43.25864,"lon":5.39895,"is_reserved":false,"is_disabled":false,"rental_uris":{"android":"levelo://app?vid=a3ee8593-5318-49af-9991-0d3fbdf1b702","ios":"levelo://app?vid=a3ee8593-5318-49af-9991-0d3fbdf1b702"},"vehicle_type_id":"4","last_reported":1748679187,"current_range_meters":18000,"station_id":"ce4bhl92rcd13ifvqghg","pricing_plan_id":"cebpf4jnsgd1na2vs0mg"},{"bike_id":"2b88f02b-dfb3-41d0-b7a0-054253b8c119","system_id":"levelo_inurba_marseille","lat":43.29625,"lon":5.37737,"is_reserved":false,"is_disabled":false,"rental_uris":{"android":"levelo://app?vid=2b88f02b-dfb3-41d0-b7a0-054253b8c119","ios":"levelo://app?vid=2b88f02b-dfb3-41d0-b7a0-054253b8c119"},"vehicle_type_id":"4","last_reported":1748679187,"current_range_meters":18800,"station_id":"ce4bgi92rcd13ifvqb90","pricing_plan_id":"cebpf4jnsgd1na2vs0mg"},{"bike_id":"cf99540e-56c9-47fd-bb37-414f9e70e2e8","system_id":"levelo_inurba_marseille","lat":43.29853,"lon":5.36285,"is_reserved":false,"is_disabled":false,"rental_uris":{"android":"levelo://app?vid=cf99540e-56c9-47fd-bb37-414f9e70e2e8","ios":"levelo://app?vid=cf99540e-56c9-47fd-bb37-414f9e70e2e8"},"vehicle_type_id":"4","last_reported":1748679187,"current_range_meters":18800,"station_id":"ce4bgpp2rcd13ifvqc3g","pricing_plan_id":"cebpf4jnsgd1na2vs0mg"},{"bike_id":"56ed4761-a43c-4469-9ea6-f227f320ed7f","system_id":"levelo_inurba_marseille","lat":43.23128,"lon":5.43724,"is_reserved":false,"is_disabled":false,"rental_uris":{"android":"levelo://app?vid=56ed4761-a43c-4469-9ea6-f227f320ed7f","ios":"levelo://app?vid=56ed4761-a43c-4469-9ea6-f227f320ed7f"},"vehicle_type_id":"4","last_reported":1748679187,"current_range_meters":18800,"station_id":"ce4bhmp2rcd13ifvqgog","pricing_plan_id":"cebpf4jnsgd1na2vs0mg"},{"bike_id":"52138315-f13b-4871-ab78-9e5155a1008c","system_id":"levelo_inurba_marseille","lat":43.32283,"lon":5.38255,"is_reserved":false,"is_disabled":false,"rental_uris":{"android":"levelo://app?vid=52138315-f13b-4871-ab78-9e5155a1008c","ios":"levelo://app?vid=52138315-f13b-4871-ab78-9e5155a1008c"},"vehicle_type_id":"4","last_reported":1748679187,"current_range_meters":18800,"station_id":"ce4bhr12rcd13ifvqhqg","pricing_plan_id":"cebpf4jnsgd1na2vs0mg"},{"bike_id":"77c8d843-097d-4a21-9eaf-ceba89e1d972","system_id":"levelo_inurba_marseille","lat":43.24158,"lon":5.36398,"is_reserved":false,"is_disabled":false,"rental_uris":{"android":"levelo://app?vid=77c8d843-097d-4a21-9eaf-ceba89e1d972","ios":"levelo://app?vid=77c8d843-097d-4a21-9eaf-ceba89e1d972"},"vehicle_type_id":"4","last_reported":1748679187,"current_range_meters":18800,"station_id":"cpo36qri1sfpv3e86is0","pricing_plan_id":"cebpf4jnsgd1na2vs0mg"},{"bike_id":"061360c3-89d1-4978-a79b-fd98b726dcbf","system_id":"levelo_inurba_marseille","lat":43.30084,"lon":5.39085,"is_reserved":false,"is_disabled":false,"rental_uris":{"android":"levelo://app?vid=061360c3-89d1-4978-a79b-fd98b726dcbf","ios":"levelo://app?vid=061360c3-89d1-4978-a79b-fd98b726dcbf"},"vehicle_type_id":"4","last_reported":1748679187,"current_range_meters":19200,"station_id":"ce4bh192rcd13ifvqdb0","pricing_plan_id":"cebpf4jnsgd1na2vs0mg"},{"bike_id":"40ec5158-e937-46a3-9a06-884370ed5e3d","system_id":"levelo_inurba_marseille","lat":43.2417,"lon":5.39734,"is_reserved":false,"is_disabled":false,"rental_uris":{"android":"levelo://app?vid=40ec5158-e937-46a3-9a06-884370ed5e3d","ios":"levelo://app?vid=40ec5158-e937-46a3-9a06-884370ed5e3d"},"vehicle_type_id":"4","last_reported":1748679187,"current_range_meters":19200,"station_id":"ce4bhn12rcd13ifvqgpg","pricing_plan_id":"cebpf4jnsgd1na2vs0mg"},{"bike_id":"51c9df97-b6e3-4315-805f-c6aba29ed23c","system_id":"levelo_inurba_marseille","lat":43.2872,"lon":5.39986,"is_reserved":false,"is_disabled":false,"rental_uris":{"android":"levelo://app?vid=51c9df97-b6e3-4315-805f-c6aba29ed23c","ios":"levelo://app?vid=51c9df97-b6e3-4315-805f-c6aba29ed23c"},"vehicle_type_id":"4","last_reported":1748679187,"current_range_meters":19200,"station_id":"ce4bho92rcd13ifvqh3g","pricing_plan_id":"cebpf4jnsgd1na2vs0mg"},{"bike_id":"0cd0f35a-8fb8-4853-b498-8b85d9daafee","system_id":"levelo_inurba_marseille","lat":43.21192,"lon":5.35079,"is_reserved":false,"is_disabled":false,"rental_uris":{"android":"levelo://app?vid=0cd0f35a-8fb8-4853-b498-8b85d9daafee","ios":"levelo://app?vid=0cd0f35a-8fb8-4853-b498-8b85d9daafee"},"vehicle_type_id":"4","last_reported":1748679187,"current_range_meters":19200,"station_id":"st_cvj6sg6p6f1abm77japg","pricing_plan_id":"cebpf4jnsgd1na2vs0mg"},{"bike_id":"1738cf63-dc00-48a1-9e99-8ebdb6d1b8d3","system_id":"levelo_inurba_marseille","lat":43.330705,"lon":5.393258,"is_reserved":false,"is_disabled":false,"rental_uris":{"android":"levelo://app?vid=1738cf63-dc00-48a1-9e99-8ebdb6d1b8d3","ios":"levelo://app?vid=1738cf63-dc00-48a1-9e99-8ebdb6d1b8d3"},"vehicle_type_id":"4","last_reported":1748679187,"current_range_meters":19600,"station_id":"","pricing_plan_id":"cebpf4jnsgd1na2vs0mg"},{"bike_id":"85e3e537-a177-48c7-bd3d-d597dfbeed60","system_id":"levelo_inurba_marseille","lat":43.252237,"lon":5.42494,"is_reserved":false,"is_disabled":false,"rental_uris":{"android":"levelo://app?vid=85e3e537-a177-48c7-bd3d-d597dfbeed60","ios":"levelo://app?vid=85e3e537-a177-48c7-bd3d-d597dfbeed60"},"vehicle_type_id":"4","last_reported":1748679187,"current_range_meters":19600,"station_id":"","pricing_plan_id":"cebpf4jnsgd1na2vs0mg"},{"bike_id":"2f650bb1-6027-4191-83d2-16315820a0a7","system_id":"levelo_inurba_marseille","lat":43.2997,"lon":5.37355,"is_reserved":false,"is_disabled":false,"rental_uris":{"android":"levelo://app?vid=2f650bb1-6027-4191-83d2-16315820a0a7","ios":"levelo://app?vid=2f650bb1-6027-4191-83d2-16315820a0a7"},"vehicle_type_id":"4","last_reported":1748679187,"current_range_meters":19600,"station_id":"","pricing_plan_id":"cebpf4jnsgd1na2vs0mg"},{"bike_id":"68c15341-a902-470d-afa1-0b685041a347","system_id":"levelo_inurba_marseille","lat":43.29548,"lon":5.37513,"is_reserved":false,"is_disabled":false,"rental_uris":{"android":"levelo://app?vid=68c15341-a902-470d-afa1-0b685041a347","ios":"levelo://app?vid=68c15341-a902-470d-afa1-0b685041a347"},"vehicle_type_id":"4","last_reported":1748679187,"current_range_meters":19600,"station_id":"ce4bgkp2rcd13ifvqbmg","pricing_plan_id":"cebpf4jnsgd1na2vs0mg"},{"bike_id":"37da63eb-922c-43a2-a033-1797e8a35c14","system_id":"levelo_inurba_marseille","lat":43.27914,"lon":5.39577,"is_reserved":false,"is_disabled":false,"rental_uris":{"android":"levelo://app?vid=37da63eb-922c-43a2-a033-1797e8a35c14","ios":"levelo://app?vid=37da63eb-922c-43a2-a033-1797e8a35c14"},"vehicle_type_id":"4","last_reported":1748679187,"current_range_meters":19600,"station_id":"ce4bhf92rcd13ifvqf40","pricing_plan_id":"cebpf4jnsgd1na2vs0mg"},{"bike_id":"2fe6278c-5afa-4ac6-8c9d-653e87261e2b","system_id":"levelo_inurba_marseille","lat":43.23199,"lon":5.39973,"is_reserved":false,"is_disabled":false,"rental_uris":{"android":"levelo://app?vid=2fe6278c-5afa-4ac6-8c9d-653e87261e2b","ios":"levelo://app?vid=2fe6278c-5afa-4ac6-8c9d-653e87261e2b"},"vehicle_type_id":"4","last_reported":1748679187,"current_range_meters":19600,"station_id":"ce4bhn12rcd13ifvqgqg","pricing_plan_id":"cebpf4jnsgd1na2vs0mg"},{"bike_id":"58bdc00c-5a04-40bc-89cb-e7f4f427f55a","system_id":"levelo_inurba_marseille","lat":43.24081,"lon":5.37753,"is_reserved":false,"is_disabled":false,"rental_uris":{"android":"levelo://app?vid=58bdc00c-5a04-40bc-89cb-e7f4f427f55a","ios":"levelo://app?vid=58bdc00c-5a04-40bc-89cb-e7f4f427f55a"},"vehicle_type_id":"4","last_reported":1748679187,"current_range_meters":19600,"station_id":"ce4bhnp2rcd13ifvqgvg","pricing_plan_id":"cebpf4jnsgd1na2vs0mg"},{"bike_id":"d928af02-c0cc-4b0d-aeab-6c6ac0715223","system_id":"levelo_inurba_marseille","lat":43.32366,"lon":5.38896,"is_reserved":false,"is_disabled":false,"rental_uris":{"android":"levelo://app?vid=d928af02-c0cc-4b0d-aeab-6c6ac0715223","ios":"levelo://app?vid=d928af02-c0cc-4b0d-aeab-6c6ac0715223"},"vehicle_type_id":"4","last_reported":1748679187,"current_range_meters":19600,"station_id":"ce4bhqp2rcd13ifvqhog","pricing_plan_id":"cebpf4jnsgd1na2vs0mg"},{"bike_id":"678a6d00-bc52-4caa-bcf1-e5c1e33f1a3e","system_id":"levelo_inurba_marseille","lat":43.29744,"lon":5.37691,"is_reserved":false,"is_disabled":false,"rental_uris":{"android":"levelo://app?vid=678a6d00-bc52-4caa-bcf1-e5c1e33f1a3e","ios":"levelo://app?vid=678a6d00-bc52-4caa-bcf1-e5c1e33f1a3e"},"vehicle_type_id":"4","last_reported":1748679187,"current_range_meters":20000,"station_id":"ce4bgkh2rcd13ifvqbl0","pricing_plan_id":"cebpf4jnsgd1na2vs0mg"},{"bike_id":"4a099677-1f88-4c0e-aca8-96cd5adfbd30","system_id":"levelo_inurba_marseille","lat":43.292638,"lon":5.401651,"is_reserved":false,"is_disabled":false,"rental_uris":{"android":"levelo://app?vid=4a099677-1f88-4c0e-aca8-96cd5adfbd30","ios":"levelo://app?vid=4a099677-1f88-4c0e-aca8-96cd5adfbd30"},"vehicle_type_id":"4","last_reported":1748679187,"current_range_meters":20000,"station_id":"ce4bh312rcd13ifvqdk0","pricing_plan_id":"cebpf4jnsgd1na2vs0mg"},{"bike_id":"105af7cf-b45a-48d7-8358-ccd6d43bb279","system_id":"levelo_inurba_marseille","lat":43.28336,"lon":5.38115,"is_reserved":false,"is_disabled":false,"rental_uris":{"android":"levelo://app?vid=105af7cf-b45a-48d7-8358-ccd6d43bb279","ios":"levelo://app?vid=105af7cf-b45a-48d7-8358-ccd6d43bb279"},"vehicle_type_id":"4","last_reported":1748679187,"current_range_meters":20000,"station_id":"ce4bh412rcd13ifvqdr0","pricing_plan_id":"cebpf4jnsgd1na2vs0mg"},{"bike_id":"3b013d18-1eec-45bb-ad50-510a3f8275f7","system_id":"levelo_inurba_marseille","lat":43.29007,"lon":5.35615,"is_reserved":false,"is_disabled":false,"rental_uris":{"android":"levelo://app?vid=3b013d18-1eec-45bb-ad50-510a3f8275f7","ios":"levelo://app?vid=3b013d18-1eec-45bb-ad50-510a3f8275f7"},"vehicle_type_id":"4","last_reported":1748679187,"current_range_meters":20000,"station_id":"ce4bhb92rcd13ifvqen0","pricing_plan_id":"cebpf4jnsgd1na2vs0mg"},{"bike_id":"3fdb0359-2ee5-4672-8fc6-b060460fdc13","system_id":"levelo_inurba_marseille","lat":43.27311,"lon":5.39108,"is_reserved":false,"is_disabled":false,"rental_uris":{"android":"levelo://app?vid=3fdb0359-2ee5-4672-8fc6-b060460fdc13","ios":"levelo://app?vid=3fdb0359-2ee5-4672-8fc6-b060460fdc13"},"vehicle_type_id":"4","last_reported":1748679187,"current_range_meters":20000,"station_id":"ce4bhgp2rcd13ifvqfe0","pricing_plan_id":"cebpf4jnsgd1na2vs0mg"},{"bike_id":"8d58868a-90c7-4354-bd95-c9b1424e7e94","system_id":"levelo_inurba_marseille","lat":43.30887,"lon":5.37425,"is_reserved":false,"is_disabled":false,"rental_uris":{"android":"levelo://app?vid=8d58868a-90c7-4354-bd95-c9b1424e7e94","ios":"levelo://app?vid=8d58868a-90c7-4354-bd95-c9b1424e7e94"},"vehicle_type_id":"4","last_reported":1748679187,"current_range_meters":20400,"station_id":"","pricing_plan_id":"cebpf4jnsgd1na2vs0mg"},{"bike_id":"01d51a3b-bd36-4bae-b70d-feca5edf1a87","system_id":"levelo_inurba_marseille","lat":43.281081,"lon":5.398628,"is_reserved":false,"is_disabled":false,"rental_uris":{"android":"levelo://app?vid=01d51a3b-bd36-4bae-b70d-feca5edf1a87","ios":"levelo://app?vid=01d51a3b-bd36-4bae-b70d-feca5edf1a87"},"vehicle_type_id":"4","last_reported":1748679187,"current_range_meters":20400,"station_id":"","pricing_plan_id":"cebpf4jnsgd1na2vs0mg"},{"bike_id":"c6bdf46a-4213-4c12-925c-e97a9a9f9d74","system_id":"levelo_inurba_marseille","lat":43.30458,"lon":5.37904,"is_reserved":false,"is_disabled":false,"rental_uris":{"android":"levelo://app?vid=c6bdf46a-4213-4c12-925c-e97a9a9f9d74","ios":"levelo://app?vid=c6bdf46a-4213-4c12-925c-e97a9a9f9d74"},"vehicle_type_id":"4","last_reported":1748679187,"current_range_meters":20400,"station_id":"ce4bgup2rcd13ifvqcn0","pricing_plan_id":"cebpf4jnsgd1na2vs0mg"},{"bike_id":"b3d01b6b-d6c6-4737-a6b7-e883fb1a5709","system_id":"levelo_inurba_marseille","lat":43.217477,"lon":5.346086,"is_reserved":false,"is_disabled":false,"rental_uris":{"android":"levelo://app?vid=b3d01b6b-d6c6-4737-a6b7-e883fb1a5709","ios":"levelo://app?vid=b3d01b6b-d6c6-4737-a6b7-e883fb1a5709"},"vehicle_type_id":"4","last_reported":1748679187,"current_range_meters":20400,"station_id":"ce4bh8p2rcd13ifvqeb0","pricing_plan_id":"cebpf4jnsgd1na2vs0mg"},{"bike_id":"59a74e69-9d14-4a95-95d7-133f8ba3e1c5","system_id":"levelo_inurba_marseille","lat":43.23194,"lon":5.35554,"is_reserved":false,"is_disabled":false,"rental_uris":{"android":"levelo://app?vid=59a74e69-9d14-4a95-95d7-133f8ba3e1c5","ios":"levelo://app?vid=59a74e69-9d14-4a95-95d7-133f8ba3e1c5"},"vehicle_type_id":"4","last_reported":1748679187,"current_range_meters":20400,"station_id":"ce4bhu92rcd13ifvqi70","pricing_plan_id":"cebpf4jnsgd1na2vs0mg"},{"bike_id":"4e06c97b-cef3-4984-a01b-946e60a79690","system_id":"levelo_inurba_marseille","lat":43.253261,"lon":5.393836,"is_reserved":false,"is_disabled":false,"rental_uris":{"android":"levelo://app?vid=4e06c97b-cef3-4984-a01b-946e60a79690","ios":"levelo://app?vid=4e06c97b-cef3-4984-a01b-946e60a79690"},"vehicle_type_id":"4","last_reported":1748679187,"current_range_meters":20800,"station_id":"","pricing_plan_id":"cebpf4jnsgd1na2vs0mg"},{"bike_id":"1510f774-29d1-4631-8ba7-4d9d44c0ef3e","system_id":"levelo_inurba_marseille","lat":43.28773,"lon":5.37949,"is_reserved":false,"is_disabled":false,"rental_uris":{"android":"levelo://app?vid=1510f774-29d1-4631-8ba7-4d9d44c0ef3e","ios":"levelo://app?vid=1510f774-29d1-4631-8ba7-4d9d44c0ef3e"},"vehicle_type_id":"4","last_reported":1748679187,"current_range_meters":20800,"station_id":"","pricing_plan_id":"cebpf4jnsgd1na2vs0mg"},{"bike_id":"8eff6982-ff64-49d1-a252-374bb9b5fdbc","system_id":"levelo_inurba_marseille","lat":43.28242,"lon":5.390747,"is_reserved":false,"is_disabled":false,"rental_uris":{"android":"levelo://app?vid=8eff6982-ff64-49d1-a252-374bb9b5fdbc","ios":"levelo://app?vid=8eff6982-ff64-49d1-a252-374bb9b5fdbc"},"vehicle_type_id":"4","last_reported":1748679187,"current_range_meters":20800,"station_id":"","pricing_plan_id":"cebpf4jnsgd1na2vs0mg"},{"bike_id":"1dd46042-841b-4402-96e0-a284ed6bff74","system_id":"levelo_inurba_marseille","lat":43.29536,"lon":5.3751,"is_reserved":false,"is_disabled":false,"rental_uris":{"android":"levelo://app?vid=1dd46042-841b-4402-96e0-a284ed6bff74","ios":"levelo://app?vid=1dd46042-841b-4402-96e0-a284ed6bff74"},"vehicle_type_id":"4","last_reported":1748679187,"current_range_meters":20800,"station_id":"ce4bgkp2rcd13ifvqbmg","pricing_plan_id":"cebpf4jnsgd1na2vs0mg"},{"bike_id":"50117120-86fc-4884-a029-a286be0f03e2","system_id":"levelo_inurba_marseille","lat":43.30249,"lon":5.40073,"is_reserved":false,"is_disabled":false,"rental_uris":{"android":"levelo://app?vid=50117120-86fc-4884-a029-a286be0f03e2","ios":"levelo://app?vid=50117120-86fc-4884-a029-a286be0f03e2"},"vehicle_type_id":"4","last_reported":1748679187,"current_range_meters":20800,"station_id":"ce4bgvh2rcd13ifvqcs0","pricing_plan_id":"cebpf4jnsgd1na2vs0mg"},{"bike_id":"e1a9480b-3a76-455e-8612-f8efbb6bbf3e","system_id":"levelo_inurba_marseille","lat":43.27918,"lon":5.39585,"is_reserved":false,"is_disabled":false,"rental_uris":{"android":"levelo://app?vid=e1a9480b-3a76-455e-8612-f8efbb6bbf3e","ios":"levelo://app?vid=e1a9480b-3a76-455e-8612-f8efbb6bbf3e"},"vehicle_type_id":"4","last_reported":1748679187,"current_range_meters":20800,"station_id":"ce4bhf92rcd13ifvqf40","pricing_plan_id":"cebpf4jnsgd1na2vs0mg"},{"bike_id":"094136cd-6e8a-44d4-9703-47aefbc28c5f","system_id":"levelo_inurba_marseille","lat":43.27921,"lon":5.39585,"is_reserved":false,"is_disabled":false,"rental_uris":{"android":"levelo://app?vid=094136cd-6e8a-44d4-9703-47aefbc28c5f","ios":"levelo://app?vid=094136cd-6e8a-44d4-9703-47aefbc28c5f"},"vehicle_type_id":"4","last_reported":1748679187,"current_range_meters":20800,"station_id":"ce4bhf92rcd13ifvqf40","pricing_plan_id":"cebpf4jnsgd1na2vs0mg"},{"bike_id":"84b57cfb-f507-4f84-9aa4-963c4de487a0","system_id":"levelo_inurba_marseille","lat":43.275673,"lon":5.384203,"is_reserved":false,"is_disabled":false,"rental_uris":{"android":"levelo://app?vid=84b57cfb-f507-4f84-9aa4-963c4de487a0","ios":"levelo://app?vid=84b57cfb-f507-4f84-9aa4-963c4de487a0"},"vehicle_type_id":"4","last_reported":1748679187,"current_range_meters":20800,"station_id":"ce4bhh92rcd13ifvqfi0","pricing_plan_id":"cebpf4jnsgd1na2vs0mg"},{"bike_id":"9e3a4f05-e1ac-41bb-b841-df9f58c97b40","system_id":"levelo_inurba_marseille","lat":43.26061,"lon":5.39399,"is_reserved":false,"is_disabled":false,"rental_uris":{"android":"levelo://app?vid=9e3a4f05-e1ac-41bb-b841-df9f58c97b40","ios":"levelo://app?vid=9e3a4f05-e1ac-41bb-b841-df9f58c97b40"},"vehicle_type_id":"4","last_reported":1748679187,"current_range_meters":20800,"station_id":"ce4bhh92rcd13ifvqfj0","pricing_plan_id":"cebpf4jnsgd1na2vs0mg"},{"bike_id":"dcfe4e48-ba4d-40ce-9013-f302bd4e819f","system_id":"levelo_inurba_marseille","lat":43.31996,"lon":5.4144,"is_reserved":false,"is_disabled":false,"rental_uris":{"android":"levelo://app?vid=dcfe4e48-ba4d-40ce-9013-f302bd4e819f","ios":"levelo://app?vid=dcfe4e48-ba4d-40ce-9013-f302bd4e819f"},"vehicle_type_id":"4","last_reported":1748679187,"current_range_meters":20800,"station_id":"ce4bhq92rcd13ifvqhkg","pricing_plan_id":"cebpf4jnsgd1na2vs0mg"},{"bike_id":"4f2faef4-4f88-4632-91df-d39652161bd6","system_id":"levelo_inurba_marseille","lat":43.296,"lon":5.38104,"is_reserved":false,"is_disabled":false,"rental_uris":{"android":"levelo://app?vid=4f2faef4-4f88-4632-91df-d39652161bd6","ios":"levelo://app?vid=4f2faef4-4f88-4632-91df-d39652161bd6"},"vehicle_type_id":"4","last_reported":1748679187,"current_range_meters":21600,"station_id":"ce4bgl12rcd13ifvqbo0","pricing_plan_id":"cebpf4jnsgd1na2vs0mg"},{"bike_id":"96ef4d2e-4ed7-4cf9-be1d-060f75c89057","system_id":"levelo_inurba_marseille","lat":43.21753,"lon":5.34606,"is_reserved":false,"is_disabled":false,"rental_uris":{"android":"levelo://app?vid=96ef4d2e-4ed7-4cf9-be1d-060f75c89057","ios":"levelo://app?vid=96ef4d2e-4ed7-4cf9-be1d-060f75c89057"},"vehicle_type_id":"4","last_reported":1748679187,"current_range_meters":21600,"station_id":"st_cvj6r9ubvosntc0bgbag","pricing_plan_id":"cebpf4jnsgd1na2vs0mg"},{"bike_id":"024b0980-fa37-473b-8ba9-8a5fb5719309","system_id":"levelo_inurba_marseille","lat":43.307291,"lon":5.424233,"is_reserved":false,"is_disabled":false,"rental_uris":{"android":"levelo://app?vid=024b0980-fa37-473b-8ba9-8a5fb5719309","ios":"levelo://app?vid=024b0980-fa37-473b-8ba9-8a5fb5719309"},"vehicle_type_id":"4","last_reported":1748679187,"current_range_meters":22000,"station_id":"","pricing_plan_id":"cebpf4jnsgd1na2vs0mg"},{"bike_id":"2a2f6fd6-3e05-4938-9533-8ed06b58f5f4","system_id":"levelo_inurba_marseille","lat":43.29624,"lon":5.38929,"is_reserved":false,"is_disabled":false,"rental_uris":{"android":"levelo://app?vid=2a2f6fd6-3e05-4938-9533-8ed06b58f5f4","ios":"levelo://app?vid=2a2f6fd6-3e05-4938-9533-8ed06b58f5f4"},"vehicle_type_id":"4","last_reported":1748679187,"current_range_meters":22000,"station_id":"","pricing_plan_id":"cebpf4jnsgd1na2vs0mg"},{"bike_id":"903b0bf7-7626-4d30-a23e-4f4b503bf39f","system_id":"levelo_inurba_marseille","lat":43.3093,"lon":5.401448,"is_reserved":false,"is_disabled":false,"rental_uris":{"android":"levelo://app?vid=903b0bf7-7626-4d30-a23e-4f4b503bf39f","ios":"levelo://app?vid=903b0bf7-7626-4d30-a23e-4f4b503bf39f"},"vehicle_type_id":"4","last_reported":1748679187,"current_range_meters":22000,"station_id":"ce4bgvp2rcd13ifvqct0","pricing_plan_id":"cebpf4jnsgd1na2vs0mg"},{"bike_id":"be617e07-a9c7-4981-94dd-8cd360d67af9","system_id":"levelo_inurba_marseille","lat":43.318853,"lon":5.407662,"is_reserved":false,"is_disabled":false,"rental_uris":{"android":"levelo://app?vid=be617e07-a9c7-4981-94dd-8cd360d67af9","ios":"levelo://app?vid=be617e07-a9c7-4981-94dd-8cd360d67af9"},"vehicle_type_id":"4","last_reported":1748679187,"current_range_meters":22000,"station_id":"ce4bh012rcd13ifvqd00","pricing_plan_id":"cebpf4jnsgd1na2vs0mg"},{"bike_id":"0489661d-b5b9-49dc-9463-2cdfff8b5db6","system_id":"levelo_inurba_marseille","lat":43.241742,"lon":5.397341,"is_reserved":false,"is_disabled":false,"rental_uris":{"android":"levelo://app?vid=0489661d-b5b9-49dc-9463-2cdfff8b5db6","ios":"levelo://app?vid=0489661d-b5b9-49dc-9463-2cdfff8b5db6"},"vehicle_type_id":"4","last_reported":1748679187,"current_range_meters":22000,"station_id":"ce4bhn12rcd13ifvqgpg","pricing_plan_id":"cebpf4jnsgd1na2vs0mg"},{"bike_id":"37c441a3-00b0-4887-b9f5-a06d3c1efc01","system_id":"levelo_inurba_marseille","lat":43.274969,"lon":5.424587,"is_reserved":false,"is_disabled":false,"rental_uris":{"android":"levelo://app?vid=37c441a3-00b0-4887-b9f5-a06d3c1efc01","ios":"levelo://app?vid=37c441a3-00b0-4887-b9f5-a06d3c1efc01"},"vehicle_type_id":"4","last_reported":1748679187,"current_range_meters":22000,"station_id":"ce4bhn92rcd13ifvqgrg","pricing_plan_id":"cebpf4jnsgd1na2vs0mg"},{"bike_id":"6345f85a-6673-463b-89ec-7dd58c28f840","system_id":"levelo_inurba_marseille","lat":43.27987,"lon":5.41666,"is_reserved":false,"is_disabled":false,"rental_uris":{"android":"levelo://app?vid=6345f85a-6673-463b-89ec-7dd58c28f840","ios":"levelo://app?vid=6345f85a-6673-463b-89ec-7dd58c28f840"},"vehicle_type_id":"4","last_reported":1748679187,"current_range_meters":22000,"station_id":"ce4bho12rcd13ifvqh1g","pricing_plan_id":"cebpf4jnsgd1na2vs0mg"},{"bike_id":"7ab94cd2-b39d-4fc9-b9f5-ca04f27bf79a","system_id":"levelo_inurba_marseille","lat":43.30849,"lon":5.39785,"is_reserved":false,"is_disabled":false,"rental_uris":{"android":"levelo://app?vid=7ab94cd2-b39d-4fc9-b9f5-ca04f27bf79a","ios":"levelo://app?vid=7ab94cd2-b39d-4fc9-b9f5-ca04f27bf79a"},"vehicle_type_id":"4","last_reported":1748679187,"current_range_meters":22400,"station_id":"","pricing_plan_id":"cebpf4jnsgd1na2vs0mg"},{"bike_id":"db90286d-8b73-4b28-a6bb-cc464f02f4d6","system_id":"levelo_inurba_marseille","lat":43.253007,"lon":5.39338,"is_reserved":false,"is_disabled":false,"rental_uris":{"android":"levelo://app?vid=db90286d-8b73-4b28-a6bb-cc464f02f4d6","ios":"levelo://app?vid=db90286d-8b73-4b28-a6bb-cc464f02f4d6"},"vehicle_type_id":"4","last_reported":1748679187,"current_range_meters":22400,"station_id":"","pricing_plan_id":"cebpf4jnsgd1na2vs0mg"},{"bike_id":"4fedea82-1c31-4aa4-a779-21b53506b0fd","system_id":"levelo_inurba_marseille","lat":43.33026,"lon":5.39039,"is_reserved":false,"is_disabled":false,"rental_uris":{"android":"levelo://app?vid=4fedea82-1c31-4aa4-a779-21b53506b0fd","ios":"levelo://app?vid=4fedea82-1c31-4aa4-a779-21b53506b0fd"},