{"last_updated":1753895531,"ttl":60,"version":"2.2","data":{"bikes":[{"bike_id":"15248f06-ca95-426d-9054-c6d37e15609f","system_id":"levelo_inurba_marseille","lat":43.27376,"lon":5.36261,"is_reserved":false,"is_disabled":false,"rental_uris":{"android":"levelo://app?vid=15248f06-ca95-426d-9054-c6d37e15609f","ios":"levelo://app?vid=15248f06-ca95-426d-9054-c6d37e15609f"},"vehicle_type_id":"4","last_reported":1753895531,"current_range_meters":2800,"station_id":"ce4bhbh2rcd13ifvqeo0","pricing_plan_id":"cebpf4jnsgd1na2vs0mg"},{"bike_id":"bc393535-ad13-4fb1-ba45-8033e1f62169","system_id":"levelo_inurba_marseille","lat":43.27952,"lon":5.41051,"is_reserved":false,"is_disabled":true,"rental_uris":{"android":"levelo://app?vid=bc393535-ad13-4fb1-ba45-8033e1f62169","ios":"levelo://app?vid=bc393535-ad13-4fb1-ba45-8033e1f62169"},"vehicle_type_id":"4","last_reported":1753895531,"current_range_meters":2800,"station_id":"ce4bhnp2rcd13ifvqh0g","pricing_plan_id":"cebpf4jnsgd1na2vs0mg"},{"bike_id":"80915a30-ef88-4d81-b5d1-969d1c17a42d","system_id":"levelo_inurba_marseille","lat":43.30423,"lon":5.40835,"is_reserved":false,"is_disabled":false,"rental_uris":{"android":"levelo://app?vid=80915a30-ef88-4d81-b5d1-969d1c17a42d","ios":"levelo://app?vid=80915a30-ef88-4d81-b5d1-969d1c17a42d"},"vehicle_type_id":"4","last_reported":1753895531,"current_range_meters":2800,"station_id":"","pricing_plan_id":"cebpf4jnsgd1na2vs0mg"},{"bike_id":"006db8dd-0d07-4cdd-a1f0-d4de5c42622f","system_id":"levelo_inurba_marseille","lat":43.26062,"lon":5.39394,"is_reserved":false,"is_disabled":false,"rental_uris":{"android":"levelo://app?vid=006db8dd-0d07-4cdd-a1f0-d4de5c42622f","ios":"levelo://app?vid=006db8dd-0d07-4cdd-a1f0-d4de5c42622f"},"vehicle_type_id":"4","last_reported":1753895531,"current_range_meters":2800,"station_id":"ce4bhh92rcd13ifvqfj0","pricing_plan_id":"cebpf4jnsgd1na2vs0mg"},{"bike_id":"5f935c4d-b287-4e3b-9d37-9155ee7381e9","system_id":"levelo_inurba_marseille","lat":43.30601,"lon":5.39351,"is_reserved":false,"is_disabled":false,"rental_uris":{"android":"levelo://app?vid=5f935c4d-b287-4e3b-9d37-9155ee7381e9","ios":"levelo://app?vid=5f935c4d-b287-4e3b-9d37-9155ee7381e9"},"vehicle_type_id":"4","last_reported":1753895531,"current_range_meters":2800,"station_id":"ce4bh0p2rcd13ifvqd80","pricing_plan_id":"cebpf4jnsgd1na2vs0mg"},{"bike_id":"9bea51f2-fe52-45f8-aaf8-09b6591f9680","system_id":"levelo_inurba_marseille","lat":43.30966,"lon":5.39032,"is_reserved":false,"is_disabled":false,"rental_uris":{"android":"levelo://app?vid=9bea51f2-fe52-45f8-aaf8-09b6591f9680","ios":"levelo://app?vid=9bea51f2-fe52-45f8-aaf8-09b6591f9680"},"vehicle_type_id":"4","last_reported":1753895531,"current_range_meters":2800,"station_id":"ce4bgup2rcd13ifvqco0","pricing_plan_id":"cebpf4jnsgd1na2vs0mg"},{"bike_id":"6b56a7d0-4321-4593-8112-dfd42f9ba253","system_id":"levelo_inurba_marseille","lat":43.262292,"lon":5.404443,"is_reserved":false,"is_disabled":false,"rental_uris":{"android":"levelo://app?vid=6b56a7d0-4321-4593-8112-dfd42f9ba253","ios":"levelo://app?vid=6b56a7d0-4321-4593-8112-dfd42f9ba253"},"vehicle_type_id":"4","last_reported":1753895531,"current_range_meters":3200,"station_id":"ce4bhhh2rcd13ifvqfl0","pricing_plan_id":"cebpf4jnsgd1na2vs0mg"},{"bike_id":"8a569b31-55c0-441f-9435-5ac594ac9c22","system_id":"levelo_inurba_marseille","lat":43.297302,"lon":5.374166,"is_reserved":false,"is_disabled":false,"rental_uris":{"android":"levelo://app?vid=8a569b31-55c0-441f-9435-5ac594ac9c22","ios":"levelo://app?vid=8a569b31-55c0-441f-9435-5ac594ac9c22"},"vehicle_type_id":"4","last_reported":1753895531,"current_range_meters":3200,"station_id":"","pricing_plan_id":"cebpf4jnsgd1na2vs0mg"},{"bike_id":"b3fa5086-0662-4f12-a1ff-6dacd4be5e99","system_id":"levelo_inurba_marseille","lat":43.30258,"lon":5.4008,"is_reserved":false,"is_disabled":false,"rental_uris":{"android":"levelo://app?vid=b3fa5086-0662-4f12-a1ff-6dacd4be5e99","ios":"levelo://app?vid=b3fa5086-0662-4f12-a1ff-6dacd4be5e99"},"vehicle_type_id":"4","last_reported":1753895531,"current_range_meters":3200,"station_id":"ce4bgvh2rcd13ifvqcs0","pricing_plan_id":"cebpf4jnsgd1na2vs0mg"},{"bike_id":"209c73e6-1f69-4d13-9fed-77cb46eecd05","system_id":"levelo_inurba_marseille","lat":43.34681,"lon":5.38065,"is_reserved":false,"is_disabled":false,"rental_uris":{"android":"levelo://app?vid=209c73e6-1f69-4d13-9fed-77cb46eecd05","ios":"levelo://app?vid=209c73e6-1f69-4d13-9fed-77cb46eecd05"},"vehicle_type_id":"4","last_reported":1753895531,"current_range_meters":3200,"station_id":"","pricing_plan_id":"cebpf4jnsgd1na2vs0mg"},{"bike_id":"5fc618e0-331d-48d5-9a12-c5f03988e973","system_id":"levelo_inurba_marseille","lat":43.28156,"lon":5.42642,"is_reserved":false,"is_disabled":false,"rental_uris":{"android":"levelo://app?vid=5fc618e0-331d-48d5-9a12-c5f03988e973","ios":"levelo://app?vid=5fc618e0-331d-48d5-9a12-c5f03988e973"},"vehicle_type_id":"4","last_reported":1753895531,"current_range_meters":3200,"station_id":"ce4bhnh2rcd13ifvqgug","pricing_plan_id":"cebpf4jnsgd1na2vs0mg"},{"bike_id":"181c8049-4fb7-4c27-a6b2-7bb8fea4f09f","system_id":"levelo_inurba_marseille","lat":43.29532,"lon":5.39268,"is_reserved":false,"is_disabled":false,"rental_uris":{"android":"levelo://app?vid=181c8049-4fb7-4c27-a6b2-7bb8fea4f09f","ios":"levelo://app?vid=181c8049-4fb7-4c27-a6b2-7bb8fea4f09f"},"vehicle_type_id":"4","last_reported":1753895531,"current_range_meters":3600,"station_id":"","pricing_plan_id":"cebpf4jnsgd1na2vs0mg"},{"bike_id":"3783c80f-1841-4a06-9ca0-dea22fa7b863","system_id":"levelo_inurba_marseille","lat":43.23189,"lon":5.35551,"is_reserved":false,"is_disabled":false,"rental_uris":{"android":"levelo://app?vid=3783c80f-1841-4a06-9ca0-dea22fa7b863","ios":"levelo://app?vid=3783c80f-1841-4a06-9ca0-dea22fa7b863"},"vehicle_type_id":"4","last_reported":1753895531,"current_range_meters":3600,"station_id":"ce4bhu92rcd13ifvqi70","pricing_plan_id":"cebpf4jnsgd1na2vs0mg"},{"bike_id":"95dd70e4-879c-49e7-b318-a6c71b22a43e","system_id":"levelo_inurba_marseille","lat":43.2703,"lon":5.39295,"is_reserved":false,"is_disabled":false,"rental_uris":{"android":"levelo://app?vid=95dd70e4-879c-49e7-b318-a6c71b22a43e","ios":"levelo://app?vid=95dd70e4-879c-49e7-b318-a6c71b22a43e"},"vehicle_type_id":"4","last_reported":1753895531,"current_range_meters":3600,"station_id":"","pricing_plan_id":"cebpf4jnsgd1na2vs0mg"},{"bike_id":"4b110646-74fa-4974-8ad7-94c66dd844ba","system_id":"levelo_inurba_marseille","lat":43.266813,"lon":5.382742,"is_reserved":false,"is_disabled":false,"rental_uris":{"android":"levelo://app?vid=4b110646-74fa-4974-8ad7-94c66dd844ba","ios":"levelo://app?vid=4b110646-74fa-4974-8ad7-94c66dd844ba"},"vehicle_type_id":"4","last_reported":1753895531,"current_range_meters":2000,"station_id":"ce4bhg92rcd13ifvqf90","pricing_plan_id":"cebpf4jnsgd1na2vs0mg"},{"bike_id":"f927d6f5-e73a-46e3-baa3-fdbccaddc430","system_id":"levelo_inurba_marseille","lat":43.296502,"lon":5.377794,"is_reserved":false,"is_disabled":false,"rental_uris":{"android":"levelo://app?vid=f927d6f5-e73a-46e3-baa3-fdbccaddc430","ios":"levelo://app?vid=f927d6f5-e73a-46e3-baa3-fdbccaddc430"},"vehicle_type_id":"4","last_reported":1753895531,"current_range_meters":3600,"station_id":"ce4bhb12rcd13ifvqel0","pricing_plan_id":"cebpf4jnsgd1na2vs0mg"},{"bike_id":"004bf089-6369-4fe8-982c-5c4b5ab319dd","system_id":"levelo_inurba_marseille","lat":43.29,"lon":5.35615,"is_reserved":false,"is_disabled":false,"rental_uris":{"android":"levelo://app?vid=004bf089-6369-4fe8-982c-5c4b5ab319dd","ios":"levelo://app?vid=004bf089-6369-4fe8-982c-5c4b5ab319dd"},"vehicle_type_id":"4","last_reported":1753895531,"current_range_meters":4000,"station_id":"ce4bhb92rcd13ifvqen0","pricing_plan_id":"cebpf4jnsgd1na2vs0mg"},{"bike_id":"2ca52144-0667-4c68-b1c6-d109cdbf421f","system_id":"levelo_inurba_marseille","lat":43.304301,"lon":5.388904,"is_reserved":false,"is_disabled":false,"rental_uris":{"android":"levelo://app?vid=2ca52144-0667-4c68-b1c6-d109cdbf421f","ios":"levelo://app?vid=2ca52144-0667-4c68-b1c6-d109cdbf421f"},"vehicle_type_id":"4","last_reported":1753895531,"current_range_meters":4000,"station_id":"ce4bgk12rcd13ifvqbi0","pricing_plan_id":"cebpf4jnsgd1na2vs0mg"},{"bike_id":"7a1e0883-8e55-484e-8d4f-3a4356373092","system_id":"levelo_inurba_marseille","lat":43.23966,"lon":5.36635,"is_reserved":false,"is_disabled":false,"rental_uris":{"android":"levelo://app?vid=7a1e0883-8e55-484e-8d4f-3a4356373092","ios":"levelo://app?vid=7a1e0883-8e55-484e-8d4f-3a4356373092"},"vehicle_type_id":"4","last_reported":1753895531,"current_range_meters":4000,"station_id":"ce4bhi12rcd13ifvqfp0","pricing_plan_id":"cebpf4jnsgd1na2vs0mg"},{"bike_id":"1a0fe0bd-e211-4316-8fa8-b59c0ba49bbc","system_id":"levelo_inurba_marseille","lat":43.30276,"lon":5.37701,"is_reserved":false,"is_disabled":false,"rental_uris":{"android":"levelo://app?vid=1a0fe0bd-e211-4316-8fa8-b59c0ba49bbc","ios":"levelo://app?vid=1a0fe0bd-e211-4316-8fa8-b59c0ba49bbc"},"vehicle_type_id":"4","last_reported":1753895531,"current_range_meters":4400,"station_id":"ce4bguh2rcd13ifvqcj0","pricing_plan_id":"cebpf4jnsgd1na2vs0mg"},{"bike_id":"7ead535a-e7f2-4489-9051-59e4f5eeec8a","system_id":"levelo_inurba_marseille","lat":43.30698,"lon":5.3741,"is_reserved":false,"is_disabled":false,"rental_uris":{"android":"levelo://app?vid=7ead535a-e7f2-4489-9051-59e4f5eeec8a","ios":"levelo://app?vid=7ead535a-e7f2-4489-9051-59e4f5eeec8a"},"vehicle_type_id":"4","last_reported":1753895531,"current_range_meters":4400,"station_id":"","pricing_plan_id":"cebpf4jnsgd1na2vs0mg"},{"bike_id":"901c8621-3a99-402d-840c-f10431344ffc","system_id":"levelo_inurba_marseille","lat":43.25724,"lon":5.41109,"is_reserved":false,"is_disabled":false,"rental_uris":{"android":"levelo://app?vid=901c8621-3a99-402d-840c-f10431344ffc","ios":"levelo://app?vid=901c8621-3a99-402d-840c-f10431344ffc"},"vehicle_type_id":"4","last_reported":1753895531,"current_range_meters":4400,"station_id":"ce4bhkp2rcd13ifvqgd0","pricing_plan_id":"cebpf4jnsgd1na2vs0mg"},{"bike_id":"b4d25526-e0db-4f21-baf9-8e2041f376a3","system_id":"levelo_inurba_marseille","lat":43.30309,"lon":5.36888,"is_reserved":false,"is_disabled":false,"rental_uris":{"android":"levelo://app?vid=b4d25526-e0db-4f21-baf9-8e2041f376a3","ios":"levelo://app?vid=b4d25526-e0db-4f21-baf9-8e2041f376a3"},"vehicle_type_id":"4","last_reported":1753895531,"current_range_meters":4000,"station_id":"ce4bgqh2rcd13ifvqc5g","pricing_plan_id":"cebpf4jnsgd1na2vs0mg"},{"bike_id":"253b0ddb-b2c0-4ab2-bcd8-e3d9f18bad0d","system_id":"levelo_inurba_marseille","lat":43.29036,"lon":5.38636,"is_reserved":false,"is_disabled":false,"rental_uris":{"android":"levelo://app?vid=253b0ddb-b2c0-4ab2-bcd8-e3d9f18bad0d","ios":"levelo://app?vid=253b0ddb-b2c0-4ab2-bcd8-e3d9f18bad0d"},"vehicle_type_id":"4","last_reported":1753895531,"current_range_meters":4800,"station_id":"ce4bh4p2rcd13ifvqe0g","pricing_plan_id":"cebpf4jnsgd1na2vs0mg"},{"bike_id":"eca1d9de-2a3f-4a3d-8032-17026f5785a3","system_id":"levelo_inurba_marseille","lat":43.30141,"lon":5.38055,"is_reserved":false,"is_disabled":false,"rental_uris":{"android":"levelo://app?vid=eca1d9de-2a3f-4a3d-8032-17026f5785a3","ios":"levelo://app?vid=eca1d9de-2a3f-4a3d-8032-17026f5785a3"},"vehicle_type_id":"4","last_reported":1753895531,"current_range_meters":4800,"station_id":"ce4bgjp2rcd13ifvqbh0","pricing_plan_id":"cebpf4jnsgd1na2vs0mg"},{"bike_id":"642280ed-d0fe-4b97-ad55-e7ffa6bd5a81","system_id":"levelo_inurba_marseille","lat":43.29197,"lon":5.35816,"is_reserved":false,"is_disabled":false,"rental_uris":{"android":"levelo://app?vid=642280ed-d0fe-4b97-ad55-e7ffa6bd5a81","ios":"levelo://app?vid=642280ed-d0fe-4b97-ad55-e7ffa6bd5a81"},"vehicle_type_id":"4","last_reported":1753895531,"current_range_meters":4800,"station_id":"ce4bhb12rcd13ifvqel0","pricing_plan_id":"cebpf4jnsgd1na2vs0mg"},{"bike_id":"ec8f4bf6-c9b1-4eae-b5cd-f7cb09b339ec","system_id":"levelo_inurba_marseille","lat":43.29297,"lon":5.37459,"is_reserved":false,"is_disabled":false,"rental_uris":{"android":"levelo://app?vid=ec8f4bf6-c9b1-4eae-b5cd-f7cb09b339ec","ios":"levelo://app?vid=ec8f4bf6-c9b1-4eae-b5cd-f7cb09b339ec"},"vehicle_type_id":"4","last_reported":1753895531,"current_range_meters":4800,"station_id":"ce4bgi12rcd13ifvqb70","pricing_plan_id":"cebpf4jnsgd1na2vs0mg"},{"bike_id":"4f068703-e07b-4924-b29d-792d366371eb","system_id":"levelo_inurba_marseille","lat":43.27379,"lon":5.36271,"is_reserved":false,"is_disabled":false,"rental_uris":{"android":"levelo://app?vid=4f068703-e07b-4924-b29d-792d366371eb","ios":"levelo://app?vid=4f068703-e07b-4924-b29d-792d366371eb"},"vehicle_type_id":"4","last_reported":1753895531,"current_range_meters":4800,"station_id":"ce4bhbh2rcd13ifvqeo0","pricing_plan_id":"cebpf4jnsgd1na2vs0mg"},{"bike_id":"bbeb7296-92df-4418-a88f-44e3a34a2280","system_id":"levelo_inurba_marseille","lat":43.3127,"lon":5.40171,"is_reserved":false,"is_disabled":false,"rental_uris":{"android":"levelo://app?vid=bbeb7296-92df-4418-a88f-44e3a34a2280","ios":"levelo://app?vid=bbeb7296-92df-4418-a88f-44e3a34a2280"},"vehicle_type_id":"4","last_reported":1753895531,"current_range_meters":4800,"station_id":"ce4bh092rcd13ifvqd30","pricing_plan_id":"cebpf4jnsgd1na2vs0mg"},{"bike_id":"149fbe11-3bce-47a0-b584-c7c7bd6bb12f","system_id":"levelo_inurba_marseille","lat":43.21629,"lon":5.34439,"is_reserved":false,"is_disabled":false,"rental_uris":{"android":"levelo://app?vid=149fbe11-3bce-47a0-b584-c7c7bd6bb12f","ios":"levelo://app?vid=149fbe11-3bce-47a0-b584-c7c7bd6bb12f"},"vehicle_type_id":"4","last_reported":1753895531,"current_range_meters":4800,"station_id":"","pricing_plan_id":"cebpf4jnsgd1na2vs0mg"},{"bike_id":"0d6a7874-c1a0-4a9f-a797-d1cb341b0d6a","system_id":"levelo_inurba_marseille","lat":43.29555,"lon":5.42293,"is_reserved":false,"is_disabled":false,"rental_uris":{"android":"levelo://app?vid=0d6a7874-c1a0-4a9f-a797-d1cb341b0d6a","ios":"levelo://app?vid=0d6a7874-c1a0-4a9f-a797-d1cb341b0d6a"},"vehicle_type_id":"4","last_reported":1753895531,"current_range_meters":4800,"station_id":"ce4bhph2rcd13ifvqhdg","pricing_plan_id":"cebpf4jnsgd1na2vs0mg"},{"bike_id":"0ca6e1ef-6979-4dcd-ad8e-4a2634f8d1ff","system_id":"levelo_inurba_marseille","lat":43.25504,"lon":5.37649,"is_reserved":false,"is_disabled":false,"rental_uris":{"android":"levelo://app?vid=0ca6e1ef-6979-4dcd-ad8e-4a2634f8d1ff","ios":"levelo://app?vid=0ca6e1ef-6979-4dcd-ad8e-4a2634f8d1ff"},"vehicle_type_id":"4","last_reported":1753895531,"current_range_meters":4800,"station_id":"ce4bhh12rcd13ifvqff0","pricing_plan_id":"cebpf4jnsgd1na2vs0mg"},{"bike_id":"882bdff1-651a-41c1-9ab0-596f43205cf1","system_id":"levelo_inurba_marseille","lat":43.337444,"lon":5.374475,"is_reserved":false,"is_disabled":false,"rental_uris":{"android":"levelo://app?vid=882bdff1-651a-41c1-9ab0-596f43205cf1","ios":"levelo://app?vid=882bdff1-651a-41c1-9ab0-596f43205cf1"},"vehicle_type_id":"4","last_reported":1753895531,"current_range_meters":5600,"station_id":"ce4bgkp2rcd13ifvqbmg","pricing_plan_id":"cebpf4jnsgd1na2vs0mg"},{"bike_id":"c2087c0c-8dcc-4d9e-9f8d-148c9b401206","system_id":"levelo_inurba_marseille","lat":43.23163,"lon":5.43697,"is_reserved":false,"is_disabled":false,"rental_uris":{"android":"levelo://app?vid=c2087c0c-8dcc-4d9e-9f8d-148c9b401206","ios":"levelo://app?vid=c2087c0c-8dcc-4d9e-9f8d-148c9b401206"},"vehicle_type_id":"4","last_reported":1753895531,"current_range_meters":5600,"station_id":"ce4bhmp2rcd13ifvqgog","pricing_plan_id":"cebpf4jnsgd1na2vs0mg"},{"bike_id":"1292cbbc-4692-4219-8425-e1ceec04d9fd","system_id":"levelo_inurba_marseille","lat":43.295319,"lon":5.385405,"is_reserved":false,"is_disabled":false,"rental_uris":{"android":"levelo://app?vid=1292cbbc-4692-4219-8425-e1ceec04d9fd","ios":"levelo://app?vid=1292cbbc-4692-4219-8425-e1ceec04d9fd"},"vehicle_type_id":"4","last_reported":1753895531,"current_range_meters":10800,"station_id":"ce4bgih2rcd13ifvqba0","pricing_plan_id":"cebpf4jnsgd1na2vs0mg"},{"bike_id":"9c449c61-5fa7-4ee0-aaf8-258e47dd8bca","system_id":"levelo_inurba_marseille","lat":43.28269,"lon":5.35057,"is_reserved":false,"is_disabled":false,"rental_uris":{"android":"levelo://app?vid=9c449c61-5fa7-4ee0-aaf8-258e47dd8bca","ios":"levelo://app?vid=9c449c61-5fa7-4ee0-aaf8-258e47dd8bca"},"vehicle_type_id":"4","last_reported":1753895531,"current_range_meters":6000,"station_id":"ce4bhbp2rcd13ifvqerg","pricing_plan_id":"cebpf4jnsgd1na2vs0mg"},{"bike_id":"d4b0442d-37e3-4887-8827-87b59f4e9086","system_id":"levelo_inurba_marseille","lat":43.2977,"lon":5.38108,"is_reserved":false,"is_disabled":false,"rental_uris":{"android":"levelo://app?vid=d4b0442d-37e3-4887-8827-87b59f4e9086","ios":"levelo://app?vid=d4b0442d-37e3-4887-8827-87b59f4e9086"},"vehicle_type_id":"4","last_reported":1753895531,"current_range_meters":6000,"station_id":"","pricing_plan_id":"cebpf4jnsgd1na2vs0mg"},{"bike_id":"0efbed23-7971-437f-bf4f-ee86f8454b01","system_id":"levelo_inurba_marseille","lat":43.26213,"lon":5.3744,"is_reserved":false,"is_disabled":false,"rental_uris":{"android":"levelo://app?vid=0efbed23-7971-437f-bf4f-ee86f8454b01","ios":"levelo://app?vid=0efbed23-7971-437f-bf4f-ee86f8454b01"},"vehicle_type_id":"4","last_reported":1753895531,"current_range_meters":6000,"station_id":"ce4bhgp2rcd13ifvqfc0","pricing_plan_id":"cebpf4jnsgd1na2vs0mg"},{"bike_id":"e894d416-072d-40a4-b489-10f61c815b0f","system_id":"levelo_inurba_marseille","lat":43.29844,"lon":5.36269,"is_reserved":false,"is_disabled":false,"rental_uris":{"android":"levelo://app?vid=e894d416-072d-40a4-b489-10f61c815b0f","ios":"levelo://app?vid=e894d416-072d-40a4-b489-10f61c815b0f"},"vehicle_type_id":"4","last_reported":1753895531,"current_range_meters":6000,"station_id":"ce4bgpp2rcd13ifvqc3g","pricing_plan_id":"cebpf4jnsgd1na2vs0mg"},{"bike_id":"bbb1fb9b-6209-4cfd-8154-65c3a1c836ca","system_id":"levelo_inurba_marseille","lat":43.28269,"lon":5.35054,"is_reserved":false,"is_disabled":false,"rental_uris":{"android":"levelo://app?vid=bbb1fb9b-6209-4cfd-8154-65c3a1c836ca","ios":"levelo://app?vid=bbb1fb9b-6209-4cfd-8154-65c3a1c836ca"},"vehicle_type_id":"4","last_reported":1753895531,"current_range_meters":6000,"station_id":"ce4bhbp2rcd13ifvqerg","pricing_plan_id":"cebpf4jnsgd1na2vs0mg"},{"bike_id":"c371163e-1c36-4f72-9cb2-d0f3f2b58eb5","system_id":"levelo_inurba_marseille","lat":43.28482,"lon":5.3842,"is_reserved":false,"is_disabled":false,"rental_uris":{"android":"levelo://app?vid=c371163e-1c36-4f72-9cb2-d0f3f2b58eb5","ios":"levelo://app?vid=c371163e-1c36-4f72-9cb2-d0f3f2b58eb5"},"vehicle_type_id":"4","last_reported":1753895531,"current_range_meters":6400,"station_id":"ce4bh512rcd13ifvqe3g","pricing_plan_id":"cebpf4jnsgd1na2vs0mg"},{"bike_id":"2bff2ebe-ff50-45e9-bf70-18aa642b8b11","system_id":"levelo_inurba_marseille","lat":43.23066,"lon":5.3549,"is_reserved":false,"is_disabled":false,"rental_uris":{"android":"levelo://app?vid=2bff2ebe-ff50-45e9-bf70-18aa642b8b11","ios":"levelo://app?vid=2bff2ebe-ff50-45e9-bf70-18aa642b8b11"},"vehicle_type_id":"4","last_reported":1753895531,"current_range_meters":6400,"station_id":"cpo3342slgdg3j2ifvpg","pricing_plan_id":"cebpf4jnsgd1na2vs0mg"},{"bike_id":"8586ad1f-e918-47a8-b5c4-3da966c823ac","system_id":"levelo_inurba_marseille","lat":43.23073,"lon":5.35507,"is_reserved":false,"is_disabled":false,"rental_uris":{"android":"levelo://app?vid=8586ad1f-e918-47a8-b5c4-3da966c823ac","ios":"levelo://app?vid=8586ad1f-e918-47a8-b5c4-3da966c823ac"},"vehicle_type_id":"4","last_reported":1753895531,"current_range_meters":6400,"station_id":"cpo3342slgdg3j2ifvpg","pricing_plan_id":"cebpf4jnsgd1na2vs0mg"},{"bike_id":"3466477e-f4c3-49b5-a0c0-13b50a68d12e","system_id":"levelo_inurba_marseille","lat":43.29523,"lon":5.394027,"is_reserved":false,"is_disabled":false,"rental_uris":{"android":"levelo://app?vid=3466477e-f4c3-49b5-a0c0-13b50a68d12e","ios":"levelo://app?vid=3466477e-f4c3-49b5-a0c0-13b50a68d12e"},"vehicle_type_id":"4","last_reported":1753895531,"current_range_meters":6400,"station_id":"ce4bh292rcd13ifvqdf0","pricing_plan_id":"cebpf4jnsgd1na2vs0mg"},{"bike_id":"6902ce40-c797-4949-99a6-a4695ffd7387","system_id":"levelo_inurba_marseille","lat":43.30254,"lon":5.40073,"is_reserved":false,"is_disabled":false,"rental_uris":{"android":"levelo://app?vid=6902ce40-c797-4949-99a6-a4695ffd7387","ios":"levelo://app?vid=6902ce40-c797-4949-99a6-a4695ffd7387"},"vehicle_type_id":"4","last_reported":1753895531,"current_range_meters":6400,"station_id":"ce4bgvh2rcd13ifvqcs0","pricing_plan_id":"cebpf4jnsgd1na2vs0mg"},{"bike_id":"bf0ad5b4-65de-4da0-aa64-b1413e827342","system_id":"levelo_inurba_marseille","lat":43.28405,"lon":5.37509,"is_reserved":false,"is_disabled":false,"rental_uris":{"android":"levelo://app?vid=bf0ad5b4-65de-4da0-aa64-b1413e827342","ios":"levelo://app?vid=bf0ad5b4-65de-4da0-aa64-b1413e827342"},"vehicle_type_id":"4","last_reported":1753895531,"current_range_meters":6400,"station_id":"ce4bh412rcd13ifvqds0","pricing_plan_id":"cebpf4jnsgd1na2vs0mg"},{"bike_id":"37fcf059-83b8-4b6e-bc28-0c83f77e3c05","system_id":"levelo_inurba_marseille","lat":43.22557,"lon":5.34759,"is_reserved":false,"is_disabled":false,"rental_uris":{"android":"levelo://app?vid=37fcf059-83b8-4b6e-bc28-0c83f77e3c05","ios":"levelo://app?vid=37fcf059-83b8-4b6e-bc28-0c83f77e3c05"},"vehicle_type_id":"4","last_reported":1753895531,"current_range_meters":6400,"station_id":"","pricing_plan_id":"cebpf4jnsgd1na2vs0mg"},{"bike_id":"6990e6e5-3263-4836-8244-153b8784a1bb","system_id":"levelo_inurba_marseille","lat":43.29002,"lon":5.35609,"is_reserved":false,"is_disabled":false,"rental_uris":{"android":"levelo://app?vid=6990e6e5-3263-4836-8244-153b8784a1bb","ios":"levelo://app?vid=6990e6e5-3263-4836-8244-153b8784a1bb"},"vehicle_type_id":"4","last_reported":1753895531,"current_range_meters":6400,"station_id":"ce4bhb92rcd13ifvqen0","pricing_plan_id":"cebpf4jnsgd1na2vs0mg"},{"bike_id":"7e4a0d00-0d9a-4f5f-84b1-5c2ccf9f1b2f","system_id":"levelo_inurba_marseille","lat":43.3206,"lon":5.41568,"is_reserved":false,"is_disabled":true,"rental_uris":{"android":"levelo://app?vid=7e4a0d00-0d9a-4f5f-84b1-5c2ccf9f1b2f","ios":"levelo://app?vid=7e4a0d00-0d9a-4f5f-84b1-5c2ccf9f1b2f"},"vehicle_type_id":"4","last_reported":1753895531,"current_range_meters":6800,"station_id":"ce4bhq92rcd13ifvqhkg","pricing_plan_id":"cebpf4jnsgd1na2vs0mg"},{"bike_id":"c9e5cf98-36fd-4b86-b6b1-31cf99619f3e","system_id":"levelo_inurba_marseille","lat":43.23181,"lon":5.400041,"is_reserved":false,"is_disabled":true,"rental_uris":{"android":"levelo://app?vid=c9e5cf98-36fd-4b86-b6b1-31cf99619f3e","ios":"levelo://app?vid=c9e5cf98-36fd-4b86-b6b1-31cf99619f3e"},"vehicle_type_id":"4","last_reported":1753895531,"current_range_meters":6800,"station_id":"ce4bhn12rcd13ifvqgqg","pricing_plan_id":"cebpf4jnsgd1na2vs0mg"},{"bike_id":"773a2503-609f-4bad-a1c3-11c97bbd6d39","system_id":"levelo_inurba_marseille","lat":43.21748,"lon":5.34604,"is_reserved":false,"is_disabled":false,"rental_uris":{"android":"levelo://app?vid=773a2503-609f-4bad-a1c3-11c97bbd6d39","ios":"levelo://app?vid=773a2503-609f-4bad-a1c3-11c97bbd6d39"},"vehicle_type_id":"4","last_reported":1753895531,"current_range_meters":6800,"station_id":"","pricing_plan_id":"cebpf4jnsgd1na2vs0mg"},{"bike_id":"0e961d94-060f-4288-ae6e-408e51167b75","system_id":"levelo_inurba_marseille","lat":43.28414,"lon":5.34983,"is_reserved":false,"is_disabled":false,"rental_uris":{"android":"levelo://app?vid=0e961d94-060f-4288-ae6e-408e51167b75","ios":"levelo://app?vid=0e961d94-060f-4288-ae6e-408e51167b75"},"vehicle_type_id":"4","last_reported":1753895531,"current_range_meters":6800,"station_id":"ce4bhbh2rcd13ifvqepg","pricing_plan_id":"cebpf4jnsgd1na2vs0mg"},{"bike_id":"cef49d89-e922-4b94-916b-05ab6430c98c","system_id":"levelo_inurba_marseille","lat":43.27061,"lon":5.40252,"is_reserved":false,"is_disabled":false,"rental_uris":{"android":"levelo://app?vid=cef49d89-e922-4b94-916b-05ab6430c98c","ios":"levelo://app?vid=cef49d89-e922-4b94-916b-05ab6430c98c"},"vehicle_type_id":"4","last_reported":1753895531,"current_range_meters":6800,"station_id":"ce4bhk92rcd13ifvqgc0","pricing_plan_id":"cebpf4jnsgd1na2vs0mg"},{"bike_id":"cbe4d0ea-fd7d-4ab2-afba-0721bcd3c808","system_id":"levelo_inurba_marseille","lat":43.29264,"lon":5.36848,"is_reserved":false,"is_disabled":false,"rental_uris":{"android":"levelo://app?vid=cbe4d0ea-fd7d-4ab2-afba-0721bcd3c808","ios":"levelo://app?vid=cbe4d0ea-fd7d-4ab2-afba-0721bcd3c808"},"vehicle_type_id":"4","last_reported":1753895531,"current_range_meters":6800,"station_id":"ce4bhbp2rcd13ifvqesg","pricing_plan_id":"cebpf4jnsgd1na2vs0mg"},{"bike_id":"ec701ace-2a84-4d1a-8d49-669848d98ce5","system_id":"levelo_inurba_marseille","lat":43.29285,"lon":5.36838,"is_reserved":false,"is_disabled":false,"rental_uris":{"android":"levelo://app?vid=ec701ace-2a84-4d1a-8d49-669848d98ce5","ios":"levelo://app?vid=ec701ace-2a84-4d1a-8d49-669848d98ce5"},"vehicle_type_id":"4","last_reported":1753895531,"current_range_meters":8000,"station_id":"ce4bhbp2rcd13ifvqesg","pricing_plan_id":"cebpf4jnsgd1na2vs0mg"},{"bike_id":"b5e469a6-8e8f-4b1a-91cc-e9f6f04151ad","system_id":"levelo_inurba_marseille","lat":43.29588,"lon":5.4368,"is_reserved":false,"is_disabled":false,"rental_uris":{"android":"levelo://app?vid=b5e469a6-8e8f-4b1a-91cc-e9f6f04151ad","ios":"levelo://app?vid=b5e469a6-8e8f-4b1a-91cc-e9f6f04151ad"},"vehicle_type_id":"4","last_reported":1753895531,"current_range_meters":8000,"station_id":"","pricing_plan_id":"cebpf4jnsgd1na2vs0mg"},{"bike_id":"7381cb9d-526b-45e3-bb4c-264bd0280534","system_id":"levelo_inurba_marseille","lat":43.29298,"lon":5.37461,"is_reserved":false,"is_disabled":false,"rental_uris":{"android":"levelo://app?vid=7381cb9d-526b-45e3-bb4c-264bd0280534","ios":"levelo://app?vid=7381cb9d-526b-45e3-bb4c-264bd0280534"},"vehicle_type_id":"4","last_reported":1753895531,"current_range_meters":8000,"station_id":"ce4bgi12rcd13ifvqb70","pricing_plan_id":"cebpf4jnsgd1na2vs0mg"},{"bike_id":"2527e0e5-c0f9-4d29-a510-27152f699e31","system_id":"levelo_inurba_marseille","lat":43.31117,"lon":5.37762,"is_reserved":false,"is_disabled":false,"rental_uris":{"android":"levelo://app?vid=2527e0e5-c0f9-4d29-a510-27152f699e31","ios":"levelo://app?vid=2527e0e5-c0f9-4d29-a510-27152f699e31"},"vehicle_type_id":"4","last_reported":1753895531,"current_range_meters":8000,"station_id":"ce4bgt92rcd13ifvqcg0","pricing_plan_id":"cebpf4jnsgd1na2vs0mg"},{"bike_id":"32915d97-cce3-43fa-ae6a-9fdd611af3ef","system_id":"levelo_inurba_marseille","lat":43.27063,"lon":5.40254,"is_reserved":false,"is_disabled":false,"rental_uris":{"android":"levelo://app?vid=32915d97-cce3-43fa-ae6a-9fdd611af3ef","ios":"levelo://app?vid=32915d97-cce3-43fa-ae6a-9fdd611af3ef"},"vehicle_type_id":"4","last_reported":1753895531,"current_range_meters":8400,"station_id":"ce4bhk92rcd13ifvqgc0","pricing_plan_id":"cebpf4jnsgd1na2vs0mg"},{"bike_id":"9818ef69-6384-47a8-bddd-5e6e8118d15c","system_id":"levelo_inurba_marseille","lat":43.30367,"lon":5.42491,"is_reserved":false,"is_disabled":false,"rental_uris":{"android":"levelo://app?vid=9818ef69-6384-47a8-bddd-5e6e8118d15c","ios":"levelo://app?vid=9818ef69-6384-47a8-bddd-5e6e8118d15c"},"vehicle_type_id":"4","last_reported":1753895531,"current_range_meters":8400,"station_id":"ce4bhoh2rcd13ifvqh6g","pricing_plan_id":"cebpf4jnsgd1na2vs0mg"},{"bike_id":"b0f2b2c1-b378-4164-a22b-6eceaa434acc","system_id":"levelo_inurba_marseille","lat":43.29247,"lon":5.42674,"is_reserved":false,"is_disabled":false,"rental_uris":{"android":"levelo://app?vid=b0f2b2c1-b378-4164-a22b-6eceaa434acc","ios":"levelo://app?vid=b0f2b2c1-b378-4164-a22b-6eceaa434acc"},"vehicle_type_id":"4","last_reported":1753895531,"current_range_meters":8400,"station_id":"","pricing_plan_id":"cebpf4jnsgd1na2vs0mg"},{"bike_id":"0dc99cab-1546-4588-8ef9-e9c6ae8e0a6f","system_id":"levelo_inurba_marseille","lat":43.23056,"lon":5.35492,"is_reserved":false,"is_disabled":true,"rental_uris":{"android":"levelo://app?vid=0dc99cab-1546-4588-8ef9-e9c6ae8e0a6f","ios":"levelo://app?vid=0dc99cab-1546-4588-8ef9-e9c6ae8e0a6f"},"vehicle_type_id":"4","last_reported":1753895531,"current_range_meters":8400,"station_id":"cpo3342slgdg3j2ifvpg","pricing_plan_id":"cebpf4jnsgd1na2vs0mg"},{"bike_id":"aed6dd0a-432a-499e-bed3-6b3e80be76a0","system_id":"levelo_inurba_marseille","lat":43.25821,"lon":5.39439,"is_reserved":false,"is_disabled":false,"rental_uris":{"android":"levelo://app?vid=aed6dd0a-432a-499e-bed3-6b3e80be76a0","ios":"levelo://app?vid=aed6dd0a-432a-499e-bed3-6b3e80be76a0"},"vehicle_type_id":"4","last_reported":1753895531,"current_range_meters":8400,"station_id":"ce4bhip2rcd13ifvqft0","pricing_plan_id":"cebpf4jnsgd1na2vs0mg"},{"bike_id":"ea017aba-6af6-46ef-88a7-8467708524ee","system_id":"levelo_inurba_marseille","lat":43.21212,"lon":5.35055,"is_reserved":false,"is_disabled":false,"rental_uris":{"android":"levelo://app?vid=ea017aba-6af6-46ef-88a7-8467708524ee","ios":"levelo://app?vid=ea017aba-6af6-46ef-88a7-8467708524ee"},"vehicle_type_id":"4","last_reported":1753895531,"current_range_meters":8800,"station_id":"st_cvj6sg6p6f1abm77japg","pricing_plan_id":"cebpf4jnsgd1na2vs0mg"},{"bike_id":"e69ea024-18ac-4978-b1a2-4d335d20991a","system_id":"levelo_inurba_marseille","lat":43.29057,"lon":5.35895,"is_reserved":false,"is_disabled":false,"rental_uris":{"android":"levelo://app?vid=e69ea024-18ac-4978-b1a2-4d335d20991a","ios":"levelo://app?vid=e69ea024-18ac-4978-b1a2-4d335d20991a"},"vehicle_type_id":"4","last_reported":1753895531,"current_range_meters":8800,"station_id":"ce4bha92rcd13ifvqeg0","pricing_plan_id":"cebpf4jnsgd1na2vs0mg"},{"bike_id":"e137dc03-26cf-440c-b3ea-1ea522645199","system_id":"levelo_inurba_marseille","lat":43.280815,"lon":5.396626,"is_reserved":false,"is_disabled":false,"rental_uris":{"android":"levelo://app?vid=e137dc03-26cf-440c-b3ea-1ea522645199","ios":"levelo://app?vid=e137dc03-26cf-440c-b3ea-1ea522645199"},"vehicle_type_id":"4","last_reported":1753895531,"current_range_meters":8800,"station_id":"","pricing_plan_id":"cebpf4jnsgd1na2vs0mg"},{"bike_id":"52ebcf52-cb46-459b-922d-e752dd6801e6","system_id":"levelo_inurba_marseille","lat":43.25495,"lon":5.3765,"is_reserved":false,"is_disabled":false,"rental_uris":{"android":"levelo://app?vid=52ebcf52-cb46-459b-922d-e752dd6801e6","ios":"levelo://app?vid=52ebcf52-cb46-459b-922d-e752dd6801e6"},"vehicle_type_id":"4","last_reported":1753895531,"current_range_meters":8800,"station_id":"ce4bhh12rcd13ifvqff0","pricing_plan_id":"cebpf4jnsgd1na2vs0mg"},{"bike_id":"5183d42e-85dc-4795-9683-e853461cc68e","system_id":"levelo_inurba_marseille","lat":43.317108,"lon":5.437083,"is_reserved":false,"is_disabled":false,"rental_uris":{"android":"levelo://app?vid=5183d42e-85dc-4795-9683-e853461cc68e","ios":"levelo://app?vid=5183d42e-85dc-4795-9683-e853461cc68e"},"vehicle_type_id":"4","last_reported":1753895531,"current_range_meters":9200,"station_id":"ce4bhp92rcd13ifvqhcg","pricing_plan_id":"cebpf4jnsgd1na2vs0mg"},{"bike_id":"50967a6d-ed9f-400a-8663-bf8a7ab2daa5","system_id":"levelo_inurba_marseille","lat":43.30426,"lon":5.39739,"is_reserved":false,"is_disabled":false,"rental_uris":{"android":"levelo://app?vid=50967a6d-ed9f-400a-8663-bf8a7ab2daa5","ios":"levelo://app?vid=50967a6d-ed9f-400a-8663-bf8a7ab2daa5"},"vehicle_type_id":"4","last_reported":1753895531,"current_range_meters":9200,"station_id":"ce4bh092rcd13ifvqd20","pricing_plan_id":"cebpf4jnsgd1na2vs0mg"},{"bike_id":"f0eb0d21-8b26-408f-8578-d1459120675a","system_id":"levelo_inurba_marseille","lat":43.260315,"lon":5.375507,"is_reserved":false,"is_disabled":false,"rental_uris":{"android":"levelo://app?vid=f0eb0d21-8b26-408f-8578-d1459120675a","ios":"levelo://app?vid=f0eb0d21-8b26-408f-8578-d1459120675a"},"vehicle_type_id":"4","last_reported":1753895531,"current_range_meters":9200,"station_id":"ce4bhgh2rcd13ifvqfa0","pricing_plan_id":"cebpf4jnsgd1na2vs0mg"},{"bike_id":"49dde59b-0f32-482e-9fe5-7727db7ff936","system_id":"levelo_inurba_marseille","lat":43.29871,"lon":5.36292,"is_reserved":false,"is_disabled":false,"rental_uris":{"android":"levelo://app?vid=49dde59b-0f32-482e-9fe5-7727db7ff936","ios":"levelo://app?vid=49dde59b-0f32-482e-9fe5-7727db7ff936"},"vehicle_type_id":"4","last_reported":1753895531,"current_range_meters":9200,"station_id":"ce4bgpp2rcd13ifvqc3g","pricing_plan_id":"cebpf4jnsgd1na2vs0mg"},{"bike_id":"38579418-837a-4714-baf2-4117aca1d484","system_id":"levelo_inurba_marseille","lat":43.28933,"lon":5.36392,"is_reserved":false,"is_disabled":false,"rental_uris":{"android":"levelo://app?vid=38579418-837a-4714-baf2-4117aca1d484","ios":"levelo://app?vid=38579418-837a-4714-baf2-4117aca1d484"},"vehicle_type_id":"4","last_reported":1753895531,"current_range_meters":9200,"station_id":"ce4bhc92rcd13ifvqetg","pricing_plan_id":"cebpf4jnsgd1na2vs0mg"},{"bike_id":"b53111a0-7e9d-4576-8560-1e1510ee759c","system_id":"levelo_inurba_marseille","lat":43.28406,"lon":5.34982,"is_reserved":false,"is_disabled":false,"rental_uris":{"android":"levelo://app?vid=b53111a0-7e9d-4576-8560-1e1510ee759c","ios":"levelo://app?vid=b53111a0-7e9d-4576-8560-1e1510ee759c"},"vehicle_type_id":"4","last_reported":1753895531,"current_range_meters":9200,"station_id":"ce4bhbh2rcd13ifvqepg","pricing_plan_id":"cebpf4jnsgd1na2vs0mg"},{"bike_id":"00de3457-bb26-4f86-be97-d29604933a4d","system_id":"levelo_inurba_marseille","lat":43.28653,"lon":5.37174,"is_reserved":false,"is_disabled":false,"rental_uris":{"android":"levelo://app?vid=00de3457-bb26-4f86-be97-d29604933a4d","ios":"levelo://app?vid=00de3457-bb26-4f86-be97-d29604933a4d"},"vehicle_type_id":"4","last_reported":1753895531,"current_range_meters":9200,"station_id":"","pricing_plan_id":"cebpf4jnsgd1na2vs0mg"},{"bike_id":"5cf9be68-e297-4080-8ccf-412cc317cb6b","system_id":"levelo_inurba_marseille","lat":43.286171,"lon":5.351106,"is_reserved":false,"is_disabled":false,"rental_uris":{"android":"levelo://app?vid=5cf9be68-e297-4080-8ccf-412cc317cb6b","ios":"levelo://app?vid=5cf9be68-e297-4080-8ccf-412cc317cb6b"},"vehicle_type_id":"4","last_reported":1753895531,"current_range_meters":9200,"station_id":"ce4bhch2rcd13ifvqeug","pricing_plan_id":"cebpf4jnsgd1na2vs0mg"},{"bike_id":"350e3c4f-49e3-48a4-973f-127c85f14d8a","system_id":"levelo_inurba_marseille","lat":43.289443,"lon":5.363837,"is_reserved":false,"is_disabled":false,"rental_uris":{"android":"levelo://app?vid=350e3c4f-49e3-48a4-973f-127c85f14d8a","ios":"levelo://app?vid=350e3c4f-49e3-48a4-973f-127c85f14d8a"},"vehicle_type_id":"4","last_reported":1753895531,"current_range_meters":9600,"station_id":"ce4bhc92rcd13ifvqetg","pricing_plan_id":"cebpf4jnsgd1na2vs0mg"},{"bike_id":"87aef864-b934-47f5-b6e7-b0f833d7c3dc","system_id":"levelo_inurba_marseille","lat":43.28404,"lon":5.3751,"is_reserved":false,"is_disabled":false,"rental_uris":{"android":"levelo://app?vid=87aef864-b934-47f5-b6e7-b0f833d7c3dc","ios":"levelo://app?vid=87aef864-b934-47f5-b6e7-b0f833d7c3dc"},"vehicle_type_id":"4","last_reported":1753895531,"current_range_meters":9200,"station_id":"ce4bh412rcd13ifvqds0","pricing_plan_id":"cebpf4jnsgd1na2vs0mg"},{"bike_id":"047e1b1f-9ddf-47ab-b6b3-420e34f602b1","system_id":"levelo_inurba_marseille","lat":43.24996,"lon":5.38928,"is_reserved":false,"is_disabled":false,"rental_uris":{"android":"levelo://app?vid=047e1b1f-9ddf-47ab-b6b3-420e34f602b1","ios":"levelo://app?vid=047e1b1f-9ddf-47ab-b6b3-420e34f602b1"},"vehicle_type_id":"4","last_reported":1753895531,"current_range_meters":9600,"station_id":"ce4bhgp2rcd13ifvqfd0","pricing_plan_id":"cebpf4jnsgd1na2vs0mg"},{"bike_id":"f953cfea-b903-4ec1-9b44-19c5b28d4b19","system_id":"levelo_inurba_marseille","lat":43.28625,"lon":5.3509,"is_reserved":false,"is_disabled":false,"rental_uris":{"android":"levelo://app?vid=f953cfea-b903-4ec1-9b44-19c5b28d4b19","ios":"levelo://app?vid=f953cfea-b903-4ec1-9b44-19c5b28d4b19"},"vehicle_type_id":"4","last_reported":1753895531,"current_range_meters":9600,"station_id":"ce4bhch2rcd13ifvqeug","pricing_plan_id":"cebpf4jnsgd1na2vs0mg"},{"bike_id":"76084e04-2bbb-4867-bc05-a9c20ed29349","system_id":"levelo_inurba_marseille","lat":43.29627,"lon":5.4059,"is_reserved":false,"is_disabled":false,"rental_uris":{"android":"levelo://app?vid=76084e04-2bbb-4867-bc05-a9c20ed29349","ios":"levelo://app?vid=76084e04-2bbb-4867-bc05-a9c20ed29349"},"vehicle_type_id":"4","last_reported":1753895531,"current_range_meters":9200,"station_id":"ce4bh0h2rcd13ifvqd60","pricing_plan_id":"cebpf4jnsgd1na2vs0mg"},{"bike_id":"81537e05-a7ca-47af-a24a-3688867705f1","system_id":"levelo_inurba_marseille","lat":43.27908,"lon":5.3801,"is_reserved":false,"is_disabled":false,"rental_uris":{"android":"levelo://app?vid=81537e05-a7ca-47af-a24a-3688867705f1","ios":"levelo://app?vid=81537e05-a7ca-47af-a24a-3688867705f1"},"vehicle_type_id":"4","last_reported":1753895531,"current_range_meters":9600,"station_id":"ce4bhf92rcd13ifvqf50","pricing_plan_id":"cebpf4jnsgd1na2vs0mg"},{"bike_id":"af02ffc5-2bd6-48c7-8fab-ecfe8bea9713","system_id":"levelo_inurba_marseille","lat":43.289443,"lon":5.363803,"is_reserved":false,"is_disabled":false,"rental_uris":{"android":"levelo://app?vid=af02ffc5-2bd6-48c7-8fab-ecfe8bea9713","ios":"levelo://app?vid=af02ffc5-2bd6-48c7-8fab-ecfe8bea9713"},"vehicle_type_id":"4","last_reported":1753895531,"current_range_meters":10000,"station_id":"ce4bhc92rcd13ifvqetg","pricing_plan_id":"cebpf4jnsgd1na2vs0mg"},{"bike_id":"4b132553-b8a5-440b-8a10-484a6e747ddf","system_id":"levelo_inurba_marseille","lat":43.29098,"lon":5.3813,"is_reserved":false,"is_disabled":false,"rental_uris":{"android":"levelo://app?vid=4b132553-b8a5-440b-8a10-484a6e747ddf","ios":"levelo://app?vid=4b132553-b8a5-440b-8a10-484a6e747ddf"},"vehicle_type_id":"4","last_reported":1753895531,"current_range_meters":9600,"station_id":"ce4bh512rcd13ifvqe2g","pricing_plan_id":"cebpf4jnsgd1na2vs0mg"},{"bike_id":"0e36fba3-4a0e-495d-884f-00d86bc6564b","system_id":"levelo_inurba_marseille","lat":43.33768,"lon":5.37489,"is_reserved":false,"is_disabled":false,"rental_uris":{"android":"levelo://app?vid=0e36fba3-4a0e-495d-884f-00d86bc6564b","ios":"levelo://app?vid=0e36fba3-4a0e-495d-884f-00d86bc6564b"},"vehicle_type_id":"4","last_reported":1753895531,"current_range_meters":10000,"station_id":"","pricing_plan_id":"cebpf4jnsgd1na2vs0mg"},{"bike_id":"8a7df1ab-b21a-4f83-a955-28af99bb7bcb","system_id":"levelo_inurba_marseille","lat":43.28987,"lon":5.35604,"is_reserved":false,"is_disabled":false,"rental_uris":{"android":"levelo://app?vid=8a7df1ab-b21a-4f83-a955-28af99bb7bcb","ios":"levelo://app?vid=8a7df1ab-b21a-4f83-a955-28af99bb7bcb"},"vehicle_type_id":"4","last_reported":1753895531,"current_range_meters":10000,"station_id":"ce4bhb92rcd13ifvqen0","pricing_plan_id":"cebpf4jnsgd1na2vs0mg"},{"bike_id":"b05f914d-159f-4736-bb36-94cd11419961","system_id":"levelo_inurba_marseille","lat":43.246509,"lon":5.388959,"is_reserved":false,"is_disabled":false,"rental_uris":{"android":"levelo://app?vid=b05f914d-159f-4736-bb36-94cd11419961","ios":"levelo://app?vid=b05f914d-159f-4736-bb36-94cd11419961"},"vehicle_type_id":"4","last_reported":1753895531,"current_range_meters":10000,"station_id":"ce4bhg12rcd13ifvqf60","pricing_plan_id":"cebpf4jnsgd1na2vs0mg"},{"bike_id":"b00544ad-5e8e-4cea-b57f-57a5aa1a7782","system_id":"levelo_inurba_marseille","lat":43.29228,"lon":5.36068,"is_reserved":false,"is_disabled":false,"rental_uris":{"android":"levelo://app?vid=b00544ad-5e8e-4cea-b57f-57a5aa1a7782","ios":"levelo://app?vid=b00544ad-5e8e-4cea-b57f-57a5aa1a7782"},"vehicle_type_id":"4","last_reported":1753895531,"current_range_meters":10800,"station_id":"ce4bhbh2rcd13ifvqeqg","pricing_plan_id":"cebpf4jnsgd1na2vs0mg"},{"bike_id":"f3a3489e-6644-4c57-a37a-08a9616ed32f","system_id":"levelo_inurba_marseille","lat":43.2842,"lon":5.34973,"is_reserved":false,"is_disabled":false,"rental_uris":{"android":"levelo://app?vid=f3a3489e-6644-4c57-a37a-08a9616ed32f","ios":"levelo://app?vid=f3a3489e-6644-4c57-a37a-08a9616ed32f"},"vehicle_type_id":"4","last_reported":1753895531,"current_range_meters":10800,"station_id":"ce4bhbh2rcd13ifvqepg","pricing_plan_id":"cebpf4jnsgd1na2vs0mg"},{"bike_id":"1418ae07-4d0e-4901-a7f3-b7c0f907ceb2","system_id":"levelo_inurba_marseille","lat":43.28414,"lon":5.34987,"is_reserved":false,"is_disabled":false,"rental_uris":{"android":"levelo://app?vid=1418ae07-4d0e-4901-a7f3-b7c0f907ceb2","ios":"levelo://app?vid=1418ae07-4d0e-4901-a7f3-b7c0f907ceb2"},"vehicle_type_id":"4","last_reported":1753895531,"current_range_meters":10800,"station_id":"ce4bhbh2rcd13ifvqepg","pricing_plan_id":"cebpf4jnsgd1na2vs0mg"},{"bike_id":"9387d131-a5bf-49bd-b82d-692799561c14","system_id":"levelo_inurba_marseille","lat":43.298,"lon":5.3809,"is_reserved":false,"is_disabled":true,"rental_uris":{"android":"levelo://app?vid=9387d131-a5bf-49bd-b82d-692799561c14","ios":"levelo://app?vid=9387d131-a5bf-49bd-b82d-692799561c14"},"vehicle_type_id":"4","last_reported":1753895531,"current_range_meters":10800,"station_id":"ce4bgip2rcd13ifvqbb0","pricing_plan_id":"cebpf4jnsgd1na2vs0mg"},{"bike_id":"f8c6bb99-ba0d-4469-81d4-5789a8295473","system_id":"levelo_inurba_marseille","lat":43.28402,"lon":5.34992,"is_reserved":false,"is_disabled":false,"rental_uris":{"android":"levelo://app?vid=f8c6bb99-ba0d-4469-81d4-5789a8295473","ios":"levelo://app?vid=f8c6bb99-ba0d-4469-81d4-5789a8295473"},"vehicle_type_id":"4","last_reported":1753895531,"current_range_meters":10800,"station_id":"ce4bhbh2rcd13ifvqepg","pricing_plan_id":"cebpf4jnsgd1na2vs0mg"},{"bike_id":"ea8b0f57-b9f0-45f0-894f-37d453d5d770","system_id":"levelo_inurba_marseille","lat":43.24995,"lon":5.38939,"is_reserved":false,"is_disabled":false,"rental_uris":{"android":"levelo://app?vid=ea8b0f57-b9f0-45f0-894f-37d453d5d770","ios":"levelo://app?vid=ea8b0f57-b9f0-45f0-894f-37d453d5d770"},"vehicle_type_id":"4","last_reported":1753895531,"current_range_meters":10000,"station_id":"ce4bhgp2rcd13ifvqfd0","pricing_plan_id":"cebpf4jnsgd1na2vs0mg"},{"bike_id":"b58e51bd-e407-42e9-8201-1857556cd856","system_id":"levelo_inurba_marseille","lat":43.24665,"lon":5.38166,"is_reserved":false,"is_disabled":false,"rental_uris":{"android":"levelo://app?vid=b58e51bd-e407-42e9-8201-1857556cd856","ios":"levelo://app?vid=b58e51bd-e407-42e9-8201-1857556cd856"},"vehicle_type_id":"4","last_reported":1753895531,"current_range_meters":10800,"station_id":"ce4bhih2rcd13ifvqfr0","pricing_plan_id":"cebpf4jnsgd1na2vs0mg"},{"bike_id":"f8b2f2c6-3403-40e4-b89c-53ff035270cb","system_id":"levelo_inurba_marseille","lat":43.26196,"lon":5.37461,"is_reserved":false,"is_disabled":true,"rental_uris":{"android":"levelo://app?vid=f8b2f2c6-3403-40e4-b89c-53ff035270cb","ios":"levelo://app?vid=f8b2f2c6-3403-40e4-b89c-53ff035270cb"},"vehicle_type_id":"4","last_reported":1753895531,"current_range_meters":11200,"station_id":"ce4bhgp2rcd13ifvqfc0","pricing_plan_id":"cebpf4jnsgd1na2vs0mg"},{"bike_id":"23cb5642-15b1-4dff-8751-77349dab4204","system_id":"levelo_inurba_marseille","lat":43.229379,"lon":5.353825,"is_reserved":false,"is_disabled":false,"rental_uris":{"android":"levelo://app?vid=23cb5642-15b1-4dff-8751-77349dab4204","ios":"levelo://app?vid=23cb5642-15b1-4dff-8751-77349dab4204"},"vehicle_type_id":"4","last_reported":1753895531,"current_range_meters":11200,"station_id":"cpo3532slgdg3j2ikp40","pricing_plan_id":"cebpf4jnsgd1na2vs0mg"},{"bike_id":"02db7cb1-3bde-4001-9009-b776831133b6","system_id":"levelo_inurba_marseille","lat":43.28426,"lon":5.34987,"is_reserved":false,"is_disabled":true,"rental_uris":{"android":"levelo://app?vid=02db7cb1-3bde-4001-9009-b776831133b6","ios":"levelo://app?vid=02db7cb1-3bde-4001-9009-b776831133b6"},"vehicle_type_id":"4","last_reported":1753895531,"current_range_meters":11200,"station_id":"ce4bhbh2rcd13ifvqepg","pricing_plan_id":"cebpf4jnsgd1na2vs0mg"},{"bike_id":"e236d7a4-6073-4d46-aac9-db11371bd360","system_id":"levelo_inurba_marseille","lat":43.28406,"lon":5.34985,"is_reserved":false,"is_disabled":false,"rental_uris":{"android":"levelo://app?vid=e236d7a4-6073-4d46-aac9-db11371bd360","ios":"levelo://app?vid=e236d7a4-6073-4d46-aac9-db11371bd360"},"vehicle_type_id":"4","last_reported":1753895531,"current_range_meters":11200,"station_id":"ce4bhbh2rcd13ifvqepg","pricing_plan_id":"cebpf4jnsgd1na2vs0mg"},{"bike_id":"4f52c37d-a7a8-4bbc-bce4-5b50031539d6","system_id":"levelo_inurba_marseille","lat":43.284221,"lon":5.349953,"is_reserved":false,"is_disabled":false,"rental_uris":{"android":"levelo://app?vid=4f52c37d-a7a8-4bbc-bce4-5b50031539d6","ios":"levelo://app?vid=4f52c37d-a7a8-4bbc-bce4-5b50031539d6"},"vehicle_type_id":"4","last_reported":1753895531,"current_range_meters":11200,"station_id":"ce4bhbh2rcd13ifvqepg","pricing_plan_id":"cebpf4jnsgd1na2vs0mg"},{"bike_id":"58d60ef7-501e-48a0-a97f-c0e09ff3aab0","system_id":"levelo_inurba_marseille","lat":43.222792,"lon":5.345958,"is_reserved":false,"is_disabled":false,"rental_uris":{"android":"levelo://app?vid=58d60ef7-501e-48a0-a97f-c0e09ff3aab0","ios":"levelo://app?vid=58d60ef7-501e-48a0-a97f-c0e09ff3aab0"},"vehicle_type_id":"4","last_reported":1753895531,"current_range_meters":11200,"station_id":"ce4bhp92rcd13ifvqhag","pricing_plan_id":"cebpf4jnsgd1na2vs0mg"},{"bike_id":"f129605f-c561-462b-9dd8-38b1fae764e6","system_id":"levelo_inurba_marseille","lat":43.323678,"lon":5.367668,"is_reserved":false,"is_disabled":false,"rental_uris":{"android":"levelo://app?vid=f129605f-c561-462b-9dd8-38b1fae764e6","ios":"levelo://app?vid=f129605f-c561-462b-9dd8-38b1fae764e6"},"vehicle_type_id":"4","last_reported":1753895531,"current_range_meters":11200,"station_id":"ce4bhsh2rcd13ifvqi2g","pricing_plan_id":"cebpf4jnsgd1na2vs0mg"},{"bike_id":"e14d0197-71db-4cb0-b528-5c5e12d5fba3","system_id":"levelo_inurba_marseille","lat":43.30143,"lon":5.3986,"is_reserved":false,"is_disabled":false,"rental_uris":{"android":"levelo://app?vid=e14d0197-71db-4cb0-b528-5c5e12d5fba3","ios":"levelo://app?vid=e14d0197-71db-4cb0-b528-5c5e12d5fba3"},"vehicle_type_id":"4","last_reported":1753895531,"current_range_meters":11200,"station_id":"ce4bh0h2rcd13ifvqd40","pricing_plan_id":"cebpf4jnsgd1na2vs0mg"},{"bike_id":"a123e3e4-263d-4cdf-a385-b17478a576cc","system_id":"levelo_inurba_marseille","lat":43.33769,"lon":5.3748,"is_reserved":false,"is_disabled":false,"rental_uris":{"android":"levelo://app?vid=a123e3e4-263d-4cdf-a385-b17478a576cc","ios":"levelo://app?vid=a123e3e4-263d-4cdf-a385-b17478a576cc"},"vehicle_type_id":"4","last_reported":1753895531,"current_range_meters":11200,"station_id":"","pricing_plan_id":"cebpf4jnsgd1na2vs0mg"},{"bike_id":"ed64e31f-a7ef-4595-8098-656350b3d8c3","system_id":"levelo_inurba_marseille","lat":43.27566,"lon":5.38425,"is_reserved":false,"is_disabled":true,"rental_uris":{"android":"levelo://app?vid=ed64e31f-a7ef-4595-8098-656350b3d8c3","ios":"levelo://app?vid=ed64e31f-a7ef-4595-8098-656350b3d8c3"},"vehicle_type_id":"4","last_reported":1753895531,"current_range_meters":11200,"station_id":"ce4bhh92rcd13ifvqfi0","pricing_plan_id":"cebpf4jnsgd1na2vs0mg"},{"bike_id":"4252eda6-cf7b-46c1-b1f5-b7f741dcb54f","system_id":"levelo_inurba_marseille","lat":43.30129,"lon":5.39846,"is_reserved":false,"is_disabled":false,"rental_uris":{"android":"levelo://app?vid=4252eda6-cf7b-46c1-b1f5-b7f741dcb54f","ios":"levelo://app?vid=4252eda6-cf7b-46c1-b1f5-b7f741dcb54f"},"vehicle_type_id":"4","last_reported":1753895531,"current_range_meters":11200,"station_id":"ce4bh0h2rcd13ifvqd40","pricing_plan_id":"cebpf4jnsgd1na2vs0mg"},{"bike_id":"204d982f-fcf2-47f8-8cb7-fc5a81f32735","system_id":"levelo_inurba_marseille","lat":43.30189,"lon":5.36617,"is_reserved":false,"is_disabled":false,"rental_uris":{"android":"levelo://app?vid=204d982f-fcf2-47f8-8cb7-fc5a81f32735","ios":"levelo://app?vid=204d982f-fcf2-47f8-8cb7-fc5a81f32735"},"vehicle_type_id":"4","last_reported":1753895531,"current_range_meters":11200,"station_id":"ce4bgrh2rcd13ifvqc8g","pricing_plan_id":"cebpf4jnsgd1na2vs0mg"},{"bike_id":"5fdeab66-ff2a-4660-8fe8-cacaa04824fe","system_id":"levelo_inurba_marseille","lat":43.28941,"lon":5.363976,"is_reserved":false,"is_disabled":false,"rental_uris":{"android":"levelo://app?vid=5fdeab66-ff2a-4660-8fe8-cacaa04824fe","ios":"levelo://app?vid=5fdeab66-ff2a-4660-8fe8-cacaa04824fe"},"vehicle_type_id":"4","last_reported":1753895531,"current_range_meters":11200,"station_id":"ce4bhc92rcd13ifvqetg","pricing_plan_id":"cebpf4jnsgd1na2vs0mg"},{"bike_id":"fbb3198c-0c9c-4185-820b-f63b60f2df93","system_id":"levelo_inurba_marseille","lat":43.299335,"lon":5.38627,"is_reserved":false,"is_disabled":false,"rental_uris":{"android":"levelo://app?vid=fbb3198c-0c9c-4185-820b-f63b60f2df93","ios":"levelo://app?vid=fbb3198c-0c9c-4185-820b-f63b60f2df93"},"vehicle_type_id":"4","last_reported":1753895531,"current_range_meters":11600,"station_id":"ce4bh092rcd13ifvqd30","pricing_plan_id":"cebpf4jnsgd1na2vs0mg"},{"bike_id":"62d4cd75-9ca4-4b9e-8167-82d792300b49","system_id":"levelo_inurba_marseille","lat":43.29297,"lon":5.37464,"is_reserved":false,"is_disabled":false,"rental_uris":{"android":"levelo://app?vid=62d4cd75-9ca4-4b9e-8167-82d792300b49","ios":"levelo://app?vid=62d4cd75-9ca4-4b9e-8167-82d792300b49"},"vehicle_type_id":"4","last_reported":1753895531,"current_range_meters":11600,"station_id":"ce4bgi12rcd13ifvqb70","pricing_plan_id":"cebpf4jnsgd1na2vs0mg"},{"bike_id":"7b042e95-8f69-4372-8517-2be9ac18ee04","system_id":"levelo_inurba_marseille","lat":43.28261,"lon":5.35059,"is_reserved":false,"is_disabled":false,"rental_uris":{"android":"levelo://app?vid=7b042e95-8f69-4372-8517-2be9ac18ee04","ios":"levelo://app?vid=7b042e95-8f69-4372-8517-2be9ac18ee04"},"vehicle_type_id":"4","last_reported":1753895531,"current_range_meters":11600,"station_id":"ce4bhbp2rcd13ifvqerg","pricing_plan_id":"cebpf4jnsgd1na2vs0mg"},{"bike_id":"c114445b-3799-4a9d-a3db-2e51f3e801fd","system_id":"levelo_inurba_marseille","lat":43.300878,"lon":5.390884,"is_reserved":false,"is_disabled":false,"rental_uris":{"android":"levelo://app?vid=c114445b-3799-4a9d-a3db-2e51f3e801fd","ios":"levelo://app?vid=c114445b-3799-4a9d-a3db-2e51f3e801fd"},"vehicle_type_id":"4","last_reported":1753895531,"current_range_meters":11600,"station_id":"ce4bh192rcd13ifvqdb0","pricing_plan_id":"cebpf4jnsgd1na2vs0mg"},{"bike_id":"ddbf7cbf-7599-4d07-a824-543abedeac9b","system_id":"levelo_inurba_marseille","lat":43.29693,"lon":5.37363,"is_reserved":false,"is_disabled":false,"rental_uris":{"android":"levelo://app?vid=ddbf7cbf-7599-4d07-a824-543abedeac9b","ios":"levelo://app?vid=ddbf7cbf-7599-4d07-a824-543abedeac9b"},"vehicle_type_id":"4","last_reported":1753895531,"current_range_meters":11600,"station_id":"","pricing_plan_id":"cebpf4jnsgd1na2vs0mg"},{"bike_id":"25f5e87a-1aa5-4a05-8033-ce8775e37785","system_id":"levelo_inurba_marseille","lat":43.31359,"lon":5.38487,"is_reserved":false,"is_disabled":false,"rental_uris":{"android":"levelo://app?vid=25f5e87a-1aa5-4a05-8033-ce8775e37785","ios":"levelo://app?vid=25f5e87a-1aa5-4a05-8033-ce8775e37785"},"vehicle_type_id":"4","last_reported":1753895531,"current_range_meters":11600,"station_id":"ce4bgt92rcd13ifvqcf0","pricing_plan_id":"cebpf4jnsgd1na2vs0mg"},{"bike_id":"056e4f3d-4ab7-42da-9834-2ca05b8a0f52","system_id":"levelo_inurba_marseille","lat":43.31497,"lon":5.36815,"is_reserved":false,"is_disabled":false,"rental_uris":{"android":"levelo://app?vid=056e4f3d-4ab7-42da-9834-2ca05b8a0f52","ios":"levelo://app?vid=056e4f3d-4ab7-42da-9834-2ca05b8a0f52"},"vehicle_type_id":"4","last_reported":1753895531,"current_range_meters":11600,"station_id":"","pricing_plan_id":"cebpf4jnsgd1na2vs0mg"},{"bike_id":"7fc208ed-e911-4d82-a986-8e995f97f293","system_id":"levelo_inurba_marseille","lat":43.28282,"lon":5.35054,"is_reserved":false,"is_disabled":false,"rental_uris":{"android":"levelo://app?vid=7fc208ed-e911-4d82-a986-8e995f97f293","ios":"levelo://app?vid=7fc208ed-e911-4d82-a986-8e995f97f293"},"vehicle_type_id":"4","last_reported":1753895531,"current_range_meters":11600,"station_id":"ce4bhbp2rcd13ifvqerg","pricing_plan_id":"cebpf4jnsgd1na2vs0mg"},{"bike_id":"6c530f22-14a5-4ecf-b312-4642c2d6b9fb","system_id":"levelo_inurba_marseille","lat":43.28273,"lon":5.35061,"is_reserved":false,"is_disabled":false,"rental_uris":{"android":"levelo://app?vid=6c530f22-14a5-4ecf-b312-4642c2d6b9fb","ios":"levelo://app?vid=6c530f22-14a5-4ecf-b312-4642c2d6b9fb"},"vehicle_type_id":"4","last_reported":1753895531,"current_range_meters":11600,"station_id":"ce4bhbp2rcd13ifvqerg","pricing_plan_id":"cebpf4jnsgd1na2vs0mg"},{"bike_id":"135ab1ea-fc9a-4785-9240-6bfa3adf7c7c","system_id":"levelo_inurba_marseille","lat":43.32258,"lon":5.36635,"is_reserved":false,"is_disabled":false,"rental_uris":{"android":"levelo://app?vid=135ab1ea-fc9a-4785-9240-6bfa3adf7c7c","ios":"levelo://app?vid=135ab1ea-fc9a-4785-9240-6bfa3adf7c7c"},"vehicle_type_id":"4","last_reported":1753895531,"current_range_meters":12000,"station_id":"","pricing_plan_id":"cebpf4jnsgd1na2vs0mg"},{"bike_id":"85d95a9a-bae1-4127-a50f-dff98ce29fd5","system_id":"levelo_inurba_marseille","lat":43.32486,"lon":5.37376,"is_reserved":false,"is_disabled":false,"rental_uris":{"android":"levelo://app?vid=85d95a9a-bae1-4127-a50f-dff98ce29fd5","ios":"levelo://app?vid=85d95a9a-bae1-4127-a50f-dff98ce29fd5"},"vehicle_type_id":"4","last_reported":1753895531,"current_range_meters":12000,"station_id":"","pricing_plan_id":"cebpf4jnsgd1na2vs0mg"},{"bike_id":"072f7e33-9d1a-42d7-b453-415fda76b311","system_id":"levelo_inurba_marseille","lat":43.28269,"lon":5.35062,"is_reserved":false,"is_disabled":false,"rental_uris":{"android":"levelo://app?vid=072f7e33-9d1a-42d7-b453-415fda76b311","ios":"levelo://app?vid=072f7e33-9d1a-42d7-b453-415fda76b311"},"vehicle_type_id":"4","last_reported":1753895531,"current_range_meters":12000,"station_id":"ce4bhbp2rcd13ifvqerg","pricing_plan_id":"cebpf4jnsgd1na2vs0mg"},{"bike_id":"24487962-e38e-4458-84b1-528d24dc3722","system_id":"levelo_inurba_marseille","lat":43.25715,"lon":5.41121,"is_reserved":false,"is_disabled":false,"rental_uris":{"android":"levelo://app?vid=24487962-e38e-4458-84b1-528d24dc3722","ios":"levelo://app?vid=24487962-e38e-4458-84b1-528d24dc3722"},"vehicle_type_id":"4","last_reported":1753895531,"current_range_meters":12000,"station_id":"ce4bhkp2rcd13ifvqgd0","pricing_plan_id":"cebpf4jnsgd1na2vs0mg"},{"bike_id":"43d63219-1aa2-4c91-90fe-88b28ddfbee3","system_id":"levelo_inurba_marseille","lat":43.29035,"lon":5.3813,"is_reserved":false,"is_disabled":true,"rental_uris":{"android":"levelo://app?vid=43d63219-1aa2-4c91-90fe-88b28ddfbee3","ios":"levelo://app?vid=43d63219-1aa2-4c91-90fe-88b28ddfbee3"},"vehicle_type_id":"4","last_reported":1753895531,"current_range_meters":12000,"station_id":"ce4bh4p2rcd13ifvqe1g","pricing_plan_id":"cebpf4jnsgd1na2vs0mg"},{"bike_id":"a6a46ae2-d764-44ee-baf2-a76e49bd9084","system_id":"levelo_inurba_marseille","lat":43.269885,"lon":5.403049,"is_reserved":false,"is_disabled":false,"rental_uris":{"android":"levelo://app?vid=a6a46ae2-d764-44ee-baf2-a76e49bd9084","ios":"levelo://app?vid=a6a46ae2-d764-44ee-baf2-a76e49bd9084"},"vehicle_type_id":"4","last_reported":1753895531,"current_range_meters":12000,"station_id":"","pricing_plan_id":"cebpf4jnsgd1na2vs0mg"},{"bike_id":"8f41ed9d-1778-4af7-b2ad-fd1607beff4e","system_id":"levelo_inurba_marseille","lat":43.22521,"lon":5.34773,"is_reserved":false,"is_disabled":false,"rental_uris":{"android":"levelo://app?vid=8f41ed9d-1778-4af7-b2ad-fd1607beff4e","ios":"levelo://app?vid=8f41ed9d-1778-4af7-b2ad-fd1607beff4e"},"vehicle_type_id":"4","last_reported":1753895531,"current_range_meters":12000,"station_id":"st_cvj5dfep6f1abm77gieg","pricing_plan_id":"cebpf4jnsgd1na2vs0mg"},{"bike_id":"fb30b846-de5a-499a-a976-5656aa4d0f7d","system_id":"levelo_inurba_marseille","lat":43.28944,"lon":5.36408,"is_reserved":false,"is_disabled":false,"rental_uris":{"android":"levelo://app?vid=fb30b846-de5a-499a-a976-5656aa4d0f7d","ios":"levelo://app?vid=fb30b846-de5a-499a-a976-5656aa4d0f7d"},"vehicle_type_id":"4","last_reported":1753895531,"current_range_meters":12000,"station_id":"ce4bhc92rcd13ifvqetg","pricing_plan_id":"cebpf4jnsgd1na2vs0mg"},{"bike_id":"89fc1a39-b000-446c-9159-c33226df9a02","system_id":"levelo_inurba_marseille","lat":43.308822,"lon":5.396547,"is_reserved":false,"is_disabled":false,"rental_uris":{"android":"levelo://app?vid=89fc1a39-b000-446c-9159-c33226df9a02","ios":"levelo://app?vid=89fc1a39-b000-446c-9159-c33226df9a02"},"vehicle_type_id":"4","last_reported":1753895531,"current_range_meters":12000,"station_id":"","pricing_plan_id":"cebpf4jnsgd1na2vs0mg"},{"bike_id":"148cd08a-f65a-4d69-9544-76966bf196a4","system_id":"levelo_inurba_marseille","lat":43.23178,"lon":5.39988,"is_reserved":false,"is_disabled":false,"rental_uris":{"android":"levelo://app?vid=148cd08a-f65a-4d69-9544-76966bf196a4","ios":"levelo://app?vid=148cd08a-f65a-4d69-9544-76966bf196a4"},"vehicle_type_id":"4","last_reported":1753895531,"current_range_meters":12400,"station_id":"ce4bhn12rcd13ifvqgqg","pricing_plan_id":"cebpf4jnsgd1na2vs0mg"},{"bike_id":"887f6f93-0eac-4bcd-a75b-a8c98047a14d","system_id":"levelo_inurba_marseille","lat":43.211937,"lon":5.350728,"is_reserved":false,"is_disabled":false,"rental_uris":{"android":"levelo://app?vid=887f6f93-0eac-4bcd-a75b-a8c98047a14d","ios":"levelo://app?vid=887f6f93-0eac-4bcd-a75b-a8c98047a14d"},"vehicle_type_id":"4","last_reported":1753895531,"current_range_meters":12400,"station_id":"","pricing_plan_id":"cebpf4jnsgd1na2vs0mg"},{"bike_id":"137543ba-d406-4737-9c88-22d99286e52a","system_id":"levelo_inurba_marseille","lat":43.29979,"lon":5.38494,"is_reserved":false,"is_disabled":false,"rental_uris":{"android":"levelo://app?vid=137543ba-d406-4737-9c88-22d99286e52a","ios":"levelo://app?vid=137543ba-d406-4737-9c88-22d99286e52a"},"vehicle_type_id":"4","last_reported":1753895531,"current_range_meters":12400,"station_id":"ce4bgj92rcd13ifvqbd0","pricing_plan_id":"cebpf4jnsgd1na2vs0mg"},{"bike_id":"1281446a-2985-4c0c-b445-830eb78e61aa","system_id":"levelo_inurba_marseille","lat":43.30431,"lon":5.38894,"is_reserved":false,"is_disabled":false,"rental_uris":{"android":"levelo://app?vid=1281446a-2985-4c0c-b445-830eb78e61aa","ios":"levelo://app?vid=1281446a-2985-4c0c-b445-830eb78e61aa"},"vehicle_type_id":"4","last_reported":1753895531,"current_range_meters":12400,"station_id":"ce4bgk12rcd13ifvqbi0","pricing_plan_id":"cebpf4jnsgd1na2vs0mg"},{"bike_id":"3a92206f-68ef-4fcd-a0b4-30cbca565fd1","system_id":"levelo_inurba_marseille","lat":43.27368,"lon":5.36268,"is_reserved":false,"is_disabled":false,"rental_uris":{"android":"levelo://app?vid=3a92206f-68ef-4fcd-a0b4-30cbca565fd1","ios":"levelo://app?vid=3a92206f-68ef-4fcd-a0b4-30cbca565fd1"},"vehicle_type_id":"4","last_reported":1753895531,"current_range_meters":12400,"station_id":"ce4bhbh2rcd13ifvqeo0","pricing_plan_id":"cebpf4jnsgd1na2vs0mg"},{"bike_id":"671701a9-7243-46ba-9df9-fa49b6935265","system_id":"levelo_inurba_marseille","lat":43.25986,"lon":5.37235,"is_reserved":false,"is_disabled":false,"rental_uris":{"android":"levelo://app?vid=671701a9-7243-46ba-9df9-fa49b6935265","ios":"levelo://app?vid=671701a9-7243-46ba-9df9-fa49b6935265"},"vehicle_type_id":"4","last_reported":1753895531,"current_range_meters":12400,"station_id":"","pricing_plan_id":"cebpf4jnsgd1na2vs0mg"},{"bike_id":"24ddc855-9db1-447b-8cc7-fb33f85a47fb","system_id":"levelo_inurba_marseille","lat":43.30595,"lon":5.37213,"is_reserved":false,"is_disabled":false,"rental_uris":{"android":"levelo://app?vid=24ddc855-9db1-447b-8cc7-fb33f85a47fb","ios":"levelo://app?vid=24ddc855-9db1-447b-8cc7-fb33f85a47fb"},"vehicle_type_id":"4","last_reported":1753895531,"current_range_meters":12400,"station_id":"ce4bgqh2rcd13ifvqc4g","pricing_plan_id":"cebpf4jnsgd1na2vs0mg"},{"bike_id":"c686771c-e4d6-4ee5-934b-f3ca190b833e","system_id":"levelo_inurba_marseille","lat":43.32765,"lon":5.39204,"is_reserved":false,"is_disabled":false,"rental_uris":{"android":"levelo://app?vid=c686771c-e4d6-4ee5-934b-f3ca190b833e","ios":"levelo://app?vid=c686771c-e4d6-4ee5-934b-f3ca190b833e"},"vehicle_type_id":"4","last_reported":1753895531,"current_range_meters":12400,"station_id":"","pricing_plan_id":"cebpf4jnsgd1na2vs0mg"},{"bike_id":"678fbb79-79bf-48b8-a324-8c2dbb623f0f","system_id":"levelo_inurba_marseille","lat":43.2694,"lon":5.38905,"is_reserved":false,"is_disabled":false,"rental_uris":{"android":"levelo://app?vid=678fbb79-79bf-48b8-a324-8c2dbb623f0f","ios":"levelo://app?vid=678fbb79-79bf-48b8-a324-8c2dbb623f0f"},"vehicle_type_id":"4","last_reported":1753895531,"current_range_meters":12400,"station_id":"ce4bhhh2rcd13ifvqfl0","pricing_plan_id":"cebpf4jnsgd1na2vs0mg"},{"bike_id":"5ff7b424-be72-460e-9279-c80ac3b388ac","system_id":"levelo_inurba_marseille","lat":43.23188,"lon":5.39987,"is_reserved":false,"is_disabled":false,"rental_uris":{"android":"levelo://app?vid=5ff7b424-be72-460e-9279-c80ac3b388ac","ios":"levelo://app?vid=5ff7b424-be72-460e-9279-c80ac3b388ac"},"vehicle_type_id":"4","last_reported":1753895531,"current_range_meters":12400,"station_id":"ce4bhn12rcd13ifvqgqg","pricing_plan_id":"cebpf4jnsgd1na2vs0mg"},{"bike_id":"5e89c3d6-3c69-4ae2-8c32-b66a6479c5eb","system_id":"levelo_inurba_marseille","lat":43.26786,"lon":5.3941,"is_reserved":false,"is_disabled":true,"rental_uris":{"android":"levelo://app?vid=5e89c3d6-3c69-4ae2-8c32-b66a6479c5eb","ios":"levelo://app?vid=5e89c3d6-3c69-4ae2-8c32-b66a6479c5eb"},"vehicle_type_id":"4","last_reported":1753895531,"current_range_meters":12400,"station_id":"ce4bhh12rcd13ifvqfg0","pricing_plan_id":"cebpf4jnsgd1na2vs0mg"},{"bike_id":"3d60e95a-8706-4e13-b31f-ac7a913f607a","system_id":"levelo_inurba_marseille","lat":43.22935,"lon":5.35382,"is_reserved":false,"is_disabled":false,"rental_uris":{"android":"levelo://app?vid=3d60e95a-8706-4e13-b31f-ac7a913f607a","ios":"levelo://app?vid=3d60e95a-8706-4e13-b31f-ac7a913f607a"},"vehicle_type_id":"4","last_reported":1753895531,"current_range_meters":12800,"station_id":"cpo3532slgdg3j2ikp40","pricing_plan_id":"cebpf4jnsgd1na2vs0mg"},{"bike_id":"5f2c329e-f2c7-42ad-8f42-e95dfce5b61a","system_id":"levelo_inurba_marseille","lat":43.23074,"lon":5.35459,"is_reserved":false,"is_disabled":false,"rental_uris":{"android":"levelo://app?vid=5f2c329e-f2c7-42ad-8f42-e95dfce5b61a","ios":"levelo://app?vid=5f2c329e-f2c7-42ad-8f42-e95dfce5b61a"},"vehicle_type_id":"4","last_reported":1753895531,"current_range_meters":12800,"station_id":"cpo3342slgdg3j2ifvpg","pricing_plan_id":"cebpf4jnsgd1na2vs0mg"},{"bike_id":"4aba57a6-dd4f-4a49-9532-28e410913df5","system_id":"levelo_inurba_marseille","lat":43.29603,"lon":5.381,"is_reserved":false,"is_disabled":false,"rental_uris":{"android":"levelo://app?vid=4aba57a6-dd4f-4a49-9532-28e410913df5","ios":"levelo://app?vid=4aba57a6-dd4f-4a49-9532-28e410913df5"},"vehicle_type_id":"4","last_reported":1753895531,"current_range_meters":12800,"station_id":"ce4bgl12rcd13ifvqbo0","pricing_plan_id":"cebpf4jnsgd1na2vs0mg"},{"bike_id":"507ba707-6952-4181-aad4-8c4f24531add","system_id":"levelo_inurba_marseille","lat":43.282516,"lon":5.350568,"is_reserved":false,"is_disabled":false,"rental_uris":{"android":"levelo://app?vid=507ba707-6952-4181-aad4-8c4f24531add","ios":"levelo://app?vid=507ba707-6952-4181-aad4-8c4f24531add"},"vehicle_type_id":"4","last_reported":1753895531,"current_range_meters":12800,"station_id":"ce4bhbp2rcd13ifvqerg","pricing_plan_id":"cebpf4jnsgd1na2vs0mg"},{"bike_id":"ae6c8428-e39e-40be-9df7-f418521aa777","system_id":"levelo_inurba_marseille","lat":43.229188,"lon":5.353988,"is_reserved":false,"is_disabled":false,"rental_uris":{"android":"levelo://app?vid=ae6c8428-e39e-40be-9df7-f418521aa777","ios":"levelo://app?vid=ae6c8428-e39e-40be-9df7-f418521aa777"},"vehicle_type_id":"4","last_reported":1753895531,"current_range_meters":12800,"station_id":"cpo3532slgdg3j2ikp40","pricing_plan_id":"cebpf4jnsgd1na2vs0mg"},{"bike_id":"116d91c8-22c6-44b9-ad68-dfbfbe9e23dc","system_id":"levelo_inurba_marseille","lat":43.325,"lon":5.36575,"is_reserved":false,"is_disabled":false,"rental_uris":{"android":"levelo://app?vid=116d91c8-22c6-44b9-ad68-dfbfbe9e23dc","ios":"levelo://app?vid=116d91c8-22c6-44b9-ad68-dfbfbe9e23dc"},"vehicle_type_id":"4","last_reported":1753895531,"current_range_meters":12800,"station_id":"ce4bhs12rcd13ifvqhvg","pricing_plan_id":"cebpf4jnsgd1na2vs0mg"},{"bike_id":"46277739-d2e4-4f03-abc5-c33cfa302241","system_id":"levelo_inurba_marseille","lat":43.27071,"lon":5.42276,"is_reserved":false,"is_disabled":false,"rental_uris":{"android":"levelo://app?vid=46277739-d2e4-4f03-abc5-c33cfa302241","ios":"levelo://app?vid=46277739-d2e4-4f03-abc5-c33cfa302241"},"vehicle_type_id":"4","last_reported":1753895531,"current_range_meters":13600,"station_id":"ce4bhk92rcd13ifvqgb0","pricing_plan_id":"cebpf4jnsgd1na2vs0mg"},{"bike_id":"20176478-56de-4d7c-8fc9-47e27fabe889","system_id":"levelo_inurba_marseille","lat":43.290173,"lon":5.386484,"is_reserved":false,"is_disabled":false,"rental_uris":{"android":"levelo://app?vid=20176478-56de-4d7c-8fc9-47e27fabe889","ios":"levelo://app?vid=20176478-56de-4d7c-8fc9-47e27fabe889"},"vehicle_type_id":"4","last_reported":1753895531,"current_range_meters":13600,"station_id":"ce4bh4p2rcd13ifvqe0g","pricing_plan_id":"cebpf4jnsgd1na2vs0mg"},{"bike_id":"a705012f-1c48-472a-a232-19ea547be8f5","system_id":"levelo_inurba_marseille","lat":43.28946,"lon":5.36403,"is_reserved":false,"is_disabled":false,"rental_uris":{"android":"levelo://app?vid=a705012f-1c48-472a-a232-19ea547be8f5","ios":"levelo://app?vid=a705012f-1c48-472a-a232-19ea547be8f5"},"vehicle_type_id":"4","last_reported":1753895531,"current_range_meters":12800,"station_id":"ce4bhc92rcd13ifvqetg","pricing_plan_id":"cebpf4jnsgd1na2vs0mg"},{"bike_id":"19295018-235d-4f62-9c12-0203c908e699","system_id":"levelo_inurba_marseille","lat":43.22923,"lon":5.35373,"is_reserved":false,"is_disabled":false,"rental_uris":{"android":"levelo://app?vid=19295018-235d-4f62-9c12-0203c908e699","ios":"levelo://app?vid=19295018-235d-4f62-9c12-0203c908e699"},"vehicle_type_id":"4","last_reported":1753895531,"current_range_meters":13600,"station_id":"cpo3532slgdg3j2ikp40","pricing_plan_id":"cebpf4jnsgd1na2vs0mg"},{"bike_id":"9a96198c-07c7-4b35-8a70-3f8f7bd8f1e5","system_id":"levelo_inurba_marseille","lat":43.33759,"lon":5.3745,"is_reserved":false,"is_disabled":false,"rental_uris":{"android":"levelo://app?vid=9a96198c-07c7-4b35-8a70-3f8f7bd8f1e5","ios":"levelo://app?vid=9a96198c-07c7-4b35-8a70-3f8f7bd8f1e5"},"vehicle_type_id":"4","last_reported":1753895531,"current_range_meters":13600,"station_id":"","pricing_plan_id":"cebpf4jnsgd1na2vs0mg"},{"bike_id":"b44d763b-4f92-4731-b76a-85ebcd91acd5","system_id":"levelo_inurba_marseille","lat":43.302062,"lon":5.371226,"is_reserved":false,"is_disabled":false,"rental_uris":{"android":"levelo://app?vid=b44d763b-4f92-4731-b76a-85ebcd91acd5","ios":"levelo://app?vid=b44d763b-4f92-4731-b76a-85ebcd91acd5"},"vehicle_type_id":"4","last_reported":1753895531,"current_range_meters":13600,"station_id":"","pricing_plan_id":"cebpf4jnsgd1na2vs0mg"},{"bike_id":"5bcc0932-58f4-42ae-859c-d56aac2c8456","system_id":"levelo_inurba_marseille","lat":43.24178,"lon":5.36386,"is_reserved":false,"is_disabled":false,"rental_uris":{"android":"levelo://app?vid=5bcc0932-58f4-42ae-859c-d56aac2c8456","ios":"levelo://app?vid=5bcc0932-58f4-42ae-859c-d56aac2c8456"},"vehicle_type_id":"4","last_reported":1753895531,"current_range_meters":13600,"station_id":"cpo36qri1sfpv3e86is0","pricing_plan_id":"cebpf4jnsgd1na2vs0mg"},{"bike_id":"5f72df66-2d68-4c6e-a917-44e1dcfede98","system_id":"levelo_inurba_marseille","lat":43.229357,"lon":5.353858,"is_reserved":false,"is_disabled":false,"rental_uris":{"android":"levelo://app?vid=5f72df66-2d68-4c6e-a917-44e1dcfede98","ios":"levelo://app?vid=5f72df66-2d68-4c6e-a917-44e1dcfede98"},"vehicle_type_id":"4","last_reported":1753895531,"current_range_meters":13600,"station_id":"cpo3532slgdg3j2ikp40","pricing_plan_id":"cebpf4jnsgd1na2vs0mg"},{"bike_id":"36245cb0-fe08-40f0-92e2-a6fd47fca848","system_id":"levelo_inurba_marseille","lat":43.28266,"lon":5.35056,"is_reserved":false,"is_disabled":false,"rental_uris":{"android":"levelo://app?vid=36245cb0-fe08-40f0-92e2-a6fd47fca848","ios":"levelo://app?vid=36245cb0-fe08-40f0-92e2-a6fd47fca848"},"vehicle_type_id":"4","last_reported":1753895531,"current_range_meters":13600,"station_id":"ce4bhbp2rcd13ifvqerg","pricing_plan_id":"cebpf4jnsgd1na2vs0mg"},{"bike_id":"be5b9519-fb61-4234-9e7d-b6e757ac2a69","system_id":"levelo_inurba_marseille","lat":43.28856,"lon":5.35855,"is_reserved":false,"is_disabled":false,"rental_uris":{"android":"levelo://app?vid=be5b9519-fb61-4234-9e7d-b6e757ac2a69","ios":"levelo://app?vid=be5b9519-fb61-4234-9e7d-b6e757ac2a69"},"vehicle_type_id":"4","last_reported":1753895531,"current_range_meters":13600,"station_id":"ce4bhb12rcd13ifvqem0","pricing_plan_id":"cebpf4jnsgd1na2vs0mg"},{"bike_id":"7d6cf086-1e82-4f07-bfd4-e76f3b5230b3","system_id":"levelo_inurba_marseille","lat":43.23217,"lon":5.35524,"is_reserved":false,"is_disabled":false,"rental_uris":{"android":"levelo://app?vid=7d6cf086-1e82-4f07-bfd4-e76f3b5230b3","ios":"levelo://app?vid=7d6cf086-1e82-4f07-bfd4-e76f3b5230b3"},"vehicle_type_id":"4","last_reported":1753895531,"current_range_meters":13600,"station_id":"ce4bhu92rcd13ifvqi70","pricing_plan_id":"cebpf4jnsgd1na2vs0mg"},{"bike_id":"698f9778-2195-4579-8dad-ee2b56a14a27","system_id":"levelo_inurba_marseille","lat":43.24167,"lon":5.3639,"is_reserved":false,"is_disabled":false,"rental_uris":{"android":"levelo://app?vid=698f9778-2195-4579-8dad-ee2b56a14a27","ios":"levelo://app?vid=698f9778-2195-4579-8dad-ee2b56a14a27"},"vehicle_type_id":"4","last_reported":1753895531,"current_range_meters":13600,"station_id":"cpo36qri1sfpv3e86is0","pricing_plan_id":"cebpf4jnsgd1na2vs0mg"},{"bike_id":"a05992f6-1f51-4dbf-8921-4ad77bab57e9","system_id":"levelo_inurba_marseille","lat":43.24221,"lon":5.36367,"is_reserved":false,"is_disabled":false,"rental_uris":{"android":"levelo://app?vid=a05992f6-1f51-4dbf-8921-4ad77bab57e9","ios":"levelo://app?vid=a05992f6-1f51-4dbf-8921-4ad77bab57e9"},"vehicle_type_id":"4","last_reported":1753895531,"current_range_meters":13600,"station_id":"","pricing_plan_id":"cebpf4jnsgd1na2vs0mg"},{"bike_id":"5c9160ef-4dfa-47d2-93ef-2b30f19b283e","system_id":"levelo_inurba_marseille","lat":43.229337,"lon":5.353802,"is_reserved":false,"is_disabled":false,"rental_uris":{"android":"levelo://app?vid=5c9160ef-4dfa-47d2-93ef-2b30f19b283e","ios":"levelo://app?vid=5c9160ef-4dfa-47d2-93ef-2b30f19b283e"},"vehicle_type_id":"4","last_reported":1753895531,"current_range_meters":13600,"station_id":"cpo3532slgdg3j2ikp40","pricing_plan_id":"cebpf4jnsgd1na2vs0mg"},{"bike_id":"f1ccfa9e-3c4b-4fae-8ae3-e3cbe6d863f7","system_id":"levelo_inurba_marseille","lat":43.27368,"lon":5.36239,"is_reserved":false,"is_disabled":false,"rental_uris":{"android":"levelo://app?vid=f1ccfa9e-3c4b-4fae-8ae3-e3cbe6d863f7","ios":"levelo://app?vid=f1ccfa9e-3c4b-4fae-8ae3-e3cbe6d863f7"},"vehicle_type_id":"4","last_reported":1753895531,"current_range_meters":13600,"station_id":"ce4bhbh2rcd13ifvqeo0","pricing_plan_id":"cebpf4jnsgd1na2vs0mg"},{"bike_id":"d8f689c7-1982-487f-a63d-c0078c7d159f","system_id":"levelo_inurba_marseille","lat":43.28416,"lon":5.34973,"is_reserved":false,"is_disabled":false,"rental_uris":{"android":"levelo://app?vid=d8f689c7-1982-487f-a63d-c0078c7d159f","ios":"levelo://app?vid=d8f689c7-1982-487f-a63d-c0078c7d159f"},"vehicle_type_id":"4","last_reported":1753895531,"current_range_meters":14000,"station_id":"ce4bhbh2rcd13ifvqepg","pricing_plan_id":"cebpf4jnsgd1na2vs0mg"},{"bike_id":"f0c6d929-0a3a-4cf4-b0a5-c507fdabae95","system_id":"levelo_inurba_marseille","lat":43.2958,"lon":5.36743,"is_reserved":false,"is_disabled":false,"rental_uris":{"android":"levelo://app?vid=f0c6d929-0a3a-4cf4-b0a5-c507fdabae95","ios":"levelo://app?vid=f0c6d929-0a3a-4cf4-b0a5-c507fdabae95"},"vehicle_type_id":"4","last_reported":1753895531,"current_range_meters":13600,"station_id":"ce4bgph2rcd13ifvqc2g","pricing_plan_id":"cebpf4jnsgd1na2vs0mg"},{"bike_id":"ba8c099f-c77b-453b-9477-1edc13dd7e3e","system_id":"levelo_inurba_marseille","lat":43.28938,"lon":5.36635,"is_reserved":false,"is_disabled":false,"rental_uris":{"android":"levelo://app?vid=ba8c099f-c77b-453b-9477-1edc13dd7e3e","ios":"levelo://app?vid=ba8c099f-c77b-453b-9477-1edc13dd7e3e"},"vehicle_type_id":"4","last_reported":1753895531,"current_range_meters":14000,"station_id":"ce4bhap2rcd13ifvqek0","pricing_plan_id":"cebpf4jnsgd1na2vs0mg"},{"bike_id":"d376b228-6384-4140-a57b-4af62b5fc731","system_id":"levelo_inurba_marseille","lat":43.29791,"lon":5.38084,"is_reserved":false,"is_disabled":false,"rental_uris":{"android":"levelo://app?vid=d376b228-6384-4140-a57b-4af62b5fc731","ios":"levelo://app?vid=d376b228-6384-4140-a57b-4af62b5fc731"},"vehicle_type_id":"4","last_reported":1753895531,"current_range_meters":14000,"station_id":"ce4bgip2rcd13ifvqbb0","pricing_plan_id":"cebpf4jnsgd1na2vs0mg"},{"bike_id":"258208fd-626e-4fa2-a64c-19fbd71af95f","system_id":"levelo_inurba_marseille","lat":43.3011,"lon":5.39067,"is_reserved":false,"is_disabled":true,"rental_uris":{"android":"levelo://app?vid=258208fd-626e-4fa2-a64c-19fbd71af95f","ios":"levelo://app?vid=258208fd-626e-4fa2-a64c-19fbd71af95f"},"vehicle_type_id":"4","last_reported":1753895531,"current_range_meters":14000,"station_id":"ce4bh192rcd13ifvqdb0","pricing_plan_id":"cebpf4jnsgd1na2vs0mg"},{"bike_id":"97e0cc1c-fa5d-41b9-8b72-3eed848ec1f7","system_id":"levelo_inurba_marseille","lat":43.330295,"lon":5.390706,"is_reserved":false,"is_disabled":false,"rental_uris":{"android":"levelo://app?vid=97e0cc1c-fa5d-41b9-8b72-3eed848ec1f7","ios":"levelo://app?vid=97e0cc1c-fa5d-41b9-8b72-3eed848ec1f7"},"vehicle_type_id":"4","last_reported":1753895531,"current_range_meters":14000,"station_id":"ce4bhr92rcd13ifvqhrg","pricing_plan_id":"cebpf4jnsgd1na2vs0mg"},{"bike_id":"799f9c77-9c9a-4c72-baf6-9118ec4c85fe","system_id":"levelo_inurba_marseille","lat":43.278407,"lon":5.39212,"is_reserved":false,"is_disabled":false,"rental_uris":{"android":"levelo://app?vid=799f9c77-9c9a-4c72-baf6-9118ec4c85fe","ios":"levelo://app?vid=799f9c77-9c9a-4c72-baf6-9118ec4c85fe"},"vehicle_type_id":"4","last_reported":1753895531,"current_range_meters":14000,"station_id":"ce4bhjp2rcd13ifvqga0","pricing_plan_id":"cebpf4jnsgd1na2vs0mg"},{"bike_id":"0143bc07-02f9-46ea-8811-3bf1158d74e2","system_id":"levelo_inurba_marseille","lat":43.24187,"lon":5.36381,"is_reserved":false,"is_disabled":false,"rental_uris":{"android":"levelo://app?vid=0143bc07-02f9-46ea-8811-3bf1158d74e2","ios":"levelo://app?vid=0143bc07-02f9-46ea-8811-3bf1158d74e2"},"vehicle_type_id":"4","last_reported":1753895531,"current_range_meters":14000,"station_id":"cpo36qri1sfpv3e86is0","pricing_plan_id":"cebpf4jnsgd1na2vs0mg"},{"bike_id":"6c9f9be6-416e-493e-a154-b42e49b02b67","system_id":"levelo_inurba_marseille","lat":43.286072,"lon":5.351155,"is_reserved":false,"is_disabled":false,"rental_uris":{"android":"levelo://app?vid=6c9f9be6-416e-493e-a154-b42e49b02b67","ios":"levelo://app?vid=6c9f9be6-416e-493e-a154-b42e49b02b67"},"vehicle_type_id":"4","last_reported":1753895531,"current_range_meters":14000,"station_id":"ce4bhch2rcd13ifvqeug","pricing_plan_id":"cebpf4jnsgd1na2vs0mg"},{"bike_id":"d130f90a-03bf-4ed8-8bbf-eb39d2429cc9","system_id":"levelo_inurba_marseille","lat":43.29563,"lon":5.37489,"is_reserved":false,"is_disabled":false,"rental_uris":{"android":"levelo://app?vid=d130f90a-03bf-4ed8-8bbf-eb39d2429cc9","ios":"levelo://app?vid=d130f90a-03bf-4ed8-8bbf-eb39d2429cc9"},"vehicle_type_id":"4","last_reported":1753895531,"current_range_meters":14000,"station_id":"ce4bgh92rcd13ifvqb50","pricing_plan_id":"cebpf4jnsgd1na2vs0mg"},{"bike_id":"daabd21d-fe72-4bef-9caa-c5886e1b6fe4","system_id":"levelo_inurba_marseille","lat":43.31676,"lon":5.37265,"is_reserved":false,"is_disabled":false,"rental_uris":{"android":"levelo://app?vid=daabd21d-fe72-4bef-9caa-c5886e1b6fe4","ios":"levelo://app?vid=daabd21d-fe72-4bef-9caa-c5886e1b6fe4"},"vehicle_type_id":"4","last_reported":1753895531,"current_range_meters":14000,"station_id":"","pricing_plan_id":"cebpf4jnsgd1na2vs0mg"},{"bike_id":"53151447-04ba-443d-b322-705ee62067bf","system_id":"levelo_inurba_marseille","lat":43.284143,"lon":5.375081,"is_reserved":false,"is_disabled":false,"rental_uris":{"android":"levelo://app?vid=53151447-04ba-443d-b322-705ee62067bf","ios":"levelo://app?vid=53151447-04ba-443d-b322-705ee62067bf"},"vehicle_type_id":"4","last_reported":1753895531,"current_range_meters":14000,"station_id":"ce4bh412rcd13ifvqds0","pricing_plan_id":"cebpf4jnsgd1na2vs0mg"},{"bike_id":"649ace0f-cd6d-4182-9ec7-32a8e9fb2b15","system_id":"levelo_inurba_marseille","lat":43.29028,"lon":5.38633,"is_reserved":false,"is_disabled":false,"rental_uris":{"android":"levelo://app?vid=649ace0f-cd6d-4182-9ec7-32a8e9fb2b15","ios":"levelo://app?vid=649ace0f-cd6d-4182-9ec7-32a8e9fb2b15"},"vehicle_type_id":"4","last_reported":1753895531,"current_range_meters":14000,"station_id":"ce4bh4p2rcd13ifvqe0g","pricing_plan_id":"cebpf4jnsgd1na2vs0mg"},{"bike_id":"7d256236-820a-43cf-ae09-20c40f7f0a6f","system_id":"levelo_inurba_marseille","lat":43.2621,"lon":5.37441,"is_reserved":false,"is_disabled":false,"rental_uris":{"android":"levelo://app?vid=7d256236-820a-43cf-ae09-20c40f7f0a6f","ios":"levelo://app?vid=7d256236-820a-43cf-ae09-20c40f7f0a6f"},"vehicle_type_id":"4","last_reported":1753895531,"current_range_meters":14400,"station_id":"ce4bhgp2rcd13ifvqfc0","pricing_plan_id":"cebpf4jnsgd1na2vs0mg"},{"bike_id":"ed00654e-fc40-4882-9823-4af446a51700","system_id":"levelo_inurba_marseille","lat":43.26209,"lon":5.37439,"is_reserved":false,"is_disabled":false,"rental_uris":{"android":"levelo://app?vid=ed00654e-fc40-4882-9823-4af446a51700","ios":"levelo://app?vid=ed00654e-fc40-4882-9823-4af446a51700"},"vehicle_type_id":"4","last_reported":1753895531,"current_range_meters":14400,"station_id":"ce4bhgp2rcd13ifvqfc0","pricing_plan_id":"cebpf4jnsgd1na2vs0mg"},{"bike_id":"92d1b695-1582-4bc5-8902-512e73b8e6b0","system_id":"levelo_inurba_marseille","lat":43.23052,"lon":5.35497,"is_reserved":false,"is_disabled":false,"rental_uris":{"android":"levelo://app?vid=92d1b695-1582-4bc5-8902-512e73b8e6b0","ios":"levelo://app?vid=92d1b695-1582-4bc5-8902-512e73b8e6b0"},"vehicle_type_id":"4","last_reported":1753895531,"current_range_meters":14400,"station_id":"cpo3342slgdg3j2ifvpg","pricing_plan_id":"cebpf4jnsgd1na2vs0mg"},{"bike_id":"807ee3ac-ec42-44be-a33b-e36724ceb7c0","system_id":"levelo_inurba_marseille","lat":43.308,"lon":5.38164,"is_reserved":false,"is_disabled":true,"rental_uris":{"android":"levelo://app?vid=807ee3ac-ec42-44be-a33b-e36724ceb7c0","ios":"levelo://app?vid=807ee3ac-ec42-44be-a33b-e36724ceb7c0"},"vehicle_type_id":"4","last_reported":1753895531,"current_range_meters":14400,"station_id":"ce4bgt12rcd13ifvqce0","pricing_plan_id":"cebpf4jnsgd1na2vs0mg"},{"bike_id":"71d89ea2-5484-4aa9-bddc-e43cd9f5ab68","system_id":"levelo_inurba_marseille","lat":43.2844,"lon":5.392,"is_reserved":false,"is_disabled":false,"rental_uris":{"android":"levelo://app?vid=71d89ea2-5484-4aa9-bddc-e43cd9f5ab68","ios":"levelo://app?vid=71d89ea2-5484-4aa9-bddc-e43cd9f5ab68"},"vehicle_type_id":"4","last_reported":1753895531,"current_range_meters":14800,"station_id":"ce4bhoh2rcd13ifvqh5g","pricing_plan_id":"cebpf4jnsgd1na2vs0mg"},{"bike_id":"2a396392-3c51-4480-8a78-f2cceb80896b","system_id":"levelo_inurba_marseille","lat":43.28926,"lon":5.38398,"is_reserved":false,"is_disabled":false,"rental_uris":{"android":"levelo://app?vid=2a396392-3c51-4480-8a78-f2cceb80896b","ios":"levelo://app?vid=2a396392-3c51-4480-8a78-f2cceb80896b"},"vehicle_type_id":"4","last_reported":1753895531,"current_range_meters":14800,"station_id":"ce4bh612rcd13ifvqe6g","pricing_plan_id":"cebpf4jnsgd1na2vs0mg"},{"bike_id":"754b72c8-f52f-4b65-893a-96011f3697e3","system_id":"levelo_inurba_marseille","lat":43.30138,"lon":5.3877,"is_reserved":false,"is_disabled":false,"rental_uris":{"android":"levelo://app?vid=754b72c8-f52f-4b65-893a-96011f3697e3","ios":"levelo://app?vid=754b72c8-f52f-4b65-893a-96011f3697e3"},"vehicle_type_id":"4","last_reported":1753895531,"current_range_meters":14800,"station_id":"ce4bghh2rcd13ifvqb60","pricing_plan_id":"cebpf4jnsgd1na2vs0mg"},{"bike_id":"1a0ca16f-4b93-4052-acd5-440501907ad3","system_id":"levelo_inurba_marseille","lat":43.23199,"lon":5.35533,"is_reserved":false,"is_disabled":false,"rental_uris":{"android":"levelo://app?vid=1a0ca16f-4b93-4052-acd5-440501907ad3","ios":"levelo://app?vid=1a0ca16f-4b93-4052-acd5-440501907ad3"},"vehicle_type_id":"4","last_reported":1753895531,"current_range_meters":14800,"station_id":"ce4bhu92rcd13ifvqi70","pricing_plan_id":"cebpf4jnsgd1na2vs0mg"},{"bike_id":"2e1bdbd1-042c-4bf4-b623-908b6301c20d","system_id":"levelo_inurba_marseille","lat":43.28158,"lon":5.44164,"is_reserved":false,"is_disabled":false,"rental_uris":{"android":"levelo://app?vid=2e1bdbd1-042c-4bf4-b623-908b6301c20d","ios":"levelo://app?vid=2e1bdbd1-042c-4bf4-b623-908b6301c20d"},"vehicle_type_id":"4","last_reported":1753895531,"current_range_meters":14800,"station_id":"","pricing_plan_id":"cebpf4jnsgd1na2vs0mg"},{"bike_id":"f55c65ff-a65c-41ff-96b9-44921e9c5ea3","system_id":"levelo_inurba_marseille","lat":43.30129,"lon":5.39869,"is_reserved":false,"is_disabled":false,"rental_uris":{"android":"levelo://app?vid=f55c65ff-a65c-41ff-96b9-44921e9c5ea3","ios":"levelo://app?vid=f55c65ff-a65c-41ff-96b9-44921e9c5ea3"},"vehicle_type_id":"4","last_reported":1753895531,"current_range_meters":15200,"station_id":"ce4bh0h2rcd13ifvqd40","pricing_plan_id":"cebpf4jnsgd1na2vs0mg"},{"bike_id":"b75a88bb-cfbb-4847-bfbe-5471551b4513","system_id":"levelo_inurba_marseille","lat":43.24393,"lon":5.37052,"is_reserved":false,"is_disabled":false,"rental_uris":{"android":"levelo://app?vid=b75a88bb-cfbb-4847-bfbe-5471551b4513","ios":"levelo://app?vid=b75a88bb-cfbb-4847-bfbe-5471551b4513"},"vehicle_type_id":"4","last_reported":1753895531,"current_range_meters":14800,"station_id":"ce4bhhh2rcd13ifvqfk0","pricing_plan_id":"cebpf4jnsgd1na2vs0mg"},{"bike_id":"6590494b-43e7-43e0-b312-c754fd5ea433","system_id":"levelo_inurba_marseille","lat":43.2903,"lon":5.42973,"is_reserved":false,"is_disabled":false,"rental_uris":{"android":"levelo://app?vid=6590494b-43e7-43e0-b312-c754fd5ea433","ios":"levelo://app?vid=6590494b-43e7-43e0-b312-c754fd5ea433"},"vehicle_type_id":"4","last_reported":1753895531,"current_range_meters":15200,"station_id":"","pricing_plan_id":"cebpf4jnsgd1na2vs0mg"},{"bike_id":"9a931b85-a406-45a9-88da-545062a8ba45","system_id":"levelo_inurba_marseille","lat":43.30143,"lon":5.38055,"is_reserved":false,"is_disabled":false,"rental_uris":{"android":"levelo://app?vid=9a931b85-a406-45a9-88da-545062a8ba45","ios":"levelo://app?vid=9a931b85-a406-45a9-88da-545062a8ba45"},"vehicle_type_id":"4","last_reported":1753895531,"current_range_meters":15200,"station_id":"ce4bgjp2rcd13ifvqbh0","pricing_plan_id":"cebpf4jnsgd1na2vs0mg"},{"bike_id":"6952d2da-96f5-4522-a88f-352681becbe9","system_id":"levelo_inurba_marseille","lat":43.29257,"lon":5.38436,"is_reserved":false,"is_disabled":false,"rental_uris":{"android":"levelo://app?vid=6952d2da-96f5-4522-a88f-352681becbe9","ios":"levelo://app?vid=6952d2da-96f5-4522-a88f-352681becbe9"},"vehicle_type_id":"4","last_reported":1753895531,"current_range_meters":15200,"station_id":"ce4bh692rcd13ifvqea0","pricing_plan_id":"cebpf4jnsgd1na2vs0mg"},{"bike_id":"2c4400c7-2bd6-4d8f-805d-b1037b3fe518","system_id":"levelo_inurba_marseille","lat":43.22517,"lon":5.34778,"is_reserved":false,"is_disabled":false,"rental_uris":{"android":"levelo://app?vid=2c4400c7-2bd6-4d8f-805d-b1037b3fe518","ios":"levelo://app?vid=2c4400c7-2bd6-4d8f-805d-b1037b3fe518"},"vehicle_type_id":"4","last_reported":1753895531,"current_range_meters":15200,"station_id":"st_cvj5dfep6f1abm77gieg","pricing_plan_id":"cebpf4jnsgd1na2vs0mg"},{"bike_id":"d076e265-2a54-4297-9670-5745543050ab","system_id":"levelo_inurba_marseille","lat":43.28414,"lon":5.34976,"is_reserved":false,"is_disabled":false,"rental_uris":{"android":"levelo://app?vid=d076e265-2a54-4297-9670-5745543050ab","ios":"levelo://app?vid=d076e265-2a54-4297-9670-5745543050ab"},"vehicle_type_id":"4","last_reported":1753895531,"current_range_meters":15200,"station_id":"ce4bhbh2rcd13ifvqepg","pricing_plan_id":"cebpf4jnsgd1na2vs0mg"},{"bike_id":"d6e73d77-7eaf-429e-8e60-c6d22d59faca","system_id":"levelo_inurba_marseille","lat":43.27925,"lon":5.37992,"is_reserved":false,"is_disabled":false,"rental_uris":{"android":"levelo://app?vid=d6e73d77-7eaf-429e-8e60-c6d22d59faca","ios":"levelo://app?vid=d6e73d77-7eaf-429e-8e60-c6d22d59faca"},"vehicle_type_id":"4","last_reported":1753895531,"current_range_meters":15200,"station_id":"ce4bhf92rcd13ifvqf50","pricing_plan_id":"cebpf4jnsgd1na2vs0mg"},{"bike_id":"6edee4fe-46f2-43ea-a18a-6ec975f8373c","system_id":"levelo_inurba_marseille","lat":43.28853,"lon":5.358465,"is_reserved":false,"is_disabled":false,"rental_uris":{"android":"levelo://app?vid=6edee4fe-46f2-43ea-a18a-6ec975f8373c","ios":"levelo://app?vid=6edee4fe-46f2-43ea-a18a-6ec975f8373c"},"vehicle_type_id":"4","last_reported":1753895531,"current_range_meters":15200,"station_id":"","pricing_plan_id":"cebpf4jnsgd1na2vs0mg"},{"bike_id":"8a83b29e-fa2d-4dd9-9787-d8d4fe384c2b","system_id":"levelo_inurba_marseille","lat":43.2737,"lon":5.36256,"is_reserved":false,"is_disabled":false,"rental_uris":{"android":"levelo://app?vid=8a83b29e-fa2d-4dd9-9787-d8d4fe384c2b","ios":"levelo://app?vid=8a83b29e-fa2d-4dd9-9787-d8d4fe384c2b"},"vehicle_type_id":"4","last_reported":1753895531,"current_range_meters":15200,"station_id":"ce4bhbh2rcd13ifvqeo0","pricing_plan_id":"cebpf4jnsgd1na2vs0mg"},{"bike_id":"b89ad748-f7c1-4685-8c85-3009b186b7d0","system_id":"levelo_inurba_marseille","lat":43.2482,"lon":5.37438,"is_reserved":false,"is_disabled":false,"rental_uris":{"android":"levelo://app?vid=b89ad748-f7c1-4685-8c85-3009b186b7d0","ios":"levelo://app?vid=b89ad748-f7c1-4685-8c85-3009b186b7d0"},"vehicle_type_id":"4","last_reported":1753895531,"current_range_meters":15200,"station_id":"ce4bhgh2rcd13ifvqfb0","pricing_plan_id":"cebpf4jnsgd1na2vs0mg"},{"bike_id":"60cc896e-ede1-400c-b8ac-f2f7948b54a0","system_id":"levelo_inurba_marseille","lat":43.3083,"lon":5.36715,"is_reserved":false,"is_disabled":false,"rental_uris":{"android":"levelo://app?vid=60cc896e-ede1-400c-b8ac-f2f7948b54a0","ios":"levelo://app?vid=60cc896e-ede1-400c-b8ac-f2f7948b54a0"},"vehicle_type_id":"4","last_reported":1753895531,"current_range_meters":16000,"station_id":"ce4bhn12rcd13ifvqgpg","pricing_plan_id":"cebpf4jnsgd1na2vs0mg"},{"bike_id":"30d425b9-6532-4584-ae56-a015f4c9f632","system_id":"levelo_inurba_marseille","lat":43.29232,"lon":5.35963,"is_reserved":false,"is_disabled":false,"rental_uris":{"android":"levelo://app?vid=30d425b9-6532-4584-ae56-a015f4c9f632","ios":"levelo://app?vid=30d425b9-6532-4584-ae56-a015f4c9f632"},"vehicle_type_id":"4","last_reported":1753895531,"current_range_meters":16000,"station_id":"","pricing_plan_id":"cebpf4jnsgd1na2vs0mg"},{"bike_id":"36c11242-6e7f-4d89-97be-c2933f4606a5","system_id":"levelo_inurba_marseille","lat":43.26201,"lon":5.37433,"is_reserved":false,"is_disabled":false,"rental_uris":{"android":"levelo://app?vid=36c11242-6e7f-4d89-97be-c2933f4606a5","ios":"levelo://app?vid=36c11242-6e7f-4d89-97be-c2933f4606a5"},"vehicle_type_id":"4","last_reported":1753895531,"current_range_meters":16000,"station_id":"ce4bhgp2rcd13ifvqfc0","pricing_plan_id":"cebpf4jnsgd1na2vs0mg"},{"bike_id":"72ca459c-a966-48ac-a970-e21e90051fac","system_id":"levelo_inurba_marseille","lat":43.30145,"lon":5.374176,"is_reserved":false,"is_disabled":false,"rental_uris":{"android":"levelo://app?vid=72ca459c-a966-48ac-a970-e21e90051fac","ios":"levelo://app?vid=72ca459c-a966-48ac-a970-e21e90051fac"},"vehicle_type_id":"4","last_reported":1753895531,"current_range_meters":16000,"station_id":"ce4bgs92rcd13ifvqcc0","pricing_plan_id":"cebpf4jnsgd1na2vs0mg"},{"bike_id":"67a1c96f-a186-492b-a154-9911f5cdd338","system_id":"levelo_inurba_marseille","lat":43.28853,"lon":5.35856,"is_reserved":false,"is_disabled":false,"rental_uris":{"android":"levelo://app?vid=67a1c96f-a186-492b-a154-9911f5cdd338","ios":"levelo://app?vid=67a1c96f-a186-492b-a154-9911f5cdd338"},"vehicle_type_id":"4","last_reported":1753895531,"current_range_meters":16000,"station_id":"ce4bhb12rcd13ifvqem0","pricing_plan_id":"cebpf4jnsgd1na2vs0mg"},{"bike_id":"de51aa0b-260c-4c1e-8b5a-1392239894a3","system_id":"levelo_inurba_marseille","lat":43.24055,"lon":5.37725,"is_reserved":false,"is_disabled":false,"rental_uris":{"android":"levelo://app?vid=de51aa0b-260c-4c1e-8b5a-1392239894a3","ios":"levelo://app?vid=de51aa0b-260c-4c1e-8b5a-1392239894a3"},"vehicle_type_id":"4","last_reported":1753895531,"current_range_meters":16000,"station_id":"ce4bhnp2rcd13ifvqgvg","pricing_plan_id":"cebpf4jnsgd1na2vs0mg"},{"bike_id":"42def24e-0a17-4aab-b576-3fa28034a480","system_id":"levelo_inurba_marseille","lat":43.2862,"lon":5.35087,"is_reserved":false,"is_disabled":false,"rental_uris":{"android":"levelo://app?vid=42def24e-0a17-4aab-b576-3fa28034a480","ios":"levelo://app?vid=42def24e-0a17-4aab-b576-3fa28034a480"},"vehicle_type_id":"4","last_reported":1753895531,"current_range_meters":16000,"station_id":"ce4bhch2rcd13ifvqeug","pricing_plan_id":"cebpf4jnsgd1na2vs0mg"},{"bike_id":"e04521d7-a18f-4c82-a143-0ac70c922651","system_id":"levelo_inurba_marseille","lat":43.301573,"lon":5.366016,"is_reserved":false,"is_disabled":false,"rental_uris":{"android":"levelo://app?vid=e04521d7-a18f-4c82-a143-0ac70c922651","ios":"levelo://app?vid=e04521d7-a18f-4c82-a143-0ac70c922651"},"vehicle_type_id":"4","last_reported":1753895531,"current_range_meters":16400,"station_id":"ce4bgrh2rcd13ifvqc8g","pricing_plan_id":"cebpf4jnsgd1na2vs0mg"},{"bike_id":"1c5c01bf-5518-466d-98ae-44705769a075","system_id":"levelo_inurba_marseille","lat":43.29026,"lon":5.38649,"is_reserved":false,"is_disabled":false,"rental_uris":{"android":"levelo://app?vid=1c5c01bf-5518-466d-98ae-44705769a075","ios":"levelo://app?vid=1c5c01bf-5518-466d-98ae-44705769a075"},"vehicle_type_id":"4","last_reported":1753895531,"current_range_meters":16400,"station_id":"ce4bh4p2rcd13ifvqe0g","pricing_plan_id":"cebpf4jnsgd1na2vs0mg"},{"bike_id":"9c0a04ac-25bf-43dc-a0d1-1200bd4fd222","system_id":"levelo_inurba_marseille","lat":43.29728,"lon":5.36614,"is_reserved":false,"is_disabled":false,"rental_uris":{"android":"levelo://app?vid=9c0a04ac-25bf-43dc-a0d1-1200bd4fd222","ios":"levelo://app?vid=9c0a04ac-25bf-43dc-a0d1-1200bd4fd222"},"vehicle_type_id":"4","last_reported":1753895531,"current_range_meters":16400,"station_id":"ce4bgn12rcd13ifvqbt0","pricing_plan_id":"cebpf4jnsgd1na2vs0mg"},{"bike_id":"948b0b69-7f6c-4a88-97c1-c3ecd988eca8","system_id":"levelo_inurba_marseille","lat":43.27312,"lon":5.39071,"is_reserved":false,"is_disabled":false,"rental_uris":{"android":"levelo://app?vid=948b0b69-7f6c-4a88-97c1-c3ecd988eca8","ios":"levelo://app?vid=948b0b69-7f6c-4a88-97c1-c3ecd988eca8"},"vehicle_type_id":"4","last_reported":1753895531,"current_range_meters":16400,"station_id":"ce4bhgp2rcd13ifvqfe0","pricing_plan_id":"cebpf4jnsgd1na2vs0mg"},{"bike_id":"a79eba63-2357-4c77-acb3-8fd7d265350a","system_id":"levelo_inurba_marseille","lat":43.28084,"lon":5.39665,"is_reserved":false,"is_disabled":false,"rental_uris":{"android":"levelo://app?vid=a79eba63-2357-4c77-acb3-8fd7d265350a","ios":"levelo://app?vid=a79eba63-2357-4c77-acb3-8fd7d265350a"},"vehicle_type_id":"4","last_reported":1753895531,"current_range_meters":16400,"station_id":"ce4bho12rcd13ifvqh2g","pricing_plan_id":"cebpf4jnsgd1na2vs0mg"},{"bike_id":"47e0725d-d06d-48ec-8dea-75a54b526aa0","system_id":"levelo_inurba_marseille","lat":43.26032,"lon":5.37547,"is_reserved":false,"is_disabled":false,"rental_uris":{"android":"levelo://app?vid=47e0725d-d06d-48ec-8dea-75a54b526aa0","ios":"levelo://app?vid=47e0725d-d06d-48ec-8dea-75a54b526aa0"},"vehicle_type_id":"4","last_reported":1753895531,"current_range_meters":16400,"station_id":"ce4bhgh2rcd13ifvqfa0","pricing_plan_id":"cebpf4jnsgd1na2vs0mg"},{"bike_id":"6bae9171-eee5-4121-bb2c-96ab5933ff6b","system_id":"levelo_inurba_marseille","lat":43.31362,"lon":5.38488,"is_reserved":false,"is_disabled":false,"rental_uris":{"android":"levelo://app?vid=6bae9171-eee5-4121-bb2c-96ab5933ff6b","ios":"levelo://app?vid=6bae9171-eee5-4121-bb2c-96ab5933ff6b"},"vehicle_type_id":"4","last_reported":1753895531,"current_range_meters":16400,"station_id":"ce4bgt92rcd13ifvqcf0","pricing_plan_id":"cebpf4jnsgd1na2vs0mg"},{"bike_id":"cd135ec5-1f0e-488f-a7bf-0e94c2e06e6f","system_id":"levelo_inurba_marseille","lat":43.212134,"lon":5.350519,"is_reserved":false,"is_disabled":false,"rental_uris":{"android":"levelo://app?vid=cd135ec5-1f0e-488f-a7bf-0e94c2e06e6f","ios":"levelo://app?vid=cd135ec5-1f0e-488f-a7bf-0e94c2e06e6f"},"vehicle_type_id":"4","last_reported":1753895531,"current_range_meters":16400,"station_id":"st_cvj6sg6p6f1abm77japg","pricing_plan_id":"cebpf4jnsgd1na2vs0mg"},{"bike_id":"677c0c58-042d-4d0e-abc4-9a1ac7d94c28","system_id":"levelo_inurba_marseille","lat":43.30604,"lon":5.37239,"is_reserved":false,"is_disabled":false,"rental_uris":{"android":"levelo://app?vid=677c0c58-042d-4d0e-abc4-9a1ac7d94c28","ios":"levelo://app?vid=677c0c58-042d-4d0e-abc4-9a1ac7d94c28"},"vehicle_type_id":"4","last_reported":1753895531,"current_range_meters":16400,"station_id":"ce4bgqh2rcd13ifvqc4g","pricing_plan_id":"cebpf4jnsgd1na2vs0mg"},{"bike_id":"52aa1d0d-4466-44b5-a116-ec1102c8f422","system_id":"levelo_inurba_marseille","lat":43.32888,"lon":5.36062,"is_reserved":false,"is_disabled":false,"rental_uris":{"android":"levelo://app?vid=52aa1d0d-4466-44b5-a116-ec1102c8f422","ios":"levelo://app?vid=52aa1d0d-4466-44b5-a116-ec1102c8f422"},"vehicle_type_id":"4","last_reported":1753895531,"current_range_meters":16400,"station_id":"","pricing_plan_id":"cebpf4jnsgd1na2vs0mg"},{"bike_id":"5672b545-467c-4b90-9ce0-8b09b0fac6eb","system_id":"levelo_inurba_marseille","lat":43.241701,"lon":5.36401,"is_reserved":false,"is_disabled":false,"rental_uris":{"android":"levelo://app?vid=5672b545-467c-4b90-9ce0-8b09b0fac6eb","ios":"levelo://app?vid=5672b545-467c-4b90-9ce0-8b09b0fac6eb"},"vehicle_type_id":"4","last_reported":1753895531,"current_range_meters":16800,"station_id":"cpo36qri1sfpv3e86is0","pricing_plan_id":"cebpf4jnsgd1na2vs0mg"},{"bike_id":"3d122bb8-75b3-4f31-a046-6905b33a314b","system_id":"levelo_inurba_marseille","lat":43.28998,"lon":5.35623,"is_reserved":false,"is_disabled":false,"rental_uris":{"android":"levelo://app?vid=3d122bb8-75b3-4f31-a046-6905b33a314b","ios":"levelo://app?vid=3d122bb8-75b3-4f31-a046-6905b33a314b"},"vehicle_type_id":"4","last_reported":1753895531,"current_range_meters":16800,"station_id":"ce4bhb92rcd13ifvqen0","pricing_plan_id":"cebpf4jnsgd1na2vs0mg"},{"bike_id":"67aa0fe7-5f40-44f9-9309-597d2935db50","system_id":"levelo_inurba_marseille","lat":43.273809,"lon":5.362599,"is_reserved":false,"is_disabled":false,"rental_uris":{"android":"levelo://app?vid=67aa0fe7-5f40-44f9-9309-597d2935db50","ios":"levelo://app?vid=67aa0fe7-5f40-44f9-9309-597d2935db50"},"vehicle_type_id":"4","last_reported":1753895531,"current_range_meters":16800,"station_id":"ce4bhbh2rcd13ifvqeo0","pricing_plan_id":"cebpf4jnsgd1na2vs0mg"},{"bike_id":"7185a3fe-1ac9-4c70-9e84-e5229cf3aab0","system_id":"levelo_inurba_marseille","lat":43.23975,"lon":5.36625,"is_reserved":false,"is_disabled":false,"rental_uris":{"android":"levelo://app?vid=7185a3fe-1ac9-4c70-9e84-e5229cf3aab0","ios":"levelo://app?vid=7185a3fe-1ac9-4c70-9e84-e5229cf3aab0"},"vehicle_type_id":"4","last_reported":1753895531,"current_range_meters":16800,"station_id":"ce4bhi12rcd13ifvqfp0","pricing_plan_id":"cebpf4jnsgd1na2vs0mg"},{"bike_id":"34be742c-6e59-4c4c-a509-950f8293f589","system_id":"levelo_inurba_marseille","lat":43.22937,"lon":5.35362,"is_reserved":false,"is_disabled":false,"rental_uris":{"android":"levelo://app?vid=34be742c-6e59-4c4c-a509-950f8293f589","ios":"levelo://app?vid=34be742c-6e59-4c4c-a509-950f8293f589"},"vehicle_type_id":"4","last_reported":1753895531,"current_range_meters":16800,"station_id":"cpo3532slgdg3j2ikp40","pricing_plan_id":"cebpf4jnsgd1na2vs0mg"},{"bike_id":"82421548-9820-4ad4-b3c2-dfb64180eb25","system_id":"levelo_inurba_marseille","lat":43.21192,"lon":5.35079,"is_reserved":false,"is_disabled":false,"rental_uris":{"android":"levelo://app?vid=82421548-9820-4ad4-b3c2-dfb64180eb25","ios":"levelo://app?vid=82421548-9820-4ad4-b3c2-dfb64180eb25"},"vehicle_type_id":"4","last_reported":1753895531,"current_range_meters":16800,"station_id":"st_cvj6sg6p6f1abm77japg","pricing_plan_id":"cebpf4jnsgd1na2vs0mg"},{"bike_id":"a0d1a1d1-973f-4f45-945f-cc06ef44af3f","system_id":"levelo_inurba_marseille","lat":43.29596,"lon":5.38099,"is_reserved":false,"is_disabled":false,"rental_uris":{"android":"levelo://app?vid=a0d1a1d1-973f-4f45-945f-cc06ef44af3f","ios":"levelo://app?vid=a0d1a1d1-973f-4f45-945f-cc06ef44af3f"},"vehicle_type_id":"4","last_reported":1753895531,"current_range_meters":17200,"station_id":"ce4bgl12rcd13ifvqbo0","pricing_plan_id":"cebpf4jnsgd1na2vs0mg"},{"bike_id":"f605ff71-c624-4936-a518-95ee9acc86fd","system_id":"levelo_inurba_marseille","lat":43.22561,"lon":5.3476,"is_reserved":false,"is_disabled":false,"rental_uris":{"android":"levelo://app?vid=f605ff71-c624-4936-a518-95ee9acc86fd","ios":"levelo://app?vid=f605ff71-c624-4936-a518-95ee9acc86fd"},"vehicle_type_id":"4","last_reported":1753895531,"current_range_meters":17200,"station_id":"st_cvj5dfep6f1abm77gieg","pricing_plan_id":"cebpf4jnsgd1na2vs0mg"},{"bike_id":"91bd7d83-4cbc-4e0d-bc74-a7d2095f2de8","system_id":"levelo_inurba_marseille","lat":43.302459,"lon":5.40067,"is_reserved":false,"is_disabled":false,"rental_uris":{"android":"levelo://app?vid=91bd7d83-4cbc-4e0d-bc74-a7d2095f2de8","ios":"levelo://app?vid=91bd7d83-4cbc-4e0d-bc74-a7d2095f2de8"},"vehicle_type_id":"4","last_reported":1753895531,"current_range_meters":17200,"station_id":"ce4bgvh2rcd13ifvqcs0","pricing_plan_id":"cebpf4jnsgd1na2vs0mg"},{"bike_id":"93e8eefa-3d3f-416e-bd91-80233f96f385","system_id":"levelo_inurba_marseille","lat":43.292,"lon":5.39319,"is_reserved":false,"is_disabled":false,"rental_uris":{"android":"levelo://app?vid=93e8eefa-3d3f-416e-bd91-80233f96f385","ios":"levelo://app?vid=93e8eefa-3d3f-416e-bd91-80233f96f385"},"vehicle_type_id":"4","last_reported":1753895531,"current_range_meters":17200,"station_id":"ce4bh192rcd13ifvqdd0","pricing_plan_id":"cebpf4jnsgd1na2vs0mg"},{"bike_id":"9f5fba08-5d1a-4a60-9f27-a4f6e760f703","system_id":"levelo_inurba_marseille","lat":43.3236,"lon":5.36732,"is_reserved":false,"is_disabled":false,"rental_uris":{"android":"levelo://app?vid=9f5fba08-5d1a-4a60-9f27-a4f6e760f703","ios":"levelo://app?vid=9f5fba08-5d1a-4a60-9f27-a4f6e760f703"},"vehicle_type_id":"4","last_reported":1753895531,"current_range_meters":17200,"station_id":"ce4bhsh2rcd13ifvqi2g","pricing_plan_id":"cebpf4jnsgd1na2vs0mg"},{"bike_id":"246ecd07-7004-41c2-885b-ece95aa5a7ab","system_id":"levelo_inurba_marseille","lat":43.29247,"lon":5.36051,"is_reserved":false,"is_disabled":false,"rental_uris":{"android":"levelo://app?vid=246ecd07-7004-41c2-885b-ece95aa5a7ab","ios":"levelo://app?vid=246ecd07-7004-41c2-885b-ece95aa5a7ab"},"vehicle_type_id":"4","last_reported":1753895531,"current_range_meters":17200,"station_id":"ce4bhbh2rcd13ifvqeqg","pricing_plan_id":"cebpf4jnsgd1na2vs0mg"},{"bike_id":"3cecb3be-9781-41f4-9ab1-14f8e6202c32","system_id":"levelo_inurba_marseille","lat":43.225121,"lon":5.347796,"is_reserved":false,"is_disabled":false,"rental_uris":{"android":"levelo://app?vid=3cecb3be-9781-41f4-9ab1-14f8e6202c32","ios":"levelo://app?vid=3cecb3be-9781-41f4-9ab1-14f8e6202c32"},"vehicle_type_id":"4","last_reported":1753895531,"current_range_meters":17200,"station_id":"st_cvj5dfep6f1abm77gieg","pricing_plan_id":"cebpf4jnsgd1na2vs0mg"},{"bike_id":"2093a2b7-8bbc-4356-896c-88cd021ab676","system_id":"levelo_inurba_marseille","lat":43.28671,"lon":5.3511,"is_reserved":false,"is_disabled":false,"rental_uris":{"android":"levelo://app?vid=2093a2b7-8bbc-4356-896c-88cd021ab676","ios":"levelo://app?vid=2093a2b7-8bbc-4356-896c-88cd021ab676"},"vehicle_type_id":"4","last_reported":1753895531,"current_range_meters":17200,"station_id":"","pricing_plan_id":"cebpf4jnsgd1na2vs0mg"},