{"last_updated":1744621941,"ttl":60,"version":"2.2","data":{"bikes":[{"bike_id":"ef291804-1477-432e-b153-82ea15725418","system_id":"levelo_inurba_marseille","lat":43.33742,"lon":5.37454,"is_reserved":false,"is_disabled":false,"rental_uris":{"android":"levelo://app?vid=ef291804-1477-432e-b153-82ea15725418","ios":"levelo://app?vid=ef291804-1477-432e-b153-82ea15725418"},"vehicle_type_id":"4","last_reported":1744621941,"current_range_meters":2800,"station_id":"","pricing_plan_id":"cebpf4jnsgd1na2vs0mg"},{"bike_id":"1130922e-9ccc-463b-9207-aadecd794edb","system_id":"levelo_inurba_marseille","lat":43.32033,"lon":5.3812,"is_reserved":false,"is_disabled":true,"rental_uris":{"android":"levelo://app?vid=1130922e-9ccc-463b-9207-aadecd794edb","ios":"levelo://app?vid=1130922e-9ccc-463b-9207-aadecd794edb"},"vehicle_type_id":"4","last_reported":1744621941,"current_range_meters":3200,"station_id":"","pricing_plan_id":"cebpf4jnsgd1na2vs0mg"},{"bike_id":"a4cf3191-8d14-48bb-9ce0-5d587e9935a5","system_id":"levelo_inurba_marseille","lat":43.28619,"lon":5.35104,"is_reserved":false,"is_disabled":false,"rental_uris":{"android":"levelo://app?vid=a4cf3191-8d14-48bb-9ce0-5d587e9935a5","ios":"levelo://app?vid=a4cf3191-8d14-48bb-9ce0-5d587e9935a5"},"vehicle_type_id":"4","last_reported":1744621941,"current_range_meters":3600,"station_id":"ce4bhch2rcd13ifvqeug","pricing_plan_id":"cebpf4jnsgd1na2vs0mg"},{"bike_id":"b2c6a467-6821-40d0-8288-88b56c246658","system_id":"levelo_inurba_marseille","lat":43.28945,"lon":5.36393,"is_reserved":false,"is_disabled":false,"rental_uris":{"android":"levelo://app?vid=b2c6a467-6821-40d0-8288-88b56c246658","ios":"levelo://app?vid=b2c6a467-6821-40d0-8288-88b56c246658"},"vehicle_type_id":"4","last_reported":1744621941,"current_range_meters":3200,"station_id":"ce4bhc92rcd13ifvqetg","pricing_plan_id":"cebpf4jnsgd1na2vs0mg"},{"bike_id":"4a0973b0-92a0-41e8-9b0d-a99e944bafe0","system_id":"levelo_inurba_marseille","lat":43.34478,"lon":5.41283,"is_reserved":false,"is_disabled":false,"rental_uris":{"android":"levelo://app?vid=4a0973b0-92a0-41e8-9b0d-a99e944bafe0","ios":"levelo://app?vid=4a0973b0-92a0-41e8-9b0d-a99e944bafe0"},"vehicle_type_id":"4","last_reported":1744621941,"current_range_meters":4000,"station_id":"","pricing_plan_id":"cebpf4jnsgd1na2vs0mg"},{"bike_id":"493cde9e-7859-4c26-a2e6-f744ee5d8553","system_id":"levelo_inurba_marseille","lat":43.31653,"lon":5.36334,"is_reserved":false,"is_disabled":false,"rental_uris":{"android":"levelo://app?vid=493cde9e-7859-4c26-a2e6-f744ee5d8553","ios":"levelo://app?vid=493cde9e-7859-4c26-a2e6-f744ee5d8553"},"vehicle_type_id":"4","last_reported":1744621941,"current_range_meters":4000,"station_id":"","pricing_plan_id":"cebpf4jnsgd1na2vs0mg"},{"bike_id":"5b77a833-8185-45c2-9fe3-07eb40df54ca","system_id":"levelo_inurba_marseille","lat":43.33995,"lon":5.38057,"is_reserved":false,"is_disabled":false,"rental_uris":{"android":"levelo://app?vid=5b77a833-8185-45c2-9fe3-07eb40df54ca","ios":"levelo://app?vid=5b77a833-8185-45c2-9fe3-07eb40df54ca"},"vehicle_type_id":"4","last_reported":1744621941,"current_range_meters":4000,"station_id":"","pricing_plan_id":"cebpf4jnsgd1na2vs0mg"},{"bike_id":"b30c0f6d-de6e-41ba-bb6f-e797cf12398b","system_id":"levelo_inurba_marseille","lat":43.337189,"lon":5.391848,"is_reserved":false,"is_disabled":false,"rental_uris":{"android":"levelo://app?vid=b30c0f6d-de6e-41ba-bb6f-e797cf12398b","ios":"levelo://app?vid=b30c0f6d-de6e-41ba-bb6f-e797cf12398b"},"vehicle_type_id":"4","last_reported":1744621941,"current_range_meters":4400,"station_id":"ce4bhr92rcd13ifvqhsg","pricing_plan_id":"cebpf4jnsgd1na2vs0mg"},{"bike_id":"5c6beebe-e1ac-48d9-826d-d9099e3397da","system_id":"levelo_inurba_marseille","lat":43.24384,"lon":5.37057,"is_reserved":false,"is_disabled":false,"rental_uris":{"android":"levelo://app?vid=5c6beebe-e1ac-48d9-826d-d9099e3397da","ios":"levelo://app?vid=5c6beebe-e1ac-48d9-826d-d9099e3397da"},"vehicle_type_id":"4","last_reported":1744621941,"current_range_meters":4800,"station_id":"ce4bhhh2rcd13ifvqfk0","pricing_plan_id":"cebpf4jnsgd1na2vs0mg"},{"bike_id":"2fc95e6a-2708-462b-b6bb-8734eb69a062","system_id":"levelo_inurba_marseille","lat":43.32349,"lon":5.36753,"is_reserved":false,"is_disabled":false,"rental_uris":{"android":"levelo://app?vid=2fc95e6a-2708-462b-b6bb-8734eb69a062","ios":"levelo://app?vid=2fc95e6a-2708-462b-b6bb-8734eb69a062"},"vehicle_type_id":"4","last_reported":1744621941,"current_range_meters":4800,"station_id":"ce4bhsh2rcd13ifvqi2g","pricing_plan_id":"cebpf4jnsgd1na2vs0mg"},{"bike_id":"ad6ed18b-1265-4c43-a009-6420ff91943e","system_id":"levelo_inurba_marseille","lat":43.284635,"lon":5.35892,"is_reserved":false,"is_disabled":true,"rental_uris":{"android":"levelo://app?vid=ad6ed18b-1265-4c43-a009-6420ff91943e","ios":"levelo://app?vid=ad6ed18b-1265-4c43-a009-6420ff91943e"},"vehicle_type_id":"4","last_reported":1744621941,"current_range_meters":4800,"station_id":"ce4bhah2rcd13ifvqei0","pricing_plan_id":"cebpf4jnsgd1na2vs0mg"},{"bike_id":"e96d6611-12bb-47dd-a95b-634647146054","system_id":"levelo_inurba_marseille","lat":43.28704,"lon":5.37411,"is_reserved":false,"is_disabled":false,"rental_uris":{"android":"levelo://app?vid=e96d6611-12bb-47dd-a95b-634647146054","ios":"levelo://app?vid=e96d6611-12bb-47dd-a95b-634647146054"},"vehicle_type_id":"4","last_reported":1744621941,"current_range_meters":5600,"station_id":"ce4bh3p2rcd13ifvqdq0","pricing_plan_id":"cebpf4jnsgd1na2vs0mg"},{"bike_id":"f1cb1b5f-6674-4714-9259-d3c884e49b71","system_id":"levelo_inurba_marseille","lat":43.3091,"lon":5.36845,"is_reserved":false,"is_disabled":false,"rental_uris":{"android":"levelo://app?vid=f1cb1b5f-6674-4714-9259-d3c884e49b71","ios":"levelo://app?vid=f1cb1b5f-6674-4714-9259-d3c884e49b71"},"vehicle_type_id":"4","last_reported":1744621941,"current_range_meters":5600,"station_id":"ce4bgn92rcd13ifvqbvg","pricing_plan_id":"cebpf4jnsgd1na2vs0mg"},{"bike_id":"c3bdd509-19cb-414e-bd26-cf394e35408d","system_id":"levelo_inurba_marseille","lat":43.29898,"lon":5.43669,"is_reserved":false,"is_disabled":false,"rental_uris":{"android":"levelo://app?vid=c3bdd509-19cb-414e-bd26-cf394e35408d","ios":"levelo://app?vid=c3bdd509-19cb-414e-bd26-cf394e35408d"},"vehicle_type_id":"4","last_reported":1744621941,"current_range_meters":4800,"station_id":"ce4bhpp2rcd13ifvqhfg","pricing_plan_id":"cebpf4jnsgd1na2vs0mg"},{"bike_id":"7adddab7-923b-4462-b2a1-9f66441fc24d","system_id":"levelo_inurba_marseille","lat":43.30466,"lon":5.37908,"is_reserved":false,"is_disabled":false,"rental_uris":{"android":"levelo://app?vid=7adddab7-923b-4462-b2a1-9f66441fc24d","ios":"levelo://app?vid=7adddab7-923b-4462-b2a1-9f66441fc24d"},"vehicle_type_id":"4","last_reported":1744621941,"current_range_meters":6000,"station_id":"ce4bgup2rcd13ifvqcn0","pricing_plan_id":"cebpf4jnsgd1na2vs0mg"},{"bike_id":"2f5bc015-0a98-4a0d-a50f-f7181e1d6abe","system_id":"levelo_inurba_marseille","lat":43.23424,"lon":5.41232,"is_reserved":false,"is_disabled":false,"rental_uris":{"android":"levelo://app?vid=2f5bc015-0a98-4a0d-a50f-f7181e1d6abe","ios":"levelo://app?vid=2f5bc015-0a98-4a0d-a50f-f7181e1d6abe"},"vehicle_type_id":"4","last_reported":1744621941,"current_range_meters":6000,"station_id":"","pricing_plan_id":"cebpf4jnsgd1na2vs0mg"},{"bike_id":"4f38e127-be9f-468e-8871-e9cd4f365dca","system_id":"levelo_inurba_marseille","lat":43.24682,"lon":5.41174,"is_reserved":false,"is_disabled":false,"rental_uris":{"android":"levelo://app?vid=4f38e127-be9f-468e-8871-e9cd4f365dca","ios":"levelo://app?vid=4f38e127-be9f-468e-8871-e9cd4f365dca"},"vehicle_type_id":"4","last_reported":1744621941,"current_range_meters":6000,"station_id":"","pricing_plan_id":"cebpf4jnsgd1na2vs0mg"},{"bike_id":"dab7f9b6-bca9-473a-ae7b-5cf9dcdb45f2","system_id":"levelo_inurba_marseille","lat":43.24789,"lon":5.37478,"is_reserved":false,"is_disabled":false,"rental_uris":{"android":"levelo://app?vid=dab7f9b6-bca9-473a-ae7b-5cf9dcdb45f2","ios":"levelo://app?vid=dab7f9b6-bca9-473a-ae7b-5cf9dcdb45f2"},"vehicle_type_id":"4","last_reported":1744621941,"current_range_meters":6000,"station_id":"ce4bhgh2rcd13ifvqfb0","pricing_plan_id":"cebpf4jnsgd1na2vs0mg"},{"bike_id":"3d16c2e3-7c12-4342-883a-029e0fc16b05","system_id":"levelo_inurba_marseille","lat":43.310452,"lon":5.371074,"is_reserved":false,"is_disabled":false,"rental_uris":{"android":"levelo://app?vid=3d16c2e3-7c12-4342-883a-029e0fc16b05","ios":"levelo://app?vid=3d16c2e3-7c12-4342-883a-029e0fc16b05"},"vehicle_type_id":"4","last_reported":1744621941,"current_range_meters":6000,"station_id":"","pricing_plan_id":"cebpf4jnsgd1na2vs0mg"},{"bike_id":"2c66952e-6f09-48a2-b7c6-9f2f45d99c0a","system_id":"levelo_inurba_marseille","lat":43.2844,"lon":5.3919,"is_reserved":false,"is_disabled":false,"rental_uris":{"android":"levelo://app?vid=2c66952e-6f09-48a2-b7c6-9f2f45d99c0a","ios":"levelo://app?vid=2c66952e-6f09-48a2-b7c6-9f2f45d99c0a"},"vehicle_type_id":"4","last_reported":1744621941,"current_range_meters":6000,"station_id":"ce4bhoh2rcd13ifvqh5g","pricing_plan_id":"cebpf4jnsgd1na2vs0mg"},{"bike_id":"1e123cf0-5f6d-4650-bf76-e90f3bfe65d0","system_id":"levelo_inurba_marseille","lat":43.30548,"lon":5.36551,"is_reserved":false,"is_disabled":false,"rental_uris":{"android":"levelo://app?vid=1e123cf0-5f6d-4650-bf76-e90f3bfe65d0","ios":"levelo://app?vid=1e123cf0-5f6d-4650-bf76-e90f3bfe65d0"},"vehicle_type_id":"4","last_reported":1744621941,"current_range_meters":6400,"station_id":"ce4bgs12rcd13ifvqcag","pricing_plan_id":"cebpf4jnsgd1na2vs0mg"},{"bike_id":"cf675099-ac1b-4818-b622-5e6e28428c4a","system_id":"levelo_inurba_marseille","lat":43.22943,"lon":5.35374,"is_reserved":false,"is_disabled":false,"rental_uris":{"android":"levelo://app?vid=cf675099-ac1b-4818-b622-5e6e28428c4a","ios":"levelo://app?vid=cf675099-ac1b-4818-b622-5e6e28428c4a"},"vehicle_type_id":"4","last_reported":1744621941,"current_range_meters":6400,"station_id":"cpo3532slgdg3j2ikp40","pricing_plan_id":"cebpf4jnsgd1na2vs0mg"},{"bike_id":"ef564fce-f810-43da-835b-5c91ef239291","system_id":"levelo_inurba_marseille","lat":43.33602,"lon":5.41024,"is_reserved":false,"is_disabled":false,"rental_uris":{"android":"levelo://app?vid=ef564fce-f810-43da-835b-5c91ef239291","ios":"levelo://app?vid=ef564fce-f810-43da-835b-5c91ef239291"},"vehicle_type_id":"4","last_reported":1744621941,"current_range_meters":6400,"station_id":"ce4bhqh2rcd13ifvqhmg","pricing_plan_id":"cebpf4jnsgd1na2vs0mg"},{"bike_id":"e654e523-849c-4f04-8e39-f201a550baf0","system_id":"levelo_inurba_marseille","lat":43.29565,"lon":5.42279,"is_reserved":false,"is_disabled":false,"rental_uris":{"android":"levelo://app?vid=e654e523-849c-4f04-8e39-f201a550baf0","ios":"levelo://app?vid=e654e523-849c-4f04-8e39-f201a550baf0"},"vehicle_type_id":"4","last_reported":1744621941,"current_range_meters":6800,"station_id":"ce4bhph2rcd13ifvqhdg","pricing_plan_id":"cebpf4jnsgd1na2vs0mg"},{"bike_id":"d7be55f3-a0c4-46fd-bb8f-d91ac2cc4a98","system_id":"levelo_inurba_marseille","lat":43.22934,"lon":5.35361,"is_reserved":false,"is_disabled":false,"rental_uris":{"android":"levelo://app?vid=d7be55f3-a0c4-46fd-bb8f-d91ac2cc4a98","ios":"levelo://app?vid=d7be55f3-a0c4-46fd-bb8f-d91ac2cc4a98"},"vehicle_type_id":"4","last_reported":1744621941,"current_range_meters":6800,"station_id":"cpo3532slgdg3j2ikp40","pricing_plan_id":"cebpf4jnsgd1na2vs0mg"},{"bike_id":"76450c2c-888f-4d08-a5c0-d825237615aa","system_id":"levelo_inurba_marseille","lat":43.27232,"lon":5.42287,"is_reserved":false,"is_disabled":false,"rental_uris":{"android":"levelo://app?vid=76450c2c-888f-4d08-a5c0-d825237615aa","ios":"levelo://app?vid=76450c2c-888f-4d08-a5c0-d825237615aa"},"vehicle_type_id":"4","last_reported":1744621941,"current_range_meters":7200,"station_id":"","pricing_plan_id":"cebpf4jnsgd1na2vs0mg"},{"bike_id":"f33616a2-7119-4767-b911-b01a1cc5f492","system_id":"levelo_inurba_marseille","lat":43.28413,"lon":5.34982,"is_reserved":false,"is_disabled":false,"rental_uris":{"android":"levelo://app?vid=f33616a2-7119-4767-b911-b01a1cc5f492","ios":"levelo://app?vid=f33616a2-7119-4767-b911-b01a1cc5f492"},"vehicle_type_id":"4","last_reported":1744621941,"current_range_meters":7200,"station_id":"ce4bhbh2rcd13ifvqepg","pricing_plan_id":"cebpf4jnsgd1na2vs0mg"},{"bike_id":"fdbdd971-be9a-40d5-a752-605f6d03023e","system_id":"levelo_inurba_marseille","lat":43.29705,"lon":5.36615,"is_reserved":false,"is_disabled":false,"rental_uris":{"android":"levelo://app?vid=fdbdd971-be9a-40d5-a752-605f6d03023e","ios":"levelo://app?vid=fdbdd971-be9a-40d5-a752-605f6d03023e"},"vehicle_type_id":"4","last_reported":1744621941,"current_range_meters":7200,"station_id":"ce4bgn12rcd13ifvqbt0","pricing_plan_id":"cebpf4jnsgd1na2vs0mg"},{"bike_id":"8e42ae9b-89fe-4000-a0e0-9134414536a5","system_id":"levelo_inurba_marseille","lat":43.28441,"lon":5.38427,"is_reserved":false,"is_disabled":false,"rental_uris":{"android":"levelo://app?vid=8e42ae9b-89fe-4000-a0e0-9134414536a5","ios":"levelo://app?vid=8e42ae9b-89fe-4000-a0e0-9134414536a5"},"vehicle_type_id":"4","last_reported":1744621941,"current_range_meters":7200,"station_id":"ce4bh512rcd13ifvqe3g","pricing_plan_id":"cebpf4jnsgd1na2vs0mg"},{"bike_id":"91fffdcd-2fa7-4f34-b242-95e7e93ac05b","system_id":"levelo_inurba_marseille","lat":43.26351,"lon":5.39754,"is_reserved":false,"is_disabled":true,"rental_uris":{"android":"levelo://app?vid=91fffdcd-2fa7-4f34-b242-95e7e93ac05b","ios":"levelo://app?vid=91fffdcd-2fa7-4f34-b242-95e7e93ac05b"},"vehicle_type_id":"4","last_reported":1744621941,"current_range_meters":7200,"station_id":"","pricing_plan_id":"cebpf4jnsgd1na2vs0mg"},{"bike_id":"9bdbd06a-f1ec-46aa-b1a5-895338323cbf","system_id":"levelo_inurba_marseille","lat":43.2316,"lon":5.43714,"is_reserved":false,"is_disabled":false,"rental_uris":{"android":"levelo://app?vid=9bdbd06a-f1ec-46aa-b1a5-895338323cbf","ios":"levelo://app?vid=9bdbd06a-f1ec-46aa-b1a5-895338323cbf"},"vehicle_type_id":"4","last_reported":1744621941,"current_range_meters":7200,"station_id":"ce4bhmp2rcd13ifvqgog","pricing_plan_id":"cebpf4jnsgd1na2vs0mg"},{"bike_id":"c127d1a8-0150-4856-a57b-18fd29314b2c","system_id":"levelo_inurba_marseille","lat":43.3248,"lon":5.36582,"is_reserved":false,"is_disabled":false,"rental_uris":{"android":"levelo://app?vid=c127d1a8-0150-4856-a57b-18fd29314b2c","ios":"levelo://app?vid=c127d1a8-0150-4856-a57b-18fd29314b2c"},"vehicle_type_id":"4","last_reported":1744621941,"current_range_meters":7200,"station_id":"ce4bhs12rcd13ifvqhvg","pricing_plan_id":"cebpf4jnsgd1na2vs0mg"},{"bike_id":"90e27172-4aa8-4563-842f-41e4e7bbc425","system_id":"levelo_inurba_marseille","lat":43.324793,"lon":5.365568,"is_reserved":false,"is_disabled":false,"rental_uris":{"android":"levelo://app?vid=90e27172-4aa8-4563-842f-41e4e7bbc425","ios":"levelo://app?vid=90e27172-4aa8-4563-842f-41e4e7bbc425"},"vehicle_type_id":"4","last_reported":1744621941,"current_range_meters":7200,"station_id":"ce4bhs12rcd13ifvqhvg","pricing_plan_id":"cebpf4jnsgd1na2vs0mg"},{"bike_id":"4d49d7bf-c387-4802-8134-39419f66ab07","system_id":"levelo_inurba_marseille","lat":43.25103,"lon":5.39505,"is_reserved":false,"is_disabled":false,"rental_uris":{"android":"levelo://app?vid=4d49d7bf-c387-4802-8134-39419f66ab07","ios":"levelo://app?vid=4d49d7bf-c387-4802-8134-39419f66ab07"},"vehicle_type_id":"4","last_reported":1744621941,"current_range_meters":7200,"station_id":"ce4bhm12rcd13ifvqgkg","pricing_plan_id":"cebpf4jnsgd1na2vs0mg"},{"bike_id":"f7cd819f-b752-47cc-848d-ff43c669ccb8","system_id":"levelo_inurba_marseille","lat":43.30994,"lon":5.41738,"is_reserved":false,"is_disabled":false,"rental_uris":{"android":"levelo://app?vid=f7cd819f-b752-47cc-848d-ff43c669ccb8","ios":"levelo://app?vid=f7cd819f-b752-47cc-848d-ff43c669ccb8"},"vehicle_type_id":"4","last_reported":1744621941,"current_range_meters":8000,"station_id":"","pricing_plan_id":"cebpf4jnsgd1na2vs0mg"},{"bike_id":"8d77eca9-482b-49f8-a493-6136dd158a1e","system_id":"levelo_inurba_marseille","lat":43.31711,"lon":5.43706,"is_reserved":false,"is_disabled":false,"rental_uris":{"android":"levelo://app?vid=8d77eca9-482b-49f8-a493-6136dd158a1e","ios":"levelo://app?vid=8d77eca9-482b-49f8-a493-6136dd158a1e"},"vehicle_type_id":"4","last_reported":1744621941,"current_range_meters":8000,"station_id":"ce4bhp92rcd13ifvqhcg","pricing_plan_id":"cebpf4jnsgd1na2vs0mg"},{"bike_id":"efd328ca-f8bf-4550-bd94-c2fd75978f3c","system_id":"levelo_inurba_marseille","lat":43.33054,"lon":5.38079,"is_reserved":false,"is_disabled":false,"rental_uris":{"android":"levelo://app?vid=efd328ca-f8bf-4550-bd94-c2fd75978f3c","ios":"levelo://app?vid=efd328ca-f8bf-4550-bd94-c2fd75978f3c"},"vehicle_type_id":"4","last_reported":1744621941,"current_range_meters":8000,"station_id":"","pricing_plan_id":"cebpf4jnsgd1na2vs0mg"},{"bike_id":"7f6c4363-715d-4f42-b9a9-3392906a5fa6","system_id":"levelo_inurba_marseille","lat":43.24671,"lon":5.38152,"is_reserved":false,"is_disabled":false,"rental_uris":{"android":"levelo://app?vid=7f6c4363-715d-4f42-b9a9-3392906a5fa6","ios":"levelo://app?vid=7f6c4363-715d-4f42-b9a9-3392906a5fa6"},"vehicle_type_id":"4","last_reported":1744621941,"current_range_meters":8400,"station_id":"ce4bhih2rcd13ifvqfr0","pricing_plan_id":"cebpf4jnsgd1na2vs0mg"},{"bike_id":"ca3d52e1-db35-4b19-9d9e-6d5cf7a28ee8","system_id":"levelo_inurba_marseille","lat":43.26798,"lon":5.40265,"is_reserved":false,"is_disabled":false,"rental_uris":{"android":"levelo://app?vid=ca3d52e1-db35-4b19-9d9e-6d5cf7a28ee8","ios":"levelo://app?vid=ca3d52e1-db35-4b19-9d9e-6d5cf7a28ee8"},"vehicle_type_id":"4","last_reported":1744621941,"current_range_meters":8400,"station_id":"ce501612rcd8frsf0b60","pricing_plan_id":"cebpf4jnsgd1na2vs0mg"},{"bike_id":"b55dd5e7-54b2-4035-b945-7b626dd7afc7","system_id":"levelo_inurba_marseille","lat":43.27547,"lon":5.40916,"is_reserved":false,"is_disabled":false,"rental_uris":{"android":"levelo://app?vid=b55dd5e7-54b2-4035-b945-7b626dd7afc7","ios":"levelo://app?vid=b55dd5e7-54b2-4035-b945-7b626dd7afc7"},"vehicle_type_id":"4","last_reported":1744621941,"current_range_meters":8400,"station_id":"","pricing_plan_id":"cebpf4jnsgd1na2vs0mg"},{"bike_id":"982bb1bc-457f-43d7-ae21-85035c856353","system_id":"levelo_inurba_marseille","lat":43.22479,"lon":5.34734,"is_reserved":false,"is_disabled":true,"rental_uris":{"android":"levelo://app?vid=982bb1bc-457f-43d7-ae21-85035c856353","ios":"levelo://app?vid=982bb1bc-457f-43d7-ae21-85035c856353"},"vehicle_type_id":"4","last_reported":1744621941,"current_range_meters":8400,"station_id":"st_cvj5dfep6f1abm77gieg","pricing_plan_id":"cebpf4jnsgd1na2vs0mg"},{"bike_id":"eb4e6679-4542-4a79-a018-f9245a5ade68","system_id":"levelo_inurba_marseille","lat":43.26779,"lon":5.39412,"is_reserved":false,"is_disabled":false,"rental_uris":{"android":"levelo://app?vid=eb4e6679-4542-4a79-a018-f9245a5ade68","ios":"levelo://app?vid=eb4e6679-4542-4a79-a018-f9245a5ade68"},"vehicle_type_id":"4","last_reported":1744621941,"current_range_meters":8400,"station_id":"ce4bhh12rcd13ifvqfg0","pricing_plan_id":"cebpf4jnsgd1na2vs0mg"},{"bike_id":"a3bf51d9-08b7-458c-9b6d-ef5680cc95d6","system_id":"levelo_inurba_marseille","lat":43.21761,"lon":5.34611,"is_reserved":false,"is_disabled":true,"rental_uris":{"android":"levelo://app?vid=a3bf51d9-08b7-458c-9b6d-ef5680cc95d6","ios":"levelo://app?vid=a3bf51d9-08b7-458c-9b6d-ef5680cc95d6"},"vehicle_type_id":"4","last_reported":1744621941,"current_range_meters":8400,"station_id":"st_cvj6r9ubvosntc0bgbag","pricing_plan_id":"cebpf4jnsgd1na2vs0mg"},{"bike_id":"189bc3aa-c23a-4e02-a51e-2e6020d77594","system_id":"levelo_inurba_marseille","lat":43.23144,"lon":5.43718,"is_reserved":false,"is_disabled":false,"rental_uris":{"android":"levelo://app?vid=189bc3aa-c23a-4e02-a51e-2e6020d77594","ios":"levelo://app?vid=189bc3aa-c23a-4e02-a51e-2e6020d77594"},"vehicle_type_id":"4","last_reported":1744621941,"current_range_meters":8800,"station_id":"ce4bhmp2rcd13ifvqgog","pricing_plan_id":"cebpf4jnsgd1na2vs0mg"},{"bike_id":"449480e3-6c26-48de-90c0-ab6234028670","system_id":"levelo_inurba_marseille","lat":43.29915,"lon":5.37469,"is_reserved":false,"is_disabled":true,"rental_uris":{"android":"levelo://app?vid=449480e3-6c26-48de-90c0-ab6234028670","ios":"levelo://app?vid=449480e3-6c26-48de-90c0-ab6234028670"},"vehicle_type_id":"4","last_reported":1744621941,"current_range_meters":8800,"station_id":"ce4bgjh2rcd13ifvqbg0","pricing_plan_id":"cebpf4jnsgd1na2vs0mg"},{"bike_id":"bac238c1-16ce-4496-8a56-a76b60a16357","system_id":"levelo_inurba_marseille","lat":43.28706,"lon":5.39965,"is_reserved":false,"is_disabled":false,"rental_uris":{"android":"levelo://app?vid=bac238c1-16ce-4496-8a56-a76b60a16357","ios":"levelo://app?vid=bac238c1-16ce-4496-8a56-a76b60a16357"},"vehicle_type_id":"4","last_reported":1744621941,"current_range_meters":9200,"station_id":"ce4bho92rcd13ifvqh3g","pricing_plan_id":"cebpf4jnsgd1na2vs0mg"},{"bike_id":"8dad6003-637c-464f-bcd0-a8c1537aea14","system_id":"levelo_inurba_marseille","lat":43.30541,"lon":5.36547,"is_reserved":false,"is_disabled":false,"rental_uris":{"android":"levelo://app?vid=8dad6003-637c-464f-bcd0-a8c1537aea14","ios":"levelo://app?vid=8dad6003-637c-464f-bcd0-a8c1537aea14"},"vehicle_type_id":"4","last_reported":1744621941,"current_range_meters":9200,"station_id":"ce4bgs12rcd13ifvqcag","pricing_plan_id":"cebpf4jnsgd1na2vs0mg"},{"bike_id":"d9b944a5-6dce-400f-9283-0c176a86691a","system_id":"levelo_inurba_marseille","lat":43.31344,"lon":5.36727,"is_reserved":false,"is_disabled":false,"rental_uris":{"android":"levelo://app?vid=d9b944a5-6dce-400f-9283-0c176a86691a","ios":"levelo://app?vid=d9b944a5-6dce-400f-9283-0c176a86691a"},"vehicle_type_id":"4","last_reported":1744621941,"current_range_meters":9600,"station_id":"ce4bgr92rcd13ifvqc6g","pricing_plan_id":"cebpf4jnsgd1na2vs0mg"},{"bike_id":"72ebdd68-4727-45bd-ae87-df9c54928155","system_id":"levelo_inurba_marseille","lat":43.32535,"lon":5.41052,"is_reserved":false,"is_disabled":false,"rental_uris":{"android":"levelo://app?vid=72ebdd68-4727-45bd-ae87-df9c54928155","ios":"levelo://app?vid=72ebdd68-4727-45bd-ae87-df9c54928155"},"vehicle_type_id":"4","last_reported":1744621941,"current_range_meters":10000,"station_id":"","pricing_plan_id":"cebpf4jnsgd1na2vs0mg"},{"bike_id":"6a003e47-a1cc-4c38-b762-6e37af426d05","system_id":"levelo_inurba_marseille","lat":43.32357,"lon":5.36731,"is_reserved":false,"is_disabled":false,"rental_uris":{"android":"levelo://app?vid=6a003e47-a1cc-4c38-b762-6e37af426d05","ios":"levelo://app?vid=6a003e47-a1cc-4c38-b762-6e37af426d05"},"vehicle_type_id":"4","last_reported":1744621941,"current_range_meters":10000,"station_id":"ce4bhsh2rcd13ifvqi2g","pricing_plan_id":"cebpf4jnsgd1na2vs0mg"},{"bike_id":"65f98b52-627f-4221-921f-c1d48e4da20d","system_id":"levelo_inurba_marseille","lat":43.21744,"lon":5.346,"is_reserved":false,"is_disabled":true,"rental_uris":{"android":"levelo://app?vid=65f98b52-627f-4221-921f-c1d48e4da20d","ios":"levelo://app?vid=65f98b52-627f-4221-921f-c1d48e4da20d"},"vehicle_type_id":"4","last_reported":1744621941,"current_range_meters":10000,"station_id":"st_cvj6r9ubvosntc0bgbag","pricing_plan_id":"cebpf4jnsgd1na2vs0mg"},{"bike_id":"0d6889fd-fc28-4905-ae73-dde45f2ce921","system_id":"levelo_inurba_marseille","lat":43.24638,"lon":5.38117,"is_reserved":false,"is_disabled":false,"rental_uris":{"android":"levelo://app?vid=0d6889fd-fc28-4905-ae73-dde45f2ce921","ios":"levelo://app?vid=0d6889fd-fc28-4905-ae73-dde45f2ce921"},"vehicle_type_id":"4","last_reported":1744621941,"current_range_meters":10000,"station_id":"ce4bhih2rcd13ifvqfr0","pricing_plan_id":"cebpf4jnsgd1na2vs0mg"},{"bike_id":"6707f46e-ada6-4537-9c75-362f9a324015","system_id":"levelo_inurba_marseille","lat":43.28475,"lon":5.38405,"is_reserved":false,"is_disabled":false,"rental_uris":{"android":"levelo://app?vid=6707f46e-ada6-4537-9c75-362f9a324015","ios":"levelo://app?vid=6707f46e-ada6-4537-9c75-362f9a324015"},"vehicle_type_id":"4","last_reported":1744621941,"current_range_meters":10000,"station_id":"ce4bh512rcd13ifvqe3g","pricing_plan_id":"cebpf4jnsgd1na2vs0mg"},{"bike_id":"5cacdac6-936a-44c6-9e06-3d5924e24ab3","system_id":"levelo_inurba_marseille","lat":43.28417,"lon":5.34973,"is_reserved":false,"is_disabled":false,"rental_uris":{"android":"levelo://app?vid=5cacdac6-936a-44c6-9e06-3d5924e24ab3","ios":"levelo://app?vid=5cacdac6-936a-44c6-9e06-3d5924e24ab3"},"vehicle_type_id":"4","last_reported":1744621941,"current_range_meters":10800,"station_id":"ce4bhbh2rcd13ifvqepg","pricing_plan_id":"cebpf4jnsgd1na2vs0mg"},{"bike_id":"d5af90ae-27b6-47e0-be4b-9cc31ee22777","system_id":"levelo_inurba_marseille","lat":43.305366,"lon":5.367071,"is_reserved":false,"is_disabled":false,"rental_uris":{"android":"levelo://app?vid=d5af90ae-27b6-47e0-be4b-9cc31ee22777","ios":"levelo://app?vid=d5af90ae-27b6-47e0-be4b-9cc31ee22777"},"vehicle_type_id":"4","last_reported":1744621941,"current_range_meters":10800,"station_id":"ce4bgrp2rcd13ifvqc9g","pricing_plan_id":"cebpf4jnsgd1na2vs0mg"},{"bike_id":"52467ef2-bb23-4d5a-aebd-2782338dc161","system_id":"levelo_inurba_marseille","lat":43.21191,"lon":5.35083,"is_reserved":false,"is_disabled":false,"rental_uris":{"android":"levelo://app?vid=52467ef2-bb23-4d5a-aebd-2782338dc161","ios":"levelo://app?vid=52467ef2-bb23-4d5a-aebd-2782338dc161"},"vehicle_type_id":"4","last_reported":1744621941,"current_range_meters":10800,"station_id":"","pricing_plan_id":"cebpf4jnsgd1na2vs0mg"},{"bike_id":"525d972b-6aa7-4562-af1d-4484491521b7","system_id":"levelo_inurba_marseille","lat":43.29565,"lon":5.37514,"is_reserved":false,"is_disabled":true,"rental_uris":{"android":"levelo://app?vid=525d972b-6aa7-4562-af1d-4484491521b7","ios":"levelo://app?vid=525d972b-6aa7-4562-af1d-4484491521b7"},"vehicle_type_id":"4","last_reported":1744621941,"current_range_meters":10800,"station_id":"ce4bgh92rcd13ifvqb50","pricing_plan_id":"cebpf4jnsgd1na2vs0mg"},{"bike_id":"e6be24a9-462c-4d93-b7b5-635bacae826f","system_id":"levelo_inurba_marseille","lat":43.2991,"lon":5.40375,"is_reserved":false,"is_disabled":false,"rental_uris":{"android":"levelo://app?vid=e6be24a9-462c-4d93-b7b5-635bacae826f","ios":"levelo://app?vid=e6be24a9-462c-4d93-b7b5-635bacae826f"},"vehicle_type_id":"4","last_reported":1744621941,"current_range_meters":10800,"station_id":"","pricing_plan_id":"cebpf4jnsgd1na2vs0mg"},{"bike_id":"0aa65239-32d3-4c6e-904e-fd7b61d7cf9e","system_id":"levelo_inurba_marseille","lat":43.301336,"lon":5.38773,"is_reserved":false,"is_disabled":false,"rental_uris":{"android":"levelo://app?vid=0aa65239-32d3-4c6e-904e-fd7b61d7cf9e","ios":"levelo://app?vid=0aa65239-32d3-4c6e-904e-fd7b61d7cf9e"},"vehicle_type_id":"4","last_reported":1744621941,"current_range_meters":11200,"station_id":"ce4bgjh2rcd13ifvqbf0","pricing_plan_id":"cebpf4jnsgd1na2vs0mg"},{"bike_id":"09549c8f-3299-4588-aab6-27f9a9679ef8","system_id":"levelo_inurba_marseille","lat":43.27971,"lon":5.38735,"is_reserved":false,"is_disabled":false,"rental_uris":{"android":"levelo://app?vid=09549c8f-3299-4588-aab6-27f9a9679ef8","ios":"levelo://app?vid=09549c8f-3299-4588-aab6-27f9a9679ef8"},"vehicle_type_id":"4","last_reported":1744621941,"current_range_meters":11200,"station_id":"ce4bhg12rcd13ifvqf80","pricing_plan_id":"cebpf4jnsgd1na2vs0mg"},{"bike_id":"ece71115-0f99-4b98-8cf0-dd86ae7901a5","system_id":"levelo_inurba_marseille","lat":43.23154,"lon":5.43736,"is_reserved":false,"is_disabled":false,"rental_uris":{"android":"levelo://app?vid=ece71115-0f99-4b98-8cf0-dd86ae7901a5","ios":"levelo://app?vid=ece71115-0f99-4b98-8cf0-dd86ae7901a5"},"vehicle_type_id":"4","last_reported":1744621941,"current_range_meters":11200,"station_id":"ce4bhmp2rcd13ifvqgog","pricing_plan_id":"cebpf4jnsgd1na2vs0mg"},{"bike_id":"94fb3101-61df-4d0c-b9a1-59533bc5b3a7","system_id":"levelo_inurba_marseille","lat":43.26931,"lon":5.4029,"is_reserved":false,"is_disabled":true,"rental_uris":{"android":"levelo://app?vid=94fb3101-61df-4d0c-b9a1-59533bc5b3a7","ios":"levelo://app?vid=94fb3101-61df-4d0c-b9a1-59533bc5b3a7"},"vehicle_type_id":"4","last_reported":1744621941,"current_range_meters":11200,"station_id":"cjm6bp8fraef2m0cb0m0","pricing_plan_id":"cebpf4jnsgd1na2vs0mg"},{"bike_id":"0aa181d9-b359-4f53-b3a9-5e004ef45387","system_id":"levelo_inurba_marseille","lat":43.29503,"lon":5.37508,"is_reserved":false,"is_disabled":false,"rental_uris":{"android":"levelo://app?vid=0aa181d9-b359-4f53-b3a9-5e004ef45387","ios":"levelo://app?vid=0aa181d9-b359-4f53-b3a9-5e004ef45387"},"vehicle_type_id":"4","last_reported":1744621941,"current_range_meters":11200,"station_id":"ce4bgkp2rcd13ifvqbmg","pricing_plan_id":"cebpf4jnsgd1na2vs0mg"},{"bike_id":"343cc64c-4a39-45e1-84bf-d73c3feac488","system_id":"levelo_inurba_marseille","lat":43.31487,"lon":5.37291,"is_reserved":false,"is_disabled":false,"rental_uris":{"android":"levelo://app?vid=343cc64c-4a39-45e1-84bf-d73c3feac488","ios":"levelo://app?vid=343cc64c-4a39-45e1-84bf-d73c3feac488"},"vehicle_type_id":"4","last_reported":1744621941,"current_range_meters":11200,"station_id":"ce4bgt12rcd13ifvqcd0","pricing_plan_id":"cebpf4jnsgd1na2vs0mg"},{"bike_id":"ea4daacc-d1ef-47e2-9d0a-690fb7f50e2d","system_id":"levelo_inurba_marseille","lat":43.30105,"lon":5.39068,"is_reserved":false,"is_disabled":false,"rental_uris":{"android":"levelo://app?vid=ea4daacc-d1ef-47e2-9d0a-690fb7f50e2d","ios":"levelo://app?vid=ea4daacc-d1ef-47e2-9d0a-690fb7f50e2d"},"vehicle_type_id":"4","last_reported":1744621941,"current_range_meters":11600,"station_id":"ce4bh192rcd13ifvqdb0","pricing_plan_id":"cebpf4jnsgd1na2vs0mg"},{"bike_id":"372b8ce0-7fdb-46f6-ac97-acbeef8c79d9","system_id":"levelo_inurba_marseille","lat":43.304325,"lon":5.397444,"is_reserved":false,"is_disabled":false,"rental_uris":{"android":"levelo://app?vid=372b8ce0-7fdb-46f6-ac97-acbeef8c79d9","ios":"levelo://app?vid=372b8ce0-7fdb-46f6-ac97-acbeef8c79d9"},"vehicle_type_id":"4","last_reported":1744621941,"current_range_meters":12000,"station_id":"ce4bgi92rcd13ifvqb90","pricing_plan_id":"cebpf4jnsgd1na2vs0mg"},{"bike_id":"40075b29-f6e3-4cb1-9e69-a352d70ad70b","system_id":"levelo_inurba_marseille","lat":43.25947,"lon":5.40865,"is_reserved":false,"is_disabled":false,"rental_uris":{"android":"levelo://app?vid=40075b29-f6e3-4cb1-9e69-a352d70ad70b","ios":"levelo://app?vid=40075b29-f6e3-4cb1-9e69-a352d70ad70b"},"vehicle_type_id":"4","last_reported":1744621941,"current_range_meters":12000,"station_id":"ce4bhm92rcd13ifvqglg","pricing_plan_id":"cebpf4jnsgd1na2vs0mg"},{"bike_id":"94ebb454-9dc3-4e5a-a1c0-ae0c608bc7ee","system_id":"levelo_inurba_marseille","lat":43.279723,"lon":5.416627,"is_reserved":false,"is_disabled":false,"rental_uris":{"android":"levelo://app?vid=94ebb454-9dc3-4e5a-a1c0-ae0c608bc7ee","ios":"levelo://app?vid=94ebb454-9dc3-4e5a-a1c0-ae0c608bc7ee"},"vehicle_type_id":"4","last_reported":1744621941,"current_range_meters":12000,"station_id":"ce4bho12rcd13ifvqh1g","pricing_plan_id":"cebpf4jnsgd1na2vs0mg"},{"bike_id":"e49b5810-6037-495e-ad71-b3e66a7f0078","system_id":"levelo_inurba_marseille","lat":43.21748,"lon":5.34599,"is_reserved":false,"is_disabled":false,"rental_uris":{"android":"levelo://app?vid=e49b5810-6037-495e-ad71-b3e66a7f0078","ios":"levelo://app?vid=e49b5810-6037-495e-ad71-b3e66a7f0078"},"vehicle_type_id":"4","last_reported":1744621941,"current_range_meters":12400,"station_id":"st_cvj6r9ubvosntc0bgbag","pricing_plan_id":"cebpf4jnsgd1na2vs0mg"},{"bike_id":"8d3750bd-b62e-46fe-bd37-36952929bb38","system_id":"levelo_inurba_marseille","lat":43.28484,"lon":5.38414,"is_reserved":false,"is_disabled":false,"rental_uris":{"android":"levelo://app?vid=8d3750bd-b62e-46fe-bd37-36952929bb38","ios":"levelo://app?vid=8d3750bd-b62e-46fe-bd37-36952929bb38"},"vehicle_type_id":"4","last_reported":1744621941,"current_range_meters":12400,"station_id":"ce4bh512rcd13ifvqe3g","pricing_plan_id":"cebpf4jnsgd1na2vs0mg"},{"bike_id":"407b49ad-80ce-4c27-957c-a8582dd85f9e","system_id":"levelo_inurba_marseille","lat":43.28617,"lon":5.35101,"is_reserved":false,"is_disabled":false,"rental_uris":{"android":"levelo://app?vid=407b49ad-80ce-4c27-957c-a8582dd85f9e","ios":"levelo://app?vid=407b49ad-80ce-4c27-957c-a8582dd85f9e"},"vehicle_type_id":"4","last_reported":1744621941,"current_range_meters":12800,"station_id":"ce4bhch2rcd13ifvqeug","pricing_plan_id":"cebpf4jnsgd1na2vs0mg"},{"bike_id":"087785a6-fd77-4ee0-8c08-3f0f6a5a6eef","system_id":"levelo_inurba_marseille","lat":43.31537,"lon":5.38021,"is_reserved":false,"is_disabled":false,"rental_uris":{"android":"levelo://app?vid=087785a6-fd77-4ee0-8c08-3f0f6a5a6eef","ios":"levelo://app?vid=087785a6-fd77-4ee0-8c08-3f0f6a5a6eef"},"vehicle_type_id":"4","last_reported":1744621941,"current_range_meters":14000,"station_id":"ce4bhsp2rcd13ifvqi50","pricing_plan_id":"cebpf4jnsgd1na2vs0mg"},{"bike_id":"9481a4d4-998c-4242-822b-0b8fa3017440","system_id":"levelo_inurba_marseille","lat":43.28856,"lon":5.39331,"is_reserved":false,"is_disabled":true,"rental_uris":{"android":"levelo://app?vid=9481a4d4-998c-4242-822b-0b8fa3017440","ios":"levelo://app?vid=9481a4d4-998c-4242-822b-0b8fa3017440"},"vehicle_type_id":"4","last_reported":1744621941,"current_range_meters":14000,"station_id":"ce4bh2p2rcd13ifvqdi0","pricing_plan_id":"cebpf4jnsgd1na2vs0mg"},{"bike_id":"86ac3ad7-4349-4b45-82d1-b61ad882a2f6","system_id":"levelo_inurba_marseille","lat":43.217578,"lon":5.346061,"is_reserved":false,"is_disabled":true,"rental_uris":{"android":"levelo://app?vid=86ac3ad7-4349-4b45-82d1-b61ad882a2f6","ios":"levelo://app?vid=86ac3ad7-4349-4b45-82d1-b61ad882a2f6"},"vehicle_type_id":"4","last_reported":1744621941,"current_range_meters":14000,"station_id":"st_cvj6r9ubvosntc0bgbag","pricing_plan_id":"cebpf4jnsgd1na2vs0mg"},{"bike_id":"5418d109-d00b-4f33-abb8-1ad5dbc1c1ea","system_id":"levelo_inurba_marseille","lat":43.23152,"lon":5.43717,"is_reserved":false,"is_disabled":false,"rental_uris":{"android":"levelo://app?vid=5418d109-d00b-4f33-abb8-1ad5dbc1c1ea","ios":"levelo://app?vid=5418d109-d00b-4f33-abb8-1ad5dbc1c1ea"},"vehicle_type_id":"4","last_reported":1744621941,"current_range_meters":12800,"station_id":"ce4bhmp2rcd13ifvqgog","pricing_plan_id":"cebpf4jnsgd1na2vs0mg"},{"bike_id":"d2f6a288-7d44-4be4-b798-932022d90e9d","system_id":"levelo_inurba_marseille","lat":43.30272,"lon":5.37692,"is_reserved":false,"is_disabled":false,"rental_uris":{"android":"levelo://app?vid=d2f6a288-7d44-4be4-b798-932022d90e9d","ios":"levelo://app?vid=d2f6a288-7d44-4be4-b798-932022d90e9d"},"vehicle_type_id":"4","last_reported":1744621941,"current_range_meters":14400,"station_id":"ce4bguh2rcd13ifvqcj0","pricing_plan_id":"cebpf4jnsgd1na2vs0mg"},{"bike_id":"7182aec0-1b52-4a09-8029-e3fc72cad7de","system_id":"levelo_inurba_marseille","lat":43.32668,"lon":5.40994,"is_reserved":false,"is_disabled":false,"rental_uris":{"android":"levelo://app?vid=7182aec0-1b52-4a09-8029-e3fc72cad7de","ios":"levelo://app?vid=7182aec0-1b52-4a09-8029-e3fc72cad7de"},"vehicle_type_id":"4","last_reported":1744621941,"current_range_meters":14000,"station_id":"ce4bhpp2rcd13ifvqhgg","pricing_plan_id":"cebpf4jnsgd1na2vs0mg"},{"bike_id":"fb13c941-1858-46a4-86ad-2a5e302996c3","system_id":"levelo_inurba_marseille","lat":43.258589,"lon":5.399224,"is_reserved":false,"is_disabled":true,"rental_uris":{"android":"levelo://app?vid=fb13c941-1858-46a4-86ad-2a5e302996c3","ios":"levelo://app?vid=fb13c941-1858-46a4-86ad-2a5e302996c3"},"vehicle_type_id":"4","last_reported":1744621941,"current_range_meters":14800,"station_id":"ce4bhl92rcd13ifvqghg","pricing_plan_id":"cebpf4jnsgd1na2vs0mg"},{"bike_id":"9032fd9f-8258-4b06-828f-3216c8110290","system_id":"levelo_inurba_marseille","lat":43.3099,"lon":5.41731,"is_reserved":false,"is_disabled":true,"rental_uris":{"android":"levelo://app?vid=9032fd9f-8258-4b06-828f-3216c8110290","ios":"levelo://app?vid=9032fd9f-8258-4b06-828f-3216c8110290"},"vehicle_type_id":"4","last_reported":1744621941,"current_range_meters":14800,"station_id":"","pricing_plan_id":"cebpf4jnsgd1na2vs0mg"},{"bike_id":"5badbb30-e7bf-4735-8929-7b4b101f03b1","system_id":"levelo_inurba_marseille","lat":43.24171,"lon":5.36426,"is_reserved":false,"is_disabled":false,"rental_uris":{"android":"levelo://app?vid=5badbb30-e7bf-4735-8929-7b4b101f03b1","ios":"levelo://app?vid=5badbb30-e7bf-4735-8929-7b4b101f03b1"},"vehicle_type_id":"4","last_reported":1744621941,"current_range_meters":15200,"station_id":"cpo36qri1sfpv3e86is0","pricing_plan_id":"cebpf4jnsgd1na2vs0mg"},{"bike_id":"216a8464-4ea5-4b56-8cd6-224becea39c4","system_id":"levelo_inurba_marseille","lat":43.27841,"lon":5.40707,"is_reserved":false,"is_disabled":false,"rental_uris":{"android":"levelo://app?vid=216a8464-4ea5-4b56-8cd6-224becea39c4","ios":"levelo://app?vid=216a8464-4ea5-4b56-8cd6-224becea39c4"},"vehicle_type_id":"4","last_reported":1744621941,"current_range_meters":15200,"station_id":"ce4bhnh2rcd13ifvqgtg","pricing_plan_id":"cebpf4jnsgd1na2vs0mg"},{"bike_id":"b3abad71-f87e-4ce2-8270-30b7ee523b45","system_id":"levelo_inurba_marseille","lat":43.27892,"lon":5.3957,"is_reserved":false,"is_disabled":false,"rental_uris":{"android":"levelo://app?vid=b3abad71-f87e-4ce2-8270-30b7ee523b45","ios":"levelo://app?vid=b3abad71-f87e-4ce2-8270-30b7ee523b45"},"vehicle_type_id":"4","last_reported":1744621941,"current_range_meters":15200,"station_id":"ce4bhf92rcd13ifvqf40","pricing_plan_id":"cebpf4jnsgd1na2vs0mg"},{"bike_id":"59c7d7f9-492d-4240-b3d4-e8d1015f1ebd","system_id":"levelo_inurba_marseille","lat":43.2177,"lon":5.34602,"is_reserved":false,"is_disabled":true,"rental_uris":{"android":"levelo://app?vid=59c7d7f9-492d-4240-b3d4-e8d1015f1ebd","ios":"levelo://app?vid=59c7d7f9-492d-4240-b3d4-e8d1015f1ebd"},"vehicle_type_id":"4","last_reported":1744621941,"current_range_meters":16000,"station_id":"st_cvj6r9ubvosntc0bgbag","pricing_plan_id":"cebpf4jnsgd1na2vs0mg"},{"bike_id":"9943d934-278b-4495-a05f-a4f88d736bd5","system_id":"levelo_inurba_marseille","lat":43.30472,"lon":5.37901,"is_reserved":false,"is_disabled":false,"rental_uris":{"android":"levelo://app?vid=9943d934-278b-4495-a05f-a4f88d736bd5","ios":"levelo://app?vid=9943d934-278b-4495-a05f-a4f88d736bd5"},"vehicle_type_id":"4","last_reported":1744621941,"current_range_meters":16000,"station_id":"ce4bgup2rcd13ifvqcn0","pricing_plan_id":"cebpf4jnsgd1na2vs0mg"},{"bike_id":"61377ee4-fd99-4c2f-b5ad-a5ac167d945b","system_id":"levelo_inurba_marseille","lat":43.23135,"lon":5.4368,"is_reserved":false,"is_disabled":false,"rental_uris":{"android":"levelo://app?vid=61377ee4-fd99-4c2f-b5ad-a5ac167d945b","ios":"levelo://app?vid=61377ee4-fd99-4c2f-b5ad-a5ac167d945b"},"vehicle_type_id":"4","last_reported":1744621941,"current_range_meters":16000,"station_id":"ce4bhmp2rcd13ifvqgog","pricing_plan_id":"cebpf4jnsgd1na2vs0mg"},{"bike_id":"27a55245-8dd2-4f1a-af63-95a9d7b71690","system_id":"levelo_inurba_marseille","lat":43.31068,"lon":5.37833,"is_reserved":false,"is_disabled":true,"rental_uris":{"android":"levelo://app?vid=27a55245-8dd2-4f1a-af63-95a9d7b71690","ios":"levelo://app?vid=27a55245-8dd2-4f1a-af63-95a9d7b71690"},"vehicle_type_id":"4","last_reported":1744621941,"current_range_meters":16000,"station_id":"","pricing_plan_id":"cebpf4jnsgd1na2vs0mg"},{"bike_id":"4c625349-4247-4aea-87b1-81a82200cfdd","system_id":"levelo_inurba_marseille","lat":43.28611,"lon":5.35103,"is_reserved":false,"is_disabled":false,"rental_uris":{"android":"levelo://app?vid=4c625349-4247-4aea-87b1-81a82200cfdd","ios":"levelo://app?vid=4c625349-4247-4aea-87b1-81a82200cfdd"},"vehicle_type_id":"4","last_reported":1744621941,"current_range_meters":16000,"station_id":"ce4bhch2rcd13ifvqeug","pricing_plan_id":"cebpf4jnsgd1na2vs0mg"},{"bike_id":"d5a25843-a862-432c-b9b2-e2627b892a44","system_id":"levelo_inurba_marseille","lat":43.31361,"lon":5.36737,"is_reserved":false,"is_disabled":false,"rental_uris":{"android":"levelo://app?vid=d5a25843-a862-432c-b9b2-e2627b892a44","ios":"levelo://app?vid=d5a25843-a862-432c-b9b2-e2627b892a44"},"vehicle_type_id":"4","last_reported":1744621941,"current_range_meters":16400,"station_id":"ce4bgr92rcd13ifvqc6g","pricing_plan_id":"cebpf4jnsgd1na2vs0mg"},{"bike_id":"06193771-8aa1-4d16-9857-63859c942569","system_id":"levelo_inurba_marseille","lat":43.29875,"lon":5.36279,"is_reserved":false,"is_disabled":false,"rental_uris":{"android":"levelo://app?vid=06193771-8aa1-4d16-9857-63859c942569","ios":"levelo://app?vid=06193771-8aa1-4d16-9857-63859c942569"},"vehicle_type_id":"4","last_reported":1744621941,"current_range_meters":16400,"station_id":"ce4bgpp2rcd13ifvqc3g","pricing_plan_id":"cebpf4jnsgd1na2vs0mg"},{"bike_id":"a94d9c5e-388d-4ab2-9053-b7b1895c03d5","system_id":"levelo_inurba_marseille","lat":43.30183,"lon":5.36607,"is_reserved":false,"is_disabled":false,"rental_uris":{"android":"levelo://app?vid=a94d9c5e-388d-4ab2-9053-b7b1895c03d5","ios":"levelo://app?vid=a94d9c5e-388d-4ab2-9053-b7b1895c03d5"},"vehicle_type_id":"4","last_reported":1744621941,"current_range_meters":16400,"station_id":"ce4bgrh2rcd13ifvqc8g","pricing_plan_id":"cebpf4jnsgd1na2vs0mg"},{"bike_id":"40db818b-5b9e-46bf-8274-264778958c39","system_id":"levelo_inurba_marseille","lat":43.23134,"lon":5.4365,"is_reserved":false,"is_disabled":false,"rental_uris":{"android":"levelo://app?vid=40db818b-5b9e-46bf-8274-264778958c39","ios":"levelo://app?vid=40db818b-5b9e-46bf-8274-264778958c39"},"vehicle_type_id":"4","last_reported":1744621941,"current_range_meters":16400,"station_id":"ce4bhmp2rcd13ifvqgog","pricing_plan_id":"cebpf4jnsgd1na2vs0mg"},{"bike_id":"a6535ba8-9ced-4cad-b71b-a79f16af244f","system_id":"levelo_inurba_marseille","lat":43.24659,"lon":5.38165,"is_reserved":false,"is_disabled":false,"rental_uris":{"android":"levelo://app?vid=a6535ba8-9ced-4cad-b71b-a79f16af244f","ios":"levelo://app?vid=a6535ba8-9ced-4cad-b71b-a79f16af244f"},"vehicle_type_id":"4","last_reported":1744621941,"current_range_meters":16800,"station_id":"ce4bhih2rcd13ifvqfr0","pricing_plan_id":"cebpf4jnsgd1na2vs0mg"},{"bike_id":"4bde7ac1-16a4-4691-a3fc-be036661e2eb","system_id":"levelo_inurba_marseille","lat":43.24172,"lon":5.36386,"is_reserved":false,"is_disabled":false,"rental_uris":{"android":"levelo://app?vid=4bde7ac1-16a4-4691-a3fc-be036661e2eb","ios":"levelo://app?vid=4bde7ac1-16a4-4691-a3fc-be036661e2eb"},"vehicle_type_id":"4","last_reported":1744621941,"current_range_meters":16800,"station_id":"cpo36qri1sfpv3e86is0","pricing_plan_id":"cebpf4jnsgd1na2vs0mg"},{"bike_id":"31ad0aaf-c76b-4424-b2d1-5e6ff16af216","system_id":"levelo_inurba_marseille","lat":43.30958,"lon":5.39015,"is_reserved":false,"is_disabled":false,"rental_uris":{"android":"levelo://app?vid=31ad0aaf-c76b-4424-b2d1-5e6ff16af216","ios":"levelo://app?vid=31ad0aaf-c76b-4424-b2d1-5e6ff16af216"},"vehicle_type_id":"4","last_reported":1744621941,"current_range_meters":16800,"station_id":"ce4bgup2rcd13ifvqco0","pricing_plan_id":"cebpf4jnsgd1na2vs0mg"},{"bike_id":"7068e823-0ef7-4bec-9d46-9774d9ea3ba0","system_id":"levelo_inurba_marseille","lat":43.3149,"lon":5.37277,"is_reserved":false,"is_disabled":false,"rental_uris":{"android":"levelo://app?vid=7068e823-0ef7-4bec-9d46-9774d9ea3ba0","ios":"levelo://app?vid=7068e823-0ef7-4bec-9d46-9774d9ea3ba0"},"vehicle_type_id":"4","last_reported":1744621941,"current_range_meters":16800,"station_id":"ce4bgt12rcd13ifvqcd0","pricing_plan_id":"cebpf4jnsgd1na2vs0mg"},{"bike_id":"3bf8413c-a546-4b64-8702-97357a8a9616","system_id":"levelo_inurba_marseille","lat":43.31685,"lon":5.40467,"is_reserved":false,"is_disabled":false,"rental_uris":{"android":"levelo://app?vid=3bf8413c-a546-4b64-8702-97357a8a9616","ios":"levelo://app?vid=3bf8413c-a546-4b64-8702-97357a8a9616"},"vehicle_type_id":"4","last_reported":1744621941,"current_range_meters":16800,"station_id":"ce4bh012rcd13ifvqd00","pricing_plan_id":"cebpf4jnsgd1na2vs0mg"},{"bike_id":"08e69920-6699-44a2-bf5e-065531bec167","system_id":"levelo_inurba_marseille","lat":43.29287,"lon":5.40142,"is_reserved":false,"is_disabled":true,"rental_uris":{"android":"levelo://app?vid=08e69920-6699-44a2-bf5e-065531bec167","ios":"levelo://app?vid=08e69920-6699-44a2-bf5e-065531bec167"},"vehicle_type_id":"4","last_reported":1744621941,"current_range_meters":16800,"station_id":"ce4bh312rcd13ifvqdk0","pricing_plan_id":"cebpf4jnsgd1na2vs0mg"},{"bike_id":"56135a82-d19f-45ea-a72c-58b1131d0fcb","system_id":"levelo_inurba_marseille","lat":43.280815,"lon":5.396695,"is_reserved":false,"is_disabled":true,"rental_uris":{"android":"levelo://app?vid=56135a82-d19f-45ea-a72c-58b1131d0fcb","ios":"levelo://app?vid=56135a82-d19f-45ea-a72c-58b1131d0fcb"},"vehicle_type_id":"4","last_reported":1744621941,"current_range_meters":16800,"station_id":"ce4bho12rcd13ifvqh2g","pricing_plan_id":"cebpf4jnsgd1na2vs0mg"},{"bike_id":"4c7e3872-2a7d-46f3-b581-3ef46671ef50","system_id":"levelo_inurba_marseille","lat":43.337444,"lon":5.374475,"is_reserved":false,"is_disabled":false,"rental_uris":{"android":"levelo://app?vid=4c7e3872-2a7d-46f3-b581-3ef46671ef50","ios":"levelo://app?vid=4c7e3872-2a7d-46f3-b581-3ef46671ef50"},"vehicle_type_id":"4","last_reported":1744621941,"current_range_meters":17200,"station_id":"","pricing_plan_id":"cebpf4jnsgd1na2vs0mg"},{"bike_id":"a818834f-725d-4dbb-9bab-d3518b1b13c4","system_id":"levelo_inurba_marseille","lat":43.32353,"lon":5.3672,"is_reserved":false,"is_disabled":false,"rental_uris":{"android":"levelo://app?vid=a818834f-725d-4dbb-9bab-d3518b1b13c4","ios":"levelo://app?vid=a818834f-725d-4dbb-9bab-d3518b1b13c4"},"vehicle_type_id":"4","last_reported":1744621941,"current_range_meters":17200,"station_id":"ce4bhsh2rcd13ifvqi2g","pricing_plan_id":"cebpf4jnsgd1na2vs0mg"},{"bike_id":"7c2a4588-bcf7-4c8d-b580-ff8de5ba6372","system_id":"levelo_inurba_marseille","lat":43.287183,"lon":5.399975,"is_reserved":false,"is_disabled":true,"rental_uris":{"android":"levelo://app?vid=7c2a4588-bcf7-4c8d-b580-ff8de5ba6372","ios":"levelo://app?vid=7c2a4588-bcf7-4c8d-b580-ff8de5ba6372"},"vehicle_type_id":"4","last_reported":1744621941,"current_range_meters":17200,"station_id":"ce4bho92rcd13ifvqh3g","pricing_plan_id":"cebpf4jnsgd1na2vs0mg"},{"bike_id":"4230ffa3-d9fb-492c-8abf-93fd582968a6","system_id":"levelo_inurba_marseille","lat":43.30133,"lon":5.39868,"is_reserved":false,"is_disabled":false,"rental_uris":{"android":"levelo://app?vid=4230ffa3-d9fb-492c-8abf-93fd582968a6","ios":"levelo://app?vid=4230ffa3-d9fb-492c-8abf-93fd582968a6"},"vehicle_type_id":"4","last_reported":1744621941,"current_range_meters":17200,"station_id":"ce4bh0h2rcd13ifvqd40","pricing_plan_id":"cebpf4jnsgd1na2vs0mg"},{"bike_id":"92acc3ad-3130-40c6-a9a1-3c9cc354f998","system_id":"levelo_inurba_marseille","lat":43.24393,"lon":5.37072,"is_reserved":false,"is_disabled":false,"rental_uris":{"android":"levelo://app?vid=92acc3ad-3130-40c6-a9a1-3c9cc354f998","ios":"levelo://app?vid=92acc3ad-3130-40c6-a9a1-3c9cc354f998"},"vehicle_type_id":"4","last_reported":1744621941,"current_range_meters":17200,"station_id":"ce4bhhh2rcd13ifvqfk0","pricing_plan_id":"cebpf4jnsgd1na2vs0mg"},{"bike_id":"a8791189-08ab-44ed-9124-c68d4aa71e0a","system_id":"levelo_inurba_marseille","lat":43.28709,"lon":5.39946,"is_reserved":false,"is_disabled":false,"rental_uris":{"android":"levelo://app?vid=a8791189-08ab-44ed-9124-c68d4aa71e0a","ios":"levelo://app?vid=a8791189-08ab-44ed-9124-c68d4aa71e0a"},"vehicle_type_id":"4","last_reported":1744621941,"current_range_meters":17600,"station_id":"ce4bho92rcd13ifvqh3g","pricing_plan_id":"cebpf4jnsgd1na2vs0mg"},{"bike_id":"91cd5f61-fcd7-440a-9c95-b35a968d1ead","system_id":"levelo_inurba_marseille","lat":43.25723,"lon":5.41113,"is_reserved":false,"is_disabled":false,"rental_uris":{"android":"levelo://app?vid=91cd5f61-fcd7-440a-9c95-b35a968d1ead","ios":"levelo://app?vid=91cd5f61-fcd7-440a-9c95-b35a968d1ead"},"vehicle_type_id":"4","last_reported":1744621941,"current_range_meters":17200,"station_id":"ce4bhkp2rcd13ifvqgd0","pricing_plan_id":"cebpf4jnsgd1na2vs0mg"},{"bike_id":"301f53d6-0a8d-48c7-b250-860880def1f4","system_id":"levelo_inurba_marseille","lat":43.31046,"lon":5.37094,"is_reserved":false,"is_disabled":false,"rental_uris":{"android":"levelo://app?vid=301f53d6-0a8d-48c7-b250-860880def1f4","ios":"levelo://app?vid=301f53d6-0a8d-48c7-b250-860880def1f4"},"vehicle_type_id":"4","last_reported":1744621941,"current_range_meters":17600,"station_id":"","pricing_plan_id":"cebpf4jnsgd1na2vs0mg"},{"bike_id":"85732ddb-8399-49d6-a41e-e00dbdf23169","system_id":"levelo_inurba_marseille","lat":43.32469,"lon":5.36568,"is_reserved":false,"is_disabled":false,"rental_uris":{"android":"levelo://app?vid=85732ddb-8399-49d6-a41e-e00dbdf23169","ios":"levelo://app?vid=85732ddb-8399-49d6-a41e-e00dbdf23169"},"vehicle_type_id":"4","last_reported":1744621941,"current_range_meters":17600,"station_id":"ce4bhs12rcd13ifvqhvg","pricing_plan_id":"cebpf4jnsgd1na2vs0mg"},{"bike_id":"d3764e5f-435b-45e6-9606-8ce5a1adcd07","system_id":"levelo_inurba_marseille","lat":43.314813,"lon":5.373043,"is_reserved":false,"is_disabled":false,"rental_uris":{"android":"levelo://app?vid=d3764e5f-435b-45e6-9606-8ce5a1adcd07","ios":"levelo://app?vid=d3764e5f-435b-45e6-9606-8ce5a1adcd07"},"vehicle_type_id":"4","last_reported":1744621941,"current_range_meters":17600,"station_id":"ce4bgt12rcd13ifvqcd0","pricing_plan_id":"cebpf4jnsgd1na2vs0mg"},{"bike_id":"86507adb-43c1-4a89-acc7-c74cd80a099f","system_id":"levelo_inurba_marseille","lat":43.23126,"lon":5.36661,"is_reserved":false,"is_disabled":false,"rental_uris":{"android":"levelo://app?vid=86507adb-43c1-4a89-acc7-c74cd80a099f","ios":"levelo://app?vid=86507adb-43c1-4a89-acc7-c74cd80a099f"},"vehicle_type_id":"4","last_reported":1744621941,"current_range_meters":17600,"station_id":"","pricing_plan_id":"cebpf4jnsgd1na2vs0mg"},{"bike_id":"cae5cb7a-b5a0-4962-b670-708b44fc2a06","system_id":"levelo_inurba_marseille","lat":43.3055,"lon":5.36531,"is_reserved":false,"is_disabled":false,"rental_uris":{"android":"levelo://app?vid=cae5cb7a-b5a0-4962-b670-708b44fc2a06","ios":"levelo://app?vid=cae5cb7a-b5a0-4962-b670-708b44fc2a06"},"vehicle_type_id":"4","last_reported":1744621941,"current_range_meters":17600,"station_id":"ce4bgs12rcd13ifvqcag","pricing_plan_id":"cebpf4jnsgd1na2vs0mg"},{"bike_id":"46e1fc9d-0b93-4a87-b368-562a1bf4c38d","system_id":"levelo_inurba_marseille","lat":43.34134,"lon":5.40899,"is_reserved":false,"is_disabled":false,"rental_uris":{"android":"levelo://app?vid=46e1fc9d-0b93-4a87-b368-562a1bf4c38d","ios":"levelo://app?vid=46e1fc9d-0b93-4a87-b368-562a1bf4c38d"},"vehicle_type_id":"4","last_reported":1744621941,"current_range_meters":17600,"station_id":"ce4bhqh2rcd13ifvqhlg","pricing_plan_id":"cebpf4jnsgd1na2vs0mg"},{"bike_id":"8219ad35-60a5-47e6-a4b6-d3c1e9726111","system_id":"levelo_inurba_marseille","lat":43.26802,"lon":5.40265,"is_reserved":false,"is_disabled":false,"rental_uris":{"android":"levelo://app?vid=8219ad35-60a5-47e6-a4b6-d3c1e9726111","ios":"levelo://app?vid=8219ad35-60a5-47e6-a4b6-d3c1e9726111"},"vehicle_type_id":"4","last_reported":1744621941,"current_range_meters":18000,"station_id":"ce501612rcd8frsf0b60","pricing_plan_id":"cebpf4jnsgd1na2vs0mg"},{"bike_id":"e1cdcd88-4a6b-4a95-887f-82f9936440ef","system_id":"levelo_inurba_marseille","lat":43.3255,"lon":5.41483,"is_reserved":false,"is_disabled":false,"rental_uris":{"android":"levelo://app?vid=e1cdcd88-4a6b-4a95-887f-82f9936440ef","ios":"levelo://app?vid=e1cdcd88-4a6b-4a95-887f-82f9936440ef"},"vehicle_type_id":"4","last_reported":1744621941,"current_range_meters":18000,"station_id":"ce4bhq12rcd13ifvqhhg","pricing_plan_id":"cebpf4jnsgd1na2vs0mg"},{"bike_id":"ec55715f-50ef-4b62-b932-d89df8729be7","system_id":"levelo_inurba_marseille","lat":43.31592,"lon":5.38853,"is_reserved":false,"is_disabled":false,"rental_uris":{"android":"levelo://app?vid=ec55715f-50ef-4b62-b932-d89df8729be7","ios":"levelo://app?vid=ec55715f-50ef-4b62-b932-d89df8729be7"},"vehicle_type_id":"4","last_reported":1744621941,"current_range_meters":18000,"station_id":"","pricing_plan_id":"cebpf4jnsgd1na2vs0mg"},{"bike_id":"2824982d-200e-44a1-a4f5-e56c9e409c44","system_id":"levelo_inurba_marseille","lat":43.33609,"lon":5.41019,"is_reserved":false,"is_disabled":false,"rental_uris":{"android":"levelo://app?vid=2824982d-200e-44a1-a4f5-e56c9e409c44","ios":"levelo://app?vid=2824982d-200e-44a1-a4f5-e56c9e409c44"},"vehicle_type_id":"4","last_reported":1744621941,"current_range_meters":17600,"station_id":"ce4bhqh2rcd13ifvqhmg","pricing_plan_id":"cebpf4jnsgd1na2vs0mg"},{"bike_id":"9863dab3-572f-4245-a75a-cb409f4924cf","system_id":"levelo_inurba_marseille","lat":43.27209,"lon":5.39174,"is_reserved":false,"is_disabled":false,"rental_uris":{"android":"levelo://app?vid=9863dab3-572f-4245-a75a-cb409f4924cf","ios":"levelo://app?vid=9863dab3-572f-4245-a75a-cb409f4924cf"},"vehicle_type_id":"4","last_reported":1744621941,"current_range_meters":18000,"station_id":"ce4bhhp2rcd13ifvqfm0","pricing_plan_id":"cebpf4jnsgd1na2vs0mg"},{"bike_id":"9ccaf1e8-d14c-4218-be36-430bac425c11","system_id":"levelo_inurba_marseille","lat":43.30618,"lon":5.3934,"is_reserved":false,"is_disabled":true,"rental_uris":{"android":"levelo://app?vid=9ccaf1e8-d14c-4218-be36-430bac425c11","ios":"levelo://app?vid=9ccaf1e8-d14c-4218-be36-430bac425c11"},"vehicle_type_id":"4","last_reported":1744621941,"current_range_meters":18800,"station_id":"ce4bh0p2rcd13ifvqd80","pricing_plan_id":"cebpf4jnsgd1na2vs0mg"},{"bike_id":"177c0557-58ff-4f4f-9a4b-4b8689a6410b","system_id":"levelo_inurba_marseille","lat":43.2873,"lon":5.39994,"is_reserved":false,"is_disabled":true,"rental_uris":{"android":"levelo://app?vid=177c0557-58ff-4f4f-9a4b-4b8689a6410b","ios":"levelo://app?vid=177c0557-58ff-4f4f-9a4b-4b8689a6410b"},"vehicle_type_id":"4","last_reported":1744621941,"current_range_meters":18800,"station_id":"ce4bho92rcd13ifvqh3g","pricing_plan_id":"cebpf4jnsgd1na2vs0mg"},{"bike_id":"a720b54c-4a31-4eb1-919a-9b9b7ea59606","system_id":"levelo_inurba_marseille","lat":43.23152,"lon":5.43715,"is_reserved":false,"is_disabled":false,"rental_uris":{"android":"levelo://app?vid=a720b54c-4a31-4eb1-919a-9b9b7ea59606","ios":"levelo://app?vid=a720b54c-4a31-4eb1-919a-9b9b7ea59606"},"vehicle_type_id":"4","last_reported":1744621941,"current_range_meters":18800,"station_id":"ce4bhmp2rcd13ifvqgog","pricing_plan_id":"cebpf4jnsgd1na2vs0mg"},{"bike_id":"1db2c28a-e0ef-4f48-818f-eb01d86707b7","system_id":"levelo_inurba_marseille","lat":43.29254,"lon":5.40898,"is_reserved":false,"is_disabled":true,"rental_uris":{"android":"levelo://app?vid=1db2c28a-e0ef-4f48-818f-eb01d86707b7","ios":"levelo://app?vid=1db2c28a-e0ef-4f48-818f-eb01d86707b7"},"vehicle_type_id":"4","last_reported":1744621941,"current_range_meters":18800,"station_id":"ce4bh192rcd13ifvqdc0","pricing_plan_id":"cebpf4jnsgd1na2vs0mg"},{"bike_id":"d086b975-47f5-4eb4-ad78-3037cf90f8af","system_id":"levelo_inurba_marseille","lat":43.301554,"lon":5.380915,"is_reserved":false,"is_disabled":false,"rental_uris":{"android":"levelo://app?vid=d086b975-47f5-4eb4-ad78-3037cf90f8af","ios":"levelo://app?vid=d086b975-47f5-4eb4-ad78-3037cf90f8af"},"vehicle_type_id":"4","last_reported":1744621941,"current_range_meters":18800,"station_id":"ce4bgjp2rcd13ifvqbh0","pricing_plan_id":"cebpf4jnsgd1na2vs0mg"},{"bike_id":"1d01be78-c40e-4baa-90dd-b4c39cf9e58c","system_id":"levelo_inurba_marseille","lat":43.31327,"lon":5.36729,"is_reserved":false,"is_disabled":false,"rental_uris":{"android":"levelo://app?vid=1d01be78-c40e-4baa-90dd-b4c39cf9e58c","ios":"levelo://app?vid=1d01be78-c40e-4baa-90dd-b4c39cf9e58c"},"vehicle_type_id":"4","last_reported":1744621941,"current_range_meters":18800,"station_id":"ce4bgr92rcd13ifvqc6g","pricing_plan_id":"cebpf4jnsgd1na2vs0mg"},{"bike_id":"382a1a40-cce5-4bcf-8677-ad51fb5a2457","system_id":"levelo_inurba_marseille","lat":43.28848,"lon":5.39333,"is_reserved":false,"is_disabled":true,"rental_uris":{"android":"levelo://app?vid=382a1a40-cce5-4bcf-8677-ad51fb5a2457","ios":"levelo://app?vid=382a1a40-cce5-4bcf-8677-ad51fb5a2457"},"vehicle_type_id":"4","last_reported":1744621941,"current_range_meters":18800,"station_id":"ce4bh2p2rcd13ifvqdi0","pricing_plan_id":"cebpf4jnsgd1na2vs0mg"},{"bike_id":"577ffec8-632b-4e30-b8cf-6b3da4fe608a","system_id":"levelo_inurba_marseille","lat":43.257293,"lon":5.417386,"is_reserved":false,"is_disabled":false,"rental_uris":{"android":"levelo://app?vid=577ffec8-632b-4e30-b8cf-6b3da4fe608a","ios":"levelo://app?vid=577ffec8-632b-4e30-b8cf-6b3da4fe608a"},"vehicle_type_id":"4","last_reported":1744621941,"current_range_meters":18800,"station_id":"","pricing_plan_id":"cebpf4jnsgd1na2vs0mg"},{"bike_id":"b41ed7a8-6296-412e-8181-1a96fb8e8ee7","system_id":"levelo_inurba_marseille","lat":43.2419,"lon":5.3972,"is_reserved":false,"is_disabled":false,"rental_uris":{"android":"levelo://app?vid=b41ed7a8-6296-412e-8181-1a96fb8e8ee7","ios":"levelo://app?vid=b41ed7a8-6296-412e-8181-1a96fb8e8ee7"},"vehicle_type_id":"4","last_reported":1744621941,"current_range_meters":19200,"station_id":"ce4bhn12rcd13ifvqgpg","pricing_plan_id":"cebpf4jnsgd1na2vs0mg"},{"bike_id":"5bd4080e-cdba-49c5-a829-9c3dae7d98e5","system_id":"levelo_inurba_marseille","lat":43.21745,"lon":5.34606,"is_reserved":false,"is_disabled":false,"rental_uris":{"android":"levelo://app?vid=5bd4080e-cdba-49c5-a829-9c3dae7d98e5","ios":"levelo://app?vid=5bd4080e-cdba-49c5-a829-9c3dae7d98e5"},"vehicle_type_id":"4","last_reported":1744621941,"current_range_meters":19200,"station_id":"st_cvj6r9ubvosntc0bgbag","pricing_plan_id":"cebpf4jnsgd1na2vs0mg"},{"bike_id":"d2d37f01-fa46-4fbc-a721-7789f4003663","system_id":"levelo_inurba_marseille","lat":43.24975,"lon":5.38957,"is_reserved":false,"is_disabled":false,"rental_uris":{"android":"levelo://app?vid=d2d37f01-fa46-4fbc-a721-7789f4003663","ios":"levelo://app?vid=d2d37f01-fa46-4fbc-a721-7789f4003663"},"vehicle_type_id":"4","last_reported":1744621941,"current_range_meters":19200,"station_id":"ce4bhgp2rcd13ifvqfd0","pricing_plan_id":"cebpf4jnsgd1na2vs0mg"},{"bike_id":"d3ef79fd-6570-4243-bf7a-f37d60285df3","system_id":"levelo_inurba_marseille","lat":43.24161,"lon":5.36402,"is_reserved":false,"is_disabled":false,"rental_uris":{"android":"levelo://app?vid=d3ef79fd-6570-4243-bf7a-f37d60285df3","ios":"levelo://app?vid=d3ef79fd-6570-4243-bf7a-f37d60285df3"},"vehicle_type_id":"4","last_reported":1744621941,"current_range_meters":19200,"station_id":"cpo36qri1sfpv3e86is0","pricing_plan_id":"cebpf4jnsgd1na2vs0mg"},{"bike_id":"7b98c8bb-62d9-4cd3-a36f-0a17b94f78cd","system_id":"levelo_inurba_marseille","lat":43.23479,"lon":5.38062,"is_reserved":false,"is_disabled":false,"rental_uris":{"android":"levelo://app?vid=7b98c8bb-62d9-4cd3-a36f-0a17b94f78cd","ios":"levelo://app?vid=7b98c8bb-62d9-4cd3-a36f-0a17b94f78cd"},"vehicle_type_id":"4","last_reported":1744621941,"current_range_meters":19200,"station_id":"","pricing_plan_id":"cebpf4jnsgd1na2vs0mg"},{"bike_id":"bcf727b5-05aa-475e-82e1-6dccf2fc85bd","system_id":"levelo_inurba_marseille","lat":43.30466,"lon":5.37913,"is_reserved":false,"is_disabled":false,"rental_uris":{"android":"levelo://app?vid=bcf727b5-05aa-475e-82e1-6dccf2fc85bd","ios":"levelo://app?vid=bcf727b5-05aa-475e-82e1-6dccf2fc85bd"},"vehicle_type_id":"4","last_reported":1744621941,"current_range_meters":19200,"station_id":"ce4bgup2rcd13ifvqcn0","pricing_plan_id":"cebpf4jnsgd1na2vs0mg"},{"bike_id":"c93af6c0-4439-4283-8d45-1b7e8a8fc0e4","system_id":"levelo_inurba_marseille","lat":43.29298,"lon":5.37438,"is_reserved":false,"is_disabled":true,"rental_uris":{"android":"levelo://app?vid=c93af6c0-4439-4283-8d45-1b7e8a8fc0e4","ios":"levelo://app?vid=c93af6c0-4439-4283-8d45-1b7e8a8fc0e4"},"vehicle_type_id":"4","last_reported":1744621941,"current_range_meters":19200,"station_id":"ce4bgi12rcd13ifvqb70","pricing_plan_id":"cebpf4jnsgd1na2vs0mg"},{"bike_id":"af757c1b-a0cd-42a7-b400-8982e931e188","system_id":"levelo_inurba_marseille","lat":43.30301,"lon":5.36888,"is_reserved":false,"is_disabled":false,"rental_uris":{"android":"levelo://app?vid=af757c1b-a0cd-42a7-b400-8982e931e188","ios":"levelo://app?vid=af757c1b-a0cd-42a7-b400-8982e931e188"},"vehicle_type_id":"4","last_reported":1744621941,"current_range_meters":19200,"station_id":"ce4bgqh2rcd13ifvqc5g","pricing_plan_id":"cebpf4jnsgd1na2vs0mg"},{"bike_id":"205a676e-388e-4b5d-b5d4-92bca6b76c07","system_id":"levelo_inurba_marseille","lat":43.31155,"lon":5.38016,"is_reserved":false,"is_disabled":true,"rental_uris":{"android":"levelo://app?vid=205a676e-388e-4b5d-b5d4-92bca6b76c07","ios":"levelo://app?vid=205a676e-388e-4b5d-b5d4-92bca6b76c07"},"vehicle_type_id":"4","last_reported":1744621941,"current_range_meters":19200,"station_id":"","pricing_plan_id":"cebpf4jnsgd1na2vs0mg"},{"bike_id":"673db6d5-564b-4a8f-9b04-864f8fcca5f5","system_id":"levelo_inurba_marseille","lat":43.30314,"lon":5.40439,"is_reserved":false,"is_disabled":true,"rental_uris":{"android":"levelo://app?vid=673db6d5-564b-4a8f-9b04-864f8fcca5f5","ios":"levelo://app?vid=673db6d5-564b-4a8f-9b04-864f8fcca5f5"},"vehicle_type_id":"4","last_reported":1744621941,"current_range_meters":19600,"station_id":"ce4bh012rcd13ifvqd10","pricing_plan_id":"cebpf4jnsgd1na2vs0mg"},{"bike_id":"3a953d45-bb3f-4ebe-92d4-eb03289fa90b","system_id":"levelo_inurba_marseille","lat":43.33609,"lon":5.41032,"is_reserved":false,"is_disabled":false,"rental_uris":{"android":"levelo://app?vid=3a953d45-bb3f-4ebe-92d4-eb03289fa90b","ios":"levelo://app?vid=3a953d45-bb3f-4ebe-92d4-eb03289fa90b"},"vehicle_type_id":"4","last_reported":1744621941,"current_range_meters":19200,"station_id":"ce4bhqh2rcd13ifvqhmg","pricing_plan_id":"cebpf4jnsgd1na2vs0mg"},{"bike_id":"b3ea20ce-5604-45b6-ace7-cad39f4f56d5","system_id":"levelo_inurba_marseille","lat":43.29676,"lon":5.36363,"is_reserved":false,"is_disabled":false,"rental_uris":{"android":"levelo://app?vid=b3ea20ce-5604-45b6-ace7-cad39f4f56d5","ios":"levelo://app?vid=b3ea20ce-5604-45b6-ace7-cad39f4f56d5"},"vehicle_type_id":"4","last_reported":1744621941,"current_range_meters":19600,"station_id":"","pricing_plan_id":"cebpf4jnsgd1na2vs0mg"},{"bike_id":"8ba8da06-09b4-4e35-9af5-e823a105a352","system_id":"levelo_inurba_marseille","lat":43.23074,"lon":5.35483,"is_reserved":false,"is_disabled":false,"rental_uris":{"android":"levelo://app?vid=8ba8da06-09b4-4e35-9af5-e823a105a352","ios":"levelo://app?vid=8ba8da06-09b4-4e35-9af5-e823a105a352"},"vehicle_type_id":"4","last_reported":1744621941,"current_range_meters":19600,"station_id":"cpo3342slgdg3j2ifvpg","pricing_plan_id":"cebpf4jnsgd1na2vs0mg"},{"bike_id":"7e41f0be-0635-4ea2-b735-b81673458d59","system_id":"levelo_inurba_marseille","lat":43.3078,"lon":5.37636,"is_reserved":false,"is_disabled":false,"rental_uris":{"android":"levelo://app?vid=7e41f0be-0635-4ea2-b735-b81673458d59","ios":"levelo://app?vid=7e41f0be-0635-4ea2-b735-b81673458d59"},"vehicle_type_id":"4","last_reported":1744621941,"current_range_meters":19600,"station_id":"ce4bgv92rcd13ifvqcq0","pricing_plan_id":"cebpf4jnsgd1na2vs0mg"},{"bike_id":"469cac9e-0c72-4c46-a796-98a152ab1135","system_id":"levelo_inurba_marseille","lat":43.23519,"lon":5.413599,"is_reserved":false,"is_disabled":false,"rental_uris":{"android":"levelo://app?vid=469cac9e-0c72-4c46-a796-98a152ab1135","ios":"levelo://app?vid=469cac9e-0c72-4c46-a796-98a152ab1135"},"vehicle_type_id":"4","last_reported":1744621941,"current_range_meters":19600,"station_id":"","pricing_plan_id":"cebpf4jnsgd1na2vs0mg"},{"bike_id":"06834faa-c1fb-4ed9-8247-ec51194e9560","system_id":"levelo_inurba_marseille","lat":43.27681,"lon":5.38912,"is_reserved":false,"is_disabled":false,"rental_uris":{"android":"levelo://app?vid=06834faa-c1fb-4ed9-8247-ec51194e9560","ios":"levelo://app?vid=06834faa-c1fb-4ed9-8247-ec51194e9560"},"vehicle_type_id":"4","last_reported":1744621941,"current_range_meters":19600,"station_id":"ce4bhi12rcd13ifvqfo0","pricing_plan_id":"cebpf4jnsgd1na2vs0mg"},{"bike_id":"f6c8f6a9-e39a-4139-94fa-41f49afbecc9","system_id":"levelo_inurba_marseille","lat":43.30553,"lon":5.36574,"is_reserved":false,"is_disabled":false,"rental_uris":{"android":"levelo://app?vid=f6c8f6a9-e39a-4139-94fa-41f49afbecc9","ios":"levelo://app?vid=f6c8f6a9-e39a-4139-94fa-41f49afbecc9"},"vehicle_type_id":"4","last_reported":1744621941,"current_range_meters":19600,"station_id":"ce4bgs12rcd13ifvqcag","pricing_plan_id":"cebpf4jnsgd1na2vs0mg"},{"bike_id":"8712c4fb-fd70-4efb-a2f3-0da4120a3f95","system_id":"levelo_inurba_marseille","lat":43.31191,"lon":5.38702,"is_reserved":false,"is_disabled":true,"rental_uris":{"android":"levelo://app?vid=8712c4fb-fd70-4efb-a2f3-0da4120a3f95","ios":"levelo://app?vid=8712c4fb-fd70-4efb-a2f3-0da4120a3f95"},"vehicle_type_id":"4","last_reported":1744621941,"current_range_meters":19600,"station_id":"ce4bgv12rcd13ifvqcp0","pricing_plan_id":"cebpf4jnsgd1na2vs0mg"},{"bike_id":"12929cbc-e99c-44b6-ac19-4ab2ea72c2c3","system_id":"levelo_inurba_marseille","lat":43.297405,"lon":5.362867,"is_reserved":false,"is_disabled":false,"rental_uris":{"android":"levelo://app?vid=12929cbc-e99c-44b6-ac19-4ab2ea72c2c3","ios":"levelo://app?vid=12929cbc-e99c-44b6-ac19-4ab2ea72c2c3"},"vehicle_type_id":"4","last_reported":1744621941,"current_range_meters":19600,"station_id":"ce4bgph2rcd13ifvqc2g","pricing_plan_id":"cebpf4jnsgd1na2vs0mg"},{"bike_id":"011b2f45-5872-4184-aed7-22d692c7e5ab","system_id":"levelo_inurba_marseille","lat":43.266828,"lon":5.38275,"is_reserved":false,"is_disabled":false,"rental_uris":{"android":"levelo://app?vid=011b2f45-5872-4184-aed7-22d692c7e5ab","ios":"levelo://app?vid=011b2f45-5872-4184-aed7-22d692c7e5ab"},"vehicle_type_id":"4","last_reported":1744621941,"current_range_meters":19600,"station_id":"ce4bhg92rcd13ifvqf90","pricing_plan_id":"cebpf4jnsgd1na2vs0mg"},{"bike_id":"79305d5c-f2c4-4a92-9d67-e375467df1b8","system_id":"levelo_inurba_marseille","lat":43.30473,"lon":5.37902,"is_reserved":false,"is_disabled":false,"rental_uris":{"android":"levelo://app?vid=79305d5c-f2c4-4a92-9d67-e375467df1b8","ios":"levelo://app?vid=79305d5c-f2c4-4a92-9d67-e375467df1b8"},"vehicle_type_id":"4","last_reported":1744621941,"current_range_meters":20000,"station_id":"ce4bgup2rcd13ifvqcn0","pricing_plan_id":"cebpf4jnsgd1na2vs0mg"},{"bike_id":"7b0b3e09-48e9-4b0f-943d-3699bb8f1001","system_id":"levelo_inurba_marseille","lat":43.30569,"lon":5.36701,"is_reserved":false,"is_disabled":false,"rental_uris":{"android":"levelo://app?vid=7b0b3e09-48e9-4b0f-943d-3699bb8f1001","ios":"levelo://app?vid=7b0b3e09-48e9-4b0f-943d-3699bb8f1001"},"vehicle_type_id":"4","last_reported":1744621941,"current_range_meters":20000,"station_id":"ce4bgrp2rcd13ifvqc9g","pricing_plan_id":"cebpf4jnsgd1na2vs0mg"},{"bike_id":"34f26fce-6ae3-4f51-8043-2c3bbf779d17","system_id":"levelo_inurba_marseille","lat":43.25584,"lon":5.38226,"is_reserved":false,"is_disabled":false,"rental_uris":{"android":"levelo://app?vid=34f26fce-6ae3-4f51-8043-2c3bbf779d17","ios":"levelo://app?vid=34f26fce-6ae3-4f51-8043-2c3bbf779d17"},"vehicle_type_id":"4","last_reported":1744621941,"current_range_meters":20000,"station_id":"ce4bhih2rcd13ifvqfs0","pricing_plan_id":"cebpf4jnsgd1na2vs0mg"},{"bike_id":"1c60beeb-dd04-4a98-9bf2-8393d9fc0a86","system_id":"levelo_inurba_marseille","lat":43.24986,"lon":5.38959,"is_reserved":false,"is_disabled":false,"rental_uris":{"android":"levelo://app?vid=1c60beeb-dd04-4a98-9bf2-8393d9fc0a86","ios":"levelo://app?vid=1c60beeb-dd04-4a98-9bf2-8393d9fc0a86"},"vehicle_type_id":"4","last_reported":1744621941,"current_range_meters":20000,"station_id":"ce4bhgp2rcd13ifvqfd0","pricing_plan_id":"cebpf4jnsgd1na2vs0mg"},{"bike_id":"fbacecab-fdbc-437f-ad37-ef07ea1c1eac","system_id":"levelo_inurba_marseille","lat":43.30564,"lon":5.36537,"is_reserved":false,"is_disabled":false,"rental_uris":{"android":"levelo://app?vid=fbacecab-fdbc-437f-ad37-ef07ea1c1eac","ios":"levelo://app?vid=fbacecab-fdbc-437f-ad37-ef07ea1c1eac"},"vehicle_type_id":"4","last_reported":1744621941,"current_range_meters":20000,"station_id":"ce4bgs12rcd13ifvqcag","pricing_plan_id":"cebpf4jnsgd1na2vs0mg"},{"bike_id":"43f58436-ed0c-4ef8-928b-e1986da84aa3","system_id":"levelo_inurba_marseille","lat":43.2294,"lon":5.35388,"is_reserved":false,"is_disabled":true,"rental_uris":{"android":"levelo://app?vid=43f58436-ed0c-4ef8-928b-e1986da84aa3","ios":"levelo://app?vid=43f58436-ed0c-4ef8-928b-e1986da84aa3"},"vehicle_type_id":"4","last_reported":1744621941,"current_range_meters":20000,"station_id":"","pricing_plan_id":"cebpf4jnsgd1na2vs0mg"},{"bike_id":"bcfb77a0-d0a8-4638-9c04-1e9349e968ce","system_id":"levelo_inurba_marseille","lat":43.31337,"lon":5.3968,"is_reserved":false,"is_disabled":false,"rental_uris":{"android":"levelo://app?vid=bcfb77a0-d0a8-4638-9c04-1e9349e968ce","ios":"levelo://app?vid=bcfb77a0-d0a8-4638-9c04-1e9349e968ce"},"vehicle_type_id":"4","last_reported":1744621941,"current_range_meters":20000,"station_id":"ce4bgvp2rcd13ifvqcu0","pricing_plan_id":"cebpf4jnsgd1na2vs0mg"},{"bike_id":"d3a0e309-41d2-4981-b517-0536179b4cff","system_id":"levelo_inurba_marseille","lat":43.33611,"lon":5.41002,"is_reserved":false,"is_disabled":false,"rental_uris":{"android":"levelo://app?vid=d3a0e309-41d2-4981-b517-0536179b4cff","ios":"levelo://app?vid=d3a0e309-41d2-4981-b517-0536179b4cff"},"vehicle_type_id":"4","last_reported":1744621941,"current_range_meters":20000,"station_id":"ce4bhqh2rcd13ifvqhmg","pricing_plan_id":"cebpf4jnsgd1na2vs0mg"},{"bike_id":"fe3bbc1f-7f75-4eef-b028-c7730d1645d3","system_id":"levelo_inurba_marseille","lat":43.26197,"lon":5.40452,"is_reserved":false,"is_disabled":false,"rental_uris":{"android":"levelo://app?vid=fe3bbc1f-7f75-4eef-b028-c7730d1645d3","ios":"levelo://app?vid=fe3bbc1f-7f75-4eef-b028-c7730d1645d3"},"vehicle_type_id":"4","last_reported":1744621941,"current_range_meters":20000,"station_id":"ce4bhmh2rcd13ifvqgmg","pricing_plan_id":"cebpf4jnsgd1na2vs0mg"},{"bike_id":"536fca80-7460-47b0-b6c6-8fb9f442dbaf","system_id":"levelo_inurba_marseille","lat":43.27491,"lon":5.42414,"is_reserved":false,"is_disabled":false,"rental_uris":{"android":"levelo://app?vid=536fca80-7460-47b0-b6c6-8fb9f442dbaf","ios":"levelo://app?vid=536fca80-7460-47b0-b6c6-8fb9f442dbaf"},"vehicle_type_id":"4","last_reported":1744621941,"current_range_meters":20000,"station_id":"ce4bhn92rcd13ifvqgrg","pricing_plan_id":"cebpf4jnsgd1na2vs0mg"},{"bike_id":"8ba444c2-d8e1-42ae-9dd8-6b48744e7629","system_id":"levelo_inurba_marseille","lat":43.30909,"lon":5.36672,"is_reserved":false,"is_disabled":true,"rental_uris":{"android":"levelo://app?vid=8ba444c2-d8e1-42ae-9dd8-6b48744e7629","ios":"levelo://app?vid=8ba444c2-d8e1-42ae-9dd8-6b48744e7629"},"vehicle_type_id":"4","last_reported":1744621941,"current_range_meters":20400,"station_id":"","pricing_plan_id":"cebpf4jnsgd1na2vs0mg"},{"bike_id":"69330968-31be-4072-8333-3419318ec490","system_id":"levelo_inurba_marseille","lat":43.29243,"lon":5.37602,"is_reserved":false,"is_disabled":false,"rental_uris":{"android":"levelo://app?vid=69330968-31be-4072-8333-3419318ec490","ios":"levelo://app?vid=69330968-31be-4072-8333-3419318ec490"},"vehicle_type_id":"4","last_reported":1744621941,"current_range_meters":20400,"station_id":"ce4bgi12rcd13ifvqb80","pricing_plan_id":"cebpf4jnsgd1na2vs0mg"},{"bike_id":"40e32cee-9c94-4ec8-8cc1-dfc745c5629a","system_id":"levelo_inurba_marseille","lat":43.24193,"lon":5.36403,"is_reserved":false,"is_disabled":false,"rental_uris":{"android":"levelo://app?vid=40e32cee-9c94-4ec8-8cc1-dfc745c5629a","ios":"levelo://app?vid=40e32cee-9c94-4ec8-8cc1-dfc745c5629a"},"vehicle_type_id":"4","last_reported":1744621941,"current_range_meters":20400,"station_id":"cpo36qri1sfpv3e86is0","pricing_plan_id":"cebpf4jnsgd1na2vs0mg"},{"bike_id":"5d34159c-a8dc-4edc-9a25-2b66ca7df509","system_id":"levelo_inurba_marseille","lat":43.30457,"lon":5.37911,"is_reserved":false,"is_disabled":false,"rental_uris":{"android":"levelo://app?vid=5d34159c-a8dc-4edc-9a25-2b66ca7df509","ios":"levelo://app?vid=5d34159c-a8dc-4edc-9a25-2b66ca7df509"},"vehicle_type_id":"4","last_reported":1744621941,"current_range_meters":20800,"station_id":"ce4bgup2rcd13ifvqcn0","pricing_plan_id":"cebpf4jnsgd1na2vs0mg"},{"bike_id":"42d1de0b-8ab3-460a-9c4e-a1adbfa578cc","system_id":"levelo_inurba_marseille","lat":43.28039,"lon":5.36931,"is_reserved":false,"is_disabled":true,"rental_uris":{"android":"levelo://app?vid=42d1de0b-8ab3-460a-9c4e-a1adbfa578cc","ios":"levelo://app?vid=42d1de0b-8ab3-460a-9c4e-a1adbfa578cc"},"vehicle_type_id":"4","last_reported":1744621941,"current_range_meters":20800,"station_id":"ce4bha12rcd13ifvqef0","pricing_plan_id":"cebpf4jnsgd1na2vs0mg"},{"bike_id":"ca0abc4f-7028-421f-aa58-bec3ef6bbcf9","system_id":"levelo_inurba_marseille","lat":43.289374,"lon":5.366397,"is_reserved":false,"is_disabled":false,"rental_uris":{"android":"levelo://app?vid=ca0abc4f-7028-421f-aa58-bec3ef6bbcf9","ios":"levelo://app?vid=ca0abc4f-7028-421f-aa58-bec3ef6bbcf9"},"vehicle_type_id":"4","last_reported":1744621941,"current_range_meters":20800,"station_id":"ce4bhap2rcd13ifvqek0","pricing_plan_id":"cebpf4jnsgd1na2vs0mg"},{"bike_id":"5cf6443d-70ca-4ec8-b6e1-d64c9c6fb393","system_id":"levelo_inurba_marseille","lat":43.27379,"lon":5.3624,"is_reserved":false,"is_disabled":true,"rental_uris":{"android":"levelo://app?vid=5cf6443d-70ca-4ec8-b6e1-d64c9c6fb393","ios":"levelo://app?vid=5cf6443d-70ca-4ec8-b6e1-d64c9c6fb393"},"vehicle_type_id":"4","last_reported":1744621941,"current_range_meters":20800,"station_id":"ce4bhbh2rcd13ifvqeo0","pricing_plan_id":"cebpf4jnsgd1na2vs0mg"},{"bike_id":"dc33496b-5042-4733-983a-1763470dcce0","system_id":"levelo_inurba_marseille","lat":43.26216,"lon":5.37439,"is_reserved":false,"is_disabled":false,"rental_uris":{"android":"levelo://app?vid=dc33496b-5042-4733-983a-1763470dcce0","ios":"levelo://app?vid=dc33496b-5042-4733-983a-1763470dcce0"},"vehicle_type_id":"4","last_reported":1744621941,"current_range_meters":20800,"station_id":"ce4bhgp2rcd13ifvqfc0","pricing_plan_id":"cebpf4jnsgd1na2vs0mg"},{"bike_id":"e699cb84-72cc-499d-a4b3-9822d7456264","system_id":"levelo_inurba_marseille","lat":43.32476,"lon":5.36572,"is_reserved":false,"is_disabled":false,"rental_uris":{"android":"levelo://app?vid=e699cb84-72cc-499d-a4b3-9822d7456264","ios":"levelo://app?vid=e699cb84-72cc-499d-a4b3-9822d7456264"},"vehicle_type_id":"4","last_reported":1744621941,"current_range_meters":21600,"station_id":"ce4bhs12rcd13ifvqhvg","pricing_plan_id":"cebpf4jnsgd1na2vs0mg"},{"bike_id":"567a54ba-753f-4023-8208-33ba9c05bde6","system_id":"levelo_inurba_marseille","lat":43.31348,"lon":5.36716,"is_reserved":false,"is_disabled":false,"rental_uris":{"android":"levelo://app?vid=567a54ba-753f-4023-8208-33ba9c05bde6","ios":"levelo://app?vid=567a54ba-753f-4023-8208-33ba9c05bde6"},"vehicle_type_id":"4","last_reported":1744621941,"current_range_meters":21600,"station_id":"ce4bgr92rcd13ifvqc6g","pricing_plan_id":"cebpf4jnsgd1na2vs0mg"},{"bike_id":"33f29b75-f4e6-4e71-a299-29a3904a9b72","system_id":"levelo_inurba_marseille","lat":43.34152,"lon":5.40914,"is_reserved":false,"is_disabled":false,"rental_uris":{"android":"levelo://app?vid=33f29b75-f4e6-4e71-a299-29a3904a9b72","ios":"levelo://app?vid=33f29b75-f4e6-4e71-a299-29a3904a9b72"},"vehicle_type_id":"4","last_reported":1744621941,"current_range_meters":21600,"station_id":"ce4bhqh2rcd13ifvqhlg","pricing_plan_id":"cebpf4jnsgd1na2vs0mg"},{"bike_id":"8da64415-4d9d-4156-ab31-17391ec4b299","system_id":"levelo_inurba_marseille","lat":43.26219,"lon":5.40454,"is_reserved":false,"is_disabled":false,"rental_uris":{"android":"levelo://app?vid=8da64415-4d9d-4156-ab31-17391ec4b299","ios":"levelo://app?vid=8da64415-4d9d-4156-ab31-17391ec4b299"},"vehicle_type_id":"4","last_reported":1744621941,"current_range_meters":21600,"station_id":"ce4bhmh2rcd13ifvqgmg","pricing_plan_id":"cebpf4jnsgd1na2vs0mg"},{"bike_id":"eea103dc-0411-4c85-b0e8-f4cb65f082d1","system_id":"levelo_inurba_marseille","lat":43.27434,"lon":5.39409,"is_reserved":false,"is_disabled":false,"rental_uris":{"android":"levelo://app?vid=eea103dc-0411-4c85-b0e8-f4cb65f082d1","ios":"levelo://app?vid=eea103dc-0411-4c85-b0e8-f4cb65f082d1"},"vehicle_type_id":"4","last_reported":1744621941,"current_range_meters":20800,"station_id":"ce4bhdp2rcd13ifvqf20","pricing_plan_id":"cebpf4jnsgd1na2vs0mg"},{"bike_id":"76a3601e-da42-4a63-8f00-19f09a3eb92e","system_id":"levelo_inurba_marseille","lat":43.28935,"lon":5.38384,"is_reserved":false,"is_disabled":false,"rental_uris":{"android":"levelo://app?vid=76a3601e-da42-4a63-8f00-19f09a3eb92e","ios":"levelo://app?vid=76a3601e-da42-4a63-8f00-19f09a3eb92e"},"vehicle_type_id":"4","last_reported":1744621941,"current_range_meters":22000,"station_id":"ce4bh612rcd13ifvqe6g","pricing_plan_id":"cebpf4jnsgd1na2vs0mg"},{"bike_id":"533e9005-f862-45be-8a27-cbe947d944e6","system_id":"levelo_inurba_marseille","lat":43.30307,"lon":5.37747,"is_reserved":false,"is_disabled":false,"rental_uris":{"android":"levelo://app?vid=533e9005-f862-45be-8a27-cbe947d944e6","ios":"levelo://app?vid=533e9005-f862-45be-8a27-cbe947d944e6"},"vehicle_type_id":"4","last_reported":1744621941,"current_range_meters":22000,"station_id":"ce4bguh2rcd13ifvqcj0","pricing_plan_id":"cebpf4jnsgd1na2vs0mg"},{"bike_id":"0f09b034-3a29-4120-87b8-ec783bc3f1bb","system_id":"levelo_inurba_marseille","lat":43.298811,"lon":5.375729,"is_reserved":false,"is_disabled":false,"rental_uris":{"android":"levelo://app?vid=0f09b034-3a29-4120-87b8-ec783bc3f1bb","ios":"levelo://app?vid=0f09b034-3a29-4120-87b8-ec783bc3f1bb"},"vehicle_type_id":"4","last_reported":1744621941,"current_range_meters":21600,"station_id":"ce4bgop2rcd13ifvqc1g","pricing_plan_id":"cebpf4jnsgd1na2vs0mg"},{"bike_id":"e2b5c1c3-8a61-4de4-a851-cf768b759e51","system_id":"levelo_inurba_marseille","lat":43.241831,"lon":5.397302,"is_reserved":false,"is_disabled":false,"rental_uris":{"android":"levelo://app?vid=e2b5c1c3-8a61-4de4-a851-cf768b759e51","ios":"levelo://app?vid=e2b5c1c3-8a61-4de4-a851-cf768b759e51"},"vehicle_type_id":"4","last_reported":1744621941,"current_range_meters":22000,"station_id":"ce4bhn12rcd13ifvqgpg","pricing_plan_id":"cebpf4jnsgd1na2vs0mg"},{"bike_id":"8063e7d9-e3b2-4980-90d9-afd2ccd3abf7","system_id":"levelo_inurba_marseille","lat":43.30166,"lon":5.38071,"is_reserved":false,"is_disabled":false,"rental_uris":{"android":"levelo://app?vid=8063e7d9-e3b2-4980-90d9-afd2ccd3abf7","ios":"levelo://app?vid=8063e7d9-e3b2-4980-90d9-afd2ccd3abf7"},"vehicle_type_id":"4","last_reported":1744621941,"current_range_meters":22000,"station_id":"ce4bgip2rcd13ifvqbb0","pricing_plan_id":"cebpf4jnsgd1na2vs0mg"},{"bike_id":"ad226b13-8fd9-43b6-a46f-1e7bc612aed0","system_id":"levelo_inurba_marseille","lat":43.301239,"lon":5.398955,"is_reserved":false,"is_disabled":false,"rental_uris":{"android":"levelo://app?vid=ad226b13-8fd9-43b6-a46f-1e7bc612aed0","ios":"levelo://app?vid=ad226b13-8fd9-43b6-a46f-1e7bc612aed0"},"vehicle_type_id":"4","last_reported":1744621941,"current_range_meters":22000,"station_id":"ce4bh0h2rcd13ifvqd40","pricing_plan_id":"cebpf4jnsgd1na2vs0mg"},{"bike_id":"0dbb8451-6fbf-4474-9639-bd687b68c8c2","system_id":"levelo_inurba_marseille","lat":43.33203,"lon":5.36712,"is_reserved":false,"is_disabled":false,"rental_uris":{"android":"levelo://app?vid=0dbb8451-6fbf-4474-9639-bd687b68c8c2","ios":"levelo://app?vid=0dbb8451-6fbf-4474-9639-bd687b68c8c2"},"vehicle_type_id":"4","last_reported":1744621941,"current_range_meters":22000,"station_id":"","pricing_plan_id":"cebpf4jnsgd1na2vs0mg"},{"bike_id":"f6375cd8-5ddf-4b3f-b398-501a93558e36","system_id":"levelo_inurba_marseille","lat":43.24182,"lon":5.36403,"is_reserved":false,"is_disabled":false,"rental_uris":{"android":"levelo://app?vid=f6375cd8-5ddf-4b3f-b398-501a93558e36","ios":"levelo://app?vid=f6375cd8-5ddf-4b3f-b398-501a93558e36"},"vehicle_type_id":"4","last_reported":1744621941,"current_range_meters":22000,"station_id":"cpo36qri1sfpv3e86is0","pricing_plan_id":"cebpf4jnsgd1na2vs0mg"},{"bike_id":"ba13a1f0-bd3b-46bd-a4ab-c1cd2a917a90","system_id":"levelo_inurba_marseille","lat":43.25112,"lon":5.40332,"is_reserved":false,"is_disabled":false,"rental_uris":{"android":"levelo://app?vid=ba13a1f0-bd3b-46bd-a4ab-c1cd2a917a90","ios":"levelo://app?vid=ba13a1f0-bd3b-46bd-a4ab-c1cd2a917a90"},"vehicle_type_id":"4","last_reported":1744621941,"current_range_meters":22400,"station_id":"ce4bhlh2rcd13ifvqgig","pricing_plan_id":"cebpf4jnsgd1na2vs0mg"},{"bike_id":"325660d2-d342-409d-acee-80392379eef3","system_id":"levelo_inurba_marseille","lat":43.2953,"lon":5.39044,"is_reserved":false,"is_disabled":false,"rental_uris":{"android":"levelo://app?vid=325660d2-d342-409d-acee-80392379eef3","ios":"levelo://app?vid=325660d2-d342-409d-acee-80392379eef3"},"vehicle_type_id":"4","last_reported":1744621941,"current_range_meters":22400,"station_id":"ce4bh3p2rcd13ifvqdp0","pricing_plan_id":"cebpf4jnsgd1na2vs0mg"},{"bike_id":"13cbbd1a-32ff-4c3a-9da5-9c5de663fe7a","system_id":"levelo_inurba_marseille","lat":43.24166,"lon":5.39728,"is_reserved":false,"is_disabled":false,"rental_uris":{"android":"levelo://app?vid=13cbbd1a-32ff-4c3a-9da5-9c5de663fe7a","ios":"levelo://app?vid=13cbbd1a-32ff-4c3a-9da5-9c5de663fe7a"},"vehicle_type_id":"4","last_reported":1744621941,"current_range_meters":22400,"station_id":"ce4bhn12rcd13ifvqgpg","pricing_plan_id":"cebpf4jnsgd1na2vs0mg"},{"bike_id":"f1250c6f-f810-45f3-811a-cd42a6956118","system_id":"levelo_inurba_marseille","lat":43.23161,"lon":5.43679,"is_reserved":false,"is_disabled":false,"rental_uris":{"android":"levelo://app?vid=f1250c6f-f810-45f3-811a-cd42a6956118","ios":"levelo://app?vid=f1250c6f-f810-45f3-811a-cd42a6956118"},"vehicle_type_id":"4","last_reported":1744621941,"current_range_meters":22400,"station_id":"ce4bhmp2rcd13ifvqgog","pricing_plan_id":"cebpf4jnsgd1na2vs0mg"},{"bike_id":"09e27f96-55e6-42b2-b6b0-c7d769d0be7b","system_id":"levelo_inurba_marseille","lat":43.33597,"lon":5.40986,"is_reserved":false,"is_disabled":true,"rental_uris":{"android":"levelo://app?vid=09e27f96-55e6-42b2-b6b0-c7d769d0be7b","ios":"levelo://app?vid=09e27f96-55e6-42b2-b6b0-c7d769d0be7b"},"vehicle_type_id":"4","last_reported":1744621941,"current_range_meters":22400,"station_id":"ce4bhqh2rcd13ifvqhmg","pricing_plan_id":"cebpf4jnsgd1na2vs0mg"},{"bike_id":"e0e7ad7d-c406-4eb8-98ff-5e16177860eb","system_id":"levelo_inurba_marseille","lat":43.29558,"lon":5.37515,"is_reserved":false,"is_disabled":false,"rental_uris":{"android":"levelo://app?vid=e0e7ad7d-c406-4eb8-98ff-5e16177860eb","ios":"levelo://app?vid=e0e7ad7d-c406-4eb8-98ff-5e16177860eb"},"vehicle_type_id":"4","last_reported":1744621941,"current_range_meters":22400,"station_id":"ce4bgh92rcd13ifvqb50","pricing_plan_id":"cebpf4jnsgd1na2vs0mg"},{"bike_id":"51a2eba3-e24d-40ec-a45e-b0e820953fd3","system_id":"levelo_inurba_marseille","lat":43.31339,"lon":5.36726,"is_reserved":false,"is_disabled":false,"rental_uris":{"android":"levelo://app?vid=51a2eba3-e24d-40ec-a45e-b0e820953fd3","ios":"levelo://app?vid=51a2eba3-e24d-40ec-a45e-b0e820953fd3"},"vehicle_type_id":"4","last_reported":1744621941,"current_range_meters":22400,"station_id":"ce4bgr92rcd13ifvqc6g","pricing_plan_id":"cebpf4jnsgd1na2vs0mg"},{"bike_id":"4c08dff0-d4e1-409c-bb4e-8cf40246f3cd","system_id":"levelo_inurba_marseille","lat":43.29571,"lon":5.39971,"is_reserved":false,"is_disabled":false,"rental_uris":{"android":"levelo://app?vid=4c08dff0-d4e1-409c-bb4e-8cf40246f3cd","ios":"levelo://app?vid=4c08dff0-d4e1-409c-bb4e-8cf40246f3cd"},"vehicle_type_id":"4","last_reported":1744621941,"current_range_meters":22000,"station_id":"ce4bh312rcd13ifvqdj0","pricing_plan_id":"cebpf4jnsgd1na2vs0mg"},{"bike_id":"05664e36-336b-404a-b8de-2ca42d4238f0","system_id":"levelo_inurba_marseille","lat":43.25006,"lon":5.3819,"is_reserved":false,"is_disabled":false,"rental_uris":{"android":"levelo://app?vid=05664e36-336b-404a-b8de-2ca42d4238f0","ios":"levelo://app?vid=05664e36-336b-404a-b8de-2ca42d4238f0"},"vehicle_type_id":"4","last_reported":1744621941,"current_range_meters":22400,"station_id":"","pricing_plan_id":"cebpf4jnsgd1na2vs0mg"},{"bike_id":"61788b27-74ee-400b-92ea-fa87486fb4d1","system_id":"levelo_inurba_marseille","lat":43.32998,"lon":5.43843,"is_reserved":false,"is_disabled":false,"rental_uris":{"android":"levelo://app?vid=61788b27-74ee-400b-92ea-fa87486fb4d1","ios":"levelo://app?vid=61788b27-74ee-400b-92ea-fa87486fb4d1"},"vehicle_type_id":"4","last_reported":1744621941,"current_range_meters":22800,"station_id":"","pricing_plan_id":"cebpf4jnsgd1na2vs0mg"},{"bike_id":"2322fbbd-cbe6-4c55-80dd-aa7a8b44b249","system_id":"levelo_inurba_marseille","lat":43.33597,"lon":5.4098,"is_reserved":false,"is_disabled":false,"rental_uris":{"android":"levelo://app?vid=2322fbbd-cbe6-4c55-80dd-aa7a8b44b249","ios":"levelo://app?vid=2322fbbd-cbe6-4c55-80dd-aa7a8b44b249"},"vehicle_type_id":"4","last_reported":1744621941,"current_range_meters":22800,"station_id":"ce4bhqh2rcd13ifvqhmg","pricing_plan_id":"cebpf4jnsgd1na2vs0mg"},{"bike_id":"2d86cf74-a0f2-4a88-9581-04e2eef73c06","system_id":"levelo_inurba_marseille","lat":43.30639,"lon":5.40074,"is_reserved":false,"is_disabled":false,"rental_uris":{"android":"levelo://app?vid=2d86cf74-a0f2-4a88-9581-04e2eef73c06","ios":"levelo://app?vid=2d86cf74-a0f2-4a88-9581-04e2eef73c06"},"vehicle_type_id":"4","last_reported":1744621941,"current_range_meters":22800,"station_id":"ce4bh112rcd13ifvqda0","pricing_plan_id":"cebpf4jnsgd1na2vs0mg"},{"bike_id":"7ed2bff7-a353-4390-98fe-970c6bbbf1fb","system_id":"levelo_inurba_marseille","lat":43.27556,"lon":5.38422,"is_reserved":false,"is_disabled":false,"rental_uris":{"android":"levelo://app?vid=7ed2bff7-a353-4390-98fe-970c6bbbf1fb","ios":"levelo://app?vid=7ed2bff7-a353-4390-98fe-970c6bbbf1fb"},"vehicle_type_id":"4","last_reported":1744621941,"current_range_meters":22800,"station_id":"ce4bhh92rcd13ifvqfi0","pricing_plan_id":"cebpf4jnsgd1na2vs0mg"},{"bike_id":"1ac6cae9-5a5f-4765-b8d5-20772275ca89","system_id":"levelo_inurba_marseille","lat":43.23341,"lon":5.36145,"is_reserved":false,"is_disabled":false,"rental_uris":{"android":"levelo://app?vid=1ac6cae9-5a5f-4765-b8d5-20772275ca89","ios":"levelo://app?vid=1ac6cae9-5a5f-4765-b8d5-20772275ca89"},"vehicle_type_id":"4","last_reported":1744621941,"current_range_meters":22800,"station_id":"","pricing_plan_id":"cebpf4jnsgd1na2vs0mg"},{"bike_id":"07dcb614-83cb-40d6-9154-de10c322d4d8","system_id":"levelo_inurba_marseille","lat":43.28719,"lon":5.37935,"is_reserved":false,"is_disabled":false,"rental_uris":{"android":"levelo://app?vid=07dcb614-83cb-40d6-9154-de10c322d4d8","ios":"levelo://app?vid=07dcb614-83cb-40d6-9154-de10c322d4d8"},"vehicle_type_id":"4","last_reported":1744621941,"current_range_meters":22800,"station_id":"ce4bh9p2rcd13ifvqec0","pricing_plan_id":"cebpf4jnsgd1na2vs0mg"},{"bike_id":"48f0f630-6523-43a2-a23c-19ee4debd5b8","system_id":"levelo_inurba_marseille","lat":43.3015,"lon":5.38093,"is_reserved":false,"is_disabled":false,"rental_uris":{"android":"levelo://app?vid=48f0f630-6523-43a2-a23c-19ee4debd5b8","ios":"levelo://app?vid=48f0f630-6523-43a2-a23c-19ee4debd5b8"},"vehicle_type_id":"4","last_reported":1744621941,"current_range_meters":22800,"station_id":"ce4bgjp2rcd13ifvqbh0","pricing_plan_id":"cebpf4jnsgd1na2vs0mg"},{"bike_id":"ec0dde3d-6bea-4ede-92bb-778318d452ce","system_id":"levelo_inurba_marseille","lat":43.24175,"lon":5.39734,"is_reserved":false,"is_disabled":false,"rental_uris":{"android":"levelo://app?vid=ec0dde3d-6bea-4ede-92bb-778318d452ce","ios":"levelo://app?vid=ec0dde3d-6bea-4ede-92bb-778318d452ce"},"vehicle_type_id":"4","last_reported":1744621941,"current_range_meters":22800,"station_id":"ce4bhn12rcd13ifvqgpg","pricing_plan_id":"cebpf4jnsgd1na2vs0mg"},{"bike_id":"97eaab4d-1dff-49ff-86e5-23bd769ff75d","system_id":"levelo_inurba_marseille","lat":43.341394,"lon":5.40908,"is_reserved":false,"is_disabled":false,"rental_uris":{"android":"levelo://app?vid=97eaab4d-1dff-49ff-86e5-23bd769ff75d","ios":"levelo://app?vid=97eaab4d-1dff-49ff-86e5-23bd769ff75d"},"vehicle_type_id":"4","last_reported":1744621941,"current_range_meters":22800,"station_id":"ce4bhqh2rcd13ifvqhlg","pricing_plan_id":"cebpf4jnsgd1na2vs0mg"},{"bike_id":"f5937a56-2053-48c6-a25a-972606402463","system_id":"levelo_inurba_marseille","lat":43.27072,"lon":5.42277,"is_reserved":false,"is_disabled":false,"rental_uris":{"android":"levelo://app?vid=f5937a56-2053-48c6-a25a-972606402463","ios":"levelo://app?vid=f5937a56-2053-48c6-a25a-972606402463"},"vehicle_type_id":"4","last_reported":1744621941,"current_range_meters":22800,"station_id":"ce4bhk92rcd13ifvqgb0","pricing_plan_id":"cebpf4jnsgd1na2vs0mg"},{"bike_id":"db24447a-c47f-493c-a77b-a32c94cb650f","system_id":"levelo_inurba_marseille","lat":43.246354,"lon":5.387616,"is_reserved":false,"is_disabled":true,"rental_uris":{"android":"levelo://app?vid=db24447a-c47f-493c-a77b-a32c94cb650f","ios":"levelo://app?vid=db24447a-c47f-493c-a77b-a32c94cb650f"},"vehicle_type_id":"4","last_reported":1744621941,"current_range_meters":23200,"station_id":"","pricing_plan_id":"cebpf4jnsgd1na2vs0mg"},{"bike_id":"fde702e5-33ce-407d-b0e8-43aa1c22d2e2","system_id":"levelo_inurba_marseille","lat":43.30453,"lon":5.37905,"is_reserved":false,"is_disabled":false,"rental_uris":{"android":"levelo://app?vid=fde702e5-33ce-407d-b0e8-43aa1c22d2e2","ios":"levelo://app?vid=fde702e5-33ce-407d-b0e8-43aa1c22d2e2"},"vehicle_type_id":"4","last_reported":1744621941,"current_range_meters":23200,"station_id":"ce4bgup2rcd13ifvqcn0","pricing_plan_id":"cebpf4jnsgd1na2vs0mg"},{"bike_id":"179d17f4-c0ae-47d4-b7bd-03b731a7bce0","system_id":"levelo_inurba_marseille","lat":43.3033,"lon":5.36907,"is_reserved":false,"is_disabled":false,"rental_uris":{"android":"levelo://app?vid=179d17f4-c0ae-47d4-b7bd-03b731a7bce0","ios":"levelo://app?vid=179d17f4-c0ae-47d4-b7bd-03b731a7bce0"},"vehicle_type_id":"4","last_reported":1744621941,"current_range_meters":23200,"station_id":"ce4bgqh2rcd13ifvqc5g","pricing_plan_id":"cebpf4jnsgd1na2vs0mg"},{"bike_id":"c2e7664e-eeb3-4fb7-9819-38a914e21019","system_id":"levelo_inurba_marseille","lat":43.292692,"lon":5.384355,"is_reserved":false,"is_disabled":false,"rental_uris":{"android":"levelo://app?vid=c2e7664e-eeb3-4fb7-9819-38a914e21019","ios":"levelo://app?vid=c2e7664e-eeb3-4fb7-9819-38a914e21019"},"vehicle_type_id":"4","last_reported":1744621941,"current_range_meters":23200,"station_id":"ce4bh692rcd13ifvqea0","pricing_plan_id":"cebpf4jnsgd1na2vs0mg"},{"bike_id":"78beba41-844f-43c7-9950-15c8d97174bf","system_id":"levelo_inurba_marseille","lat":43.30549,"lon":5.36694,"is_reserved":false,"is_disabled":false,"rental_uris":{"android":"levelo://app?vid=78beba41-844f-43c7-9950-15c8d97174bf","ios":"levelo://app?vid=78beba41-844f-43c7-9950-15c8d97174bf"},"vehicle_type_id":"4","last_reported":1744621941,"current_range_meters":24000,"station_id":"ce4bgrp2rcd13ifvqc9g","pricing_plan_id":"cebpf4jnsgd1na2vs0mg"},{"bike_id":"e190b69d-bffe-41bb-b19d-d016459a4501","system_id":"levelo_inurba_marseille","lat":43.30911,"lon":5.36816,"is_reserved":false,"is_disabled":false,"rental_uris":{"android":"levelo://app?vid=e190b69d-bffe-41bb-b19d-d016459a4501","ios":"levelo://app?vid=e190b69d-bffe-41bb-b19d-d016459a4501"},"vehicle_type_id":"4","last_reported":1744621941,"current_range_meters":24000,"station_id":"ce4bgn92rcd13ifvqbvg","pricing_plan_id":"cebpf4jnsgd1na2vs0mg"},{"bike_id":"24acbce7-260f-46c8-9ba2-af24377b2147","system_id":"levelo_inurba_marseille","lat":43.21752,"lon":5.34599,"is_reserved":false,"is_disabled":false,"rental_uris":{"android":"levelo://app?vid=24acbce7-260f-46c8-9ba2-af24377b2147","ios":"levelo://app?vid=24acbce7-260f-46c8-9ba2-af24377b2147"},"vehicle_type_id":"4","last_reported":1744621941,"current_range_meters":24000,"station_id":"","pricing_plan_id":"cebpf4jnsgd1na2vs0mg"},{"bike_id":"80581a5c-f0ad-4895-a131-36c495c1c1df","system_id":"levelo_inurba_marseille","lat":43.30533,"lon":5.36521,"is_reserved":false,"is_disabled":false,"rental_uris":{"android":"levelo://app?vid=80581a5c-f0ad-4895-a131-36c495c1c1df","ios":"levelo://app?vid=80581a5c-f0ad-4895-a131-36c495c1c1df"},"vehicle_type_id":"4","last_reported":1744621941,"current_range_meters":24000,"station_id":"ce4bgs12rcd13ifvqcag","pricing_plan_id":"cebpf4jnsgd1na2vs0mg"},{"bike_id":"29d95d95-9e17-4f7a-b230-abb382bf24ac","system_id":"levelo_inurba_marseille","lat":43.32476,"lon":5.36578,"is_reserved":false,"is_disabled":false,"rental_uris":{"android":"levelo://app?vid=29d95d95-9e17-4f7a-b230-abb382bf24ac","ios":"levelo://app?vid=29d95d95-9e17-4f7a-b230-abb382bf24ac"},"vehicle_type_id":"4","last_reported":1744621941,"current_range_meters":24000,"station_id":"ce4bhs12rcd13ifvqhvg","pricing_plan_id":"cebpf4jnsgd1na2vs0mg"},{"bike_id":"ff3cc019-99c3-492c-8ecb-48ce179d14ed","system_id":"levelo_inurba_marseille","lat":43.2863,"lon":5.35104,"is_reserved":false,"is_disabled":false,"rental_uris":{"android":"levelo://app?vid=ff3cc019-99c3-492c-8ecb-48ce179d14ed","ios":"levelo://app?vid=ff3cc019-99c3-492c-8ecb-48ce179d14ed"},"vehicle_type_id":"4","last_reported":1744621941,"current_range_meters":24000,"station_id":"ce4bhch2rcd13ifvqeug","pricing_plan_id":"cebpf4jnsgd1na2vs0mg"},{"bike_id":"5295b5c4-01d1-47ba-9f4b-a16046db5026","system_id":"levelo_inurba_marseille","lat":43.29252,"lon":5.37608,"is_reserved":false,"is_disabled":false,"rental_uris":{"android":"levelo://app?vid=5295b5c4-01d1-47ba-9f4b-a16046db5026","ios":"levelo://app?vid=5295b5c4-01d1-47ba-9f4b-a16046db5026"},"vehicle_type_id":"4","last_reported":1744621941,"current_range_meters":24000,"station_id":"ce4bgi12rcd13ifvqb80","pricing_plan_id":"cebpf4jnsgd1na2vs0mg"},{"bike_id":"6efcbdd6-cbd7-49ff-afa4-53e404bc7754","system_id":"levelo_inurba_marseille","lat":43.30136,"lon":5.38776,"is_reserved":false,"is_disabled":false,"rental_uris":{"android":"levelo://app?vid=6efcbdd6-cbd7-49ff-afa4-53e404bc7754","ios":"levelo://app?vid=6efcbdd6-cbd7-49ff-afa4-53e404bc7754"},"vehicle_type_id":"4","last_reported":1744621941,"current_range_meters":24000,"station_id":"ce4bghh2rcd13ifvqb60","pricing_plan_id":"cebpf4jnsgd1na2vs0mg"},{"bike_id":"53a462b0-547a-48fd-ac2c-1548e9eb4a64","system_id":"levelo_inurba_marseille","lat":43.29571,"lon":5.39983,"is_reserved":false,"is_disabled":false,"rental_uris":{"android":"levelo://app?vid=53a462b0-547a-48fd-ac2c-1548e9eb4a64","ios":"levelo://app?vid=53a462b0-547a-48fd-ac2c-1548e9eb4a64"},"vehicle_type_id":"4","last_reported":1744621941,"current_range_meters":24000,"station_id":"ce4bh312rcd13ifvqdj0","pricing_plan_id":"cebpf4jnsgd1na2vs0mg"},{"bike_id":"7184a8f5-8b38-4050-b949-b83e362d5f74","system_id":"levelo_inurba_marseille","lat":43.3249,"lon":5.36574,"is_reserved":false,"is_disabled":false,"rental_uris":{"android":"levelo://app?vid=7184a8f5-8b38-4050-b949-b83e362d5f74","ios":"levelo://app?vid=7184a8f5-8b38-4050-b949-b83e362d5f74"},"vehicle_type_id":"4","last_reported":1744621941,"current_range_meters":24000,"station_id":"ce4bhs12rcd13ifvqhvg","pricing_plan_id":"cebpf4jnsgd1na2vs0mg"},{"bike_id":"8869a30f-cd9a-4880-8399-c671bd5bbf53","system_id":"levelo_inurba_marseille","lat":43.28682,"lon":5.36351,"is_reserved":false,"is_disabled":true,"rental_uris":{"android":"levelo://app?vid=8869a30f-cd9a-4880-8399-c671bd5bbf53","ios":"levelo://app?vid=8869a30f-cd9a-4880-8399-c671bd5bbf53"},"vehicle_type_id":"4","last_reported":1744621941,"current_range_meters":24400,"station_id":"ce4bhah2rcd13ifvqej0","pricing_plan_id":"cebpf4jnsgd1na2vs0mg"},{"bike_id":"fcbb624a-c010-4c44-b81d-5ff6cd9ab02e","system_id":"levelo_inurba_marseille","lat":43.293684,"lon":5.378362,"is_reserved":false,"is_disabled":false,"rental_uris":{"android":"levelo://app?vid=fcbb624a-c010-4c44-b81d-5ff6cd9ab02e","ios":"levelo://app?vid=fcbb624a-c010-4c44-b81d-5ff6cd9ab02e"},"vehicle_type_id":"4","last_reported":1744621941,"current_range_meters":24400,"station_id":"ce4bgjh2rcd13ifvqbf0","pricing_plan_id":"cebpf4jnsgd1na2vs0mg"},{"bike_id":"eaf488d4-217c-43be-98b3-9aaf23505610","system_id":"levelo_inurba_marseille","lat":43.30587,"lon":5.39354,"is_reserved":false,"is_disabled":false,"rental_uris":{"android":"levelo://app?vid=eaf488d4-217c-43be-98b3-9aaf23505610","ios":"levelo://app?vid=eaf488d4-217c-43be-98b3-9aaf23505610"},"vehicle_type_id":"4","last_reported":1744621941,"current_range_meters":24400,"station_id":"ce4bh0p2rcd13ifvqd80","pricing_plan_id":"cebpf4jnsgd1na2vs0mg"},{"bike_id":"8101442c-fced-46d7-a4e2-8e032f0bc8ee","system_id":"levelo_inurba_marseille","lat":43.30801,"lon":5.38134,"is_reserved":false,"is_disabled":false,"rental_uris":{"android":"levelo://app?vid=8101442c-fced-46d7-a4e2-8e032f0bc8ee","ios":"levelo://app?vid=8101442c-fced-46d7-a4e2-8e032f0bc8ee"},"vehicle_type_id":"4","last_reported":1744621941,"current_range_meters":24400,"station_id":"ce4bgt12rcd13ifvqce0","pricing_plan_id":"cebpf4jnsgd1na2vs0mg"},{"bike_id":"442e33f1-e8cc-40bf-b9e9-cfb6fe6234aa","system_id":"levelo_inurba_marseille","lat":43.28424,"lon":5.34974,"is_reserved":false,"is_disabled":false,"rental_uris":{"android":"levelo://app?vid=442e33f1-e8cc-40bf-b9e9-cfb6fe6234aa","ios":"levelo://app?vid=442e33f1-e8cc-40bf-b9e9-cfb6fe6234aa"},"vehicle_type_id":"4","last_reported":1744621941,"current_range_meters":24400,"station_id":"ce4bhbh2rcd13ifvqepg","pricing_plan_id":"cebpf4jnsgd1na2vs0mg"},{"bike_id":"ba1e9093-075c-494d-a8f4-8b175ea071c1","system_id":"levelo_inurba_marseille","lat":43.24662,"lon":5.38163,"is_reserved":false,"is_disabled":false,"rental_uris":{"android":"levelo://app?vid=ba1e9093-075c-494d-a8f4-8b175ea071c1","ios":"levelo://app?vid=ba1e9093-075c-494d-a8f4-8b175ea071c1"},"vehicle_type_id":"4","last_reported":1744621941,"current_range_meters":24400,"station_id":"ce4bhih2rcd13ifvqfr0","pricing_plan_id":"cebpf4jnsgd1na2vs0mg"},{"bike_id":"6b7dd6f3-4543-409f-97cc-4db68642f84e","system_id":"levelo_inurba_marseille","lat":43.26204,"lon":5.37457,"is_reserved":false,"is_disabled":false,"rental_uris":{"android":"levelo://app?vid=6b7dd6f3-4543-409f-97cc-4db68642f84e","ios":"levelo://app?vid=6b7dd6f3-4543-409f-97cc-4db68642f84e"},"vehicle_type_id":"4","last_reported":1744621941,"current_range_meters":24400,"station_id":"ce4bhgp2rcd13ifvqfc0","pricing_plan_id":"cebpf4jnsgd1na2vs0mg"},{"bike_id":"e61eb72d-2152-4e42-a8db-1ea20dfcb944","system_id":"levelo_inurba_marseille","lat":43.25128,"lon":5.39512,"is_reserved":false,"is_disabled":true,"rental_uris":{"android":"levelo://app?vid=e61eb72d-2152-4e42-a8db-1ea20dfcb944","ios":"levelo://app?vid=e61eb72d-2152-4e42-a8db-1ea20dfcb944"},"vehicle_type_id":"4","last_reported":1744621941,"current_range_meters":24400,"station_id":"ce4bhm12rcd13ifvqgkg","pricing_plan_id":"cebpf4jnsgd1na2vs0mg"},{"bike_id":"32f1a13f-67b7-45c3-8664-264b5751471c","system_id":"levelo_inurba_marseille","lat":43.28496,"lon":5.38403,"is_reserved":false,"is_disabled":false,"rental_uris":{"android":"levelo://app?vid=32f1a13f-67b7-45c3-8664-264b5751471c","ios":"levelo://app?vid=32f1a13f-67b7-45c3-8664-264b5751471c"},"vehicle_type_id":"4","last_reported":1744621941,"current_range_meters":24400,"station_id":"ce4bh512rcd13ifvqe3g","pricing_plan_id":"cebpf4jnsgd1na2vs0mg"},{"bike_id":"85513bf9-e1af-42e1-a53e-8e01d6a5c373","system_id":"levelo_inurba_marseille","lat":43.29524,"lon":5.37489,"is_reserved":false,"is_disabled":true,"rental_uris":{"android":"levelo://app?vid=85513bf9-e1af-42e1-a53e-8e01d6a5c373","ios":"levelo://app?vid=85513bf9-e1af-42e1-a53e-8e01d6a5c373"},"vehicle_type_id":"4","last_reported":1744621941,"current_range_meters":24800,"station_id":"ce4bgkp2rcd13ifvqbmg","pricing_plan_id":"cebpf4jnsgd1na2vs0mg"},{"bike_id":"cc52f43a-c7bf-4331-bb46-3213a1eac765","system_id":"levelo_inurba_marseille","lat":43.31355,"lon":5.38493,"is_reserved":false,"is_disabled":false,"rental_uris":{"android":"levelo://app?vid=cc52f43a-c7bf-4331-bb46-3213a1eac765","ios":"levelo://app?vid=cc52f43a-c7bf-4331-bb46-3213a1eac765"},"vehicle_type_id":"4","last_reported":1744621941,"current_range_meters":25200,"station_id":"ce4bgt92rcd13ifvqcf0","pricing_plan_id":"cebpf4jnsgd1na2vs0mg"},{"bike_id":"5c344fe9-44ac-443a-bb27-3812e2d6e26d","system_id":"levelo_inurba_marseille","lat":43.29607,"lon":5.37174,"is_reserved":false,"is_disabled":true,"rental_uris":{"android":"levelo://app?vid=5c344fe9-44ac-443a-bb27-3812e2d6e26d","ios":"levelo://app?vid=5c344fe9-44ac-443a-bb27-3812e2d6e26d"},"vehicle_type_id":"4","last_reported":1744621941,"current_range_meters":24800,"station_id":"ce4bgnh2rcd13ifvqc0g","pricing_plan_id":"cebpf4jnsgd1na2vs0mg"},