{"last_updated":1701875265,"ttl":30,"version":"2.2","data":{"bikes":[{"bike_id":"3a9b5267-1e6b-4241-88fe-8869541b4bcc","system_id":"levelo_inurba_marseille","lat":43.31341,"lon":5.367098,"is_reserved":false,"is_disabled":false,"rental_uris":{"android":"levelo://app?vid=3a9b5267-1e6b-4241-88fe-8869541b4bcc","ios":"levelo://app?vid=3a9b5267-1e6b-4241-88fe-8869541b4bcc"},"vehicle_type_id":"4","last_reported":1701875266,"current_range_meters":30800,"station_id":"ce4bgr92rcd13ifvqc6g","pricing_plan_id":"free"},{"bike_id":"373c682f-8a52-4d5b-87bf-cc5fef03619f","system_id":"levelo_inurba_marseille","lat":43.313391,"lon":5.36706,"is_reserved":false,"is_disabled":false,"rental_uris":{"android":"levelo://app?vid=373c682f-8a52-4d5b-87bf-cc5fef03619f","ios":"levelo://app?vid=373c682f-8a52-4d5b-87bf-cc5fef03619f"},"vehicle_type_id":"4","last_reported":1701875266,"current_range_meters":19600,"station_id":"ce4bgr92rcd13ifvqc6g","pricing_plan_id":"free"},{"bike_id":"ba9bb771-dc60-40b2-b810-826e56111735","system_id":"levelo_inurba_marseille","lat":43.313391,"lon":5.36706,"is_reserved":false,"is_disabled":false,"rental_uris":{"android":"levelo://app?vid=ba9bb771-dc60-40b2-b810-826e56111735","ios":"levelo://app?vid=ba9bb771-dc60-40b2-b810-826e56111735"},"vehicle_type_id":"4","last_reported":1701875266,"current_range_meters":31600,"station_id":"ce4bgr92rcd13ifvqc6g","pricing_plan_id":"free"},{"bike_id":"c0470a3c-42aa-4c59-8acf-31502aa0bab9","system_id":"levelo_inurba_marseille","lat":43.31341,"lon":5.367098,"is_reserved":false,"is_disabled":false,"rental_uris":{"android":"levelo://app?vid=c0470a3c-42aa-4c59-8acf-31502aa0bab9","ios":"levelo://app?vid=c0470a3c-42aa-4c59-8acf-31502aa0bab9"},"vehicle_type_id":"4","last_reported":1701875266,"current_range_meters":8000,"station_id":"ce4bgr92rcd13ifvqc6g","pricing_plan_id":"free"},{"bike_id":"abc62d03-4891-49c3-94b1-60d308d83518","system_id":"levelo_inurba_marseille","lat":43.31341,"lon":5.367098,"is_reserved":false,"is_disabled":false,"rental_uris":{"android":"levelo://app?vid=abc62d03-4891-49c3-94b1-60d308d83518","ios":"levelo://app?vid=abc62d03-4891-49c3-94b1-60d308d83518"},"vehicle_type_id":"4","last_reported":1701875266,"current_range_meters":28800,"station_id":"ce4bgr92rcd13ifvqc6g","pricing_plan_id":"free"},{"bike_id":"d7cff2fc-91b2-414b-8664-514c29073941","system_id":"levelo_inurba_marseille","lat":43.313391,"lon":5.36706,"is_reserved":false,"is_disabled":false,"rental_uris":{"android":"levelo://app?vid=d7cff2fc-91b2-414b-8664-514c29073941","ios":"levelo://app?vid=d7cff2fc-91b2-414b-8664-514c29073941"},"vehicle_type_id":"4","last_reported":1701875266,"current_range_meters":18000,"station_id":"ce4bgr92rcd13ifvqc6g","pricing_plan_id":"free"},{"bike_id":"11a0f3d6-d069-47ed-918a-40eecf757967","system_id":"levelo_inurba_marseille","lat":43.313601,"lon":5.367109,"is_reserved":false,"is_disabled":false,"rental_uris":{"android":"levelo://app?vid=11a0f3d6-d069-47ed-918a-40eecf757967","ios":"levelo://app?vid=11a0f3d6-d069-47ed-918a-40eecf757967"},"vehicle_type_id":"4","last_reported":1701875266,"current_range_meters":17600,"station_id":"ce4bgr92rcd13ifvqc6g","pricing_plan_id":"free"},{"bike_id":"3d529393-120c-4e42-a57e-af9af9e35db1","system_id":"levelo_inurba_marseille","lat":43.31341,"lon":5.367098,"is_reserved":false,"is_disabled":false,"rental_uris":{"android":"levelo://app?vid=3d529393-120c-4e42-a57e-af9af9e35db1","ios":"levelo://app?vid=3d529393-120c-4e42-a57e-af9af9e35db1"},"vehicle_type_id":"4","last_reported":1701875266,"current_range_meters":31200,"station_id":"ce4bgr92rcd13ifvqc6g","pricing_plan_id":"free"},{"bike_id":"59722351-95bc-4293-a766-6b37dcb2083d","system_id":"levelo_inurba_marseille","lat":43.313391,"lon":5.36706,"is_reserved":false,"is_disabled":false,"rental_uris":{"android":"levelo://app?vid=59722351-95bc-4293-a766-6b37dcb2083d","ios":"levelo://app?vid=59722351-95bc-4293-a766-6b37dcb2083d"},"vehicle_type_id":"4","last_reported":1701875266,"current_range_meters":26000,"station_id":"ce4bgr92rcd13ifvqc6g","pricing_plan_id":"free"},{"bike_id":"9ee78ad1-fc8d-4485-912c-a8a0ec6f5528","system_id":"levelo_inurba_marseille","lat":43.31366,"lon":5.367015,"is_reserved":false,"is_disabled":false,"rental_uris":{"android":"levelo://app?vid=9ee78ad1-fc8d-4485-912c-a8a0ec6f5528","ios":"levelo://app?vid=9ee78ad1-fc8d-4485-912c-a8a0ec6f5528"},"vehicle_type_id":"4","last_reported":1701875266,"current_range_meters":11200,"station_id":"ce4bgr92rcd13ifvqc6g","pricing_plan_id":"free"},{"bike_id":"d32d7cbc-0509-42ad-9ec3-0f822d13f4b3","system_id":"levelo_inurba_marseille","lat":43.312239,"lon":5.368562,"is_reserved":false,"is_disabled":false,"rental_uris":{"android":"levelo://app?vid=d32d7cbc-0509-42ad-9ec3-0f822d13f4b3","ios":"levelo://app?vid=d32d7cbc-0509-42ad-9ec3-0f822d13f4b3"},"vehicle_type_id":"4","last_reported":1701875266,"current_range_meters":12800,"station_id":"ce4bgl92rcd13ifvqbq0","pricing_plan_id":"free"},{"bike_id":"985aab09-457a-4cec-9572-8c2a3ecfac74","system_id":"levelo_inurba_marseille","lat":43.306318,"lon":5.368272,"is_reserved":false,"is_disabled":false,"rental_uris":{"android":"levelo://app?vid=985aab09-457a-4cec-9572-8c2a3ecfac74","ios":"levelo://app?vid=985aab09-457a-4cec-9572-8c2a3ecfac74"},"vehicle_type_id":"4","last_reported":1701875266,"current_range_meters":21200,"station_id":"","pricing_plan_id":"free"},{"bike_id":"16a2bb76-af23-4435-ae9c-c821ea50222a","system_id":"levelo_inurba_marseille","lat":43.305706,"lon":5.365654,"is_reserved":false,"is_disabled":false,"rental_uris":{"android":"levelo://app?vid=16a2bb76-af23-4435-ae9c-c821ea50222a","ios":"levelo://app?vid=16a2bb76-af23-4435-ae9c-c821ea50222a"},"vehicle_type_id":"4","last_reported":1701875266,"current_range_meters":0,"station_id":"ce4bgs12rcd13ifvqcag","pricing_plan_id":"free"},{"bike_id":"3a578191-6f1e-4a3d-9c82-2683572bb26d","system_id":"levelo_inurba_marseille","lat":43.319237,"lon":5.37299,"is_reserved":false,"is_disabled":false,"rental_uris":{"android":"levelo://app?vid=3a578191-6f1e-4a3d-9c82-2683572bb26d","ios":"levelo://app?vid=3a578191-6f1e-4a3d-9c82-2683572bb26d"},"vehicle_type_id":"4","last_reported":1701875266,"current_range_meters":0,"station_id":"","pricing_plan_id":"free"},{"bike_id":"44b639d4-c394-49b2-9e18-6098ae373bd6","system_id":"levelo_inurba_marseille","lat":43.311403,"lon":5.377787,"is_reserved":false,"is_disabled":false,"rental_uris":{"android":"levelo://app?vid=44b639d4-c394-49b2-9e18-6098ae373bd6","ios":"levelo://app?vid=44b639d4-c394-49b2-9e18-6098ae373bd6"},"vehicle_type_id":"4","last_reported":1701875266,"current_range_meters":31200,"station_id":"","pricing_plan_id":"free"},{"bike_id":"3c6b41dd-92dd-4f68-adbe-4c41bd7f271a","system_id":"levelo_inurba_marseille","lat":43.30792,"lon":5.37676,"is_reserved":false,"is_disabled":false,"rental_uris":{"android":"levelo://app?vid=3c6b41dd-92dd-4f68-adbe-4c41bd7f271a","ios":"levelo://app?vid=3c6b41dd-92dd-4f68-adbe-4c41bd7f271a"},"vehicle_type_id":"4","last_reported":1701875266,"current_range_meters":10800,"station_id":"ce4bgv92rcd13ifvqcq0","pricing_plan_id":"free"},{"bike_id":"adf146c5-e4e1-4668-9a33-042940925130","system_id":"levelo_inurba_marseille","lat":43.31351,"lon":5.37909,"is_reserved":false,"is_disabled":false,"rental_uris":{"android":"levelo://app?vid=adf146c5-e4e1-4668-9a33-042940925130","ios":"levelo://app?vid=adf146c5-e4e1-4668-9a33-042940925130"},"vehicle_type_id":"4","last_reported":1701875266,"current_range_meters":6000,"station_id":"","pricing_plan_id":"free"},{"bike_id":"d499d351-326c-4a1c-ab70-2d5eedbdfaf0","system_id":"levelo_inurba_marseille","lat":43.301939,"lon":5.366286,"is_reserved":false,"is_disabled":false,"rental_uris":{"android":"levelo://app?vid=d499d351-326c-4a1c-ab70-2d5eedbdfaf0","ios":"levelo://app?vid=d499d351-326c-4a1c-ab70-2d5eedbdfaf0"},"vehicle_type_id":"4","last_reported":1701875266,"current_range_meters":10400,"station_id":"ce4bgrh2rcd13ifvqc8g","pricing_plan_id":"free"},{"bike_id":"1ea60f58-75f7-4484-b705-1156df4b02ad","system_id":"levelo_inurba_marseille","lat":43.302829,"lon":5.373374,"is_reserved":false,"is_disabled":false,"rental_uris":{"android":"levelo://app?vid=1ea60f58-75f7-4484-b705-1156df4b02ad","ios":"levelo://app?vid=1ea60f58-75f7-4484-b705-1156df4b02ad"},"vehicle_type_id":"4","last_reported":1701875266,"current_range_meters":9200,"station_id":"","pricing_plan_id":"free"},{"bike_id":"a6c85746-d91e-4fbd-a325-0e7b2ec75638","system_id":"levelo_inurba_marseille","lat":43.308012,"lon":5.381511,"is_reserved":false,"is_disabled":false,"rental_uris":{"android":"levelo://app?vid=a6c85746-d91e-4fbd-a325-0e7b2ec75638","ios":"levelo://app?vid=a6c85746-d91e-4fbd-a325-0e7b2ec75638"},"vehicle_type_id":"4","last_reported":1701875266,"current_range_meters":20400,"station_id":"ce4bgt12rcd13ifvqce0","pricing_plan_id":"free"},{"bike_id":"bd803291-0033-4686-bc4b-726292a11029","system_id":"levelo_inurba_marseille","lat":43.30794,"lon":5.38156,"is_reserved":false,"is_disabled":false,"rental_uris":{"android":"levelo://app?vid=bd803291-0033-4686-bc4b-726292a11029","ios":"levelo://app?vid=bd803291-0033-4686-bc4b-726292a11029"},"vehicle_type_id":"4","last_reported":1701875266,"current_range_meters":22400,"station_id":"ce4bgt12rcd13ifvqce0","pricing_plan_id":"free"},{"bike_id":"55665aa0-35d9-4a97-9982-4d466213e74b","system_id":"levelo_inurba_marseille","lat":43.324771,"lon":5.36557,"is_reserved":false,"is_disabled":false,"rental_uris":{"android":"levelo://app?vid=55665aa0-35d9-4a97-9982-4d466213e74b","ios":"levelo://app?vid=55665aa0-35d9-4a97-9982-4d466213e74b"},"vehicle_type_id":"4","last_reported":1701875266,"current_range_meters":18400,"station_id":"ce4bhs12rcd13ifvqhvg","pricing_plan_id":"free"},{"bike_id":"e6a7946c-a7d5-4369-b254-577b631c8d1a","system_id":"levelo_inurba_marseille","lat":43.31714,"lon":5.382473,"is_reserved":false,"is_disabled":false,"rental_uris":{"android":"levelo://app?vid=e6a7946c-a7d5-4369-b254-577b631c8d1a","ios":"levelo://app?vid=e6a7946c-a7d5-4369-b254-577b631c8d1a"},"vehicle_type_id":"4","last_reported":1701875266,"current_range_meters":26800,"station_id":"","pricing_plan_id":"free"},{"bike_id":"cb9ebc57-09d2-4a98-aef4-954236a00790","system_id":"levelo_inurba_marseille","lat":43.324771,"lon":5.36557,"is_reserved":false,"is_disabled":false,"rental_uris":{"android":"levelo://app?vid=cb9ebc57-09d2-4a98-aef4-954236a00790","ios":"levelo://app?vid=cb9ebc57-09d2-4a98-aef4-954236a00790"},"vehicle_type_id":"4","last_reported":1701875266,"current_range_meters":20800,"station_id":"ce4bhs12rcd13ifvqhvg","pricing_plan_id":"free"},{"bike_id":"788803fd-8919-4aea-92db-ccd573d56e3c","system_id":"levelo_inurba_marseille","lat":43.319935,"lon":5.381699,"is_reserved":false,"is_disabled":false,"rental_uris":{"android":"levelo://app?vid=788803fd-8919-4aea-92db-ccd573d56e3c","ios":"levelo://app?vid=788803fd-8919-4aea-92db-ccd573d56e3c"},"vehicle_type_id":"4","last_reported":1701875266,"current_range_meters":6000,"station_id":"ce4bhr12rcd13ifvqhpg","pricing_plan_id":"free"},{"bike_id":"9ae94d0b-3bf1-4047-8781-8a890d852d5a","system_id":"levelo_inurba_marseille","lat":43.319935,"lon":5.381699,"is_reserved":false,"is_disabled":false,"rental_uris":{"android":"levelo://app?vid=9ae94d0b-3bf1-4047-8781-8a890d852d5a","ios":"levelo://app?vid=9ae94d0b-3bf1-4047-8781-8a890d852d5a"},"vehicle_type_id":"4","last_reported":1701875266,"current_range_meters":28800,"station_id":"ce4bhr12rcd13ifvqhpg","pricing_plan_id":"free"},{"bike_id":"9ee0ef7a-8d9c-4d78-8ae5-64e12b708d26","system_id":"levelo_inurba_marseille","lat":43.319997,"lon":5.381594,"is_reserved":false,"is_disabled":false,"rental_uris":{"android":"levelo://app?vid=9ee0ef7a-8d9c-4d78-8ae5-64e12b708d26","ios":"levelo://app?vid=9ee0ef7a-8d9c-4d78-8ae5-64e12b708d26"},"vehicle_type_id":"4","last_reported":1701875266,"current_range_meters":0,"station_id":"ce4bhr12rcd13ifvqhpg","pricing_plan_id":"free"},{"bike_id":"5f5994b1-b5dd-45d8-997e-418e992d162c","system_id":"levelo_inurba_marseille","lat":43.299222,"lon":5.365554,"is_reserved":false,"is_disabled":false,"rental_uris":{"android":"levelo://app?vid=5f5994b1-b5dd-45d8-997e-418e992d162c","ios":"levelo://app?vid=5f5994b1-b5dd-45d8-997e-418e992d162c"},"vehicle_type_id":"4","last_reported":1701875266,"current_range_meters":24400,"station_id":"ce4bgm92rcd13ifvqbr0","pricing_plan_id":"free"},{"bike_id":"cd1548ff-ad4c-4ec5-a3d9-925f7409468b","system_id":"levelo_inurba_marseille","lat":43.311722,"lon":5.387247,"is_reserved":false,"is_disabled":false,"rental_uris":{"android":"levelo://app?vid=cd1548ff-ad4c-4ec5-a3d9-925f7409468b","ios":"levelo://app?vid=cd1548ff-ad4c-4ec5-a3d9-925f7409468b"},"vehicle_type_id":"4","last_reported":1701875266,"current_range_meters":18400,"station_id":"ce4bgv12rcd13ifvqcp0","pricing_plan_id":"free"},{"bike_id":"335e1806-cfc6-41b5-b703-0ea207038673","system_id":"levelo_inurba_marseille","lat":43.299243,"lon":5.374807,"is_reserved":false,"is_disabled":false,"rental_uris":{"android":"levelo://app?vid=335e1806-cfc6-41b5-b703-0ea207038673","ios":"levelo://app?vid=335e1806-cfc6-41b5-b703-0ea207038673"},"vehicle_type_id":"4","last_reported":1701875266,"current_range_meters":0,"station_id":"ce4bgjh2rcd13ifvqbg0","pricing_plan_id":"free"},{"bike_id":"b56b613d-4eaf-4bee-b530-fb3a5a787546","system_id":"levelo_inurba_marseille","lat":43.297794,"lon":5.370888,"is_reserved":false,"is_disabled":false,"rental_uris":{"android":"levelo://app?vid=b56b613d-4eaf-4bee-b530-fb3a5a787546","ios":"levelo://app?vid=b56b613d-4eaf-4bee-b530-fb3a5a787546"},"vehicle_type_id":"4","last_reported":1701875266,"current_range_meters":27600,"station_id":"ce4bgop2rcd13ifvqc1g","pricing_plan_id":"free"},{"bike_id":"084c9c5a-2d9a-4c0d-955e-abfc5ee985ab","system_id":"levelo_inurba_marseille","lat":43.297794,"lon":5.370888,"is_reserved":false,"is_disabled":false,"rental_uris":{"android":"levelo://app?vid=084c9c5a-2d9a-4c0d-955e-abfc5ee985ab","ios":"levelo://app?vid=084c9c5a-2d9a-4c0d-955e-abfc5ee985ab"},"vehicle_type_id":"4","last_reported":1701875266,"current_range_meters":26400,"station_id":"ce4bgop2rcd13ifvqc1g","pricing_plan_id":"free"},{"bike_id":"d47c412e-4170-4dae-9180-58c9151f00c2","system_id":"levelo_inurba_marseille","lat":43.322872,"lon":5.382756,"is_reserved":false,"is_disabled":false,"rental_uris":{"android":"levelo://app?vid=d47c412e-4170-4dae-9180-58c9151f00c2","ios":"levelo://app?vid=d47c412e-4170-4dae-9180-58c9151f00c2"},"vehicle_type_id":"4","last_reported":1701875266,"current_range_meters":29200,"station_id":"ce4bhr12rcd13ifvqhqg","pricing_plan_id":"free"},{"bike_id":"2424b203-2bfa-46d0-8b7b-b616d11edac6","system_id":"levelo_inurba_marseille","lat":43.32823,"lon":5.3668,"is_reserved":false,"is_disabled":false,"rental_uris":{"android":"levelo://app?vid=2424b203-2bfa-46d0-8b7b-b616d11edac6","ios":"levelo://app?vid=2424b203-2bfa-46d0-8b7b-b616d11edac6"},"vehicle_type_id":"4","last_reported":1701875266,"current_range_meters":8800,"station_id":"ce4bhs92rcd13ifvqi0g","pricing_plan_id":"free"},{"bike_id":"04ea328d-eef9-479c-b3df-9ac03c15edf6","system_id":"levelo_inurba_marseille","lat":43.298218,"lon":5.374416,"is_reserved":false,"is_disabled":false,"rental_uris":{"android":"levelo://app?vid=04ea328d-eef9-479c-b3df-9ac03c15edf6","ios":"levelo://app?vid=04ea328d-eef9-479c-b3df-9ac03c15edf6"},"vehicle_type_id":"4","last_reported":1701875266,"current_range_meters":13200,"station_id":"","pricing_plan_id":"free"},{"bike_id":"c58a2089-b67f-42c5-ac7a-21fc01aff172","system_id":"levelo_inurba_marseille","lat":43.32831,"lon":5.36693,"is_reserved":false,"is_disabled":false,"rental_uris":{"android":"levelo://app?vid=c58a2089-b67f-42c5-ac7a-21fc01aff172","ios":"levelo://app?vid=c58a2089-b67f-42c5-ac7a-21fc01aff172"},"vehicle_type_id":"4","last_reported":1701875266,"current_range_meters":4800,"station_id":"ce4bhs92rcd13ifvqi0g","pricing_plan_id":"free"},{"bike_id":"e0e6402c-361f-48b2-81aa-e00836287202","system_id":"levelo_inurba_marseille","lat":43.297163,"lon":5.365866,"is_reserved":false,"is_disabled":false,"rental_uris":{"android":"levelo://app?vid=e0e6402c-361f-48b2-81aa-e00836287202","ios":"levelo://app?vid=e0e6402c-361f-48b2-81aa-e00836287202"},"vehicle_type_id":"4","last_reported":1701875266,"current_range_meters":5600,"station_id":"ce4bgn12rcd13ifvqbt0","pricing_plan_id":"free"},{"bike_id":"a629eee0-1bff-4f5f-9960-1c951b7f3867","system_id":"levelo_inurba_marseille","lat":43.297163,"lon":5.365866,"is_reserved":false,"is_disabled":false,"rental_uris":{"android":"levelo://app?vid=a629eee0-1bff-4f5f-9960-1c951b7f3867","ios":"levelo://app?vid=a629eee0-1bff-4f5f-9960-1c951b7f3867"},"vehicle_type_id":"4","last_reported":1701875266,"current_range_meters":20800,"station_id":"ce4bgn12rcd13ifvqbt0","pricing_plan_id":"free"},{"bike_id":"94007754-7055-4e9f-884b-a69ad1a23f33","system_id":"levelo_inurba_marseille","lat":43.298823,"lon":5.378279,"is_reserved":false,"is_disabled":false,"rental_uris":{"android":"levelo://app?vid=94007754-7055-4e9f-884b-a69ad1a23f33","ios":"levelo://app?vid=94007754-7055-4e9f-884b-a69ad1a23f33"},"vehicle_type_id":"4","last_reported":1701875266,"current_range_meters":22800,"station_id":"","pricing_plan_id":"free"},{"bike_id":"92dc65d6-6823-4de3-93d4-056f738f090c","system_id":"levelo_inurba_marseille","lat":43.316538,"lon":5.38954,"is_reserved":false,"is_disabled":false,"rental_uris":{"android":"levelo://app?vid=92dc65d6-6823-4de3-93d4-056f738f090c","ios":"levelo://app?vid=92dc65d6-6823-4de3-93d4-056f738f090c"},"vehicle_type_id":"4","last_reported":1701875266,"current_range_meters":9200,"station_id":"","pricing_plan_id":"free"},{"bike_id":"7ceb52bb-2973-4f3c-bc12-d8a1ec6adb99","system_id":"levelo_inurba_marseille","lat":43.296921,"lon":5.376579,"is_reserved":false,"is_disabled":false,"rental_uris":{"android":"levelo://app?vid=7ceb52bb-2973-4f3c-bc12-d8a1ec6adb99","ios":"levelo://app?vid=7ceb52bb-2973-4f3c-bc12-d8a1ec6adb99"},"vehicle_type_id":"4","last_reported":1701875266,"current_range_meters":20000,"station_id":"ce4bgkh2rcd13ifvqbl0","pricing_plan_id":"free"},{"bike_id":"985adf10-b6b9-44c3-8228-ef918d996a54","system_id":"levelo_inurba_marseille","lat":43.317557,"lon":5.390173,"is_reserved":false,"is_disabled":false,"rental_uris":{"android":"levelo://app?vid=985adf10-b6b9-44c3-8228-ef918d996a54","ios":"levelo://app?vid=985adf10-b6b9-44c3-8228-ef918d996a54"},"vehicle_type_id":"4","last_reported":1701875266,"current_range_meters":6800,"station_id":"ce4bhqp2rcd13ifvqhng","pricing_plan_id":"free"},{"bike_id":"ea8400b4-a615-482e-bd83-f943313e5b28","system_id":"levelo_inurba_marseille","lat":43.304278,"lon":5.388868,"is_reserved":false,"is_disabled":false,"rental_uris":{"android":"levelo://app?vid=ea8400b4-a615-482e-bd83-f943313e5b28","ios":"levelo://app?vid=ea8400b4-a615-482e-bd83-f943313e5b28"},"vehicle_type_id":"4","last_reported":1701875266,"current_range_meters":22000,"station_id":"ce4bgk12rcd13ifvqbi0","pricing_plan_id":"free"},{"bike_id":"9de1a80e-a5a6-4b70-9a80-3d9a37cc8846","system_id":"levelo_inurba_marseille","lat":43.33149,"lon":5.36166,"is_reserved":false,"is_disabled":false,"rental_uris":{"android":"levelo://app?vid=9de1a80e-a5a6-4b70-9a80-3d9a37cc8846","ios":"levelo://app?vid=9de1a80e-a5a6-4b70-9a80-3d9a37cc8846"},"vehicle_type_id":"4","last_reported":1701875266,"current_range_meters":30000,"station_id":"","pricing_plan_id":"free"},{"bike_id":"71d25c3d-0a26-4b43-b8fc-97c556cc195b","system_id":"levelo_inurba_marseille","lat":43.32366,"lon":5.38886,"is_reserved":false,"is_disabled":false,"rental_uris":{"android":"levelo://app?vid=71d25c3d-0a26-4b43-b8fc-97c556cc195b","ios":"levelo://app?vid=71d25c3d-0a26-4b43-b8fc-97c556cc195b"},"vehicle_type_id":"4","last_reported":1701875266,"current_range_meters":18400,"station_id":"ce4bhqp2rcd13ifvqhog","pricing_plan_id":"free"},{"bike_id":"d9a300cd-6769-45ed-a1e8-f4463c083567","system_id":"levelo_inurba_marseille","lat":43.32367,"lon":5.388836,"is_reserved":false,"is_disabled":false,"rental_uris":{"android":"levelo://app?vid=d9a300cd-6769-45ed-a1e8-f4463c083567","ios":"levelo://app?vid=d9a300cd-6769-45ed-a1e8-f4463c083567"},"vehicle_type_id":"4","last_reported":1701875266,"current_range_meters":0,"station_id":"ce4bhqp2rcd13ifvqhog","pricing_plan_id":"free"},{"bike_id":"dfa43688-9811-4195-a0e7-5227fe201b11","system_id":"levelo_inurba_marseille","lat":43.32367,"lon":5.388836,"is_reserved":false,"is_disabled":false,"rental_uris":{"android":"levelo://app?vid=dfa43688-9811-4195-a0e7-5227fe201b11","ios":"levelo://app?vid=dfa43688-9811-4195-a0e7-5227fe201b11"},"vehicle_type_id":"4","last_reported":1701875266,"current_range_meters":22400,"station_id":"ce4bhqp2rcd13ifvqhog","pricing_plan_id":"free"},{"bike_id":"0264d4b2-7ddc-410b-ac81-8dccd3980a2a","system_id":"levelo_inurba_marseille","lat":43.29602,"lon":5.381084,"is_reserved":false,"is_disabled":false,"rental_uris":{"android":"levelo://app?vid=0264d4b2-7ddc-410b-ac81-8dccd3980a2a","ios":"levelo://app?vid=0264d4b2-7ddc-410b-ac81-8dccd3980a2a"},"vehicle_type_id":"4","last_reported":1701875266,"current_range_meters":23600,"station_id":"ce4bgl12rcd13ifvqbo0","pricing_plan_id":"free"},{"bike_id":"4eb542e0-f3a9-4f65-a2a8-1005e72f2988","system_id":"levelo_inurba_marseille","lat":43.302992,"lon":5.392136,"is_reserved":false,"is_disabled":false,"rental_uris":{"android":"levelo://app?vid=4eb542e0-f3a9-4f65-a2a8-1005e72f2988","ios":"levelo://app?vid=4eb542e0-f3a9-4f65-a2a8-1005e72f2988"},"vehicle_type_id":"4","last_reported":1701875266,"current_range_meters":6000,"station_id":"ce4bgkh2rcd13ifvqbk0","pricing_plan_id":"free"},{"bike_id":"7a1d39a6-dff0-4ea7-98ed-55f4a7a81241","system_id":"levelo_inurba_marseille","lat":43.300785,"lon":5.39094,"is_reserved":false,"is_disabled":false,"rental_uris":{"android":"levelo://app?vid=7a1d39a6-dff0-4ea7-98ed-55f4a7a81241","ios":"levelo://app?vid=7a1d39a6-dff0-4ea7-98ed-55f4a7a81241"},"vehicle_type_id":"4","last_reported":1701875266,"current_range_meters":16400,"station_id":"ce4bh192rcd13ifvqdb0","pricing_plan_id":"free"},{"bike_id":"e3b6239b-128c-493a-8773-7a883fb83a33","system_id":"levelo_inurba_marseille","lat":43.300852,"lon":5.390859,"is_reserved":false,"is_disabled":false,"rental_uris":{"android":"levelo://app?vid=e3b6239b-128c-493a-8773-7a883fb83a33","ios":"levelo://app?vid=e3b6239b-128c-493a-8773-7a883fb83a33"},"vehicle_type_id":"4","last_reported":1701875266,"current_range_meters":2800,"station_id":"ce4bh192rcd13ifvqdb0","pricing_plan_id":"free"},{"bike_id":"5e066a00-95df-45e4-b616-f2eb8f2c583a","system_id":"levelo_inurba_marseille","lat":43.291994,"lon":5.357886,"is_reserved":false,"is_disabled":false,"rental_uris":{"android":"levelo://app?vid=5e066a00-95df-45e4-b616-f2eb8f2c583a","ios":"levelo://app?vid=5e066a00-95df-45e4-b616-f2eb8f2c583a"},"vehicle_type_id":"4","last_reported":1701875266,"current_range_meters":400,"station_id":"ce4bhb12rcd13ifvqel0","pricing_plan_id":"free"},{"bike_id":"2e2f12ee-ff05-4182-a408-9a01d9c5ca07","system_id":"levelo_inurba_marseille","lat":43.29529,"lon":5.385581,"is_reserved":false,"is_disabled":false,"rental_uris":{"android":"levelo://app?vid=2e2f12ee-ff05-4182-a408-9a01d9c5ca07","ios":"levelo://app?vid=2e2f12ee-ff05-4182-a408-9a01d9c5ca07"},"vehicle_type_id":"4","last_reported":1701875266,"current_range_meters":5600,"station_id":"ce4bgih2rcd13ifvqba0","pricing_plan_id":"free"},{"bike_id":"5657fcc3-0135-4082-8910-53d5babe53d3","system_id":"levelo_inurba_marseille","lat":43.29529,"lon":5.385581,"is_reserved":false,"is_disabled":false,"rental_uris":{"android":"levelo://app?vid=5657fcc3-0135-4082-8910-53d5babe53d3","ios":"levelo://app?vid=5657fcc3-0135-4082-8910-53d5babe53d3"},"vehicle_type_id":"4","last_reported":1701875266,"current_range_meters":30800,"station_id":"ce4bgih2rcd13ifvqba0","pricing_plan_id":"free"},{"bike_id":"fef77eee-f3e5-4b16-93ef-593655096e63","system_id":"levelo_inurba_marseille","lat":43.29529,"lon":5.385581,"is_reserved":false,"is_disabled":false,"rental_uris":{"android":"levelo://app?vid=fef77eee-f3e5-4b16-93ef-593655096e63","ios":"levelo://app?vid=fef77eee-f3e5-4b16-93ef-593655096e63"},"vehicle_type_id":"4","last_reported":1701875266,"current_range_meters":13200,"station_id":"ce4bgih2rcd13ifvqba0","pricing_plan_id":"free"},{"bike_id":"8d2d6f94-90fc-4c4f-baac-0e4a1f61de27","system_id":"levelo_inurba_marseille","lat":43.29529,"lon":5.385581,"is_reserved":false,"is_disabled":false,"rental_uris":{"android":"levelo://app?vid=8d2d6f94-90fc-4c4f-baac-0e4a1f61de27","ios":"levelo://app?vid=8d2d6f94-90fc-4c4f-baac-0e4a1f61de27"},"vehicle_type_id":"4","last_reported":1701875266,"current_range_meters":800,"station_id":"ce4bgih2rcd13ifvqba0","pricing_plan_id":"free"},{"bike_id":"63eadb4a-340c-4021-9773-95bd9e711bc4","system_id":"levelo_inurba_marseille","lat":43.29529,"lon":5.385581,"is_reserved":false,"is_disabled":false,"rental_uris":{"android":"levelo://app?vid=63eadb4a-340c-4021-9773-95bd9e711bc4","ios":"levelo://app?vid=63eadb4a-340c-4021-9773-95bd9e711bc4"},"vehicle_type_id":"4","last_reported":1701875266,"current_range_meters":7200,"station_id":"ce4bgih2rcd13ifvqba0","pricing_plan_id":"free"},{"bike_id":"71648418-c5b2-4c07-b250-ec8bab818afe","system_id":"levelo_inurba_marseille","lat":43.29529,"lon":5.385581,"is_reserved":false,"is_disabled":false,"rental_uris":{"android":"levelo://app?vid=71648418-c5b2-4c07-b250-ec8bab818afe","ios":"levelo://app?vid=71648418-c5b2-4c07-b250-ec8bab818afe"},"vehicle_type_id":"4","last_reported":1701875266,"current_range_meters":17200,"station_id":"ce4bgih2rcd13ifvqba0","pricing_plan_id":"free"},{"bike_id":"a02a1b20-1fb1-4951-988a-77389649024d","system_id":"levelo_inurba_marseille","lat":43.289259,"lon":5.366364,"is_reserved":false,"is_disabled":false,"rental_uris":{"android":"levelo://app?vid=a02a1b20-1fb1-4951-988a-77389649024d","ios":"levelo://app?vid=a02a1b20-1fb1-4951-988a-77389649024d"},"vehicle_type_id":"4","last_reported":1701875266,"current_range_meters":23200,"station_id":"","pricing_plan_id":"free"},{"bike_id":"21ce3929-e065-412c-afb2-ac243f7d76ae","system_id":"levelo_inurba_marseille","lat":43.292618,"lon":5.384463,"is_reserved":false,"is_disabled":false,"rental_uris":{"android":"levelo://app?vid=21ce3929-e065-412c-afb2-ac243f7d76ae","ios":"levelo://app?vid=21ce3929-e065-412c-afb2-ac243f7d76ae"},"vehicle_type_id":"4","last_reported":1701875266,"current_range_meters":22400,"station_id":"ce4bh692rcd13ifvqea0","pricing_plan_id":"free"},{"bike_id":"fd42f959-6e54-41f9-b7eb-b7ab84a07ab6","system_id":"levelo_inurba_marseille","lat":43.330442,"lon":5.389148,"is_reserved":false,"is_disabled":false,"rental_uris":{"android":"levelo://app?vid=fd42f959-6e54-41f9-b7eb-b7ab84a07ab6","ios":"levelo://app?vid=fd42f959-6e54-41f9-b7eb-b7ab84a07ab6"},"vehicle_type_id":"4","last_reported":1701875266,"current_range_meters":13200,"station_id":"ce4bhr92rcd13ifvqhrg","pricing_plan_id":"free"},{"bike_id":"bfc84fba-fd9c-4885-b230-77c6b556f3fa","system_id":"levelo_inurba_marseille","lat":43.330442,"lon":5.389148,"is_reserved":false,"is_disabled":false,"rental_uris":{"android":"levelo://app?vid=bfc84fba-fd9c-4885-b230-77c6b556f3fa","ios":"levelo://app?vid=bfc84fba-fd9c-4885-b230-77c6b556f3fa"},"vehicle_type_id":"4","last_reported":1701875266,"current_range_meters":27200,"station_id":"ce4bhr92rcd13ifvqhrg","pricing_plan_id":"free"},{"bike_id":"3ebb2a71-d5f6-4813-81b9-c909afff64a1","system_id":"levelo_inurba_marseille","lat":43.33043,"lon":5.3892,"is_reserved":false,"is_disabled":false,"rental_uris":{"android":"levelo://app?vid=3ebb2a71-d5f6-4813-81b9-c909afff64a1","ios":"levelo://app?vid=3ebb2a71-d5f6-4813-81b9-c909afff64a1"},"vehicle_type_id":"4","last_reported":1701875266,"current_range_meters":9600,"station_id":"ce4bhr92rcd13ifvqhrg","pricing_plan_id":"free"},{"bike_id":"41264422-244a-4ee3-804a-0e79117f4bec","system_id":"levelo_inurba_marseille","lat":43.33043,"lon":5.3892,"is_reserved":false,"is_disabled":false,"rental_uris":{"android":"levelo://app?vid=41264422-244a-4ee3-804a-0e79117f4bec","ios":"levelo://app?vid=41264422-244a-4ee3-804a-0e79117f4bec"},"vehicle_type_id":"4","last_reported":1701875266,"current_range_meters":14000,"station_id":"ce4bhr92rcd13ifvqhrg","pricing_plan_id":"free"},{"bike_id":"db72e4fa-815a-40eb-9a3b-91e58adbea77","system_id":"levelo_inurba_marseille","lat":43.33041,"lon":5.38923,"is_reserved":false,"is_disabled":false,"rental_uris":{"android":"levelo://app?vid=db72e4fa-815a-40eb-9a3b-91e58adbea77","ios":"levelo://app?vid=db72e4fa-815a-40eb-9a3b-91e58adbea77"},"vehicle_type_id":"4","last_reported":1701875266,"current_range_meters":15600,"station_id":"ce4bhr92rcd13ifvqhrg","pricing_plan_id":"free"},{"bike_id":"bd57a0ff-608b-4e17-bef2-8d55e2235fbf","system_id":"levelo_inurba_marseille","lat":43.33045,"lon":5.38923,"is_reserved":false,"is_disabled":false,"rental_uris":{"android":"levelo://app?vid=bd57a0ff-608b-4e17-bef2-8d55e2235fbf","ios":"levelo://app?vid=bd57a0ff-608b-4e17-bef2-8d55e2235fbf"},"vehicle_type_id":"4","last_reported":1701875266,"current_range_meters":13200,"station_id":"ce4bhr92rcd13ifvqhrg","pricing_plan_id":"free"},{"bike_id":"358803ec-9bae-4dcb-88e5-3366453c8d80","system_id":"levelo_inurba_marseille","lat":43.330442,"lon":5.389148,"is_reserved":false,"is_disabled":false,"rental_uris":{"android":"levelo://app?vid=358803ec-9bae-4dcb-88e5-3366453c8d80","ios":"levelo://app?vid=358803ec-9bae-4dcb-88e5-3366453c8d80"},"vehicle_type_id":"4","last_reported":1701875266,"current_range_meters":31200,"station_id":"ce4bhr92rcd13ifvqhrg","pricing_plan_id":"free"},{"bike_id":"9143d033-4478-4f2b-ae6b-ceecb1aeb694","system_id":"levelo_inurba_marseille","lat":43.33047,"lon":5.38925,"is_reserved":false,"is_disabled":false,"rental_uris":{"android":"levelo://app?vid=9143d033-4478-4f2b-ae6b-ceecb1aeb694","ios":"levelo://app?vid=9143d033-4478-4f2b-ae6b-ceecb1aeb694"},"vehicle_type_id":"4","last_reported":1701875266,"current_range_meters":24800,"station_id":"ce4bhr92rcd13ifvqhrg","pricing_plan_id":"free"},{"bike_id":"d058de86-f3de-4a06-825b-bfc401ec3a71","system_id":"levelo_inurba_marseille","lat":43.289743,"lon":5.378304,"is_reserved":false,"is_disabled":false,"rental_uris":{"android":"levelo://app?vid=d058de86-f3de-4a06-825b-bfc401ec3a71","ios":"levelo://app?vid=d058de86-f3de-4a06-825b-bfc401ec3a71"},"vehicle_type_id":"4","last_reported":1701875266,"current_range_meters":21600,"station_id":"ce4bh9p2rcd13ifvqed0","pricing_plan_id":"free"},{"bike_id":"3a78615a-6efb-40c3-8ea0-aa31bc211893","system_id":"levelo_inurba_marseille","lat":43.295169,"lon":5.390426,"is_reserved":false,"is_disabled":false,"rental_uris":{"android":"levelo://app?vid=3a78615a-6efb-40c3-8ea0-aa31bc211893","ios":"levelo://app?vid=3a78615a-6efb-40c3-8ea0-aa31bc211893"},"vehicle_type_id":"4","last_reported":1701875266,"current_range_meters":24800,"station_id":"ce4bh3p2rcd13ifvqdp0","pricing_plan_id":"free"},{"bike_id":"d87aba5b-c9ab-429b-a873-de229fcdabaa","system_id":"levelo_inurba_marseille","lat":43.289741,"lon":5.378306,"is_reserved":false,"is_disabled":false,"rental_uris":{"android":"levelo://app?vid=d87aba5b-c9ab-429b-a873-de229fcdabaa","ios":"levelo://app?vid=d87aba5b-c9ab-429b-a873-de229fcdabaa"},"vehicle_type_id":"4","last_reported":1701875266,"current_range_meters":27200,"station_id":"ce4bh9p2rcd13ifvqed0","pricing_plan_id":"free"},{"bike_id":"44c1b1b2-0973-4870-b46d-f2780c9c18c7","system_id":"levelo_inurba_marseille","lat":43.337447,"lon":5.374638,"is_reserved":false,"is_disabled":false,"rental_uris":{"android":"levelo://app?vid=44c1b1b2-0973-4870-b46d-f2780c9c18c7","ios":"levelo://app?vid=44c1b1b2-0973-4870-b46d-f2780c9c18c7"},"vehicle_type_id":"4","last_reported":1701875266,"current_range_meters":22000,"station_id":"","pricing_plan_id":"free"},{"bike_id":"e3ac798c-6343-43ea-9327-13ff9d258c8c","system_id":"levelo_inurba_marseille","lat":43.337463,"lon":5.374796,"is_reserved":false,"is_disabled":false,"rental_uris":{"android":"levelo://app?vid=e3ac798c-6343-43ea-9327-13ff9d258c8c","ios":"levelo://app?vid=e3ac798c-6343-43ea-9327-13ff9d258c8c"},"vehicle_type_id":"4","last_reported":1701875266,"current_range_meters":31200,"station_id":"","pricing_plan_id":"free"},{"bike_id":"b2915249-9d77-4eda-997f-3cde7b10a6cf","system_id":"levelo_inurba_marseille","lat":43.30935,"lon":5.40149,"is_reserved":false,"is_disabled":false,"rental_uris":{"android":"levelo://app?vid=b2915249-9d77-4eda-997f-3cde7b10a6cf","ios":"levelo://app?vid=b2915249-9d77-4eda-997f-3cde7b10a6cf"},"vehicle_type_id":"4","last_reported":1701875266,"current_range_meters":2800,"station_id":"ce4bgvp2rcd13ifvqct0","pricing_plan_id":"free"},{"bike_id":"c1dbbc09-0034-45ec-8bd0-52d9f84cbcd2","system_id":"levelo_inurba_marseille","lat":43.337515,"lon":5.374499,"is_reserved":false,"is_disabled":false,"rental_uris":{"android":"levelo://app?vid=c1dbbc09-0034-45ec-8bd0-52d9f84cbcd2","ios":"levelo://app?vid=c1dbbc09-0034-45ec-8bd0-52d9f84cbcd2"},"vehicle_type_id":"4","last_reported":1701875266,"current_range_meters":29200,"station_id":"","pricing_plan_id":"free"},{"bike_id":"822605d2-7494-4f1f-8e85-7b21a1e83420","system_id":"levelo_inurba_marseille","lat":43.33752,"lon":5.37483,"is_reserved":false,"is_disabled":false,"rental_uris":{"android":"levelo://app?vid=822605d2-7494-4f1f-8e85-7b21a1e83420","ios":"levelo://app?vid=822605d2-7494-4f1f-8e85-7b21a1e83420"},"vehicle_type_id":"4","last_reported":1701875266,"current_range_meters":24000,"station_id":"","pricing_plan_id":"free"},{"bike_id":"c7696395-4b6d-47c6-ba5e-ed97d58bdf6e","system_id":"levelo_inurba_marseille","lat":43.337579,"lon":5.374603,"is_reserved":false,"is_disabled":false,"rental_uris":{"android":"levelo://app?vid=c7696395-4b6d-47c6-ba5e-ed97d58bdf6e","ios":"levelo://app?vid=c7696395-4b6d-47c6-ba5e-ed97d58bdf6e"},"vehicle_type_id":"4","last_reported":1701875266,"current_range_meters":28000,"station_id":"","pricing_plan_id":"free"},{"bike_id":"c414c01b-a2f8-498a-b878-2b9e16cb8f02","system_id":"levelo_inurba_marseille","lat":43.337605,"lon":5.374483,"is_reserved":false,"is_disabled":false,"rental_uris":{"android":"levelo://app?vid=c414c01b-a2f8-498a-b878-2b9e16cb8f02","ios":"levelo://app?vid=c414c01b-a2f8-498a-b878-2b9e16cb8f02"},"vehicle_type_id":"4","last_reported":1701875266,"current_range_meters":29200,"station_id":"","pricing_plan_id":"free"},{"bike_id":"736de286-1827-490e-9b81-8542a82e14a5","system_id":"levelo_inurba_marseille","lat":43.33756,"lon":5.37484,"is_reserved":false,"is_disabled":false,"rental_uris":{"android":"levelo://app?vid=736de286-1827-490e-9b81-8542a82e14a5","ios":"levelo://app?vid=736de286-1827-490e-9b81-8542a82e14a5"},"vehicle_type_id":"4","last_reported":1701875266,"current_range_meters":26400,"station_id":"","pricing_plan_id":"free"},{"bike_id":"381ec60f-b3d6-4d57-bef5-f9f1abca3135","system_id":"levelo_inurba_marseille","lat":43.30127,"lon":5.39859,"is_reserved":false,"is_disabled":false,"rental_uris":{"android":"levelo://app?vid=381ec60f-b3d6-4d57-bef5-f9f1abca3135","ios":"levelo://app?vid=381ec60f-b3d6-4d57-bef5-f9f1abca3135"},"vehicle_type_id":"4","last_reported":1701875266,"current_range_meters":0,"station_id":"ce4bh0h2rcd13ifvqd40","pricing_plan_id":"free"},{"bike_id":"d838ae1d-2b20-447e-8df5-003ee02d746b","system_id":"levelo_inurba_marseille","lat":43.30643,"lon":5.40179,"is_reserved":false,"is_disabled":false,"rental_uris":{"android":"levelo://app?vid=d838ae1d-2b20-447e-8df5-003ee02d746b","ios":"levelo://app?vid=d838ae1d-2b20-447e-8df5-003ee02d746b"},"vehicle_type_id":"4","last_reported":1701875266,"current_range_meters":31200,"station_id":"","pricing_plan_id":"free"},{"bike_id":"843f6831-5a8e-4278-bd9d-36efce193b00","system_id":"levelo_inurba_marseille","lat":43.298681,"lon":5.397225,"is_reserved":false,"is_disabled":false,"rental_uris":{"android":"levelo://app?vid=843f6831-5a8e-4278-bd9d-36efce193b00","ios":"levelo://app?vid=843f6831-5a8e-4278-bd9d-36efce193b00"},"vehicle_type_id":"4","last_reported":1701875266,"current_range_meters":11600,"station_id":"ce4bh0h2rcd13ifvqd50","pricing_plan_id":"free"},{"bike_id":"babff8bd-e0ac-445f-9e35-118a55e38cf1","system_id":"levelo_inurba_marseille","lat":43.289307,"lon":5.38406,"is_reserved":false,"is_disabled":false,"rental_uris":{"android":"levelo://app?vid=babff8bd-e0ac-445f-9e35-118a55e38cf1","ios":"levelo://app?vid=babff8bd-e0ac-445f-9e35-118a55e38cf1"},"vehicle_type_id":"4","last_reported":1701875266,"current_range_meters":4800,"station_id":"ce4bh612rcd13ifvqe6g","pricing_plan_id":"free"},{"bike_id":"bcb80eb5-8271-4444-8548-04197133cee7","system_id":"levelo_inurba_marseille","lat":43.302759,"lon":5.400793,"is_reserved":false,"is_disabled":false,"rental_uris":{"android":"levelo://app?vid=bcb80eb5-8271-4444-8548-04197133cee7","ios":"levelo://app?vid=bcb80eb5-8271-4444-8548-04197133cee7"},"vehicle_type_id":"4","last_reported":1701875266,"current_range_meters":9600,"station_id":"ce4bgvh2rcd13ifvqcs0","pricing_plan_id":"free"},{"bike_id":"9a20de3f-25be-471b-bd6a-a448724d8b97","system_id":"levelo_inurba_marseille","lat":43.287184,"lon":5.37937,"is_reserved":false,"is_disabled":false,"rental_uris":{"android":"levelo://app?vid=9a20de3f-25be-471b-bd6a-a448724d8b97","ios":"levelo://app?vid=9a20de3f-25be-471b-bd6a-a448724d8b97"},"vehicle_type_id":"4","last_reported":1701875266,"current_range_meters":20000,"station_id":"ce4bh9p2rcd13ifvqec0","pricing_plan_id":"free"},{"bike_id":"336edec9-d6ba-4d74-80b5-af8bbefa28da","system_id":"levelo_inurba_marseille","lat":43.284538,"lon":5.358657,"is_reserved":false,"is_disabled":false,"rental_uris":{"android":"levelo://app?vid=336edec9-d6ba-4d74-80b5-af8bbefa28da","ios":"levelo://app?vid=336edec9-d6ba-4d74-80b5-af8bbefa28da"},"vehicle_type_id":"4","last_reported":1701875266,"current_range_meters":4000,"station_id":"ce4bhah2rcd13ifvqei0","pricing_plan_id":"free"},{"bike_id":"d1e98b6c-d757-4b04-946a-97d601db86e1","system_id":"levelo_inurba_marseille","lat":43.309371,"lon":5.401449,"is_reserved":false,"is_disabled":false,"rental_uris":{"android":"levelo://app?vid=d1e98b6c-d757-4b04-946a-97d601db86e1","ios":"levelo://app?vid=d1e98b6c-d757-4b04-946a-97d601db86e1"},"vehicle_type_id":"4","last_reported":1701875266,"current_range_meters":4400,"station_id":"ce4bgvp2rcd13ifvqct0","pricing_plan_id":"free"},{"bike_id":"315dc19f-4488-48ef-98a3-15080708e83a","system_id":"levelo_inurba_marseille","lat":43.295713,"lon":5.399639,"is_reserved":false,"is_disabled":false,"rental_uris":{"android":"levelo://app?vid=315dc19f-4488-48ef-98a3-15080708e83a","ios":"levelo://app?vid=315dc19f-4488-48ef-98a3-15080708e83a"},"vehicle_type_id":"4","last_reported":1701875266,"current_range_meters":14000,"station_id":"ce4bh312rcd13ifvqdj0","pricing_plan_id":"free"},{"bike_id":"bbe39a8c-7b94-4a91-90cb-ac76b2b73204","system_id":"levelo_inurba_marseille","lat":43.286595,"lon":5.386795,"is_reserved":false,"is_disabled":false,"rental_uris":{"android":"levelo://app?vid=bbe39a8c-7b94-4a91-90cb-ac76b2b73204","ios":"levelo://app?vid=bbe39a8c-7b94-4a91-90cb-ac76b2b73204"},"vehicle_type_id":"4","last_reported":1701875266,"current_range_meters":0,"station_id":"ce4bh492rcd13ifvqdug","pricing_plan_id":"free"},{"bike_id":"8c31cd1a-d0be-4cab-ad49-85fdc9d197b7","system_id":"levelo_inurba_marseille","lat":43.286595,"lon":5.386795,"is_reserved":false,"is_disabled":false,"rental_uris":{"android":"levelo://app?vid=8c31cd1a-d0be-4cab-ad49-85fdc9d197b7","ios":"levelo://app?vid=8c31cd1a-d0be-4cab-ad49-85fdc9d197b7"},"vehicle_type_id":"4","last_reported":1701875266,"current_range_meters":2000,"station_id":"ce4bh492rcd13ifvqdug","pricing_plan_id":"free"},{"bike_id":"ec9d341f-bdd0-4e44-83a6-40a869bdf7e4","system_id":"levelo_inurba_marseille","lat":43.319179,"lon":5.407725,"is_reserved":false,"is_disabled":false,"rental_uris":{"android":"levelo://app?vid=ec9d341f-bdd0-4e44-83a6-40a869bdf7e4","ios":"levelo://app?vid=ec9d341f-bdd0-4e44-83a6-40a869bdf7e4"},"vehicle_type_id":"4","last_reported":1701875266,"current_range_meters":27600,"station_id":"ce4bhq12rcd13ifvqhig","pricing_plan_id":"free"},{"bike_id":"e78ed1da-de0e-41fa-b418-e08a16765915","system_id":"levelo_inurba_marseille","lat":43.33717,"lon":5.391857,"is_reserved":false,"is_disabled":false,"rental_uris":{"android":"levelo://app?vid=e78ed1da-de0e-41fa-b418-e08a16765915","ios":"levelo://app?vid=e78ed1da-de0e-41fa-b418-e08a16765915"},"vehicle_type_id":"4","last_reported":1701875266,"current_range_meters":25600,"station_id":"ce4bhr92rcd13ifvqhsg","pricing_plan_id":"free"},{"bike_id":"ec42ce68-1ad3-48cd-9e1e-4c2199a2bfbc","system_id":"levelo_inurba_marseille","lat":43.337168,"lon":5.391825,"is_reserved":false,"is_disabled":false,"rental_uris":{"android":"levelo://app?vid=ec42ce68-1ad3-48cd-9e1e-4c2199a2bfbc","ios":"levelo://app?vid=ec42ce68-1ad3-48cd-9e1e-4c2199a2bfbc"},"vehicle_type_id":"4","last_reported":1701875266,"current_range_meters":29600,"station_id":"ce4bhr92rcd13ifvqhsg","pricing_plan_id":"free"},{"bike_id":"75951443-54b4-4bc8-a353-5a2697a7b9cd","system_id":"levelo_inurba_marseille","lat":43.323464,"lon":5.406297,"is_reserved":false,"is_disabled":false,"rental_uris":{"android":"levelo://app?vid=75951443-54b4-4bc8-a353-5a2697a7b9cd","ios":"levelo://app?vid=75951443-54b4-4bc8-a353-5a2697a7b9cd"},"vehicle_type_id":"4","last_reported":1701875266,"current_range_meters":4000,"station_id":"ce4bhq92rcd13ifvqhjg","pricing_plan_id":"free"},{"bike_id":"f125b516-ac54-409a-a486-38d507b65063","system_id":"levelo_inurba_marseille","lat":43.323464,"lon":5.406297,"is_reserved":false,"is_disabled":false,"rental_uris":{"android":"levelo://app?vid=f125b516-ac54-409a-a486-38d507b65063","ios":"levelo://app?vid=f125b516-ac54-409a-a486-38d507b65063"},"vehicle_type_id":"4","last_reported":1701875266,"current_range_meters":12000,"station_id":"ce4bhq92rcd13ifvqhjg","pricing_plan_id":"free"},{"bike_id":"47f70068-fc8c-4884-98bc-083d8dad1d10","system_id":"levelo_inurba_marseille","lat":43.323464,"lon":5.406297,"is_reserved":false,"is_disabled":false,"rental_uris":{"android":"levelo://app?vid=47f70068-fc8c-4884-98bc-083d8dad1d10","ios":"levelo://app?vid=47f70068-fc8c-4884-98bc-083d8dad1d10"},"vehicle_type_id":"4","last_reported":1701875266,"current_range_meters":25200,"station_id":"ce4bhq92rcd13ifvqhjg","pricing_plan_id":"free"},{"bike_id":"fb88b3e8-6a36-446f-a1fd-5e85a0d518b6","system_id":"levelo_inurba_marseille","lat":43.284214,"lon":5.349706,"is_reserved":false,"is_disabled":false,"rental_uris":{"android":"levelo://app?vid=fb88b3e8-6a36-446f-a1fd-5e85a0d518b6","ios":"levelo://app?vid=fb88b3e8-6a36-446f-a1fd-5e85a0d518b6"},"vehicle_type_id":"4","last_reported":1701875266,"current_range_meters":25200,"station_id":"ce4bhbh2rcd13ifvqepg","pricing_plan_id":"free"},{"bike_id":"9ef9e4dc-4f4a-436e-ba73-fb21ff2e8ad1","system_id":"levelo_inurba_marseille","lat":43.283502,"lon":5.386471,"is_reserved":false,"is_disabled":false,"rental_uris":{"android":"levelo://app?vid=9ef9e4dc-4f4a-436e-ba73-fb21ff2e8ad1","ios":"levelo://app?vid=9ef9e4dc-4f4a-436e-ba73-fb21ff2e8ad1"},"vehicle_type_id":"4","last_reported":1701875266,"current_range_meters":31200,"station_id":"ce4bh492rcd13ifvqdvg","pricing_plan_id":"free"},{"bike_id":"e45f6240-caf6-44ba-9db3-d68cd8a6d6bf","system_id":"levelo_inurba_marseille","lat":43.283502,"lon":5.386471,"is_reserved":false,"is_disabled":false,"rental_uris":{"android":"levelo://app?vid=e45f6240-caf6-44ba-9db3-d68cd8a6d6bf","ios":"levelo://app?vid=e45f6240-caf6-44ba-9db3-d68cd8a6d6bf"},"vehicle_type_id":"4","last_reported":1701875266,"current_range_meters":14400,"station_id":"ce4bh492rcd13ifvqdvg","pricing_plan_id":"free"},{"bike_id":"cc86ff34-0ee6-4e4e-b968-044d05607896","system_id":"levelo_inurba_marseille","lat":43.280382,"lon":5.369291,"is_reserved":false,"is_disabled":false,"rental_uris":{"android":"levelo://app?vid=cc86ff34-0ee6-4e4e-b968-044d05607896","ios":"levelo://app?vid=cc86ff34-0ee6-4e4e-b968-044d05607896"},"vehicle_type_id":"4","last_reported":1701875266,"current_range_meters":9600,"station_id":"ce4bha12rcd13ifvqef0","pricing_plan_id":"free"},{"bike_id":"ce3ebfb1-fbfa-4288-be6b-8cf3cd2c511d","system_id":"levelo_inurba_marseille","lat":43.28039,"lon":5.369297,"is_reserved":false,"is_disabled":false,"rental_uris":{"android":"levelo://app?vid=ce3ebfb1-fbfa-4288-be6b-8cf3cd2c511d","ios":"levelo://app?vid=ce3ebfb1-fbfa-4288-be6b-8cf3cd2c511d"},"vehicle_type_id":"4","last_reported":1701875266,"current_range_meters":2000,"station_id":"ce4bha12rcd13ifvqef0","pricing_plan_id":"free"},{"bike_id":"b96821de-aa8d-4cd6-8c6a-f4841b491bb8","system_id":"levelo_inurba_marseille","lat":43.281044,"lon":5.378308,"is_reserved":false,"is_disabled":false,"rental_uris":{"android":"levelo://app?vid=b96821de-aa8d-4cd6-8c6a-f4841b491bb8","ios":"levelo://app?vid=b96821de-aa8d-4cd6-8c6a-f4841b491bb8"},"vehicle_type_id":"4","last_reported":1701875266,"current_range_meters":23600,"station_id":"ce4bha12rcd13ifvqee0","pricing_plan_id":"free"},{"bike_id":"c4086dd2-cd1b-482a-ab4b-fc22a0cc1357","system_id":"levelo_inurba_marseille","lat":43.284462,"lon":5.392121,"is_reserved":false,"is_disabled":false,"rental_uris":{"android":"levelo://app?vid=c4086dd2-cd1b-482a-ab4b-fc22a0cc1357","ios":"levelo://app?vid=c4086dd2-cd1b-482a-ab4b-fc22a0cc1357"},"vehicle_type_id":"4","last_reported":1701875266,"current_range_meters":21200,"station_id":"ce4bhoh2rcd13ifvqh5g","pricing_plan_id":"free"},{"bike_id":"0254abe9-39a5-4531-89fb-d333ab9586f3","system_id":"levelo_inurba_marseille","lat":43.284462,"lon":5.392121,"is_reserved":false,"is_disabled":false,"rental_uris":{"android":"levelo://app?vid=0254abe9-39a5-4531-89fb-d333ab9586f3","ios":"levelo://app?vid=0254abe9-39a5-4531-89fb-d333ab9586f3"},"vehicle_type_id":"4","last_reported":1701875266,"current_range_meters":24400,"station_id":"ce4bhoh2rcd13ifvqh5g","pricing_plan_id":"free"},{"bike_id":"1204a65b-4951-471f-b885-d0e8df4f29c5","system_id":"levelo_inurba_marseille","lat":43.32659,"lon":5.40994,"is_reserved":false,"is_disabled":false,"rental_uris":{"android":"levelo://app?vid=1204a65b-4951-471f-b885-d0e8df4f29c5","ios":"levelo://app?vid=1204a65b-4951-471f-b885-d0e8df4f29c5"},"vehicle_type_id":"4","last_reported":1701875266,"current_range_meters":2800,"station_id":"ce4bhpp2rcd13ifvqhgg","pricing_plan_id":"free"},{"bike_id":"d78b3658-eea9-4d86-9383-cb0aae0161c2","system_id":"levelo_inurba_marseille","lat":43.320045,"lon":5.415048,"is_reserved":false,"is_disabled":false,"rental_uris":{"android":"levelo://app?vid=d78b3658-eea9-4d86-9383-cb0aae0161c2","ios":"levelo://app?vid=d78b3658-eea9-4d86-9383-cb0aae0161c2"},"vehicle_type_id":"4","last_reported":1701875266,"current_range_meters":27200,"station_id":"ce4bhq92rcd13ifvqhkg","pricing_plan_id":"free"},{"bike_id":"ca2335e6-9bde-40b1-bc5a-dba1e50b2bbf","system_id":"levelo_inurba_marseille","lat":43.320045,"lon":5.415048,"is_reserved":false,"is_disabled":false,"rental_uris":{"android":"levelo://app?vid=ca2335e6-9bde-40b1-bc5a-dba1e50b2bbf","ios":"levelo://app?vid=ca2335e6-9bde-40b1-bc5a-dba1e50b2bbf"},"vehicle_type_id":"4","last_reported":1701875266,"current_range_meters":5600,"station_id":"ce4bhq92rcd13ifvqhkg","pricing_plan_id":"free"},{"bike_id":"a1c020bb-1c72-4f63-8954-6cc5dc5f86d5","system_id":"levelo_inurba_marseille","lat":43.279742,"lon":5.38744,"is_reserved":false,"is_disabled":false,"rental_uris":{"android":"levelo://app?vid=a1c020bb-1c72-4f63-8954-6cc5dc5f86d5","ios":"levelo://app?vid=a1c020bb-1c72-4f63-8954-6cc5dc5f86d5"},"vehicle_type_id":"4","last_reported":1701875266,"current_range_meters":26400,"station_id":"ce4bhg12rcd13ifvqf80","pricing_plan_id":"free"},{"bike_id":"4680df5c-e859-41c4-92da-7cad89a1a831","system_id":"levelo_inurba_marseille","lat":43.325243,"lon":5.414326,"is_reserved":false,"is_disabled":false,"rental_uris":{"android":"levelo://app?vid=4680df5c-e859-41c4-92da-7cad89a1a831","ios":"levelo://app?vid=4680df5c-e859-41c4-92da-7cad89a1a831"},"vehicle_type_id":"4","last_reported":1701875266,"current_range_meters":8400,"station_id":"ce4bhq12rcd13ifvqhhg","pricing_plan_id":"free"},{"bike_id":"b87d900d-4238-4bdd-8c70-f8c289052cb9","system_id":"levelo_inurba_marseille","lat":43.280784,"lon":5.396622,"is_reserved":false,"is_disabled":false,"rental_uris":{"android":"levelo://app?vid=b87d900d-4238-4bdd-8c70-f8c289052cb9","ios":"levelo://app?vid=b87d900d-4238-4bdd-8c70-f8c289052cb9"},"vehicle_type_id":"4","last_reported":1701875266,"current_range_meters":28400,"station_id":"ce4bho12rcd13ifvqh2g","pricing_plan_id":"free"},{"bike_id":"dbe62aa7-e13e-4bb1-a182-2c86a4f103f7","system_id":"levelo_inurba_marseille","lat":43.280784,"lon":5.396622,"is_reserved":false,"is_disabled":false,"rental_uris":{"android":"levelo://app?vid=dbe62aa7-e13e-4bb1-a182-2c86a4f103f7","ios":"levelo://app?vid=dbe62aa7-e13e-4bb1-a182-2c86a4f103f7"},"vehicle_type_id":"4","last_reported":1701875266,"current_range_meters":5200,"station_id":"ce4bho12rcd13ifvqh2g","pricing_plan_id":"free"},{"bike_id":"108a67f8-037c-4307-8e43-efde793847be","system_id":"levelo_inurba_marseille","lat":43.303837,"lon":5.418724,"is_reserved":false,"is_disabled":false,"rental_uris":{"android":"levelo://app?vid=108a67f8-037c-4307-8e43-efde793847be","ios":"levelo://app?vid=108a67f8-037c-4307-8e43-efde793847be"},"vehicle_type_id":"4","last_reported":1701875266,"current_range_meters":15600,"station_id":"ce4bhop2rcd13ifvqh7g","pricing_plan_id":"free"},{"bike_id":"9a54a80b-6ae0-40f4-9841-ab1c7726b814","system_id":"levelo_inurba_marseille","lat":43.303837,"lon":5.418724,"is_reserved":false,"is_disabled":false,"rental_uris":{"android":"levelo://app?vid=9a54a80b-6ae0-40f4-9841-ab1c7726b814","ios":"levelo://app?vid=9a54a80b-6ae0-40f4-9841-ab1c7726b814"},"vehicle_type_id":"4","last_reported":1701875266,"current_range_meters":28400,"station_id":"ce4bhop2rcd13ifvqh7g","pricing_plan_id":"free"},{"bike_id":"77c7dedc-f48b-424d-8419-61a425b7c60d","system_id":"levelo_inurba_marseille","lat":43.275625,"lon":5.384392,"is_reserved":false,"is_disabled":false,"rental_uris":{"android":"levelo://app?vid=77c7dedc-f48b-424d-8419-61a425b7c60d","ios":"levelo://app?vid=77c7dedc-f48b-424d-8419-61a425b7c60d"},"vehicle_type_id":"4","last_reported":1701875266,"current_range_meters":5600,"station_id":"ce4bhh92rcd13ifvqfi0","pricing_plan_id":"free"},{"bike_id":"782cac25-906e-4bcc-9ec6-0213cad2c482","system_id":"levelo_inurba_marseille","lat":43.273613,"lon":5.362705,"is_reserved":false,"is_disabled":false,"rental_uris":{"android":"levelo://app?vid=782cac25-906e-4bcc-9ec6-0213cad2c482","ios":"levelo://app?vid=782cac25-906e-4bcc-9ec6-0213cad2c482"},"vehicle_type_id":"4","last_reported":1701875266,"current_range_meters":14800,"station_id":"ce4bhbh2rcd13ifvqeo0","pricing_plan_id":"free"},{"bike_id":"49887d6e-45bf-426f-bcf7-4f15ec2b06db","system_id":"levelo_inurba_marseille","lat":43.273609,"lon":5.362708,"is_reserved":false,"is_disabled":false,"rental_uris":{"android":"levelo://app?vid=49887d6e-45bf-426f-bcf7-4f15ec2b06db","ios":"levelo://app?vid=49887d6e-45bf-426f-bcf7-4f15ec2b06db"},"vehicle_type_id":"4","last_reported":1701875266,"current_range_meters":30400,"station_id":"ce4bhbh2rcd13ifvqeo0","pricing_plan_id":"free"},{"bike_id":"0571deb4-bdb5-46b7-b85f-485756889aeb","system_id":"levelo_inurba_marseille","lat":43.275625,"lon":5.384392,"is_reserved":false,"is_disabled":false,"rental_uris":{"android":"levelo://app?vid=0571deb4-bdb5-46b7-b85f-485756889aeb","ios":"levelo://app?vid=0571deb4-bdb5-46b7-b85f-485756889aeb"},"vehicle_type_id":"4","last_reported":1701875266,"current_range_meters":17600,"station_id":"ce4bhh92rcd13ifvqfi0","pricing_plan_id":"free"},{"bike_id":"0af55c15-aac7-44cd-9fc3-92546e158af3","system_id":"levelo_inurba_marseille","lat":43.33609,"lon":5.41026,"is_reserved":false,"is_disabled":false,"rental_uris":{"android":"levelo://app?vid=0af55c15-aac7-44cd-9fc3-92546e158af3","ios":"levelo://app?vid=0af55c15-aac7-44cd-9fc3-92546e158af3"},"vehicle_type_id":"4","last_reported":1701875266,"current_range_meters":18400,"station_id":"ce4bhqh2rcd13ifvqhmg","pricing_plan_id":"free"},{"bike_id":"4d33dab6-9161-4d11-b74e-9f58106d9f35","system_id":"levelo_inurba_marseille","lat":43.275625,"lon":5.384392,"is_reserved":false,"is_disabled":false,"rental_uris":{"android":"levelo://app?vid=4d33dab6-9161-4d11-b74e-9f58106d9f35","ios":"levelo://app?vid=4d33dab6-9161-4d11-b74e-9f58106d9f35"},"vehicle_type_id":"4","last_reported":1701875266,"current_range_meters":15200,"station_id":"ce4bhh92rcd13ifvqfi0","pricing_plan_id":"free"},{"bike_id":"fa13a10a-1ae7-4cbf-b266-cfae97820d6a","system_id":"levelo_inurba_marseille","lat":43.276769,"lon":5.388787,"is_reserved":false,"is_disabled":false,"rental_uris":{"android":"levelo://app?vid=fa13a10a-1ae7-4cbf-b266-cfae97820d6a","ios":"levelo://app?vid=fa13a10a-1ae7-4cbf-b266-cfae97820d6a"},"vehicle_type_id":"4","last_reported":1701875266,"current_range_meters":25600,"station_id":"ce4bhi12rcd13ifvqfo0","pricing_plan_id":"free"},{"bike_id":"f37c93bf-cf3d-40bb-a12f-cb672f791ae2","system_id":"levelo_inurba_marseille","lat":43.279975,"lon":5.40009,"is_reserved":false,"is_disabled":false,"rental_uris":{"android":"levelo://app?vid=f37c93bf-cf3d-40bb-a12f-cb672f791ae2","ios":"levelo://app?vid=f37c93bf-cf3d-40bb-a12f-cb672f791ae2"},"vehicle_type_id":"4","last_reported":1701875266,"current_range_meters":10000,"station_id":"ce4bho92rcd13ifvqh4g","pricing_plan_id":"free"},{"bike_id":"6bf4c89a-82b5-4429-a06d-838f0b23879c","system_id":"levelo_inurba_marseille","lat":43.279952,"lon":5.400085,"is_reserved":false,"is_disabled":false,"rental_uris":{"android":"levelo://app?vid=6bf4c89a-82b5-4429-a06d-838f0b23879c","ios":"levelo://app?vid=6bf4c89a-82b5-4429-a06d-838f0b23879c"},"vehicle_type_id":"4","last_reported":1701875266,"current_range_meters":4000,"station_id":"ce4bho92rcd13ifvqh4g","pricing_plan_id":"free"},{"bike_id":"03c5f7be-f218-4047-94ad-24ab34c57a88","system_id":"levelo_inurba_marseille","lat":43.279952,"lon":5.400085,"is_reserved":false,"is_disabled":false,"rental_uris":{"android":"levelo://app?vid=03c5f7be-f218-4047-94ad-24ab34c57a88","ios":"levelo://app?vid=03c5f7be-f218-4047-94ad-24ab34c57a88"},"vehicle_type_id":"4","last_reported":1701875266,"current_range_meters":24800,"station_id":"ce4bho92rcd13ifvqh4g","pricing_plan_id":"free"},{"bike_id":"283b1518-47c4-4c7a-aece-e76435d9d17e","system_id":"levelo_inurba_marseille","lat":43.27622,"lon":5.39483,"is_reserved":false,"is_disabled":false,"rental_uris":{"android":"levelo://app?vid=283b1518-47c4-4c7a-aece-e76435d9d17e","ios":"levelo://app?vid=283b1518-47c4-4c7a-aece-e76435d9d17e"},"vehicle_type_id":"4","last_reported":1701875266,"current_range_meters":8400,"station_id":"","pricing_plan_id":"free"},{"bike_id":"df2d60af-3922-4d51-83b2-28ee17dcb373","system_id":"levelo_inurba_marseille","lat":43.310785,"lon":5.424305,"is_reserved":false,"is_disabled":false,"rental_uris":{"android":"levelo://app?vid=df2d60af-3922-4d51-83b2-28ee17dcb373","ios":"levelo://app?vid=df2d60af-3922-4d51-83b2-28ee17dcb373"},"vehicle_type_id":"4","last_reported":1701875266,"current_range_meters":13600,"station_id":"ce4bhp92rcd13ifvqhag","pricing_plan_id":"free"},{"bike_id":"48a1a1a4-e735-401c-83e7-33c2c02dc144","system_id":"levelo_inurba_marseille","lat":43.317121,"lon":5.423936,"is_reserved":false,"is_disabled":false,"rental_uris":{"android":"levelo://app?vid=48a1a1a4-e735-401c-83e7-33c2c02dc144","ios":"levelo://app?vid=48a1a1a4-e735-401c-83e7-33c2c02dc144"},"vehicle_type_id":"4","last_reported":1701875266,"current_range_meters":29200,"station_id":"ce4bhp92rcd13ifvqhbg","pricing_plan_id":"free"},{"bike_id":"913b04cc-972a-4178-aa7e-9c8e3cdd695a","system_id":"levelo_inurba_marseille","lat":43.295511,"lon":5.422926,"is_reserved":false,"is_disabled":false,"rental_uris":{"android":"levelo://app?vid=913b04cc-972a-4178-aa7e-9c8e3cdd695a","ios":"levelo://app?vid=913b04cc-972a-4178-aa7e-9c8e3cdd695a"},"vehicle_type_id":"4","last_reported":1701875266,"current_range_meters":24800,"station_id":"ce4bhph2rcd13ifvqhdg","pricing_plan_id":"free"},{"bike_id":"e103b54b-b398-4a15-a3d2-c5b596f5e748","system_id":"levelo_inurba_marseille","lat":43.305656,"lon":5.427096,"is_reserved":false,"is_disabled":false,"rental_uris":{"android":"levelo://app?vid=e103b54b-b398-4a15-a3d2-c5b596f5e748","ios":"levelo://app?vid=e103b54b-b398-4a15-a3d2-c5b596f5e748"},"vehicle_type_id":"4","last_reported":1701875266,"current_range_meters":17600,"station_id":"ce4bhoh2rcd13ifvqh6g","pricing_plan_id":"free"},{"bike_id":"db5937b6-372f-4493-a072-707a01f5779d","system_id":"levelo_inurba_marseille","lat":43.272116,"lon":5.391747,"is_reserved":false,"is_disabled":false,"rental_uris":{"android":"levelo://app?vid=db5937b6-372f-4493-a072-707a01f5779d","ios":"levelo://app?vid=db5937b6-372f-4493-a072-707a01f5779d"},"vehicle_type_id":"4","last_reported":1701875266,"current_range_meters":3200,"station_id":"ce4bhhp2rcd13ifvqfm0","pricing_plan_id":"free"},{"bike_id":"77e2df1b-d75a-48fe-a6ad-744dfbe91f1d","system_id":"levelo_inurba_marseille","lat":43.27214,"lon":5.3925,"is_reserved":false,"is_disabled":false,"rental_uris":{"android":"levelo://app?vid=77e2df1b-d75a-48fe-a6ad-744dfbe91f1d","ios":"levelo://app?vid=77e2df1b-d75a-48fe-a6ad-744dfbe91f1d"},"vehicle_type_id":"4","last_reported":1701875266,"current_range_meters":12800,"station_id":"","pricing_plan_id":"free"},{"bike_id":"0c6f04b2-6269-441b-9b3c-3138a45f1934","system_id":"levelo_inurba_marseille","lat":43.26557,"lon":5.39014,"is_reserved":false,"is_disabled":false,"rental_uris":{"android":"levelo://app?vid=0c6f04b2-6269-441b-9b3c-3138a45f1934","ios":"levelo://app?vid=0c6f04b2-6269-441b-9b3c-3138a45f1934"},"vehicle_type_id":"4","last_reported":1701875266,"current_range_meters":4000,"station_id":"ce4bhe12rcd13ifvqf30","pricing_plan_id":"free"},{"bike_id":"cd2b4915-035f-41b1-99ef-574b55994c12","system_id":"levelo_inurba_marseille","lat":43.26943,"lon":5.40258,"is_reserved":false,"is_disabled":false,"rental_uris":{"android":"levelo://app?vid=cd2b4915-035f-41b1-99ef-574b55994c12","ios":"levelo://app?vid=cd2b4915-035f-41b1-99ef-574b55994c12"},"vehicle_type_id":"4","last_reported":1701875266,"current_range_meters":26800,"station_id":"cjm6bp8fraef2m0cb0m0","pricing_plan_id":"free"},{"bike_id":"d5b14e59-4520-46b2-9872-818b06b1e9bf","system_id":"levelo_inurba_marseille","lat":43.26949,"lon":5.40262,"is_reserved":false,"is_disabled":false,"rental_uris":{"android":"levelo://app?vid=d5b14e59-4520-46b2-9872-818b06b1e9bf","ios":"levelo://app?vid=d5b14e59-4520-46b2-9872-818b06b1e9bf"},"vehicle_type_id":"4","last_reported":1701875266,"current_range_meters":12400,"station_id":"cjm6bp8fraef2m0cb0m0","pricing_plan_id":"free"},{"bike_id":"4ff185e4-165a-490a-a8ca-5799e94a5f55","system_id":"levelo_inurba_marseille","lat":43.26181,"lon":5.37447,"is_reserved":false,"is_disabled":false,"rental_uris":{"android":"levelo://app?vid=4ff185e4-165a-490a-a8ca-5799e94a5f55","ios":"levelo://app?vid=4ff185e4-165a-490a-a8ca-5799e94a5f55"},"vehicle_type_id":"4","last_reported":1701875266,"current_range_meters":0,"station_id":"ce4bhgp2rcd13ifvqfc0","pricing_plan_id":"free"},{"bike_id":"c2157edc-e835-4195-96c6-6cc83713d940","system_id":"levelo_inurba_marseille","lat":43.26803,"lon":5.40267,"is_reserved":false,"is_disabled":false,"rental_uris":{"android":"levelo://app?vid=c2157edc-e835-4195-96c6-6cc83713d940","ios":"levelo://app?vid=c2157edc-e835-4195-96c6-6cc83713d940"},"vehicle_type_id":"4","last_reported":1701875266,"current_range_meters":18000,"station_id":"ce501612rcd8frsf0b60","pricing_plan_id":"free"},{"bike_id":"a47f3d37-9df2-4fd9-b07c-1d38ab431dbc","system_id":"levelo_inurba_marseille","lat":43.281548,"lon":5.42643,"is_reserved":false,"is_disabled":false,"rental_uris":{"android":"levelo://app?vid=a47f3d37-9df2-4fd9-b07c-1d38ab431dbc","ios":"levelo://app?vid=a47f3d37-9df2-4fd9-b07c-1d38ab431dbc"},"vehicle_type_id":"4","last_reported":1701875266,"current_range_meters":12000,"station_id":"ce4bhnh2rcd13ifvqgug","pricing_plan_id":"free"},{"bike_id":"01b56e45-2905-485a-a1ad-3939984e25e4","system_id":"levelo_inurba_marseille","lat":43.281548,"lon":5.42643,"is_reserved":false,"is_disabled":false,"rental_uris":{"android":"levelo://app?vid=01b56e45-2905-485a-a1ad-3939984e25e4","ios":"levelo://app?vid=01b56e45-2905-485a-a1ad-3939984e25e4"},"vehicle_type_id":"4","last_reported":1701875266,"current_range_meters":29200,"station_id":"ce4bhnh2rcd13ifvqgug","pricing_plan_id":"free"},{"bike_id":"a267938e-d276-4a36-956e-9992c4dc0c16","system_id":"levelo_inurba_marseille","lat":43.281548,"lon":5.42643,"is_reserved":false,"is_disabled":false,"rental_uris":{"android":"levelo://app?vid=a267938e-d276-4a36-956e-9992c4dc0c16","ios":"levelo://app?vid=a267938e-d276-4a36-956e-9992c4dc0c16"},"vehicle_type_id":"4","last_reported":1701875266,"current_range_meters":27600,"station_id":"ce4bhnh2rcd13ifvqgug","pricing_plan_id":"free"},{"bike_id":"e80a3a47-620b-4676-9864-80d5b53869ca","system_id":"levelo_inurba_marseille","lat":43.281548,"lon":5.42643,"is_reserved":false,"is_disabled":false,"rental_uris":{"android":"levelo://app?vid=e80a3a47-620b-4676-9864-80d5b53869ca","ios":"levelo://app?vid=e80a3a47-620b-4676-9864-80d5b53869ca"},"vehicle_type_id":"4","last_reported":1701875266,"current_range_meters":26400,"station_id":"ce4bhnh2rcd13ifvqgug","pricing_plan_id":"free"},{"bike_id":"ee765aba-32c7-4a7f-8e72-8501e85ff29c","system_id":"levelo_inurba_marseille","lat":43.281548,"lon":5.42643,"is_reserved":false,"is_disabled":false,"rental_uris":{"android":"levelo://app?vid=ee765aba-32c7-4a7f-8e72-8501e85ff29c","ios":"levelo://app?vid=ee765aba-32c7-4a7f-8e72-8501e85ff29c"},"vehicle_type_id":"4","last_reported":1701875266,"current_range_meters":12800,"station_id":"ce4bhnh2rcd13ifvqgug","pricing_plan_id":"free"},{"bike_id":"88476027-245d-4a61-af2e-87ee5415a9aa","system_id":"levelo_inurba_marseille","lat":43.2607,"lon":5.393983,"is_reserved":false,"is_disabled":false,"rental_uris":{"android":"levelo://app?vid=88476027-245d-4a61-af2e-87ee5415a9aa","ios":"levelo://app?vid=88476027-245d-4a61-af2e-87ee5415a9aa"},"vehicle_type_id":"4","last_reported":1701875266,"current_range_meters":8000,"station_id":"ce4bhh92rcd13ifvqfj0","pricing_plan_id":"free"},{"bike_id":"c58b08ae-cfd5-4c14-ac02-61139ba73838","system_id":"levelo_inurba_marseille","lat":43.2607,"lon":5.393983,"is_reserved":false,"is_disabled":false,"rental_uris":{"android":"levelo://app?vid=c58b08ae-cfd5-4c14-ac02-61139ba73838","ios":"levelo://app?vid=c58b08ae-cfd5-4c14-ac02-61139ba73838"},"vehicle_type_id":"4","last_reported":1701875266,"current_range_meters":30400,"station_id":"ce4bhh92rcd13ifvqfj0","pricing_plan_id":"free"},{"bike_id":"be82f49c-72ee-4b28-b178-0cd68217eae0","system_id":"levelo_inurba_marseille","lat":43.2607,"lon":5.393983,"is_reserved":false,"is_disabled":false,"rental_uris":{"android":"levelo://app?vid=be82f49c-72ee-4b28-b178-0cd68217eae0","ios":"levelo://app?vid=be82f49c-72ee-4b28-b178-0cd68217eae0"},"vehicle_type_id":"4","last_reported":1701875266,"current_range_meters":6000,"station_id":"ce4bhh92rcd13ifvqfj0","pricing_plan_id":"free"},{"bike_id":"3ee3b409-3726-4936-9d58-67c92d42618a","system_id":"levelo_inurba_marseille","lat":43.258224,"lon":5.394369,"is_reserved":false,"is_disabled":false,"rental_uris":{"android":"levelo://app?vid=3ee3b409-3726-4936-9d58-67c92d42618a","ios":"levelo://app?vid=3ee3b409-3726-4936-9d58-67c92d42618a"},"vehicle_type_id":"4","last_reported":1701875266,"current_range_meters":28800,"station_id":"ce4bhip2rcd13ifvqft0","pricing_plan_id":"free"},{"bike_id":"0c677dac-765c-4c94-9920-bfaac6c461fb","system_id":"levelo_inurba_marseille","lat":43.25577,"lon":5.38225,"is_reserved":false,"is_disabled":false,"rental_uris":{"android":"levelo://app?vid=0c677dac-765c-4c94-9920-bfaac6c461fb","ios":"levelo://app?vid=0c677dac-765c-4c94-9920-bfaac6c461fb"},"vehicle_type_id":"4","last_reported":1701875266,"current_range_meters":24400,"station_id":"ce4bhih2rcd13ifvqfs0","pricing_plan_id":"free"},{"bike_id":"cda9c99a-7dee-42d6-998d-a03fc9aad7b0","system_id":"levelo_inurba_marseille","lat":43.25574,"lon":5.38235,"is_reserved":false,"is_disabled":false,"rental_uris":{"android":"levelo://app?vid=cda9c99a-7dee-42d6-998d-a03fc9aad7b0","ios":"levelo://app?vid=cda9c99a-7dee-42d6-998d-a03fc9aad7b0"},"vehicle_type_id":"4","last_reported":1701875266,"current_range_meters":6800,"station_id":"ce4bhih2rcd13ifvqfs0","pricing_plan_id":"free"},{"bike_id":"205f57c6-c153-458e-9f38-4dd1298da20e","system_id":"levelo_inurba_marseille","lat":43.254947,"lon":5.376454,"is_reserved":false,"is_disabled":false,"rental_uris":{"android":"levelo://app?vid=205f57c6-c153-458e-9f38-4dd1298da20e","ios":"levelo://app?vid=205f57c6-c153-458e-9f38-4dd1298da20e"},"vehicle_type_id":"4","last_reported":1701875266,"current_range_meters":6000,"station_id":"ce4bhh12rcd13ifvqff0","pricing_plan_id":"free"},{"bike_id":"0d65d35c-c562-4524-8dbe-5b6cef2f2c2b","system_id":"levelo_inurba_marseille","lat":43.270721,"lon":5.422764,"is_reserved":false,"is_disabled":false,"rental_uris":{"android":"levelo://app?vid=0d65d35c-c562-4524-8dbe-5b6cef2f2c2b","ios":"levelo://app?vid=0d65d35c-c562-4524-8dbe-5b6cef2f2c2b"},"vehicle_type_id":"4","last_reported":1701875266,"current_range_meters":22800,"station_id":"ce4bhk92rcd13ifvqgb0","pricing_plan_id":"free"},{"bike_id":"c25c9d8d-ce4e-4d07-87da-0e7722b65373","system_id":"levelo_inurba_marseille","lat":43.258658,"lon":5.398935,"is_reserved":false,"is_disabled":false,"rental_uris":{"android":"levelo://app?vid=c25c9d8d-ce4e-4d07-87da-0e7722b65373","ios":"levelo://app?vid=c25c9d8d-ce4e-4d07-87da-0e7722b65373"},"vehicle_type_id":"4","last_reported":1701875266,"current_range_meters":24400,"station_id":"ce4bhl92rcd13ifvqghg","pricing_plan_id":"free"},{"bike_id":"0e88fd93-5907-414b-8a74-648a6f54d886","system_id":"levelo_inurba_marseille","lat":43.2479,"lon":5.374457,"is_reserved":false,"is_disabled":false,"rental_uris":{"android":"levelo://app?vid=0e88fd93-5907-414b-8a74-648a6f54d886","ios":"levelo://app?vid=0e88fd93-5907-414b-8a74-648a6f54d886"},"vehicle_type_id":"4","last_reported":1701875266,"current_range_meters":16400,"station_id":"ce4bhgh2rcd13ifvqfb0","pricing_plan_id":"free"},{"bike_id":"92941189-2818-4329-a0e0-ee75fa458157","system_id":"levelo_inurba_marseille","lat":43.2479,"lon":5.374457,"is_reserved":false,"is_disabled":false,"rental_uris":{"android":"levelo://app?vid=92941189-2818-4329-a0e0-ee75fa458157","ios":"levelo://app?vid=92941189-2818-4329-a0e0-ee75fa458157"},"vehicle_type_id":"4","last_reported":1701875266,"current_range_meters":400,"station_id":"ce4bhgh2rcd13ifvqfb0","pricing_plan_id":"free"},{"bike_id":"3ffe595b-6064-4577-8fa6-3e857941c9dd","system_id":"levelo_inurba_marseille","lat":43.2479,"lon":5.374457,"is_reserved":false,"is_disabled":false,"rental_uris":{"android":"levelo://app?vid=3ffe595b-6064-4577-8fa6-3e857941c9dd","ios":"levelo://app?vid=3ffe595b-6064-4577-8fa6-3e857941c9dd"},"vehicle_type_id":"4","last_reported":1701875266,"current_range_meters":18000,"station_id":"ce4bhgh2rcd13ifvqfb0","pricing_plan_id":"free"},{"bike_id":"665751fa-b6e1-4e36-8467-b488a695febb","system_id":"levelo_inurba_marseille","lat":43.2479,"lon":5.374457,"is_reserved":false,"is_disabled":false,"rental_uris":{"android":"levelo://app?vid=665751fa-b6e1-4e36-8467-b488a695febb","ios":"levelo://app?vid=665751fa-b6e1-4e36-8467-b488a695febb"},"vehicle_type_id":"4","last_reported":1701875266,"current_range_meters":30400,"station_id":"ce4bhgh2rcd13ifvqfb0","pricing_plan_id":"free"},{"bike_id":"901a5ad1-6326-4310-99d1-e5550d8117ee","system_id":"levelo_inurba_marseille","lat":43.2479,"lon":5.374457,"is_reserved":false,"is_disabled":false,"rental_uris":{"android":"levelo://app?vid=901a5ad1-6326-4310-99d1-e5550d8117ee","ios":"levelo://app?vid=901a5ad1-6326-4310-99d1-e5550d8117ee"},"vehicle_type_id":"4","last_reported":1701875266,"current_range_meters":24800,"station_id":"ce4bhgh2rcd13ifvqfb0","pricing_plan_id":"free"},{"bike_id":"532069f4-e08d-45bf-af3a-d0b088d4d417","system_id":"levelo_inurba_marseille","lat":43.2479,"lon":5.374457,"is_reserved":false,"is_disabled":false,"rental_uris":{"android":"levelo://app?vid=532069f4-e08d-45bf-af3a-d0b088d4d417","ios":"levelo://app?vid=532069f4-e08d-45bf-af3a-d0b088d4d417"},"vehicle_type_id":"4","last_reported":1701875266,"current_range_meters":31200,"station_id":"ce4bhgh2rcd13ifvqfb0","pricing_plan_id":"free"},{"bike_id":"c6d32513-1e92-4358-abb9-d6c0051508cb","system_id":"levelo_inurba_marseille","lat":43.25102,"lon":5.403214,"is_reserved":false,"is_disabled":false,"rental_uris":{"android":"levelo://app?vid=c6d32513-1e92-4358-abb9-d6c0051508cb","ios":"levelo://app?vid=c6d32513-1e92-4358-abb9-d6c0051508cb"},"vehicle_type_id":"4","last_reported":1701875266,"current_range_meters":400,"station_id":"ce4bhlh2rcd13ifvqgig","pricing_plan_id":"free"},{"bike_id":"a67b4a88-55d7-4a56-b950-992e49aa3970","system_id":"levelo_inurba_marseille","lat":43.246467,"lon":5.388984,"is_reserved":false,"is_disabled":false,"rental_uris":{"android":"levelo://app?vid=a67b4a88-55d7-4a56-b950-992e49aa3970","ios":"levelo://app?vid=a67b4a88-55d7-4a56-b950-992e49aa3970"},"vehicle_type_id":"4","last_reported":1701875266,"current_range_meters":22000,"station_id":"ce4bhg12rcd13ifvqf60","pricing_plan_id":"free"},{"bike_id":"e0e51871-eb49-43e8-8bb9-126d618a1e31","system_id":"levelo_inurba_marseille","lat":43.243884,"lon":5.370736,"is_reserved":false,"is_disabled":false,"rental_uris":{"android":"levelo://app?vid=e0e51871-eb49-43e8-8bb9-126d618a1e31","ios":"levelo://app?vid=e0e51871-eb49-43e8-8bb9-126d618a1e31"},"vehicle_type_id":"4","last_reported":1701875266,"current_range_meters":28000,"station_id":"ce4bhhh2rcd13ifvqfk0","pricing_plan_id":"free"},{"bike_id":"42ebde9a-c702-4a24-8e53-26d0baa0015e","system_id":"levelo_inurba_marseille","lat":43.245581,"lon":5.395069,"is_reserved":false,"is_disabled":false,"rental_uris":{"android":"levelo://app?vid=42ebde9a-c702-4a24-8e53-26d0baa0015e","ios":"levelo://app?vid=42ebde9a-c702-4a24-8e53-26d0baa0015e"},"vehicle_type_id":"4","last_reported":1701875266,"current_range_meters":20000,"station_id":"ce4bhlp2rcd13ifvqgjg","pricing_plan_id":"free"},{"bike_id":"bbc3b366-18f5-4aba-88be-5d6867d9dc9e","system_id":"levelo_inurba_marseille","lat":43.245403,"lon":5.395318,"is_reserved":false,"is_disabled":false,"rental_uris":{"android":"levelo://app?vid=bbc3b366-18f5-4aba-88be-5d6867d9dc9e","ios":"levelo://app?vid=bbc3b366-18f5-4aba-88be-5d6867d9dc9e"},"vehicle_type_id":"4","last_reported":1701875266,"current_range_meters":31200,"station_id":"ce4bhlp2rcd13ifvqgjg","pricing_plan_id":"free"},{"bike_id":"d872d049-2c08-43b0-9754-05399b2963f0","system_id":"levelo_inurba_marseille","lat":43.240703,"lon":5.377687,"is_reserved":false,"is_disabled":false,"rental_uris":{"android":"levelo://app?vid=d872d049-2c08-43b0-9754-05399b2963f0","ios":"levelo://app?vid=d872d049-2c08-43b0-9754-05399b2963f0"},"vehicle_type_id":"4","last_reported":1701875266,"current_range_meters":22400,"station_id":"","pricing_plan_id":"free"},{"bike_id":"e21a2dcc-a5d3-4088-aa88-3ef72049c7dc","system_id":"levelo_inurba_marseille","lat":43.24069,"lon":5.37762,"is_reserved":false,"is_disabled":false,"rental_uris":{"android":"levelo://app?vid=e21a2dcc-a5d3-4088-aa88-3ef72049c7dc","ios":"levelo://app?vid=e21a2dcc-a5d3-4088-aa88-3ef72049c7dc"},"vehicle_type_id":"4","last_reported":1701875266,"current_range_meters":31200,"station_id":"ce4bhnp2rcd13ifvqgvg","pricing_plan_id":"free"},{"bike_id":"1d60268a-530b-4386-906f-815dbed95097","system_id":"levelo_inurba_marseille","lat":43.24065,"lon":5.3777,"is_reserved":false,"is_disabled":false,"rental_uris":{"android":"levelo://app?vid=1d60268a-530b-4386-906f-815dbed95097","ios":"levelo://app?vid=1d60268a-530b-4386-906f-815dbed95097"},"vehicle_type_id":"4","last_reported":1701875266,"current_range_meters":22800,"station_id":"ce4bhnp2rcd13ifvqgvg","pricing_plan_id":"free"},{"bike_id":"b588fb26-a9fd-429d-9325-8ab41784f0e9","system_id":"levelo_inurba_marseille","lat":43.239588,"lon":5.366238,"is_reserved":false,"is_disabled":false,"rental_uris":{"android":"levelo://app?vid=b588fb26-a9fd-429d-9325-8ab41784f0e9","ios":"levelo://app?vid=b588fb26-a9fd-429d-9325-8ab41784f0e9"},"vehicle_type_id":"4","last_reported":1701875266,"current_range_meters":9200,"station_id":"ce4bhi12rcd13ifvqfp0","pricing_plan_id":"free"},{"bike_id":"eee5cae3-a0ba-4530-b2a1-2a5afaf0250a","system_id":"levelo_inurba_marseille","lat":43.241782,"lon":5.397261,"is_reserved":false,"is_disabled":false,"rental_uris":{"android":"levelo://app?vid=eee5cae3-a0ba-4530-b2a1-2a5afaf0250a","ios":"levelo://app?vid=eee5cae3-a0ba-4530-b2a1-2a5afaf0250a"},"vehicle_type_id":"4","last_reported":1701875266,"current_range_meters":31200,"station_id":"ce4bhn12rcd13ifvqgpg","pricing_plan_id":"free"},{"bike_id":"cecf959f-015c-4ca5-9fdb-d17143d1fc57","system_id":"levelo_inurba_marseille","lat":43.241782,"lon":5.397261,"is_reserved":false,"is_disabled":false,"rental_uris":{"android":"levelo://app?vid=cecf959f-015c-4ca5-9fdb-d17143d1fc57","ios":"levelo://app?vid=cecf959f-015c-4ca5-9fdb-d17143d1fc57"},"vehicle_type_id":"4","last_reported":1701875266,"current_range_meters":21600,"station_id":"ce4bhn12rcd13ifvqgpg","pricing_plan_id":"free"},{"bike_id":"ee8851ba-2934-4bc6-b20d-354057ab45e2","system_id":"levelo_inurba_marseille","lat":43.23203,"lon":5.35552,"is_reserved":false,"is_disabled":false,"rental_uris":{"android":"levelo://app?vid=ee8851ba-2934-4bc6-b20d-354057ab45e2","ios":"levelo://app?vid=ee8851ba-2934-4bc6-b20d-354057ab45e2"},"vehicle_type_id":"4","last_reported":1701875266,"current_range_meters":11200,"station_id":"ce4bhu92rcd13ifvqi70","pricing_plan_id":"free"},{"bike_id":"265d8647-926c-4792-875e-587423febe0c","system_id":"levelo_inurba_marseille","lat":43.23195,"lon":5.355581,"is_reserved":false,"is_disabled":false,"rental_uris":{"android":"levelo://app?vid=265d8647-926c-4792-875e-587423febe0c","ios":"levelo://app?vid=265d8647-926c-4792-875e-587423febe0c"},"vehicle_type_id":"4","last_reported":1701875266,"current_range_meters":13200,"station_id":"ce4bhu92rcd13ifvqi70","pricing_plan_id":"free"},{"bike_id":"cb54492e-531a-4ddd-ac05-b584fa4c27e9","system_id":"levelo_inurba_marseille","lat":43.231954,"lon":5.355487,"is_reserved":false,"is_disabled":false,"rental_uris":{"android":"levelo://app?vid=cb54492e-531a-4ddd-ac05-b584fa4c27e9","ios":"levelo://app?vid=cb54492e-531a-4ddd-ac05-b584fa4c27e9"},"vehicle_type_id":"4","last_reported":1701875266,"current_range_meters":31200,"station_id":"ce4bhu92rcd13ifvqi70","pricing_plan_id":"free"},{"bike_id":"13c0e5b5-62bd-42f7-8c7c-9168886e359e","system_id":"levelo_inurba_marseille","lat":43.23193,"lon":5.35558,"is_reserved":false,"is_disabled":false,"rental_uris":{"android":"levelo://app?vid=13c0e5b5-62bd-42f7-8c7c-9168886e359e","ios":"levelo://app?vid=13c0e5b5-62bd-42f7-8c7c-9168886e359e"},"vehicle_type_id":"4","last_reported":1701875266,"current_range_meters":29600,"station_id":"ce4bhu92rcd13ifvqi70","pricing_plan_id":"free"},{"bike_id":"8d93eeb2-1ca5-45c1-aa71-2bedec57b2ab","system_id":"levelo_inurba_marseille","lat":43.231919,"lon":5.355532,"is_reserved":false,"is_disabled":false,"rental_uris":{"android":"levelo://app?vid=8d93eeb2-1ca5-45c1-aa71-2bedec57b2ab","ios":"levelo://app?vid=8d93eeb2-1ca5-45c1-aa71-2bedec57b2ab"},"vehicle_type_id":"4","last_reported":1701875266,"current_range_meters":30000,"station_id":"ce4bhu92rcd13ifvqi70","pricing_plan_id":"free"},{"bike_id":"2048aec7-40a9-4fce-8eb2-2625aaa263d3","system_id":"levelo_inurba_marseille","lat":43.23192,"lon":5.35557,"is_reserved":false,"is_disabled":false,"rental_uris":{"android":"levelo://app?vid=2048aec7-40a9-4fce-8eb2-2625aaa263d3","ios":"levelo://app?vid=2048aec7-40a9-4fce-8eb2-2625aaa263d3"},"vehicle_type_id":"4","last_reported":1701875266,"current_range_meters":18400,"station_id":"ce4bhu92rcd13ifvqi70","pricing_plan_id":"free"},{"bike_id":"c67a76af-19e2-4781-b20f-4f48d4550695","system_id":"levelo_inurba_marseille","lat":43.23192,"lon":5.35551,"is_reserved":false,"is_disabled":false,"rental_uris":{"android":"levelo://app?vid=c67a76af-19e2-4781-b20f-4f48d4550695","ios":"levelo://app?vid=c67a76af-19e2-4781-b20f-4f48d4550695"},"vehicle_type_id":"4","last_reported":1701875266,"current_range_meters":20400,"station_id":"ce4bhu92rcd13ifvqi70","pricing_plan_id":"free"},{"bike_id":"64ae2325-7dda-4e94-91b1-10574b2eb5f7","system_id":"levelo_inurba_marseille","lat":43.2319,"lon":5.35553,"is_reserved":false,"is_disabled":false,"rental_uris":{"android":"levelo://app?vid=64ae2325-7dda-4e94-91b1-10574b2eb5f7","ios":"levelo://app?vid=64ae2325-7dda-4e94-91b1-10574b2eb5f7"},"vehicle_type_id":"4","last_reported":1701875266,"current_range_meters":9200,"station_id":"ce4bhu92rcd13ifvqi70","pricing_plan_id":"free"},{"bike_id":"31a33c15-352d-45b2-8ca0-1a47651437f3","system_id":"levelo_inurba_marseille","lat":43.231919,"lon":5.355532,"is_reserved":false,"is_disabled":false,"rental_uris":{"android":"levelo://app?vid=31a33c15-352d-45b2-8ca0-1a47651437f3","ios":"levelo://app?vid=31a33c15-352d-45b2-8ca0-1a47651437f3"},"vehicle_type_id":"4","last_reported":1701875266,"current_range_meters":25200,"station_id":"ce4bhu92rcd13ifvqi70","pricing_plan_id":"free"},{"bike_id":"66f21e22-ce31-42e7-a51f-a5076b53bb0a","system_id":"levelo_inurba_marseille","lat":43.240618,"lon":5.377636,"is_reserved":false,"is_disabled":false,"rental_uris":{"android":"levelo://app?vid=66f21e22-ce31-42e7-a51f-a5076b53bb0a","ios":"levelo://app?vid=66f21e22-ce31-42e7-a51f-a5076b53bb0a"},"vehicle_type_id":"4","last_reported":1701875266,"current_range_meters":29200,"station_id":"ce4bhnp2rcd13ifvqgvg","pricing_plan_id":"free"},{"bike_id":"2a73e8fa-c92c-487d-afb8-ed18138423a5","system_id":"levelo_inurba_marseille","lat":43.231794,"lon":5.400052,"is_reserved":false,"is_disabled":false,"rental_uris":{"android":"levelo://app?vid=2a73e8fa-c92c-487d-afb8-ed18138423a5","ios":"levelo://app?vid=2a73e8fa-c92c-487d-afb8-ed18138423a5"},"vehicle_type_id":"4","last_reported":1701875266,"current_range_meters":28000,"station_id":"ce4bhn12rcd13ifvqgqg","pricing_plan_id":"free"},{"bike_id":"d67530e8-74e0-49cb-9e58-5c3390658303","system_id":"levelo_inurba_marseille","lat":43.231793,"lon":5.400044,"is_reserved":false,"is_disabled":false,"rental_uris":{"android":"levelo://app?vid=d67530e8-74e0-49cb-9e58-5c3390658303","ios":"levelo://app?vid=d67530e8-74e0-49cb-9e58-5c3390658303"},"vehicle_type_id":"4","last_reported":1701875266,"current_range_meters":22400,"station_id":"ce4bhn12rcd13ifvqgqg","pricing_plan_id":"free"},{"bike_id":"df101544-d01e-4bfb-8dd1-52befcc63c97","system_id":"levelo_inurba_marseille","lat":43.23155,"lon":5.43698,"is_reserved":false,"is_disabled":false,"rental_uris":{"android":"levelo://app?vid=df101544-d01e-4bfb-8dd1-52befcc63c97","ios":"levelo://app?vid=df101544-d01e-4bfb-8dd1-52befcc63c97"},"vehicle_type_id":"4","last_reported":1701875266,"current_range_meters":31200,"station_id":"ce4bhmp2rcd13ifvqgog","pricing_plan_id":"free"},{"bike_id":"c580907f-c95a-429d-8441-f61ff4baec47","system_id":"levelo_inurba_marseille","lat":43.231562,"lon":5.436933,"is_reserved":false,"is_disabled":false,"rental_uris":{"android":"levelo://app?vid=c580907f-c95a-429d-8441-f61ff4baec47","ios":"levelo://app?vid=c580907f-c95a-429d-8441-f61ff4baec47"},"vehicle_type_id":"4","last_reported":1701875266,"current_range_meters":3200,"station_id":"ce4bhmp2rcd13ifvqgog","pricing_plan_id":"free"},{"bike_id":"f1ee530b-a0a7-4d4f-95cc-435e7e892fd3","system_id":"levelo_inurba_marseille","lat":43.23159,"lon":5.43721,"is_reserved":false,"is_disabled":false,"rental_uris":{"android":"levelo://app?vid=f1ee530b-a0a7-4d4f-95cc-435e7e892fd3","ios":"levelo://app?vid=f1ee530b-a0a7-4d4f-95cc-435e7e892fd3"},"vehicle_type_id":"4","last_reported":1701875266,"current_range_meters":29200,"station_id":"ce4bhmp2rcd13ifvqgog","pricing_plan_id":"free"},{"bike_id":"cc1f465c-2a96-4d0e-9933-59899d0661dc","system_id":"levelo_inurba_marseille","lat":43.23148,"lon":5.43711,"is_reserved":false,"is_disabled":false,"rental_uris":{"android":"levelo://app?vid=cc1f465c-2a96-4d0e-9933-59899d0661dc","ios":"levelo://app?vid=cc1f465c-2a96-4d0e-9933-59899d0661dc"},"vehicle_type_id":"4","last_reported":1701875266,"current_range_meters":31200,"station_id":"ce4bhmp2rcd13ifvqgog","pricing_plan_id":"free"},{"bike_id":"b8c36804-31ab-4680-ad13-7ed259486cee","system_id":"levelo_inurba_marseille","lat":43.23148,"lon":5.43713,"is_reserved":false,"is_disabled":false,"rental_uris":{"android":"levelo://app?vid=b8c36804-31ab-4680-ad13-7ed259486cee","ios":"levelo://app?vid=b8c36804-31ab-4680-ad13-7ed259486cee"},"vehicle_type_id":"4","last_reported":1701875266,"current_range_meters":30400,"station_id":"ce4bhmp2rcd13ifvqgog","pricing_plan_id":"free"},{"bike_id":"ceef45cf-eb38-4c77-8919-0d17aac14d67","system_id":"levelo_inurba_marseille","lat":43.23149,"lon":5.43729,"is_reserved":false,"is_disabled":false,"rental_uris":{"android":"levelo://app?vid=ceef45cf-eb38-4c77-8919-0d17aac14d67","ios":"levelo://app?vid=ceef45cf-eb38-4c77-8919-0d17aac14d67"},"vehicle_type_id":"4","last_reported":1701875266,"current_range_meters":31200,"station_id":"ce4bhmp2rcd13ifvqgog","pricing_plan_id":"free"},{"bike_id":"778e5985-dbdd-42e1-a7d8-130a2b906c87","system_id":"levelo_inurba_marseille","lat":43.23142,"lon":5.43723,"is_reserved":false,"is_disabled":false,"rental_uris":{"android":"levelo://app?vid=778e5985-dbdd-42e1-a7d8-130a2b906c87","ios":"levelo://app?vid=778e5985-dbdd-42e1-a7d8-130a2b906c87"},"vehicle_type_id":"4","last_reported":1701875266,"current_range_meters":2400,"station_id":"ce4bhmp2rcd13ifvqgog","pricing_plan_id":"free"}]}}