{"last_updated":1704006375,"ttl":30,"version":"2.2","data":{"bikes":[{"bike_id":"2bf732d1-cd8c-466f-a8a7-9bd69662d50f","system_id":"levelo_inurba_marseille","lat":43.313391,"lon":5.36706,"is_reserved":false,"is_disabled":false,"rental_uris":{"android":"levelo://app?vid=2bf732d1-cd8c-466f-a8a7-9bd69662d50f","ios":"levelo://app?vid=2bf732d1-cd8c-466f-a8a7-9bd69662d50f"},"vehicle_type_id":"4","last_reported":1704006375,"current_range_meters":27600,"station_id":"ce4bgr92rcd13ifvqc6g","pricing_plan_id":"free"},{"bike_id":"29d8ca3b-1307-4f4d-8876-890f426acc1b","system_id":"levelo_inurba_marseille","lat":43.31341,"lon":5.367098,"is_reserved":false,"is_disabled":false,"rental_uris":{"android":"levelo://app?vid=29d8ca3b-1307-4f4d-8876-890f426acc1b","ios":"levelo://app?vid=29d8ca3b-1307-4f4d-8876-890f426acc1b"},"vehicle_type_id":"4","last_reported":1704006375,"current_range_meters":28800,"station_id":"ce4bgr92rcd13ifvqc6g","pricing_plan_id":"free"},{"bike_id":"1ed43ed3-3c89-458f-8822-a511383f4aac","system_id":"levelo_inurba_marseille","lat":43.31341,"lon":5.367098,"is_reserved":false,"is_disabled":false,"rental_uris":{"android":"levelo://app?vid=1ed43ed3-3c89-458f-8822-a511383f4aac","ios":"levelo://app?vid=1ed43ed3-3c89-458f-8822-a511383f4aac"},"vehicle_type_id":"4","last_reported":1704006375,"current_range_meters":29600,"station_id":"ce4bgr92rcd13ifvqc6g","pricing_plan_id":"free"},{"bike_id":"a12bc0d9-5f6f-44ed-b534-fbc5f3361744","system_id":"levelo_inurba_marseille","lat":43.312239,"lon":5.368562,"is_reserved":false,"is_disabled":false,"rental_uris":{"android":"levelo://app?vid=a12bc0d9-5f6f-44ed-b534-fbc5f3361744","ios":"levelo://app?vid=a12bc0d9-5f6f-44ed-b534-fbc5f3361744"},"vehicle_type_id":"4","last_reported":1704006375,"current_range_meters":24000,"station_id":"ce4bgl92rcd13ifvqbq0","pricing_plan_id":"free"},{"bike_id":"913fdbc5-1f92-4b88-9ade-793a5d84fa13","system_id":"levelo_inurba_marseille","lat":43.309076,"lon":5.368465,"is_reserved":false,"is_disabled":false,"rental_uris":{"android":"levelo://app?vid=913fdbc5-1f92-4b88-9ade-793a5d84fa13","ios":"levelo://app?vid=913fdbc5-1f92-4b88-9ade-793a5d84fa13"},"vehicle_type_id":"4","last_reported":1704006375,"current_range_meters":26400,"station_id":"ce4bgn92rcd13ifvqbvg","pricing_plan_id":"free"},{"bike_id":"205322d9-5db9-41b0-87a0-69a0f371155a","system_id":"levelo_inurba_marseille","lat":43.314811,"lon":5.373103,"is_reserved":false,"is_disabled":false,"rental_uris":{"android":"levelo://app?vid=205322d9-5db9-41b0-87a0-69a0f371155a","ios":"levelo://app?vid=205322d9-5db9-41b0-87a0-69a0f371155a"},"vehicle_type_id":"4","last_reported":1704006375,"current_range_meters":31200,"station_id":"ce4bgt12rcd13ifvqcd0","pricing_plan_id":"free"},{"bike_id":"a23b1e95-1fc8-49a1-ac0c-1a1f9ddd8486","system_id":"levelo_inurba_marseille","lat":43.314811,"lon":5.373103,"is_reserved":false,"is_disabled":false,"rental_uris":{"android":"levelo://app?vid=a23b1e95-1fc8-49a1-ac0c-1a1f9ddd8486","ios":"levelo://app?vid=a23b1e95-1fc8-49a1-ac0c-1a1f9ddd8486"},"vehicle_type_id":"4","last_reported":1704006375,"current_range_meters":25600,"station_id":"ce4bgt12rcd13ifvqcd0","pricing_plan_id":"free"},{"bike_id":"9059a35f-a0e9-44c2-8a37-e0e8c31af139","system_id":"levelo_inurba_marseille","lat":43.314811,"lon":5.373103,"is_reserved":false,"is_disabled":false,"rental_uris":{"android":"levelo://app?vid=9059a35f-a0e9-44c2-8a37-e0e8c31af139","ios":"levelo://app?vid=9059a35f-a0e9-44c2-8a37-e0e8c31af139"},"vehicle_type_id":"4","last_reported":1704006375,"current_range_meters":23600,"station_id":"ce4bgt12rcd13ifvqcd0","pricing_plan_id":"free"},{"bike_id":"63749c65-a3ae-4dda-b16a-f3f884850e3c","system_id":"levelo_inurba_marseille","lat":43.314811,"lon":5.373103,"is_reserved":false,"is_disabled":false,"rental_uris":{"android":"levelo://app?vid=63749c65-a3ae-4dda-b16a-f3f884850e3c","ios":"levelo://app?vid=63749c65-a3ae-4dda-b16a-f3f884850e3c"},"vehicle_type_id":"4","last_reported":1704006375,"current_range_meters":30800,"station_id":"ce4bgt12rcd13ifvqcd0","pricing_plan_id":"free"},{"bike_id":"03db1e88-4195-42e9-a4e5-42ea8fbf139c","system_id":"levelo_inurba_marseille","lat":43.314961,"lon":5.373005,"is_reserved":false,"is_disabled":false,"rental_uris":{"android":"levelo://app?vid=03db1e88-4195-42e9-a4e5-42ea8fbf139c","ios":"levelo://app?vid=03db1e88-4195-42e9-a4e5-42ea8fbf139c"},"vehicle_type_id":"4","last_reported":1704006375,"current_range_meters":31200,"station_id":"ce4bgt12rcd13ifvqcd0","pricing_plan_id":"free"},{"bike_id":"5056eb3a-9aa9-44d8-941b-16c772a93beb","system_id":"levelo_inurba_marseille","lat":43.309039,"lon":5.371797,"is_reserved":false,"is_disabled":false,"rental_uris":{"android":"levelo://app?vid=5056eb3a-9aa9-44d8-941b-16c772a93beb","ios":"levelo://app?vid=5056eb3a-9aa9-44d8-941b-16c772a93beb"},"vehicle_type_id":"4","last_reported":1704006375,"current_range_meters":30400,"station_id":"ce4bguh2rcd13ifvqckg","pricing_plan_id":"free"},{"bike_id":"2bf1159c-4b34-4bc3-a8b5-156be571c011","system_id":"levelo_inurba_marseille","lat":43.307843,"lon":5.373431,"is_reserved":false,"is_disabled":false,"rental_uris":{"android":"levelo://app?vid=2bf1159c-4b34-4bc3-a8b5-156be571c011","ios":"levelo://app?vid=2bf1159c-4b34-4bc3-a8b5-156be571c011"},"vehicle_type_id":"4","last_reported":1704006375,"current_range_meters":24800,"station_id":"","pricing_plan_id":"free"},{"bike_id":"a3c8d623-a85c-45ca-8fac-8710ce7491da","system_id":"levelo_inurba_marseille","lat":43.3064,"lon":5.37181,"is_reserved":false,"is_disabled":false,"rental_uris":{"android":"levelo://app?vid=a3c8d623-a85c-45ca-8fac-8710ce7491da","ios":"levelo://app?vid=a3c8d623-a85c-45ca-8fac-8710ce7491da"},"vehicle_type_id":"4","last_reported":1704006375,"current_range_meters":5600,"station_id":"","pricing_plan_id":"free"},{"bike_id":"64a93320-b6f7-4f00-82e1-5c71938933c4","system_id":"levelo_inurba_marseille","lat":43.313916,"lon":5.37693,"is_reserved":false,"is_disabled":false,"rental_uris":{"android":"levelo://app?vid=64a93320-b6f7-4f00-82e1-5c71938933c4","ios":"levelo://app?vid=64a93320-b6f7-4f00-82e1-5c71938933c4"},"vehicle_type_id":"4","last_reported":1704006375,"current_range_meters":22400,"station_id":"","pricing_plan_id":"free"},{"bike_id":"f25234d1-712b-4501-bd10-1303214eb5d5","system_id":"levelo_inurba_marseille","lat":43.305368,"lon":5.367343,"is_reserved":false,"is_disabled":false,"rental_uris":{"android":"levelo://app?vid=f25234d1-712b-4501-bd10-1303214eb5d5","ios":"levelo://app?vid=f25234d1-712b-4501-bd10-1303214eb5d5"},"vehicle_type_id":"4","last_reported":1704006375,"current_range_meters":26400,"station_id":"ce4bgrp2rcd13ifvqc9g","pricing_plan_id":"free"},{"bike_id":"c21e22da-ec0d-4947-b771-cb0b5f74d7a1","system_id":"levelo_inurba_marseille","lat":43.311131,"lon":5.377651,"is_reserved":false,"is_disabled":false,"rental_uris":{"android":"levelo://app?vid=c21e22da-ec0d-4947-b771-cb0b5f74d7a1","ios":"levelo://app?vid=c21e22da-ec0d-4947-b771-cb0b5f74d7a1"},"vehicle_type_id":"4","last_reported":1704006375,"current_range_meters":15200,"station_id":"ce4bgt92rcd13ifvqcg0","pricing_plan_id":"free"},{"bike_id":"977d30ce-2478-4eb4-932e-f83af109b729","system_id":"levelo_inurba_marseille","lat":43.311125,"lon":5.377624,"is_reserved":false,"is_disabled":false,"rental_uris":{"android":"levelo://app?vid=977d30ce-2478-4eb4-932e-f83af109b729","ios":"levelo://app?vid=977d30ce-2478-4eb4-932e-f83af109b729"},"vehicle_type_id":"4","last_reported":1704006375,"current_range_meters":29200,"station_id":"ce4bgt92rcd13ifvqcg0","pricing_plan_id":"free"},{"bike_id":"15e683fb-dcff-4cbf-87d2-07584f58a356","system_id":"levelo_inurba_marseille","lat":43.311131,"lon":5.377651,"is_reserved":false,"is_disabled":false,"rental_uris":{"android":"levelo://app?vid=15e683fb-dcff-4cbf-87d2-07584f58a356","ios":"levelo://app?vid=15e683fb-dcff-4cbf-87d2-07584f58a356"},"vehicle_type_id":"4","last_reported":1704006375,"current_range_meters":29600,"station_id":"ce4bgt92rcd13ifvqcg0","pricing_plan_id":"free"},{"bike_id":"25af9e1c-886c-4f64-92f2-5ca68e46ae4a","system_id":"levelo_inurba_marseille","lat":43.31722,"lon":5.37668,"is_reserved":false,"is_disabled":false,"rental_uris":{"android":"levelo://app?vid=25af9e1c-886c-4f64-92f2-5ca68e46ae4a","ios":"levelo://app?vid=25af9e1c-886c-4f64-92f2-5ca68e46ae4a"},"vehicle_type_id":"4","last_reported":1704006375,"current_range_meters":23200,"station_id":"","pricing_plan_id":"free"},{"bike_id":"21bfa11a-0732-4577-baca-02804328b90d","system_id":"levelo_inurba_marseille","lat":43.307945,"lon":5.376487,"is_reserved":false,"is_disabled":false,"rental_uris":{"android":"levelo://app?vid=21bfa11a-0732-4577-baca-02804328b90d","ios":"levelo://app?vid=21bfa11a-0732-4577-baca-02804328b90d"},"vehicle_type_id":"4","last_reported":1704006375,"current_range_meters":28400,"station_id":"ce4bgv92rcd13ifvqcq0","pricing_plan_id":"free"},{"bike_id":"43ca8f0e-45c8-46db-88a7-88fa1ac98477","system_id":"levelo_inurba_marseille","lat":43.317075,"lon":5.377367,"is_reserved":false,"is_disabled":false,"rental_uris":{"android":"levelo://app?vid=43ca8f0e-45c8-46db-88a7-88fa1ac98477","ios":"levelo://app?vid=43ca8f0e-45c8-46db-88a7-88fa1ac98477"},"vehicle_type_id":"4","last_reported":1704006375,"current_range_meters":24800,"station_id":"ce4bgth2rcd13ifvqch0","pricing_plan_id":"free"},{"bike_id":"e396057a-9e96-4e6d-bb6b-ed001471212f","system_id":"levelo_inurba_marseille","lat":43.317075,"lon":5.377367,"is_reserved":false,"is_disabled":false,"rental_uris":{"android":"levelo://app?vid=e396057a-9e96-4e6d-bb6b-ed001471212f","ios":"levelo://app?vid=e396057a-9e96-4e6d-bb6b-ed001471212f"},"vehicle_type_id":"4","last_reported":1704006375,"current_range_meters":26000,"station_id":"ce4bgth2rcd13ifvqch0","pricing_plan_id":"free"},{"bike_id":"e5cdb6f6-1300-406e-9303-c0f03d781d71","system_id":"levelo_inurba_marseille","lat":43.317075,"lon":5.377367,"is_reserved":false,"is_disabled":false,"rental_uris":{"android":"levelo://app?vid=e5cdb6f6-1300-406e-9303-c0f03d781d71","ios":"levelo://app?vid=e5cdb6f6-1300-406e-9303-c0f03d781d71"},"vehicle_type_id":"4","last_reported":1704006375,"current_range_meters":31200,"station_id":"ce4bgth2rcd13ifvqch0","pricing_plan_id":"free"},{"bike_id":"e964d4b1-05c8-4139-97ad-6c371ea4e95a","system_id":"levelo_inurba_marseille","lat":43.303046,"lon":5.368981,"is_reserved":false,"is_disabled":false,"rental_uris":{"android":"levelo://app?vid=e964d4b1-05c8-4139-97ad-6c371ea4e95a","ios":"levelo://app?vid=e964d4b1-05c8-4139-97ad-6c371ea4e95a"},"vehicle_type_id":"4","last_reported":1704006375,"current_range_meters":30400,"station_id":"ce4bgqh2rcd13ifvqc5g","pricing_plan_id":"free"},{"bike_id":"c3c5781b-aa1e-41c0-8458-9e4b022e5f11","system_id":"levelo_inurba_marseille","lat":43.315347,"lon":5.380325,"is_reserved":false,"is_disabled":false,"rental_uris":{"android":"levelo://app?vid=c3c5781b-aa1e-41c0-8458-9e4b022e5f11","ios":"levelo://app?vid=c3c5781b-aa1e-41c0-8458-9e4b022e5f11"},"vehicle_type_id":"4","last_reported":1704006375,"current_range_meters":14000,"station_id":"ce4bhsp2rcd13ifvqi50","pricing_plan_id":"free"},{"bike_id":"bbf61291-3961-4743-b501-9ba5cba5315a","system_id":"levelo_inurba_marseille","lat":43.315405,"lon":5.380333,"is_reserved":false,"is_disabled":false,"rental_uris":{"android":"levelo://app?vid=bbf61291-3961-4743-b501-9ba5cba5315a","ios":"levelo://app?vid=bbf61291-3961-4743-b501-9ba5cba5315a"},"vehicle_type_id":"4","last_reported":1704006375,"current_range_meters":29600,"station_id":"ce4bhsp2rcd13ifvqi50","pricing_plan_id":"free"},{"bike_id":"fa42125a-2b48-4e78-9b49-e4925096e263","system_id":"levelo_inurba_marseille","lat":43.315293,"lon":5.380349,"is_reserved":false,"is_disabled":false,"rental_uris":{"android":"levelo://app?vid=fa42125a-2b48-4e78-9b49-e4925096e263","ios":"levelo://app?vid=fa42125a-2b48-4e78-9b49-e4925096e263"},"vehicle_type_id":"4","last_reported":1704006375,"current_range_meters":8000,"station_id":"ce4bhsp2rcd13ifvqi50","pricing_plan_id":"free"},{"bike_id":"cf9539a9-db6a-403f-b9f3-9961cb05b904","system_id":"levelo_inurba_marseille","lat":43.31441,"lon":5.381381,"is_reserved":false,"is_disabled":false,"rental_uris":{"android":"levelo://app?vid=cf9539a9-db6a-403f-b9f3-9961cb05b904","ios":"levelo://app?vid=cf9539a9-db6a-403f-b9f3-9961cb05b904"},"vehicle_type_id":"4","last_reported":1704006375,"current_range_meters":22000,"station_id":"","pricing_plan_id":"free"},{"bike_id":"d2b60c20-a57a-4587-9dfe-b0ec525218c2","system_id":"levelo_inurba_marseille","lat":43.301939,"lon":5.366286,"is_reserved":false,"is_disabled":false,"rental_uris":{"android":"levelo://app?vid=d2b60c20-a57a-4587-9dfe-b0ec525218c2","ios":"levelo://app?vid=d2b60c20-a57a-4587-9dfe-b0ec525218c2"},"vehicle_type_id":"4","last_reported":1704006375,"current_range_meters":30400,"station_id":"ce4bgrh2rcd13ifvqc8g","pricing_plan_id":"free"},{"bike_id":"b80c6a87-40f4-469a-b6a8-7a86c681fb4a","system_id":"levelo_inurba_marseille","lat":43.308012,"lon":5.381511,"is_reserved":false,"is_disabled":false,"rental_uris":{"android":"levelo://app?vid=b80c6a87-40f4-469a-b6a8-7a86c681fb4a","ios":"levelo://app?vid=b80c6a87-40f4-469a-b6a8-7a86c681fb4a"},"vehicle_type_id":"4","last_reported":1704006375,"current_range_meters":20800,"station_id":"ce4bgt12rcd13ifvqce0","pricing_plan_id":"free"},{"bike_id":"efb24e79-fefd-4480-82ad-790690615074","system_id":"levelo_inurba_marseille","lat":43.308066,"lon":5.381503,"is_reserved":false,"is_disabled":false,"rental_uris":{"android":"levelo://app?vid=efb24e79-fefd-4480-82ad-790690615074","ios":"levelo://app?vid=efb24e79-fefd-4480-82ad-790690615074"},"vehicle_type_id":"4","last_reported":1704006375,"current_range_meters":31200,"station_id":"ce4bgt12rcd13ifvqce0","pricing_plan_id":"free"},{"bike_id":"9f4a4a6c-e398-4146-a840-73eaa248a6c7","system_id":"levelo_inurba_marseille","lat":43.308006,"lon":5.381467,"is_reserved":false,"is_disabled":false,"rental_uris":{"android":"levelo://app?vid=9f4a4a6c-e398-4146-a840-73eaa248a6c7","ios":"levelo://app?vid=9f4a4a6c-e398-4146-a840-73eaa248a6c7"},"vehicle_type_id":"4","last_reported":1704006375,"current_range_meters":18400,"station_id":"ce4bgt12rcd13ifvqce0","pricing_plan_id":"free"},{"bike_id":"0d517729-fb61-40ef-bb01-91bab4ba57f7","system_id":"levelo_inurba_marseille","lat":43.30794,"lon":5.3816,"is_reserved":false,"is_disabled":false,"rental_uris":{"android":"levelo://app?vid=0d517729-fb61-40ef-bb01-91bab4ba57f7","ios":"levelo://app?vid=0d517729-fb61-40ef-bb01-91bab4ba57f7"},"vehicle_type_id":"4","last_reported":1704006375,"current_range_meters":31200,"station_id":"ce4bgt12rcd13ifvqce0","pricing_plan_id":"free"},{"bike_id":"e4dcb29d-6179-427e-822d-8621bcd08456","system_id":"levelo_inurba_marseille","lat":43.304708,"lon":5.379039,"is_reserved":false,"is_disabled":false,"rental_uris":{"android":"levelo://app?vid=e4dcb29d-6179-427e-822d-8621bcd08456","ios":"levelo://app?vid=e4dcb29d-6179-427e-822d-8621bcd08456"},"vehicle_type_id":"4","last_reported":1704006375,"current_range_meters":19600,"station_id":"","pricing_plan_id":"free"},{"bike_id":"fc1eb1be-8f99-41ab-ba18-115898c83ba9","system_id":"levelo_inurba_marseille","lat":43.304606,"lon":5.379026,"is_reserved":false,"is_disabled":false,"rental_uris":{"android":"levelo://app?vid=fc1eb1be-8f99-41ab-ba18-115898c83ba9","ios":"levelo://app?vid=fc1eb1be-8f99-41ab-ba18-115898c83ba9"},"vehicle_type_id":"4","last_reported":1704006375,"current_range_meters":29200,"station_id":"ce4bgup2rcd13ifvqcn0","pricing_plan_id":"free"},{"bike_id":"ff502fa9-0e47-4ec2-903e-b00764e85bbc","system_id":"levelo_inurba_marseille","lat":43.304606,"lon":5.379026,"is_reserved":false,"is_disabled":false,"rental_uris":{"android":"levelo://app?vid=ff502fa9-0e47-4ec2-903e-b00764e85bbc","ios":"levelo://app?vid=ff502fa9-0e47-4ec2-903e-b00764e85bbc"},"vehicle_type_id":"4","last_reported":1704006375,"current_range_meters":27200,"station_id":"ce4bgup2rcd13ifvqcn0","pricing_plan_id":"free"},{"bike_id":"20757a92-b7f3-4449-8614-21e63b8b5b9f","system_id":"levelo_inurba_marseille","lat":43.304606,"lon":5.379026,"is_reserved":false,"is_disabled":false,"rental_uris":{"android":"levelo://app?vid=20757a92-b7f3-4449-8614-21e63b8b5b9f","ios":"levelo://app?vid=20757a92-b7f3-4449-8614-21e63b8b5b9f"},"vehicle_type_id":"4","last_reported":1704006375,"current_range_meters":29600,"station_id":"ce4bgup2rcd13ifvqcn0","pricing_plan_id":"free"},{"bike_id":"c9abfcd5-791b-4ddb-9bb4-23ffe03e3924","system_id":"levelo_inurba_marseille","lat":43.304606,"lon":5.379026,"is_reserved":false,"is_disabled":false,"rental_uris":{"android":"levelo://app?vid=c9abfcd5-791b-4ddb-9bb4-23ffe03e3924","ios":"levelo://app?vid=c9abfcd5-791b-4ddb-9bb4-23ffe03e3924"},"vehicle_type_id":"4","last_reported":1704006375,"current_range_meters":23200,"station_id":"ce4bgup2rcd13ifvqcn0","pricing_plan_id":"free"},{"bike_id":"a96185c9-0e86-4dcb-88b6-87e2e9cadb1c","system_id":"levelo_inurba_marseille","lat":43.304606,"lon":5.379026,"is_reserved":false,"is_disabled":false,"rental_uris":{"android":"levelo://app?vid=a96185c9-0e86-4dcb-88b6-87e2e9cadb1c","ios":"levelo://app?vid=a96185c9-0e86-4dcb-88b6-87e2e9cadb1c"},"vehicle_type_id":"4","last_reported":1704006375,"current_range_meters":22000,"station_id":"ce4bgup2rcd13ifvqcn0","pricing_plan_id":"free"},{"bike_id":"b684027f-b6cb-4bcf-9226-4556aa04044c","system_id":"levelo_inurba_marseille","lat":43.304606,"lon":5.379026,"is_reserved":false,"is_disabled":false,"rental_uris":{"android":"levelo://app?vid=b684027f-b6cb-4bcf-9226-4556aa04044c","ios":"levelo://app?vid=b684027f-b6cb-4bcf-9226-4556aa04044c"},"vehicle_type_id":"4","last_reported":1704006375,"current_range_meters":24400,"station_id":"ce4bgup2rcd13ifvqcn0","pricing_plan_id":"free"},{"bike_id":"7cf52b24-2fdd-4646-adb8-5c6f82970a53","system_id":"levelo_inurba_marseille","lat":43.304606,"lon":5.379026,"is_reserved":false,"is_disabled":false,"rental_uris":{"android":"levelo://app?vid=7cf52b24-2fdd-4646-adb8-5c6f82970a53","ios":"levelo://app?vid=7cf52b24-2fdd-4646-adb8-5c6f82970a53"},"vehicle_type_id":"4","last_reported":1704006375,"current_range_meters":27600,"station_id":"ce4bgup2rcd13ifvqcn0","pricing_plan_id":"free"},{"bike_id":"4bf06546-b09f-4d51-b319-0730115d56d6","system_id":"levelo_inurba_marseille","lat":43.304606,"lon":5.379026,"is_reserved":false,"is_disabled":false,"rental_uris":{"android":"levelo://app?vid=4bf06546-b09f-4d51-b319-0730115d56d6","ios":"levelo://app?vid=4bf06546-b09f-4d51-b319-0730115d56d6"},"vehicle_type_id":"4","last_reported":1704006375,"current_range_meters":27600,"station_id":"ce4bgup2rcd13ifvqcn0","pricing_plan_id":"free"},{"bike_id":"1b3b935a-d730-47b8-8f1a-27d7dbde499d","system_id":"levelo_inurba_marseille","lat":43.304606,"lon":5.379026,"is_reserved":false,"is_disabled":false,"rental_uris":{"android":"levelo://app?vid=1b3b935a-d730-47b8-8f1a-27d7dbde499d","ios":"levelo://app?vid=1b3b935a-d730-47b8-8f1a-27d7dbde499d"},"vehicle_type_id":"4","last_reported":1704006375,"current_range_meters":24800,"station_id":"ce4bgup2rcd13ifvqcn0","pricing_plan_id":"free"},{"bike_id":"edd9c623-f9e5-4efd-ac1b-dd522e328204","system_id":"levelo_inurba_marseille","lat":43.304606,"lon":5.379026,"is_reserved":false,"is_disabled":false,"rental_uris":{"android":"levelo://app?vid=edd9c623-f9e5-4efd-ac1b-dd522e328204","ios":"levelo://app?vid=edd9c623-f9e5-4efd-ac1b-dd522e328204"},"vehicle_type_id":"4","last_reported":1704006375,"current_range_meters":31200,"station_id":"ce4bgup2rcd13ifvqcn0","pricing_plan_id":"free"},{"bike_id":"e6b6ec46-ff9d-4979-8e48-2831c6d29578","system_id":"levelo_inurba_marseille","lat":43.304606,"lon":5.379026,"is_reserved":false,"is_disabled":false,"rental_uris":{"android":"levelo://app?vid=e6b6ec46-ff9d-4979-8e48-2831c6d29578","ios":"levelo://app?vid=e6b6ec46-ff9d-4979-8e48-2831c6d29578"},"vehicle_type_id":"4","last_reported":1704006375,"current_range_meters":25200,"station_id":"ce4bgup2rcd13ifvqcn0","pricing_plan_id":"free"},{"bike_id":"bbe46cff-0355-447d-8bc6-e090b80337fe","system_id":"levelo_inurba_marseille","lat":43.304606,"lon":5.379026,"is_reserved":false,"is_disabled":false,"rental_uris":{"android":"levelo://app?vid=bbe46cff-0355-447d-8bc6-e090b80337fe","ios":"levelo://app?vid=bbe46cff-0355-447d-8bc6-e090b80337fe"},"vehicle_type_id":"4","last_reported":1704006375,"current_range_meters":22400,"station_id":"ce4bgup2rcd13ifvqcn0","pricing_plan_id":"free"},{"bike_id":"9adb32c7-82f8-4ccf-b2d9-f74983a410c7","system_id":"levelo_inurba_marseille","lat":43.304606,"lon":5.379026,"is_reserved":false,"is_disabled":false,"rental_uris":{"android":"levelo://app?vid=9adb32c7-82f8-4ccf-b2d9-f74983a410c7","ios":"levelo://app?vid=9adb32c7-82f8-4ccf-b2d9-f74983a410c7"},"vehicle_type_id":"4","last_reported":1704006375,"current_range_meters":26000,"station_id":"ce4bgup2rcd13ifvqcn0","pricing_plan_id":"free"},{"bike_id":"e120e24c-e3c8-4209-8dbb-e732b044f4db","system_id":"levelo_inurba_marseille","lat":43.304606,"lon":5.379026,"is_reserved":false,"is_disabled":false,"rental_uris":{"android":"levelo://app?vid=e120e24c-e3c8-4209-8dbb-e732b044f4db","ios":"levelo://app?vid=e120e24c-e3c8-4209-8dbb-e732b044f4db"},"vehicle_type_id":"4","last_reported":1704006375,"current_range_meters":29600,"station_id":"ce4bgup2rcd13ifvqcn0","pricing_plan_id":"free"},{"bike_id":"5f5e654f-00d6-48a4-a8fe-6eb3104d493e","system_id":"levelo_inurba_marseille","lat":43.304606,"lon":5.379026,"is_reserved":false,"is_disabled":false,"rental_uris":{"android":"levelo://app?vid=5f5e654f-00d6-48a4-a8fe-6eb3104d493e","ios":"levelo://app?vid=5f5e654f-00d6-48a4-a8fe-6eb3104d493e"},"vehicle_type_id":"4","last_reported":1704006375,"current_range_meters":29600,"station_id":"ce4bgup2rcd13ifvqcn0","pricing_plan_id":"free"},{"bike_id":"8dd58076-50d2-4c22-a985-171400cd4f55","system_id":"levelo_inurba_marseille","lat":43.304606,"lon":5.379026,"is_reserved":false,"is_disabled":false,"rental_uris":{"android":"levelo://app?vid=8dd58076-50d2-4c22-a985-171400cd4f55","ios":"levelo://app?vid=8dd58076-50d2-4c22-a985-171400cd4f55"},"vehicle_type_id":"4","last_reported":1704006375,"current_range_meters":23200,"station_id":"ce4bgup2rcd13ifvqcn0","pricing_plan_id":"free"},{"bike_id":"4fa861da-569d-4bc0-bf7d-f2025a29d04e","system_id":"levelo_inurba_marseille","lat":43.304606,"lon":5.379026,"is_reserved":false,"is_disabled":false,"rental_uris":{"android":"levelo://app?vid=4fa861da-569d-4bc0-bf7d-f2025a29d04e","ios":"levelo://app?vid=4fa861da-569d-4bc0-bf7d-f2025a29d04e"},"vehicle_type_id":"4","last_reported":1704006375,"current_range_meters":29200,"station_id":"ce4bgup2rcd13ifvqcn0","pricing_plan_id":"free"},{"bike_id":"ba6ce5d4-ffb2-4303-9f0c-1c4dd562d280","system_id":"levelo_inurba_marseille","lat":43.324771,"lon":5.36557,"is_reserved":false,"is_disabled":false,"rental_uris":{"android":"levelo://app?vid=ba6ce5d4-ffb2-4303-9f0c-1c4dd562d280","ios":"levelo://app?vid=ba6ce5d4-ffb2-4303-9f0c-1c4dd562d280"},"vehicle_type_id":"4","last_reported":1704006375,"current_range_meters":29600,"station_id":"ce4bhs12rcd13ifvqhvg","pricing_plan_id":"free"},{"bike_id":"42f0e134-8926-4ffe-84f7-77b44767e66d","system_id":"levelo_inurba_marseille","lat":43.319935,"lon":5.381699,"is_reserved":false,"is_disabled":false,"rental_uris":{"android":"levelo://app?vid=42f0e134-8926-4ffe-84f7-77b44767e66d","ios":"levelo://app?vid=42f0e134-8926-4ffe-84f7-77b44767e66d"},"vehicle_type_id":"4","last_reported":1704006375,"current_range_meters":28000,"station_id":"ce4bhr12rcd13ifvqhpg","pricing_plan_id":"free"},{"bike_id":"cf7de832-7671-448c-8926-8c4cffc145a8","system_id":"levelo_inurba_marseille","lat":43.319935,"lon":5.381699,"is_reserved":false,"is_disabled":false,"rental_uris":{"android":"levelo://app?vid=cf7de832-7671-448c-8926-8c4cffc145a8","ios":"levelo://app?vid=cf7de832-7671-448c-8926-8c4cffc145a8"},"vehicle_type_id":"4","last_reported":1704006375,"current_range_meters":31200,"station_id":"ce4bhr12rcd13ifvqhpg","pricing_plan_id":"free"},{"bike_id":"b6e175b2-7ff4-44c6-a5a6-070588ca3901","system_id":"levelo_inurba_marseille","lat":43.313571,"lon":5.384829,"is_reserved":false,"is_disabled":false,"rental_uris":{"android":"levelo://app?vid=b6e175b2-7ff4-44c6-a5a6-070588ca3901","ios":"levelo://app?vid=b6e175b2-7ff4-44c6-a5a6-070588ca3901"},"vehicle_type_id":"4","last_reported":1704006375,"current_range_meters":24400,"station_id":"ce4bgt92rcd13ifvqcf0","pricing_plan_id":"free"},{"bike_id":"a38004ee-721c-4ebf-9263-150d7ec6133c","system_id":"levelo_inurba_marseille","lat":43.313651,"lon":5.384953,"is_reserved":false,"is_disabled":false,"rental_uris":{"android":"levelo://app?vid=a38004ee-721c-4ebf-9263-150d7ec6133c","ios":"levelo://app?vid=a38004ee-721c-4ebf-9263-150d7ec6133c"},"vehicle_type_id":"4","last_reported":1704006375,"current_range_meters":23200,"station_id":"ce4bgt92rcd13ifvqcf0","pricing_plan_id":"free"},{"bike_id":"fbad72f4-cf36-49b8-aa66-ff25d6c9df0f","system_id":"levelo_inurba_marseille","lat":43.313571,"lon":5.384829,"is_reserved":false,"is_disabled":false,"rental_uris":{"android":"levelo://app?vid=fbad72f4-cf36-49b8-aa66-ff25d6c9df0f","ios":"levelo://app?vid=fbad72f4-cf36-49b8-aa66-ff25d6c9df0f"},"vehicle_type_id":"4","last_reported":1704006375,"current_range_meters":21200,"station_id":"ce4bgt92rcd13ifvqcf0","pricing_plan_id":"free"},{"bike_id":"044d5ef5-0c25-41e7-ae2b-658e95d7702b","system_id":"levelo_inurba_marseille","lat":43.298433,"lon":5.362774,"is_reserved":false,"is_disabled":false,"rental_uris":{"android":"levelo://app?vid=044d5ef5-0c25-41e7-ae2b-658e95d7702b","ios":"levelo://app?vid=044d5ef5-0c25-41e7-ae2b-658e95d7702b"},"vehicle_type_id":"4","last_reported":1704006375,"current_range_meters":19600,"station_id":"ce4bgpp2rcd13ifvqc3g","pricing_plan_id":"free"},{"bike_id":"6764b814-e44d-4b20-ac87-b16ee61e50e3","system_id":"levelo_inurba_marseille","lat":43.305364,"lon":5.384119,"is_reserved":false,"is_disabled":false,"rental_uris":{"android":"levelo://app?vid=6764b814-e44d-4b20-ac87-b16ee61e50e3","ios":"levelo://app?vid=6764b814-e44d-4b20-ac87-b16ee61e50e3"},"vehicle_type_id":"4","last_reported":1704006375,"current_range_meters":23200,"station_id":"ce4bgg92rcd13ifvqb30","pricing_plan_id":"free"},{"bike_id":"1bbf8a36-5b5d-45cc-908b-25967c01c47e","system_id":"levelo_inurba_marseille","lat":43.311722,"lon":5.387247,"is_reserved":false,"is_disabled":false,"rental_uris":{"android":"levelo://app?vid=1bbf8a36-5b5d-45cc-908b-25967c01c47e","ios":"levelo://app?vid=1bbf8a36-5b5d-45cc-908b-25967c01c47e"},"vehicle_type_id":"4","last_reported":1704006375,"current_range_meters":8400,"station_id":"ce4bgv12rcd13ifvqcp0","pricing_plan_id":"free"},{"bike_id":"8e3c1396-3ebb-449b-b96d-9dc92db64366","system_id":"levelo_inurba_marseille","lat":43.311722,"lon":5.387247,"is_reserved":false,"is_disabled":false,"rental_uris":{"android":"levelo://app?vid=8e3c1396-3ebb-449b-b96d-9dc92db64366","ios":"levelo://app?vid=8e3c1396-3ebb-449b-b96d-9dc92db64366"},"vehicle_type_id":"4","last_reported":1704006375,"current_range_meters":20800,"station_id":"ce4bgv12rcd13ifvqcp0","pricing_plan_id":"free"},{"bike_id":"4911eca9-9de5-440b-99c2-f0b5109ca9e7","system_id":"levelo_inurba_marseille","lat":43.311722,"lon":5.387247,"is_reserved":false,"is_disabled":false,"rental_uris":{"android":"levelo://app?vid=4911eca9-9de5-440b-99c2-f0b5109ca9e7","ios":"levelo://app?vid=4911eca9-9de5-440b-99c2-f0b5109ca9e7"},"vehicle_type_id":"4","last_reported":1704006375,"current_range_meters":27600,"station_id":"ce4bgv12rcd13ifvqcp0","pricing_plan_id":"free"},{"bike_id":"dc4b106d-c80d-4bd8-8ab9-5f1e1b429e00","system_id":"levelo_inurba_marseille","lat":43.311722,"lon":5.387247,"is_reserved":false,"is_disabled":false,"rental_uris":{"android":"levelo://app?vid=dc4b106d-c80d-4bd8-8ab9-5f1e1b429e00","ios":"levelo://app?vid=dc4b106d-c80d-4bd8-8ab9-5f1e1b429e00"},"vehicle_type_id":"4","last_reported":1704006375,"current_range_meters":31200,"station_id":"ce4bgv12rcd13ifvqcp0","pricing_plan_id":"free"},{"bike_id":"b5ccd610-ca96-47a9-bd64-c4aac3fbf958","system_id":"levelo_inurba_marseille","lat":43.311722,"lon":5.387247,"is_reserved":false,"is_disabled":false,"rental_uris":{"android":"levelo://app?vid=b5ccd610-ca96-47a9-bd64-c4aac3fbf958","ios":"levelo://app?vid=b5ccd610-ca96-47a9-bd64-c4aac3fbf958"},"vehicle_type_id":"4","last_reported":1704006375,"current_range_meters":29200,"station_id":"ce4bgv12rcd13ifvqcp0","pricing_plan_id":"free"},{"bike_id":"fdc0b565-20a1-493e-9668-b0fcc5598c2d","system_id":"levelo_inurba_marseille","lat":43.311722,"lon":5.387247,"is_reserved":false,"is_disabled":false,"rental_uris":{"android":"levelo://app?vid=fdc0b565-20a1-493e-9668-b0fcc5598c2d","ios":"levelo://app?vid=fdc0b565-20a1-493e-9668-b0fcc5598c2d"},"vehicle_type_id":"4","last_reported":1704006375,"current_range_meters":27600,"station_id":"ce4bgv12rcd13ifvqcp0","pricing_plan_id":"free"},{"bike_id":"8d54d98b-c740-4331-8ce8-dd87388a4bdc","system_id":"levelo_inurba_marseille","lat":43.311722,"lon":5.387247,"is_reserved":false,"is_disabled":false,"rental_uris":{"android":"levelo://app?vid=8d54d98b-c740-4331-8ce8-dd87388a4bdc","ios":"levelo://app?vid=8d54d98b-c740-4331-8ce8-dd87388a4bdc"},"vehicle_type_id":"4","last_reported":1704006375,"current_range_meters":11600,"station_id":"ce4bgv12rcd13ifvqcp0","pricing_plan_id":"free"},{"bike_id":"5f628256-6b8a-462d-bc50-6979c994c9a6","system_id":"levelo_inurba_marseille","lat":43.311722,"lon":5.387247,"is_reserved":false,"is_disabled":false,"rental_uris":{"android":"levelo://app?vid=5f628256-6b8a-462d-bc50-6979c994c9a6","ios":"levelo://app?vid=5f628256-6b8a-462d-bc50-6979c994c9a6"},"vehicle_type_id":"4","last_reported":1704006375,"current_range_meters":31600,"station_id":"ce4bgv12rcd13ifvqcp0","pricing_plan_id":"free"},{"bike_id":"78b2282b-b46b-4494-bc4d-0783d9b9b106","system_id":"levelo_inurba_marseille","lat":43.322872,"lon":5.382756,"is_reserved":false,"is_disabled":false,"rental_uris":{"android":"levelo://app?vid=78b2282b-b46b-4494-bc4d-0783d9b9b106","ios":"levelo://app?vid=78b2282b-b46b-4494-bc4d-0783d9b9b106"},"vehicle_type_id":"4","last_reported":1704006375,"current_range_meters":27600,"station_id":"ce4bhr12rcd13ifvqhqg","pricing_plan_id":"free"},{"bike_id":"c05d138a-9eaa-4578-84f8-5eb99c852b0c","system_id":"levelo_inurba_marseille","lat":43.299111,"lon":5.376309,"is_reserved":false,"is_disabled":false,"rental_uris":{"android":"levelo://app?vid=c05d138a-9eaa-4578-84f8-5eb99c852b0c","ios":"levelo://app?vid=c05d138a-9eaa-4578-84f8-5eb99c852b0c"},"vehicle_type_id":"4","last_reported":1704006375,"current_range_meters":4800,"station_id":"","pricing_plan_id":"free"},{"bike_id":"2154e13a-10ef-4d79-b4f3-a92c055765e5","system_id":"levelo_inurba_marseille","lat":43.322872,"lon":5.382756,"is_reserved":false,"is_disabled":false,"rental_uris":{"android":"levelo://app?vid=2154e13a-10ef-4d79-b4f3-a92c055765e5","ios":"levelo://app?vid=2154e13a-10ef-4d79-b4f3-a92c055765e5"},"vehicle_type_id":"4","last_reported":1704006375,"current_range_meters":31200,"station_id":"ce4bhr12rcd13ifvqhqg","pricing_plan_id":"free"},{"bike_id":"b30b3d1b-ef61-4776-bd7b-61c34fd8cc81","system_id":"levelo_inurba_marseille","lat":43.328176,"lon":5.366674,"is_reserved":false,"is_disabled":false,"rental_uris":{"android":"levelo://app?vid=b30b3d1b-ef61-4776-bd7b-61c34fd8cc81","ios":"levelo://app?vid=b30b3d1b-ef61-4776-bd7b-61c34fd8cc81"},"vehicle_type_id":"4","last_reported":1704006375,"current_range_meters":4400,"station_id":"ce4bhs92rcd13ifvqi0g","pricing_plan_id":"free"},{"bike_id":"341c08e8-590f-49ec-b3d8-929d1eff1926","system_id":"levelo_inurba_marseille","lat":43.328243,"lon":5.366795,"is_reserved":false,"is_disabled":false,"rental_uris":{"android":"levelo://app?vid=341c08e8-590f-49ec-b3d8-929d1eff1926","ios":"levelo://app?vid=341c08e8-590f-49ec-b3d8-929d1eff1926"},"vehicle_type_id":"4","last_reported":1704006375,"current_range_meters":30800,"station_id":"ce4bhs92rcd13ifvqi0g","pricing_plan_id":"free"},{"bike_id":"a677cd10-a09b-4b2e-bffd-45b05d2c9229","system_id":"levelo_inurba_marseille","lat":43.32826,"lon":5.36681,"is_reserved":false,"is_disabled":false,"rental_uris":{"android":"levelo://app?vid=a677cd10-a09b-4b2e-bffd-45b05d2c9229","ios":"levelo://app?vid=a677cd10-a09b-4b2e-bffd-45b05d2c9229"},"vehicle_type_id":"4","last_reported":1704006375,"current_range_meters":14400,"station_id":"ce4bhs92rcd13ifvqi0g","pricing_plan_id":"free"},{"bike_id":"3406ac08-144e-419c-8a8c-9c89910b5b78","system_id":"levelo_inurba_marseille","lat":43.32827,"lon":5.36681,"is_reserved":false,"is_disabled":false,"rental_uris":{"android":"levelo://app?vid=3406ac08-144e-419c-8a8c-9c89910b5b78","ios":"levelo://app?vid=3406ac08-144e-419c-8a8c-9c89910b5b78"},"vehicle_type_id":"4","last_reported":1704006375,"current_range_meters":28800,"station_id":"ce4bhs92rcd13ifvqi0g","pricing_plan_id":"free"},{"bike_id":"74ff96ff-c851-4d57-8883-0d7347bd471f","system_id":"levelo_inurba_marseille","lat":43.32827,"lon":5.36672,"is_reserved":false,"is_disabled":false,"rental_uris":{"android":"levelo://app?vid=74ff96ff-c851-4d57-8883-0d7347bd471f","ios":"levelo://app?vid=74ff96ff-c851-4d57-8883-0d7347bd471f"},"vehicle_type_id":"4","last_reported":1704006375,"current_range_meters":28000,"station_id":"ce4bhs92rcd13ifvqi0g","pricing_plan_id":"free"},{"bike_id":"9d832f49-b330-492c-bca5-26b211dfab4e","system_id":"levelo_inurba_marseille","lat":43.328273,"lon":5.366723,"is_reserved":false,"is_disabled":false,"rental_uris":{"android":"levelo://app?vid=9d832f49-b330-492c-bca5-26b211dfab4e","ios":"levelo://app?vid=9d832f49-b330-492c-bca5-26b211dfab4e"},"vehicle_type_id":"4","last_reported":1704006375,"current_range_meters":16800,"station_id":"ce4bhs92rcd13ifvqi0g","pricing_plan_id":"free"},{"bike_id":"c99c1421-6c70-45e1-a99f-19afba82ca69","system_id":"levelo_inurba_marseille","lat":43.328277,"lon":5.366723,"is_reserved":false,"is_disabled":false,"rental_uris":{"android":"levelo://app?vid=c99c1421-6c70-45e1-a99f-19afba82ca69","ios":"levelo://app?vid=c99c1421-6c70-45e1-a99f-19afba82ca69"},"vehicle_type_id":"4","last_reported":1704006375,"current_range_meters":23600,"station_id":"ce4bhs92rcd13ifvqi0g","pricing_plan_id":"free"},{"bike_id":"51714c4a-3132-4951-88ec-80e85fa125e8","system_id":"levelo_inurba_marseille","lat":43.328284,"lon":5.366793,"is_reserved":false,"is_disabled":false,"rental_uris":{"android":"levelo://app?vid=51714c4a-3132-4951-88ec-80e85fa125e8","ios":"levelo://app?vid=51714c4a-3132-4951-88ec-80e85fa125e8"},"vehicle_type_id":"4","last_reported":1704006375,"current_range_meters":30800,"station_id":"ce4bhs92rcd13ifvqi0g","pricing_plan_id":"free"},{"bike_id":"7aa6a530-3ac6-4ec6-a447-a7bf4c489e07","system_id":"levelo_inurba_marseille","lat":43.3283,"lon":5.36676,"is_reserved":false,"is_disabled":false,"rental_uris":{"android":"levelo://app?vid=7aa6a530-3ac6-4ec6-a447-a7bf4c489e07","ios":"levelo://app?vid=7aa6a530-3ac6-4ec6-a447-a7bf4c489e07"},"vehicle_type_id":"4","last_reported":1704006375,"current_range_meters":16800,"station_id":"ce4bhs92rcd13ifvqi0g","pricing_plan_id":"free"},{"bike_id":"a448ca86-2b35-41e1-89c4-32a99bab0563","system_id":"levelo_inurba_marseille","lat":43.328371,"lon":5.366912,"is_reserved":false,"is_disabled":false,"rental_uris":{"android":"levelo://app?vid=a448ca86-2b35-41e1-89c4-32a99bab0563","ios":"levelo://app?vid=a448ca86-2b35-41e1-89c4-32a99bab0563"},"vehicle_type_id":"4","last_reported":1704006375,"current_range_meters":11600,"station_id":"ce4bhs92rcd13ifvqi0g","pricing_plan_id":"free"},{"bike_id":"15c48ead-179a-4b34-8e1c-920824ff4c19","system_id":"levelo_inurba_marseille","lat":43.32831,"lon":5.36672,"is_reserved":false,"is_disabled":false,"rental_uris":{"android":"levelo://app?vid=15c48ead-179a-4b34-8e1c-920824ff4c19","ios":"levelo://app?vid=15c48ead-179a-4b34-8e1c-920824ff4c19"},"vehicle_type_id":"4","last_reported":1704006375,"current_range_meters":31200,"station_id":"ce4bhs92rcd13ifvqi0g","pricing_plan_id":"free"},{"bike_id":"43517afb-7930-42e8-a305-e900a3000a28","system_id":"levelo_inurba_marseille","lat":43.328319,"lon":5.366744,"is_reserved":false,"is_disabled":false,"rental_uris":{"android":"levelo://app?vid=43517afb-7930-42e8-a305-e900a3000a28","ios":"levelo://app?vid=43517afb-7930-42e8-a305-e900a3000a28"},"vehicle_type_id":"4","last_reported":1704006375,"current_range_meters":17200,"station_id":"ce4bhs92rcd13ifvqi0g","pricing_plan_id":"free"},{"bike_id":"ea7074d7-b7c9-4941-82c2-dff391bae9cb","system_id":"levelo_inurba_marseille","lat":43.32832,"lon":5.36678,"is_reserved":false,"is_disabled":false,"rental_uris":{"android":"levelo://app?vid=ea7074d7-b7c9-4941-82c2-dff391bae9cb","ios":"levelo://app?vid=ea7074d7-b7c9-4941-82c2-dff391bae9cb"},"vehicle_type_id":"4","last_reported":1704006375,"current_range_meters":26000,"station_id":"ce4bhs92rcd13ifvqi0g","pricing_plan_id":"free"},{"bike_id":"904f83aa-e9ab-401d-84c1-9edfed82b884","system_id":"levelo_inurba_marseille","lat":43.32832,"lon":5.366762,"is_reserved":false,"is_disabled":false,"rental_uris":{"android":"levelo://app?vid=904f83aa-e9ab-401d-84c1-9edfed82b884","ios":"levelo://app?vid=904f83aa-e9ab-401d-84c1-9edfed82b884"},"vehicle_type_id":"4","last_reported":1704006375,"current_range_meters":22800,"station_id":"ce4bhs92rcd13ifvqi0g","pricing_plan_id":"free"},{"bike_id":"ee4b1dc6-f7e8-4150-8d20-d92e77f50995","system_id":"levelo_inurba_marseille","lat":43.29713,"lon":5.36612,"is_reserved":false,"is_disabled":false,"rental_uris":{"android":"levelo://app?vid=ee4b1dc6-f7e8-4150-8d20-d92e77f50995","ios":"levelo://app?vid=ee4b1dc6-f7e8-4150-8d20-d92e77f50995"},"vehicle_type_id":"4","last_reported":1704006375,"current_range_meters":24400,"station_id":"ce4bgn12rcd13ifvqbt0","pricing_plan_id":"free"},{"bike_id":"370cccf7-c9ba-46c2-819b-c8e8cacc4c21","system_id":"levelo_inurba_marseille","lat":43.3277,"lon":5.37458,"is_reserved":false,"is_disabled":false,"rental_uris":{"android":"levelo://app?vid=370cccf7-c9ba-46c2-819b-c8e8cacc4c21","ios":"levelo://app?vid=370cccf7-c9ba-46c2-819b-c8e8cacc4c21"},"vehicle_type_id":"4","last_reported":1704006375,"current_range_meters":17600,"station_id":"","pricing_plan_id":"free"},{"bike_id":"921b424d-ad0d-4c7a-9d74-66e3a49bfa19","system_id":"levelo_inurba_marseille","lat":43.32934,"lon":5.36612,"is_reserved":false,"is_disabled":false,"rental_uris":{"android":"levelo://app?vid=921b424d-ad0d-4c7a-9d74-66e3a49bfa19","ios":"levelo://app?vid=921b424d-ad0d-4c7a-9d74-66e3a49bfa19"},"vehicle_type_id":"4","last_reported":1704006375,"current_range_meters":2800,"station_id":"","pricing_plan_id":"free"},{"bike_id":"8c6d35b2-5153-45c4-8b31-bbd617f7b378","system_id":"levelo_inurba_marseille","lat":43.29628,"lon":5.37143,"is_reserved":false,"is_disabled":false,"rental_uris":{"android":"levelo://app?vid=8c6d35b2-5153-45c4-8b31-bbd617f7b378","ios":"levelo://app?vid=8c6d35b2-5153-45c4-8b31-bbd617f7b378"},"vehicle_type_id":"4","last_reported":1704006375,"current_range_meters":31200,"station_id":"ce4bgnh2rcd13ifvqc0g","pricing_plan_id":"free"},{"bike_id":"805ea9cb-00a1-4e15-afb0-c8d2a751faf7","system_id":"levelo_inurba_marseille","lat":43.299028,"lon":5.381509,"is_reserved":false,"is_disabled":false,"rental_uris":{"android":"levelo://app?vid=805ea9cb-00a1-4e15-afb0-c8d2a751faf7","ios":"levelo://app?vid=805ea9cb-00a1-4e15-afb0-c8d2a751faf7"},"vehicle_type_id":"4","last_reported":1704006375,"current_range_meters":29200,"station_id":"ce4bgj12rcd13ifvqbc0","pricing_plan_id":"free"},{"bike_id":"09e95ab7-0d43-459a-92da-8fbc2f0d8830","system_id":"levelo_inurba_marseille","lat":43.299028,"lon":5.381509,"is_reserved":false,"is_disabled":false,"rental_uris":{"android":"levelo://app?vid=09e95ab7-0d43-459a-92da-8fbc2f0d8830","ios":"levelo://app?vid=09e95ab7-0d43-459a-92da-8fbc2f0d8830"},"vehicle_type_id":"4","last_reported":1704006375,"current_range_meters":23600,"station_id":"ce4bgj12rcd13ifvqbc0","pricing_plan_id":"free"},{"bike_id":"be0e5d19-0732-44bf-b1e9-5de8ee43f297","system_id":"levelo_inurba_marseille","lat":43.304274,"lon":5.388873,"is_reserved":false,"is_disabled":false,"rental_uris":{"android":"levelo://app?vid=be0e5d19-0732-44bf-b1e9-5de8ee43f297","ios":"levelo://app?vid=be0e5d19-0732-44bf-b1e9-5de8ee43f297"},"vehicle_type_id":"4","last_reported":1704006375,"current_range_meters":25200,"station_id":"ce4bgk12rcd13ifvqbi0","pricing_plan_id":"free"},{"bike_id":"d60802d6-4f47-444a-b234-883690eec05b","system_id":"levelo_inurba_marseille","lat":43.33062,"lon":5.3627,"is_reserved":false,"is_disabled":false,"rental_uris":{"android":"levelo://app?vid=d60802d6-4f47-444a-b234-883690eec05b","ios":"levelo://app?vid=d60802d6-4f47-444a-b234-883690eec05b"},"vehicle_type_id":"4","last_reported":1704006375,"current_range_meters":24400,"station_id":"","pricing_plan_id":"free"},{"bike_id":"7119845d-00aa-4d9f-be8c-fc97d41f1380","system_id":"levelo_inurba_marseille","lat":43.297594,"lon":5.381134,"is_reserved":false,"is_disabled":false,"rental_uris":{"android":"levelo://app?vid=7119845d-00aa-4d9f-be8c-fc97d41f1380","ios":"levelo://app?vid=7119845d-00aa-4d9f-be8c-fc97d41f1380"},"vehicle_type_id":"4","last_reported":1704006375,"current_range_meters":12800,"station_id":"ce4bgip2rcd13ifvqbb0","pricing_plan_id":"free"},{"bike_id":"c472997c-8921-4240-9407-9bbb195b44d8","system_id":"levelo_inurba_marseille","lat":43.32367,"lon":5.388836,"is_reserved":false,"is_disabled":false,"rental_uris":{"android":"levelo://app?vid=c472997c-8921-4240-9407-9bbb195b44d8","ios":"levelo://app?vid=c472997c-8921-4240-9407-9bbb195b44d8"},"vehicle_type_id":"4","last_reported":1704006375,"current_range_meters":30800,"station_id":"ce4bhqp2rcd13ifvqhog","pricing_plan_id":"free"},{"bike_id":"2086e601-f5ee-4693-9563-19ce1935d7be","system_id":"levelo_inurba_marseille","lat":43.32367,"lon":5.388836,"is_reserved":false,"is_disabled":false,"rental_uris":{"android":"levelo://app?vid=2086e601-f5ee-4693-9563-19ce1935d7be","ios":"levelo://app?vid=2086e601-f5ee-4693-9563-19ce1935d7be"},"vehicle_type_id":"4","last_reported":1704006375,"current_range_meters":31200,"station_id":"ce4bhqp2rcd13ifvqhog","pricing_plan_id":"free"},{"bike_id":"6dc8b67f-7677-4649-90b5-6c004787a94e","system_id":"levelo_inurba_marseille","lat":43.32367,"lon":5.388836,"is_reserved":false,"is_disabled":false,"rental_uris":{"android":"levelo://app?vid=6dc8b67f-7677-4649-90b5-6c004787a94e","ios":"levelo://app?vid=6dc8b67f-7677-4649-90b5-6c004787a94e"},"vehicle_type_id":"4","last_reported":1704006375,"current_range_meters":12400,"station_id":"ce4bhqp2rcd13ifvqhog","pricing_plan_id":"free"},{"bike_id":"122ea523-742e-4de1-aad4-693e2611c6b8","system_id":"levelo_inurba_marseille","lat":43.32367,"lon":5.388836,"is_reserved":false,"is_disabled":false,"rental_uris":{"android":"levelo://app?vid=122ea523-742e-4de1-aad4-693e2611c6b8","ios":"levelo://app?vid=122ea523-742e-4de1-aad4-693e2611c6b8"},"vehicle_type_id":"4","last_reported":1704006375,"current_range_meters":31200,"station_id":"ce4bhqp2rcd13ifvqhog","pricing_plan_id":"free"},{"bike_id":"21c35184-2cff-45c5-a579-0cd18467e694","system_id":"levelo_inurba_marseille","lat":43.32367,"lon":5.388836,"is_reserved":false,"is_disabled":false,"rental_uris":{"android":"levelo://app?vid=21c35184-2cff-45c5-a579-0cd18467e694","ios":"levelo://app?vid=21c35184-2cff-45c5-a579-0cd18467e694"},"vehicle_type_id":"4","last_reported":1704006375,"current_range_meters":28800,"station_id":"ce4bhqp2rcd13ifvqhog","pricing_plan_id":"free"},{"bike_id":"fdba10d6-6c0f-4aa0-aa2d-a60cd34dc728","system_id":"levelo_inurba_marseille","lat":43.32367,"lon":5.388836,"is_reserved":false,"is_disabled":false,"rental_uris":{"android":"levelo://app?vid=fdba10d6-6c0f-4aa0-aa2d-a60cd34dc728","ios":"levelo://app?vid=fdba10d6-6c0f-4aa0-aa2d-a60cd34dc728"},"vehicle_type_id":"4","last_reported":1704006375,"current_range_meters":12000,"station_id":"ce4bhqp2rcd13ifvqhog","pricing_plan_id":"free"},{"bike_id":"dcef2dd0-c3ee-4c98-bc29-3e51c037b219","system_id":"levelo_inurba_marseille","lat":43.299028,"lon":5.381509,"is_reserved":false,"is_disabled":false,"rental_uris":{"android":"levelo://app?vid=dcef2dd0-c3ee-4c98-bc29-3e51c037b219","ios":"levelo://app?vid=dcef2dd0-c3ee-4c98-bc29-3e51c037b219"},"vehicle_type_id":"4","last_reported":1704006375,"current_range_meters":22000,"station_id":"ce4bgj12rcd13ifvqbc0","pricing_plan_id":"free"},{"bike_id":"3ad019c0-ea7b-4736-9556-bf737f726047","system_id":"levelo_inurba_marseille","lat":43.293009,"lon":5.374584,"is_reserved":false,"is_disabled":false,"rental_uris":{"android":"levelo://app?vid=3ad019c0-ea7b-4736-9556-bf737f726047","ios":"levelo://app?vid=3ad019c0-ea7b-4736-9556-bf737f726047"},"vehicle_type_id":"4","last_reported":1704006375,"current_range_meters":26800,"station_id":"ce4bgi12rcd13ifvqb70","pricing_plan_id":"free"},{"bike_id":"48cc7388-e97e-486a-8cc3-d2cef47ac392","system_id":"levelo_inurba_marseille","lat":43.303002,"lon":5.392142,"is_reserved":false,"is_disabled":false,"rental_uris":{"android":"levelo://app?vid=48cc7388-e97e-486a-8cc3-d2cef47ac392","ios":"levelo://app?vid=48cc7388-e97e-486a-8cc3-d2cef47ac392"},"vehicle_type_id":"4","last_reported":1704006375,"current_range_meters":31200,"station_id":"ce4bgkh2rcd13ifvqbk0","pricing_plan_id":"free"},{"bike_id":"54ffbcbb-42a2-40be-8c4a-114387cb7504","system_id":"levelo_inurba_marseille","lat":43.303002,"lon":5.392142,"is_reserved":false,"is_disabled":false,"rental_uris":{"android":"levelo://app?vid=54ffbcbb-42a2-40be-8c4a-114387cb7504","ios":"levelo://app?vid=54ffbcbb-42a2-40be-8c4a-114387cb7504"},"vehicle_type_id":"4","last_reported":1704006375,"current_range_meters":26400,"station_id":"ce4bgkh2rcd13ifvqbk0","pricing_plan_id":"free"},{"bike_id":"66bf43f9-6b5c-4200-b258-3d0edb220341","system_id":"levelo_inurba_marseille","lat":43.300852,"lon":5.390859,"is_reserved":false,"is_disabled":false,"rental_uris":{"android":"levelo://app?vid=66bf43f9-6b5c-4200-b258-3d0edb220341","ios":"levelo://app?vid=66bf43f9-6b5c-4200-b258-3d0edb220341"},"vehicle_type_id":"4","last_reported":1704006375,"current_range_meters":29600,"station_id":"ce4bh192rcd13ifvqdb0","pricing_plan_id":"free"},{"bike_id":"35228086-edfa-4848-801f-a2282ebc3acf","system_id":"levelo_inurba_marseille","lat":43.292649,"lon":5.376199,"is_reserved":false,"is_disabled":false,"rental_uris":{"android":"levelo://app?vid=35228086-edfa-4848-801f-a2282ebc3acf","ios":"levelo://app?vid=35228086-edfa-4848-801f-a2282ebc3acf"},"vehicle_type_id":"4","last_reported":1704006375,"current_range_meters":23200,"station_id":"","pricing_plan_id":"free"},{"bike_id":"390b3f3a-65ed-40bd-859c-ca405438ce53","system_id":"levelo_inurba_marseille","lat":43.292639,"lon":5.376248,"is_reserved":false,"is_disabled":false,"rental_uris":{"android":"levelo://app?vid=390b3f3a-65ed-40bd-859c-ca405438ce53","ios":"levelo://app?vid=390b3f3a-65ed-40bd-859c-ca405438ce53"},"vehicle_type_id":"4","last_reported":1704006375,"current_range_meters":20800,"station_id":"","pricing_plan_id":"free"},{"bike_id":"a2c578a2-4c26-4d61-a0e4-8313e342e8fe","system_id":"levelo_inurba_marseille","lat":43.291675,"lon":5.371583,"is_reserved":false,"is_disabled":false,"rental_uris":{"android":"levelo://app?vid=a2c578a2-4c26-4d61-a0e4-8313e342e8fe","ios":"levelo://app?vid=a2c578a2-4c26-4d61-a0e4-8313e342e8fe"},"vehicle_type_id":"4","last_reported":1704006375,"current_range_meters":30000,"station_id":"ce4bha92rcd13ifvqeh0","pricing_plan_id":"free"},{"bike_id":"ccacff2f-555a-410a-ab57-a04d30905112","system_id":"levelo_inurba_marseille","lat":43.309038,"lon":5.396546,"is_reserved":false,"is_disabled":false,"rental_uris":{"android":"levelo://app?vid=ccacff2f-555a-410a-ab57-a04d30905112","ios":"levelo://app?vid=ccacff2f-555a-410a-ab57-a04d30905112"},"vehicle_type_id":"4","last_reported":1704006375,"current_range_meters":24400,"station_id":"ce4bh012rcd13ifvqcv0","pricing_plan_id":"free"},{"bike_id":"2c5b78d1-b07a-4467-b682-b562dac43f2f","system_id":"levelo_inurba_marseille","lat":43.309047,"lon":5.396551,"is_reserved":false,"is_disabled":false,"rental_uris":{"android":"levelo://app?vid=2c5b78d1-b07a-4467-b682-b562dac43f2f","ios":"levelo://app?vid=2c5b78d1-b07a-4467-b682-b562dac43f2f"},"vehicle_type_id":"4","last_reported":1704006375,"current_range_meters":31200,"station_id":"ce4bh012rcd13ifvqcv0","pricing_plan_id":"free"},{"bike_id":"c75878da-d8a5-4e3e-b895-fbfab15f7eb5","system_id":"levelo_inurba_marseille","lat":43.291994,"lon":5.357886,"is_reserved":false,"is_disabled":false,"rental_uris":{"android":"levelo://app?vid=c75878da-d8a5-4e3e-b895-fbfab15f7eb5","ios":"levelo://app?vid=c75878da-d8a5-4e3e-b895-fbfab15f7eb5"},"vehicle_type_id":"4","last_reported":1704006375,"current_range_meters":8000,"station_id":"ce4bhb12rcd13ifvqel0","pricing_plan_id":"free"},{"bike_id":"dc86c63f-e497-4dc4-b167-4862199c82e7","system_id":"levelo_inurba_marseille","lat":43.309038,"lon":5.396546,"is_reserved":false,"is_disabled":false,"rental_uris":{"android":"levelo://app?vid=dc86c63f-e497-4dc4-b167-4862199c82e7","ios":"levelo://app?vid=dc86c63f-e497-4dc4-b167-4862199c82e7"},"vehicle_type_id":"4","last_reported":1704006375,"current_range_meters":30000,"station_id":"ce4bh012rcd13ifvqcv0","pricing_plan_id":"free"},{"bike_id":"35f49b5c-1333-4146-875e-5ab4661eb966","system_id":"levelo_inurba_marseille","lat":43.309038,"lon":5.396546,"is_reserved":false,"is_disabled":false,"rental_uris":{"android":"levelo://app?vid=35f49b5c-1333-4146-875e-5ab4661eb966","ios":"levelo://app?vid=35f49b5c-1333-4146-875e-5ab4661eb966"},"vehicle_type_id":"4","last_reported":1704006375,"current_range_meters":17200,"station_id":"ce4bh012rcd13ifvqcv0","pricing_plan_id":"free"},{"bike_id":"f6639753-81fa-49f3-8076-26f4effee43b","system_id":"levelo_inurba_marseille","lat":43.291994,"lon":5.357886,"is_reserved":false,"is_disabled":false,"rental_uris":{"android":"levelo://app?vid=f6639753-81fa-49f3-8076-26f4effee43b","ios":"levelo://app?vid=f6639753-81fa-49f3-8076-26f4effee43b"},"vehicle_type_id":"4","last_reported":1704006375,"current_range_meters":29200,"station_id":"ce4bhb12rcd13ifvqel0","pricing_plan_id":"free"},{"bike_id":"928616ef-ddad-4685-b585-1ed456138e98","system_id":"levelo_inurba_marseille","lat":43.309047,"lon":5.396551,"is_reserved":false,"is_disabled":false,"rental_uris":{"android":"levelo://app?vid=928616ef-ddad-4685-b585-1ed456138e98","ios":"levelo://app?vid=928616ef-ddad-4685-b585-1ed456138e98"},"vehicle_type_id":"4","last_reported":1704006375,"current_range_meters":31200,"station_id":"ce4bh012rcd13ifvqcv0","pricing_plan_id":"free"},{"bike_id":"a08d5d7e-1bce-4b74-8609-02c4624afbd1","system_id":"levelo_inurba_marseille","lat":43.313291,"lon":5.396838,"is_reserved":false,"is_disabled":false,"rental_uris":{"android":"levelo://app?vid=a08d5d7e-1bce-4b74-8609-02c4624afbd1","ios":"levelo://app?vid=a08d5d7e-1bce-4b74-8609-02c4624afbd1"},"vehicle_type_id":"4","last_reported":1704006375,"current_range_meters":26000,"station_id":"ce4bgvp2rcd13ifvqcu0","pricing_plan_id":"free"},{"bike_id":"5cf30968-0f7d-4d59-becc-64e3e994078f","system_id":"levelo_inurba_marseille","lat":43.313291,"lon":5.396838,"is_reserved":false,"is_disabled":false,"rental_uris":{"android":"levelo://app?vid=5cf30968-0f7d-4d59-becc-64e3e994078f","ios":"levelo://app?vid=5cf30968-0f7d-4d59-becc-64e3e994078f"},"vehicle_type_id":"4","last_reported":1704006375,"current_range_meters":29200,"station_id":"ce4bgvp2rcd13ifvqcu0","pricing_plan_id":"free"},{"bike_id":"b7ed5c5f-1ed9-4daa-8224-d1003e8fac9c","system_id":"levelo_inurba_marseille","lat":43.29529,"lon":5.385581,"is_reserved":false,"is_disabled":false,"rental_uris":{"android":"levelo://app?vid=b7ed5c5f-1ed9-4daa-8224-d1003e8fac9c","ios":"levelo://app?vid=b7ed5c5f-1ed9-4daa-8224-d1003e8fac9c"},"vehicle_type_id":"4","last_reported":1704006375,"current_range_meters":24800,"station_id":"ce4bgih2rcd13ifvqba0","pricing_plan_id":"free"},{"bike_id":"5c4ff2cd-37ad-40e3-9bea-145d88f9f15b","system_id":"levelo_inurba_marseille","lat":43.30202,"lon":5.39464,"is_reserved":false,"is_disabled":false,"rental_uris":{"android":"levelo://app?vid=5c4ff2cd-37ad-40e3-9bea-145d88f9f15b","ios":"levelo://app?vid=5c4ff2cd-37ad-40e3-9bea-145d88f9f15b"},"vehicle_type_id":"4","last_reported":1704006375,"current_range_meters":31200,"station_id":"ce4bh0p2rcd13ifvqd70","pricing_plan_id":"free"},{"bike_id":"b7f492fc-d7a7-45d1-8c4c-956c0f2bc729","system_id":"levelo_inurba_marseille","lat":43.29416,"lon":5.38629,"is_reserved":false,"is_disabled":false,"rental_uris":{"android":"levelo://app?vid=b7f492fc-d7a7-45d1-8c4c-956c0f2bc729","ios":"levelo://app?vid=b7f492fc-d7a7-45d1-8c4c-956c0f2bc729"},"vehicle_type_id":"4","last_reported":1704006375,"current_range_meters":30000,"station_id":"ce4bh2h2rcd13ifvqdh0","pricing_plan_id":"free"},{"bike_id":"6d63a046-b564-44ee-a7f7-102eba77b5cb","system_id":"levelo_inurba_marseille","lat":43.289184,"lon":5.366408,"is_reserved":false,"is_disabled":false,"rental_uris":{"android":"levelo://app?vid=6d63a046-b564-44ee-a7f7-102eba77b5cb","ios":"levelo://app?vid=6d63a046-b564-44ee-a7f7-102eba77b5cb"},"vehicle_type_id":"4","last_reported":1704006375,"current_range_meters":27200,"station_id":"ce4bhap2rcd13ifvqek0","pricing_plan_id":"free"},{"bike_id":"3e470954-e11c-4f63-b591-fb682709d858","system_id":"levelo_inurba_marseille","lat":43.289184,"lon":5.366408,"is_reserved":false,"is_disabled":false,"rental_uris":{"android":"levelo://app?vid=3e470954-e11c-4f63-b591-fb682709d858","ios":"levelo://app?vid=3e470954-e11c-4f63-b591-fb682709d858"},"vehicle_type_id":"4","last_reported":1704006375,"current_range_meters":31200,"station_id":"ce4bhap2rcd13ifvqek0","pricing_plan_id":"free"},{"bike_id":"567be46f-5584-400f-bdf7-655785596383","system_id":"levelo_inurba_marseille","lat":43.289468,"lon":5.363719,"is_reserved":false,"is_disabled":false,"rental_uris":{"android":"levelo://app?vid=567be46f-5584-400f-bdf7-655785596383","ios":"levelo://app?vid=567be46f-5584-400f-bdf7-655785596383"},"vehicle_type_id":"4","last_reported":1704006375,"current_range_meters":30400,"station_id":"ce4bhc92rcd13ifvqetg","pricing_plan_id":"free"},{"bike_id":"3f4a2066-cf88-4d79-9596-c983b2d4c1c2","system_id":"levelo_inurba_marseille","lat":43.289371,"lon":5.363959,"is_reserved":false,"is_disabled":false,"rental_uris":{"android":"levelo://app?vid=3f4a2066-cf88-4d79-9596-c983b2d4c1c2","ios":"levelo://app?vid=3f4a2066-cf88-4d79-9596-c983b2d4c1c2"},"vehicle_type_id":"4","last_reported":1704006375,"current_range_meters":7200,"station_id":"ce4bhc92rcd13ifvqetg","pricing_plan_id":"free"},{"bike_id":"4e7d81a0-fd8b-41e7-bb87-f8addf177de0","system_id":"levelo_inurba_marseille","lat":43.304271,"lon":5.397583,"is_reserved":false,"is_disabled":false,"rental_uris":{"android":"levelo://app?vid=4e7d81a0-fd8b-41e7-bb87-f8addf177de0","ios":"levelo://app?vid=4e7d81a0-fd8b-41e7-bb87-f8addf177de0"},"vehicle_type_id":"4","last_reported":1704006375,"current_range_meters":30800,"station_id":"ce4bh092rcd13ifvqd20","pricing_plan_id":"free"},{"bike_id":"495faf64-a935-4c6e-b77f-2b296d14493a","system_id":"levelo_inurba_marseille","lat":43.331017,"lon":5.389194,"is_reserved":false,"is_disabled":false,"rental_uris":{"android":"levelo://app?vid=495faf64-a935-4c6e-b77f-2b296d14493a","ios":"levelo://app?vid=495faf64-a935-4c6e-b77f-2b296d14493a"},"vehicle_type_id":"4","last_reported":1704006375,"current_range_meters":0,"station_id":"","pricing_plan_id":"free"},{"bike_id":"3fc25d44-2370-44b5-9305-4ef67d74cc1f","system_id":"levelo_inurba_marseille","lat":43.289743,"lon":5.378304,"is_reserved":false,"is_disabled":false,"rental_uris":{"android":"levelo://app?vid=3fc25d44-2370-44b5-9305-4ef67d74cc1f","ios":"levelo://app?vid=3fc25d44-2370-44b5-9305-4ef67d74cc1f"},"vehicle_type_id":"4","last_reported":1704006375,"current_range_meters":22000,"station_id":"ce4bh9p2rcd13ifvqed0","pricing_plan_id":"free"},{"bike_id":"cdbafc34-84c2-4c7e-a713-2035f1517edf","system_id":"levelo_inurba_marseille","lat":43.290094,"lon":5.381264,"is_reserved":false,"is_disabled":false,"rental_uris":{"android":"levelo://app?vid=cdbafc34-84c2-4c7e-a713-2035f1517edf","ios":"levelo://app?vid=cdbafc34-84c2-4c7e-a713-2035f1517edf"},"vehicle_type_id":"4","last_reported":1704006375,"current_range_meters":30000,"station_id":"ce4bh4p2rcd13ifvqe1g","pricing_plan_id":"free"},{"bike_id":"1e454c1d-2c0b-4b72-9573-0ce72970ae4c","system_id":"levelo_inurba_marseille","lat":43.28856,"lon":5.358371,"is_reserved":false,"is_disabled":false,"rental_uris":{"android":"levelo://app?vid=1e454c1d-2c0b-4b72-9573-0ce72970ae4c","ios":"levelo://app?vid=1e454c1d-2c0b-4b72-9573-0ce72970ae4c"},"vehicle_type_id":"4","last_reported":1704006375,"current_range_meters":21200,"station_id":"ce4bhb12rcd13ifvqem0","pricing_plan_id":"free"},{"bike_id":"43c65296-b277-436d-864c-ab50870d7e6b","system_id":"levelo_inurba_marseille","lat":43.312609,"lon":5.401662,"is_reserved":false,"is_disabled":false,"rental_uris":{"android":"levelo://app?vid=43c65296-b277-436d-864c-ab50870d7e6b","ios":"levelo://app?vid=43c65296-b277-436d-864c-ab50870d7e6b"},"vehicle_type_id":"4","last_reported":1704006375,"current_range_meters":26400,"station_id":"ce4bh092rcd13ifvqd30","pricing_plan_id":"free"},{"bike_id":"2b7adb5c-9d94-444d-aafc-6e6fd4fb1ec1","system_id":"levelo_inurba_marseille","lat":43.31279,"lon":5.40166,"is_reserved":false,"is_disabled":false,"rental_uris":{"android":"levelo://app?vid=2b7adb5c-9d94-444d-aafc-6e6fd4fb1ec1","ios":"levelo://app?vid=2b7adb5c-9d94-444d-aafc-6e6fd4fb1ec1"},"vehicle_type_id":"4","last_reported":1704006375,"current_range_meters":29200,"station_id":"ce4bh092rcd13ifvqd30","pricing_plan_id":"free"},{"bike_id":"4ecf8bd4-ee8e-4dab-9c66-bb61c393dd2f","system_id":"levelo_inurba_marseille","lat":43.312818,"lon":5.401673,"is_reserved":false,"is_disabled":false,"rental_uris":{"android":"levelo://app?vid=4ecf8bd4-ee8e-4dab-9c66-bb61c393dd2f","ios":"levelo://app?vid=4ecf8bd4-ee8e-4dab-9c66-bb61c393dd2f"},"vehicle_type_id":"4","last_reported":1704006375,"current_range_meters":30400,"station_id":"ce4bh092rcd13ifvqd30","pricing_plan_id":"free"},{"bike_id":"0512d4d7-1751-4509-87a7-50c6c1714c19","system_id":"levelo_inurba_marseille","lat":43.312609,"lon":5.401662,"is_reserved":false,"is_disabled":false,"rental_uris":{"android":"levelo://app?vid=0512d4d7-1751-4509-87a7-50c6c1714c19","ios":"levelo://app?vid=0512d4d7-1751-4509-87a7-50c6c1714c19"},"vehicle_type_id":"4","last_reported":1704006375,"current_range_meters":20400,"station_id":"ce4bh092rcd13ifvqd30","pricing_plan_id":"free"},{"bike_id":"cababbbd-bdea-44dd-a30c-3bd5cdef8812","system_id":"levelo_inurba_marseille","lat":43.31271,"lon":5.40169,"is_reserved":false,"is_disabled":false,"rental_uris":{"android":"levelo://app?vid=cababbbd-bdea-44dd-a30c-3bd5cdef8812","ios":"levelo://app?vid=cababbbd-bdea-44dd-a30c-3bd5cdef8812"},"vehicle_type_id":"4","last_reported":1704006375,"current_range_meters":8400,"station_id":"ce4bh092rcd13ifvqd30","pricing_plan_id":"free"},{"bike_id":"2d33c5a2-5f86-49e1-a2c7-0ec45fdb387f","system_id":"levelo_inurba_marseille","lat":43.312609,"lon":5.401662,"is_reserved":false,"is_disabled":false,"rental_uris":{"android":"levelo://app?vid=2d33c5a2-5f86-49e1-a2c7-0ec45fdb387f","ios":"levelo://app?vid=2d33c5a2-5f86-49e1-a2c7-0ec45fdb387f"},"vehicle_type_id":"4","last_reported":1704006375,"current_range_meters":16800,"station_id":"ce4bh092rcd13ifvqd30","pricing_plan_id":"free"},{"bike_id":"9d948fc5-0a0b-4973-ba84-fddb60045e1c","system_id":"levelo_inurba_marseille","lat":43.312609,"lon":5.401662,"is_reserved":false,"is_disabled":false,"rental_uris":{"android":"levelo://app?vid=9d948fc5-0a0b-4973-ba84-fddb60045e1c","ios":"levelo://app?vid=9d948fc5-0a0b-4973-ba84-fddb60045e1c"},"vehicle_type_id":"4","last_reported":1704006375,"current_range_meters":22000,"station_id":"ce4bh092rcd13ifvqd30","pricing_plan_id":"free"},{"bike_id":"c9cf6ef6-708b-4ef5-b4e9-4c33358c220e","system_id":"levelo_inurba_marseille","lat":43.309371,"lon":5.401449,"is_reserved":false,"is_disabled":false,"rental_uris":{"android":"levelo://app?vid=c9cf6ef6-708b-4ef5-b4e9-4c33358c220e","ios":"levelo://app?vid=c9cf6ef6-708b-4ef5-b4e9-4c33358c220e"},"vehicle_type_id":"4","last_reported":1704006375,"current_range_meters":13600,"station_id":"ce4bgvp2rcd13ifvqct0","pricing_plan_id":"free"},{"bike_id":"224b4c8f-451a-4f50-a410-3edd81a6b5df","system_id":"levelo_inurba_marseille","lat":43.309371,"lon":5.401449,"is_reserved":false,"is_disabled":false,"rental_uris":{"android":"levelo://app?vid=224b4c8f-451a-4f50-a410-3edd81a6b5df","ios":"levelo://app?vid=224b4c8f-451a-4f50-a410-3edd81a6b5df"},"vehicle_type_id":"4","last_reported":1704006375,"current_range_meters":29600,"station_id":"ce4bgvp2rcd13ifvqct0","pricing_plan_id":"free"},{"bike_id":"235fbdb3-d05f-44fe-b9e9-bc6b17705a7b","system_id":"levelo_inurba_marseille","lat":43.309371,"lon":5.401449,"is_reserved":false,"is_disabled":false,"rental_uris":{"android":"levelo://app?vid=235fbdb3-d05f-44fe-b9e9-bc6b17705a7b","ios":"levelo://app?vid=235fbdb3-d05f-44fe-b9e9-bc6b17705a7b"},"vehicle_type_id":"4","last_reported":1704006375,"current_range_meters":26400,"station_id":"ce4bgvp2rcd13ifvqct0","pricing_plan_id":"free"},{"bike_id":"54358c86-8d1e-4454-976d-8d94a2033c2b","system_id":"levelo_inurba_marseille","lat":43.306492,"lon":5.400705,"is_reserved":false,"is_disabled":false,"rental_uris":{"android":"levelo://app?vid=54358c86-8d1e-4454-976d-8d94a2033c2b","ios":"levelo://app?vid=54358c86-8d1e-4454-976d-8d94a2033c2b"},"vehicle_type_id":"4","last_reported":1704006375,"current_range_meters":12800,"station_id":"ce4bh112rcd13ifvqda0","pricing_plan_id":"free"},{"bike_id":"20f9c7c0-11f7-4fe1-a5b3-0d26d99de57a","system_id":"levelo_inurba_marseille","lat":43.309371,"lon":5.401449,"is_reserved":false,"is_disabled":false,"rental_uris":{"android":"levelo://app?vid=20f9c7c0-11f7-4fe1-a5b3-0d26d99de57a","ios":"levelo://app?vid=20f9c7c0-11f7-4fe1-a5b3-0d26d99de57a"},"vehicle_type_id":"4","last_reported":1704006375,"current_range_meters":14000,"station_id":"ce4bgvp2rcd13ifvqct0","pricing_plan_id":"free"},{"bike_id":"cc3cb957-fe3f-419b-9dca-4bf4c3aed566","system_id":"levelo_inurba_marseille","lat":43.30642,"lon":5.401031,"is_reserved":false,"is_disabled":false,"rental_uris":{"android":"levelo://app?vid=cc3cb957-fe3f-419b-9dca-4bf4c3aed566","ios":"levelo://app?vid=cc3cb957-fe3f-419b-9dca-4bf4c3aed566"},"vehicle_type_id":"4","last_reported":1704006375,"current_range_meters":26000,"station_id":"ce4bh112rcd13ifvqda0","pricing_plan_id":"free"},{"bike_id":"0aaa9a54-f1a6-424c-ba21-2fb59e6eef23","system_id":"levelo_inurba_marseille","lat":43.30642,"lon":5.401031,"is_reserved":false,"is_disabled":false,"rental_uris":{"android":"levelo://app?vid=0aaa9a54-f1a6-424c-ba21-2fb59e6eef23","ios":"levelo://app?vid=0aaa9a54-f1a6-424c-ba21-2fb59e6eef23"},"vehicle_type_id":"4","last_reported":1704006375,"current_range_meters":27600,"station_id":"ce4bh112rcd13ifvqda0","pricing_plan_id":"free"},{"bike_id":"34f42ac5-ac2f-43c1-86fc-e5d8e70978c4","system_id":"levelo_inurba_marseille","lat":43.30642,"lon":5.401031,"is_reserved":false,"is_disabled":false,"rental_uris":{"android":"levelo://app?vid=34f42ac5-ac2f-43c1-86fc-e5d8e70978c4","ios":"levelo://app?vid=34f42ac5-ac2f-43c1-86fc-e5d8e70978c4"},"vehicle_type_id":"4","last_reported":1704006375,"current_range_meters":31200,"station_id":"ce4bh112rcd13ifvqda0","pricing_plan_id":"free"},{"bike_id":"c46bd233-e7c2-4814-830c-1ffb0d3e9356","system_id":"levelo_inurba_marseille","lat":43.30136,"lon":5.39869,"is_reserved":false,"is_disabled":false,"rental_uris":{"android":"levelo://app?vid=c46bd233-e7c2-4814-830c-1ffb0d3e9356","ios":"levelo://app?vid=c46bd233-e7c2-4814-830c-1ffb0d3e9356"},"vehicle_type_id":"4","last_reported":1704006375,"current_range_meters":30000,"station_id":"ce4bh0h2rcd13ifvqd40","pricing_plan_id":"free"},{"bike_id":"aea338aa-ffc0-4aa5-9493-9e1a508a79a9","system_id":"levelo_inurba_marseille","lat":43.30137,"lon":5.39872,"is_reserved":false,"is_disabled":false,"rental_uris":{"android":"levelo://app?vid=aea338aa-ffc0-4aa5-9493-9e1a508a79a9","ios":"levelo://app?vid=aea338aa-ffc0-4aa5-9493-9e1a508a79a9"},"vehicle_type_id":"4","last_reported":1704006375,"current_range_meters":29600,"station_id":"ce4bh0h2rcd13ifvqd40","pricing_plan_id":"free"},{"bike_id":"c810458d-a663-4ae6-a45a-279868d73133","system_id":"levelo_inurba_marseille","lat":43.28727,"lon":5.36078,"is_reserved":false,"is_disabled":false,"rental_uris":{"android":"levelo://app?vid=c810458d-a663-4ae6-a45a-279868d73133","ios":"levelo://app?vid=c810458d-a663-4ae6-a45a-279868d73133"},"vehicle_type_id":"4","last_reported":1704006375,"current_range_meters":20000,"station_id":"cki0cbj6b192h4jlfktg","pricing_plan_id":"free"},{"bike_id":"c301fb8c-cfe6-441c-8d68-c52db0e2a128","system_id":"levelo_inurba_marseille","lat":43.28727,"lon":5.36078,"is_reserved":false,"is_disabled":false,"rental_uris":{"android":"levelo://app?vid=c301fb8c-cfe6-441c-8d68-c52db0e2a128","ios":"levelo://app?vid=c301fb8c-cfe6-441c-8d68-c52db0e2a128"},"vehicle_type_id":"4","last_reported":1704006375,"current_range_meters":28400,"station_id":"cki0cbj6b192h4jlfktg","pricing_plan_id":"free"},{"bike_id":"b262299b-df41-4c0e-acea-7d1f4a3c6a3b","system_id":"levelo_inurba_marseille","lat":43.28727,"lon":5.36078,"is_reserved":false,"is_disabled":false,"rental_uris":{"android":"levelo://app?vid=b262299b-df41-4c0e-acea-7d1f4a3c6a3b","ios":"levelo://app?vid=b262299b-df41-4c0e-acea-7d1f4a3c6a3b"},"vehicle_type_id":"4","last_reported":1704006375,"current_range_meters":31200,"station_id":"cki0cbj6b192h4jlfktg","pricing_plan_id":"free"},{"bike_id":"98cc25ca-f7e4-4722-a164-2e8c552ed796","system_id":"levelo_inurba_marseille","lat":43.298681,"lon":5.397225,"is_reserved":false,"is_disabled":false,"rental_uris":{"android":"levelo://app?vid=98cc25ca-f7e4-4722-a164-2e8c552ed796","ios":"levelo://app?vid=98cc25ca-f7e4-4722-a164-2e8c552ed796"},"vehicle_type_id":"4","last_reported":1704006375,"current_range_meters":24000,"station_id":"ce4bh0h2rcd13ifvqd50","pricing_plan_id":"free"},{"bike_id":"9cb4e78a-4eeb-4c3d-8898-cb9534b20b8c","system_id":"levelo_inurba_marseille","lat":43.286591,"lon":5.363346,"is_reserved":false,"is_disabled":false,"rental_uris":{"android":"levelo://app?vid=9cb4e78a-4eeb-4c3d-8898-cb9534b20b8c","ios":"levelo://app?vid=9cb4e78a-4eeb-4c3d-8898-cb9534b20b8c"},"vehicle_type_id":"4","last_reported":1704006375,"current_range_meters":24000,"station_id":"ce4bhah2rcd13ifvqej0","pricing_plan_id":"free"},{"bike_id":"a5738968-8f49-4df4-be73-2bb217d4bb7e","system_id":"levelo_inurba_marseille","lat":43.286961,"lon":5.373785,"is_reserved":false,"is_disabled":false,"rental_uris":{"android":"levelo://app?vid=a5738968-8f49-4df4-be73-2bb217d4bb7e","ios":"levelo://app?vid=a5738968-8f49-4df4-be73-2bb217d4bb7e"},"vehicle_type_id":"4","last_reported":1704006375,"current_range_meters":30800,"station_id":"ce4bh3p2rcd13ifvqdq0","pricing_plan_id":"free"},{"bike_id":"c89234d4-bcf1-4bd4-9946-ba09dfa96b05","system_id":"levelo_inurba_marseille","lat":43.286961,"lon":5.373785,"is_reserved":false,"is_disabled":false,"rental_uris":{"android":"levelo://app?vid=c89234d4-bcf1-4bd4-9946-ba09dfa96b05","ios":"levelo://app?vid=c89234d4-bcf1-4bd4-9946-ba09dfa96b05"},"vehicle_type_id":"4","last_reported":1704006375,"current_range_meters":19200,"station_id":"ce4bh3p2rcd13ifvqdq0","pricing_plan_id":"free"},{"bike_id":"42a0477e-2f25-40a7-aa18-9cfe710ddd5a","system_id":"levelo_inurba_marseille","lat":43.286961,"lon":5.373785,"is_reserved":false,"is_disabled":false,"rental_uris":{"android":"levelo://app?vid=42a0477e-2f25-40a7-aa18-9cfe710ddd5a","ios":"levelo://app?vid=42a0477e-2f25-40a7-aa18-9cfe710ddd5a"},"vehicle_type_id":"4","last_reported":1704006375,"current_range_meters":16800,"station_id":"ce4bh3p2rcd13ifvqdq0","pricing_plan_id":"free"},{"bike_id":"4dc03683-ca87-4926-84bf-754bfc2259db","system_id":"levelo_inurba_marseille","lat":43.302759,"lon":5.400793,"is_reserved":false,"is_disabled":false,"rental_uris":{"android":"levelo://app?vid=4dc03683-ca87-4926-84bf-754bfc2259db","ios":"levelo://app?vid=4dc03683-ca87-4926-84bf-754bfc2259db"},"vehicle_type_id":"4","last_reported":1704006375,"current_range_meters":31200,"station_id":"ce4bgvh2rcd13ifvqcs0","pricing_plan_id":"free"},{"bike_id":"83a9a014-bd34-4e27-82e4-25e4ec94941e","system_id":"levelo_inurba_marseille","lat":43.290336,"lon":5.386425,"is_reserved":false,"is_disabled":false,"rental_uris":{"android":"levelo://app?vid=83a9a014-bd34-4e27-82e4-25e4ec94941e","ios":"levelo://app?vid=83a9a014-bd34-4e27-82e4-25e4ec94941e"},"vehicle_type_id":"4","last_reported":1704006375,"current_range_meters":24800,"station_id":"ce4bh4p2rcd13ifvqe0g","pricing_plan_id":"free"},{"bike_id":"09e401a0-4bdc-4d8f-b6b3-86301399dbab","system_id":"levelo_inurba_marseille","lat":43.302759,"lon":5.400793,"is_reserved":false,"is_disabled":false,"rental_uris":{"android":"levelo://app?vid=09e401a0-4bdc-4d8f-b6b3-86301399dbab","ios":"levelo://app?vid=09e401a0-4bdc-4d8f-b6b3-86301399dbab"},"vehicle_type_id":"4","last_reported":1704006375,"current_range_meters":26000,"station_id":"ce4bgvh2rcd13ifvqcs0","pricing_plan_id":"free"},{"bike_id":"5c28e87b-40b8-4984-9240-4ac6a465ad25","system_id":"levelo_inurba_marseille","lat":43.286039,"lon":5.370679,"is_reserved":false,"is_disabled":false,"rental_uris":{"android":"levelo://app?vid=5c28e87b-40b8-4984-9240-4ac6a465ad25","ios":"levelo://app?vid=5c28e87b-40b8-4984-9240-4ac6a465ad25"},"vehicle_type_id":"4","last_reported":1704006375,"current_range_meters":26000,"station_id":"ce4bht12rcd13ifvqi60","pricing_plan_id":"free"},{"bike_id":"b861ec41-fd23-4c2b-8bc4-8d65dde1362c","system_id":"levelo_inurba_marseille","lat":43.287185,"lon":5.379373,"is_reserved":false,"is_disabled":false,"rental_uris":{"android":"levelo://app?vid=b861ec41-fd23-4c2b-8bc4-8d65dde1362c","ios":"levelo://app?vid=b861ec41-fd23-4c2b-8bc4-8d65dde1362c"},"vehicle_type_id":"4","last_reported":1704006375,"current_range_meters":20000,"station_id":"ce4bh9p2rcd13ifvqec0","pricing_plan_id":"free"},{"bike_id":"b756c8cb-8465-4389-ae58-f7022e479857","system_id":"levelo_inurba_marseille","lat":43.316828,"lon":5.404723,"is_reserved":false,"is_disabled":false,"rental_uris":{"android":"levelo://app?vid=b756c8cb-8465-4389-ae58-f7022e479857","ios":"levelo://app?vid=b756c8cb-8465-4389-ae58-f7022e479857"},"vehicle_type_id":"4","last_reported":1704006375,"current_range_meters":20000,"station_id":"ce4bh012rcd13ifvqd00","pricing_plan_id":"free"},{"bike_id":"abd60c26-3414-4e5d-807c-0f1e5d4bb6a2","system_id":"levelo_inurba_marseille","lat":43.284538,"lon":5.358657,"is_reserved":false,"is_disabled":false,"rental_uris":{"android":"levelo://app?vid=abd60c26-3414-4e5d-807c-0f1e5d4bb6a2","ios":"levelo://app?vid=abd60c26-3414-4e5d-807c-0f1e5d4bb6a2"},"vehicle_type_id":"4","last_reported":1704006375,"current_range_meters":26400,"station_id":"ce4bhah2rcd13ifvqei0","pricing_plan_id":"free"},{"bike_id":"c979e7a5-f950-46d7-a968-632d416db461","system_id":"levelo_inurba_marseille","lat":43.284534,"lon":5.358662,"is_reserved":false,"is_disabled":false,"rental_uris":{"android":"levelo://app?vid=c979e7a5-f950-46d7-a968-632d416db461","ios":"levelo://app?vid=c979e7a5-f950-46d7-a968-632d416db461"},"vehicle_type_id":"4","last_reported":1704006375,"current_range_meters":28400,"station_id":"ce4bhah2rcd13ifvqei0","pricing_plan_id":"free"},{"bike_id":"aa615a5f-261b-48d7-b06b-a6d8051df684","system_id":"levelo_inurba_marseille","lat":43.284534,"lon":5.358662,"is_reserved":false,"is_disabled":false,"rental_uris":{"android":"levelo://app?vid=aa615a5f-261b-48d7-b06b-a6d8051df684","ios":"levelo://app?vid=aa615a5f-261b-48d7-b06b-a6d8051df684"},"vehicle_type_id":"4","last_reported":1704006375,"current_range_meters":31200,"station_id":"ce4bhah2rcd13ifvqei0","pricing_plan_id":"free"},{"bike_id":"e223aef2-f621-42c6-90da-89164da2ac81","system_id":"levelo_inurba_marseille","lat":43.284534,"lon":5.358662,"is_reserved":false,"is_disabled":false,"rental_uris":{"android":"levelo://app?vid=e223aef2-f621-42c6-90da-89164da2ac81","ios":"levelo://app?vid=e223aef2-f621-42c6-90da-89164da2ac81"},"vehicle_type_id":"4","last_reported":1704006375,"current_range_meters":23600,"station_id":"ce4bhah2rcd13ifvqei0","pricing_plan_id":"free"},{"bike_id":"40104dc6-55d9-4c72-a335-fb53c0e6a67d","system_id":"levelo_inurba_marseille","lat":43.284534,"lon":5.358662,"is_reserved":false,"is_disabled":false,"rental_uris":{"android":"levelo://app?vid=40104dc6-55d9-4c72-a335-fb53c0e6a67d","ios":"levelo://app?vid=40104dc6-55d9-4c72-a335-fb53c0e6a67d"},"vehicle_type_id":"4","last_reported":1704006375,"current_range_meters":17600,"station_id":"ce4bhah2rcd13ifvqei0","pricing_plan_id":"free"},{"bike_id":"08d827b1-b6b2-4d67-8d75-c6fa7cc783cb","system_id":"levelo_inurba_marseille","lat":43.2944,"lon":5.397499,"is_reserved":false,"is_disabled":false,"rental_uris":{"android":"levelo://app?vid=08d827b1-b6b2-4d67-8d75-c6fa7cc783cb","ios":"levelo://app?vid=08d827b1-b6b2-4d67-8d75-c6fa7cc783cb"},"vehicle_type_id":"4","last_reported":1704006375,"current_range_meters":31200,"station_id":"ce4bh3h2rcd13ifvqdo0","pricing_plan_id":"free"},{"bike_id":"9e9a7724-bf59-4a55-9479-a5f90021a7f9","system_id":"levelo_inurba_marseille","lat":43.28619,"lon":5.35099,"is_reserved":false,"is_disabled":false,"rental_uris":{"android":"levelo://app?vid=9e9a7724-bf59-4a55-9479-a5f90021a7f9","ios":"levelo://app?vid=9e9a7724-bf59-4a55-9479-a5f90021a7f9"},"vehicle_type_id":"4","last_reported":1704006375,"current_range_meters":0,"station_id":"","pricing_plan_id":"free"},{"bike_id":"da4ba60a-c42f-45b8-9eb6-7367ac16e818","system_id":"levelo_inurba_marseille","lat":43.295713,"lon":5.399639,"is_reserved":false,"is_disabled":false,"rental_uris":{"android":"levelo://app?vid=da4ba60a-c42f-45b8-9eb6-7367ac16e818","ios":"levelo://app?vid=da4ba60a-c42f-45b8-9eb6-7367ac16e818"},"vehicle_type_id":"4","last_reported":1704006375,"current_range_meters":23600,"station_id":"ce4bh312rcd13ifvqdj0","pricing_plan_id":"free"},{"bike_id":"79775814-1f15-4fe8-80b7-5b2094aeb6a0","system_id":"levelo_inurba_marseille","lat":43.295713,"lon":5.399639,"is_reserved":false,"is_disabled":false,"rental_uris":{"android":"levelo://app?vid=79775814-1f15-4fe8-80b7-5b2094aeb6a0","ios":"levelo://app?vid=79775814-1f15-4fe8-80b7-5b2094aeb6a0"},"vehicle_type_id":"4","last_reported":1704006375,"current_range_meters":0,"station_id":"ce4bh312rcd13ifvqdj0","pricing_plan_id":"free"},{"bike_id":"2a34418a-68fc-4df0-a58c-b424089bf812","system_id":"levelo_inurba_marseille","lat":43.33717,"lon":5.391857,"is_reserved":false,"is_disabled":false,"rental_uris":{"android":"levelo://app?vid=2a34418a-68fc-4df0-a58c-b424089bf812","ios":"levelo://app?vid=2a34418a-68fc-4df0-a58c-b424089bf812"},"vehicle_type_id":"4","last_reported":1704006375,"current_range_meters":30000,"station_id":"ce4bhr92rcd13ifvqhsg","pricing_plan_id":"free"},{"bike_id":"81e98546-48f6-4e53-9a96-d12ea8cec360","system_id":"levelo_inurba_marseille","lat":43.323464,"lon":5.406297,"is_reserved":false,"is_disabled":false,"rental_uris":{"android":"levelo://app?vid=81e98546-48f6-4e53-9a96-d12ea8cec360","ios":"levelo://app?vid=81e98546-48f6-4e53-9a96-d12ea8cec360"},"vehicle_type_id":"4","last_reported":1704006375,"current_range_meters":28000,"station_id":"ce4bhq92rcd13ifvqhjg","pricing_plan_id":"free"},{"bike_id":"ca8cc347-d5bd-40d2-8cba-775c99edb6ed","system_id":"levelo_inurba_marseille","lat":43.33717,"lon":5.391857,"is_reserved":false,"is_disabled":false,"rental_uris":{"android":"levelo://app?vid=ca8cc347-d5bd-40d2-8cba-775c99edb6ed","ios":"levelo://app?vid=ca8cc347-d5bd-40d2-8cba-775c99edb6ed"},"vehicle_type_id":"4","last_reported":1704006375,"current_range_meters":25200,"station_id":"ce4bhr92rcd13ifvqhsg","pricing_plan_id":"free"},{"bike_id":"2d128fdf-a9e0-4293-a0a9-6660d10dfe75","system_id":"levelo_inurba_marseille","lat":43.284793,"lon":5.384113,"is_reserved":false,"is_disabled":false,"rental_uris":{"android":"levelo://app?vid=2d128fdf-a9e0-4293-a0a9-6660d10dfe75","ios":"levelo://app?vid=2d128fdf-a9e0-4293-a0a9-6660d10dfe75"},"vehicle_type_id":"4","last_reported":1704006375,"current_range_meters":28000,"station_id":"ce4bh512rcd13ifvqe3g","pricing_plan_id":"free"},{"bike_id":"3be3978b-cbe0-4bdd-a30d-eea540fe02af","system_id":"levelo_inurba_marseille","lat":43.284787,"lon":5.384116,"is_reserved":false,"is_disabled":false,"rental_uris":{"android":"levelo://app?vid=3be3978b-cbe0-4bdd-a30d-eea540fe02af","ios":"levelo://app?vid=3be3978b-cbe0-4bdd-a30d-eea540fe02af"},"vehicle_type_id":"4","last_reported":1704006375,"current_range_meters":19200,"station_id":"ce4bh512rcd13ifvqe3g","pricing_plan_id":"free"},{"bike_id":"7dbe7e5e-4633-49e0-bd06-2337322792a1","system_id":"levelo_inurba_marseille","lat":43.284793,"lon":5.384119,"is_reserved":false,"is_disabled":false,"rental_uris":{"android":"levelo://app?vid=7dbe7e5e-4633-49e0-bd06-2337322792a1","ios":"levelo://app?vid=7dbe7e5e-4633-49e0-bd06-2337322792a1"},"vehicle_type_id":"4","last_reported":1704006375,"current_range_meters":26000,"station_id":"ce4bh512rcd13ifvqe3g","pricing_plan_id":"free"},{"bike_id":"ff548aa3-08f2-4092-9b6a-1ca529179ae9","system_id":"levelo_inurba_marseille","lat":43.28474,"lon":5.38477,"is_reserved":false,"is_disabled":false,"rental_uris":{"android":"levelo://app?vid=ff548aa3-08f2-4092-9b6a-1ca529179ae9","ios":"levelo://app?vid=ff548aa3-08f2-4092-9b6a-1ca529179ae9"},"vehicle_type_id":"4","last_reported":1704006375,"current_range_meters":14800,"station_id":"","pricing_plan_id":"free"},{"bike_id":"96b38858-5ae9-474e-a837-dea2d951edb9","system_id":"levelo_inurba_marseille","lat":43.288501,"lon":5.393087,"is_reserved":false,"is_disabled":false,"rental_uris":{"android":"levelo://app?vid=96b38858-5ae9-474e-a837-dea2d951edb9","ios":"levelo://app?vid=96b38858-5ae9-474e-a837-dea2d951edb9"},"vehicle_type_id":"4","last_reported":1704006375,"current_range_meters":9600,"station_id":"ce4bh2p2rcd13ifvqdi0","pricing_plan_id":"free"},{"bike_id":"261e31b7-0114-450c-bb23-322c2163f3b8","system_id":"levelo_inurba_marseille","lat":43.283498,"lon":5.380948,"is_reserved":false,"is_disabled":false,"rental_uris":{"android":"levelo://app?vid=261e31b7-0114-450c-bb23-322c2163f3b8","ios":"levelo://app?vid=261e31b7-0114-450c-bb23-322c2163f3b8"},"vehicle_type_id":"4","last_reported":1704006375,"current_range_meters":31200,"station_id":"ce4bh412rcd13ifvqdr0","pricing_plan_id":"free"},{"bike_id":"d2615def-c77e-4d63-8e3d-7b7fa5a36783","system_id":"levelo_inurba_marseille","lat":43.283498,"lon":5.380948,"is_reserved":false,"is_disabled":false,"rental_uris":{"android":"levelo://app?vid=d2615def-c77e-4d63-8e3d-7b7fa5a36783","ios":"levelo://app?vid=d2615def-c77e-4d63-8e3d-7b7fa5a36783"},"vehicle_type_id":"4","last_reported":1704006375,"current_range_meters":12400,"station_id":"ce4bh412rcd13ifvqdr0","pricing_plan_id":"free"},{"bike_id":"e485450b-2736-4f4c-b94b-0da5a69b88aa","system_id":"levelo_inurba_marseille","lat":43.33385,"lon":5.39822,"is_reserved":false,"is_disabled":false,"rental_uris":{"android":"levelo://app?vid=e485450b-2736-4f4c-b94b-0da5a69b88aa","ios":"levelo://app?vid=e485450b-2736-4f4c-b94b-0da5a69b88aa"},"vehicle_type_id":"4","last_reported":1704006375,"current_range_meters":4400,"station_id":"","pricing_plan_id":"free"},{"bike_id":"3f7a211f-41cc-423b-884f-2d518aec0767","system_id":"levelo_inurba_marseille","lat":43.32653,"lon":5.40682,"is_reserved":false,"is_disabled":false,"rental_uris":{"android":"levelo://app?vid=3f7a211f-41cc-423b-884f-2d518aec0767","ios":"levelo://app?vid=3f7a211f-41cc-423b-884f-2d518aec0767"},"vehicle_type_id":"4","last_reported":1704006375,"current_range_meters":29200,"station_id":"","pricing_plan_id":"free"},{"bike_id":"b0540660-2a9b-44d1-a0b1-9d70c719c8f1","system_id":"levelo_inurba_marseille","lat":43.282754,"lon":5.350519,"is_reserved":false,"is_disabled":false,"rental_uris":{"android":"levelo://app?vid=b0540660-2a9b-44d1-a0b1-9d70c719c8f1","ios":"levelo://app?vid=b0540660-2a9b-44d1-a0b1-9d70c719c8f1"},"vehicle_type_id":"4","last_reported":1704006375,"current_range_meters":26800,"station_id":"ce4bhbp2rcd13ifvqerg","pricing_plan_id":"free"},{"bike_id":"ec23691f-cf72-4ed5-a843-a6445561b22e","system_id":"levelo_inurba_marseille","lat":43.282754,"lon":5.350519,"is_reserved":false,"is_disabled":false,"rental_uris":{"android":"levelo://app?vid=ec23691f-cf72-4ed5-a843-a6445561b22e","ios":"levelo://app?vid=ec23691f-cf72-4ed5-a843-a6445561b22e"},"vehicle_type_id":"4","last_reported":1704006375,"current_range_meters":18400,"station_id":"ce4bhbp2rcd13ifvqerg","pricing_plan_id":"free"},{"bike_id":"7f9ea06f-a63f-487c-9076-0b7e40e402de","system_id":"levelo_inurba_marseille","lat":43.282754,"lon":5.350519,"is_reserved":false,"is_disabled":false,"rental_uris":{"android":"levelo://app?vid=7f9ea06f-a63f-487c-9076-0b7e40e402de","ios":"levelo://app?vid=7f9ea06f-a63f-487c-9076-0b7e40e402de"},"vehicle_type_id":"4","last_reported":1704006375,"current_range_meters":27200,"station_id":"ce4bhbp2rcd13ifvqerg","pricing_plan_id":"free"},{"bike_id":"8c1715b0-ba25-4230-aafa-ef6dc5421e5a","system_id":"levelo_inurba_marseille","lat":43.282754,"lon":5.350519,"is_reserved":false,"is_disabled":false,"rental_uris":{"android":"levelo://app?vid=8c1715b0-ba25-4230-aafa-ef6dc5421e5a","ios":"levelo://app?vid=8c1715b0-ba25-4230-aafa-ef6dc5421e5a"},"vehicle_type_id":"4","last_reported":1704006375,"current_range_meters":25200,"station_id":"ce4bhbp2rcd13ifvqerg","pricing_plan_id":"free"},{"bike_id":"fbfd8e32-4d80-4d8d-ba45-f560c59f860b","system_id":"levelo_inurba_marseille","lat":43.282754,"lon":5.350519,"is_reserved":false,"is_disabled":false,"rental_uris":{"android":"levelo://app?vid=fbfd8e32-4d80-4d8d-ba45-f560c59f860b","ios":"levelo://app?vid=fbfd8e32-4d80-4d8d-ba45-f560c59f860b"},"vehicle_type_id":"4","last_reported":1704006375,"current_range_meters":25600,"station_id":"ce4bhbp2rcd13ifvqerg","pricing_plan_id":"free"},{"bike_id":"79cc33bc-88f5-41d2-93de-83c60e8e81e5","system_id":"levelo_inurba_marseille","lat":43.282754,"lon":5.350519,"is_reserved":false,"is_disabled":false,"rental_uris":{"android":"levelo://app?vid=79cc33bc-88f5-41d2-93de-83c60e8e81e5","ios":"levelo://app?vid=79cc33bc-88f5-41d2-93de-83c60e8e81e5"},"vehicle_type_id":"4","last_reported":1704006375,"current_range_meters":24800,"station_id":"ce4bhbp2rcd13ifvqerg","pricing_plan_id":"free"},{"bike_id":"4a6a61b4-cc32-4630-bc63-6ef67c559ab5","system_id":"levelo_inurba_marseille","lat":43.282754,"lon":5.350519,"is_reserved":false,"is_disabled":false,"rental_uris":{"android":"levelo://app?vid=4a6a61b4-cc32-4630-bc63-6ef67c559ab5","ios":"levelo://app?vid=4a6a61b4-cc32-4630-bc63-6ef67c559ab5"},"vehicle_type_id":"4","last_reported":1704006375,"current_range_meters":18400,"station_id":"ce4bhbp2rcd13ifvqerg","pricing_plan_id":"free"},{"bike_id":"f37a884c-c737-4f0d-bd38-cd3f65f6a0af","system_id":"levelo_inurba_marseille","lat":43.282754,"lon":5.350519,"is_reserved":false,"is_disabled":false,"rental_uris":{"android":"levelo://app?vid=f37a884c-c737-4f0d-bd38-cd3f65f6a0af","ios":"levelo://app?vid=f37a884c-c737-4f0d-bd38-cd3f65f6a0af"},"vehicle_type_id":"4","last_reported":1704006375,"current_range_meters":30400,"station_id":"ce4bhbp2rcd13ifvqerg","pricing_plan_id":"free"},{"bike_id":"b03cc6f4-bb18-4d4a-805f-a3fdbe2f79fe","system_id":"levelo_inurba_marseille","lat":43.282754,"lon":5.350519,"is_reserved":false,"is_disabled":false,"rental_uris":{"android":"levelo://app?vid=b03cc6f4-bb18-4d4a-805f-a3fdbe2f79fe","ios":"levelo://app?vid=b03cc6f4-bb18-4d4a-805f-a3fdbe2f79fe"},"vehicle_type_id":"4","last_reported":1704006375,"current_range_meters":28800,"station_id":"ce4bhbp2rcd13ifvqerg","pricing_plan_id":"free"},{"bike_id":"4e816d35-ca4e-44a4-8c6d-bffe5e399c3a","system_id":"levelo_inurba_marseille","lat":43.282744,"lon":5.350533,"is_reserved":false,"is_disabled":false,"rental_uris":{"android":"levelo://app?vid=4e816d35-ca4e-44a4-8c6d-bffe5e399c3a","ios":"levelo://app?vid=4e816d35-ca4e-44a4-8c6d-bffe5e399c3a"},"vehicle_type_id":"4","last_reported":1704006375,"current_range_meters":17600,"station_id":"ce4bhbp2rcd13ifvqerg","pricing_plan_id":"free"},{"bike_id":"255df2c5-d5fc-405c-ae1b-1cab9ff70f41","system_id":"levelo_inurba_marseille","lat":43.280382,"lon":5.369291,"is_reserved":false,"is_disabled":false,"rental_uris":{"android":"levelo://app?vid=255df2c5-d5fc-405c-ae1b-1cab9ff70f41","ios":"levelo://app?vid=255df2c5-d5fc-405c-ae1b-1cab9ff70f41"},"vehicle_type_id":"4","last_reported":1704006375,"current_range_meters":25200,"station_id":"ce4bha12rcd13ifvqef0","pricing_plan_id":"free"},{"bike_id":"77ec6399-f2bb-44b8-8f10-e3badbe5046a","system_id":"levelo_inurba_marseille","lat":43.280382,"lon":5.369291,"is_reserved":false,"is_disabled":false,"rental_uris":{"android":"levelo://app?vid=77ec6399-f2bb-44b8-8f10-e3badbe5046a","ios":"levelo://app?vid=77ec6399-f2bb-44b8-8f10-e3badbe5046a"},"vehicle_type_id":"4","last_reported":1704006375,"current_range_meters":31200,"station_id":"ce4bha12rcd13ifvqef0","pricing_plan_id":"free"},{"bike_id":"75652f45-6b35-4786-a4f2-5fd4808af969","system_id":"levelo_inurba_marseille","lat":43.28039,"lon":5.369297,"is_reserved":false,"is_disabled":false,"rental_uris":{"android":"levelo://app?vid=75652f45-6b35-4786-a4f2-5fd4808af969","ios":"levelo://app?vid=75652f45-6b35-4786-a4f2-5fd4808af969"},"vehicle_type_id":"4","last_reported":1704006375,"current_range_meters":31200,"station_id":"ce4bha12rcd13ifvqef0","pricing_plan_id":"free"},{"bike_id":"a17599d5-4cc5-4caf-908b-efd20eb479f1","system_id":"levelo_inurba_marseille","lat":43.28039,"lon":5.369297,"is_reserved":false,"is_disabled":false,"rental_uris":{"android":"levelo://app?vid=a17599d5-4cc5-4caf-908b-efd20eb479f1","ios":"levelo://app?vid=a17599d5-4cc5-4caf-908b-efd20eb479f1"},"vehicle_type_id":"4","last_reported":1704006375,"current_range_meters":28000,"station_id":"ce4bha12rcd13ifvqef0","pricing_plan_id":"free"},{"bike_id":"90fc68e0-9a42-495a-a818-a06458ac52bd","system_id":"levelo_inurba_marseille","lat":43.290412,"lon":5.399633,"is_reserved":false,"is_disabled":false,"rental_uris":{"android":"levelo://app?vid=90fc68e0-9a42-495a-a818-a06458ac52bd","ios":"levelo://app?vid=90fc68e0-9a42-495a-a818-a06458ac52bd"},"vehicle_type_id":"4","last_reported":1704006375,"current_range_meters":18800,"station_id":"ce4bh392rcd13ifvqdm0","pricing_plan_id":"free"},{"bike_id":"1646a75e-95ed-4ba4-82a1-29de92d64f2c","system_id":"levelo_inurba_marseille","lat":43.2811,"lon":5.37835,"is_reserved":false,"is_disabled":false,"rental_uris":{"android":"levelo://app?vid=1646a75e-95ed-4ba4-82a1-29de92d64f2c","ios":"levelo://app?vid=1646a75e-95ed-4ba4-82a1-29de92d64f2c"},"vehicle_type_id":"4","last_reported":1704006375,"current_range_meters":17600,"station_id":"ce4bha12rcd13ifvqee0","pricing_plan_id":"free"},{"bike_id":"c47c6a03-8f3c-423b-a970-c425b0841b67","system_id":"levelo_inurba_marseille","lat":43.281044,"lon":5.378308,"is_reserved":false,"is_disabled":false,"rental_uris":{"android":"levelo://app?vid=c47c6a03-8f3c-423b-a970-c425b0841b67","ios":"levelo://app?vid=c47c6a03-8f3c-423b-a970-c425b0841b67"},"vehicle_type_id":"4","last_reported":1704006375,"current_range_meters":30400,"station_id":"ce4bha12rcd13ifvqee0","pricing_plan_id":"free"},{"bike_id":"128d7253-463f-4763-aef0-2035b26a2329","system_id":"levelo_inurba_marseille","lat":43.296263,"lon":5.40601,"is_reserved":false,"is_disabled":false,"rental_uris":{"android":"levelo://app?vid=128d7253-463f-4763-aef0-2035b26a2329","ios":"levelo://app?vid=128d7253-463f-4763-aef0-2035b26a2329"},"vehicle_type_id":"4","last_reported":1704006375,"current_range_meters":30400,"station_id":"ce4bh0h2rcd13ifvqd60","pricing_plan_id":"free"},{"bike_id":"dc445ea7-ce1b-49c0-9ede-40ed126b1d6c","system_id":"levelo_inurba_marseille","lat":43.28571,"lon":5.39501,"is_reserved":false,"is_disabled":false,"rental_uris":{"android":"levelo://app?vid=dc445ea7-ce1b-49c0-9ede-40ed126b1d6c","ios":"levelo://app?vid=dc445ea7-ce1b-49c0-9ede-40ed126b1d6c"},"vehicle_type_id":"4","last_reported":1704006375,"current_range_meters":6000,"station_id":"ce4bh292rcd13ifvqdg0","pricing_plan_id":"free"},{"bike_id":"9212317b-0f07-493d-a23e-4ef11bf6e1bc","system_id":"levelo_inurba_marseille","lat":43.326605,"lon":5.409903,"is_reserved":false,"is_disabled":false,"rental_uris":{"android":"levelo://app?vid=9212317b-0f07-493d-a23e-4ef11bf6e1bc","ios":"levelo://app?vid=9212317b-0f07-493d-a23e-4ef11bf6e1bc"},"vehicle_type_id":"4","last_reported":1704006375,"current_range_meters":24800,"station_id":"ce4bhpp2rcd13ifvqhgg","pricing_plan_id":"free"},{"bike_id":"ac4a2c54-054c-45c7-bc29-432a2e94ebc6","system_id":"levelo_inurba_marseille","lat":43.32608,"lon":5.41081,"is_reserved":false,"is_disabled":false,"rental_uris":{"android":"levelo://app?vid=ac4a2c54-054c-45c7-bc29-432a2e94ebc6","ios":"levelo://app?vid=ac4a2c54-054c-45c7-bc29-432a2e94ebc6"},"vehicle_type_id":"4","last_reported":1704006375,"current_range_meters":28400,"station_id":"","pricing_plan_id":"free"},{"bike_id":"cfe8d5f0-8a12-4e7c-87a1-f7276043a595","system_id":"levelo_inurba_marseille","lat":43.32654,"lon":5.41056,"is_reserved":false,"is_disabled":false,"rental_uris":{"android":"levelo://app?vid=cfe8d5f0-8a12-4e7c-87a1-f7276043a595","ios":"levelo://app?vid=cfe8d5f0-8a12-4e7c-87a1-f7276043a595"},"vehicle_type_id":"4","last_reported":1704006375,"current_range_meters":22800,"station_id":"","pricing_plan_id":"free"},{"bike_id":"f6a53825-6992-49ec-8bcb-a2cd8e3c45ba","system_id":"levelo_inurba_marseille","lat":43.299577,"lon":5.413277,"is_reserved":false,"is_disabled":false,"rental_uris":{"android":"levelo://app?vid=f6a53825-6992-49ec-8bcb-a2cd8e3c45ba","ios":"levelo://app?vid=f6a53825-6992-49ec-8bcb-a2cd8e3c45ba"},"vehicle_type_id":"4","last_reported":1704006375,"current_range_meters":30400,"station_id":"ce4bhp12rcd13ifvqh9g","pricing_plan_id":"free"},{"bike_id":"abfb5124-f2de-4330-b706-effc5c018fe4","system_id":"levelo_inurba_marseille","lat":43.279742,"lon":5.38744,"is_reserved":false,"is_disabled":false,"rental_uris":{"android":"levelo://app?vid=abfb5124-f2de-4330-b706-effc5c018fe4","ios":"levelo://app?vid=abfb5124-f2de-4330-b706-effc5c018fe4"},"vehicle_type_id":"4","last_reported":1704006375,"current_range_meters":30000,"station_id":"ce4bhg12rcd13ifvqf80","pricing_plan_id":"free"},{"bike_id":"39987834-70d1-441b-8b26-2c1b0a0683b0","system_id":"levelo_inurba_marseille","lat":43.279742,"lon":5.38744,"is_reserved":false,"is_disabled":false,"rental_uris":{"android":"levelo://app?vid=39987834-70d1-441b-8b26-2c1b0a0683b0","ios":"levelo://app?vid=39987834-70d1-441b-8b26-2c1b0a0683b0"},"vehicle_type_id":"4","last_reported":1704006375,"current_range_meters":30400,"station_id":"ce4bhg12rcd13ifvqf80","pricing_plan_id":"free"},{"bike_id":"e2116b2e-3a5f-4bd8-a1c8-2607f2cb6d00","system_id":"levelo_inurba_marseille","lat":43.325442,"lon":5.414296,"is_reserved":false,"is_disabled":false,"rental_uris":{"android":"levelo://app?vid=e2116b2e-3a5f-4bd8-a1c8-2607f2cb6d00","ios":"levelo://app?vid=e2116b2e-3a5f-4bd8-a1c8-2607f2cb6d00"},"vehicle_type_id":"4","last_reported":1704006375,"current_range_meters":7600,"station_id":"ce4bhq12rcd13ifvqhhg","pricing_plan_id":"free"},{"bike_id":"24641ed1-2a59-432a-bb90-8ac02022f529","system_id":"levelo_inurba_marseille","lat":43.276179,"lon":5.361009,"is_reserved":false,"is_disabled":false,"rental_uris":{"android":"levelo://app?vid=24641ed1-2a59-432a-bb90-8ac02022f529","ios":"levelo://app?vid=24641ed1-2a59-432a-bb90-8ac02022f529"},"vehicle_type_id":"4","last_reported":1704006375,"current_range_meters":26400,"station_id":"ce4bgj92rcd13ifvqbe0","pricing_plan_id":"free"},{"bike_id":"4122cd37-de4a-40f4-8dd7-5befa0ce335e","system_id":"levelo_inurba_marseille","lat":43.276179,"lon":5.361009,"is_reserved":false,"is_disabled":false,"rental_uris":{"android":"levelo://app?vid=4122cd37-de4a-40f4-8dd7-5befa0ce335e","ios":"levelo://app?vid=4122cd37-de4a-40f4-8dd7-5befa0ce335e"},"vehicle_type_id":"4","last_reported":1704006375,"current_range_meters":31200,"station_id":"ce4bgj92rcd13ifvqbe0","pricing_plan_id":"free"},{"bike_id":"70017d6e-6f1a-4af6-baf6-320a119b5691","system_id":"levelo_inurba_marseille","lat":43.348,"lon":5.350946,"is_reserved":false,"is_disabled":false,"rental_uris":{"android":"levelo://app?vid=70017d6e-6f1a-4af6-baf6-320a119b5691","ios":"levelo://app?vid=70017d6e-6f1a-4af6-baf6-320a119b5691"},"vehicle_type_id":"4","last_reported":1704006375,"current_range_meters":28800,"station_id":"","pricing_plan_id":"free"},{"bike_id":"ef3d5c69-7bf9-444c-9e09-ceca209c7099","system_id":"levelo_inurba_marseille","lat":43.280784,"lon":5.396622,"is_reserved":false,"is_disabled":false,"rental_uris":{"android":"levelo://app?vid=ef3d5c69-7bf9-444c-9e09-ceca209c7099","ios":"levelo://app?vid=ef3d5c69-7bf9-444c-9e09-ceca209c7099"},"vehicle_type_id":"4","last_reported":1704006375,"current_range_meters":26800,"station_id":"ce4bho12rcd13ifvqh2g","pricing_plan_id":"free"},{"bike_id":"bb4cbe5f-5561-4a37-a341-a39a691c1e82","system_id":"levelo_inurba_marseille","lat":43.303837,"lon":5.418724,"is_reserved":false,"is_disabled":false,"rental_uris":{"android":"levelo://app?vid=bb4cbe5f-5561-4a37-a341-a39a691c1e82","ios":"levelo://app?vid=bb4cbe5f-5561-4a37-a341-a39a691c1e82"},"vehicle_type_id":"4","last_reported":1704006375,"current_range_meters":27600,"station_id":"ce4bhop2rcd13ifvqh7g","pricing_plan_id":"free"},{"bike_id":"dcfb783e-4af4-4a2c-8b14-23597359d6a5","system_id":"levelo_inurba_marseille","lat":43.303538,"lon":5.418789,"is_reserved":false,"is_disabled":false,"rental_uris":{"android":"levelo://app?vid=dcfb783e-4af4-4a2c-8b14-23597359d6a5","ios":"levelo://app?vid=dcfb783e-4af4-4a2c-8b14-23597359d6a5"},"vehicle_type_id":"4","last_reported":1704006375,"current_range_meters":28800,"station_id":"ce4bhop2rcd13ifvqh7g","pricing_plan_id":"free"},{"bike_id":"4229f5b1-16ca-41ba-8e7a-c37268f6bcc2","system_id":"levelo_inurba_marseille","lat":43.30357,"lon":5.41881,"is_reserved":false,"is_disabled":false,"rental_uris":{"android":"levelo://app?vid=4229f5b1-16ca-41ba-8e7a-c37268f6bcc2","ios":"levelo://app?vid=4229f5b1-16ca-41ba-8e7a-c37268f6bcc2"},"vehicle_type_id":"4","last_reported":1704006375,"current_range_meters":6000,"station_id":"ce4bhop2rcd13ifvqh7g","pricing_plan_id":"free"},{"bike_id":"fcd31f89-dd15-4f92-bd38-d8f30235aec7","system_id":"levelo_inurba_marseille","lat":43.303837,"lon":5.418724,"is_reserved":false,"is_disabled":false,"rental_uris":{"android":"levelo://app?vid=fcd31f89-dd15-4f92-bd38-d8f30235aec7","ios":"levelo://app?vid=fcd31f89-dd15-4f92-bd38-d8f30235aec7"},"vehicle_type_id":"4","last_reported":1704006375,"current_range_meters":27600,"station_id":"ce4bhop2rcd13ifvqh7g","pricing_plan_id":"free"},{"bike_id":"4d3d0c8b-6b41-41e4-87c5-57930c62e9fb","system_id":"levelo_inurba_marseille","lat":43.278401,"lon":5.392152,"is_reserved":false,"is_disabled":false,"rental_uris":{"android":"levelo://app?vid=4d3d0c8b-6b41-41e4-87c5-57930c62e9fb","ios":"levelo://app?vid=4d3d0c8b-6b41-41e4-87c5-57930c62e9fb"},"vehicle_type_id":"4","last_reported":1704006375,"current_range_meters":29600,"station_id":"ce4bhjp2rcd13ifvqga0","pricing_plan_id":"free"},{"bike_id":"148d161d-505e-422b-85f3-f1f638c5ee50","system_id":"levelo_inurba_marseille","lat":43.273788,"lon":5.362569,"is_reserved":false,"is_disabled":false,"rental_uris":{"android":"levelo://app?vid=148d161d-505e-422b-85f3-f1f638c5ee50","ios":"levelo://app?vid=148d161d-505e-422b-85f3-f1f638c5ee50"},"vehicle_type_id":"4","last_reported":1704006375,"current_range_meters":28800,"station_id":"ce4bhbh2rcd13ifvqeo0","pricing_plan_id":"free"},{"bike_id":"f99e8b15-1162-4a9a-8596-d93ca37a2a5a","system_id":"levelo_inurba_marseille","lat":43.336148,"lon":5.410349,"is_reserved":false,"is_disabled":false,"rental_uris":{"android":"levelo://app?vid=f99e8b15-1162-4a9a-8596-d93ca37a2a5a","ios":"levelo://app?vid=f99e8b15-1162-4a9a-8596-d93ca37a2a5a"},"vehicle_type_id":"4","last_reported":1704006375,"current_range_meters":28800,"station_id":"ce4bhqh2rcd13ifvqhmg","pricing_plan_id":"free"},{"bike_id":"4f1547df-41f4-4e0e-9daf-a479774db57d","system_id":"levelo_inurba_marseille","lat":43.276771,"lon":5.388799,"is_reserved":false,"is_disabled":false,"rental_uris":{"android":"levelo://app?vid=4f1547df-41f4-4e0e-9daf-a479774db57d","ios":"levelo://app?vid=4f1547df-41f4-4e0e-9daf-a479774db57d"},"vehicle_type_id":"4","last_reported":1704006375,"current_range_meters":26000,"station_id":"ce4bhi12rcd13ifvqfo0","pricing_plan_id":"free"},{"bike_id":"d9c8318c-3031-4f68-9885-19375abd858f","system_id":"levelo_inurba_marseille","lat":43.31469,"lon":5.42606,"is_reserved":false,"is_disabled":false,"rental_uris":{"android":"levelo://app?vid=d9c8318c-3031-4f68-9885-19375abd858f","ios":"levelo://app?vid=d9c8318c-3031-4f68-9885-19375abd858f"},"vehicle_type_id":"4","last_reported":1704006375,"current_range_meters":4000,"station_id":"","pricing_plan_id":"free"},{"bike_id":"8725ca5d-607e-418a-a259-285bf86c80d9","system_id":"levelo_inurba_marseille","lat":43.273125,"lon":5.390731,"is_reserved":false,"is_disabled":false,"rental_uris":{"android":"levelo://app?vid=8725ca5d-607e-418a-a259-285bf86c80d9","ios":"levelo://app?vid=8725ca5d-607e-418a-a259-285bf86c80d9"},"vehicle_type_id":"4","last_reported":1704006375,"current_range_meters":16400,"station_id":"ce4bhgp2rcd13ifvqfe0","pricing_plan_id":"free"},{"bike_id":"40548e44-fb50-48f8-89c8-1a5b61179c61","system_id":"levelo_inurba_marseille","lat":43.304096,"lon":5.425385,"is_reserved":false,"is_disabled":false,"rental_uris":{"android":"levelo://app?vid=40548e44-fb50-48f8-89c8-1a5b61179c61","ios":"levelo://app?vid=40548e44-fb50-48f8-89c8-1a5b61179c61"},"vehicle_type_id":"4","last_reported":1704006375,"current_range_meters":22800,"station_id":"ce4bhoh2rcd13ifvqh6g","pricing_plan_id":"free"},{"bike_id":"65da9df5-8509-49ff-8b3d-cd31aab7ec06","system_id":"levelo_inurba_marseille","lat":43.295523,"lon":5.422926,"is_reserved":false,"is_disabled":false,"rental_uris":{"android":"levelo://app?vid=65da9df5-8509-49ff-8b3d-cd31aab7ec06","ios":"levelo://app?vid=65da9df5-8509-49ff-8b3d-cd31aab7ec06"},"vehicle_type_id":"4","last_reported":1704006375,"current_range_meters":29600,"station_id":"ce4bhph2rcd13ifvqhdg","pricing_plan_id":"free"},{"bike_id":"beb93061-85bf-4e20-99aa-79c67497ba42","system_id":"levelo_inurba_marseille","lat":43.295511,"lon":5.422926,"is_reserved":false,"is_disabled":false,"rental_uris":{"android":"levelo://app?vid=beb93061-85bf-4e20-99aa-79c67497ba42","ios":"levelo://app?vid=beb93061-85bf-4e20-99aa-79c67497ba42"},"vehicle_type_id":"4","last_reported":1704006375,"current_range_meters":16400,"station_id":"ce4bhph2rcd13ifvqhdg","pricing_plan_id":"free"},{"bike_id":"f469bb82-d41e-4cf7-88b8-44b7c61170d9","system_id":"levelo_inurba_marseille","lat":43.295511,"lon":5.422926,"is_reserved":false,"is_disabled":false,"rental_uris":{"android":"levelo://app?vid=f469bb82-d41e-4cf7-88b8-44b7c61170d9","ios":"levelo://app?vid=f469bb82-d41e-4cf7-88b8-44b7c61170d9"},"vehicle_type_id":"4","last_reported":1704006375,"current_range_meters":16000,"station_id":"ce4bhph2rcd13ifvqhdg","pricing_plan_id":"free"},{"bike_id":"061bb09e-908a-4f76-afb2-44bcfcb6aa80","system_id":"levelo_inurba_marseille","lat":43.295511,"lon":5.422926,"is_reserved":false,"is_disabled":false,"rental_uris":{"android":"levelo://app?vid=061bb09e-908a-4f76-afb2-44bcfcb6aa80","ios":"levelo://app?vid=061bb09e-908a-4f76-afb2-44bcfcb6aa80"},"vehicle_type_id":"4","last_reported":1704006375,"current_range_meters":30400,"station_id":"ce4bhph2rcd13ifvqhdg","pricing_plan_id":"free"},{"bike_id":"6876aea3-bcae-4465-9248-ec0980fc3939","system_id":"levelo_inurba_marseille","lat":43.295511,"lon":5.422926,"is_reserved":false,"is_disabled":false,"rental_uris":{"android":"levelo://app?vid=6876aea3-bcae-4465-9248-ec0980fc3939","ios":"levelo://app?vid=6876aea3-bcae-4465-9248-ec0980fc3939"},"vehicle_type_id":"4","last_reported":1704006375,"current_range_meters":15600,"station_id":"ce4bhph2rcd13ifvqhdg","pricing_plan_id":"free"},{"bike_id":"27bcf207-ccbf-4861-b9cd-6d65f96113f5","system_id":"levelo_inurba_marseille","lat":43.272118,"lon":5.391758,"is_reserved":false,"is_disabled":false,"rental_uris":{"android":"levelo://app?vid=27bcf207-ccbf-4861-b9cd-6d65f96113f5","ios":"levelo://app?vid=27bcf207-ccbf-4861-b9cd-6d65f96113f5"},