{"last_updated":1732111732,"ttl":60,"version":"2.2","data":{"bikes":[{"bike_id":"eb120ebd-7084-48cd-a344-3a07b185bbe1","system_id":"levelo_inurba_marseille","lat":43.29709,"lon":5.37697,"is_reserved":false,"is_disabled":false,"rental_uris":{"android":"levelo://app?vid=eb120ebd-7084-48cd-a344-3a07b185bbe1","ios":"levelo://app?vid=eb120ebd-7084-48cd-a344-3a07b185bbe1"},"vehicle_type_id":"4","last_reported":1732111732,"current_range_meters":38800,"station_id":"ce4bgkh2rcd13ifvqbl0","pricing_plan_id":"cebpf4jnsgd1na2vs0mg"},{"bike_id":"3ef167aa-309b-48bc-b470-194be3fc10bf","system_id":"levelo_inurba_marseille","lat":43.26209,"lon":5.37443,"is_reserved":false,"is_disabled":false,"rental_uris":{"android":"levelo://app?vid=3ef167aa-309b-48bc-b470-194be3fc10bf","ios":"levelo://app?vid=3ef167aa-309b-48bc-b470-194be3fc10bf"},"vehicle_type_id":"4","last_reported":1732111732,"current_range_meters":36000,"station_id":"ce4bhgp2rcd13ifvqfc0","pricing_plan_id":"cebpf4jnsgd1na2vs0mg"},{"bike_id":"ad065e1b-a695-4ca7-9c8e-fe7c98272c45","system_id":"levelo_inurba_marseille","lat":43.28041,"lon":5.36947,"is_reserved":false,"is_disabled":false,"rental_uris":{"android":"levelo://app?vid=ad065e1b-a695-4ca7-9c8e-fe7c98272c45","ios":"levelo://app?vid=ad065e1b-a695-4ca7-9c8e-fe7c98272c45"},"vehicle_type_id":"4","last_reported":1732111732,"current_range_meters":38800,"station_id":"ce4bha12rcd13ifvqef0","pricing_plan_id":"cebpf4jnsgd1na2vs0mg"},{"bike_id":"81d34042-a037-42c7-9436-1187b5706698","system_id":"levelo_inurba_marseille","lat":43.31018,"lon":5.40309,"is_reserved":false,"is_disabled":false,"rental_uris":{"android":"levelo://app?vid=81d34042-a037-42c7-9436-1187b5706698","ios":"levelo://app?vid=81d34042-a037-42c7-9436-1187b5706698"},"vehicle_type_id":"4","last_reported":1732111732,"current_range_meters":17200,"station_id":"","pricing_plan_id":"cebpf4jnsgd1na2vs0mg"},{"bike_id":"57c8a187-61e5-47e3-ab84-0d2b63b271ea","system_id":"levelo_inurba_marseille","lat":43.255,"lon":5.37656,"is_reserved":false,"is_disabled":false,"rental_uris":{"android":"levelo://app?vid=57c8a187-61e5-47e3-ab84-0d2b63b271ea","ios":"levelo://app?vid=57c8a187-61e5-47e3-ab84-0d2b63b271ea"},"vehicle_type_id":"4","last_reported":1732111732,"current_range_meters":16400,"station_id":"ce4bhh12rcd13ifvqff0","pricing_plan_id":"cebpf4jnsgd1na2vs0mg"},{"bike_id":"dcf26e90-aedf-4a0b-b721-cdd056e9c3ff","system_id":"levelo_inurba_marseille","lat":43.29603,"lon":5.38107,"is_reserved":false,"is_disabled":false,"rental_uris":{"android":"levelo://app?vid=dcf26e90-aedf-4a0b-b721-cdd056e9c3ff","ios":"levelo://app?vid=dcf26e90-aedf-4a0b-b721-cdd056e9c3ff"},"vehicle_type_id":"4","last_reported":1732111732,"current_range_meters":33200,"station_id":"ce4bgl12rcd13ifvqbo0","pricing_plan_id":"cebpf4jnsgd1na2vs0mg"},{"bike_id":"84d4df27-2b97-423b-bf7d-6029ee544425","system_id":"levelo_inurba_marseille","lat":43.32483,"lon":5.36573,"is_reserved":false,"is_disabled":false,"rental_uris":{"android":"levelo://app?vid=84d4df27-2b97-423b-bf7d-6029ee544425","ios":"levelo://app?vid=84d4df27-2b97-423b-bf7d-6029ee544425"},"vehicle_type_id":"4","last_reported":1732111732,"current_range_meters":39200,"station_id":"ce4bhs12rcd13ifvqhvg","pricing_plan_id":"cebpf4jnsgd1na2vs0mg"},{"bike_id":"3da4a04a-4c7f-4fce-86a2-74625d98242f","system_id":"levelo_inurba_marseille","lat":43.28573,"lon":5.39505,"is_reserved":false,"is_disabled":false,"rental_uris":{"android":"levelo://app?vid=3da4a04a-4c7f-4fce-86a2-74625d98242f","ios":"levelo://app?vid=3da4a04a-4c7f-4fce-86a2-74625d98242f"},"vehicle_type_id":"4","last_reported":1732111732,"current_range_meters":12000,"station_id":"ce4bh292rcd13ifvqdg0","pricing_plan_id":"cebpf4jnsgd1na2vs0mg"},{"bike_id":"457c580d-a41b-47eb-9d8f-99e91e4e7621","system_id":"levelo_inurba_marseille","lat":43.33606,"lon":5.41027,"is_reserved":false,"is_disabled":false,"rental_uris":{"android":"levelo://app?vid=457c580d-a41b-47eb-9d8f-99e91e4e7621","ios":"levelo://app?vid=457c580d-a41b-47eb-9d8f-99e91e4e7621"},"vehicle_type_id":"4","last_reported":1732111732,"current_range_meters":36400,"station_id":"ce4bhqh2rcd13ifvqhmg","pricing_plan_id":"cebpf4jnsgd1na2vs0mg"},{"bike_id":"f3f7dc59-7218-445f-8eb1-c3362f6ed783","system_id":"levelo_inurba_marseille","lat":43.2942,"lon":5.39753,"is_reserved":false,"is_disabled":false,"rental_uris":{"android":"levelo://app?vid=f3f7dc59-7218-445f-8eb1-c3362f6ed783","ios":"levelo://app?vid=f3f7dc59-7218-445f-8eb1-c3362f6ed783"},"vehicle_type_id":"4","last_reported":1732111732,"current_range_meters":36000,"station_id":"ce4bh3h2rcd13ifvqdo0","pricing_plan_id":"cebpf4jnsgd1na2vs0mg"},{"bike_id":"0ffb94d8-2ead-4b0d-ae47-f9a6f707b7cc","system_id":"levelo_inurba_marseille","lat":43.26789,"lon":5.39429,"is_reserved":false,"is_disabled":false,"rental_uris":{"android":"levelo://app?vid=0ffb94d8-2ead-4b0d-ae47-f9a6f707b7cc","ios":"levelo://app?vid=0ffb94d8-2ead-4b0d-ae47-f9a6f707b7cc"},"vehicle_type_id":"4","last_reported":1732111732,"current_range_meters":37600,"station_id":"ce4bhh12rcd13ifvqfg0","pricing_plan_id":"cebpf4jnsgd1na2vs0mg"},{"bike_id":"559b758a-0b30-4162-a62e-ef65e16c8ece","system_id":"levelo_inurba_marseille","lat":43.28043,"lon":5.36949,"is_reserved":false,"is_disabled":false,"rental_uris":{"android":"levelo://app?vid=559b758a-0b30-4162-a62e-ef65e16c8ece","ios":"levelo://app?vid=559b758a-0b30-4162-a62e-ef65e16c8ece"},"vehicle_type_id":"4","last_reported":1732111732,"current_range_meters":38800,"station_id":"ce4bha12rcd13ifvqef0","pricing_plan_id":"cebpf4jnsgd1na2vs0mg"},{"bike_id":"8233eec3-306e-4fb8-bb57-4a10a1798702","system_id":"levelo_inurba_marseille","lat":43.29053,"lon":5.3592,"is_reserved":false,"is_disabled":false,"rental_uris":{"android":"levelo://app?vid=8233eec3-306e-4fb8-bb57-4a10a1798702","ios":"levelo://app?vid=8233eec3-306e-4fb8-bb57-4a10a1798702"},"vehicle_type_id":"4","last_reported":1732111732,"current_range_meters":30400,"station_id":"ce4bha92rcd13ifvqeg0","pricing_plan_id":"cebpf4jnsgd1na2vs0mg"},{"bike_id":"aaa68104-60d6-454b-9438-4e38b46ffb6c","system_id":"levelo_inurba_marseille","lat":43.30819,"lon":5.37068,"is_reserved":false,"is_disabled":false,"rental_uris":{"android":"levelo://app?vid=aaa68104-60d6-454b-9438-4e38b46ffb6c","ios":"levelo://app?vid=aaa68104-60d6-454b-9438-4e38b46ffb6c"},"vehicle_type_id":"4","last_reported":1732111732,"current_range_meters":23200,"station_id":"","pricing_plan_id":"cebpf4jnsgd1na2vs0mg"},{"bike_id":"ca1c03fa-8ae5-4698-b6d2-e7c16880e3cf","system_id":"levelo_inurba_marseille","lat":43.28478,"lon":5.38421,"is_reserved":false,"is_disabled":false,"rental_uris":{"android":"levelo://app?vid=ca1c03fa-8ae5-4698-b6d2-e7c16880e3cf","ios":"levelo://app?vid=ca1c03fa-8ae5-4698-b6d2-e7c16880e3cf"},"vehicle_type_id":"4","last_reported":1732111732,"current_range_meters":19600,"station_id":"ce4bh512rcd13ifvqe3g","pricing_plan_id":"cebpf4jnsgd1na2vs0mg"},{"bike_id":"837d9479-5470-46d1-8a03-bdf27063ea4e","system_id":"levelo_inurba_marseille","lat":43.30559,"lon":5.36556,"is_reserved":false,"is_disabled":false,"rental_uris":{"android":"levelo://app?vid=837d9479-5470-46d1-8a03-bdf27063ea4e","ios":"levelo://app?vid=837d9479-5470-46d1-8a03-bdf27063ea4e"},"vehicle_type_id":"4","last_reported":1732111732,"current_range_meters":30800,"station_id":"ce4bgs12rcd13ifvqcag","pricing_plan_id":"cebpf4jnsgd1na2vs0mg"},{"bike_id":"123b7649-411d-495b-95bb-d79f349cc62b","system_id":"levelo_inurba_marseille","lat":43.30795,"lon":5.43525,"is_reserved":false,"is_disabled":false,"rental_uris":{"android":"levelo://app?vid=123b7649-411d-495b-95bb-d79f349cc62b","ios":"levelo://app?vid=123b7649-411d-495b-95bb-d79f349cc62b"},"vehicle_type_id":"4","last_reported":1732111732,"current_range_meters":38000,"station_id":"ce4bhph2rcd13ifvqheg","pricing_plan_id":"cebpf4jnsgd1na2vs0mg"},{"bike_id":"a749c3ee-ad99-4fe0-9045-21785886a641","system_id":"levelo_inurba_marseille","lat":43.28846,"lon":5.35851,"is_reserved":false,"is_disabled":false,"rental_uris":{"android":"levelo://app?vid=a749c3ee-ad99-4fe0-9045-21785886a641","ios":"levelo://app?vid=a749c3ee-ad99-4fe0-9045-21785886a641"},"vehicle_type_id":"4","last_reported":1732111732,"current_range_meters":39200,"station_id":"ce4bhb12rcd13ifvqem0","pricing_plan_id":"cebpf4jnsgd1na2vs0mg"},{"bike_id":"e4624f32-fae1-428f-a986-44f323453b9a","system_id":"levelo_inurba_marseille","lat":43.29544,"lon":5.42289,"is_reserved":false,"is_disabled":false,"rental_uris":{"android":"levelo://app?vid=e4624f32-fae1-428f-a986-44f323453b9a","ios":"levelo://app?vid=e4624f32-fae1-428f-a986-44f323453b9a"},"vehicle_type_id":"4","last_reported":1732111732,"current_range_meters":38800,"station_id":"ce4bhph2rcd13ifvqhdg","pricing_plan_id":"cebpf4jnsgd1na2vs0mg"},{"bike_id":"aba2fb77-4044-4813-9d7c-e6bea6befaaf","system_id":"levelo_inurba_marseille","lat":43.25085,"lon":5.39516,"is_reserved":false,"is_disabled":false,"rental_uris":{"android":"levelo://app?vid=aba2fb77-4044-4813-9d7c-e6bea6befaaf","ios":"levelo://app?vid=aba2fb77-4044-4813-9d7c-e6bea6befaaf"},"vehicle_type_id":"4","last_reported":1732111732,"current_range_meters":11600,"station_id":"ce4bhm12rcd13ifvqgkg","pricing_plan_id":"cebpf4jnsgd1na2vs0mg"},{"bike_id":"5faf9189-305e-40eb-aa8c-ab6102faa530","system_id":"levelo_inurba_marseille","lat":43.27567,"lon":5.38423,"is_reserved":false,"is_disabled":false,"rental_uris":{"android":"levelo://app?vid=5faf9189-305e-40eb-aa8c-ab6102faa530","ios":"levelo://app?vid=5faf9189-305e-40eb-aa8c-ab6102faa530"},"vehicle_type_id":"4","last_reported":1732111732,"current_range_meters":28400,"station_id":"ce4bhh92rcd13ifvqfi0","pricing_plan_id":"cebpf4jnsgd1na2vs0mg"},{"bike_id":"dfb656ce-a952-4232-be58-58af15a24d97","system_id":"levelo_inurba_marseille","lat":43.23146,"lon":5.43713,"is_reserved":false,"is_disabled":false,"rental_uris":{"android":"levelo://app?vid=dfb656ce-a952-4232-be58-58af15a24d97","ios":"levelo://app?vid=dfb656ce-a952-4232-be58-58af15a24d97"},"vehicle_type_id":"4","last_reported":1732111732,"current_range_meters":19600,"station_id":"ce4bhmp2rcd13ifvqgog","pricing_plan_id":"cebpf4jnsgd1na2vs0mg"},{"bike_id":"5c3000a0-a190-4007-a723-aa2707fd1ce3","system_id":"levelo_inurba_marseille","lat":43.22934,"lon":5.35382,"is_reserved":false,"is_disabled":false,"rental_uris":{"android":"levelo://app?vid=5c3000a0-a190-4007-a723-aa2707fd1ce3","ios":"levelo://app?vid=5c3000a0-a190-4007-a723-aa2707fd1ce3"},"vehicle_type_id":"4","last_reported":1732111732,"current_range_meters":38800,"station_id":"cpo3532slgdg3j2ikp40","pricing_plan_id":"cebpf4jnsgd1na2vs0mg"},{"bike_id":"44c5c2f5-958d-443a-a7be-78a6d2b61d27","system_id":"levelo_inurba_marseille","lat":43.28575,"lon":5.39489,"is_reserved":false,"is_disabled":false,"rental_uris":{"android":"levelo://app?vid=44c5c2f5-958d-443a-a7be-78a6d2b61d27","ios":"levelo://app?vid=44c5c2f5-958d-443a-a7be-78a6d2b61d27"},"vehicle_type_id":"4","last_reported":1732111732,"current_range_meters":10000,"station_id":"ce4bh292rcd13ifvqdg0","pricing_plan_id":"cebpf4jnsgd1na2vs0mg"},{"bike_id":"c6c3e002-7baa-424f-a29e-203d0b6ce62f","system_id":"levelo_inurba_marseille","lat":43.2963,"lon":5.3773,"is_reserved":false,"is_disabled":false,"rental_uris":{"android":"levelo://app?vid=c6c3e002-7baa-424f-a29e-203d0b6ce62f","ios":"levelo://app?vid=c6c3e002-7baa-424f-a29e-203d0b6ce62f"},"vehicle_type_id":"4","last_reported":1732111732,"current_range_meters":32800,"station_id":"ce4bgi92rcd13ifvqb90","pricing_plan_id":"cebpf4jnsgd1na2vs0mg"},{"bike_id":"07dfa307-72b1-4fd3-aaec-cc158bba164b","system_id":"levelo_inurba_marseille","lat":43.31914,"lon":5.37455,"is_reserved":false,"is_disabled":false,"rental_uris":{"android":"levelo://app?vid=07dfa307-72b1-4fd3-aaec-cc158bba164b","ios":"levelo://app?vid=07dfa307-72b1-4fd3-aaec-cc158bba164b"},"vehicle_type_id":"4","last_reported":1732111732,"current_range_meters":38400,"station_id":"","pricing_plan_id":"cebpf4jnsgd1na2vs0mg"},{"bike_id":"c11a4733-8cb4-4c5d-b936-bd0945bb1868","system_id":"levelo_inurba_marseille","lat":43.29873,"lon":5.39737,"is_reserved":false,"is_disabled":false,"rental_uris":{"android":"levelo://app?vid=c11a4733-8cb4-4c5d-b936-bd0945bb1868","ios":"levelo://app?vid=c11a4733-8cb4-4c5d-b936-bd0945bb1868"},"vehicle_type_id":"4","last_reported":1732111732,"current_range_meters":39200,"station_id":"ce4bh0h2rcd13ifvqd50","pricing_plan_id":"cebpf4jnsgd1na2vs0mg"},{"bike_id":"776b56c4-2484-4752-8c9e-32e27061b5dd","system_id":"levelo_inurba_marseille","lat":43.29629,"lon":5.40601,"is_reserved":false,"is_disabled":false,"rental_uris":{"android":"levelo://app?vid=776b56c4-2484-4752-8c9e-32e27061b5dd","ios":"levelo://app?vid=776b56c4-2484-4752-8c9e-32e27061b5dd"},"vehicle_type_id":"4","last_reported":1732111732,"current_range_meters":10800,"station_id":"ce4bh0h2rcd13ifvqd60","pricing_plan_id":"cebpf4jnsgd1na2vs0mg"},{"bike_id":"80c97958-4d55-4d04-b0ef-a5b1a09d0125","system_id":"levelo_inurba_marseille","lat":43.31367,"lon":5.36707,"is_reserved":false,"is_disabled":false,"rental_uris":{"android":"levelo://app?vid=80c97958-4d55-4d04-b0ef-a5b1a09d0125","ios":"levelo://app?vid=80c97958-4d55-4d04-b0ef-a5b1a09d0125"},"vehicle_type_id":"4","last_reported":1732111732,"current_range_meters":24800,"station_id":"ce4bgr92rcd13ifvqc6g","pricing_plan_id":"cebpf4jnsgd1na2vs0mg"},{"bike_id":"e0b38293-d99b-4430-b64b-73ae136e0cbe","system_id":"levelo_inurba_marseille","lat":43.25936,"lon":5.40894,"is_reserved":false,"is_disabled":true,"rental_uris":{"android":"levelo://app?vid=e0b38293-d99b-4430-b64b-73ae136e0cbe","ios":"levelo://app?vid=e0b38293-d99b-4430-b64b-73ae136e0cbe"},"vehicle_type_id":"4","last_reported":1732111732,"current_range_meters":0,"station_id":"ce4bhm92rcd13ifvqglg","pricing_plan_id":"cebpf4jnsgd1na2vs0mg"},{"bike_id":"ee2c1471-927f-47bd-9306-c798c41b58b5","system_id":"levelo_inurba_marseille","lat":43.30548,"lon":5.36708,"is_reserved":false,"is_disabled":false,"rental_uris":{"android":"levelo://app?vid=ee2c1471-927f-47bd-9306-c798c41b58b5","ios":"levelo://app?vid=ee2c1471-927f-47bd-9306-c798c41b58b5"},"vehicle_type_id":"4","last_reported":1732111732,"current_range_meters":27200,"station_id":"ce4bgrp2rcd13ifvqc9g","pricing_plan_id":"cebpf4jnsgd1na2vs0mg"},{"bike_id":"5fce23fd-5e1c-49b4-bb11-4b651f94887e","system_id":"levelo_inurba_marseille","lat":43.24544,"lon":5.39525,"is_reserved":false,"is_disabled":false,"rental_uris":{"android":"levelo://app?vid=5fce23fd-5e1c-49b4-bb11-4b651f94887e","ios":"levelo://app?vid=5fce23fd-5e1c-49b4-bb11-4b651f94887e"},"vehicle_type_id":"4","last_reported":1732111732,"current_range_meters":6800,"station_id":"ce4bhlp2rcd13ifvqgjg","pricing_plan_id":"cebpf4jnsgd1na2vs0mg"},{"bike_id":"2eecfa6d-7bdb-44db-b298-aa7786f0665e","system_id":"levelo_inurba_marseille","lat":43.31328,"lon":5.39692,"is_reserved":false,"is_disabled":false,"rental_uris":{"android":"levelo://app?vid=2eecfa6d-7bdb-44db-b298-aa7786f0665e","ios":"levelo://app?vid=2eecfa6d-7bdb-44db-b298-aa7786f0665e"},"vehicle_type_id":"4","last_reported":1732111732,"current_range_meters":38000,"station_id":"ce4bgvp2rcd13ifvqcu0","pricing_plan_id":"cebpf4jnsgd1na2vs0mg"},{"bike_id":"3a698a5b-c28d-41bd-a952-684ab6cd36fd","system_id":"levelo_inurba_marseille","lat":43.28038,"lon":5.36945,"is_reserved":false,"is_disabled":false,"rental_uris":{"android":"levelo://app?vid=3a698a5b-c28d-41bd-a952-684ab6cd36fd","ios":"levelo://app?vid=3a698a5b-c28d-41bd-a952-684ab6cd36fd"},"vehicle_type_id":"4","last_reported":1732111732,"current_range_meters":32800,"station_id":"ce4bha12rcd13ifvqef0","pricing_plan_id":"cebpf4jnsgd1na2vs0mg"},{"bike_id":"1cd0daee-d68a-4e66-9883-fbe67fd8260f","system_id":"levelo_inurba_marseille","lat":43.30591,"lon":5.37217,"is_reserved":false,"is_disabled":true,"rental_uris":{"android":"levelo://app?vid=1cd0daee-d68a-4e66-9883-fbe67fd8260f","ios":"levelo://app?vid=1cd0daee-d68a-4e66-9883-fbe67fd8260f"},"vehicle_type_id":"4","last_reported":1732111732,"current_range_meters":0,"station_id":"ce4bgqh2rcd13ifvqc4g","pricing_plan_id":"cebpf4jnsgd1na2vs0mg"},{"bike_id":"bc14e463-5825-4071-9c45-e0187e501788","system_id":"levelo_inurba_marseille","lat":43.24803,"lon":5.37453,"is_reserved":false,"is_disabled":true,"rental_uris":{"android":"levelo://app?vid=bc14e463-5825-4071-9c45-e0187e501788","ios":"levelo://app?vid=bc14e463-5825-4071-9c45-e0187e501788"},"vehicle_type_id":"4","last_reported":1732111732,"current_range_meters":1200,"station_id":"ce4bhgh2rcd13ifvqfb0","pricing_plan_id":"cebpf4jnsgd1na2vs0mg"},{"bike_id":"772ce743-8958-4198-b3ba-b6e0d96fa296","system_id":"levelo_inurba_marseille","lat":43.24168,"lon":5.36404,"is_reserved":false,"is_disabled":false,"rental_uris":{"android":"levelo://app?vid=772ce743-8958-4198-b3ba-b6e0d96fa296","ios":"levelo://app?vid=772ce743-8958-4198-b3ba-b6e0d96fa296"},"vehicle_type_id":"4","last_reported":1732111732,"current_range_meters":10000,"station_id":"cpo36qri1sfpv3e86is0","pricing_plan_id":"cebpf4jnsgd1na2vs0mg"},{"bike_id":"829b4d1a-ed3f-4acf-ac55-5925da3b6d1d","system_id":"levelo_inurba_marseille","lat":43.29247,"lon":5.36857,"is_reserved":false,"is_disabled":false,"rental_uris":{"android":"levelo://app?vid=829b4d1a-ed3f-4acf-ac55-5925da3b6d1d","ios":"levelo://app?vid=829b4d1a-ed3f-4acf-ac55-5925da3b6d1d"},"vehicle_type_id":"4","last_reported":1732111732,"current_range_meters":5600,"station_id":"ce4bhbp2rcd13ifvqesg","pricing_plan_id":"cebpf4jnsgd1na2vs0mg"},{"bike_id":"e6d4ea9e-d6c1-45d3-bcf1-642ec2814217","system_id":"levelo_inurba_marseille","lat":43.28947,"lon":5.36645,"is_reserved":false,"is_disabled":false,"rental_uris":{"android":"levelo://app?vid=e6d4ea9e-d6c1-45d3-bcf1-642ec2814217","ios":"levelo://app?vid=e6d4ea9e-d6c1-45d3-bcf1-642ec2814217"},"vehicle_type_id":"4","last_reported":1732111732,"current_range_meters":37600,"station_id":"ce4bhap2rcd13ifvqek0","pricing_plan_id":"cebpf4jnsgd1na2vs0mg"},{"bike_id":"597cb1c5-c680-49ef-9a1a-84a53b157037","system_id":"levelo_inurba_marseille","lat":43.32363,"lon":5.38886,"is_reserved":false,"is_disabled":false,"rental_uris":{"android":"levelo://app?vid=597cb1c5-c680-49ef-9a1a-84a53b157037","ios":"levelo://app?vid=597cb1c5-c680-49ef-9a1a-84a53b157037"},"vehicle_type_id":"4","last_reported":1732111732,"current_range_meters":22400,"station_id":"ce4bhqp2rcd13ifvqhog","pricing_plan_id":"cebpf4jnsgd1na2vs0mg"},{"bike_id":"271d005b-08e5-449a-9ecc-19dda8997147","system_id":"levelo_inurba_marseille","lat":43.31326,"lon":5.39697,"is_reserved":false,"is_disabled":false,"rental_uris":{"android":"levelo://app?vid=271d005b-08e5-449a-9ecc-19dda8997147","ios":"levelo://app?vid=271d005b-08e5-449a-9ecc-19dda8997147"},"vehicle_type_id":"4","last_reported":1732111732,"current_range_meters":34800,"station_id":"ce4bgvp2rcd13ifvqcu0","pricing_plan_id":"cebpf4jnsgd1na2vs0mg"},{"bike_id":"e4cce421-ce86-4af3-be13-f349c37fa71f","system_id":"levelo_inurba_marseille","lat":43.276044,"lon":5.360895,"is_reserved":false,"is_disabled":false,"rental_uris":{"android":"levelo://app?vid=e4cce421-ce86-4af3-be13-f349c37fa71f","ios":"levelo://app?vid=e4cce421-ce86-4af3-be13-f349c37fa71f"},"vehicle_type_id":"4","last_reported":1732111732,"current_range_meters":17600,"station_id":"ce4bgj92rcd13ifvqbe0","pricing_plan_id":"cebpf4jnsgd1na2vs0mg"},{"bike_id":"482b9691-5d56-4b07-8f4b-2726ffb1d88b","system_id":"levelo_inurba_marseille","lat":43.29509,"lon":5.39025,"is_reserved":false,"is_disabled":false,"rental_uris":{"android":"levelo://app?vid=482b9691-5d56-4b07-8f4b-2726ffb1d88b","ios":"levelo://app?vid=482b9691-5d56-4b07-8f4b-2726ffb1d88b"},"vehicle_type_id":"4","last_reported":1732111732,"current_range_meters":36800,"station_id":"ce4bh3p2rcd13ifvqdp0","pricing_plan_id":"cebpf4jnsgd1na2vs0mg"},{"bike_id":"0b638473-1411-434e-9d66-cbfde13ae8a3","system_id":"levelo_inurba_marseille","lat":43.29934,"lon":5.36555,"is_reserved":false,"is_disabled":false,"rental_uris":{"android":"levelo://app?vid=0b638473-1411-434e-9d66-cbfde13ae8a3","ios":"levelo://app?vid=0b638473-1411-434e-9d66-cbfde13ae8a3"},"vehicle_type_id":"4","last_reported":1732111732,"current_range_meters":28000,"station_id":"ce4bgm92rcd13ifvqbr0","pricing_plan_id":"cebpf4jnsgd1na2vs0mg"},{"bike_id":"7144fcf7-fada-4a34-bf79-af5abbb6bd30","system_id":"levelo_inurba_marseille","lat":43.32054,"lon":5.415403,"is_reserved":false,"is_disabled":false,"rental_uris":{"android":"levelo://app?vid=7144fcf7-fada-4a34-bf79-af5abbb6bd30","ios":"levelo://app?vid=7144fcf7-fada-4a34-bf79-af5abbb6bd30"},"vehicle_type_id":"4","last_reported":1732111732,"current_range_meters":38800,"station_id":"ce4bhq92rcd13ifvqhkg","pricing_plan_id":"cebpf4jnsgd1na2vs0mg"},{"bike_id":"3d2d22d1-4a22-49f8-90c2-774b5a4b9464","system_id":"levelo_inurba_marseille","lat":43.29627,"lon":5.40596,"is_reserved":false,"is_disabled":false,"rental_uris":{"android":"levelo://app?vid=3d2d22d1-4a22-49f8-90c2-774b5a4b9464","ios":"levelo://app?vid=3d2d22d1-4a22-49f8-90c2-774b5a4b9464"},"vehicle_type_id":"4","last_reported":1732111732,"current_range_meters":38800,"station_id":"ce4bh0h2rcd13ifvqd60","pricing_plan_id":"cebpf4jnsgd1na2vs0mg"},{"bike_id":"c416c8cf-6b28-4f0e-b2b0-7dcc65f1e970","system_id":"levelo_inurba_marseille","lat":43.29268,"lon":5.3845,"is_reserved":false,"is_disabled":false,"rental_uris":{"android":"levelo://app?vid=c416c8cf-6b28-4f0e-b2b0-7dcc65f1e970","ios":"levelo://app?vid=c416c8cf-6b28-4f0e-b2b0-7dcc65f1e970"},"vehicle_type_id":"4","last_reported":1732111732,"current_range_meters":32000,"station_id":"ce4bh692rcd13ifvqea0","pricing_plan_id":"cebpf4jnsgd1na2vs0mg"},{"bike_id":"b4516ec2-a978-4cde-91ab-30f07637762c","system_id":"levelo_inurba_marseille","lat":43.29728,"lon":5.37685,"is_reserved":false,"is_disabled":false,"rental_uris":{"android":"levelo://app?vid=b4516ec2-a978-4cde-91ab-30f07637762c","ios":"levelo://app?vid=b4516ec2-a978-4cde-91ab-30f07637762c"},"vehicle_type_id":"4","last_reported":1732111732,"current_range_meters":26800,"station_id":"ce4bgkh2rcd13ifvqbl0","pricing_plan_id":"cebpf4jnsgd1na2vs0mg"},{"bike_id":"59fe6ac7-ab5f-448b-a0dd-f0905e4f654e","system_id":"levelo_inurba_marseille","lat":43.28852,"lon":5.35842,"is_reserved":false,"is_disabled":false,"rental_uris":{"android":"levelo://app?vid=59fe6ac7-ab5f-448b-a0dd-f0905e4f654e","ios":"levelo://app?vid=59fe6ac7-ab5f-448b-a0dd-f0905e4f654e"},"vehicle_type_id":"4","last_reported":1732111732,"current_range_meters":24000,"station_id":"ce4bhb12rcd13ifvqem0","pricing_plan_id":"cebpf4jnsgd1na2vs0mg"},{"bike_id":"10815b4d-f630-46e4-b054-3a315a68514f","system_id":"levelo_inurba_marseille","lat":43.33727,"lon":5.39191,"is_reserved":false,"is_disabled":false,"rental_uris":{"android":"levelo://app?vid=10815b4d-f630-46e4-b054-3a315a68514f","ios":"levelo://app?vid=10815b4d-f630-46e4-b054-3a315a68514f"},"vehicle_type_id":"4","last_reported":1732111732,"current_range_meters":38000,"station_id":"ce4bhr92rcd13ifvqhsg","pricing_plan_id":"cebpf4jnsgd1na2vs0mg"},{"bike_id":"c7c133c2-0a8d-40a8-9b43-d3bc14e56bef","system_id":"levelo_inurba_marseille","lat":43.27572,"lon":5.3843,"is_reserved":false,"is_disabled":true,"rental_uris":{"android":"levelo://app?vid=c7c133c2-0a8d-40a8-9b43-d3bc14e56bef","ios":"levelo://app?vid=c7c133c2-0a8d-40a8-9b43-d3bc14e56bef"},"vehicle_type_id":"4","last_reported":1732111732,"current_range_meters":1200,"station_id":"ce4bhh92rcd13ifvqfi0","pricing_plan_id":"cebpf4jnsgd1na2vs0mg"},{"bike_id":"9dca6eee-44cb-49e6-9031-9b11543291c1","system_id":"levelo_inurba_marseille","lat":43.2572,"lon":5.41118,"is_reserved":false,"is_disabled":false,"rental_uris":{"android":"levelo://app?vid=9dca6eee-44cb-49e6-9031-9b11543291c1","ios":"levelo://app?vid=9dca6eee-44cb-49e6-9031-9b11543291c1"},"vehicle_type_id":"4","last_reported":1732111732,"current_range_meters":16400,"station_id":"ce4bhkp2rcd13ifvqgd0","pricing_plan_id":"cebpf4jnsgd1na2vs0mg"},{"bike_id":"49150ae4-5d3b-425c-bcef-85359c68b429","system_id":"levelo_inurba_marseille","lat":43.25101,"lon":5.40322,"is_reserved":false,"is_disabled":false,"rental_uris":{"android":"levelo://app?vid=49150ae4-5d3b-425c-bcef-85359c68b429","ios":"levelo://app?vid=49150ae4-5d3b-425c-bcef-85359c68b429"},"vehicle_type_id":"4","last_reported":1732111732,"current_range_meters":14400,"station_id":"ce4bhlh2rcd13ifvqgig","pricing_plan_id":"cebpf4jnsgd1na2vs0mg"},{"bike_id":"0dcd8cb5-6d23-418f-8621-d4558f7ce32b","system_id":"levelo_inurba_marseille","lat":43.28031,"lon":5.36949,"is_reserved":false,"is_disabled":false,"rental_uris":{"android":"levelo://app?vid=0dcd8cb5-6d23-418f-8621-d4558f7ce32b","ios":"levelo://app?vid=0dcd8cb5-6d23-418f-8621-d4558f7ce32b"},"vehicle_type_id":"4","last_reported":1732111732,"current_range_meters":17200,"station_id":"ce4bha12rcd13ifvqef0","pricing_plan_id":"cebpf4jnsgd1na2vs0mg"},{"bike_id":"0dc4a3bf-2fba-424f-bfdf-6329c2972485","system_id":"levelo_inurba_marseille","lat":43.26686,"lon":5.3827,"is_reserved":false,"is_disabled":false,"rental_uris":{"android":"levelo://app?vid=0dc4a3bf-2fba-424f-bfdf-6329c2972485","ios":"levelo://app?vid=0dc4a3bf-2fba-424f-bfdf-6329c2972485"},"vehicle_type_id":"4","last_reported":1732111732,"current_range_meters":25200,"station_id":"ce4bhg92rcd13ifvqf90","pricing_plan_id":"cebpf4jnsgd1na2vs0mg"},{"bike_id":"a294dff0-fd60-4b5a-a5bb-f8c183996e85","system_id":"levelo_inurba_marseille","lat":43.30608,"lon":5.37234,"is_reserved":false,"is_disabled":false,"rental_uris":{"android":"levelo://app?vid=a294dff0-fd60-4b5a-a5bb-f8c183996e85","ios":"levelo://app?vid=a294dff0-fd60-4b5a-a5bb-f8c183996e85"},"vehicle_type_id":"4","last_reported":1732111732,"current_range_meters":38800,"station_id":"ce4bgqh2rcd13ifvqc4g","pricing_plan_id":"cebpf4jnsgd1na2vs0mg"},{"bike_id":"50a83727-dfbd-4746-8b9e-47103b9e715c","system_id":"levelo_inurba_marseille","lat":43.28109,"lon":5.378425,"is_reserved":false,"is_disabled":false,"rental_uris":{"android":"levelo://app?vid=50a83727-dfbd-4746-8b9e-47103b9e715c","ios":"levelo://app?vid=50a83727-dfbd-4746-8b9e-47103b9e715c"},"vehicle_type_id":"4","last_reported":1732111732,"current_range_meters":38000,"station_id":"ce4bha12rcd13ifvqee0","pricing_plan_id":"cebpf4jnsgd1na2vs0mg"},{"bike_id":"3ef4a49a-b5cf-4943-944f-ed973105b6c6","system_id":"levelo_inurba_marseille","lat":43.30522,"lon":5.36557,"is_reserved":false,"is_disabled":false,"rental_uris":{"android":"levelo://app?vid=3ef4a49a-b5cf-4943-944f-ed973105b6c6","ios":"levelo://app?vid=3ef4a49a-b5cf-4943-944f-ed973105b6c6"},"vehicle_type_id":"4","last_reported":1732111732,"current_range_meters":35600,"station_id":"ce4bgs12rcd13ifvqcag","pricing_plan_id":"cebpf4jnsgd1na2vs0mg"},{"bike_id":"6ff2b797-23e9-4a9c-8cd0-6471cc01eec6","system_id":"levelo_inurba_marseille","lat":43.25729,"lon":5.41113,"is_reserved":false,"is_disabled":false,"rental_uris":{"android":"levelo://app?vid=6ff2b797-23e9-4a9c-8cd0-6471cc01eec6","ios":"levelo://app?vid=6ff2b797-23e9-4a9c-8cd0-6471cc01eec6"},"vehicle_type_id":"4","last_reported":1732111732,"current_range_meters":30400,"station_id":"ce4bhkp2rcd13ifvqgd0","pricing_plan_id":"cebpf4jnsgd1na2vs0mg"},{"bike_id":"f5cf085e-8694-4c6f-ba9c-aa6e0d3c58c6","system_id":"levelo_inurba_marseille","lat":43.33677,"lon":5.35593,"is_reserved":false,"is_disabled":true,"rental_uris":{"android":"levelo://app?vid=f5cf085e-8694-4c6f-ba9c-aa6e0d3c58c6","ios":"levelo://app?vid=f5cf085e-8694-4c6f-ba9c-aa6e0d3c58c6"},"vehicle_type_id":"4","last_reported":1732111732,"current_range_meters":11200,"station_id":"","pricing_plan_id":"cebpf4jnsgd1na2vs0mg"},{"bike_id":"3d2beca7-eef0-4bae-98e1-8b3de347272c","system_id":"levelo_inurba_marseille","lat":43.23192,"lon":5.35554,"is_reserved":false,"is_disabled":false,"rental_uris":{"android":"levelo://app?vid=3d2beca7-eef0-4bae-98e1-8b3de347272c","ios":"levelo://app?vid=3d2beca7-eef0-4bae-98e1-8b3de347272c"},"vehicle_type_id":"4","last_reported":1732111732,"current_range_meters":37600,"station_id":"ce4bhu92rcd13ifvqi70","pricing_plan_id":"cebpf4jnsgd1na2vs0mg"},{"bike_id":"3274e2e0-6c9a-427a-aeef-d09c7ae3cb79","system_id":"levelo_inurba_marseille","lat":43.29795,"lon":5.39341,"is_reserved":false,"is_disabled":false,"rental_uris":{"android":"levelo://app?vid=3274e2e0-6c9a-427a-aeef-d09c7ae3cb79","ios":"levelo://app?vid=3274e2e0-6c9a-427a-aeef-d09c7ae3cb79"},"vehicle_type_id":"4","last_reported":1732111732,"current_range_meters":28800,"station_id":"chh1huq6cuj3fo74tm60","pricing_plan_id":"cebpf4jnsgd1na2vs0mg"},{"bike_id":"a783b28e-6532-40d1-ba29-12b68761c1b6","system_id":"levelo_inurba_marseille","lat":43.26787,"lon":5.39412,"is_reserved":false,"is_disabled":false,"rental_uris":{"android":"levelo://app?vid=a783b28e-6532-40d1-ba29-12b68761c1b6","ios":"levelo://app?vid=a783b28e-6532-40d1-ba29-12b68761c1b6"},"vehicle_type_id":"4","last_reported":1732111732,"current_range_meters":34800,"station_id":"ce4bhh12rcd13ifvqfg0","pricing_plan_id":"cebpf4jnsgd1na2vs0mg"},{"bike_id":"ccd50d75-83ba-44e8-8889-51c560c2d710","system_id":"levelo_inurba_marseille","lat":43.31223,"lon":5.36855,"is_reserved":false,"is_disabled":false,"rental_uris":{"android":"levelo://app?vid=ccd50d75-83ba-44e8-8889-51c560c2d710","ios":"levelo://app?vid=ccd50d75-83ba-44e8-8889-51c560c2d710"},"vehicle_type_id":"4","last_reported":1732111732,"current_range_meters":29600,"station_id":"ce4bgl92rcd13ifvqbq0","pricing_plan_id":"cebpf4jnsgd1na2vs0mg"},{"bike_id":"e57590cc-a844-462b-b95c-023047b497c3","system_id":"levelo_inurba_marseille","lat":43.26024,"lon":5.37551,"is_reserved":false,"is_disabled":true,"rental_uris":{"android":"levelo://app?vid=e57590cc-a844-462b-b95c-023047b497c3","ios":"levelo://app?vid=e57590cc-a844-462b-b95c-023047b497c3"},"vehicle_type_id":"4","last_reported":1732111732,"current_range_meters":0,"station_id":"ce4bhgh2rcd13ifvqfa0","pricing_plan_id":"cebpf4jnsgd1na2vs0mg"},{"bike_id":"b4c24d19-0476-43cc-8f31-c4ec3ed06b30","system_id":"levelo_inurba_marseille","lat":43.31482,"lon":5.37308,"is_reserved":false,"is_disabled":false,"rental_uris":{"android":"levelo://app?vid=b4c24d19-0476-43cc-8f31-c4ec3ed06b30","ios":"levelo://app?vid=b4c24d19-0476-43cc-8f31-c4ec3ed06b30"},"vehicle_type_id":"4","last_reported":1732111732,"current_range_meters":20000,"station_id":"ce4bgt12rcd13ifvqcd0","pricing_plan_id":"cebpf4jnsgd1na2vs0mg"},{"bike_id":"f3a52da7-9a20-424d-95b2-19ad07370146","system_id":"levelo_inurba_marseille","lat":43.31167,"lon":5.38723,"is_reserved":false,"is_disabled":false,"rental_uris":{"android":"levelo://app?vid=f3a52da7-9a20-424d-95b2-19ad07370146","ios":"levelo://app?vid=f3a52da7-9a20-424d-95b2-19ad07370146"},"vehicle_type_id":"4","last_reported":1732111732,"current_range_meters":3600,"station_id":"ce4bgv12rcd13ifvqcp0","pricing_plan_id":"cebpf4jnsgd1na2vs0mg"},{"bike_id":"f4431c05-84ca-4361-b023-ac46c2699636","system_id":"levelo_inurba_marseille","lat":43.29533,"lon":5.38552,"is_reserved":false,"is_disabled":false,"rental_uris":{"android":"levelo://app?vid=f4431c05-84ca-4361-b023-ac46c2699636","ios":"levelo://app?vid=f4431c05-84ca-4361-b023-ac46c2699636"},"vehicle_type_id":"4","last_reported":1732111732,"current_range_meters":38800,"station_id":"ce4bgih2rcd13ifvqba0","pricing_plan_id":"cebpf4jnsgd1na2vs0mg"},{"bike_id":"e9a9effd-046a-4edc-b102-9e1530402b3f","system_id":"levelo_inurba_marseille","lat":43.33026,"lon":5.39048,"is_reserved":false,"is_disabled":false,"rental_uris":{"android":"levelo://app?vid=e9a9effd-046a-4edc-b102-9e1530402b3f","ios":"levelo://app?vid=e9a9effd-046a-4edc-b102-9e1530402b3f"},"vehicle_type_id":"4","last_reported":1732111732,"current_range_meters":19200,"station_id":"ce4bhr92rcd13ifvqhrg","pricing_plan_id":"cebpf4jnsgd1na2vs0mg"},{"bike_id":"4b0a3ab0-2dc0-4269-8965-cd0b5e0c9605","system_id":"levelo_inurba_marseille","lat":43.2905,"lon":5.35922,"is_reserved":false,"is_disabled":false,"rental_uris":{"android":"levelo://app?vid=4b0a3ab0-2dc0-4269-8965-cd0b5e0c9605","ios":"levelo://app?vid=4b0a3ab0-2dc0-4269-8965-cd0b5e0c9605"},"vehicle_type_id":"4","last_reported":1732111732,"current_range_meters":20800,"station_id":"ce4bha92rcd13ifvqeg0","pricing_plan_id":"cebpf4jnsgd1na2vs0mg"},{"bike_id":"31c9606e-bfa2-4323-a7f9-71883460cfb5","system_id":"levelo_inurba_marseille","lat":43.30413,"lon":5.39756,"is_reserved":false,"is_disabled":false,"rental_uris":{"android":"levelo://app?vid=31c9606e-bfa2-4323-a7f9-71883460cfb5","ios":"levelo://app?vid=31c9606e-bfa2-4323-a7f9-71883460cfb5"},"vehicle_type_id":"4","last_reported":1732111732,"current_range_meters":35200,"station_id":"ce4bh092rcd13ifvqd20","pricing_plan_id":"cebpf4jnsgd1na2vs0mg"},{"bike_id":"9beabdc8-a2b2-4b1e-b24a-f5ebad04b4ce","system_id":"levelo_inurba_marseille","lat":43.28713,"lon":5.3794,"is_reserved":false,"is_disabled":false,"rental_uris":{"android":"levelo://app?vid=9beabdc8-a2b2-4b1e-b24a-f5ebad04b4ce","ios":"levelo://app?vid=9beabdc8-a2b2-4b1e-b24a-f5ebad04b4ce"},"vehicle_type_id":"4","last_reported":1732111732,"current_range_meters":14800,"station_id":"ce4bh9p2rcd13ifvqec0","pricing_plan_id":"cebpf4jnsgd1na2vs0mg"},{"bike_id":"a4f04d79-4fe5-464f-a1c2-4669e7fe3c23","system_id":"levelo_inurba_marseille","lat":43.29913,"lon":5.38141,"is_reserved":false,"is_disabled":false,"rental_uris":{"android":"levelo://app?vid=a4f04d79-4fe5-464f-a1c2-4669e7fe3c23","ios":"levelo://app?vid=a4f04d79-4fe5-464f-a1c2-4669e7fe3c23"},"vehicle_type_id":"4","last_reported":1732111732,"current_range_meters":24800,"station_id":"ce4bgj12rcd13ifvqbc0","pricing_plan_id":"cebpf4jnsgd1na2vs0mg"},{"bike_id":"b577db40-99a8-416c-97ee-c118609a215a","system_id":"levelo_inurba_marseille","lat":43.23773,"lon":5.36406,"is_reserved":false,"is_disabled":false,"rental_uris":{"android":"levelo://app?vid=b577db40-99a8-416c-97ee-c118609a215a","ios":"levelo://app?vid=b577db40-99a8-416c-97ee-c118609a215a"},"vehicle_type_id":"4","last_reported":1732111732,"current_range_meters":36000,"station_id":"","pricing_plan_id":"cebpf4jnsgd1na2vs0mg"},{"bike_id":"91db143c-2c20-40d0-a42e-804262008b89","system_id":"levelo_inurba_marseille","lat":43.28715,"lon":5.37936,"is_reserved":false,"is_disabled":false,"rental_uris":{"android":"levelo://app?vid=91db143c-2c20-40d0-a42e-804262008b89","ios":"levelo://app?vid=91db143c-2c20-40d0-a42e-804262008b89"},"vehicle_type_id":"4","last_reported":1732111732,"current_range_meters":14800,"station_id":"ce4bh9p2rcd13ifvqec0","pricing_plan_id":"cebpf4jnsgd1na2vs0mg"},{"bike_id":"eabe4f73-cbe4-46bc-b76e-1dbe7fcdadbd","system_id":"levelo_inurba_marseille","lat":43.30534,"lon":5.38435,"is_reserved":false,"is_disabled":true,"rental_uris":{"android":"levelo://app?vid=eabe4f73-cbe4-46bc-b76e-1dbe7fcdadbd","ios":"levelo://app?vid=eabe4f73-cbe4-46bc-b76e-1dbe7fcdadbd"},"vehicle_type_id":"4","last_reported":1732111732,"current_range_meters":0,"station_id":"ce4bgg92rcd13ifvqb30","pricing_plan_id":"cebpf4jnsgd1na2vs0mg"},{"bike_id":"cdaafd2d-0da1-4fac-9881-15c66a7cd7c0","system_id":"levelo_inurba_marseille","lat":43.2315,"lon":5.43707,"is_reserved":false,"is_disabled":true,"rental_uris":{"android":"levelo://app?vid=cdaafd2d-0da1-4fac-9881-15c66a7cd7c0","ios":"levelo://app?vid=cdaafd2d-0da1-4fac-9881-15c66a7cd7c0"},"vehicle_type_id":"4","last_reported":1732111732,"current_range_meters":0,"station_id":"ce4bhmp2rcd13ifvqgog","pricing_plan_id":"cebpf4jnsgd1na2vs0mg"},{"bike_id":"571ebf17-9551-4693-af9a-d47668470fe6","system_id":"levelo_inurba_marseille","lat":43.32365,"lon":5.38883,"is_reserved":false,"is_disabled":false,"rental_uris":{"android":"levelo://app?vid=571ebf17-9551-4693-af9a-d47668470fe6","ios":"levelo://app?vid=571ebf17-9551-4693-af9a-d47668470fe6"},"vehicle_type_id":"4","last_reported":1732111732,"current_range_meters":8400,"station_id":"ce4bhqp2rcd13ifvqhog","pricing_plan_id":"cebpf4jnsgd1na2vs0mg"},{"bike_id":"7f61fd5a-be9a-465c-b64b-41f64c471059","system_id":"levelo_inurba_marseille","lat":43.30541,"lon":5.36556,"is_reserved":false,"is_disabled":false,"rental_uris":{"android":"levelo://app?vid=7f61fd5a-be9a-465c-b64b-41f64c471059","ios":"levelo://app?vid=7f61fd5a-be9a-465c-b64b-41f64c471059"},"vehicle_type_id":"4","last_reported":1732111732,"current_range_meters":18000,"station_id":"ce4bgs12rcd13ifvqcag","pricing_plan_id":"cebpf4jnsgd1na2vs0mg"},{"bike_id":"8d5ad0a8-268e-4afd-be61-7919f93826c7","system_id":"levelo_inurba_marseille","lat":43.29916,"lon":5.37475,"is_reserved":false,"is_disabled":true,"rental_uris":{"android":"levelo://app?vid=8d5ad0a8-268e-4afd-be61-7919f93826c7","ios":"levelo://app?vid=8d5ad0a8-268e-4afd-be61-7919f93826c7"},"vehicle_type_id":"4","last_reported":1732111732,"current_range_meters":38000,"station_id":"ce4bgjh2rcd13ifvqbg0","pricing_plan_id":"cebpf4jnsgd1na2vs0mg"},{"bike_id":"f198b97b-88d4-49aa-b205-4610520421a6","system_id":"levelo_inurba_marseille","lat":43.33026,"lon":5.39039,"is_reserved":false,"is_disabled":false,"rental_uris":{"android":"levelo://app?vid=f198b97b-88d4-49aa-b205-4610520421a6","ios":"levelo://app?vid=f198b97b-88d4-49aa-b205-4610520421a6"},"vehicle_type_id":"4","last_reported":1732111732,"current_range_meters":33200,"station_id":"ce4bhr92rcd13ifvqhrg","pricing_plan_id":"cebpf4jnsgd1na2vs0mg"},{"bike_id":"b7975300-ba63-480b-8a82-8c5a1cbb8034","system_id":"levelo_inurba_marseille","lat":43.30953,"lon":5.39036,"is_reserved":false,"is_disabled":false,"rental_uris":{"android":"levelo://app?vid=b7975300-ba63-480b-8a82-8c5a1cbb8034","ios":"levelo://app?vid=b7975300-ba63-480b-8a82-8c5a1cbb8034"},"vehicle_type_id":"4","last_reported":1732111732,"current_range_meters":31200,"station_id":"ce4bgup2rcd13ifvqco0","pricing_plan_id":"cebpf4jnsgd1na2vs0mg"},{"bike_id":"20231e00-bfca-448e-9021-13e01c2711d0","system_id":"levelo_inurba_marseille","lat":43.25869,"lon":5.39907,"is_reserved":false,"is_disabled":false,"rental_uris":{"android":"levelo://app?vid=20231e00-bfca-448e-9021-13e01c2711d0","ios":"levelo://app?vid=20231e00-bfca-448e-9021-13e01c2711d0"},"vehicle_type_id":"4","last_reported":1732111732,"current_range_meters":27200,"station_id":"ce4bhl92rcd13ifvqghg","pricing_plan_id":"cebpf4jnsgd1na2vs0mg"},{"bike_id":"4a9a7800-13f1-427a-9c81-000b981e4c98","system_id":"levelo_inurba_marseille","lat":43.273623,"lon":5.362558,"is_reserved":false,"is_disabled":false,"rental_uris":{"android":"levelo://app?vid=4a9a7800-13f1-427a-9c81-000b981e4c98","ios":"levelo://app?vid=4a9a7800-13f1-427a-9c81-000b981e4c98"},"vehicle_type_id":"4","last_reported":1732111732,"current_range_meters":24000,"station_id":"ce4bhbh2rcd13ifvqeo0","pricing_plan_id":"cebpf4jnsgd1na2vs0mg"},{"bike_id":"9df16021-471e-4ef6-9340-e233fcc32213","system_id":"levelo_inurba_marseille","lat":43.25117,"lon":5.40317,"is_reserved":false,"is_disabled":false,"rental_uris":{"android":"levelo://app?vid=9df16021-471e-4ef6-9340-e233fcc32213","ios":"levelo://app?vid=9df16021-471e-4ef6-9340-e233fcc32213"},"vehicle_type_id":"4","last_reported":1732111732,"current_range_meters":8400,"station_id":"ce4bhlh2rcd13ifvqgig","pricing_plan_id":"cebpf4jnsgd1na2vs0mg"},{"bike_id":"d3e7f954-16ce-426c-b8f8-fa2346ee2a68","system_id":"levelo_inurba_marseille","lat":43.28666,"lon":5.36347,"is_reserved":false,"is_disabled":false,"rental_uris":{"android":"levelo://app?vid=d3e7f954-16ce-426c-b8f8-fa2346ee2a68","ios":"levelo://app?vid=d3e7f954-16ce-426c-b8f8-fa2346ee2a68"},"vehicle_type_id":"4","last_reported":1732111732,"current_range_meters":9200,"station_id":"ce4bhah2rcd13ifvqej0","pricing_plan_id":"cebpf4jnsgd1na2vs0mg"},{"bike_id":"cae1b0df-1f92-4462-be0f-51a2ccf26f14","system_id":"levelo_inurba_marseille","lat":43.2706,"lon":5.40262,"is_reserved":false,"is_disabled":false,"rental_uris":{"android":"levelo://app?vid=cae1b0df-1f92-4462-be0f-51a2ccf26f14","ios":"levelo://app?vid=cae1b0df-1f92-4462-be0f-51a2ccf26f14"},"vehicle_type_id":"4","last_reported":1732111732,"current_range_meters":23200,"station_id":"ce4bhk92rcd13ifvqgc0","pricing_plan_id":"cebpf4jnsgd1na2vs0mg"},{"bike_id":"6a9c3b42-bbed-4a17-9d21-9d400d11f331","system_id":"levelo_inurba_marseille","lat":43.32484,"lon":5.36572,"is_reserved":false,"is_disabled":false,"rental_uris":{"android":"levelo://app?vid=6a9c3b42-bbed-4a17-9d21-9d400d11f331","ios":"levelo://app?vid=6a9c3b42-bbed-4a17-9d21-9d400d11f331"},"vehicle_type_id":"4","last_reported":1732111732,"current_range_meters":37600,"station_id":"ce4bhs12rcd13ifvqhvg","pricing_plan_id":"cebpf4jnsgd1na2vs0mg"},{"bike_id":"d77e99d3-4473-4f3a-a588-d856cf1dc59a","system_id":"levelo_inurba_marseille","lat":43.2919,"lon":5.35796,"is_reserved":false,"is_disabled":false,"rental_uris":{"android":"levelo://app?vid=d77e99d3-4473-4f3a-a588-d856cf1dc59a","ios":"levelo://app?vid=d77e99d3-4473-4f3a-a588-d856cf1dc59a"},"vehicle_type_id":"4","last_reported":1732111732,"current_range_meters":7200,"station_id":"ce4bhb12rcd13ifvqel0","pricing_plan_id":"cebpf4jnsgd1na2vs0mg"},{"bike_id":"319639f6-c364-407e-9612-56f449d4d076","system_id":"levelo_inurba_marseille","lat":43.28073,"lon":5.39646,"is_reserved":false,"is_disabled":true,"rental_uris":{"android":"levelo://app?vid=319639f6-c364-407e-9612-56f449d4d076","ios":"levelo://app?vid=319639f6-c364-407e-9612-56f449d4d076"},"vehicle_type_id":"4","last_reported":1732111732,"current_range_meters":0,"station_id":"ce4bho12rcd13ifvqh2g","pricing_plan_id":"cebpf4jnsgd1na2vs0mg"},{"bike_id":"0fa9539a-7fcb-443c-ba98-0cbf52e808af","system_id":"levelo_inurba_marseille","lat":43.30593,"lon":5.37219,"is_reserved":false,"is_disabled":false,"rental_uris":{"android":"levelo://app?vid=0fa9539a-7fcb-443c-ba98-0cbf52e808af","ios":"levelo://app?vid=0fa9539a-7fcb-443c-ba98-0cbf52e808af"},"vehicle_type_id":"4","last_reported":1732111732,"current_range_meters":38400,"station_id":"ce4bgqh2rcd13ifvqc4g","pricing_plan_id":"cebpf4jnsgd1na2vs0mg"},{"bike_id":"2bd814a1-31fe-4fb9-9416-398b396e7296","system_id":"levelo_inurba_marseille","lat":43.29164,"lon":5.37167,"is_reserved":false,"is_disabled":false,"rental_uris":{"android":"levelo://app?vid=2bd814a1-31fe-4fb9-9416-398b396e7296","ios":"levelo://app?vid=2bd814a1-31fe-4fb9-9416-398b396e7296"},"vehicle_type_id":"4","last_reported":1732111732,"current_range_meters":24000,"station_id":"ce4bha92rcd13ifvqeh0","pricing_plan_id":"cebpf4jnsgd1na2vs0mg"},{"bike_id":"dd0e732a-65eb-407f-906d-f74caf84c28a","system_id":"levelo_inurba_marseille","lat":43.2973,"lon":5.3769,"is_reserved":false,"is_disabled":false,"rental_uris":{"android":"levelo://app?vid=dd0e732a-65eb-407f-906d-f74caf84c28a","ios":"levelo://app?vid=dd0e732a-65eb-407f-906d-f74caf84c28a"},"vehicle_type_id":"4","last_reported":1732111732,"current_range_meters":38000,"station_id":"ce4bgkh2rcd13ifvqbl0","pricing_plan_id":"cebpf4jnsgd1na2vs0mg"},{"bike_id":"cfd87b84-1a54-445c-a17e-1019b5f854e3","system_id":"levelo_inurba_marseille","lat":43.30942,"lon":5.39055,"is_reserved":false,"is_disabled":false,"rental_uris":{"android":"levelo://app?vid=cfd87b84-1a54-445c-a17e-1019b5f854e3","ios":"levelo://app?vid=cfd87b84-1a54-445c-a17e-1019b5f854e3"},"vehicle_type_id":"4","last_reported":1732111732,"current_range_meters":22000,"station_id":"ce4bgup2rcd13ifvqco0","pricing_plan_id":"cebpf4jnsgd1na2vs0mg"},{"bike_id":"f3ed74b7-b666-4dfa-8970-48319ed863a6","system_id":"levelo_inurba_marseille","lat":43.29003,"lon":5.35613,"is_reserved":false,"is_disabled":false,"rental_uris":{"android":"levelo://app?vid=f3ed74b7-b666-4dfa-8970-48319ed863a6","ios":"levelo://app?vid=f3ed74b7-b666-4dfa-8970-48319ed863a6"},"vehicle_type_id":"4","last_reported":1732111732,"current_range_meters":38800,"station_id":"ce4bhb92rcd13ifvqen0","pricing_plan_id":"cebpf4jnsgd1na2vs0mg"},{"bike_id":"c5f1db54-11ea-4990-b832-555ec10080b9","system_id":"levelo_inurba_marseille","lat":43.26559,"lon":5.39029,"is_reserved":false,"is_disabled":true,"rental_uris":{"android":"levelo://app?vid=c5f1db54-11ea-4990-b832-555ec10080b9","ios":"levelo://app?vid=c5f1db54-11ea-4990-b832-555ec10080b9"},"vehicle_type_id":"4","last_reported":1732111732,"current_range_meters":400,"station_id":"ce4bhe12rcd13ifvqf30","pricing_plan_id":"cebpf4jnsgd1na2vs0mg"},{"bike_id":"a858d3c9-f611-4d50-9c6e-5d3eb791536e","system_id":"levelo_inurba_marseille","lat":43.31328,"lon":5.397,"is_reserved":false,"is_disabled":false,"rental_uris":{"android":"levelo://app?vid=a858d3c9-f611-4d50-9c6e-5d3eb791536e","ios":"levelo://app?vid=a858d3c9-f611-4d50-9c6e-5d3eb791536e"},"vehicle_type_id":"4","last_reported":1732111732,"current_range_meters":31200,"station_id":"","pricing_plan_id":"cebpf4jnsgd1na2vs0mg"},{"bike_id":"9b4d52a8-a22b-418c-a556-65afaca3a235","system_id":"levelo_inurba_marseille","lat":43.33752,"lon":5.37454,"is_reserved":false,"is_disabled":false,"rental_uris":{"android":"levelo://app?vid=9b4d52a8-a22b-418c-a556-65afaca3a235","ios":"levelo://app?vid=9b4d52a8-a22b-418c-a556-65afaca3a235"},"vehicle_type_id":"4","last_reported":1732111732,"current_range_meters":16400,"station_id":"","pricing_plan_id":"cebpf4jnsgd1na2vs0mg"},{"bike_id":"4a480100-024d-48c9-89da-2b1b4df99533","system_id":"levelo_inurba_marseille","lat":43.30139,"lon":5.37416,"is_reserved":false,"is_disabled":false,"rental_uris":{"android":"levelo://app?vid=4a480100-024d-48c9-89da-2b1b4df99533","ios":"levelo://app?vid=4a480100-024d-48c9-89da-2b1b4df99533"},"vehicle_type_id":"4","last_reported":1732111732,"current_range_meters":19200,"station_id":"ce4bgs92rcd13ifvqcc0","pricing_plan_id":"cebpf4jnsgd1na2vs0mg"},{"bike_id":"28013382-a13f-438d-a816-6c0d874cbecc","system_id":"levelo_inurba_marseille","lat":43.32648,"lon":5.41033,"is_reserved":false,"is_disabled":false,"rental_uris":{"android":"levelo://app?vid=28013382-a13f-438d-a816-6c0d874cbecc","ios":"levelo://app?vid=28013382-a13f-438d-a816-6c0d874cbecc"},"vehicle_type_id":"4","last_reported":1732111732,"current_range_meters":24000,"station_id":"ce4bhpp2rcd13ifvqhgg","pricing_plan_id":"cebpf4jnsgd1na2vs0mg"},{"bike_id":"b483aa49-d973-45b3-9e82-f4a2b89610a3","system_id":"levelo_inurba_marseille","lat":43.28077,"lon":5.39645,"is_reserved":false,"is_disabled":false,"rental_uris":{"android":"levelo://app?vid=b483aa49-d973-45b3-9e82-f4a2b89610a3","ios":"levelo://app?vid=b483aa49-d973-45b3-9e82-f4a2b89610a3"},"vehicle_type_id":"4","last_reported":1732111732,"current_range_meters":39200,"station_id":"ce4bho12rcd13ifvqh2g","pricing_plan_id":"cebpf4jnsgd1na2vs0mg"},{"bike_id":"5adc63a5-1251-4e0f-a23d-8ee6ab24af22","system_id":"levelo_inurba_marseille","lat":43.27615,"lon":5.36113,"is_reserved":false,"is_disabled":false,"rental_uris":{"android":"levelo://app?vid=5adc63a5-1251-4e0f-a23d-8ee6ab24af22","ios":"levelo://app?vid=5adc63a5-1251-4e0f-a23d-8ee6ab24af22"},"vehicle_type_id":"4","last_reported":1732111732,"current_range_meters":37600,"station_id":"ce4bgj92rcd13ifvqbe0","pricing_plan_id":"cebpf4jnsgd1na2vs0mg"},{"bike_id":"e74e8692-56b5-455e-b107-3674a73c30f0","system_id":"levelo_inurba_marseille","lat":43.29276,"lon":5.36849,"is_reserved":false,"is_disabled":false,"rental_uris":{"android":"levelo://app?vid=e74e8692-56b5-455e-b107-3674a73c30f0","ios":"levelo://app?vid=e74e8692-56b5-455e-b107-3674a73c30f0"},"vehicle_type_id":"4","last_reported":1732111732,"current_range_meters":38800,"station_id":"ce4bhbp2rcd13ifvqesg","pricing_plan_id":"cebpf4jnsgd1na2vs0mg"},{"bike_id":"c2bc37b6-5ed0-4b13-8ff8-732c3f06177b","system_id":"levelo_inurba_marseille","lat":43.25118,"lon":5.40319,"is_reserved":false,"is_disabled":false,"rental_uris":{"android":"levelo://app?vid=c2bc37b6-5ed0-4b13-8ff8-732c3f06177b","ios":"levelo://app?vid=c2bc37b6-5ed0-4b13-8ff8-732c3f06177b"},"vehicle_type_id":"4","last_reported":1732111732,"current_range_meters":8800,"station_id":"ce4bhlh2rcd13ifvqgig","pricing_plan_id":"cebpf4jnsgd1na2vs0mg"},{"bike_id":"03bfe0ed-d4a4-40c3-b1d2-21753729d4b0","system_id":"levelo_inurba_marseille","lat":43.30135,"lon":5.39863,"is_reserved":false,"is_disabled":false,"rental_uris":{"android":"levelo://app?vid=03bfe0ed-d4a4-40c3-b1d2-21753729d4b0","ios":"levelo://app?vid=03bfe0ed-d4a4-40c3-b1d2-21753729d4b0"},"vehicle_type_id":"4","last_reported":1732111732,"current_range_meters":24800,"station_id":"ce4bh0h2rcd13ifvqd40","pricing_plan_id":"cebpf4jnsgd1na2vs0mg"},{"bike_id":"f8d773ad-6117-441c-8a1f-2ad7889ac928","system_id":"levelo_inurba_marseille","lat":43.337444,"lon":5.374475,"is_reserved":false,"is_disabled":false,"rental_uris":{"android":"levelo://app?vid=f8d773ad-6117-441c-8a1f-2ad7889ac928","ios":"levelo://app?vid=f8d773ad-6117-441c-8a1f-2ad7889ac928"},"vehicle_type_id":"4","last_reported":1732111732,"current_range_meters":32800,"station_id":"","pricing_plan_id":"cebpf4jnsgd1na2vs0mg"},{"bike_id":"f25b7727-60a6-41a8-ba64-1371744b03bc","system_id":"levelo_inurba_marseille","lat":43.28357,"lon":5.38108,"is_reserved":false,"is_disabled":false,"rental_uris":{"android":"levelo://app?vid=f25b7727-60a6-41a8-ba64-1371744b03bc","ios":"levelo://app?vid=f25b7727-60a6-41a8-ba64-1371744b03bc"},"vehicle_type_id":"4","last_reported":1732111732,"current_range_meters":14800,"station_id":"ce4bh412rcd13ifvqdr0","pricing_plan_id":"cebpf4jnsgd1na2vs0mg"},{"bike_id":"a32613c2-ce23-4c6b-99d9-f02f377bc95a","system_id":"levelo_inurba_marseille","lat":43.337444,"lon":5.374475,"is_reserved":false,"is_disabled":false,"rental_uris":{"android":"levelo://app?vid=a32613c2-ce23-4c6b-99d9-f02f377bc95a","ios":"levelo://app?vid=a32613c2-ce23-4c6b-99d9-f02f377bc95a"},"vehicle_type_id":"4","last_reported":1732111732,"current_range_meters":38400,"station_id":"","pricing_plan_id":"cebpf4jnsgd1na2vs0mg"},{"bike_id":"9f1a81fd-399f-4ef6-aed6-c7b7e07d1ff4","system_id":"levelo_inurba_marseille","lat":43.27971,"lon":5.38748,"is_reserved":false,"is_disabled":false,"rental_uris":{"android":"levelo://app?vid=9f1a81fd-399f-4ef6-aed6-c7b7e07d1ff4","ios":"levelo://app?vid=9f1a81fd-399f-4ef6-aed6-c7b7e07d1ff4"},"vehicle_type_id":"4","last_reported":1732111732,"current_range_meters":29600,"station_id":"ce4bhg12rcd13ifvqf80","pricing_plan_id":"cebpf4jnsgd1na2vs0mg"},{"bike_id":"b776332e-40d1-4fd6-9c65-32803e6de98b","system_id":"levelo_inurba_marseille","lat":43.30464,"lon":5.36668,"is_reserved":false,"is_disabled":true,"rental_uris":{"android":"levelo://app?vid=b776332e-40d1-4fd6-9c65-32803e6de98b","ios":"levelo://app?vid=b776332e-40d1-4fd6-9c65-32803e6de98b"},"vehicle_type_id":"4","last_reported":1732111732,"current_range_meters":27200,"station_id":"","pricing_plan_id":"cebpf4jnsgd1na2vs0mg"},{"bike_id":"f4431127-8611-44b3-93ec-07b172a6f2aa","system_id":"levelo_inurba_marseille","lat":43.30351,"lon":5.4188,"is_reserved":false,"is_disabled":false,"rental_uris":{"android":"levelo://app?vid=f4431127-8611-44b3-93ec-07b172a6f2aa","ios":"levelo://app?vid=f4431127-8611-44b3-93ec-07b172a6f2aa"},"vehicle_type_id":"4","last_reported":1732111732,"current_range_meters":19600,"station_id":"ce4bhop2rcd13ifvqh7g","pricing_plan_id":"cebpf4jnsgd1na2vs0mg"},{"bike_id":"0b733133-03c9-4766-961e-92b775b50bbc","system_id":"levelo_inurba_marseille","lat":43.28222,"lon":5.4429,"is_reserved":false,"is_disabled":true,"rental_uris":{"android":"levelo://app?vid=0b733133-03c9-4766-961e-92b775b50bbc","ios":"levelo://app?vid=0b733133-03c9-4766-961e-92b775b50bbc"},"vehicle_type_id":"4","last_reported":1732111732,"current_range_meters":0,"station_id":"","pricing_plan_id":"cebpf4jnsgd1na2vs0mg"},{"bike_id":"4361da98-532b-4887-b85d-e7d76f30bc9f","system_id":"levelo_inurba_marseille","lat":43.30596,"lon":5.37214,"is_reserved":false,"is_disabled":false,"rental_uris":{"android":"levelo://app?vid=4361da98-532b-4887-b85d-e7d76f30bc9f","ios":"levelo://app?vid=4361da98-532b-4887-b85d-e7d76f30bc9f"},"vehicle_type_id":"4","last_reported":1732111732,"current_range_meters":38800,"station_id":"ce4bgqh2rcd13ifvqc4g","pricing_plan_id":"cebpf4jnsgd1na2vs0mg"},{"bike_id":"e4c11769-2c19-46a4-a622-9a2180bb2646","system_id":"levelo_inurba_marseille","lat":43.23149,"lon":5.43709,"is_reserved":false,"is_disabled":false,"rental_uris":{"android":"levelo://app?vid=e4c11769-2c19-46a4-a622-9a2180bb2646","ios":"levelo://app?vid=e4c11769-2c19-46a4-a622-9a2180bb2646"},"vehicle_type_id":"4","last_reported":1732111732,"current_range_meters":38800,"station_id":"ce4bhmp2rcd13ifvqgog","pricing_plan_id":"cebpf4jnsgd1na2vs0mg"},{"bike_id":"9306b24a-9f97-4c4e-87cf-0a00991bd69f","system_id":"levelo_inurba_marseille","lat":43.31274,"lon":5.40179,"is_reserved":false,"is_disabled":false,"rental_uris":{"android":"levelo://app?vid=9306b24a-9f97-4c4e-87cf-0a00991bd69f","ios":"levelo://app?vid=9306b24a-9f97-4c4e-87cf-0a00991bd69f"},"vehicle_type_id":"4","last_reported":1732111732,"current_range_meters":38000,"station_id":"ce4bh092rcd13ifvqd30","pricing_plan_id":"cebpf4jnsgd1na2vs0mg"},{"bike_id":"15c4ff60-cee9-4ab7-9aea-0179acf02883","system_id":"levelo_inurba_marseille","lat":43.30198,"lon":5.39456,"is_reserved":false,"is_disabled":false,"rental_uris":{"android":"levelo://app?vid=15c4ff60-cee9-4ab7-9aea-0179acf02883","ios":"levelo://app?vid=15c4ff60-cee9-4ab7-9aea-0179acf02883"},"vehicle_type_id":"4","last_reported":1732111732,"current_range_meters":36800,"station_id":"ce4bh0p2rcd13ifvqd70","pricing_plan_id":"cebpf4jnsgd1na2vs0mg"},{"bike_id":"b1cedc83-c61f-4409-9668-a0092534a00a","system_id":"levelo_inurba_marseille","lat":43.2861,"lon":5.37071,"is_reserved":false,"is_disabled":false,"rental_uris":{"android":"levelo://app?vid=b1cedc83-c61f-4409-9668-a0092534a00a","ios":"levelo://app?vid=b1cedc83-c61f-4409-9668-a0092534a00a"},"vehicle_type_id":"4","last_reported":1732111732,"current_range_meters":7200,"station_id":"ce4bht12rcd13ifvqi60","pricing_plan_id":"cebpf4jnsgd1na2vs0mg"},{"bike_id":"a6eb028f-ec3f-4274-b618-56c594a327df","system_id":"levelo_inurba_marseille","lat":43.27569,"lon":5.38433,"is_reserved":false,"is_disabled":false,"rental_uris":{"android":"levelo://app?vid=a6eb028f-ec3f-4274-b618-56c594a327df","ios":"levelo://app?vid=a6eb028f-ec3f-4274-b618-56c594a327df"},"vehicle_type_id":"4","last_reported":1732111732,"current_range_meters":36000,"station_id":"ce4bhh92rcd13ifvqfi0","pricing_plan_id":"cebpf4jnsgd1na2vs0mg"},{"bike_id":"9a6e9d2b-b637-4bc6-a805-86f3609bfac4","system_id":"levelo_inurba_marseille","lat":43.29799,"lon":5.38085,"is_reserved":false,"is_disabled":false,"rental_uris":{"android":"levelo://app?vid=9a6e9d2b-b637-4bc6-a805-86f3609bfac4","ios":"levelo://app?vid=9a6e9d2b-b637-4bc6-a805-86f3609bfac4"},"vehicle_type_id":"4","last_reported":1732111732,"current_range_meters":17600,"station_id":"ce4bgip2rcd13ifvqbb0","pricing_plan_id":"cebpf4jnsgd1na2vs0mg"},{"bike_id":"6ae2294f-a677-4a4f-acc8-c2dceb2f80d1","system_id":"levelo_inurba_marseille","lat":43.30549,"lon":5.36534,"is_reserved":false,"is_disabled":false,"rental_uris":{"android":"levelo://app?vid=6ae2294f-a677-4a4f-acc8-c2dceb2f80d1","ios":"levelo://app?vid=6ae2294f-a677-4a4f-acc8-c2dceb2f80d1"},"vehicle_type_id":"4","last_reported":1732111732,"current_range_meters":29600,"station_id":"ce4bgs12rcd13ifvqcag","pricing_plan_id":"cebpf4jnsgd1na2vs0mg"},{"bike_id":"8818b0a7-c814-4461-bb43-5fd8c33bac08","system_id":"levelo_inurba_marseille","lat":43.3302,"lon":5.39033,"is_reserved":false,"is_disabled":false,"rental_uris":{"android":"levelo://app?vid=8818b0a7-c814-4461-bb43-5fd8c33bac08","ios":"levelo://app?vid=8818b0a7-c814-4461-bb43-5fd8c33bac08"},"vehicle_type_id":"4","last_reported":1732111732,"current_range_meters":30400,"station_id":"ce4bhr92rcd13ifvqhrg","pricing_plan_id":"cebpf4jnsgd1na2vs0mg"},{"bike_id":"9bfd5c37-eeed-4e71-98b1-f66e42c13e1f","system_id":"levelo_inurba_marseille","lat":43.2621,"lon":5.37445,"is_reserved":false,"is_disabled":false,"rental_uris":{"android":"levelo://app?vid=9bfd5c37-eeed-4e71-98b1-f66e42c13e1f","ios":"levelo://app?vid=9bfd5c37-eeed-4e71-98b1-f66e42c13e1f"},"vehicle_type_id":"4","last_reported":1732111732,"current_range_meters":7200,"station_id":"ce4bhgp2rcd13ifvqfc0","pricing_plan_id":"cebpf4jnsgd1na2vs0mg"},{"bike_id":"1904e4d6-e1e0-456f-9800-8b0e0e7107b4","system_id":"levelo_inurba_marseille","lat":43.23153,"lon":5.4371,"is_reserved":false,"is_disabled":true,"rental_uris":{"android":"levelo://app?vid=1904e4d6-e1e0-456f-9800-8b0e0e7107b4","ios":"levelo://app?vid=1904e4d6-e1e0-456f-9800-8b0e0e7107b4"},"vehicle_type_id":"4","last_reported":1732111732,"current_range_meters":0,"station_id":"ce4bhmp2rcd13ifvqgog","pricing_plan_id":"cebpf4jnsgd1na2vs0mg"},{"bike_id":"c25de37d-33b2-4372-a08d-e17c37a715b8","system_id":"levelo_inurba_marseille","lat":43.26495,"lon":5.39542,"is_reserved":false,"is_disabled":false,"rental_uris":{"android":"levelo://app?vid=c25de37d-33b2-4372-a08d-e17c37a715b8","ios":"levelo://app?vid=c25de37d-33b2-4372-a08d-e17c37a715b8"},"vehicle_type_id":"4","last_reported":1732111732,"current_range_meters":28400,"station_id":"ce4bhi12rcd13ifvqfq0","pricing_plan_id":"cebpf4jnsgd1na2vs0mg"},{"bike_id":"5bed771e-39e5-41eb-a8cc-e9dd79035ab2","system_id":"levelo_inurba_marseille","lat":43.32106,"lon":5.36778,"is_reserved":false,"is_disabled":false,"rental_uris":{"android":"levelo://app?vid=5bed771e-39e5-41eb-a8cc-e9dd79035ab2","ios":"levelo://app?vid=5bed771e-39e5-41eb-a8cc-e9dd79035ab2"},"vehicle_type_id":"4","last_reported":1732111732,"current_range_meters":25600,"station_id":"ce4bhrh2rcd13ifvqhug","pricing_plan_id":"cebpf4jnsgd1na2vs0mg"},{"bike_id":"1eff5ce5-2d56-4465-a12c-60db9ec2175a","system_id":"levelo_inurba_marseille","lat":43.22928,"lon":5.35375,"is_reserved":false,"is_disabled":false,"rental_uris":{"android":"levelo://app?vid=1eff5ce5-2d56-4465-a12c-60db9ec2175a","ios":"levelo://app?vid=1eff5ce5-2d56-4465-a12c-60db9ec2175a"},"vehicle_type_id":"4","last_reported":1732111732,"current_range_meters":16000,"station_id":"cpo3532slgdg3j2ikp40","pricing_plan_id":"cebpf4jnsgd1na2vs0mg"},{"bike_id":"2ababd92-0357-4cfc-b6e0-d35df1f43f27","system_id":"levelo_inurba_marseille","lat":43.30227,"lon":5.40049,"is_reserved":false,"is_disabled":true,"rental_uris":{"android":"levelo://app?vid=2ababd92-0357-4cfc-b6e0-d35df1f43f27","ios":"levelo://app?vid=2ababd92-0357-4cfc-b6e0-d35df1f43f27"},"vehicle_type_id":"4","last_reported":1732111732,"current_range_meters":400,"station_id":"ce4bgvh2rcd13ifvqcs0","pricing_plan_id":"cebpf4jnsgd1na2vs0mg"},{"bike_id":"f1126846-151c-41db-a723-1b5f4b356b87","system_id":"levelo_inurba_marseille","lat":43.32363,"lon":5.38884,"is_reserved":false,"is_disabled":true,"rental_uris":{"android":"levelo://app?vid=f1126846-151c-41db-a723-1b5f4b356b87","ios":"levelo://app?vid=f1126846-151c-41db-a723-1b5f4b356b87"},"vehicle_type_id":"4","last_reported":1732111732,"current_range_meters":14000,"station_id":"ce4bhqp2rcd13ifvqhog","pricing_plan_id":"cebpf4jnsgd1na2vs0mg"},{"bike_id":"4689a830-a91a-48a2-893a-ce714e6bee37","system_id":"levelo_inurba_marseille","lat":43.2808,"lon":5.39662,"is_reserved":false,"is_disabled":false,"rental_uris":{"android":"levelo://app?vid=4689a830-a91a-48a2-893a-ce714e6bee37","ios":"levelo://app?vid=4689a830-a91a-48a2-893a-ce714e6bee37"},"vehicle_type_id":"4","last_reported":1732111732,"current_range_meters":24800,"station_id":"ce4bho12rcd13ifvqh2g","pricing_plan_id":"cebpf4jnsgd1na2vs0mg"},{"bike_id":"9f3572b0-c0a7-43aa-8c1e-c100148af63b","system_id":"levelo_inurba_marseille","lat":43.29194,"lon":5.35805,"is_reserved":false,"is_disabled":false,"rental_uris":{"android":"levelo://app?vid=9f3572b0-c0a7-43aa-8c1e-c100148af63b","ios":"levelo://app?vid=9f3572b0-c0a7-43aa-8c1e-c100148af63b"},"vehicle_type_id":"4","last_reported":1732111732,"current_range_meters":37600,"station_id":"ce4bhb12rcd13ifvqel0","pricing_plan_id":"cebpf4jnsgd1na2vs0mg"},{"bike_id":"954054ad-77ac-46c3-a1b5-c8fc266a522b","system_id":"levelo_inurba_marseille","lat":43.31725,"lon":5.42397,"is_reserved":false,"is_disabled":false,"rental_uris":{"android":"levelo://app?vid=954054ad-77ac-46c3-a1b5-c8fc266a522b","ios":"levelo://app?vid=954054ad-77ac-46c3-a1b5-c8fc266a522b"},"vehicle_type_id":"4","last_reported":1732111732,"current_range_meters":38800,"station_id":"ce4bhp92rcd13ifvqhbg","pricing_plan_id":"cebpf4jnsgd1na2vs0mg"},{"bike_id":"3472a5b8-d9ec-4561-a5de-9d8a648831d2","system_id":"levelo_inurba_marseille","lat":43.2991,"lon":5.38139,"is_reserved":false,"is_disabled":false,"rental_uris":{"android":"levelo://app?vid=3472a5b8-d9ec-4561-a5de-9d8a648831d2","ios":"levelo://app?vid=3472a5b8-d9ec-4561-a5de-9d8a648831d2"},"vehicle_type_id":"4","last_reported":1732111732,"current_range_meters":14400,"station_id":"ce4bgj12rcd13ifvqbc0","pricing_plan_id":"cebpf4jnsgd1na2vs0mg"},{"bike_id":"9c4a655e-2680-4a60-a844-6a2ea62fb4b1","system_id":"levelo_inurba_marseille","lat":43.26074,"lon":5.39395,"is_reserved":false,"is_disabled":false,"rental_uris":{"android":"levelo://app?vid=9c4a655e-2680-4a60-a844-6a2ea62fb4b1","ios":"levelo://app?vid=9c4a655e-2680-4a60-a844-6a2ea62fb4b1"},"vehicle_type_id":"4","last_reported":1732111732,"current_range_meters":24800,"station_id":"ce4bhh92rcd13ifvqfj0","pricing_plan_id":"cebpf4jnsgd1na2vs0mg"},{"bike_id":"4c5785f2-c1d8-45b4-99f9-25002de0c209","system_id":"levelo_inurba_marseille","lat":43.25503,"lon":5.37654,"is_reserved":false,"is_disabled":false,"rental_uris":{"android":"levelo://app?vid=4c5785f2-c1d8-45b4-99f9-25002de0c209","ios":"levelo://app?vid=4c5785f2-c1d8-45b4-99f9-25002de0c209"},"vehicle_type_id":"4","last_reported":1732111732,"current_range_meters":36400,"station_id":"ce4bhh12rcd13ifvqff0","pricing_plan_id":"cebpf4jnsgd1na2vs0mg"},{"bike_id":"e840fe4f-47a0-4d31-8133-7c332a3d517a","system_id":"levelo_inurba_marseille","lat":43.31078,"lon":5.42432,"is_reserved":false,"is_disabled":true,"rental_uris":{"android":"levelo://app?vid=e840fe4f-47a0-4d31-8133-7c332a3d517a","ios":"levelo://app?vid=e840fe4f-47a0-4d31-8133-7c332a3d517a"},"vehicle_type_id":"4","last_reported":1732111732,"current_range_meters":10800,"station_id":"ce4bhp92rcd13ifvqhag","pricing_plan_id":"cebpf4jnsgd1na2vs0mg"},{"bike_id":"d005ff22-7aed-4e4b-8ec9-ea0e24db2b62","system_id":"levelo_inurba_marseille","lat":43.30214,"lon":5.39494,"is_reserved":false,"is_disabled":false,"rental_uris":{"android":"levelo://app?vid=d005ff22-7aed-4e4b-8ec9-ea0e24db2b62","ios":"levelo://app?vid=d005ff22-7aed-4e4b-8ec9-ea0e24db2b62"},"vehicle_type_id":"4","last_reported":1732111732,"current_range_meters":37600,"station_id":"ce4bh0p2rcd13ifvqd70","pricing_plan_id":"cebpf4jnsgd1na2vs0mg"},{"bike_id":"43fbabc0-6e3a-45c4-92e5-c6fffcee569e","system_id":"levelo_inurba_marseille","lat":43.28936,"lon":5.36636,"is_reserved":false,"is_disabled":false,"rental_uris":{"android":"levelo://app?vid=43fbabc0-6e3a-45c4-92e5-c6fffcee569e","ios":"levelo://app?vid=43fbabc0-6e3a-45c4-92e5-c6fffcee569e"},"vehicle_type_id":"4","last_reported":1732111732,"current_range_meters":39200,"station_id":"ce4bhap2rcd13ifvqek0","pricing_plan_id":"cebpf4jnsgd1na2vs0mg"},{"bike_id":"e75537ab-92a2-4e6f-aabf-418862852f15","system_id":"levelo_inurba_marseille","lat":43.29964,"lon":5.3851,"is_reserved":false,"is_disabled":true,"rental_uris":{"android":"levelo://app?vid=e75537ab-92a2-4e6f-aabf-418862852f15","ios":"levelo://app?vid=e75537ab-92a2-4e6f-aabf-418862852f15"},"vehicle_type_id":"4","last_reported":1732111732,"current_range_meters":0,"station_id":"ce4bgj92rcd13ifvqbd0","pricing_plan_id":"cebpf4jnsgd1na2vs0mg"},{"bike_id":"d42b59cb-0784-4ac2-915e-442f4f731589","system_id":"levelo_inurba_marseille","lat":43.30474,"lon":5.37904,"is_reserved":false,"is_disabled":false,"rental_uris":{"android":"levelo://app?vid=d42b59cb-0784-4ac2-915e-442f4f731589","ios":"levelo://app?vid=d42b59cb-0784-4ac2-915e-442f4f731589"},"vehicle_type_id":"4","last_reported":1732111732,"current_range_meters":24400,"station_id":"ce4bgup2rcd13ifvqcn0","pricing_plan_id":"cebpf4jnsgd1na2vs0mg"},{"bike_id":"a51d23a2-24dd-4073-a27b-f01da7d31255","system_id":"levelo_inurba_marseille","lat":43.28419,"lon":5.3499,"is_reserved":false,"is_disabled":false,"rental_uris":{"android":"levelo://app?vid=a51d23a2-24dd-4073-a27b-f01da7d31255","ios":"levelo://app?vid=a51d23a2-24dd-4073-a27b-f01da7d31255"},"vehicle_type_id":"4","last_reported":1732111732,"current_range_meters":26800,"station_id":"ce4bhbh2rcd13ifvqepg","pricing_plan_id":"cebpf4jnsgd1na2vs0mg"},{"bike_id":"a1cf6f06-44aa-4bc8-9eb2-8055a5e207a9","system_id":"levelo_inurba_marseille","lat":43.32476,"lon":5.36573,"is_reserved":false,"is_disabled":false,"rental_uris":{"android":"levelo://app?vid=a1cf6f06-44aa-4bc8-9eb2-8055a5e207a9","ios":"levelo://app?vid=a1cf6f06-44aa-4bc8-9eb2-8055a5e207a9"},"vehicle_type_id":"4","last_reported":1732111732,"current_range_meters":39200,"station_id":"ce4bhs12rcd13ifvqhvg","pricing_plan_id":"cebpf4jnsgd1na2vs0mg"},{"bike_id":"98b32e58-9186-4741-afff-13e77a09e04c","system_id":"levelo_inurba_marseille","lat":43.25084,"lon":5.39511,"is_reserved":false,"is_disabled":false,"rental_uris":{"android":"levelo://app?vid=98b32e58-9186-4741-afff-13e77a09e04c","ios":"levelo://app?vid=98b32e58-9186-4741-afff-13e77a09e04c"},"vehicle_type_id":"4","last_reported":1732111732,"current_range_meters":26800,"station_id":"ce4bhm12rcd13ifvqgkg","pricing_plan_id":"cebpf4jnsgd1na2vs0mg"},{"bike_id":"c884f1fd-97f4-4ca5-acb3-b3d72ddec71c","system_id":"levelo_inurba_marseille","lat":43.30433,"lon":5.38897,"is_reserved":false,"is_disabled":false,"rental_uris":{"android":"levelo://app?vid=c884f1fd-97f4-4ca5-acb3-b3d72ddec71c","ios":"levelo://app?vid=c884f1fd-97f4-4ca5-acb3-b3d72ddec71c"},"vehicle_type_id":"4","last_reported":1732111732,"current_range_meters":17600,"station_id":"ce4bgk12rcd13ifvqbi0","pricing_plan_id":"cebpf4jnsgd1na2vs0mg"},{"bike_id":"7bec47bd-edd4-4415-924c-dbdf57e3d376","system_id":"levelo_inurba_marseille","lat":43.31353,"lon":5.36708,"is_reserved":false,"is_disabled":false,"rental_uris":{"android":"levelo://app?vid=7bec47bd-edd4-4415-924c-dbdf57e3d376","ios":"levelo://app?vid=7bec47bd-edd4-4415-924c-dbdf57e3d376"},"vehicle_type_id":"4","last_reported":1732111732,"current_range_meters":38800,"station_id":"ce4bgr92rcd13ifvqc6g","pricing_plan_id":"cebpf4jnsgd1na2vs0mg"},{"bike_id":"7eaf5910-b4db-4259-961f-d6ce83b4b295","system_id":"levelo_inurba_marseille","lat":43.337444,"lon":5.374475,"is_reserved":false,"is_disabled":false,"rental_uris":{"android":"levelo://app?vid=7eaf5910-b4db-4259-961f-d6ce83b4b295","ios":"levelo://app?vid=7eaf5910-b4db-4259-961f-d6ce83b4b295"},"vehicle_type_id":"4","last_reported":1732111732,"current_range_meters":38000,"station_id":"","pricing_plan_id":"cebpf4jnsgd1na2vs0mg"},{"bike_id":"469d54d4-83a3-430b-857f-0eb300ae794d","system_id":"levelo_inurba_marseille","lat":43.26565,"lon":5.39014,"is_reserved":false,"is_disabled":false,"rental_uris":{"android":"levelo://app?vid=469d54d4-83a3-430b-857f-0eb300ae794d","ios":"levelo://app?vid=469d54d4-83a3-430b-857f-0eb300ae794d"},"vehicle_type_id":"4","last_reported":1732111732,"current_range_meters":38400,"station_id":"ce4bhe12rcd13ifvqf30","pricing_plan_id":"cebpf4jnsgd1na2vs0mg"},{"bike_id":"36664ebb-4ca8-4637-b42b-d46c14de65dd","system_id":"levelo_inurba_marseille","lat":43.30606,"lon":5.37218,"is_reserved":false,"is_disabled":false,"rental_uris":{"android":"levelo://app?vid=36664ebb-4ca8-4637-b42b-d46c14de65dd","ios":"levelo://app?vid=36664ebb-4ca8-4637-b42b-d46c14de65dd"},"vehicle_type_id":"4","last_reported":1732111732,"current_range_meters":38800,"station_id":"ce4bgqh2rcd13ifvqc4g","pricing_plan_id":"cebpf4jnsgd1na2vs0mg"},{"bike_id":"144b7443-439b-4eb3-a8bb-304f595a9422","system_id":"levelo_inurba_marseille","lat":43.28,"lon":5.40016,"is_reserved":false,"is_disabled":false,"rental_uris":{"android":"levelo://app?vid=144b7443-439b-4eb3-a8bb-304f595a9422","ios":"levelo://app?vid=144b7443-439b-4eb3-a8bb-304f595a9422"},"vehicle_type_id":"4","last_reported":1732111732,"current_range_meters":40000,"station_id":"ce4bho92rcd13ifvqh4g","pricing_plan_id":"cebpf4jnsgd1na2vs0mg"},{"bike_id":"05725ad4-e1a4-4023-9f02-37bc3fcd6926","system_id":"levelo_inurba_marseille","lat":43.23151,"lon":5.43705,"is_reserved":false,"is_disabled":false,"rental_uris":{"android":"levelo://app?vid=05725ad4-e1a4-4023-9f02-37bc3fcd6926","ios":"levelo://app?vid=05725ad4-e1a4-4023-9f02-37bc3fcd6926"},"vehicle_type_id":"4","last_reported":1732111732,"current_range_meters":38800,"station_id":"ce4bhmp2rcd13ifvqgog","pricing_plan_id":"cebpf4jnsgd1na2vs0mg"},{"bike_id":"cdef276e-b5a5-4022-b3eb-aef900f6b002","system_id":"levelo_inurba_marseille","lat":43.24387,"lon":5.37065,"is_reserved":false,"is_disabled":false,"rental_uris":{"android":"levelo://app?vid=cdef276e-b5a5-4022-b3eb-aef900f6b002","ios":"levelo://app?vid=cdef276e-b5a5-4022-b3eb-aef900f6b002"},"vehicle_type_id":"4","last_reported":1732111732,"current_range_meters":7200,"station_id":"ce4bhhh2rcd13ifvqfk0","pricing_plan_id":"cebpf4jnsgd1na2vs0mg"},{"bike_id":"c8cfc3df-530d-4c07-8631-f9e7aa1ea148","system_id":"levelo_inurba_marseille","lat":43.30567,"lon":5.367,"is_reserved":false,"is_disabled":false,"rental_uris":{"android":"levelo://app?vid=c8cfc3df-530d-4c07-8631-f9e7aa1ea148","ios":"levelo://app?vid=c8cfc3df-530d-4c07-8631-f9e7aa1ea148"},"vehicle_type_id":"4","last_reported":1732111732,"current_range_meters":28800,"station_id":"ce4bgrp2rcd13ifvqc9g","pricing_plan_id":"cebpf4jnsgd1na2vs0mg"},{"bike_id":"07aefd15-a845-40e1-b682-f0d6059f2cb6","system_id":"levelo_inurba_marseille","lat":43.319942,"lon":5.381525,"is_reserved":false,"is_disabled":false,"rental_uris":{"android":"levelo://app?vid=07aefd15-a845-40e1-b682-f0d6059f2cb6","ios":"levelo://app?vid=07aefd15-a845-40e1-b682-f0d6059f2cb6"},"vehicle_type_id":"4","last_reported":1732111732,"current_range_meters":38800,"station_id":"ce4bhr12rcd13ifvqhpg","pricing_plan_id":"cebpf4jnsgd1na2vs0mg"},{"bike_id":"5b5f4604-3a82-4584-a08b-4bc79bf3d12b","system_id":"levelo_inurba_marseille","lat":43.30911,"lon":5.371543,"is_reserved":false,"is_disabled":false,"rental_uris":{"android":"levelo://app?vid=5b5f4604-3a82-4584-a08b-4bc79bf3d12b","ios":"levelo://app?vid=5b5f4604-3a82-4584-a08b-4bc79bf3d12b"},"vehicle_type_id":"4","last_reported":1732111732,"current_range_meters":14400,"station_id":"ce4bguh2rcd13ifvqckg","pricing_plan_id":"cebpf4jnsgd1na2vs0mg"},{"bike_id":"4be42907-a17d-4528-aadb-4ee1624a0554","system_id":"levelo_inurba_marseille","lat":43.28036,"lon":5.36956,"is_reserved":false,"is_disabled":false,"rental_uris":{"android":"levelo://app?vid=4be42907-a17d-4528-aadb-4ee1624a0554","ios":"levelo://app?vid=4be42907-a17d-4528-aadb-4ee1624a0554"},"vehicle_type_id":"4","last_reported":1732111732,"current_range_meters":39200,"station_id":"ce4bha12rcd13ifvqef0","pricing_plan_id":"cebpf4jnsgd1na2vs0mg"},{"bike_id":"d6c2a78a-6826-4e08-bf3f-77f23395a4b0","system_id":"levelo_inurba_marseille","lat":43.26488,"lon":5.39544,"is_reserved":false,"is_disabled":false,"rental_uris":{"android":"levelo://app?vid=d6c2a78a-6826-4e08-bf3f-77f23395a4b0","ios":"levelo://app?vid=d6c2a78a-6826-4e08-bf3f-77f23395a4b0"},"vehicle_type_id":"4","last_reported":1732111732,"current_range_meters":8800,"station_id":"ce4bhi12rcd13ifvqfq0","pricing_plan_id":"cebpf4jnsgd1na2vs0mg"},{"bike_id":"f5f3f8ee-2210-4aed-bc82-7ad396cc3236","system_id":"levelo_inurba_marseille","lat":43.3056,"lon":5.36547,"is_reserved":false,"is_disabled":false,"rental_uris":{"android":"levelo://app?vid=f5f3f8ee-2210-4aed-bc82-7ad396cc3236","ios":"levelo://app?vid=f5f3f8ee-2210-4aed-bc82-7ad396cc3236"},"vehicle_type_id":"4","last_reported":1732111732,"current_range_meters":38800,"station_id":"ce4bgs12rcd13ifvqcag","pricing_plan_id":"cebpf4jnsgd1na2vs0mg"},{"bike_id":"21cbc4d1-f6f8-4cab-8676-461cd3d07e91","system_id":"levelo_inurba_marseille","lat":43.2844,"lon":5.392,"is_reserved":false,"is_disabled":false,"rental_uris":{"android":"levelo://app?vid=21cbc4d1-f6f8-4cab-8676-461cd3d07e91","ios":"levelo://app?vid=21cbc4d1-f6f8-4cab-8676-461cd3d07e91"},"vehicle_type_id":"4","last_reported":1732111732,"current_range_meters":32800,"station_id":"ce4bhoh2rcd13ifvqh5g","pricing_plan_id":"cebpf4jnsgd1na2vs0mg"},{"bike_id":"efaa20f7-d2fb-4778-9ca3-b17e9193d440","system_id":"levelo_inurba_marseille","lat":43.33718,"lon":5.39184,"is_reserved":false,"is_disabled":false,"rental_uris":{"android":"levelo://app?vid=efaa20f7-d2fb-4778-9ca3-b17e9193d440","ios":"levelo://app?vid=efaa20f7-d2fb-4778-9ca3-b17e9193d440"},"vehicle_type_id":"4","last_reported":1732111732,"current_range_meters":34000,"station_id":"ce4bhr92rcd13ifvqhsg","pricing_plan_id":"cebpf4jnsgd1na2vs0mg"},{"bike_id":"7ba7cbdc-65b6-461c-8944-b2f6d689e9fd","system_id":"levelo_inurba_marseille","lat":43.29714,"lon":5.36611,"is_reserved":false,"is_disabled":false,"rental_uris":{"android":"levelo://app?vid=7ba7cbdc-65b6-461c-8944-b2f6d689e9fd","ios":"levelo://app?vid=7ba7cbdc-65b6-461c-8944-b2f6d689e9fd"},"vehicle_type_id":"4","last_reported":1732111732,"current_range_meters":34800,"station_id":"ce4bgn12rcd13ifvqbt0","pricing_plan_id":"cebpf4jnsgd1na2vs0mg"},{"bike_id":"a2fdcbe7-8cb9-4712-8830-f1701ce200aa","system_id":"levelo_inurba_marseille","lat":43.28081,"lon":5.38853,"is_reserved":false,"is_disabled":false,"rental_uris":{"android":"levelo://app?vid=a2fdcbe7-8cb9-4712-8830-f1701ce200aa","ios":"levelo://app?vid=a2fdcbe7-8cb9-4712-8830-f1701ce200aa"},"vehicle_type_id":"4","last_reported":1732111732,"current_range_meters":19200,"station_id":"ce4bh4p2rcd13ifvqe0g","pricing_plan_id":"cebpf4jnsgd1na2vs0mg"},{"bike_id":"cbb19e09-aa20-4763-8e71-dc123172ec07","system_id":"levelo_inurba_marseille","lat":43.23152,"lon":5.4371,"is_reserved":false,"is_disabled":false,"rental_uris":{"android":"levelo://app?vid=cbb19e09-aa20-4763-8e71-dc123172ec07","ios":"levelo://app?vid=cbb19e09-aa20-4763-8e71-dc123172ec07"},"vehicle_type_id":"4","last_reported":1732111732,"current_range_meters":39200,"station_id":"ce4bhmp2rcd13ifvqgog","pricing_plan_id":"cebpf4jnsgd1na2vs0mg"},{"bike_id":"bdcd62aa-211e-4708-98ed-bfc5646fcbf5","system_id":"levelo_inurba_marseille","lat":43.29573,"lon":5.39994,"is_reserved":false,"is_disabled":false,"rental_uris":{"android":"levelo://app?vid=bdcd62aa-211e-4708-98ed-bfc5646fcbf5","ios":"levelo://app?vid=bdcd62aa-211e-4708-98ed-bfc5646fcbf5"},"vehicle_type_id":"4","last_reported":1732111732,"current_range_meters":31200,"station_id":"ce4bh312rcd13ifvqdj0","pricing_plan_id":"cebpf4jnsgd1na2vs0mg"},{"bike_id":"028e5427-36e2-49e1-b3db-260058fffb58","system_id":"levelo_inurba_marseille","lat":43.25575,"lon":5.38237,"is_reserved":false,"is_disabled":false,"rental_uris":{"android":"levelo://app?vid=028e5427-36e2-49e1-b3db-260058fffb58","ios":"levelo://app?vid=028e5427-36e2-49e1-b3db-260058fffb58"},"vehicle_type_id":"4","last_reported":1732111732,"current_range_meters":28000,"station_id":"ce4bhih2rcd13ifvqfs0","pricing_plan_id":"cebpf4jnsgd1na2vs0mg"},{"bike_id":"a820487b-8ff2-4360-b2f3-86d11f42d4ec","system_id":"levelo_inurba_marseille","lat":43.31224,"lon":5.36856,"is_reserved":false,"is_disabled":false,"rental_uris":{"android":"levelo://app?vid=a820487b-8ff2-4360-b2f3-86d11f42d4ec","ios":"levelo://app?vid=a820487b-8ff2-4360-b2f3-86d11f42d4ec"},"vehicle_type_id":"4","last_reported":1732111732,"current_range_meters":12400,"station_id":"ce4bgl92rcd13ifvqbq0","pricing_plan_id":"cebpf4jnsgd1na2vs0mg"},{"bike_id":"3f3cb42c-99f5-426c-b854-ceafda2d634f","system_id":"levelo_inurba_marseille","lat":43.2984,"lon":5.36269,"is_reserved":false,"is_disabled":false,"rental_uris":{"android":"levelo://app?vid=3f3cb42c-99f5-426c-b854-ceafda2d634f","ios":"levelo://app?vid=3f3cb42c-99f5-426c-b854-ceafda2d634f"},"vehicle_type_id":"4","last_reported":1732111732,"current_range_meters":16000,"station_id":"ce4bgpp2rcd13ifvqc3g","pricing_plan_id":"cebpf4jnsgd1na2vs0mg"},{"bike_id":"9e5155cc-9158-47b5-bb3f-3254ca5454c2","system_id":"levelo_inurba_marseille","lat":43.313458,"lon":5.367219,"is_reserved":false,"is_disabled":false,"rental_uris":{"android":"levelo://app?vid=9e5155cc-9158-47b5-bb3f-3254ca5454c2","ios":"levelo://app?vid=9e5155cc-9158-47b5-bb3f-3254ca5454c2"},"vehicle_type_id":"4","last_reported":1732111732,"current_range_meters":38800,"station_id":"ce4bgr92rcd13ifvqc6g","pricing_plan_id":"cebpf4jnsgd1na2vs0mg"},{"bike_id":"d844fd78-dab2-432a-a1c7-259ceea58301","system_id":"levelo_inurba_marseille","lat":43.29197,"lon":5.35809,"is_reserved":false,"is_disabled":false,"rental_uris":{"android":"levelo://app?vid=d844fd78-dab2-432a-a1c7-259ceea58301","ios":"levelo://app?vid=d844fd78-dab2-432a-a1c7-259ceea58301"},"vehicle_type_id":"4","last_reported":1732111732,"current_range_meters":39200,"station_id":"ce4bhb12rcd13ifvqel0","pricing_plan_id":"cebpf4jnsgd1na2vs0mg"},{"bike_id":"41b66025-5082-421d-922c-552de41f1f1b","system_id":"levelo_inurba_marseille","lat":43.33795,"lon":5.37474,"is_reserved":false,"is_disabled":false,"rental_uris":{"android":"levelo://app?vid=41b66025-5082-421d-922c-552de41f1f1b","ios":"levelo://app?vid=41b66025-5082-421d-922c-552de41f1f1b"},"vehicle_type_id":"4","last_reported":1732111732,"current_range_meters":36000,"station_id":"","pricing_plan_id":"cebpf4jnsgd1na2vs0mg"},{"bike_id":"ae28f309-442b-481a-b36d-497f21a8e6e0","system_id":"levelo_inurba_marseille","lat":43.31759,"lon":5.39017,"is_reserved":false,"is_disabled":false,"rental_uris":{"android":"levelo://app?vid=ae28f309-442b-481a-b36d-497f21a8e6e0","ios":"levelo://app?vid=ae28f309-442b-481a-b36d-497f21a8e6e0"},"vehicle_type_id":"4","last_reported":1732111732,"current_range_meters":38800,"station_id":"ce4bhqp2rcd13ifvqhng","pricing_plan_id":"cebpf4jnsgd1na2vs0mg"},{"bike_id":"12fdd9ff-e807-4006-8235-7441deeb81b9","system_id":"levelo_inurba_marseille","lat":43.28153,"lon":5.42645,"is_reserved":false,"is_disabled":false,"rental_uris":{"android":"levelo://app?vid=12fdd9ff-e807-4006-8235-7441deeb81b9","ios":"levelo://app?vid=12fdd9ff-e807-4006-8235-7441deeb81b9"},"vehicle_type_id":"4","last_reported":1732111732,"current_range_meters":13600,"station_id":"ce4bhnh2rcd13ifvqgug","pricing_plan_id":"cebpf4jnsgd1na2vs0mg"},{"bike_id":"f8abf792-0c30-4f40-b306-03739b514c58","system_id":"levelo_inurba_marseille","lat":43.3013,"lon":5.39836,"is_reserved":false,"is_disabled":false,"rental_uris":{"android":"levelo://app?vid=f8abf792-0c30-4f40-b306-03739b514c58","ios":"levelo://app?vid=f8abf792-0c30-4f40-b306-03739b514c58"},"vehicle_type_id":"4","last_reported":1732111732,"current_range_meters":9600,"station_id":"ce4bh0h2rcd13ifvqd40","pricing_plan_id":"cebpf4jnsgd1na2vs0mg"},{"bike_id":"b6a5dd45-3299-4794-bb3d-6c5c2b5a78a1","system_id":"levelo_inurba_marseille","lat":43.33023,"lon":5.39041,"is_reserved":false,"is_disabled":false,"rental_uris":{"android":"levelo://app?vid=b6a5dd45-3299-4794-bb3d-6c5c2b5a78a1","ios":"levelo://app?vid=b6a5dd45-3299-4794-bb3d-6c5c2b5a78a1"},"vehicle_type_id":"4","last_reported":1732111732,"current_range_meters":38800,"station_id":"ce4bhr92rcd13ifvqhrg","pricing_plan_id":"cebpf4jnsgd1na2vs0mg"},{"bike_id":"433ee41d-7427-4f2a-94aa-6f35decac4c7","system_id":"levelo_inurba_marseille","lat":43.26033,"lon":5.37559,"is_reserved":false,"is_disabled":false,"rental_uris":{"android":"levelo://app?vid=433ee41d-7427-4f2a-94aa-6f35decac4c7","ios":"levelo://app?vid=433ee41d-7427-4f2a-94aa-6f35decac4c7"},"vehicle_type_id":"4","last_reported":1732111732,"current_range_meters":34800,"station_id":"ce4bhgh2rcd13ifvqfa0","pricing_plan_id":"cebpf4jnsgd1na2vs0mg"},{"bike_id":"422724e5-20b6-4c82-99a6-14994c43927d","system_id":"levelo_inurba_marseille","lat":43.29003,"lon":5.35608,"is_reserved":false,"is_disabled":false,"rental_uris":{"android":"levelo://app?vid=422724e5-20b6-4c82-99a6-14994c43927d","ios":"levelo://app?vid=422724e5-20b6-4c82-99a6-14994c43927d"},"vehicle_type_id":"4","last_reported":1732111732,"current_range_meters":39200,"station_id":"ce4bhb92rcd13ifvqen0","pricing_plan_id":"cebpf4jnsgd1na2vs0mg"},{"bike_id":"084b2ba3-8231-409c-9e1f-fb7dd13211df","system_id":"levelo_inurba_marseille","lat":43.26679,"lon":5.38274,"is_reserved":false,"is_disabled":false,"rental_uris":{"android":"levelo://app?vid=084b2ba3-8231-409c-9e1f-fb7dd13211df","ios":"levelo://app?vid=084b2ba3-8231-409c-9e1f-fb7dd13211df"},"vehicle_type_id":"4","last_reported":1732111732,"current_range_meters":27200,"station_id":"ce4bhg92rcd13ifvqf90","pricing_plan_id":"cebpf4jnsgd1na2vs0mg"},{"bike_id":"7309cb26-82da-4555-a6c1-cf843fdb9da0","system_id":"levelo_inurba_marseille","lat":43.31888,"lon":5.40731,"is_reserved":false,"is_disabled":false,"rental_uris":{"android":"levelo://app?vid=7309cb26-82da-4555-a6c1-cf843fdb9da0","ios":"levelo://app?vid=7309cb26-82da-4555-a6c1-cf843fdb9da0"},"vehicle_type_id":"4","last_reported":1732111732,"current_range_meters":38000,"station_id":"ce4bhq12rcd13ifvqhig","pricing_plan_id":"cebpf4jnsgd1na2vs0mg"},{"bike_id":"94a12de2-ec07-4274-b3c3-0b085c4fbbf7","system_id":"levelo_inurba_marseille","lat":43.23152,"lon":5.4371,"is_reserved":false,"is_disabled":false,"rental_uris":{"android":"levelo://app?vid=94a12de2-ec07-4274-b3c3-0b085c4fbbf7","ios":"levelo://app?vid=94a12de2-ec07-4274-b3c3-0b085c4fbbf7"},"vehicle_type_id":"4","last_reported":1732111732,"current_range_meters":24400,"station_id":"ce4bhmp2rcd13ifvqgog","pricing_plan_id":"cebpf4jnsgd1na2vs0mg"},{"bike_id":"0b067f3c-e55c-4de2-897c-3d262d3f1f7e","system_id":"levelo_inurba_marseille","lat":43.31329,"lon":5.39697,"is_reserved":false,"is_disabled":false,"rental_uris":{"android":"levelo://app?vid=0b067f3c-e55c-4de2-897c-3d262d3f1f7e","ios":"levelo://app?vid=0b067f3c-e55c-4de2-897c-3d262d3f1f7e"},"vehicle_type_id":"4","last_reported":1732111732,"current_range_meters":38400,"station_id":"ce4bgvp2rcd13ifvqcu0","pricing_plan_id":"cebpf4jnsgd1na2vs0mg"},{"bike_id":"ef95be68-f924-4da3-934e-ad308acbe5cd","system_id":"levelo_inurba_marseille","lat":43.32365,"lon":5.38881,"is_reserved":false,"is_disabled":false,"rental_uris":{"android":"levelo://app?vid=ef95be68-f924-4da3-934e-ad308acbe5cd","ios":"levelo://app?vid=ef95be68-f924-4da3-934e-ad308acbe5cd"},"vehicle_type_id":"4","last_reported":1732111732,"current_range_meters":20800,"station_id":"ce4bhqp2rcd13ifvqhog","pricing_plan_id":"cebpf4jnsgd1na2vs0mg"},{"bike_id":"44f1c56e-9ee5-48c3-9f67-5ed57fbc1b5d","system_id":"levelo_inurba_marseille","lat":43.25826,"lon":5.39427,"is_reserved":false,"is_disabled":false,"rental_uris":{"android":"levelo://app?vid=44f1c56e-9ee5-48c3-9f67-5ed57fbc1b5d","ios":"levelo://app?vid=44f1c56e-9ee5-48c3-9f67-5ed57fbc1b5d"},"vehicle_type_id":"4","last_reported":1732111732,"current_range_meters":30800,"station_id":"ce4bhip2rcd13ifvqft0","pricing_plan_id":"cebpf4jnsgd1na2vs0mg"},{"bike_id":"e5951ee3-4a5a-4ebb-b469-096c5188dfa3","system_id":"levelo_inurba_marseille","lat":43.23188,"lon":5.35556,"is_reserved":false,"is_disabled":true,"rental_uris":{"android":"levelo://app?vid=e5951ee3-4a5a-4ebb-b469-096c5188dfa3","ios":"levelo://app?vid=e5951ee3-4a5a-4ebb-b469-096c5188dfa3"},"vehicle_type_id":"4","last_reported":1732111732,"current_range_meters":0,"station_id":"ce4bhu92rcd13ifvqi70","pricing_plan_id":"cebpf4jnsgd1na2vs0mg"},{"bike_id":"6e88df3b-5711-45d4-ab6b-f6f1ff30b3ea","system_id":"levelo_inurba_marseille","lat":43.29076,"lon":5.37157,"is_reserved":false,"is_disabled":false,"rental_uris":{"android":"levelo://app?vid=6e88df3b-5711-45d4-ab6b-f6f1ff30b3ea","ios":"levelo://app?vid=6e88df3b-5711-45d4-ab6b-f6f1ff30b3ea"},"vehicle_type_id":"4","last_reported":1732111732,"current_range_meters":11600,"station_id":"ce4bh5p2rcd13ifvqe4g","pricing_plan_id":"cebpf4jnsgd1na2vs0mg"},{"bike_id":"b2f6b9cf-69db-40ab-8230-689c41a2c16c","system_id":"levelo_inurba_marseille","lat":43.24162,"lon":5.36404,"is_reserved":false,"is_disabled":false,"rental_uris":{"android":"levelo://app?vid=b2f6b9cf-69db-40ab-8230-689c41a2c16c","ios":"levelo://app?vid=b2f6b9cf-69db-40ab-8230-689c41a2c16c"},"vehicle_type_id":"4","last_reported":1732111732,"current_range_meters":37600,"station_id":"cpo36qri1sfpv3e86is0","pricing_plan_id":"cebpf4jnsgd1na2vs0mg"},{"bike_id":"b8ccf5c1-5ac6-47e7-b7ff-56c39cc2dd57","system_id":"levelo_inurba_marseille","lat":43.33606,"lon":5.41033,"is_reserved":false,"is_disabled":false,"rental_uris":{"android":"levelo://app?vid=b8ccf5c1-5ac6-47e7-b7ff-56c39cc2dd57","ios":"levelo://app?vid=b8ccf5c1-5ac6-47e7-b7ff-56c39cc2dd57"},"vehicle_type_id":"4","last_reported":1732111732,"current_range_meters":12400,"station_id":"ce4bhqh2rcd13ifvqhmg","pricing_plan_id":"cebpf4jnsgd1na2vs0mg"},{"bike_id":"7552fdf6-68b4-42db-aad1-86f289198bda","system_id":"levelo_inurba_marseille","lat":43.26547,"lon":5.37292,"is_reserved":false,"is_disabled":false,"rental_uris":{"android":"levelo://app?vid=7552fdf6-68b4-42db-aad1-86f289198bda","ios":"levelo://app?vid=7552fdf6-68b4-42db-aad1-86f289198bda"},"vehicle_type_id":"4","last_reported":1732111732,"current_range_meters":35600,"station_id":"ce4bhg12rcd13ifvqf70","pricing_plan_id":"cebpf4jnsgd1na2vs0mg"},{"bike_id":"9c2f2764-6c98-4600-8b7b-4a479e36ad6f","system_id":"levelo_inurba_marseille","lat":43.28672,"lon":5.36352,"is_reserved":false,"is_disabled":false,"rental_uris":{"android":"levelo://app?vid=9c2f2764-6c98-4600-8b7b-4a479e36ad6f","ios":"levelo://app?vid=9c2f2764-6c98-4600-8b7b-4a479e36ad6f"},"vehicle_type_id":"4","last_reported":1732111732,"current_range_meters":39200,"station_id":"ce4bhah2rcd13ifvqej0","pricing_plan_id":"cebpf4jnsgd1na2vs0mg"},{"bike_id":"42631039-a1b1-42c3-96cb-261ddb2b0ee4","system_id":"levelo_inurba_marseille","lat":43.30183,"lon":5.36615,"is_reserved":false,"is_disabled":false,"rental_uris":{"android":"levelo://app?vid=42631039-a1b1-42c3-96cb-261ddb2b0ee4","ios":"levelo://app?vid=42631039-a1b1-42c3-96cb-261ddb2b0ee4"},"vehicle_type_id":"4","last_reported":1732111732,"current_range_meters":38800,"station_id":"ce4bgrh2rcd13ifvqc8g","pricing_plan_id":"cebpf4jnsgd1na2vs0mg"},{"bike_id":"d8f26270-b7e9-4e7a-9daf-26e548e66ac5","system_id":"levelo_inurba_marseille","lat":43.295371,"lon":5.374701,"is_reserved":false,"is_disabled":false,"rental_uris":{"android":"levelo://app?vid=d8f26270-b7e9-4e7a-9daf-26e548e66ac5","ios":"levelo://app?vid=d8f26270-b7e9-4e7a-9daf-26e548e66ac5"},"vehicle_type_id":"4","last_reported":1732111732,"current_range_meters":17200,"station_id":"ce4bgkp2rcd13ifvqbmg","pricing_plan_id":"cebpf4jnsgd1na2vs0mg"},{"bike_id":"da118503-6ab7-4c94-98bc-2b63accd50d2","system_id":"levelo_inurba_marseille","lat":43.31083,"lon":5.42433,"is_reserved":false,"is_disabled":false,"rental_uris":{"android":"levelo://app?vid=da118503-6ab7-4c94-98bc-2b63accd50d2","ios":"levelo://app?vid=da118503-6ab7-4c94-98bc-2b63accd50d2"},"vehicle_type_id":"4","last_reported":1732111732,"current_range_meters":39200,"station_id":"ce4bhp92rcd13ifvqhag","pricing_plan_id":"cebpf4jnsgd1na2vs0mg"},{"bike_id":"f55181d4-2053-40e2-9cda-06227a4b9bdf","system_id":"levelo_inurba_marseille","lat":43.32483,"lon":5.36564,"is_reserved":false,"is_disabled":false,"rental_uris":{"android":"levelo://app?vid=f55181d4-2053-40e2-9cda-06227a4b9bdf","ios":"levelo://app?vid=f55181d4-2053-40e2-9cda-06227a4b9bdf"},"vehicle_type_id":"4","last_reported":1732111732,"current_range_meters":38000,"station_id":"ce4bhs12rcd13ifvqhvg","pricing_plan_id":"cebpf4jnsgd1na2vs0mg"},{"bike_id":"036145f2-25f3-431d-8452-bf74254a5141","system_id":"levelo_inurba_marseille","lat":43.31756,"lon":5.39012,"is_reserved":false,"is_disabled":false,"rental_uris":{"android":"levelo://app?vid=036145f2-25f3-431d-8452-bf74254a5141","ios":"levelo://app?vid=036145f2-25f3-431d-8452-bf74254a5141"},"vehicle_type_id":"4","last_reported":1732111732,"current_range_meters":39200,"station_id":"ce4bhqp2rcd13ifvqhng","pricing_plan_id":"cebpf4jnsgd1na2vs0mg"},{"bike_id":"a899e6bf-3bb7-4cf3-b160-88a650208135","system_id":"levelo_inurba_marseille","lat":43.31176,"lon":5.38726,"is_reserved":false,"is_disabled":false,"rental_uris":{"android":"levelo://app?vid=a899e6bf-3bb7-4cf3-b160-88a650208135","ios":"levelo://app?vid=a899e6bf-3bb7-4cf3-b160-88a650208135"},"vehicle_type_id":"4","last_reported":1732111732,"current_range_meters":8800,"station_id":"ce4bgv12rcd13ifvqcp0","pricing_plan_id":"cebpf4jnsgd1na2vs0mg"},{"bike_id":"4c8ed69d-903a-47a6-a719-b8a1ba33ec6e","system_id":"levelo_inurba_marseille","lat":43.26026,"lon":5.37554,"is_reserved":false,"is_disabled":false,"rental_uris":{"android":"levelo://app?vid=4c8ed69d-903a-47a6-a719-b8a1ba33ec6e","ios":"levelo://app?vid=4c8ed69d-903a-47a6-a719-b8a1ba33ec6e"},"vehicle_type_id":"4","last_reported":1732111732,"current_range_meters":23200,"station_id":"ce4bhgh2rcd13ifvqfa0","pricing_plan_id":"cebpf4jnsgd1na2vs0mg"},{"bike_id":"908762cf-42ae-43a3-9733-c452eefb5766","system_id":"levelo_inurba_marseille","lat":43.29371,"lon":5.37822,"is_reserved":false,"is_disabled":false,"rental_uris":{"android":"levelo://app?vid=908762cf-42ae-43a3-9733-c452eefb5766","ios":"levelo://app?vid=908762cf-42ae-43a3-9733-c452eefb5766"},"vehicle_type_id":"4","last_reported":1732111732,"current_range_meters":25200,"station_id":"ce4bgjh2rcd13ifvqbf0","pricing_plan_id":"cebpf4jnsgd1na2vs0mg"},{"bike_id":"18375270-5c96-4148-9480-b075066f6b66","system_id":"levelo_inurba_marseille","lat":43.30547,"lon":5.36533,"is_reserved":false,"is_disabled":false,"rental_uris":{"android":"levelo://app?vid=18375270-5c96-4148-9480-b075066f6b66","ios":"levelo://app?vid=18375270-5c96-4148-9480-b075066f6b66"},"vehicle_type_id":"4","last_reported":1732111732,"current_range_meters":38800,"station_id":"ce4bgs12rcd13ifvqcag","pricing_plan_id":"cebpf4jnsgd1na2vs0mg"},{"bike_id":"1f3c44c2-1386-44f5-8446-78a248711806","system_id":"levelo_inurba_marseille","lat":43.27994,"lon":5.40016,"is_reserved":false,"is_disabled":false,"rental_uris":{"android":"levelo://app?vid=1f3c44c2-1386-44f5-8446-78a248711806","ios":"levelo://app?vid=1f3c44c2-1386-44f5-8446-78a248711806"},"vehicle_type_id":"4","last_reported":1732111732,"current_range_meters":7200,"station_id":"ce4bho92rcd13ifvqh4g","pricing_plan_id":"cebpf4jnsgd1na2vs0mg"},{"bike_id":"1f6184e6-16e9-423d-b3e0-a3aa386ef26b","system_id":"levelo_inurba_marseille","lat":43.33023,"lon":5.39036,"is_reserved":false,"is_disabled":false,"rental_uris":{"android":"levelo://app?vid=1f6184e6-16e9-423d-b3e0-a3aa386ef26b","ios":"levelo://app?vid=1f6184e6-16e9-423d-b3e0-a3aa386ef26b"},"vehicle_type_id":"4","last_reported":1732111732,"current_range_meters":36400,"station_id":"ce4bhr92rcd13ifvqhrg","pricing_plan_id":"cebpf4jnsgd1na2vs0mg"},{"bike_id":"cde5eb04-35f5-4971-aec4-8004f9b2dcd9","system_id":"levelo_inurba_marseille","lat":43.28271,"lon":5.35069,"is_reserved":false,"is_disabled":true,"rental_uris":{"android":"levelo://app?vid=cde5eb04-35f5-4971-aec4-8004f9b2dcd9","ios":"levelo://app?vid=cde5eb04-35f5-4971-aec4-8004f9b2dcd9"},"vehicle_type_id":"4","last_reported":1732111732,"current_range_meters":0,"station_id":"ce4bhbp2rcd13ifvqerg","pricing_plan_id":"cebpf4jnsgd1na2vs0mg"},{"bike_id":"daf04fcd-c935-4aac-a351-f6674c5ab957","system_id":"levelo_inurba_marseille","lat":43.2603,"lon":5.37546,"is_reserved":false,"is_disabled":false,"rental_uris":{"android":"levelo://app?vid=daf04fcd-c935-4aac-a351-f6674c5ab957","ios":"levelo://app?vid=daf04fcd-c935-4aac-a351-f6674c5ab957"},"vehicle_type_id":"4","last_reported":1732111732,"current_range_meters":25200,"station_id":"ce4bhgh2rcd13ifvqfa0","pricing_plan_id":"cebpf4jnsgd1na2vs0mg"},{"bike_id":"c56d13e3-5c03-4569-b700-7519141a63b3","system_id":"levelo_inurba_marseille","lat":43.27967,"lon":5.38728,"is_reserved":false,"is_disabled":true,"rental_uris":{"android":"levelo://app?vid=c56d13e3-5c03-4569-b700-7519141a63b3","ios":"levelo://app?vid=c56d13e3-5c03-4569-b700-7519141a63b3"},"vehicle_type_id":"4","last_reported":1732111732,"current_range_meters":0,"station_id":"ce4bhg12rcd13ifvqf80","pricing_plan_id":"cebpf4jnsgd1na2vs0mg"},{"bike_id":"f102c3a5-5eed-47ba-98dc-dcac59a77f29","system_id":"levelo_inurba_marseille","lat":43.30905,"lon":5.36853,"is_reserved":false,"is_disabled":false,"rental_uris":{"android":"levelo://app?vid=f102c3a5-5eed-47ba-98dc-dcac59a77f29","ios":"levelo://app?vid=f102c3a5-5eed-47ba-98dc-dcac59a77f29"},"vehicle_type_id":"4","last_reported":1732111732,"current_range_meters":38800,"station_id":"ce4bgn92rcd13ifvqbvg","pricing_plan_id":"cebpf4jnsgd1na2vs0mg"},{"bike_id":"9249cf24-ba1e-4622-b600-5f0c35133a35","system_id":"levelo_inurba_marseille","lat":43.30193,"lon":5.36608,"is_reserved":false,"is_disabled":false,"rental_uris":{"android":"levelo://app?vid=9249cf24-ba1e-4622-b600-5f0c35133a35","ios":"levelo://app?vid=9249cf24-ba1e-4622-b600-5f0c35133a35"},"vehicle_type_id":"4","last_reported":1732111732,"current_range_meters":38800,"station_id":"ce4bgrh2rcd13ifvqc8g","pricing_plan_id":"cebpf4jnsgd1na2vs0mg"},{"bike_id":"144af04f-b8f1-43c7-8aad-089b35db0e5e","system_id":"levelo_inurba_marseille","lat":43.2942,"lon":5.38618,"is_reserved":false,"is_disabled":false,"rental_uris":{"android":"levelo://app?vid=144af04f-b8f1-43c7-8aad-089b35db0e5e","ios":"levelo://app?vid=144af04f-b8f1-43c7-8aad-089b35db0e5e"},"vehicle_type_id":"4","last_reported":1732111732,"current_range_meters":16000,"station_id":"ce4bh2h2rcd13ifvqdh0","pricing_plan_id":"cebpf4jnsgd1na2vs0mg"},{"bike_id":"bd0f3ed6-4cba-4f56-9205-c76f2a9cc9c8","system_id":"levelo_inurba_marseille","lat":43.30185,"lon":5.36608,"is_reserved":false,"is_disabled":false,"rental_uris":{"android":"levelo://app?vid=bd0f3ed6-4cba-4f56-9205-c76f2a9cc9c8","ios":"levelo://app?vid=bd0f3ed6-4cba-4f56-9205-c76f2a9cc9c8"},"vehicle_type_id":"4","last_reported":1732111732,"current_range_meters":38800,"station_id":"ce4bgrh2rcd13ifvqc8g","pricing_plan_id":"cebpf4jnsgd1na2vs0mg"},{"bike_id":"bbf8487a-d295-4dc7-9627-c9fc18da9faa","system_id":"levelo_inurba_marseille","lat":43.32338,"lon":5.40624,"is_reserved":false,"is_disabled":false,"rental_uris":{"android":"levelo://app?vid=bbf8487a-d295-4dc7-9627-c9fc18da9faa","ios":"levelo://app?vid=bbf8487a-d295-4dc7-9627-c9fc18da9faa"},"vehicle_type_id":"4","last_reported":1732111732,"current_range_meters":25200,"station_id":"ce4bhq92rcd13ifvqhjg","pricing_plan_id":"cebpf4jnsgd1na2vs0mg"},{"bike_id":"89429ed2-f839-4749-bcb9-3e5230fe3bfb","system_id":"levelo_inurba_marseille","lat":43.3372,"lon":5.39183,"is_reserved":false,"is_disabled":false,"rental_uris":{"android":"levelo://app?vid=89429ed2-f839-4749-bcb9-3e5230fe3bfb","ios":"levelo://app?vid=89429ed2-f839-4749-bcb9-3e5230fe3bfb"},"vehicle_type_id":"4","last_reported":1732111732,"current_range_meters":34000,"station_id":"ce4bhr92rcd13ifvqhsg","pricing_plan_id":"cebpf4jnsgd1na2vs0mg"},{"bike_id":"4d7daa92-098a-4d38-b26f-4629da77392e","system_id":"levelo_inurba_marseille","lat":43.30879,"lon":5.39636,"is_reserved":false,"is_disabled":false,"rental_uris":{"android":"levelo://app?vid=4d7daa92-098a-4d38-b26f-4629da77392e","ios":"levelo://app?vid=4d7daa92-098a-4d38-b26f-4629da77392e"},"vehicle_type_id":"4","last_reported":1732111732,"current_range_meters":33200,"station_id":"ce4bh012rcd13ifvqcv0","pricing_plan_id":"cebpf4jnsgd1na2vs0mg"},{"bike_id":"bb8bc886-b16d-46c8-b54d-72fcf2a3b828","system_id":"levelo_inurba_marseille","lat":43.31459,"lon":5.3667,"is_reserved":false,"is_disabled":false,"rental_uris":{"android":"levelo://app?vid=bb8bc886-b16d-46c8-b54d-72fcf2a3b828","ios":"levelo://app?vid=bb8bc886-b16d-46c8-b54d-72fcf2a3b828"},"vehicle_type_id":"4","last_reported":1732111732,"current_range_meters":28400,"station_id":"","pricing_plan_id":"cebpf4jnsgd1na2vs0mg"},{"bike_id":"09069445-3630-4783-a223-c9fd063d7c96","system_id":"levelo_inurba_marseille","lat":43.337444,"lon":5.374475,"is_reserved":false,"is_disabled":false,"rental_uris":{"android":"levelo://app?vid=09069445-3630-4783-a223-c9fd063d7c96","ios":"levelo://app?vid=09069445-3630-4783-a223-c9fd063d7c96"},"vehicle_type_id":"4","last_reported":1732111732,"current_range_meters":38000,"station_id":"","pricing_plan_id":"cebpf4jnsgd1na2vs0mg"},{"bike_id":"e516485e-5fec-46c0-aa54-8155c04c349e","system_id":"levelo_inurba_marseille","lat":43.28461,"lon":5.35887,"is_reserved":false,"is_disabled":false,"rental_uris":{"android":"levelo://app?vid=e516485e-5fec-46c0-aa54-8155c04c349e","ios":"levelo://app?vid=e516485e-5fec-46c0-aa54-8155c04c349e"},"vehicle_type_id":"4","last_reported":1732111732,"current_range_meters":39200,"station_id":"ce4bhah2rcd13ifvqei0","pricing_plan_id":"cebpf4jnsgd1na2vs0mg"},{"bike_id":"c2291c41-3173-40b3-8c94-332e6e068e17","system_id":"levelo_inurba_marseille","lat":43.30459,"lon":5.37918,"is_reserved":false,"is_disabled":false,"rental_uris":{"android":"levelo://app?vid=c2291c41-3173-40b3-8c94-332e6e068e17","ios":"levelo://app?vid=c2291c41-3173-40b3-8c94-332e6e068e17"},"vehicle_type_id":"4","last_reported":1732111732,"current_range_meters":18800,"station_id":"ce4bgup2rcd13ifvqcn0","pricing_plan_id":"cebpf4jnsgd1na2vs0mg"},{"bike_id":"691f2e51-fe08-4685-b805-f21e4a672351","system_id":"levelo_inurba_marseille","lat":43.29986,"lon":5.37299,"is_reserved":false,"is_disabled":false,"rental_uris":{"android":"levelo://app?vid=691f2e51-fe08-4685-b805-f21e4a672351","ios":"levelo://app?vid=691f2e51-fe08-4685-b805-f21e4a672351"},"vehicle_type_id":"4","last_reported":1732111732,"current_range_meters":34800,"station_id":"","pricing_plan_id":"cebpf4jnsgd1na2vs0mg"},{"bike_id":"e7aa8cd8-fad9-4a9d-a165-d74ddbb4dba9","system_id":"levelo_inurba_marseille","lat":43.32541,"lon":5.41434,"is_reserved":false,"is_disabled":true,"rental_uris":{"android":"levelo://app?vid=e7aa8cd8-fad9-4a9d-a165-d74ddbb4dba9","ios":"levelo://app?vid=e7aa8cd8-fad9-4a9d-a165-d74ddbb4dba9"},"vehicle_type_id":"4","last_reported":1732111732,"current_range_meters":0,"station_id":"ce4bhq12rcd13ifvqhhg","pricing_plan_id":"cebpf4jnsgd1na2vs0mg"},{"bike_id":"a288582f-e609-4b1f-9e1f-4b407176785e","system_id":"levelo_inurba_marseille","lat":43.29917,"lon":5.37465,"is_reserved":false,"is_disabled":true,"rental_uris":{"android":"levelo://app?vid=a288582f-e609-4b1f-9e1f-4b407176785e","ios":"levelo://app?vid=a288582f-e609-4b1f-9e1f-4b407176785e"},"vehicle_type_id":"4","last_reported":1732111732,"current_range_meters":0,"station_id":"ce4bgjh2rcd13ifvqbg0","pricing_plan_id":"cebpf4jnsgd1na2vs0mg"},{"bike_id":"7b63c0fd-1177-4bfd-9b24-66c2536aead2","system_id":"levelo_inurba_marseille","lat":43.30551,"lon":5.36539,"is_reserved":false,"is_disabled":false,"rental_uris":{"android":"levelo://app?vid=7b63c0fd-1177-4bfd-9b24-66c2536aead2","ios":"levelo://app?vid=7b63c0fd-1177-4bfd-9b24-66c2536aead2"},"vehicle_type_id":"4","last_reported":1732111732,"current_range_meters":36800,"station_id":"ce4bgs12rcd13ifvqcag","pricing_plan_id":"cebpf4jnsgd1na2vs0mg"},{"bike_id":"79d8c574-9062-423c-8a03-76b3dbc58333","system_id":"levelo_inurba_marseille","lat":43.27835,"lon":5.39189,"is_reserved":false,"is_disabled":true,"rental_uris":{"android":"levelo://app?vid=79d8c574-9062-423c-8a03-76b3dbc58333","ios":"levelo://app?vid=79d8c574-9062-423c-8a03-76b3dbc58333"},"vehicle_type_id":"4","last_reported":1732111732,"current_range_meters":0,"station_id":"ce4bhjp2rcd13ifvqga0","pricing_plan_id":"cebpf4jnsgd1na2vs0mg"},{"bike_id":"7770b1cc-2a54-4d08-8255-6bed2fc397aa","system_id":"levelo_inurba_marseille","lat":43.232,"lon":5.3556,"is_reserved":false,"is_disabled":false,"rental_uris":{"android":"levelo://app?vid=7770b1cc-2a54-4d08-8255-6bed2fc397aa","ios":"levelo://app?vid=7770b1cc-2a54-4d08-8255-6bed2fc397aa"},"vehicle_type_id":"4","last_reported":1732111732,"current_range_meters":24800,"station_id":"ce4bhu92rcd13ifvqi70","pricing_plan_id":"cebpf4jnsgd1na2vs0mg"},{"bike_id":"eb6d4e71-1cd0-4f82-88e5-7bd4e828f615","system_id":"levelo_inurba_marseille","lat":43.2917,"lon":5.37152,"is_reserved":false,"is_disabled":false,"rental_uris":{"android":"levelo://app?vid=eb6d4e71-1cd0-4f82-88e5-7bd4e828f615","ios":"levelo://app?vid=eb6d4e71-1cd0-4f82-88e5-7bd4e828f615"},"vehicle_type_id":"4","last_reported":1732111732,"current_range_meters":39200,"station_id":"ce4bha92rcd13ifvqeh0","pricing_plan_id":"cebpf4jnsgd1na2vs0mg"},{"bike_id":"c7cf0c86-20a3-47da-b19c-ad17aab67602","system_id":"levelo_inurba_marseille","lat":43.28344,"lon":5.38113,"is_reserved":false,"is_disabled":false,"rental_uris":{"android":"levelo://app?vid=c7cf0c86-20a3-47da-b19c-ad17aab67602","ios":"levelo://app?vid=c7cf0c86-20a3-47da-b19c-ad17aab67602"},"vehicle_type_id":"4","last_reported":1732111732,"current_range_meters":38800,"station_id":"ce4bh412rcd13ifvqdr0","pricing_plan_id":"cebpf4jnsgd1na2vs0mg"},