{"last_updated":1718384884,"ttl":30,"version":"2.2","data":{"bikes":[{"bike_id":"292c5e61-3acb-4d59-9b28-0c751474b0c4","system_id":"levelo_inurba_marseille","lat":43.31227,"lon":5.36858,"is_reserved":false,"is_disabled":false,"rental_uris":{"android":"levelo://app?vid=292c5e61-3acb-4d59-9b28-0c751474b0c4","ios":"levelo://app?vid=292c5e61-3acb-4d59-9b28-0c751474b0c4"},"vehicle_type_id":"4","last_reported":1718384884,"current_range_meters":0,"station_id":"ce4bgl92rcd13ifvqbq0","pricing_plan_id":"cebpf4jnsgd1na2vs0mg"},{"bike_id":"151fefbc-d40d-4daa-be2b-9f1634746b51","system_id":"levelo_inurba_marseille","lat":43.312239,"lon":5.368562,"is_reserved":false,"is_disabled":false,"rental_uris":{"android":"levelo://app?vid=151fefbc-d40d-4daa-be2b-9f1634746b51","ios":"levelo://app?vid=151fefbc-d40d-4daa-be2b-9f1634746b51"},"vehicle_type_id":"4","last_reported":1718384884,"current_range_meters":2400,"station_id":"ce4bgl92rcd13ifvqbq0","pricing_plan_id":"cebpf4jnsgd1na2vs0mg"},{"bike_id":"fdc0232f-9930-4700-b577-cad4c20d7a98","system_id":"levelo_inurba_marseille","lat":43.31151,"lon":5.37089,"is_reserved":false,"is_disabled":false,"rental_uris":{"android":"levelo://app?vid=fdc0232f-9930-4700-b577-cad4c20d7a98","ios":"levelo://app?vid=fdc0232f-9930-4700-b577-cad4c20d7a98"},"vehicle_type_id":"4","last_reported":1718384884,"current_range_meters":400,"station_id":"","pricing_plan_id":"cebpf4jnsgd1na2vs0mg"},{"bike_id":"5fe99694-8d66-417e-9c4d-c08b0613c196","system_id":"levelo_inurba_marseille","lat":43.309076,"lon":5.368465,"is_reserved":false,"is_disabled":false,"rental_uris":{"android":"levelo://app?vid=5fe99694-8d66-417e-9c4d-c08b0613c196","ios":"levelo://app?vid=5fe99694-8d66-417e-9c4d-c08b0613c196"},"vehicle_type_id":"4","last_reported":1718384884,"current_range_meters":4000,"station_id":"ce4bgn92rcd13ifvqbvg","pricing_plan_id":"cebpf4jnsgd1na2vs0mg"},{"bike_id":"ae6608da-d154-4996-9009-8dfb9634ae0c","system_id":"levelo_inurba_marseille","lat":43.309076,"lon":5.368465,"is_reserved":false,"is_disabled":false,"rental_uris":{"android":"levelo://app?vid=ae6608da-d154-4996-9009-8dfb9634ae0c","ios":"levelo://app?vid=ae6608da-d154-4996-9009-8dfb9634ae0c"},"vehicle_type_id":"4","last_reported":1718384884,"current_range_meters":14800,"station_id":"ce4bgn92rcd13ifvqbvg","pricing_plan_id":"cebpf4jnsgd1na2vs0mg"},{"bike_id":"69a054ed-87ca-467d-b9c4-6de4cb6bca43","system_id":"levelo_inurba_marseille","lat":43.314811,"lon":5.373103,"is_reserved":false,"is_disabled":false,"rental_uris":{"android":"levelo://app?vid=69a054ed-87ca-467d-b9c4-6de4cb6bca43","ios":"levelo://app?vid=69a054ed-87ca-467d-b9c4-6de4cb6bca43"},"vehicle_type_id":"4","last_reported":1718384884,"current_range_meters":30800,"station_id":"ce4bgt12rcd13ifvqcd0","pricing_plan_id":"cebpf4jnsgd1na2vs0mg"},{"bike_id":"1558b4ed-137f-499d-ac91-e5de31ce7e61","system_id":"levelo_inurba_marseille","lat":43.309039,"lon":5.371797,"is_reserved":false,"is_disabled":false,"rental_uris":{"android":"levelo://app?vid=1558b4ed-137f-499d-ac91-e5de31ce7e61","ios":"levelo://app?vid=1558b4ed-137f-499d-ac91-e5de31ce7e61"},"vehicle_type_id":"4","last_reported":1718384884,"current_range_meters":13200,"station_id":"ce4bguh2rcd13ifvqckg","pricing_plan_id":"cebpf4jnsgd1na2vs0mg"},{"bike_id":"de41c3eb-9502-4fd0-99f5-4347a756eae4","system_id":"levelo_inurba_marseille","lat":43.309039,"lon":5.371797,"is_reserved":false,"is_disabled":false,"rental_uris":{"android":"levelo://app?vid=de41c3eb-9502-4fd0-99f5-4347a756eae4","ios":"levelo://app?vid=de41c3eb-9502-4fd0-99f5-4347a756eae4"},"vehicle_type_id":"4","last_reported":1718384884,"current_range_meters":16800,"station_id":"ce4bguh2rcd13ifvqckg","pricing_plan_id":"cebpf4jnsgd1na2vs0mg"},{"bike_id":"f8d5e7ac-2d7a-4a83-b3d2-8f5d64660025","system_id":"levelo_inurba_marseille","lat":43.305706,"lon":5.365654,"is_reserved":false,"is_disabled":false,"rental_uris":{"android":"levelo://app?vid=f8d5e7ac-2d7a-4a83-b3d2-8f5d64660025","ios":"levelo://app?vid=f8d5e7ac-2d7a-4a83-b3d2-8f5d64660025"},"vehicle_type_id":"4","last_reported":1718384884,"current_range_meters":27600,"station_id":"ce4bgs12rcd13ifvqcag","pricing_plan_id":"cebpf4jnsgd1na2vs0mg"},{"bike_id":"7e5013f6-3fe6-4e67-99e6-1698264e9f2e","system_id":"levelo_inurba_marseille","lat":43.30537,"lon":5.367345,"is_reserved":false,"is_disabled":false,"rental_uris":{"android":"levelo://app?vid=7e5013f6-3fe6-4e67-99e6-1698264e9f2e","ios":"levelo://app?vid=7e5013f6-3fe6-4e67-99e6-1698264e9f2e"},"vehicle_type_id":"4","last_reported":1718384884,"current_range_meters":0,"station_id":"ce4bgrp2rcd13ifvqc9g","pricing_plan_id":"cebpf4jnsgd1na2vs0mg"},{"bike_id":"ee195d7c-ce3f-4186-bf88-666dbd0e08ae","system_id":"levelo_inurba_marseille","lat":43.305989,"lon":5.37225,"is_reserved":false,"is_disabled":false,"rental_uris":{"android":"levelo://app?vid=ee195d7c-ce3f-4186-bf88-666dbd0e08ae","ios":"levelo://app?vid=ee195d7c-ce3f-4186-bf88-666dbd0e08ae"},"vehicle_type_id":"4","last_reported":1718384884,"current_range_meters":18800,"station_id":"ce4bgqh2rcd13ifvqc4g","pricing_plan_id":"cebpf4jnsgd1na2vs0mg"},{"bike_id":"6d0e0ec4-6dd3-422e-93b9-451bcf80c0c1","system_id":"levelo_inurba_marseille","lat":43.30513,"lon":5.37095,"is_reserved":false,"is_disabled":false,"rental_uris":{"android":"levelo://app?vid=6d0e0ec4-6dd3-422e-93b9-451bcf80c0c1","ios":"levelo://app?vid=6d0e0ec4-6dd3-422e-93b9-451bcf80c0c1"},"vehicle_type_id":"4","last_reported":1718384884,"current_range_meters":2800,"station_id":"","pricing_plan_id":"cebpf4jnsgd1na2vs0mg"},{"bike_id":"7093b036-8223-4576-8cad-1cea0ff2d104","system_id":"levelo_inurba_marseille","lat":43.30984,"lon":5.37759,"is_reserved":false,"is_disabled":false,"rental_uris":{"android":"levelo://app?vid=7093b036-8223-4576-8cad-1cea0ff2d104","ios":"levelo://app?vid=7093b036-8223-4576-8cad-1cea0ff2d104"},"vehicle_type_id":"4","last_reported":1718384884,"current_range_meters":14000,"station_id":"","pricing_plan_id":"cebpf4jnsgd1na2vs0mg"},{"bike_id":"a18c73ef-e89c-47f2-b679-6b50ce60169e","system_id":"levelo_inurba_marseille","lat":43.307945,"lon":5.376487,"is_reserved":false,"is_disabled":false,"rental_uris":{"android":"levelo://app?vid=a18c73ef-e89c-47f2-b679-6b50ce60169e","ios":"levelo://app?vid=a18c73ef-e89c-47f2-b679-6b50ce60169e"},"vehicle_type_id":"4","last_reported":1718384884,"current_range_meters":10800,"station_id":"ce4bgv92rcd13ifvqcq0","pricing_plan_id":"cebpf4jnsgd1na2vs0mg"},{"bike_id":"cbdef0c9-7986-4b09-9759-33c76f93b303","system_id":"levelo_inurba_marseille","lat":43.307945,"lon":5.376487,"is_reserved":false,"is_disabled":false,"rental_uris":{"android":"levelo://app?vid=cbdef0c9-7986-4b09-9759-33c76f93b303","ios":"levelo://app?vid=cbdef0c9-7986-4b09-9759-33c76f93b303"},"vehicle_type_id":"4","last_reported":1718384884,"current_range_meters":12000,"station_id":"ce4bgv92rcd13ifvqcq0","pricing_plan_id":"cebpf4jnsgd1na2vs0mg"},{"bike_id":"68945dfd-8b95-4131-aef0-ba7e5b07eb4c","system_id":"levelo_inurba_marseille","lat":43.317075,"lon":5.377367,"is_reserved":false,"is_disabled":false,"rental_uris":{"android":"levelo://app?vid=68945dfd-8b95-4131-aef0-ba7e5b07eb4c","ios":"levelo://app?vid=68945dfd-8b95-4131-aef0-ba7e5b07eb4c"},"vehicle_type_id":"4","last_reported":1718384884,"current_range_meters":10400,"station_id":"ce4bgth2rcd13ifvqch0","pricing_plan_id":"cebpf4jnsgd1na2vs0mg"},{"bike_id":"a59019b9-7b27-4cf9-95d2-0d70177b6a16","system_id":"levelo_inurba_marseille","lat":43.31702,"lon":5.3776,"is_reserved":false,"is_disabled":false,"rental_uris":{"android":"levelo://app?vid=a59019b9-7b27-4cf9-95d2-0d70177b6a16","ios":"levelo://app?vid=a59019b9-7b27-4cf9-95d2-0d70177b6a16"},"vehicle_type_id":"4","last_reported":1718384884,"current_range_meters":0,"station_id":"ce4bgth2rcd13ifvqch0","pricing_plan_id":"cebpf4jnsgd1na2vs0mg"},{"bike_id":"7bc1f94c-61cf-4e20-8dbb-065ad488f9a4","system_id":"levelo_inurba_marseille","lat":43.303046,"lon":5.368981,"is_reserved":false,"is_disabled":false,"rental_uris":{"android":"levelo://app?vid=7bc1f94c-61cf-4e20-8dbb-065ad488f9a4","ios":"levelo://app?vid=7bc1f94c-61cf-4e20-8dbb-065ad488f9a4"},"vehicle_type_id":"4","last_reported":1718384884,"current_range_meters":1200,"station_id":"ce4bgqh2rcd13ifvqc5g","pricing_plan_id":"cebpf4jnsgd1na2vs0mg"},{"bike_id":"f8ed1ec1-38e3-4053-9cee-edc748de0c83","system_id":"levelo_inurba_marseille","lat":43.317075,"lon":5.377367,"is_reserved":false,"is_disabled":false,"rental_uris":{"android":"levelo://app?vid=f8ed1ec1-38e3-4053-9cee-edc748de0c83","ios":"levelo://app?vid=f8ed1ec1-38e3-4053-9cee-edc748de0c83"},"vehicle_type_id":"4","last_reported":1718384884,"current_range_meters":22000,"station_id":"ce4bgth2rcd13ifvqch0","pricing_plan_id":"cebpf4jnsgd1na2vs0mg"},{"bike_id":"09e9c040-beef-498b-9c57-58031da9478b","system_id":"levelo_inurba_marseille","lat":43.301939,"lon":5.366286,"is_reserved":false,"is_disabled":false,"rental_uris":{"android":"levelo://app?vid=09e9c040-beef-498b-9c57-58031da9478b","ios":"levelo://app?vid=09e9c040-beef-498b-9c57-58031da9478b"},"vehicle_type_id":"4","last_reported":1718384884,"current_range_meters":16800,"station_id":"ce4bgrh2rcd13ifvqc8g","pricing_plan_id":"cebpf4jnsgd1na2vs0mg"},{"bike_id":"3e1488f2-05e0-4390-8900-21c6920420bc","system_id":"levelo_inurba_marseille","lat":43.301939,"lon":5.366286,"is_reserved":false,"is_disabled":false,"rental_uris":{"android":"levelo://app?vid=3e1488f2-05e0-4390-8900-21c6920420bc","ios":"levelo://app?vid=3e1488f2-05e0-4390-8900-21c6920420bc"},"vehicle_type_id":"4","last_reported":1718384884,"current_range_meters":13600,"station_id":"ce4bgrh2rcd13ifvqc8g","pricing_plan_id":"cebpf4jnsgd1na2vs0mg"},{"bike_id":"e5ba88ba-2473-4cd8-9598-1aa128377384","system_id":"levelo_inurba_marseille","lat":43.30802,"lon":5.38157,"is_reserved":false,"is_disabled":false,"rental_uris":{"android":"levelo://app?vid=e5ba88ba-2473-4cd8-9598-1aa128377384","ios":"levelo://app?vid=e5ba88ba-2473-4cd8-9598-1aa128377384"},"vehicle_type_id":"4","last_reported":1718384884,"current_range_meters":0,"station_id":"ce4bgt12rcd13ifvqce0","pricing_plan_id":"cebpf4jnsgd1na2vs0mg"},{"bike_id":"a79912b5-dbcf-4a68-93ef-536599fcf83f","system_id":"levelo_inurba_marseille","lat":43.30797,"lon":5.38156,"is_reserved":false,"is_disabled":false,"rental_uris":{"android":"levelo://app?vid=a79912b5-dbcf-4a68-93ef-536599fcf83f","ios":"levelo://app?vid=a79912b5-dbcf-4a68-93ef-536599fcf83f"},"vehicle_type_id":"4","last_reported":1718384884,"current_range_meters":0,"station_id":"ce4bgt12rcd13ifvqce0","pricing_plan_id":"cebpf4jnsgd1na2vs0mg"},{"bike_id":"7f795fc7-4ea6-4571-9a0d-d12bc1f10edd","system_id":"levelo_inurba_marseille","lat":43.308012,"lon":5.381511,"is_reserved":false,"is_disabled":false,"rental_uris":{"android":"levelo://app?vid=7f795fc7-4ea6-4571-9a0d-d12bc1f10edd","ios":"levelo://app?vid=7f795fc7-4ea6-4571-9a0d-d12bc1f10edd"},"vehicle_type_id":"4","last_reported":1718384884,"current_range_meters":21200,"station_id":"ce4bgt12rcd13ifvqce0","pricing_plan_id":"cebpf4jnsgd1na2vs0mg"},{"bike_id":"eb2e4123-400c-4dd9-bf67-eb0a975a8e1a","system_id":"levelo_inurba_marseille","lat":43.304606,"lon":5.379026,"is_reserved":false,"is_disabled":false,"rental_uris":{"android":"levelo://app?vid=eb2e4123-400c-4dd9-bf67-eb0a975a8e1a","ios":"levelo://app?vid=eb2e4123-400c-4dd9-bf67-eb0a975a8e1a"},"vehicle_type_id":"4","last_reported":1718384884,"current_range_meters":0,"station_id":"ce4bgup2rcd13ifvqcn0","pricing_plan_id":"cebpf4jnsgd1na2vs0mg"},{"bike_id":"e716aefd-c62b-4c19-ab42-7adb803b7b11","system_id":"levelo_inurba_marseille","lat":43.31987,"lon":5.38047,"is_reserved":false,"is_disabled":false,"rental_uris":{"android":"levelo://app?vid=e716aefd-c62b-4c19-ab42-7adb803b7b11","ios":"levelo://app?vid=e716aefd-c62b-4c19-ab42-7adb803b7b11"},"vehicle_type_id":"4","last_reported":1718384884,"current_range_meters":20000,"station_id":"","pricing_plan_id":"cebpf4jnsgd1na2vs0mg"},{"bike_id":"729efb44-ef93-4e98-aa32-b8bdd0d40403","system_id":"levelo_inurba_marseille","lat":43.302784,"lon":5.377158,"is_reserved":false,"is_disabled":false,"rental_uris":{"android":"levelo://app?vid=729efb44-ef93-4e98-aa32-b8bdd0d40403","ios":"levelo://app?vid=729efb44-ef93-4e98-aa32-b8bdd0d40403"},"vehicle_type_id":"4","last_reported":1718384884,"current_range_meters":12000,"station_id":"ce4bguh2rcd13ifvqcj0","pricing_plan_id":"cebpf4jnsgd1na2vs0mg"},{"bike_id":"2f6dd596-8ac3-4620-bd92-257212bca71f","system_id":"levelo_inurba_marseille","lat":43.319935,"lon":5.381699,"is_reserved":false,"is_disabled":false,"rental_uris":{"android":"levelo://app?vid=2f6dd596-8ac3-4620-bd92-257212bca71f","ios":"levelo://app?vid=2f6dd596-8ac3-4620-bd92-257212bca71f"},"vehicle_type_id":"4","last_reported":1718384884,"current_range_meters":7200,"station_id":"ce4bhr12rcd13ifvqhpg","pricing_plan_id":"cebpf4jnsgd1na2vs0mg"},{"bike_id":"917d5d82-a8f0-4af3-af23-993ab861dbf0","system_id":"levelo_inurba_marseille","lat":43.313571,"lon":5.384829,"is_reserved":false,"is_disabled":false,"rental_uris":{"android":"levelo://app?vid=917d5d82-a8f0-4af3-af23-993ab861dbf0","ios":"levelo://app?vid=917d5d82-a8f0-4af3-af23-993ab861dbf0"},"vehicle_type_id":"4","last_reported":1718384884,"current_range_meters":0,"station_id":"ce4bgt92rcd13ifvqcf0","pricing_plan_id":"cebpf4jnsgd1na2vs0mg"},{"bike_id":"0d0648fa-9f13-42e6-b0df-297f956030a9","system_id":"levelo_inurba_marseille","lat":43.299222,"lon":5.365554,"is_reserved":false,"is_disabled":false,"rental_uris":{"android":"levelo://app?vid=0d0648fa-9f13-42e6-b0df-297f956030a9","ios":"levelo://app?vid=0d0648fa-9f13-42e6-b0df-297f956030a9"},"vehicle_type_id":"4","last_reported":1718384884,"current_range_meters":24000,"station_id":"ce4bgm92rcd13ifvqbr0","pricing_plan_id":"cebpf4jnsgd1na2vs0mg"},{"bike_id":"00c93d9f-ea16-4c55-9a89-6df0272ff39d","system_id":"levelo_inurba_marseille","lat":43.299222,"lon":5.365554,"is_reserved":false,"is_disabled":false,"rental_uris":{"android":"levelo://app?vid=00c93d9f-ea16-4c55-9a89-6df0272ff39d","ios":"levelo://app?vid=00c93d9f-ea16-4c55-9a89-6df0272ff39d"},"vehicle_type_id":"4","last_reported":1718384884,"current_range_meters":2000,"station_id":"ce4bgm92rcd13ifvqbr0","pricing_plan_id":"cebpf4jnsgd1na2vs0mg"},{"bike_id":"986f96cf-4fad-49eb-9a05-b7c94436e83f","system_id":"levelo_inurba_marseille","lat":43.299222,"lon":5.365554,"is_reserved":false,"is_disabled":false,"rental_uris":{"android":"levelo://app?vid=986f96cf-4fad-49eb-9a05-b7c94436e83f","ios":"levelo://app?vid=986f96cf-4fad-49eb-9a05-b7c94436e83f"},"vehicle_type_id":"4","last_reported":1718384884,"current_range_meters":0,"station_id":"ce4bgm92rcd13ifvqbr0","pricing_plan_id":"cebpf4jnsgd1na2vs0mg"},{"bike_id":"f7df11dd-30bb-43c7-850b-ce89f1e78f1d","system_id":"levelo_inurba_marseille","lat":43.299222,"lon":5.365554,"is_reserved":false,"is_disabled":false,"rental_uris":{"android":"levelo://app?vid=f7df11dd-30bb-43c7-850b-ce89f1e78f1d","ios":"levelo://app?vid=f7df11dd-30bb-43c7-850b-ce89f1e78f1d"},"vehicle_type_id":"4","last_reported":1718384884,"current_range_meters":27200,"station_id":"ce4bgm92rcd13ifvqbr0","pricing_plan_id":"cebpf4jnsgd1na2vs0mg"},{"bike_id":"848fdc53-d61b-48a9-8878-a1f84ddaf4dc","system_id":"levelo_inurba_marseille","lat":43.299222,"lon":5.365554,"is_reserved":false,"is_disabled":false,"rental_uris":{"android":"levelo://app?vid=848fdc53-d61b-48a9-8878-a1f84ddaf4dc","ios":"levelo://app?vid=848fdc53-d61b-48a9-8878-a1f84ddaf4dc"},"vehicle_type_id":"4","last_reported":1718384884,"current_range_meters":7600,"station_id":"ce4bgm92rcd13ifvqbr0","pricing_plan_id":"cebpf4jnsgd1na2vs0mg"},{"bike_id":"06ea6bd2-85e1-4c82-9b56-3dc8971e178f","system_id":"levelo_inurba_marseille","lat":43.299222,"lon":5.365554,"is_reserved":false,"is_disabled":false,"rental_uris":{"android":"levelo://app?vid=06ea6bd2-85e1-4c82-9b56-3dc8971e178f","ios":"levelo://app?vid=06ea6bd2-85e1-4c82-9b56-3dc8971e178f"},"vehicle_type_id":"4","last_reported":1718384884,"current_range_meters":18800,"station_id":"ce4bgm92rcd13ifvqbr0","pricing_plan_id":"cebpf4jnsgd1na2vs0mg"},{"bike_id":"3d8ecdc8-95d0-410c-9e7d-e0bee3dd6a7f","system_id":"levelo_inurba_marseille","lat":43.305364,"lon":5.384119,"is_reserved":false,"is_disabled":false,"rental_uris":{"android":"levelo://app?vid=3d8ecdc8-95d0-410c-9e7d-e0bee3dd6a7f","ios":"levelo://app?vid=3d8ecdc8-95d0-410c-9e7d-e0bee3dd6a7f"},"vehicle_type_id":"4","last_reported":1718384884,"current_range_meters":22400,"station_id":"ce4bgg92rcd13ifvqb30","pricing_plan_id":"cebpf4jnsgd1na2vs0mg"},{"bike_id":"cf6831e3-5239-4ef9-a609-de1e7962d170","system_id":"levelo_inurba_marseille","lat":43.299243,"lon":5.374807,"is_reserved":false,"is_disabled":false,"rental_uris":{"android":"levelo://app?vid=cf6831e3-5239-4ef9-a609-de1e7962d170","ios":"levelo://app?vid=cf6831e3-5239-4ef9-a609-de1e7962d170"},"vehicle_type_id":"4","last_reported":1718384884,"current_range_meters":0,"station_id":"ce4bgjh2rcd13ifvqbg0","pricing_plan_id":"cebpf4jnsgd1na2vs0mg"},{"bike_id":"9d4b1b0a-8231-4983-8ab5-53dba90b32d4","system_id":"levelo_inurba_marseille","lat":43.311722,"lon":5.387247,"is_reserved":false,"is_disabled":false,"rental_uris":{"android":"levelo://app?vid=9d4b1b0a-8231-4983-8ab5-53dba90b32d4","ios":"levelo://app?vid=9d4b1b0a-8231-4983-8ab5-53dba90b32d4"},"vehicle_type_id":"4","last_reported":1718384884,"current_range_meters":0,"station_id":"ce4bgv12rcd13ifvqcp0","pricing_plan_id":"cebpf4jnsgd1na2vs0mg"},{"bike_id":"50ca786d-85fa-4122-86ce-63edb9659543","system_id":"levelo_inurba_marseille","lat":43.322872,"lon":5.382756,"is_reserved":false,"is_disabled":false,"rental_uris":{"android":"levelo://app?vid=50ca786d-85fa-4122-86ce-63edb9659543","ios":"levelo://app?vid=50ca786d-85fa-4122-86ce-63edb9659543"},"vehicle_type_id":"4","last_reported":1718384884,"current_range_meters":20800,"station_id":"ce4bhr12rcd13ifvqhqg","pricing_plan_id":"cebpf4jnsgd1na2vs0mg"},{"bike_id":"9905b506-7363-4b88-9f8e-8f4c273246a8","system_id":"levelo_inurba_marseille","lat":43.297163,"lon":5.365866,"is_reserved":false,"is_disabled":false,"rental_uris":{"android":"levelo://app?vid=9905b506-7363-4b88-9f8e-8f4c273246a8","ios":"levelo://app?vid=9905b506-7363-4b88-9f8e-8f4c273246a8"},"vehicle_type_id":"4","last_reported":1718384884,"current_range_meters":11600,"station_id":"ce4bgn12rcd13ifvqbt0","pricing_plan_id":"cebpf4jnsgd1na2vs0mg"},{"bike_id":"94770a28-cb91-45aa-8fdd-f3312482e4c2","system_id":"levelo_inurba_marseille","lat":43.297163,"lon":5.365866,"is_reserved":false,"is_disabled":false,"rental_uris":{"android":"levelo://app?vid=94770a28-cb91-45aa-8fdd-f3312482e4c2","ios":"levelo://app?vid=94770a28-cb91-45aa-8fdd-f3312482e4c2"},"vehicle_type_id":"4","last_reported":1718384884,"current_range_meters":31200,"station_id":"ce4bgn12rcd13ifvqbt0","pricing_plan_id":"cebpf4jnsgd1na2vs0mg"},{"bike_id":"f661542a-cd33-4525-8eff-d978aee89cdd","system_id":"levelo_inurba_marseille","lat":43.297163,"lon":5.365866,"is_reserved":false,"is_disabled":false,"rental_uris":{"android":"levelo://app?vid=f661542a-cd33-4525-8eff-d978aee89cdd","ios":"levelo://app?vid=f661542a-cd33-4525-8eff-d978aee89cdd"},"vehicle_type_id":"4","last_reported":1718384884,"current_range_meters":9600,"station_id":"ce4bgn12rcd13ifvqbt0","pricing_plan_id":"cebpf4jnsgd1na2vs0mg"},{"bike_id":"785f58d1-8318-4ac1-b858-6a2d0c73de02","system_id":"levelo_inurba_marseille","lat":43.297163,"lon":5.365866,"is_reserved":false,"is_disabled":false,"rental_uris":{"android":"levelo://app?vid=785f58d1-8318-4ac1-b858-6a2d0c73de02","ios":"levelo://app?vid=785f58d1-8318-4ac1-b858-6a2d0c73de02"},"vehicle_type_id":"4","last_reported":1718384884,"current_range_meters":12000,"station_id":"ce4bgn12rcd13ifvqbt0","pricing_plan_id":"cebpf4jnsgd1na2vs0mg"},{"bike_id":"e9684d58-b10a-469e-a02c-43cd1e02c7d6","system_id":"levelo_inurba_marseille","lat":43.297163,"lon":5.365866,"is_reserved":false,"is_disabled":false,"rental_uris":{"android":"levelo://app?vid=e9684d58-b10a-469e-a02c-43cd1e02c7d6","ios":"levelo://app?vid=e9684d58-b10a-469e-a02c-43cd1e02c7d6"},"vehicle_type_id":"4","last_reported":1718384884,"current_range_meters":19600,"station_id":"ce4bgn12rcd13ifvqbt0","pricing_plan_id":"cebpf4jnsgd1na2vs0mg"},{"bike_id":"6a2637e6-fd82-4304-9fb7-8f5447b9039b","system_id":"levelo_inurba_marseille","lat":43.297163,"lon":5.365866,"is_reserved":false,"is_disabled":false,"rental_uris":{"android":"levelo://app?vid=6a2637e6-fd82-4304-9fb7-8f5447b9039b","ios":"levelo://app?vid=6a2637e6-fd82-4304-9fb7-8f5447b9039b"},"vehicle_type_id":"4","last_reported":1718384884,"current_range_meters":22800,"station_id":"ce4bgn12rcd13ifvqbt0","pricing_plan_id":"cebpf4jnsgd1na2vs0mg"},{"bike_id":"a78fce40-39b3-47a3-9f62-07729dc0911c","system_id":"levelo_inurba_marseille","lat":43.297163,"lon":5.365866,"is_reserved":false,"is_disabled":false,"rental_uris":{"android":"levelo://app?vid=a78fce40-39b3-47a3-9f62-07729dc0911c","ios":"levelo://app?vid=a78fce40-39b3-47a3-9f62-07729dc0911c"},"vehicle_type_id":"4","last_reported":1718384884,"current_range_meters":4400,"station_id":"ce4bgn12rcd13ifvqbt0","pricing_plan_id":"cebpf4jnsgd1na2vs0mg"},{"bike_id":"acae45e7-7c8d-4b1c-ad0b-d87b27a54a40","system_id":"levelo_inurba_marseille","lat":43.297163,"lon":5.365866,"is_reserved":false,"is_disabled":false,"rental_uris":{"android":"levelo://app?vid=acae45e7-7c8d-4b1c-ad0b-d87b27a54a40","ios":"levelo://app?vid=acae45e7-7c8d-4b1c-ad0b-d87b27a54a40"},"vehicle_type_id":"4","last_reported":1718384884,"current_range_meters":15200,"station_id":"ce4bgn12rcd13ifvqbt0","pricing_plan_id":"cebpf4jnsgd1na2vs0mg"},{"bike_id":"0070df20-4c22-4500-81b9-958ef84c563a","system_id":"levelo_inurba_marseille","lat":43.29656,"lon":5.37011,"is_reserved":false,"is_disabled":false,"rental_uris":{"android":"levelo://app?vid=0070df20-4c22-4500-81b9-958ef84c563a","ios":"levelo://app?vid=0070df20-4c22-4500-81b9-958ef84c563a"},"vehicle_type_id":"4","last_reported":1718384884,"current_range_meters":6000,"station_id":"","pricing_plan_id":"cebpf4jnsgd1na2vs0mg"},{"bike_id":"b6c1268c-a7ff-4aa5-aaf3-52187293dc93","system_id":"levelo_inurba_marseille","lat":43.296364,"lon":5.363759,"is_reserved":false,"is_disabled":false,"rental_uris":{"android":"levelo://app?vid=b6c1268c-a7ff-4aa5-aaf3-52187293dc93","ios":"levelo://app?vid=b6c1268c-a7ff-4aa5-aaf3-52187293dc93"},"vehicle_type_id":"4","last_reported":1718384884,"current_range_meters":19600,"station_id":"","pricing_plan_id":"cebpf4jnsgd1na2vs0mg"},{"bike_id":"37471f4c-741d-4423-ad28-3beb8104ff11","system_id":"levelo_inurba_marseille","lat":43.296217,"lon":5.3632,"is_reserved":false,"is_disabled":false,"rental_uris":{"android":"levelo://app?vid=37471f4c-741d-4423-ad28-3beb8104ff11","ios":"levelo://app?vid=37471f4c-741d-4423-ad28-3beb8104ff11"},"vehicle_type_id":"4","last_reported":1718384884,"current_range_meters":12800,"station_id":"","pricing_plan_id":"cebpf4jnsgd1na2vs0mg"},{"bike_id":"664f1ed7-8913-4bb2-bf37-26cfdc2a98cf","system_id":"levelo_inurba_marseille","lat":43.296085,"lon":5.363185,"is_reserved":false,"is_disabled":false,"rental_uris":{"android":"levelo://app?vid=664f1ed7-8913-4bb2-bf37-26cfdc2a98cf","ios":"levelo://app?vid=664f1ed7-8913-4bb2-bf37-26cfdc2a98cf"},"vehicle_type_id":"4","last_reported":1718384884,"current_range_meters":17200,"station_id":"","pricing_plan_id":"cebpf4jnsgd1na2vs0mg"},{"bike_id":"f7d7ddf4-4c54-4de7-ad13-bf63575b0f66","system_id":"levelo_inurba_marseille","lat":43.29573,"lon":5.367355,"is_reserved":false,"is_disabled":false,"rental_uris":{"android":"levelo://app?vid=f7d7ddf4-4c54-4de7-ad13-bf63575b0f66","ios":"levelo://app?vid=f7d7ddf4-4c54-4de7-ad13-bf63575b0f66"},"vehicle_type_id":"4","last_reported":1718384884,"current_range_meters":22000,"station_id":"ce4bgph2rcd13ifvqc2g","pricing_plan_id":"cebpf4jnsgd1na2vs0mg"},{"bike_id":"b7f1b88e-d1a3-457c-ab9e-3b1af615215b","system_id":"levelo_inurba_marseille","lat":43.295803,"lon":5.364325,"is_reserved":false,"is_disabled":false,"rental_uris":{"android":"levelo://app?vid=b7f1b88e-d1a3-457c-ab9e-3b1af615215b","ios":"levelo://app?vid=b7f1b88e-d1a3-457c-ab9e-3b1af615215b"},"vehicle_type_id":"4","last_reported":1718384884,"current_range_meters":5200,"station_id":"","pricing_plan_id":"cebpf4jnsgd1na2vs0mg"},{"bike_id":"09904071-2aca-43ec-942f-30188756a4ac","system_id":"levelo_inurba_marseille","lat":43.296921,"lon":5.376579,"is_reserved":false,"is_disabled":false,"rental_uris":{"android":"levelo://app?vid=09904071-2aca-43ec-942f-30188756a4ac","ios":"levelo://app?vid=09904071-2aca-43ec-942f-30188756a4ac"},"vehicle_type_id":"4","last_reported":1718384884,"current_range_meters":3200,"station_id":"ce4bgkh2rcd13ifvqbl0","pricing_plan_id":"cebpf4jnsgd1na2vs0mg"},{"bike_id":"1920fe69-bfb9-4b4e-a0bc-cfc9716203d4","system_id":"levelo_inurba_marseille","lat":43.299028,"lon":5.381509,"is_reserved":false,"is_disabled":false,"rental_uris":{"android":"levelo://app?vid=1920fe69-bfb9-4b4e-a0bc-cfc9716203d4","ios":"levelo://app?vid=1920fe69-bfb9-4b4e-a0bc-cfc9716203d4"},"vehicle_type_id":"4","last_reported":1718384884,"current_range_meters":11200,"station_id":"ce4bgj12rcd13ifvqbc0","pricing_plan_id":"cebpf4jnsgd1na2vs0mg"},{"bike_id":"b86a8c6e-e7a7-48ac-9002-59de11c36b08","system_id":"levelo_inurba_marseille","lat":43.29704,"lon":5.37695,"is_reserved":false,"is_disabled":false,"rental_uris":{"android":"levelo://app?vid=b86a8c6e-e7a7-48ac-9002-59de11c36b08","ios":"levelo://app?vid=b86a8c6e-e7a7-48ac-9002-59de11c36b08"},"vehicle_type_id":"4","last_reported":1718384884,"current_range_meters":0,"station_id":"ce4bgkh2rcd13ifvqbl0","pricing_plan_id":"cebpf4jnsgd1na2vs0mg"},{"bike_id":"84b38e50-544a-44df-9cee-bb356c6f79ab","system_id":"levelo_inurba_marseille","lat":43.299028,"lon":5.381509,"is_reserved":false,"is_disabled":false,"rental_uris":{"android":"levelo://app?vid=84b38e50-544a-44df-9cee-bb356c6f79ab","ios":"levelo://app?vid=84b38e50-544a-44df-9cee-bb356c6f79ab"},"vehicle_type_id":"4","last_reported":1718384884,"current_range_meters":6000,"station_id":"ce4bgj12rcd13ifvqbc0","pricing_plan_id":"cebpf4jnsgd1na2vs0mg"},{"bike_id":"4fefd2b8-e03d-4123-9c56-dd477de6c69d","system_id":"levelo_inurba_marseille","lat":43.30952,"lon":5.390387,"is_reserved":false,"is_disabled":false,"rental_uris":{"android":"levelo://app?vid=4fefd2b8-e03d-4123-9c56-dd477de6c69d","ios":"levelo://app?vid=4fefd2b8-e03d-4123-9c56-dd477de6c69d"},"vehicle_type_id":"4","last_reported":1718384884,"current_range_meters":0,"station_id":"ce4bgup2rcd13ifvqco0","pricing_plan_id":"cebpf4jnsgd1na2vs0mg"},{"bike_id":"2ad02054-aaae-41c4-aa90-4f7db62b0731","system_id":"levelo_inurba_marseille","lat":43.317557,"lon":5.390173,"is_reserved":false,"is_disabled":false,"rental_uris":{"android":"levelo://app?vid=2ad02054-aaae-41c4-aa90-4f7db62b0731","ios":"levelo://app?vid=2ad02054-aaae-41c4-aa90-4f7db62b0731"},"vehicle_type_id":"4","last_reported":1718384884,"current_range_meters":14800,"station_id":"ce4bhqp2rcd13ifvqhng","pricing_plan_id":"cebpf4jnsgd1na2vs0mg"},{"bike_id":"d51789ea-eb04-4e0b-b0d1-a567aa1af80c","system_id":"levelo_inurba_marseille","lat":43.304606,"lon":5.379026,"is_reserved":false,"is_disabled":false,"rental_uris":{"android":"levelo://app?vid=d51789ea-eb04-4e0b-b0d1-a567aa1af80c","ios":"levelo://app?vid=d51789ea-eb04-4e0b-b0d1-a567aa1af80c"},"vehicle_type_id":"4","last_reported":1718384884,"current_range_meters":800,"station_id":"ce4bgup2rcd13ifvqcn0","pricing_plan_id":"cebpf4jnsgd1na2vs0mg"},{"bike_id":"7fe99b86-8826-45ba-bc38-515c4538b810","system_id":"levelo_inurba_marseille","lat":43.298037,"lon":5.381066,"is_reserved":false,"is_disabled":false,"rental_uris":{"android":"levelo://app?vid=7fe99b86-8826-45ba-bc38-515c4538b810","ios":"levelo://app?vid=7fe99b86-8826-45ba-bc38-515c4538b810"},"vehicle_type_id":"4","last_reported":1718384884,"current_range_meters":0,"station_id":"ce4bgip2rcd13ifvqbb0","pricing_plan_id":"cebpf4jnsgd1na2vs0mg"},{"bike_id":"e34f4d19-a8de-4796-b389-da4bab600136","system_id":"levelo_inurba_marseille","lat":43.298037,"lon":5.381066,"is_reserved":false,"is_disabled":false,"rental_uris":{"android":"levelo://app?vid=e34f4d19-a8de-4796-b389-da4bab600136","ios":"levelo://app?vid=e34f4d19-a8de-4796-b389-da4bab600136"},"vehicle_type_id":"4","last_reported":1718384884,"current_range_meters":0,"station_id":"ce4bgip2rcd13ifvqbb0","pricing_plan_id":"cebpf4jnsgd1na2vs0mg"},{"bike_id":"71c79482-ecbc-4b9b-800a-d253cfac1e6d","system_id":"levelo_inurba_marseille","lat":43.29578,"lon":5.37507,"is_reserved":false,"is_disabled":false,"rental_uris":{"android":"levelo://app?vid=71c79482-ecbc-4b9b-800a-d253cfac1e6d","ios":"levelo://app?vid=71c79482-ecbc-4b9b-800a-d253cfac1e6d"},"vehicle_type_id":"4","last_reported":1718384884,"current_range_meters":21200,"station_id":"ce4bgh92rcd13ifvqb50","pricing_plan_id":"cebpf4jnsgd1na2vs0mg"},{"bike_id":"765f8e31-5485-43e5-893c-9ac275e41b05","system_id":"levelo_inurba_marseille","lat":43.298037,"lon":5.381066,"is_reserved":false,"is_disabled":false,"rental_uris":{"android":"levelo://app?vid=765f8e31-5485-43e5-893c-9ac275e41b05","ios":"levelo://app?vid=765f8e31-5485-43e5-893c-9ac275e41b05"},"vehicle_type_id":"4","last_reported":1718384884,"current_range_meters":10800,"station_id":"ce4bgip2rcd13ifvqbb0","pricing_plan_id":"cebpf4jnsgd1na2vs0mg"},{"bike_id":"b6be553e-205c-465d-80af-526baa304426","system_id":"levelo_inurba_marseille","lat":43.304274,"lon":5.388873,"is_reserved":false,"is_disabled":false,"rental_uris":{"android":"levelo://app?vid=b6be553e-205c-465d-80af-526baa304426","ios":"levelo://app?vid=b6be553e-205c-465d-80af-526baa304426"},"vehicle_type_id":"4","last_reported":1718384884,"current_range_meters":10000,"station_id":"ce4bgk12rcd13ifvqbi0","pricing_plan_id":"cebpf4jnsgd1na2vs0mg"},{"bike_id":"66bceefb-d198-4448-8d82-19d0307585ce","system_id":"levelo_inurba_marseille","lat":43.295279,"lon":5.375048,"is_reserved":false,"is_disabled":false,"rental_uris":{"android":"levelo://app?vid=66bceefb-d198-4448-8d82-19d0307585ce","ios":"levelo://app?vid=66bceefb-d198-4448-8d82-19d0307585ce"},"vehicle_type_id":"4","last_reported":1718384884,"current_range_meters":9600,"station_id":"ce4bgkp2rcd13ifvqbmg","pricing_plan_id":"cebpf4jnsgd1na2vs0mg"},{"bike_id":"777ca5c8-b708-470b-bdaa-5585c6fff89b","system_id":"levelo_inurba_marseille","lat":43.29514,"lon":5.37507,"is_reserved":false,"is_disabled":false,"rental_uris":{"android":"levelo://app?vid=777ca5c8-b708-470b-bdaa-5585c6fff89b","ios":"levelo://app?vid=777ca5c8-b708-470b-bdaa-5585c6fff89b"},"vehicle_type_id":"4","last_reported":1718384884,"current_range_meters":0,"station_id":"ce4bgkp2rcd13ifvqbmg","pricing_plan_id":"cebpf4jnsgd1na2vs0mg"},{"bike_id":"f368e9ab-e703-4bf8-9d35-9626cada273f","system_id":"levelo_inurba_marseille","lat":43.309589,"lon":5.390258,"is_reserved":false,"is_disabled":false,"rental_uris":{"android":"levelo://app?vid=f368e9ab-e703-4bf8-9d35-9626cada273f","ios":"levelo://app?vid=f368e9ab-e703-4bf8-9d35-9626cada273f"},"vehicle_type_id":"4","last_reported":1718384884,"current_range_meters":24000,"station_id":"ce4bgup2rcd13ifvqco0","pricing_plan_id":"cebpf4jnsgd1na2vs0mg"},{"bike_id":"9d673dc2-3346-4989-9ef0-87cf21558b60","system_id":"levelo_inurba_marseille","lat":43.3237,"lon":5.38884,"is_reserved":false,"is_disabled":false,"rental_uris":{"android":"levelo://app?vid=9d673dc2-3346-4989-9ef0-87cf21558b60","ios":"levelo://app?vid=9d673dc2-3346-4989-9ef0-87cf21558b60"},"vehicle_type_id":"4","last_reported":1718384884,"current_range_meters":1200,"station_id":"ce4bhqp2rcd13ifvqhog","pricing_plan_id":"cebpf4jnsgd1na2vs0mg"},{"bike_id":"d2596582-2af4-4914-a443-2153ca250ff1","system_id":"levelo_inurba_marseille","lat":43.29602,"lon":5.381084,"is_reserved":false,"is_disabled":false,"rental_uris":{"android":"levelo://app?vid=d2596582-2af4-4914-a443-2153ca250ff1","ios":"levelo://app?vid=d2596582-2af4-4914-a443-2153ca250ff1"},"vehicle_type_id":"4","last_reported":1718384884,"current_range_meters":25200,"station_id":"ce4bgl12rcd13ifvqbo0","pricing_plan_id":"cebpf4jnsgd1na2vs0mg"},{"bike_id":"0b8f9bc3-d9bc-4d18-bb88-78ba06119587","system_id":"levelo_inurba_marseille","lat":43.29602,"lon":5.381084,"is_reserved":false,"is_disabled":false,"rental_uris":{"android":"levelo://app?vid=0b8f9bc3-d9bc-4d18-bb88-78ba06119587","ios":"levelo://app?vid=0b8f9bc3-d9bc-4d18-bb88-78ba06119587"},"vehicle_type_id":"4","last_reported":1718384884,"current_range_meters":0,"station_id":"ce4bgl12rcd13ifvqbo0","pricing_plan_id":"cebpf4jnsgd1na2vs0mg"},{"bike_id":"fe4b0079-2e4a-43be-9f50-4d5c21fac049","system_id":"levelo_inurba_marseille","lat":43.29602,"lon":5.381084,"is_reserved":false,"is_disabled":false,"rental_uris":{"android":"levelo://app?vid=fe4b0079-2e4a-43be-9f50-4d5c21fac049","ios":"levelo://app?vid=fe4b0079-2e4a-43be-9f50-4d5c21fac049"},"vehicle_type_id":"4","last_reported":1718384884,"current_range_meters":3600,"station_id":"ce4bgl12rcd13ifvqbo0","pricing_plan_id":"cebpf4jnsgd1na2vs0mg"},{"bike_id":"891f7509-51b4-415b-b694-d7a335fda76a","system_id":"levelo_inurba_marseille","lat":43.292749,"lon":5.368402,"is_reserved":false,"is_disabled":false,"rental_uris":{"android":"levelo://app?vid=891f7509-51b4-415b-b694-d7a335fda76a","ios":"levelo://app?vid=891f7509-51b4-415b-b694-d7a335fda76a"},"vehicle_type_id":"4","last_reported":1718384884,"current_range_meters":28400,"station_id":"ce4bhbp2rcd13ifvqesg","pricing_plan_id":"cebpf4jnsgd1na2vs0mg"},{"bike_id":"369b2658-eacb-45d0-af38-abc4ea1d2a8a","system_id":"levelo_inurba_marseille","lat":43.305994,"lon":5.393687,"is_reserved":false,"is_disabled":false,"rental_uris":{"android":"levelo://app?vid=369b2658-eacb-45d0-af38-abc4ea1d2a8a","ios":"levelo://app?vid=369b2658-eacb-45d0-af38-abc4ea1d2a8a"},"vehicle_type_id":"4","last_reported":1718384884,"current_range_meters":0,"station_id":"ce4bh0p2rcd13ifvqd80","pricing_plan_id":"cebpf4jnsgd1na2vs0mg"},{"bike_id":"777394cf-f436-458a-b946-e37e1916a2ce","system_id":"levelo_inurba_marseille","lat":43.305994,"lon":5.393687,"is_reserved":false,"is_disabled":false,"rental_uris":{"android":"levelo://app?vid=777394cf-f436-458a-b946-e37e1916a2ce","ios":"levelo://app?vid=777394cf-f436-458a-b946-e37e1916a2ce"},"vehicle_type_id":"4","last_reported":1718384884,"current_range_meters":0,"station_id":"ce4bh0p2rcd13ifvqd80","pricing_plan_id":"cebpf4jnsgd1na2vs0mg"},{"bike_id":"2f3858b1-198b-4ba2-b1cb-5b9c08962c0e","system_id":"levelo_inurba_marseille","lat":43.293017,"lon":5.35871,"is_reserved":false,"is_disabled":false,"rental_uris":{"android":"levelo://app?vid=2f3858b1-198b-4ba2-b1cb-5b9c08962c0e","ios":"levelo://app?vid=2f3858b1-198b-4ba2-b1cb-5b9c08962c0e"},"vehicle_type_id":"4","last_reported":1718384884,"current_range_meters":11600,"station_id":"","pricing_plan_id":"cebpf4jnsgd1na2vs0mg"},{"bike_id":"0ef718fb-72e5-4a7c-83fc-5aa4c7834550","system_id":"levelo_inurba_marseille","lat":43.293009,"lon":5.374584,"is_reserved":false,"is_disabled":false,"rental_uris":{"android":"levelo://app?vid=0ef718fb-72e5-4a7c-83fc-5aa4c7834550","ios":"levelo://app?vid=0ef718fb-72e5-4a7c-83fc-5aa4c7834550"},"vehicle_type_id":"4","last_reported":1718384884,"current_range_meters":0,"station_id":"ce4bgi12rcd13ifvqb70","pricing_plan_id":"cebpf4jnsgd1na2vs0mg"},{"bike_id":"779b3901-b201-47e2-ac74-9d23e95811a9","system_id":"levelo_inurba_marseille","lat":43.303002,"lon":5.392142,"is_reserved":false,"is_disabled":false,"rental_uris":{"android":"levelo://app?vid=779b3901-b201-47e2-ac74-9d23e95811a9","ios":"levelo://app?vid=779b3901-b201-47e2-ac74-9d23e95811a9"},"vehicle_type_id":"4","last_reported":1718384884,"current_range_meters":6400,"station_id":"ce4bgkh2rcd13ifvqbk0","pricing_plan_id":"cebpf4jnsgd1na2vs0mg"},{"bike_id":"5ec4aa06-9a4c-4475-8c44-aba2310ce6c6","system_id":"levelo_inurba_marseille","lat":43.292311,"lon":5.360731,"is_reserved":false,"is_disabled":false,"rental_uris":{"android":"levelo://app?vid=5ec4aa06-9a4c-4475-8c44-aba2310ce6c6","ios":"levelo://app?vid=5ec4aa06-9a4c-4475-8c44-aba2310ce6c6"},"vehicle_type_id":"4","last_reported":1718384884,"current_range_meters":0,"station_id":"ce4bhbh2rcd13ifvqeqg","pricing_plan_id":"cebpf4jnsgd1na2vs0mg"},{"bike_id":"2baac896-af6c-4e21-bf15-c221ff51f696","system_id":"levelo_inurba_marseille","lat":43.292311,"lon":5.360731,"is_reserved":false,"is_disabled":false,"rental_uris":{"android":"levelo://app?vid=2baac896-af6c-4e21-bf15-c221ff51f696","ios":"levelo://app?vid=2baac896-af6c-4e21-bf15-c221ff51f696"},"vehicle_type_id":"4","last_reported":1718384884,"current_range_meters":28400,"station_id":"ce4bhbh2rcd13ifvqeqg","pricing_plan_id":"cebpf4jnsgd1na2vs0mg"},{"bike_id":"794994cf-4d8d-4786-8bc0-41b1e885ef9c","system_id":"levelo_inurba_marseille","lat":43.29227,"lon":5.36071,"is_reserved":false,"is_disabled":false,"rental_uris":{"android":"levelo://app?vid=794994cf-4d8d-4786-8bc0-41b1e885ef9c","ios":"levelo://app?vid=794994cf-4d8d-4786-8bc0-41b1e885ef9c"},"vehicle_type_id":"4","last_reported":1718384884,"current_range_meters":0,"station_id":"ce4bhbh2rcd13ifvqeqg","pricing_plan_id":"cebpf4jnsgd1na2vs0mg"},{"bike_id":"99c55268-ecd9-439b-a958-6b3d43a0b6ee","system_id":"levelo_inurba_marseille","lat":43.292311,"lon":5.360731,"is_reserved":false,"is_disabled":false,"rental_uris":{"android":"levelo://app?vid=99c55268-ecd9-439b-a958-6b3d43a0b6ee","ios":"levelo://app?vid=99c55268-ecd9-439b-a958-6b3d43a0b6ee"},"vehicle_type_id":"4","last_reported":1718384884,"current_range_meters":16400,"station_id":"ce4bhbh2rcd13ifvqeqg","pricing_plan_id":"cebpf4jnsgd1na2vs0mg"},{"bike_id":"45584d98-fdec-4c3e-987f-2e3e1a6030d2","system_id":"levelo_inurba_marseille","lat":43.29269,"lon":5.37625,"is_reserved":false,"is_disabled":false,"rental_uris":{"android":"levelo://app?vid=45584d98-fdec-4c3e-987f-2e3e1a6030d2","ios":"levelo://app?vid=45584d98-fdec-4c3e-987f-2e3e1a6030d2"},"vehicle_type_id":"4","last_reported":1718384884,"current_range_meters":18800,"station_id":"","pricing_plan_id":"cebpf4jnsgd1na2vs0mg"},{"bike_id":"d50f1020-499b-42f3-90dc-0e6bbc4ad0c9","system_id":"levelo_inurba_marseille","lat":43.292597,"lon":5.37615,"is_reserved":false,"is_disabled":false,"rental_uris":{"android":"levelo://app?vid=d50f1020-499b-42f3-90dc-0e6bbc4ad0c9","ios":"levelo://app?vid=d50f1020-499b-42f3-90dc-0e6bbc4ad0c9"},"vehicle_type_id":"4","last_reported":1718384884,"current_range_meters":7200,"station_id":"","pricing_plan_id":"cebpf4jnsgd1na2vs0mg"},{"bike_id":"d29f93ba-7cf3-4624-97c5-17187348bd6f","system_id":"levelo_inurba_marseille","lat":43.29644,"lon":5.385706,"is_reserved":false,"is_disabled":false,"rental_uris":{"android":"levelo://app?vid=d29f93ba-7cf3-4624-97c5-17187348bd6f","ios":"levelo://app?vid=d29f93ba-7cf3-4624-97c5-17187348bd6f"},"vehicle_type_id":"4","last_reported":1718384884,"current_range_meters":0,"station_id":"","pricing_plan_id":"cebpf4jnsgd1na2vs0mg"},{"bike_id":"786f41d3-18dc-4450-a140-318967f05a54","system_id":"levelo_inurba_marseille","lat":43.291671,"lon":5.371575,"is_reserved":false,"is_disabled":false,"rental_uris":{"android":"levelo://app?vid=786f41d3-18dc-4450-a140-318967f05a54","ios":"levelo://app?vid=786f41d3-18dc-4450-a140-318967f05a54"},"vehicle_type_id":"4","last_reported":1718384884,"current_range_meters":16400,"station_id":"ce4bha92rcd13ifvqeh0","pricing_plan_id":"cebpf4jnsgd1na2vs0mg"},{"bike_id":"0362ced1-b5a8-4165-a8f6-cabb90be2368","system_id":"levelo_inurba_marseille","lat":43.2916,"lon":5.37154,"is_reserved":false,"is_disabled":false,"rental_uris":{"android":"levelo://app?vid=0362ced1-b5a8-4165-a8f6-cabb90be2368","ios":"levelo://app?vid=0362ced1-b5a8-4165-a8f6-cabb90be2368"},"vehicle_type_id":"4","last_reported":1718384884,"current_range_meters":0,"station_id":"ce4bha92rcd13ifvqeh0","pricing_plan_id":"cebpf4jnsgd1na2vs0mg"},{"bike_id":"b487871c-8dc5-4a45-aeef-e5370ae041c3","system_id":"levelo_inurba_marseille","lat":43.291675,"lon":5.371583,"is_reserved":false,"is_disabled":false,"rental_uris":{"android":"levelo://app?vid=b487871c-8dc5-4a45-aeef-e5370ae041c3","ios":"levelo://app?vid=b487871c-8dc5-4a45-aeef-e5370ae041c3"},"vehicle_type_id":"4","last_reported":1718384884,"current_range_meters":15600,"station_id":"ce4bha92rcd13ifvqeh0","pricing_plan_id":"cebpf4jnsgd1na2vs0mg"},{"bike_id":"f032ec67-cdfc-40e4-a9dd-b8163ac4640b","system_id":"levelo_inurba_marseille","lat":43.29196,"lon":5.358,"is_reserved":false,"is_disabled":false,"rental_uris":{"android":"levelo://app?vid=f032ec67-cdfc-40e4-a9dd-b8163ac4640b","ios":"levelo://app?vid=f032ec67-cdfc-40e4-a9dd-b8163ac4640b"},"vehicle_type_id":"4","last_reported":1718384884,"current_range_meters":0,"station_id":"ce4bhb12rcd13ifvqel0","pricing_plan_id":"cebpf4jnsgd1na2vs0mg"},{"bike_id":"30d23fa3-fce5-45b1-9ba5-5a084bc8febc","system_id":"levelo_inurba_marseille","lat":43.313291,"lon":5.396838,"is_reserved":false,"is_disabled":false,"rental_uris":{"android":"levelo://app?vid=30d23fa3-fce5-45b1-9ba5-5a084bc8febc","ios":"levelo://app?vid=30d23fa3-fce5-45b1-9ba5-5a084bc8febc"},"vehicle_type_id":"4","last_reported":1718384884,"current_range_meters":0,"station_id":"ce4bgvp2rcd13ifvqcu0","pricing_plan_id":"cebpf4jnsgd1na2vs0mg"},{"bike_id":"f6d5ade1-bbec-41ae-95a9-dbfd811f5532","system_id":"levelo_inurba_marseille","lat":43.313291,"lon":5.396838,"is_reserved":false,"is_disabled":false,"rental_uris":{"android":"levelo://app?vid=f6d5ade1-bbec-41ae-95a9-dbfd811f5532","ios":"levelo://app?vid=f6d5ade1-bbec-41ae-95a9-dbfd811f5532"},"vehicle_type_id":"4","last_reported":1718384884,"current_range_meters":4800,"station_id":"ce4bgvp2rcd13ifvqcu0","pricing_plan_id":"cebpf4jnsgd1na2vs0mg"},{"bike_id":"65ba1c38-6d28-4fef-a290-43d49e86dc82","system_id":"levelo_inurba_marseille","lat":43.313291,"lon":5.396838,"is_reserved":false,"is_disabled":false,"rental_uris":{"android":"levelo://app?vid=65ba1c38-6d28-4fef-a290-43d49e86dc82","ios":"levelo://app?vid=65ba1c38-6d28-4fef-a290-43d49e86dc82"},"vehicle_type_id":"4","last_reported":1718384884,"current_range_meters":2400,"station_id":"ce4bgvp2rcd13ifvqcu0","pricing_plan_id":"cebpf4jnsgd1na2vs0mg"},{"bike_id":"0dca7fbf-38e4-4d90-a549-b2919063a325","system_id":"levelo_inurba_marseille","lat":43.292005,"lon":5.357875,"is_reserved":false,"is_disabled":false,"rental_uris":{"android":"levelo://app?vid=0dca7fbf-38e4-4d90-a549-b2919063a325","ios":"levelo://app?vid=0dca7fbf-38e4-4d90-a549-b2919063a325"},"vehicle_type_id":"4","last_reported":1718384884,"current_range_meters":400,"station_id":"ce4bhb12rcd13ifvqel0","pricing_plan_id":"cebpf4jnsgd1na2vs0mg"},{"bike_id":"f25392c4-ba0a-44c2-9c41-fc2ac0bd81fb","system_id":"levelo_inurba_marseille","lat":43.292005,"lon":5.357875,"is_reserved":false,"is_disabled":false,"rental_uris":{"android":"levelo://app?vid=f25392c4-ba0a-44c2-9c41-fc2ac0bd81fb","ios":"levelo://app?vid=f25392c4-ba0a-44c2-9c41-fc2ac0bd81fb"},"vehicle_type_id":"4","last_reported":1718384884,"current_range_meters":30000,"station_id":"ce4bhb12rcd13ifvqel0","pricing_plan_id":"cebpf4jnsgd1na2vs0mg"},{"bike_id":"05d63590-3912-4e89-80a2-345bd00a10f6","system_id":"levelo_inurba_marseille","lat":43.29184,"lon":5.35803,"is_reserved":false,"is_disabled":false,"rental_uris":{"android":"levelo://app?vid=05d63590-3912-4e89-80a2-345bd00a10f6","ios":"levelo://app?vid=05d63590-3912-4e89-80a2-345bd00a10f6"},"vehicle_type_id":"4","last_reported":1718384884,"current_range_meters":0,"station_id":"ce4bhb12rcd13ifvqel0","pricing_plan_id":"cebpf4jnsgd1na2vs0mg"},{"bike_id":"a5eaee9d-530a-4dfe-9db5-cdef74d9b246","system_id":"levelo_inurba_marseille","lat":43.31329,"lon":5.39699,"is_reserved":false,"is_disabled":false,"rental_uris":{"android":"levelo://app?vid=a5eaee9d-530a-4dfe-9db5-cdef74d9b246","ios":"levelo://app?vid=a5eaee9d-530a-4dfe-9db5-cdef74d9b246"},"vehicle_type_id":"4","last_reported":1718384884,"current_range_meters":2400,"station_id":"ce4bgvp2rcd13ifvqcu0","pricing_plan_id":"cebpf4jnsgd1na2vs0mg"},{"bike_id":"59df520c-3066-4c2e-9fe3-d9b5942d5717","system_id":"levelo_inurba_marseille","lat":43.29182,"lon":5.358,"is_reserved":false,"is_disabled":false,"rental_uris":{"android":"levelo://app?vid=59df520c-3066-4c2e-9fe3-d9b5942d5717","ios":"levelo://app?vid=59df520c-3066-4c2e-9fe3-d9b5942d5717"},"vehicle_type_id":"4","last_reported":1718384884,"current_range_meters":0,"station_id":"ce4bhb12rcd13ifvqel0","pricing_plan_id":"cebpf4jnsgd1na2vs0mg"},{"bike_id":"716c9fec-2f83-4bcf-b824-fd10931cd109","system_id":"levelo_inurba_marseille","lat":43.29529,"lon":5.385581,"is_reserved":false,"is_disabled":false,"rental_uris":{"android":"levelo://app?vid=716c9fec-2f83-4bcf-b824-fd10931cd109","ios":"levelo://app?vid=716c9fec-2f83-4bcf-b824-fd10931cd109"},"vehicle_type_id":"4","last_reported":1718384884,"current_range_meters":0,"station_id":"ce4bgih2rcd13ifvqba0","pricing_plan_id":"cebpf4jnsgd1na2vs0mg"},{"bike_id":"dd18d98d-ede4-4195-ab2a-c7c1d69751bb","system_id":"levelo_inurba_marseille","lat":43.29529,"lon":5.385581,"is_reserved":false,"is_disabled":false,"rental_uris":{"android":"levelo://app?vid=dd18d98d-ede4-4195-ab2a-c7c1d69751bb","ios":"levelo://app?vid=dd18d98d-ede4-4195-ab2a-c7c1d69751bb"},"vehicle_type_id":"4","last_reported":1718384884,"current_range_meters":18400,"station_id":"ce4bgih2rcd13ifvqba0","pricing_plan_id":"cebpf4jnsgd1na2vs0mg"},{"bike_id":"34fd745b-72d0-4ab7-ab15-f2f8a505de48","system_id":"levelo_inurba_marseille","lat":43.29183,"lon":5.35701,"is_reserved":false,"is_disabled":false,"rental_uris":{"android":"levelo://app?vid=34fd745b-72d0-4ab7-ab15-f2f8a505de48","ios":"levelo://app?vid=34fd745b-72d0-4ab7-ab15-f2f8a505de48"},"vehicle_type_id":"4","last_reported":1718384884,"current_range_meters":18800,"station_id":"","pricing_plan_id":"cebpf4jnsgd1na2vs0mg"},{"bike_id":"636c3855-eb39-4163-9845-f240fbedc9dc","system_id":"levelo_inurba_marseille","lat":43.29068,"lon":5.37159,"is_reserved":false,"is_disabled":false,"rental_uris":{"android":"levelo://app?vid=636c3855-eb39-4163-9845-f240fbedc9dc","ios":"levelo://app?vid=636c3855-eb39-4163-9845-f240fbedc9dc"},"vehicle_type_id":"4","last_reported":1718384884,"current_range_meters":0,"station_id":"ce4bh5p2rcd13ifvqe4g","pricing_plan_id":"cebpf4jnsgd1na2vs0mg"},{"bike_id":"8ebe1237-fd0d-4b4b-9e1d-11649ce1791a","system_id":"levelo_inurba_marseille","lat":43.290779,"lon":5.371482,"is_reserved":false,"is_disabled":false,"rental_uris":{"android":"levelo://app?vid=8ebe1237-fd0d-4b4b-9e1d-11649ce1791a","ios":"levelo://app?vid=8ebe1237-fd0d-4b4b-9e1d-11649ce1791a"},"vehicle_type_id":"4","last_reported":1718384884,"current_range_meters":27200,"station_id":"ce4bh5p2rcd13ifvqe4g","pricing_plan_id":"cebpf4jnsgd1na2vs0mg"},{"bike_id":"6a5f7625-c802-4b2a-b144-e6efc7f9effb","system_id":"levelo_inurba_marseille","lat":43.290631,"lon":5.359244,"is_reserved":false,"is_disabled":false,"rental_uris":{"android":"levelo://app?vid=6a5f7625-c802-4b2a-b144-e6efc7f9effb","ios":"levelo://app?vid=6a5f7625-c802-4b2a-b144-e6efc7f9effb"},"vehicle_type_id":"4","last_reported":1718384884,"current_range_meters":12000,"station_id":"ce4bha92rcd13ifvqeg0","pricing_plan_id":"cebpf4jnsgd1na2vs0mg"},{"bike_id":"7668b4e3-f350-46f4-ac77-62f00e34c15d","system_id":"levelo_inurba_marseille","lat":43.290631,"lon":5.359244,"is_reserved":false,"is_disabled":false,"rental_uris":{"android":"levelo://app?vid=7668b4e3-f350-46f4-ac77-62f00e34c15d","ios":"levelo://app?vid=7668b4e3-f350-46f4-ac77-62f00e34c15d"},"vehicle_type_id":"4","last_reported":1718384884,"current_range_meters":20000,"station_id":"ce4bha92rcd13ifvqeg0","pricing_plan_id":"cebpf4jnsgd1na2vs0mg"},{"bike_id":"b01fe735-699c-4eec-a92a-b52ee8d8db71","system_id":"levelo_inurba_marseille","lat":43.290319,"lon":5.375732,"is_reserved":false,"is_disabled":false,"rental_uris":{"android":"levelo://app?vid=b01fe735-699c-4eec-a92a-b52ee8d8db71","ios":"levelo://app?vid=b01fe735-699c-4eec-a92a-b52ee8d8db71"},"vehicle_type_id":"4","last_reported":1718384884,"current_range_meters":1200,"station_id":"ce4bh692rcd13ifvqe90","pricing_plan_id":"cebpf4jnsgd1na2vs0mg"},{"bike_id":"cffd81dc-a4a4-4df4-8290-455318f4cea9","system_id":"levelo_inurba_marseille","lat":43.289184,"lon":5.366408,"is_reserved":false,"is_disabled":false,"rental_uris":{"android":"levelo://app?vid=cffd81dc-a4a4-4df4-8290-455318f4cea9","ios":"levelo://app?vid=cffd81dc-a4a4-4df4-8290-455318f4cea9"},"vehicle_type_id":"4","last_reported":1718384884,"current_range_meters":5600,"station_id":"ce4bhap2rcd13ifvqek0","pricing_plan_id":"cebpf4jnsgd1na2vs0mg"},{"bike_id":"c8c42c05-ae39-4cef-b310-58337a26f79e","system_id":"levelo_inurba_marseille","lat":43.289184,"lon":5.366408,"is_reserved":false,"is_disabled":false,"rental_uris":{"android":"levelo://app?vid=c8c42c05-ae39-4cef-b310-58337a26f79e","ios":"levelo://app?vid=c8c42c05-ae39-4cef-b310-58337a26f79e"},"vehicle_type_id":"4","last_reported":1718384884,"current_range_meters":26000,"station_id":"ce4bhap2rcd13ifvqek0","pricing_plan_id":"cebpf4jnsgd1na2vs0mg"},{"bike_id":"027749e3-a5d5-4e51-8adb-694bcd2f6a87","system_id":"levelo_inurba_marseille","lat":43.290319,"lon":5.375732,"is_reserved":false,"is_disabled":false,"rental_uris":{"android":"levelo://app?vid=027749e3-a5d5-4e51-8adb-694bcd2f6a87","ios":"levelo://app?vid=027749e3-a5d5-4e51-8adb-694bcd2f6a87"},"vehicle_type_id":"4","last_reported":1718384884,"current_range_meters":2800,"station_id":"ce4bh692rcd13ifvqe90","pricing_plan_id":"cebpf4jnsgd1na2vs0mg"},{"bike_id":"27acb74f-3d52-4183-8288-a7ba0a7a7d83","system_id":"levelo_inurba_marseille","lat":43.289184,"lon":5.366408,"is_reserved":false,"is_disabled":false,"rental_uris":{"android":"levelo://app?vid=27acb74f-3d52-4183-8288-a7ba0a7a7d83","ios":"levelo://app?vid=27acb74f-3d52-4183-8288-a7ba0a7a7d83"},"vehicle_type_id":"4","last_reported":1718384884,"current_range_meters":28800,"station_id":"ce4bhap2rcd13ifvqek0","pricing_plan_id":"cebpf4jnsgd1na2vs0mg"},{"bike_id":"7e421e47-946f-46de-a1c6-69975d84e284","system_id":"levelo_inurba_marseille","lat":43.29026,"lon":5.37559,"is_reserved":false,"is_disabled":false,"rental_uris":{"android":"levelo://app?vid=7e421e47-946f-46de-a1c6-69975d84e284","ios":"levelo://app?vid=7e421e47-946f-46de-a1c6-69975d84e284"},"vehicle_type_id":"4","last_reported":1718384884,"current_range_meters":0,"station_id":"ce4bh692rcd13ifvqe90","pricing_plan_id":"cebpf4jnsgd1na2vs0mg"},{"bike_id":"b93e4443-0bdb-4f89-99e7-0509a4c6afbf","system_id":"levelo_inurba_marseille","lat":43.289468,"lon":5.363719,"is_reserved":false,"is_disabled":false,"rental_uris":{"android":"levelo://app?vid=b93e4443-0bdb-4f89-99e7-0509a4c6afbf","ios":"levelo://app?vid=b93e4443-0bdb-4f89-99e7-0509a4c6afbf"},"vehicle_type_id":"4","last_reported":1718384884,"current_range_meters":14000,"station_id":"ce4bhc92rcd13ifvqetg","pricing_plan_id":"cebpf4jnsgd1na2vs0mg"},{"bike_id":"6cbe0a8c-3a0b-4972-9852-be03e5565e90","system_id":"levelo_inurba_marseille","lat":43.289468,"lon":5.363719,"is_reserved":false,"is_disabled":false,"rental_uris":{"android":"levelo://app?vid=6cbe0a8c-3a0b-4972-9852-be03e5565e90","ios":"levelo://app?vid=6cbe0a8c-3a0b-4972-9852-be03e5565e90"},"vehicle_type_id":"4","last_reported":1718384884,"current_range_meters":800,"station_id":"ce4bhc92rcd13ifvqetg","pricing_plan_id":"cebpf4jnsgd1na2vs0mg"},{"bike_id":"57106f93-54bd-4b90-af98-e95df38d1cea","system_id":"levelo_inurba_marseille","lat":43.289468,"lon":5.363719,"is_reserved":false,"is_disabled":false,"rental_uris":{"android":"levelo://app?vid=57106f93-54bd-4b90-af98-e95df38d1cea","ios":"levelo://app?vid=57106f93-54bd-4b90-af98-e95df38d1cea"},"vehicle_type_id":"4","last_reported":1718384884,"current_range_meters":0,"station_id":"ce4bhc92rcd13ifvqetg","pricing_plan_id":"cebpf4jnsgd1na2vs0mg"},{"bike_id":"fb6cb9b1-037b-4cdb-8669-3dad8a3bbe67","system_id":"levelo_inurba_marseille","lat":43.289468,"lon":5.363719,"is_reserved":false,"is_disabled":false,"rental_uris":{"android":"levelo://app?vid=fb6cb9b1-037b-4cdb-8669-3dad8a3bbe67","ios":"levelo://app?vid=fb6cb9b1-037b-4cdb-8669-3dad8a3bbe67"},"vehicle_type_id":"4","last_reported":1718384884,"current_range_meters":2800,"station_id":"ce4bhc92rcd13ifvqetg","pricing_plan_id":"cebpf4jnsgd1na2vs0mg"},{"bike_id":"6cde3aae-827c-4ebd-a9f5-8c5b53cdb827","system_id":"levelo_inurba_marseille","lat":43.289468,"lon":5.363719,"is_reserved":false,"is_disabled":false,"rental_uris":{"android":"levelo://app?vid=6cde3aae-827c-4ebd-a9f5-8c5b53cdb827","ios":"levelo://app?vid=6cde3aae-827c-4ebd-a9f5-8c5b53cdb827"},"vehicle_type_id":"4","last_reported":1718384884,"current_range_meters":12800,"station_id":"ce4bhc92rcd13ifvqetg","pricing_plan_id":"cebpf4jnsgd1na2vs0mg"},{"bike_id":"a98ab667-3cab-4853-9d82-2079af38ef4b","system_id":"levelo_inurba_marseille","lat":43.292644,"lon":5.384257,"is_reserved":false,"is_disabled":false,"rental_uris":{"android":"levelo://app?vid=a98ab667-3cab-4853-9d82-2079af38ef4b","ios":"levelo://app?vid=a98ab667-3cab-4853-9d82-2079af38ef4b"},"vehicle_type_id":"4","last_reported":1718384884,"current_range_meters":1600,"station_id":"ce4bh692rcd13ifvqea0","pricing_plan_id":"cebpf4jnsgd1na2vs0mg"},{"bike_id":"9581aa82-d726-4317-8091-f38e0fe95446","system_id":"levelo_inurba_marseille","lat":43.29262,"lon":5.38443,"is_reserved":false,"is_disabled":false,"rental_uris":{"android":"levelo://app?vid=9581aa82-d726-4317-8091-f38e0fe95446","ios":"levelo://app?vid=9581aa82-d726-4317-8091-f38e0fe95446"},"vehicle_type_id":"4","last_reported":1718384884,"current_range_meters":0,"station_id":"ce4bh692rcd13ifvqea0","pricing_plan_id":"cebpf4jnsgd1na2vs0mg"},{"bike_id":"508d18bd-7699-4392-b55b-b27c33fba27e","system_id":"levelo_inurba_marseille","lat":43.292642,"lon":5.384254,"is_reserved":false,"is_disabled":false,"rental_uris":{"android":"levelo://app?vid=508d18bd-7699-4392-b55b-b27c33fba27e","ios":"levelo://app?vid=508d18bd-7699-4392-b55b-b27c33fba27e"},"vehicle_type_id":"4","last_reported":1718384884,"current_range_meters":2400,"station_id":"ce4bh692rcd13ifvqea0","pricing_plan_id":"cebpf4jnsgd1na2vs0mg"},{"bike_id":"b9896991-8054-4762-91a6-3e6794fb4999","system_id":"levelo_inurba_marseille","lat":43.304296,"lon":5.397513,"is_reserved":false,"is_disabled":false,"rental_uris":{"android":"levelo://app?vid=b9896991-8054-4762-91a6-3e6794fb4999","ios":"levelo://app?vid=b9896991-8054-4762-91a6-3e6794fb4999"},"vehicle_type_id":"4","last_reported":1718384884,"current_range_meters":0,"station_id":"ce4bh092rcd13ifvqd20","pricing_plan_id":"cebpf4jnsgd1na2vs0mg"},{"bike_id":"68ccf583-6f08-4476-8cd4-c5109c99997d","system_id":"levelo_inurba_marseille","lat":43.29094,"lon":5.38126,"is_reserved":false,"is_disabled":false,"rental_uris":{"android":"levelo://app?vid=68ccf583-6f08-4476-8cd4-c5109c99997d","ios":"levelo://app?vid=68ccf583-6f08-4476-8cd4-c5109c99997d"},"vehicle_type_id":"4","last_reported":1718384884,"current_range_meters":1600,"station_id":"ce4bh512rcd13ifvqe2g","pricing_plan_id":"cebpf4jnsgd1na2vs0mg"},{"bike_id":"852648c0-e02a-4dd5-9e43-ff0fb7e4e506","system_id":"levelo_inurba_marseille","lat":43.2901,"lon":5.381269,"is_reserved":false,"is_disabled":false,"rental_uris":{"android":"levelo://app?vid=852648c0-e02a-4dd5-9e43-ff0fb7e4e506","ios":"levelo://app?vid=852648c0-e02a-4dd5-9e43-ff0fb7e4e506"},"vehicle_type_id":"4","last_reported":1718384884,"current_range_meters":12400,"station_id":"ce4bh4p2rcd13ifvqe1g","pricing_plan_id":"cebpf4jnsgd1na2vs0mg"},{"bike_id":"6dc79a9a-2eb1-4016-b9a1-51702fd43ca3","system_id":"levelo_inurba_marseille","lat":43.33016,"lon":5.39037,"is_reserved":false,"is_disabled":false,"rental_uris":{"android":"levelo://app?vid=6dc79a9a-2eb1-4016-b9a1-51702fd43ca3","ios":"levelo://app?vid=6dc79a9a-2eb1-4016-b9a1-51702fd43ca3"},"vehicle_type_id":"4","last_reported":1718384884,"current_range_meters":31200,"station_id":"ce4bhr92rcd13ifvqhrg","pricing_plan_id":"cebpf4jnsgd1na2vs0mg"},{"bike_id":"ef7233ad-3dd5-4e4f-b43c-17c7b3985931","system_id":"levelo_inurba_marseille","lat":43.33021,"lon":5.39037,"is_reserved":false,"is_disabled":false,"rental_uris":{"android":"levelo://app?vid=ef7233ad-3dd5-4e4f-b43c-17c7b3985931","ios":"levelo://app?vid=ef7233ad-3dd5-4e4f-b43c-17c7b3985931"},"vehicle_type_id":"4","last_reported":1718384884,"current_range_meters":28800,"station_id":"ce4bhr92rcd13ifvqhrg","pricing_plan_id":"cebpf4jnsgd1na2vs0mg"},{"bike_id":"85952132-cd6b-4482-8c6d-92b54171ff4f","system_id":"levelo_inurba_marseille","lat":43.33021,"lon":5.39039,"is_reserved":false,"is_disabled":false,"rental_uris":{"android":"levelo://app?vid=85952132-cd6b-4482-8c6d-92b54171ff4f","ios":"levelo://app?vid=85952132-cd6b-4482-8c6d-92b54171ff4f"},"vehicle_type_id":"4","last_reported":1718384884,"current_range_meters":5200,"station_id":"ce4bhr92rcd13ifvqhrg","pricing_plan_id":"cebpf4jnsgd1na2vs0mg"},{"bike_id":"1f9c0157-b48a-441a-acfe-d869bb050b1e","system_id":"levelo_inurba_marseille","lat":43.33021,"lon":5.39039,"is_reserved":false,"is_disabled":false,"rental_uris":{"android":"levelo://app?vid=1f9c0157-b48a-441a-acfe-d869bb050b1e","ios":"levelo://app?vid=1f9c0157-b48a-441a-acfe-d869bb050b1e"},"vehicle_type_id":"4","last_reported":1718384884,"current_range_meters":9600,"station_id":"ce4bhr92rcd13ifvqhrg","pricing_plan_id":"cebpf4jnsgd1na2vs0mg"},{"bike_id":"1d19ce97-0e78-4aab-8efe-8aeb0dd604a0","system_id":"levelo_inurba_marseille","lat":43.295169,"lon":5.390426,"is_reserved":false,"is_disabled":false,"rental_uris":{"android":"levelo://app?vid=1d19ce97-0e78-4aab-8efe-8aeb0dd604a0","ios":"levelo://app?vid=1d19ce97-0e78-4aab-8efe-8aeb0dd604a0"},"vehicle_type_id":"4","last_reported":1718384884,"current_range_meters":0,"station_id":"ce4bh3p2rcd13ifvqdp0","pricing_plan_id":"cebpf4jnsgd1na2vs0mg"},{"bike_id":"701b823c-039b-4132-95f6-397b2e28e277","system_id":"levelo_inurba_marseille","lat":43.297815,"lon":5.393548,"is_reserved":false,"is_disabled":false,"rental_uris":{"android":"levelo://app?vid=701b823c-039b-4132-95f6-397b2e28e277","ios":"levelo://app?vid=701b823c-039b-4132-95f6-397b2e28e277"},"vehicle_type_id":"4","last_reported":1718384884,"current_range_meters":6000,"station_id":"chh1huq6cuj3fo74tm60","pricing_plan_id":"cebpf4jnsgd1na2vs0mg"},{"bike_id":"6f532b18-46a1-444c-8005-a8f072db8a33","system_id":"levelo_inurba_marseille","lat":43.33025,"lon":5.39039,"is_reserved":false,"is_disabled":false,"rental_uris":{"android":"levelo://app?vid=6f532b18-46a1-444c-8005-a8f072db8a33","ios":"levelo://app?vid=6f532b18-46a1-444c-8005-a8f072db8a33"},"vehicle_type_id":"4","last_reported":1718384884,"current_range_meters":16800,"station_id":"ce4bhr92rcd13ifvqhrg","pricing_plan_id":"cebpf4jnsgd1na2vs0mg"},{"bike_id":"98da1dfe-2356-49c0-8c5f-bdaa39e8df81","system_id":"levelo_inurba_marseille","lat":43.33025,"lon":5.3904,"is_reserved":false,"is_disabled":false,"rental_uris":{"android":"levelo://app?vid=98da1dfe-2356-49c0-8c5f-bdaa39e8df81","ios":"levelo://app?vid=98da1dfe-2356-49c0-8c5f-bdaa39e8df81"},"vehicle_type_id":"4","last_reported":1718384884,"current_range_meters":19200,"station_id":"ce4bhr92rcd13ifvqhrg","pricing_plan_id":"cebpf4jnsgd1na2vs0mg"},{"bike_id":"4eaf905f-6145-4f27-ba46-43738122e40a","system_id":"levelo_inurba_marseille","lat":43.33023,"lon":5.39045,"is_reserved":false,"is_disabled":false,"rental_uris":{"android":"levelo://app?vid=4eaf905f-6145-4f27-ba46-43738122e40a","ios":"levelo://app?vid=4eaf905f-6145-4f27-ba46-43738122e40a"},"vehicle_type_id":"4","last_reported":1718384884,"current_range_meters":29600,"station_id":"ce4bhr92rcd13ifvqhrg","pricing_plan_id":"cebpf4jnsgd1na2vs0mg"},{"bike_id":"7305f2bd-7ba1-4a18-aa25-0c4c808cc51e","system_id":"levelo_inurba_marseille","lat":43.291047,"lon":5.383047,"is_reserved":false,"is_disabled":false,"rental_uris":{"android":"levelo://app?vid=7305f2bd-7ba1-4a18-aa25-0c4c808cc51e","ios":"levelo://app?vid=7305f2bd-7ba1-4a18-aa25-0c4c808cc51e"},"vehicle_type_id":"4","last_reported":1718384884,"current_range_meters":27600,"station_id":"","pricing_plan_id":"cebpf4jnsgd1na2vs0mg"},{"bike_id":"e4c25a70-0e0e-4528-937e-dba2bec84b1d","system_id":"levelo_inurba_marseille","lat":43.290094,"lon":5.381264,"is_reserved":false,"is_disabled":false,"rental_uris":{"android":"levelo://app?vid=e4c25a70-0e0e-4528-937e-dba2bec84b1d","ios":"levelo://app?vid=e4c25a70-0e0e-4528-937e-dba2bec84b1d"},"vehicle_type_id":"4","last_reported":1718384884,"current_range_meters":22800,"station_id":"ce4bh4p2rcd13ifvqe1g","pricing_plan_id":"cebpf4jnsgd1na2vs0mg"},{"bike_id":"7e103e7b-cdb9-4966-8f8b-d0728eb38770","system_id":"levelo_inurba_marseille","lat":43.28865,"lon":5.35856,"is_reserved":false,"is_disabled":false,"rental_uris":{"android":"levelo://app?vid=7e103e7b-cdb9-4966-8f8b-d0728eb38770","ios":"levelo://app?vid=7e103e7b-cdb9-4966-8f8b-d0728eb38770"},"vehicle_type_id":"4","last_reported":1718384884,"current_range_meters":12400,"station_id":"ce4bhb12rcd13ifvqem0","pricing_plan_id":"cebpf4jnsgd1na2vs0mg"},{"bike_id":"24401055-6340-4747-be16-4ef9a21db611","system_id":"levelo_inurba_marseille","lat":43.290094,"lon":5.381264,"is_reserved":false,"is_disabled":false,"rental_uris":{"android":"levelo://app?vid=24401055-6340-4747-be16-4ef9a21db611","ios":"levelo://app?vid=24401055-6340-4747-be16-4ef9a21db611"},"vehicle_type_id":"4","last_reported":1718384884,"current_range_meters":0,"station_id":"ce4bh4p2rcd13ifvqe1g","pricing_plan_id":"cebpf4jnsgd1na2vs0mg"},{"bike_id":"3c02ad11-dc4e-4d72-a173-646841e17d4f","system_id":"levelo_inurba_marseille","lat":43.28856,"lon":5.358371,"is_reserved":false,"is_disabled":false,"rental_uris":{"android":"levelo://app?vid=3c02ad11-dc4e-4d72-a173-646841e17d4f","ios":"levelo://app?vid=3c02ad11-dc4e-4d72-a173-646841e17d4f"},"vehicle_type_id":"4","last_reported":1718384884,"current_range_meters":6400,"station_id":"ce4bhb12rcd13ifvqem0","pricing_plan_id":"cebpf4jnsgd1na2vs0mg"},{"bike_id":"65fe7b6b-452d-4ab6-9251-cafae4400ac9","system_id":"levelo_inurba_marseille","lat":43.28856,"lon":5.358371,"is_reserved":false,"is_disabled":false,"rental_uris":{"android":"levelo://app?vid=65fe7b6b-452d-4ab6-9251-cafae4400ac9","ios":"levelo://app?vid=65fe7b6b-452d-4ab6-9251-cafae4400ac9"},"vehicle_type_id":"4","last_reported":1718384884,"current_range_meters":21600,"station_id":"ce4bhb12rcd13ifvqem0","pricing_plan_id":"cebpf4jnsgd1na2vs0mg"},{"bike_id":"2828a4b5-2a91-42ec-866e-c52862721764","system_id":"levelo_inurba_marseille","lat":43.28856,"lon":5.358371,"is_reserved":false,"is_disabled":false,"rental_uris":{"android":"levelo://app?vid=2828a4b5-2a91-42ec-866e-c52862721764","ios":"levelo://app?vid=2828a4b5-2a91-42ec-866e-c52862721764"},"vehicle_type_id":"4","last_reported":1718384884,"current_range_meters":6000,"station_id":"ce4bhb12rcd13ifvqem0","pricing_plan_id":"cebpf4jnsgd1na2vs0mg"},{"bike_id":"1c773622-7b54-40bf-bfe5-75bacedffefc","system_id":"levelo_inurba_marseille","lat":43.28856,"lon":5.358371,"is_reserved":false,"is_disabled":false,"rental_uris":{"android":"levelo://app?vid=1c773622-7b54-40bf-bfe5-75bacedffefc","ios":"levelo://app?vid=1c773622-7b54-40bf-bfe5-75bacedffefc"},"vehicle_type_id":"4","last_reported":1718384884,"current_range_meters":23200,"station_id":"ce4bhb12rcd13ifvqem0","pricing_plan_id":"cebpf4jnsgd1na2vs0mg"},{"bike_id":"bf9a22ef-68f2-4b27-9e72-dd78a29ef47b","system_id":"levelo_inurba_marseille","lat":43.28848,"lon":5.35839,"is_reserved":false,"is_disabled":false,"rental_uris":{"android":"levelo://app?vid=bf9a22ef-68f2-4b27-9e72-dd78a29ef47b","ios":"levelo://app?vid=bf9a22ef-68f2-4b27-9e72-dd78a29ef47b"},"vehicle_type_id":"4","last_reported":1718384884,"current_range_meters":0,"station_id":"ce4bhb12rcd13ifvqem0","pricing_plan_id":"cebpf4jnsgd1na2vs0mg"},{"bike_id":"d2af12dc-9654-4195-9801-ebbb148b93a8","system_id":"levelo_inurba_marseille","lat":43.28856,"lon":5.358371,"is_reserved":false,"is_disabled":false,"rental_uris":{"android":"levelo://app?vid=d2af12dc-9654-4195-9801-ebbb148b93a8","ios":"levelo://app?vid=d2af12dc-9654-4195-9801-ebbb148b93a8"},"vehicle_type_id":"4","last_reported":1718384884,"current_range_meters":11200,"station_id":"ce4bhb12rcd13ifvqem0","pricing_plan_id":"cebpf4jnsgd1na2vs0mg"},{"bike_id":"722edf88-24d1-48bc-8cd0-d1b8ee37a667","system_id":"levelo_inurba_marseille","lat":43.28856,"lon":5.358371,"is_reserved":false,"is_disabled":false,"rental_uris":{"android":"levelo://app?vid=722edf88-24d1-48bc-8cd0-d1b8ee37a667","ios":"levelo://app?vid=722edf88-24d1-48bc-8cd0-d1b8ee37a667"},"vehicle_type_id":"4","last_reported":1718384884,"current_range_meters":19200,"station_id":"ce4bhb12rcd13ifvqem0","pricing_plan_id":"cebpf4jnsgd1na2vs0mg"},{"bike_id":"b3425ba7-7522-43cd-9b1f-45d9901227a2","system_id":"levelo_inurba_marseille","lat":43.28856,"lon":5.358371,"is_reserved":false,"is_disabled":false,"rental_uris":{"android":"levelo://app?vid=b3425ba7-7522-43cd-9b1f-45d9901227a2","ios":"levelo://app?vid=b3425ba7-7522-43cd-9b1f-45d9901227a2"},"vehicle_type_id":"4","last_reported":1718384884,"current_range_meters":12800,"station_id":"ce4bhb12rcd13ifvqem0","pricing_plan_id":"cebpf4jnsgd1na2vs0mg"},{"bike_id":"18ad8024-1ea1-4a9f-bc70-3db51b1c6666","system_id":"levelo_inurba_marseille","lat":43.31267,"lon":5.40174,"is_reserved":false,"is_disabled":false,"rental_uris":{"android":"levelo://app?vid=18ad8024-1ea1-4a9f-bc70-3db51b1c6666","ios":"levelo://app?vid=18ad8024-1ea1-4a9f-bc70-3db51b1c6666"},"vehicle_type_id":"4","last_reported":1718384884,"current_range_meters":1200,"station_id":"ce4bh092rcd13ifvqd30","pricing_plan_id":"cebpf4jnsgd1na2vs0mg"},{"bike_id":"ddaa8e50-4724-4d0b-85fd-bacc2fcbacf3","system_id":"levelo_inurba_marseille","lat":43.309274,"lon":5.401412,"is_reserved":false,"is_disabled":false,"rental_uris":{"android":"levelo://app?vid=ddaa8e50-4724-4d0b-85fd-bacc2fcbacf3","ios":"levelo://app?vid=ddaa8e50-4724-4d0b-85fd-bacc2fcbacf3"},"vehicle_type_id":"4","last_reported":1718384884,"current_range_meters":0,"station_id":"ce4bgvp2rcd13ifvqct0","pricing_plan_id":"cebpf4jnsgd1na2vs0mg"},{"bike_id":"d5d94a67-a3c0-438a-8766-8614ad2f7a55","system_id":"levelo_inurba_marseille","lat":43.31264,"lon":5.40176,"is_reserved":false,"is_disabled":false,"rental_uris":{"android":"levelo://app?vid=d5d94a67-a3c0-438a-8766-8614ad2f7a55","ios":"levelo://app?vid=d5d94a67-a3c0-438a-8766-8614ad2f7a55"},"vehicle_type_id":"4","last_reported":1718384884,"current_range_meters":0,"station_id":"ce4bh092rcd13ifvqd30","pricing_plan_id":"cebpf4jnsgd1na2vs0mg"},{"bike_id":"16220bec-bc2b-458c-95e0-755b127e3717","system_id":"levelo_inurba_marseille","lat":43.33752,"lon":5.37441,"is_reserved":false,"is_disabled":false,"rental_uris":{"android":"levelo://app?vid=16220bec-bc2b-458c-95e0-755b127e3717","ios":"levelo://app?vid=16220bec-bc2b-458c-95e0-755b127e3717"},"vehicle_type_id":"4","last_reported":1718384884,"current_range_meters":3600,"station_id":"","pricing_plan_id":"cebpf4jnsgd1na2vs0mg"},{"bike_id":"2d574090-e62c-4ab7-ade5-48f2b3ba2beb","system_id":"levelo_inurba_marseille","lat":43.312609,"lon":5.401662,"is_reserved":false,"is_disabled":false,"rental_uris":{"android":"levelo://app?vid=2d574090-e62c-4ab7-ade5-48f2b3ba2beb","ios":"levelo://app?vid=2d574090-e62c-4ab7-ade5-48f2b3ba2beb"},"vehicle_type_id":"4","last_reported":1718384884,"current_range_meters":6000,"station_id":"ce4bh092rcd13ifvqd30","pricing_plan_id":"cebpf4jnsgd1na2vs0mg"},{"bike_id":"3ab4e3ec-07f5-4c5f-8645-e3937796c552","system_id":"levelo_inurba_marseille","lat":43.337562,"lon":5.3745,"is_reserved":false,"is_disabled":false,"rental_uris":{"android":"levelo://app?vid=3ab4e3ec-07f5-4c5f-8645-e3937796c552","ios":"levelo://app?vid=3ab4e3ec-07f5-4c5f-8645-e3937796c552"},"vehicle_type_id":"4","last_reported":1718384884,"current_range_meters":13600,"station_id":"","pricing_plan_id":"cebpf4jnsgd1na2vs0mg"},{"bike_id":"3524e4ef-d297-4600-a277-f5c2e7a85327","system_id":"levelo_inurba_marseille","lat":43.33761,"lon":5.37439,"is_reserved":false,"is_disabled":false,"rental_uris":{"android":"levelo://app?vid=3524e4ef-d297-4600-a277-f5c2e7a85327","ios":"levelo://app?vid=3524e4ef-d297-4600-a277-f5c2e7a85327"},"vehicle_type_id":"4","last_reported":1718384884,"current_range_meters":30400,"station_id":"","pricing_plan_id":"cebpf4jnsgd1na2vs0mg"},{"bike_id":"4606f127-24f6-49ab-9db3-cf76bf609f2b","system_id":"levelo_inurba_marseille","lat":43.33766,"lon":5.37423,"is_reserved":false,"is_disabled":false,"rental_uris":{"android":"levelo://app?vid=4606f127-24f6-49ab-9db3-cf76bf609f2b","ios":"levelo://app?vid=4606f127-24f6-49ab-9db3-cf76bf609f2b"},"vehicle_type_id":"4","last_reported":1718384884,"current_range_meters":13200,"station_id":"","pricing_plan_id":"cebpf4jnsgd1na2vs0mg"},{"bike_id":"aa8aad8b-a730-46cf-9f12-78bdd472e0ad","system_id":"levelo_inurba_marseille","lat":43.28727,"lon":5.36078,"is_reserved":false,"is_disabled":false,"rental_uris":{"android":"levelo://app?vid=aa8aad8b-a730-46cf-9f12-78bdd472e0ad","ios":"levelo://app?vid=aa8aad8b-a730-46cf-9f12-78bdd472e0ad"},"vehicle_type_id":"4","last_reported":1718384884,"current_range_meters":4400,"station_id":"cki0cbj6b192h4jlfktg","pricing_plan_id":"cebpf4jnsgd1na2vs0mg"},{"bike_id":"95f2de50-fb3a-4547-8112-aa12a1542264","system_id":"levelo_inurba_marseille","lat":43.28727,"lon":5.36078,"is_reserved":false,"is_disabled":false,"rental_uris":{"android":"levelo://app?vid=95f2de50-fb3a-4547-8112-aa12a1542264","ios":"levelo://app?vid=95f2de50-fb3a-4547-8112-aa12a1542264"},"vehicle_type_id":"4","last_reported":1718384884,"current_range_meters":1200,"station_id":"cki0cbj6b192h4jlfktg","pricing_plan_id":"cebpf4jnsgd1na2vs0mg"},{"bike_id":"d72c1be6-4090-4129-b844-7041f9477384","system_id":"levelo_inurba_marseille","lat":43.286591,"lon":5.363346,"is_reserved":false,"is_disabled":false,"rental_uris":{"android":"levelo://app?vid=d72c1be6-4090-4129-b844-7041f9477384","ios":"levelo://app?vid=d72c1be6-4090-4129-b844-7041f9477384"},"vehicle_type_id":"4","last_reported":1718384884,"current_range_meters":8800,"station_id":"ce4bhah2rcd13ifvqej0","pricing_plan_id":"cebpf4jnsgd1na2vs0mg"},{"bike_id":"8a93981a-5979-4165-a7da-a0da5c345924","system_id":"levelo_inurba_marseille","lat":43.28662,"lon":5.36349,"is_reserved":false,"is_disabled":false,"rental_uris":{"android":"levelo://app?vid=8a93981a-5979-4165-a7da-a0da5c345924","ios":"levelo://app?vid=8a93981a-5979-4165-a7da-a0da5c345924"},"vehicle_type_id":"4","last_reported":1718384884,"current_range_meters":0,"station_id":"ce4bhah2rcd13ifvqej0","pricing_plan_id":"cebpf4jnsgd1na2vs0mg"},{"bike_id":"59f92cf5-dc45-4ec4-b23c-1dd6662c6605","system_id":"levelo_inurba_marseille","lat":43.286961,"lon":5.373785,"is_reserved":false,"is_disabled":false,"rental_uris":{"android":"levelo://app?vid=59f92cf5-dc45-4ec4-b23c-1dd6662c6605","ios":"levelo://app?vid=59f92cf5-dc45-4ec4-b23c-1dd6662c6605"},"vehicle_type_id":"4","last_reported":1718384884,"current_range_meters":22000,"station_id":"ce4bh3p2rcd13ifvqdq0","pricing_plan_id":"cebpf4jnsgd1na2vs0mg"},{"bike_id":"35ad7802-4ab1-4711-a274-8ee52f19d86e","system_id":"levelo_inurba_marseille","lat":43.286961,"lon":5.373785,"is_reserved":false,"is_disabled":false,"rental_uris":{"android":"levelo://app?vid=35ad7802-4ab1-4711-a274-8ee52f19d86e","ios":"levelo://app?vid=35ad7802-4ab1-4711-a274-8ee52f19d86e"},"vehicle_type_id":"4","last_reported":1718384884,"current_range_meters":14800,"station_id":"ce4bh3p2rcd13ifvqdq0","pricing_plan_id":"cebpf4jnsgd1na2vs0mg"},{"bike_id":"bf03a0c0-faad-4825-ad73-c733f5976262","system_id":"levelo_inurba_marseille","lat":43.286961,"lon":5.373785,"is_reserved":false,"is_disabled":false,"rental_uris":{"android":"levelo://app?vid=bf03a0c0-faad-4825-ad73-c733f5976262","ios":"levelo://app?vid=bf03a0c0-faad-4825-ad73-c733f5976262"},"vehicle_type_id":"4","last_reported":1718384884,"current_range_meters":0,"station_id":"ce4bh3p2rcd13ifvqdq0","pricing_plan_id":"cebpf4jnsgd1na2vs0mg"},{"bike_id":"f88acc3e-1a88-48cf-bf1d-a11d27f722b5","system_id":"levelo_inurba_marseille","lat":43.29516,"lon":5.394,"is_reserved":false,"is_disabled":false,"rental_uris":{"android":"levelo://app?vid=f88acc3e-1a88-48cf-bf1d-a11d27f722b5","ios":"levelo://app?vid=f88acc3e-1a88-48cf-bf1d-a11d27f722b5"},"vehicle_type_id":"4","last_reported":1718384884,"current_range_meters":0,"station_id":"ce4bh292rcd13ifvqdf0","pricing_plan_id":"cebpf4jnsgd1na2vs0mg"},{"bike_id":"f5125d89-91f8-4b6d-8df9-c6ad6d1033b6","system_id":"levelo_inurba_marseille","lat":43.290336,"lon":5.386425,"is_reserved":false,"is_disabled":false,"rental_uris":{"android":"levelo://app?vid=f5125d89-91f8-4b6d-8df9-c6ad6d1033b6","ios":"levelo://app?vid=f5125d89-91f8-4b6d-8df9-c6ad6d1033b6"},"vehicle_type_id":"4","last_reported":1718384884,"current_range_meters":9200,"station_id":"ce4bh4p2rcd13ifvqe0g","pricing_plan_id":"cebpf4jnsgd1na2vs0mg"},{"bike_id":"a4a128ea-3145-4b5f-bce7-458bfaf752ed","system_id":"levelo_inurba_marseille","lat":43.286039,"lon":5.370681,"is_reserved":false,"is_disabled":false,"rental_uris":{"android":"levelo://app?vid=a4a128ea-3145-4b5f-bce7-458bfaf752ed","ios":"levelo://app?vid=a4a128ea-3145-4b5f-bce7-458bfaf752ed"},"vehicle_type_id":"4","last_reported":1718384884,"current_range_meters":12800,"station_id":"ce4bht12rcd13ifvqi60","pricing_plan_id":"cebpf4jnsgd1na2vs0mg"},{"bike_id":"765f8921-017e-4b08-a6a6-c89e17f5ff7d","system_id":"levelo_inurba_marseille","lat":43.286039,"lon":5.370679,"is_reserved":false,"is_disabled":false,"rental_uris":{"android":"levelo://app?vid=765f8921-017e-4b08-a6a6-c89e17f5ff7d","ios":"levelo://app?vid=765f8921-017e-4b08-a6a6-c89e17f5ff7d"},"vehicle_type_id":"4","last_reported":1718384884,"current_range_meters":2800,"station_id":"ce4bht12rcd13ifvqi60","pricing_plan_id":"cebpf4jnsgd1na2vs0mg"},{"bike_id":"ef2d3386-62f7-4198-9ec0-51bc30cc0dcb","system_id":"levelo_inurba_marseille","lat":43.286039,"lon":5.370679,"is_reserved":false,"is_disabled":false,"rental_uris":{"android":"levelo://app?vid=ef2d3386-62f7-4198-9ec0-51bc30cc0dcb","ios":"levelo://app?vid=ef2d3386-62f7-4198-9ec0-51bc30cc0dcb"},"vehicle_type_id":"4","last_reported":1718384884,"current_range_meters":8800,"station_id":"ce4bht12rcd13ifvqi60","pricing_plan_id":"cebpf4jnsgd1na2vs0mg"},{"bike_id":"42f75c0d-5ba4-4dd8-b837-9d049c1d81f7","system_id":"levelo_inurba_marseille","lat":43.286039,"lon":5.370681,"is_reserved":false,"is_disabled":false,"rental_uris":{"android":"levelo://app?vid=42f75c0d-5ba4-4dd8-b837-9d049c1d81f7","ios":"levelo://app?vid=42f75c0d-5ba4-4dd8-b837-9d049c1d81f7"},"vehicle_type_id":"4","last_reported":1718384884,"current_range_meters":2400,"station_id":"ce4bht12rcd13ifvqi60","pricing_plan_id":"cebpf4jnsgd1na2vs0mg"},{"bike_id":"7d9faeb5-88e6-4741-845f-dd3a1e698c30","system_id":"levelo_inurba_marseille","lat":43.286039,"lon":5.370681,"is_reserved":false,"is_disabled":false,"rental_uris":{"android":"levelo://app?vid=7d9faeb5-88e6-4741-845f-dd3a1e698c30","ios":"levelo://app?vid=7d9faeb5-88e6-4741-845f-dd3a1e698c30"},"vehicle_type_id":"4","last_reported":1718384884,"current_range_meters":4800,"station_id":"ce4bht12rcd13ifvqi60","pricing_plan_id":"cebpf4jnsgd1na2vs0mg"},{"bike_id":"d91eb188-5ee0-48dc-980f-56eb3ed524a8","system_id":"levelo_inurba_marseille","lat":43.286039,"lon":5.370679,"is_reserved":false,"is_disabled":false,"rental_uris":{"android":"levelo://app?vid=d91eb188-5ee0-48dc-980f-56eb3ed524a8","ios":"levelo://app?vid=d91eb188-5ee0-48dc-980f-56eb3ed524a8"},"vehicle_type_id":"4","last_reported":1718384884,"current_range_meters":19200,"station_id":"ce4bht12rcd13ifvqi60","pricing_plan_id":"cebpf4jnsgd1na2vs0mg"},{"bike_id":"0af080fc-d084-4f66-8301-f829ae1ae7b8","system_id":"levelo_inurba_marseille","lat":43.287325,"lon":5.379275,"is_reserved":false,"is_disabled":false,"rental_uris":{"android":"levelo://app?vid=0af080fc-d084-4f66-8301-f829ae1ae7b8","ios":"levelo://app?vid=0af080fc-d084-4f66-8301-f829ae1ae7b8"},"vehicle_type_id":"4","last_reported":1718384884,"current_range_meters":2400,"station_id":"ce4bh9p2rcd13ifvqec0","pricing_plan_id":"cebpf4jnsgd1na2vs0mg"},{"bike_id":"5fa68abe-981c-42b1-8554-90eb9081a933","system_id":"levelo_inurba_marseille","lat":43.28727,"lon":5.37955,"is_reserved":false,"is_disabled":false,"rental_uris":{"android":"levelo://app?vid=5fa68abe-981c-42b1-8554-90eb9081a933","ios":"levelo://app?vid=5fa68abe-981c-42b1-8554-90eb9081a933"},"vehicle_type_id":"4","last_reported":1718384884,"current_range_meters":5200,"station_id":"ce4bh9p2rcd13ifvqec0","pricing_plan_id":"cebpf4jnsgd1na2vs0mg"},{"bike_id":"cf606a07-31b1-4a1f-b70c-603a6a05c3a9","system_id":"levelo_inurba_marseille","lat":43.287185,"lon":5.379373,"is_reserved":false,"is_disabled":false,"rental_uris":{"android":"levelo://app?vid=cf606a07-31b1-4a1f-b70c-603a6a05c3a9","ios":"levelo://app?vid=cf606a07-31b1-4a1f-b70c-603a6a05c3a9"},"vehicle_type_id":"4","last_reported":1718384884,"current_range_meters":8800,"station_id":"ce4bh9p2rcd13ifvqec0","pricing_plan_id":"cebpf4jnsgd1na2vs0mg"},{"bike_id":"7039e463-6822-4265-8712-7f90ae22df0a","system_id":"levelo_inurba_marseille","lat":43.287185,"lon":5.379373,"is_reserved":false,"is_disabled":false,"rental_uris":{"android":"levelo://app?vid=7039e463-6822-4265-8712-7f90ae22df0a","ios":"levelo://app?vid=7039e463-6822-4265-8712-7f90ae22df0a"},"vehicle_type_id":"4","last_reported":1718384884,"current_range_meters":0,"station_id":"ce4bh9p2rcd13ifvqec0","pricing_plan_id":"cebpf4jnsgd1na2vs0mg"},{"bike_id":"77bc4d28-5d03-4e43-b0cb-cf33ced25786","system_id":"levelo_inurba_marseille","lat":43.287184,"lon":5.37937,"is_reserved":false,"is_disabled":false,"rental_uris":{"android":"levelo://app?vid=77bc4d28-5d03-4e43-b0cb-cf33ced25786","ios":"levelo://app?vid=77bc4d28-5d03-4e43-b0cb-cf33ced25786"},"vehicle_type_id":"4","last_reported":1718384884,"current_range_meters":21200,"station_id":"ce4bh9p2rcd13ifvqec0","pricing_plan_id":"cebpf4jnsgd1na2vs0mg"},{"bike_id":"669aa6f7-2ba7-4dd6-9e50-c60cfbc8aa1f","system_id":"levelo_inurba_marseille","lat":43.287185,"lon":5.379373,"is_reserved":false,"is_disabled":false,"rental_uris":{"android":"levelo://app?vid=669aa6f7-2ba7-4dd6-9e50-c60cfbc8aa1f","ios":"levelo://app?vid=669aa6f7-2ba7-4dd6-9e50-c60cfbc8aa1f"},"vehicle_type_id":"4","last_reported":1718384884,"current_range_meters":10800,"station_id":"ce4bh9p2rcd13ifvqec0","pricing_plan_id":"cebpf4jnsgd1na2vs0mg"},{"bike_id":"abf52a83-487c-42e8-98c7-ca735cb6d98e","system_id":"levelo_inurba_marseille","lat":43.287185,"lon":5.379373,"is_reserved":false,"is_disabled":false,"rental_uris":{"android":"levelo://app?vid=abf52a83-487c-42e8-98c7-ca735cb6d98e","ios":"levelo://app?vid=abf52a83-487c-42e8-98c7-ca735cb6d98e"},"vehicle_type_id":"4","last_reported":1718384884,"current_range_meters":1200,"station_id":"ce4bh9p2rcd13ifvqec0","pricing_plan_id":"cebpf4jnsgd1na2vs0mg"},{"bike_id":"c8f99e3b-da5e-429a-99ae-bcbfe9561bbb","system_id":"levelo_inurba_marseille","lat":43.316821,"lon":5.404737,"is_reserved":false,"is_disabled":false,"rental_uris":{"android":"levelo://app?vid=c8f99e3b-da5e-429a-99ae-bcbfe9561bbb","ios":"levelo://app?vid=c8f99e3b-da5e-429a-99ae-bcbfe9561bbb"},"vehicle_type_id":"4","last_reported":1718384884,"current_range_meters":11600,"station_id":"ce4bh012rcd13ifvqd00","pricing_plan_id":"cebpf4jnsgd1na2vs0mg"},{"bike_id":"a341fe47-d260-4e10-9440-66dc1c72786c","system_id":"levelo_inurba_marseille","lat":43.316821,"lon":5.404737,"is_reserved":false,"is_disabled":false,"rental_uris":{"android":"levelo://app?vid=a341fe47-d260-4e10-9440-66dc1c72786c","ios":"levelo://app?vid=a341fe47-d260-4e10-9440-66dc1c72786c"},"vehicle_type_id":"4","last_reported":1718384884,"current_range_meters":0,"station_id":"ce4bh012rcd13ifvqd00","pricing_plan_id":"cebpf4jnsgd1na2vs0mg"},{"bike_id":"659bdf0f-9e72-41b6-aac7-06643d87b7c7","system_id":"levelo_inurba_marseille","lat":43.291994,"lon":5.392907,"is_reserved":false,"is_disabled":false,"rental_uris":{"android":"levelo://app?vid=659bdf0f-9e72-41b6-aac7-06643d87b7c7","ios":"levelo://app?vid=659bdf0f-9e72-41b6-aac7-06643d87b7c7"},"vehicle_type_id":"4","last_reported":1718384884,"current_range_meters":0,"station_id":"ce4bh192rcd13ifvqdd0","pricing_plan_id":"cebpf4jnsgd1na2vs0mg"},{"bike_id":"62ebe8c1-5674-4c1a-be0c-5c9dfa8d29b2","system_id":"levelo_inurba_marseille","lat":43.28465,"lon":5.35887,"is_reserved":false,"is_disabled":false,"rental_uris":{"android":"levelo://app?vid=62ebe8c1-5674-4c1a-be0c-5c9dfa8d29b2","ios":"levelo://app?vid=62ebe8c1-5674-4c1a-be0c-5c9dfa8d29b2"},"vehicle_type_id":"4","last_reported":1718384884,"current_range_meters":0,"station_id":"ce4bhah2rcd13ifvqei0","pricing_plan_id":"cebpf4jnsgd1na2vs0mg"},{"bike_id":"dbe913cf-3433-4066-875f-8d87ef25c0cf","system_id":"levelo_inurba_marseille","lat":43.284538,"lon":5.358657,"is_reserved":false,"is_disabled":false,"rental_uris":{"android":"levelo://app?vid=dbe913cf-3433-4066-875f-8d87ef25c0cf","ios":"levelo://app?vid=dbe913cf-3433-4066-875f-8d87ef25c0cf"},"vehicle_type_id":"4","last_reported":1718384884,"current_range_meters":8800,"station_id":"ce4bhah2rcd13ifvqei0","pricing_plan_id":"cebpf4jnsgd1na2vs0mg"},{"bike_id":"0d733a49-4735-4eb2-b010-13543219b8f4","system_id":"levelo_inurba_marseille","lat":43.2862,"lon":5.35107,"is_reserved":false,"is_disabled":false,"rental_uris":{"android":"levelo://app?vid=0d733a49-4735-4eb2-b010-13543219b8f4","ios":"levelo://app?vid=0d733a49-4735-4eb2-b010-13543219b8f4"},"vehicle_type_id":"4","last_reported":1718384884,"current_range_meters":28800,"station_id":"ce4bhch2rcd13ifvqeug","pricing_plan_id":"cebpf4jnsgd1na2vs0mg"},{"bike_id":"8327f9fd-b7e4-4cbb-8124-6bdbd4c37c98","system_id":"levelo_inurba_marseille","lat":43.2862,"lon":5.35106,"is_reserved":false,"is_disabled":false,"rental_uris":{"android":"levelo://app?vid=8327f9fd-b7e4-4cbb-8124-6bdbd4c37c98","ios":"levelo://app?vid=8327f9fd-b7e4-4cbb-8124-6bdbd4c37c98"},"vehicle_type_id":"4","last_reported":1718384884,"current_range_meters":0,"station_id":"ce4bhch2rcd13ifvqeug","pricing_plan_id":"cebpf4jnsgd1na2vs0mg"},{"bike_id":"209de1ee-af6f-45b4-bd8c-94b40802ab73","system_id":"levelo_inurba_marseille","lat":43.28618,"lon":5.35108,"is_reserved":false,"is_disabled":false,"rental_uris":{"android":"levelo://app?vid=209de1ee-af6f-45b4-bd8c-94b40802ab73","ios":"levelo://app?vid=209de1ee-af6f-45b4-bd8c-94b40802ab73"},"vehicle_type_id":"4","last_reported":1718384884,"current_range_meters":28800,"station_id":"ce4bhch2rcd13ifvqeug","pricing_plan_id":"cebpf4jnsgd1na2vs0mg"},{"bike_id":"68dcc682-6754-4364-9991-5aabc2af5572","system_id":"levelo_inurba_marseille","lat":43.28617,"lon":5.3511,"is_reserved":false,"is_disabled":false,"rental_uris":{"android":"levelo://app?vid=68dcc682-6754-4364-9991-5aabc2af5572","ios":"levelo://app?vid=68dcc682-6754-4364-9991-5aabc2af5572"},"vehicle_type_id":"4","last_reported":1718384884,"current_range_meters":28000,"station_id":"ce4bhch2rcd13ifvqeug","pricing_plan_id":"cebpf4jnsgd1na2vs0mg"},{"bike_id":"d306fb33-2245-4b8d-8c8e-0145866f7887","system_id":"levelo_inurba_marseille","lat":43.285848,"lon":5.350787,"is_reserved":false,"is_disabled":false,"rental_uris":{"android":"levelo://app?vid=d306fb33-2245-4b8d-8c8e-0145866f7887","ios":"levelo://app?vid=d306fb33-2245-4b8d-8c8e-0145866f7887"},"vehicle_type_id":"4","last_reported":1718384884,"current_range_meters":0,"station_id":"ce4bhch2rcd13ifvqeug","pricing_plan_id":"cebpf4jnsgd1na2vs0mg"},{"bike_id":"5774e52f-b78f-4678-941b-892f6ce3cb22","system_id":"levelo_inurba_marseille","lat":43.285848,"lon":5.350787,"is_reserved":false,"is_disabled":false,"rental_uris":{"android":"levelo://app?vid=5774e52f-b78f-4678-941b-892f6ce3cb22","ios":"levelo://app?vid=5774e52f-b78f-4678-941b-892f6ce3cb22"},"vehicle_type_id":"4","last_reported":1718384884,"current_range_meters":400,"station_id":"ce4bhch2rcd13ifvqeug","pricing_plan_id":"cebpf4jnsgd1na2vs0mg"},{"bike_id":"1c0c52fc-f998-4a7f-93ac-2ff7cf245c04","system_id":"levelo_inurba_marseille","lat":43.285848,"lon":5.350787,"is_reserved":false,"is_disabled":false,"rental_uris":{"android":"levelo://app?vid=1c0c52fc-f998-4a7f-93ac-2ff7cf245c04","ios":"levelo://app?vid=1c0c52fc-f998-4a7f-93ac-2ff7cf245c04"},"vehicle_type_id":"4","last_reported":1718384884,"current_range_meters":4800,"station_id":"ce4bhch2rcd13ifvqeug","pricing_plan_id":"cebpf4jnsgd1na2vs0mg"},{"bike_id":"e3c6b6e5-dfc3-470e-987d-82757320c24a","system_id":"levelo_inurba_marseille","lat":43.285848,"lon":5.350787,"is_reserved":false,"is_disabled":false,"rental_uris":{"android":"levelo://app?vid=e3c6b6e5-dfc3-470e-987d-82757320c24a","ios":"levelo://app?vid=e3c6b6e5-dfc3-470e-987d-82757320c24a"},"vehicle_type_id":"4","last_reported":1718384884,"current_range_meters":9600,"station_id":"ce4bhch2rcd13ifvqeug","pricing_plan_id":"cebpf4jnsgd1na2vs0mg"},{"bike_id":"6e5ac248-8b95-4d9c-924d-c93c13840781","system_id":"levelo_inurba_marseille","lat":43.28606,"lon":5.35107,"is_reserved":false,"is_disabled":false,"rental_uris":{"android":"levelo://app?vid=6e5ac248-8b95-4d9c-924d-c93c13840781","ios":"levelo://app?vid=6e5ac248-8b95-4d9c-924d-c93c13840781"},"vehicle_type_id":"4","last_reported":1718384884,"current_range_meters":30400,"station_id":"","pricing_plan_id":"cebpf4jnsgd1na2vs0mg"},{"bike_id":"e68cb49c-4dfc-44bd-9225-553aa3befef9","system_id":"levelo_inurba_marseille","lat":43.284245,"lon":5.375008,"is_reserved":false,"is_disabled":false,"rental_uris":{"android":"levelo://app?vid=e68cb49c-4dfc-44bd-9225-553aa3befef9","ios":"levelo://app?vid=e68cb49c-4dfc-44bd-9225-553aa3befef9"},"vehicle_type_id":"4","last_reported":1718384884,"current_range_meters":0,"station_id":"ce4bh412rcd13ifvqds0","pricing_plan_id":"cebpf4jnsgd1na2vs0mg"},{"bike_id":"540cb835-ed6e-4120-a571-053c4276f9f3","system_id":"levelo_inurba_marseille","lat":43.295713,"lon":5.399639,"is_reserved":false,"is_disabled":false,"rental_uris":{"android":"levelo://app?vid=540cb835-ed6e-4120-a571-053c4276f9f3","ios":"levelo://app?vid=540cb835-ed6e-4120-a571-053c4276f9f3"},"vehicle_type_id":"4","last_reported":1718384884,"current_range_meters":800,"station_id":"ce4bh312rcd13ifvqdj0","pricing_plan_id":"cebpf4jnsgd1na2vs0mg"},{"bike_id":"8b512bd7-07b7-4d82-91ee-429514206192","system_id":"levelo_inurba_marseille","lat":43.283998,"lon":5.375062,"is_reserved":false,"is_disabled":false,"rental_uris":{"android":"levelo://app?vid=8b512bd7-07b7-4d82-91ee-429514206192","ios":"levelo://app?vid=8b512bd7-07b7-4d82-91ee-429514206192"},"vehicle_type_id":"4","last_reported":1718384884,"current_range_meters":0,"station_id":"ce4bh412rcd13ifvqds0","pricing_plan_id":"cebpf4jnsgd1na2vs0mg"},{"bike_id":"a274883a-3572-4e92-ad99-48390b4c778c","system_id":"levelo_inurba_marseille","lat":43.286595,"lon":5.386795,"is_reserved":false,"is_disabled":false,"rental_uris":{"android":"levelo://app?vid=a274883a-3572-4e92-ad99-48390b4c778c","ios":"levelo://app?vid=a274883a-3572-4e92-ad99-48390b4c778c"},"vehicle_type_id":"4","last_reported":1718384884,"current_range_meters":0,"station_id":"ce4bh492rcd13ifvqdug","pricing_plan_id":"cebpf4jnsgd1na2vs0mg"},{"bike_id":"0b1551d8-1d03-4d96-9da1-809e997f0978","system_id":"levelo_inurba_marseille","lat":43.319179,"lon":5.407725,"is_reserved":false,"is_disabled":false,"rental_uris":{"android":"levelo://app?vid=0b1551d8-1d03-4d96-9da1-809e997f0978","ios":"levelo://app?vid=0b1551d8-1d03-4d96-9da1-809e997f0978"},"vehicle_type_id":"4","last_reported":1718384884,"current_range_meters":9200,"station_id":"ce4bhq12rcd13ifvqhig","pricing_plan_id":"cebpf4jnsgd1na2vs0mg"},{"bike_id":"680d5a41-8105-486a-a1e2-ff67bd19d887","system_id":"levelo_inurba_marseille","lat":43.337242,"lon":5.391766,"is_reserved":false,"is_disabled":false,"rental_uris":{"android":"levelo://app?vid=680d5a41-8105-486a-a1e2-ff67bd19d887","ios":"levelo://app?vid=680d5a41-8105-486a-a1e2-ff67bd19d887"},"vehicle_type_id":"4","last_reported":1718384884,"current_range_meters":800,"station_id":"ce4bhr92rcd13ifvqhsg","pricing_plan_id":"cebpf4jnsgd1na2vs0mg"},{"bike_id":"86d9c52b-e5bf-45ec-a477-98b94665837e","system_id":"levelo_inurba_marseille","lat":43.337168,"lon":5.391825,"is_reserved":false,"is_disabled":false,"rental_uris":{"android":"levelo://app?vid=86d9c52b-e5bf-45ec-a477-98b94665837e","ios":"levelo://app?vid=86d9c52b-e5bf-45ec-a477-98b94665837e"},"vehicle_type_id":"4","last_reported":1718384884,"current_range_meters":23200,"station_id":"ce4bhr92rcd13ifvqhsg","pricing_plan_id":"cebpf4jnsgd1na2vs0mg"},{"bike_id":"7902fdc2-855b-46d5-8f4b-148985859e4b","system_id":"levelo_inurba_marseille","lat":43.337236,"lon":5.391917,"is_reserved":false,"is_disabled":false,"rental_uris":{"android":"levelo://app?vid=7902fdc2-855b-46d5-8f4b-148985859e4b","ios":"levelo://app?vid=7902fdc2-855b-46d5-8f4b-148985859e4b"},"vehicle_type_id":"4","last_reported":1718384884,"current_range_meters":2800,"station_id":"ce4bhr92rcd13ifvqhsg","pricing_plan_id":"cebpf4jnsgd1na2vs0mg"},{"bike_id":"5ee5d46b-0f38-4b86-b776-0a86dd893af7","system_id":"levelo_inurba_marseille","lat":43.337168,"lon":5.391825,"is_reserved":false,"is_disabled":false,"rental_uris":{"android":"levelo://app?vid=5ee5d46b-0f38-4b86-b776-0a86dd893af7","ios":"levelo://app?vid=5ee5d46b-0f38-4b86-b776-0a86dd893af7"},"vehicle_type_id":"4","last_reported":1718384884,"current_range_meters":6400,"station_id":"ce4bhr92rcd13ifvqhsg","pricing_plan_id":"cebpf4jnsgd1na2vs0mg"},{"bike_id":"e115922d-18d1-4f2e-b469-284674fe965c","system_id":"levelo_inurba_marseille","lat":43.284787,"lon":5.384116,"is_reserved":false,"is_disabled":false,"rental_uris":{"android":"levelo://app?vid=e115922d-18d1-4f2e-b469-284674fe965c","ios":"levelo://app?vid=e115922d-18d1-4f2e-b469-284674fe965c"},"vehicle_type_id":"4","last_reported":1718384884,"current_range_meters":2000,"station_id":"ce4bh512rcd13ifvqe3g","pricing_plan_id":"cebpf4jnsgd1na2vs0mg"},{"bike_id":"82334a79-3005-42b7-9f17-cb6b93557fa7","system_id":"levelo_inurba_marseille","lat":43.29794,"lon":5.40403,"is_reserved":false,"is_disabled":false,"rental_uris":{"android":"levelo://app?vid=82334a79-3005-42b7-9f17-cb6b93557fa7","ios":"levelo://app?vid=82334a79-3005-42b7-9f17-cb6b93557fa7"},"vehicle_type_id":"4","last_reported":1718384884,"current_range_meters":0,"station_id":"ce4bh112rcd13ifvqd90","pricing_plan_id":"cebpf4jnsgd1na2vs0mg"},{"bike_id":"602fc842-674f-4ffe-9956-93285b8d89aa","system_id":"levelo_inurba_marseille","lat":43.29796,"lon":5.40407,"is_reserved":false,"is_disabled":false,"rental_uris":{"android":"levelo://app?vid=602fc842-674f-4ffe-9956-93285b8d89aa","ios":"levelo://app?vid=602fc842-674f-4ffe-9956-93285b8d89aa"},"vehicle_type_id":"4","last_reported":1718384884,"current_range_meters":11600,"station_id":"ce4bh112rcd13ifvqd90","pricing_plan_id":"cebpf4jnsgd1na2vs0mg"},{"bike_id":"4611cf76-4725-4de1-92d6-c693c2495858","system_id":"levelo_inurba_marseille","lat":43.28851,"lon":5.39319,"is_reserved":false,"is_disabled":false,"rental_uris":{"android":"levelo://app?vid=4611cf76-4725-4de1-92d6-c693c2495858","ios":"levelo://app?vid=4611cf76-4725-4de1-92d6-c693c2495858"},"vehicle_type_id":"4","last_reported":1718384884,"current_range_meters":0,"station_id":"ce4bh2p2rcd13ifvqdi0","pricing_plan_id":"cebpf4jnsgd1na2vs0mg"},{"bike_id":"a93bc311-b1d1-44fa-bb89-adf75d7ab70a","system_id":"levelo_inurba_marseille","lat":43.288497,"lon":5.393089,"is_reserved":false,"is_disabled":false,"rental_uris":{"android":"levelo://app?vid=a93bc311-b1d1-44fa-bb89-adf75d7ab70a","ios":"levelo://app?vid=a93bc311-b1d1-44fa-bb89-adf75d7ab70a"},"vehicle_type_id":"4","last_reported":1718384884,"current_range_meters":1200,"station_id":"ce4bh2p2rcd13ifvqdi0","pricing_plan_id":"cebpf4jnsgd1na2vs0mg"},{"bike_id":"e140c3be-15ff-4fa3-9d05-dad8c1b9a315","system_id":"levelo_inurba_marseille","lat":43.283494,"lon":5.380945,"is_reserved":false,"is_disabled":false,"rental_uris":{"android":"levelo://app?vid=e140c3be-15ff-4fa3-9d05-dad8c1b9a315","ios":"levelo://app?vid=e140c3be-15ff-4fa3-9d05-dad8c1b9a315"},"vehicle_type_id":"4","last_reported":1718384884,"current_range_meters":8000,"station_id":"ce4bh412rcd13ifvqdr0","pricing_plan_id":"cebpf4jnsgd1na2vs0mg"},{"bike_id":"d358b445-24a4-4a3a-873d-cd8eaf3d8aea","system_id":"levelo_inurba_marseille","lat":43.283494,"lon":5.380945,"is_reserved":false,"is_disabled":false,"rental_uris":{"android":"levelo://app?vid=d358b445-24a4-4a3a-873d-cd8eaf3d8aea","ios":"levelo://app?vid=d358b445-24a4-4a3a-873d-cd8eaf3d8aea"},"vehicle_type_id":"4","last_reported":1718384884,"current_range_meters":11200,"station_id":"ce4bh412rcd13ifvqdr0","pricing_plan_id":"cebpf4jnsgd1na2vs0mg"},{"bike_id":"24efc6dd-44af-4801-b962-54dcc185dfa9","system_id":"levelo_inurba_marseille","lat":43.28344,"lon":5.38101,"is_reserved":false,"is_disabled":false,"rental_uris":{"android":"levelo://app?vid=24efc6dd-44af-4801-b962-54dcc185dfa9","ios":"levelo://app?vid=24efc6dd-44af-4801-b962-54dcc185dfa9"},"vehicle_type_id":"4","last_reported":1718384884,"current_range_meters":6000,"station_id":"ce4bh412rcd13ifvqdr0","pricing_plan_id":"cebpf4jnsgd1na2vs0mg"},{"bike_id":"fd8c88f0-f5e9-4967-bf7c-9d96312a047d","system_id":"levelo_inurba_marseille","lat":43.284217,"lon":5.349697,"is_reserved":false,"is_disabled":false,"rental_uris":{"android":"levelo://app?vid=fd8c88f0-f5e9-4967-bf7c-9d96312a047d","ios":"levelo://app?vid=fd8c88f0-f5e9-4967-bf7c-9d96312a047d"},"vehicle_type_id":"4","last_reported":1718384884,"current_range_meters":30000,"station_id":"ce4bhbh2rcd13ifvqepg","pricing_plan_id":"cebpf4jnsgd1na2vs0mg"},{"bike_id":"92d83a89-e62b-4f13-9359-8e9f831e0d51","system_id":"levelo_inurba_marseille","lat":43.284217,"lon":5.349697,"is_reserved":false,"is_disabled":false,"rental_uris":{"android":"levelo://app?vid=92d83a89-e62b-4f13-9359-8e9f831e0d51","ios":"levelo://app?vid=92d83a89-e62b-4f13-9359-8e9f831e0d51"},"vehicle_type_id":"4","last_reported":1718384884,"current_range_meters":0,"station_id":"ce4bhbh2rcd13ifvqepg","pricing_plan_id":"cebpf4jnsgd1na2vs0mg"},{"bike_id":"fe626310-78e3-4ecb-8e6e-832a6b29c11e","system_id":"levelo_inurba_marseille","lat":43.292724,"lon":5.401131,"is_reserved":false,"is_disabled":false,"rental_uris":{"android":"levelo://app?vid=fe626310-78e3-4ecb-8e6e-832a6b29c11e","ios":"levelo://app?vid=fe626310-78e3-4ecb-8e6e-832a6b29c11e"},"vehicle_type_id":"4","last_reported":1718384884,"current_range_meters":1200,"station_id":"ce4bh312rcd13ifvqdk0","pricing_plan_id":"cebpf4jnsgd1na2vs0mg"},{"bike_id":"110f1ffe-8252-4377-ba57-bb2143007f11","system_id":"levelo_inurba_marseille","lat":43.282744,"lon":5.350533,"is_reserved":false,"is_disabled":false,"rental_uris":{"android":"levelo://app?vid=110f1ffe-8252-4377-ba57-bb2143007f11","ios":"levelo://app?vid=110f1ffe-8252-4377-ba57-bb2143007f11"},"vehicle_type_id":"4","last_reported":1718384884,"current_range_meters":9600,"station_id":"ce4bhbp2rcd13ifvqerg","pricing_plan_id":"cebpf4jnsgd1na2vs0mg"},{"bike_id":"b559b05d-24fa-4ecf-b367-4abaf047ddf1","system_id":"levelo_inurba_marseille","lat":43.282754,"lon":5.350519,"is_reserved":false,"is_disabled":false,"rental_uris":{"android":"levelo://app?vid=b559b05d-24fa-4ecf-b367-4abaf047ddf1","ios":"levelo://app?vid=b559b05d-24fa-4ecf-b367-4abaf047ddf1"},"vehicle_type_id":"4","last_reported":1718384884,"current_range_meters":29600,"station_id":"ce4bhbp2rcd13ifvqerg","pricing_plan_id":"cebpf4jnsgd1na2vs0mg"},{"bike_id":"a4748536-9aa4-4976-a404-8086472adf4e","system_id":"levelo_inurba_marseille","lat":43.282744,"lon":5.350533,"is_reserved":false,"is_disabled":false,"rental_uris":{"android":"levelo://app?vid=a4748536-9aa4-4976-a404-8086472adf4e","ios":"levelo://app?vid=a4748536-9aa4-4976-a404-8086472adf4e"},"vehicle_type_id":"4","last_reported":1718384884,"current_range_meters":12800,"station_id":"ce4bhbp2rcd13ifvqerg","pricing_plan_id":"cebpf4jnsgd1na2vs0mg"},{"bike_id":"f3876f37-71a4-42e4-9bfb-e3a58a969519","system_id":"levelo_inurba_marseille","lat":43.282754,"lon":5.350519,"is_reserved":false,"is_disabled":false,"rental_uris":{"android":"levelo://app?vid=f3876f37-71a4-42e4-9bfb-e3a58a969519","ios":"levelo://app?vid=f3876f37-71a4-42e4-9bfb-e3a58a969519"},"vehicle_type_id":"4","last_reported":1718384884,"current_range_meters":13200,"station_id":"ce4bhbp2rcd13ifvqerg","pricing_plan_id":"cebpf4jnsgd1na2vs0mg"},{"bike_id":"450ffa80-4794-4022-8289-b0df23f5b934","system_id":"levelo_inurba_marseille","lat":43.282754,"lon":5.350519,"is_reserved":false,"is_disabled":false,"rental_uris":{"android":"levelo://app?vid=450ffa80-4794-4022-8289-b0df23f5b934","ios":"levelo://app?vid=450ffa80-4794-4022-8289-b0df23f5b934"},"vehicle_type_id":"4","last_reported":1718384884,"current_range_meters":4800,"station_id":"ce4bhbp2rcd13ifvqerg","pricing_plan_id":"cebpf4jnsgd1na2vs0mg"},{"bike_id":"8e3e9978-df66-4911-8ff7-231b9dd81406","system_id":"levelo_inurba_marseille","lat":43.282754,"lon":5.350519,"is_reserved":false,"is_disabled":false,"rental_uris":{"android":"levelo://app?vid=8e3e9978-df66-4911-8ff7-231b9dd81406","ios":"levelo://app?vid=8e3e9978-df66-4911-8ff7-231b9dd81406"},"vehicle_type_id":"4","last_reported":1718384884,"current_range_meters":4400,"station_id":"ce4bhbp2rcd13ifvqerg","pricing_plan_id":"cebpf4jnsgd1na2vs0mg"},{"bike_id":"69b2baba-70ab-4f3c-b4ad-9a5485f25bac","system_id":"levelo_inurba_marseille","lat":43.2804,"lon":5.36942,"is_reserved":false,"is_disabled":false,"rental_uris":{"android":"levelo://app?vid=69b2baba-70ab-4f3c-b4ad-9a5485f25bac","ios":"levelo://app?vid=69b2baba-70ab-4f3c-b4ad-9a5485f25bac"},"vehicle_type_id":"4","last_reported":1718384884,"current_range_meters":1200,"station_id":"ce4bha12rcd13ifvqef0","pricing_plan_id":"cebpf4jnsgd1na2vs0mg"},{"bike_id":"c040c0aa-67e2-4c6e-9dcd-826a91fd615a","system_id":"levelo_inurba_marseille","lat":43.280382,"lon":5.369291,"is_reserved":false,"is_disabled":false,"rental_uris":{"android":"levelo://app?vid=c040c0aa-67e2-4c6e-9dcd-826a91fd615a","ios":"levelo://app?vid=c040c0aa-67e2-4c6e-9dcd-826a91fd615a"},"vehicle_type_id":"4","last_reported":1718384884,"current_range_meters":14400,"station_id":"ce4bha12rcd13ifvqef0","pricing_plan_id":"cebpf4jnsgd1na2vs0mg"},{"bike_id":"aec837e7-c765-4564-b7db-82d22d5d4c28","system_id":"levelo_inurba_marseille","lat":43.281044,"lon":5.378308,"is_reserved":false,"is_disabled":false,"rental_uris":{"android":"levelo://app?vid=aec837e7-c765-4564-b7db-82d22d5d4c28","ios":"levelo://app?vid=aec837e7-c765-4564-b7db-82d22d5d4c28"},"vehicle_type_id":"4","last_reported":1718384884,"current_range_meters":0,"station_id":"ce4bha12rcd13ifvqee0","pricing_plan_id":"cebpf4jnsgd1na2vs0mg"},{"bike_id":"27251b06-5b3e-4a4c-ae1d-f26d8d368570","system_id":"levelo_inurba_marseille","lat":43.281044,"lon":5.378308,"is_reserved":false,"is_disabled":false,"rental_uris":{"android":"levelo://app?vid=27251b06-5b3e-4a4c-ae1d-f26d8d368570","ios":"levelo://app?vid=27251b06-5b3e-4a4c-ae1d-f26d8d368570"},"vehicle_type_id":"4","last_reported":1718384884,"current_range_meters":16000,"station_id":"ce4bha12rcd13ifvqee0","pricing_plan_id":"cebpf4jnsgd1na2vs0mg"},{"bike_id":"657a3598-a41a-474f-bacd-a32954fa96ec","system_id":"levelo_inurba_marseille","lat":43.28022,"lon":5.36093,"is_reserved":false,"is_disabled":false,"rental_uris":{"android":"levelo://app?vid=657a3598-a41a-474f-bacd-a32954fa96ec","ios":"levelo://app?vid=657a3598-a41a-474f-bacd-a32954fa96ec"},"vehicle_type_id":"4","last_reported":1718384884,"current_range_meters":13600,"station_id":"","pricing_plan_id":"cebpf4jnsgd1na2vs0mg"},{"bike_id":"f4c04c72-a83f-40c2-a05b-fd1ab6d88519","system_id":"levelo_inurba_marseille","lat":43.2963,"lon":5.406017,"is_reserved":false,"is_disabled":false,"rental_uris":{"android":"levelo://app?vid=f4c04c72-a83f-40c2-a05b-fd1ab6d88519","ios":"levelo://app?vid=f4c04c72-a83f-40c2-a05b-fd1ab6d88519"},"vehicle_type_id":"4","last_reported":1718384884,"current_range_meters":0,"station_id":"","pricing_plan_id":"cebpf4jnsgd1na2vs0mg"},{"bike_id":"ab2f6a2a-94f8-45ff-b528-7c7f1627ef4b","system_id":"levelo_inurba_marseille","lat":43.296263,"lon":5.40601,"is_reserved":false,"is_disabled":false,"rental_uris":{"android":"levelo://app?vid=ab2f6a2a-94f8-45ff-b528-7c7f1627ef4b","ios":"levelo://app?vid=ab2f6a2a-94f8-45ff-b528-7c7f1627ef4b"},"vehicle_type_id":"4","last_reported":1718384884,"current_range_meters":2800,"station_id":"ce4bh0h2rcd13ifvqd60","pricing_plan_id":"cebpf4jnsgd1na2vs0mg"},{"bike_id":"3439afd2-7661-496a-98bb-ce33d385b1a8","system_id":"levelo_inurba_marseille","lat":43.284462,"lon":5.392121,"is_reserved":false,"is_disabled":false,"rental_uris":{"android":"levelo://app?vid=3439afd2-7661-496a-98bb-ce33d385b1a8","ios":"levelo://app?vid=3439afd2-7661-496a-98bb-ce33d385b1a8"},