{"last_updated":1773699743,"ttl":60,"version":"2.2","data":{"bikes":[{"bike_id":"05f53a66-f4ee-4e6c-a890-5da9b44d7c68","system_id":"levelo_inurba_marseille","lat":43.25076,"lon":5.39512,"is_reserved":false,"is_disabled":false,"rental_uris":{"android":"levelo://app?vid=05f53a66-f4ee-4e6c-a890-5da9b44d7c68","ios":"levelo://app?vid=05f53a66-f4ee-4e6c-a890-5da9b44d7c68"},"vehicle_type_id":"4","last_reported":1773699744,"current_range_meters":2800,"station_id":"ce4bhm12rcd13ifvqgkg","pricing_plan_id":"cebpf4jnsgd1na2vs0mg"},{"bike_id":"4d9d5a78-b8c2-4aee-ab9e-6f39d9b6846b","system_id":"levelo_inurba_marseille","lat":43.3057,"lon":5.38391,"is_reserved":false,"is_disabled":false,"rental_uris":{"android":"levelo://app?vid=4d9d5a78-b8c2-4aee-ab9e-6f39d9b6846b","ios":"levelo://app?vid=4d9d5a78-b8c2-4aee-ab9e-6f39d9b6846b"},"vehicle_type_id":"4","last_reported":1773699744,"current_range_meters":2800,"station_id":"ce4bgg92rcd13ifvqb30","pricing_plan_id":"cebpf4jnsgd1na2vs0mg"},{"bike_id":"19ab708d-71e5-4fbb-a5e0-7659beceb880","system_id":"levelo_inurba_marseille","lat":43.29025,"lon":5.40029,"is_reserved":false,"is_disabled":false,"rental_uris":{"android":"levelo://app?vid=19ab708d-71e5-4fbb-a5e0-7659beceb880","ios":"levelo://app?vid=19ab708d-71e5-4fbb-a5e0-7659beceb880"},"vehicle_type_id":"4","last_reported":1773699744,"current_range_meters":2800,"station_id":"ce4bh392rcd13ifvqdm0","pricing_plan_id":"cebpf4jnsgd1na2vs0mg"},{"bike_id":"215f000c-7aae-4a16-925f-9cdd26b79237","system_id":"levelo_inurba_marseille","lat":43.24543,"lon":5.39528,"is_reserved":false,"is_disabled":false,"rental_uris":{"android":"levelo://app?vid=215f000c-7aae-4a16-925f-9cdd26b79237","ios":"levelo://app?vid=215f000c-7aae-4a16-925f-9cdd26b79237"},"vehicle_type_id":"4","last_reported":1773699744,"current_range_meters":2800,"station_id":"ce4bhlp2rcd13ifvqgjg","pricing_plan_id":"cebpf4jnsgd1na2vs0mg"},{"bike_id":"52f8387a-5c4b-4838-a7bd-d44d361a12f8","system_id":"levelo_inurba_marseille","lat":43.29259,"lon":5.40093,"is_reserved":false,"is_disabled":true,"rental_uris":{"android":"levelo://app?vid=52f8387a-5c4b-4838-a7bd-d44d361a12f8","ios":"levelo://app?vid=52f8387a-5c4b-4838-a7bd-d44d361a12f8"},"vehicle_type_id":"4","last_reported":1773699744,"current_range_meters":2800,"station_id":"ce4bh312rcd13ifvqdk0","pricing_plan_id":"cebpf4jnsgd1na2vs0mg"},{"bike_id":"f5372c5c-de7c-43bf-a281-739de2abcc41","system_id":"levelo_inurba_marseille","lat":43.30007,"lon":5.3769,"is_reserved":false,"is_disabled":false,"rental_uris":{"android":"levelo://app?vid=f5372c5c-de7c-43bf-a281-739de2abcc41","ios":"levelo://app?vid=f5372c5c-de7c-43bf-a281-739de2abcc41"},"vehicle_type_id":"4","last_reported":1773699744,"current_range_meters":2800,"station_id":"","pricing_plan_id":"cebpf4jnsgd1na2vs0mg"},{"bike_id":"c9fc3b63-ba8f-4d8c-ad81-5a027f121e54","system_id":"levelo_inurba_marseille","lat":43.24177,"lon":5.36399,"is_reserved":false,"is_disabled":false,"rental_uris":{"android":"levelo://app?vid=c9fc3b63-ba8f-4d8c-ad81-5a027f121e54","ios":"levelo://app?vid=c9fc3b63-ba8f-4d8c-ad81-5a027f121e54"},"vehicle_type_id":"4","last_reported":1773699744,"current_range_meters":2800,"station_id":"cpo36qri1sfpv3e86is0","pricing_plan_id":"cebpf4jnsgd1na2vs0mg"},{"bike_id":"b55a50a6-579f-4f30-b24b-28e0878f9fd0","system_id":"levelo_inurba_marseille","lat":43.290345,"lon":5.399543,"is_reserved":false,"is_disabled":false,"rental_uris":{"android":"levelo://app?vid=b55a50a6-579f-4f30-b24b-28e0878f9fd0","ios":"levelo://app?vid=b55a50a6-579f-4f30-b24b-28e0878f9fd0"},"vehicle_type_id":"4","last_reported":1773699744,"current_range_meters":2800,"station_id":"ce4bh392rcd13ifvqdm0","pricing_plan_id":"cebpf4jnsgd1na2vs0mg"},{"bike_id":"80804dce-9c24-4933-96dc-bbf82390f99c","system_id":"levelo_inurba_marseille","lat":43.27845,"lon":5.4068,"is_reserved":false,"is_disabled":false,"rental_uris":{"android":"levelo://app?vid=80804dce-9c24-4933-96dc-bbf82390f99c","ios":"levelo://app?vid=80804dce-9c24-4933-96dc-bbf82390f99c"},"vehicle_type_id":"4","last_reported":1773699744,"current_range_meters":3200,"station_id":"ce4bhnh2rcd13ifvqgtg","pricing_plan_id":"cebpf4jnsgd1na2vs0mg"},{"bike_id":"20cdd2bd-a142-4979-a5d5-9d757961db74","system_id":"levelo_inurba_marseille","lat":43.23188,"lon":5.39985,"is_reserved":false,"is_disabled":false,"rental_uris":{"android":"levelo://app?vid=20cdd2bd-a142-4979-a5d5-9d757961db74","ios":"levelo://app?vid=20cdd2bd-a142-4979-a5d5-9d757961db74"},"vehicle_type_id":"4","last_reported":1773699744,"current_range_meters":3200,"station_id":"ce4bhn12rcd13ifvqgqg","pricing_plan_id":"cebpf4jnsgd1na2vs0mg"},{"bike_id":"a937509f-9824-4594-8553-c7207654f27e","system_id":"levelo_inurba_marseille","lat":43.33162,"lon":5.37697,"is_reserved":false,"is_disabled":false,"rental_uris":{"android":"levelo://app?vid=a937509f-9824-4594-8553-c7207654f27e","ios":"levelo://app?vid=a937509f-9824-4594-8553-c7207654f27e"},"vehicle_type_id":"4","last_reported":1773699744,"current_range_meters":3200,"station_id":"st_d46cu089ee8s73dldbu0","pricing_plan_id":"cebpf4jnsgd1na2vs0mg"},{"bike_id":"0ac8d60b-03cf-4381-84ae-bd6858e3df58","system_id":"levelo_inurba_marseille","lat":43.25579,"lon":5.3824,"is_reserved":false,"is_disabled":false,"rental_uris":{"android":"levelo://app?vid=0ac8d60b-03cf-4381-84ae-bd6858e3df58","ios":"levelo://app?vid=0ac8d60b-03cf-4381-84ae-bd6858e3df58"},"vehicle_type_id":"4","last_reported":1773699744,"current_range_meters":3200,"station_id":"ce4bhih2rcd13ifvqfs0","pricing_plan_id":"cebpf4jnsgd1na2vs0mg"},{"bike_id":"42035ef2-f1f6-4907-b501-16ef535c7e31","system_id":"levelo_inurba_marseille","lat":43.30649,"lon":5.3997,"is_reserved":false,"is_disabled":true,"rental_uris":{"android":"levelo://app?vid=42035ef2-f1f6-4907-b501-16ef535c7e31","ios":"levelo://app?vid=42035ef2-f1f6-4907-b501-16ef535c7e31"},"vehicle_type_id":"4","last_reported":1773699744,"current_range_meters":3200,"station_id":"","pricing_plan_id":"cebpf4jnsgd1na2vs0mg"},{"bike_id":"ecad3eff-9e16-47ad-ade7-527ba1de2135","system_id":"levelo_inurba_marseille","lat":43.26219,"lon":5.37434,"is_reserved":false,"is_disabled":false,"rental_uris":{"android":"levelo://app?vid=ecad3eff-9e16-47ad-ade7-527ba1de2135","ios":"levelo://app?vid=ecad3eff-9e16-47ad-ade7-527ba1de2135"},"vehicle_type_id":"4","last_reported":1773699744,"current_range_meters":3200,"station_id":"ce4bhgp2rcd13ifvqfc0","pricing_plan_id":"cebpf4jnsgd1na2vs0mg"},{"bike_id":"772b0c88-7da4-45ab-9f90-77367e166bfa","system_id":"levelo_inurba_marseille","lat":43.30314,"lon":5.40431,"is_reserved":false,"is_disabled":false,"rental_uris":{"android":"levelo://app?vid=772b0c88-7da4-45ab-9f90-77367e166bfa","ios":"levelo://app?vid=772b0c88-7da4-45ab-9f90-77367e166bfa"},"vehicle_type_id":"4","last_reported":1773699744,"current_range_meters":3200,"station_id":"ce4bh012rcd13ifvqd10","pricing_plan_id":"cebpf4jnsgd1na2vs0mg"},{"bike_id":"91b68109-671d-4405-9608-5319bdc21a55","system_id":"levelo_inurba_marseille","lat":43.27998,"lon":5.41664,"is_reserved":false,"is_disabled":false,"rental_uris":{"android":"levelo://app?vid=91b68109-671d-4405-9608-5319bdc21a55","ios":"levelo://app?vid=91b68109-671d-4405-9608-5319bdc21a55"},"vehicle_type_id":"4","last_reported":1773699744,"current_range_meters":3200,"station_id":"ce4bho12rcd13ifvqh1g","pricing_plan_id":"cebpf4jnsgd1na2vs0mg"},{"bike_id":"113a10dd-0d0f-44e9-9da4-49a2b0168cba","system_id":"levelo_inurba_marseille","lat":43.28478,"lon":5.38983,"is_reserved":false,"is_disabled":true,"rental_uris":{"android":"levelo://app?vid=113a10dd-0d0f-44e9-9da4-49a2b0168cba","ios":"levelo://app?vid=113a10dd-0d0f-44e9-9da4-49a2b0168cba"},"vehicle_type_id":"4","last_reported":1773699744,"current_range_meters":3600,"station_id":"","pricing_plan_id":"cebpf4jnsgd1na2vs0mg"},{"bike_id":"1df13793-c5c3-4eaf-9c72-921245fffd38","system_id":"levelo_inurba_marseille","lat":43.24639,"lon":5.389,"is_reserved":false,"is_disabled":false,"rental_uris":{"android":"levelo://app?vid=1df13793-c5c3-4eaf-9c72-921245fffd38","ios":"levelo://app?vid=1df13793-c5c3-4eaf-9c72-921245fffd38"},"vehicle_type_id":"4","last_reported":1773699744,"current_range_meters":3600,"station_id":"ce4bhg12rcd13ifvqf60","pricing_plan_id":"cebpf4jnsgd1na2vs0mg"},{"bike_id":"6d93de22-0746-46ca-8677-2ed1ec482026","system_id":"levelo_inurba_marseille","lat":43.31133,"lon":5.37765,"is_reserved":false,"is_disabled":true,"rental_uris":{"android":"levelo://app?vid=6d93de22-0746-46ca-8677-2ed1ec482026","ios":"levelo://app?vid=6d93de22-0746-46ca-8677-2ed1ec482026"},"vehicle_type_id":"4","last_reported":1773699744,"current_range_meters":3600,"station_id":"ce4bgt92rcd13ifvqcg0","pricing_plan_id":"cebpf4jnsgd1na2vs0mg"},{"bike_id":"ff52470e-31d9-4b12-8688-269178bfc564","system_id":"levelo_inurba_marseille","lat":43.29564,"lon":5.3996,"is_reserved":false,"is_disabled":true,"rental_uris":{"android":"levelo://app?vid=ff52470e-31d9-4b12-8688-269178bfc564","ios":"levelo://app?vid=ff52470e-31d9-4b12-8688-269178bfc564"},"vehicle_type_id":"4","last_reported":1773699744,"current_range_meters":3600,"station_id":"ce4bh312rcd13ifvqdj0","pricing_plan_id":"cebpf4jnsgd1na2vs0mg"},{"bike_id":"fef64c2c-5ba5-4219-9641-7321dcefb15e","system_id":"levelo_inurba_marseille","lat":43.29529,"lon":5.39397,"is_reserved":false,"is_disabled":false,"rental_uris":{"android":"levelo://app?vid=fef64c2c-5ba5-4219-9641-7321dcefb15e","ios":"levelo://app?vid=fef64c2c-5ba5-4219-9641-7321dcefb15e"},"vehicle_type_id":"4","last_reported":1773699744,"current_range_meters":3600,"station_id":"ce4bh292rcd13ifvqdf0","pricing_plan_id":"cebpf4jnsgd1na2vs0mg"},{"bike_id":"d49e7c52-d942-4b88-a1e0-0a03d48402ca","system_id":"levelo_inurba_marseille","lat":43.28967,"lon":5.36389,"is_reserved":false,"is_disabled":false,"rental_uris":{"android":"levelo://app?vid=d49e7c52-d942-4b88-a1e0-0a03d48402ca","ios":"levelo://app?vid=d49e7c52-d942-4b88-a1e0-0a03d48402ca"},"vehicle_type_id":"4","last_reported":1773699744,"current_range_meters":3600,"station_id":"ce4bhc92rcd13ifvqetg","pricing_plan_id":"cebpf4jnsgd1na2vs0mg"},{"bike_id":"09a03a54-3477-4d42-a4dd-49f0886ccb84","system_id":"levelo_inurba_marseille","lat":43.33542,"lon":5.37462,"is_reserved":false,"is_disabled":false,"rental_uris":{"android":"levelo://app?vid=09a03a54-3477-4d42-a4dd-49f0886ccb84","ios":"levelo://app?vid=09a03a54-3477-4d42-a4dd-49f0886ccb84"},"vehicle_type_id":"4","last_reported":1773699744,"current_range_meters":3600,"station_id":"st_d46tts09ee8s73dlu43g","pricing_plan_id":"cebpf4jnsgd1na2vs0mg"},{"bike_id":"bea8cb99-c773-4a35-9790-1809707f41b7","system_id":"levelo_inurba_marseille","lat":43.28613,"lon":5.35111,"is_reserved":false,"is_disabled":false,"rental_uris":{"android":"levelo://app?vid=bea8cb99-c773-4a35-9790-1809707f41b7","ios":"levelo://app?vid=bea8cb99-c773-4a35-9790-1809707f41b7"},"vehicle_type_id":"4","last_reported":1773699744,"current_range_meters":3600,"station_id":"ce4bhch2rcd13ifvqeug","pricing_plan_id":"cebpf4jnsgd1na2vs0mg"},{"bike_id":"af8257a1-4f51-47f6-b4bc-8a8fd49598ee","system_id":"levelo_inurba_marseille","lat":43.28696,"lon":5.39987,"is_reserved":false,"is_disabled":false,"rental_uris":{"android":"levelo://app?vid=af8257a1-4f51-47f6-b4bc-8a8fd49598ee","ios":"levelo://app?vid=af8257a1-4f51-47f6-b4bc-8a8fd49598ee"},"vehicle_type_id":"4","last_reported":1773699744,"current_range_meters":3600,"station_id":"ce4bho92rcd13ifvqh3g","pricing_plan_id":"cebpf4jnsgd1na2vs0mg"},{"bike_id":"a4addb3a-a047-4331-a446-3453272202ec","system_id":"levelo_inurba_marseille","lat":43.30075,"lon":5.39073,"is_reserved":false,"is_disabled":false,"rental_uris":{"android":"levelo://app?vid=a4addb3a-a047-4331-a446-3453272202ec","ios":"levelo://app?vid=a4addb3a-a047-4331-a446-3453272202ec"},"vehicle_type_id":"4","last_reported":1773699744,"current_range_meters":3600,"station_id":"ce4bh192rcd13ifvqdb0","pricing_plan_id":"cebpf4jnsgd1na2vs0mg"},{"bike_id":"0f513732-f4ff-46d3-8e9a-fe754aff2883","system_id":"levelo_inurba_marseille","lat":43.30588,"lon":5.37219,"is_reserved":false,"is_disabled":false,"rental_uris":{"android":"levelo://app?vid=0f513732-f4ff-46d3-8e9a-fe754aff2883","ios":"levelo://app?vid=0f513732-f4ff-46d3-8e9a-fe754aff2883"},"vehicle_type_id":"4","last_reported":1773699744,"current_range_meters":3600,"station_id":"ce4bgqh2rcd13ifvqc4g","pricing_plan_id":"cebpf4jnsgd1na2vs0mg"},{"bike_id":"bb2f2682-e85d-41f2-90ad-6763b4458381","system_id":"levelo_inurba_marseille","lat":43.28959,"lon":5.36371,"is_reserved":false,"is_disabled":false,"rental_uris":{"android":"levelo://app?vid=bb2f2682-e85d-41f2-90ad-6763b4458381","ios":"levelo://app?vid=bb2f2682-e85d-41f2-90ad-6763b4458381"},"vehicle_type_id":"4","last_reported":1773699744,"current_range_meters":3600,"station_id":"ce4bhc92rcd13ifvqetg","pricing_plan_id":"cebpf4jnsgd1na2vs0mg"},{"bike_id":"816edecf-4b59-43b8-b223-e1f334127651","system_id":"levelo_inurba_marseille","lat":43.30812,"lon":5.38144,"is_reserved":false,"is_disabled":false,"rental_uris":{"android":"levelo://app?vid=816edecf-4b59-43b8-b223-e1f334127651","ios":"levelo://app?vid=816edecf-4b59-43b8-b223-e1f334127651"},"vehicle_type_id":"4","last_reported":1773699744,"current_range_meters":3600,"station_id":"ce4bgt12rcd13ifvqce0","pricing_plan_id":"cebpf4jnsgd1na2vs0mg"},{"bike_id":"3e70d9b4-40bd-4c62-951e-843ea541fb29","system_id":"levelo_inurba_marseille","lat":43.29896,"lon":5.38915,"is_reserved":false,"is_disabled":false,"rental_uris":{"android":"levelo://app?vid=3e70d9b4-40bd-4c62-951e-843ea541fb29","ios":"levelo://app?vid=3e70d9b4-40bd-4c62-951e-843ea541fb29"},"vehicle_type_id":"4","last_reported":1773699744,"current_range_meters":3600,"station_id":"ce4bh392rcd13ifvqdl0","pricing_plan_id":"cebpf4jnsgd1na2vs0mg"},{"bike_id":"e7209666-dbbe-4a03-8ae9-cb180c8c1a2f","system_id":"levelo_inurba_marseille","lat":43.29901,"lon":5.39741,"is_reserved":false,"is_disabled":false,"rental_uris":{"android":"levelo://app?vid=e7209666-dbbe-4a03-8ae9-cb180c8c1a2f","ios":"levelo://app?vid=e7209666-dbbe-4a03-8ae9-cb180c8c1a2f"},"vehicle_type_id":"4","last_reported":1773699744,"current_range_meters":3600,"station_id":"ce4bh0h2rcd13ifvqd50","pricing_plan_id":"cebpf4jnsgd1na2vs0mg"},{"bike_id":"6ac0509d-fba8-4ac9-836d-d37ff0afd78e","system_id":"levelo_inurba_marseille","lat":43.25876,"lon":5.39889,"is_reserved":false,"is_disabled":true,"rental_uris":{"android":"levelo://app?vid=6ac0509d-fba8-4ac9-836d-d37ff0afd78e","ios":"levelo://app?vid=6ac0509d-fba8-4ac9-836d-d37ff0afd78e"},"vehicle_type_id":"4","last_reported":1773699744,"current_range_meters":3600,"station_id":"ce4bhl92rcd13ifvqghg","pricing_plan_id":"cebpf4jnsgd1na2vs0mg"},{"bike_id":"19d3d06f-e5b8-4596-966b-86c70e9be1a2","system_id":"levelo_inurba_marseille","lat":43.29027,"lon":5.4002,"is_reserved":false,"is_disabled":false,"rental_uris":{"android":"levelo://app?vid=19d3d06f-e5b8-4596-966b-86c70e9be1a2","ios":"levelo://app?vid=19d3d06f-e5b8-4596-966b-86c70e9be1a2"},"vehicle_type_id":"4","last_reported":1773699744,"current_range_meters":3600,"station_id":"ce4bh392rcd13ifvqdm0","pricing_plan_id":"cebpf4jnsgd1na2vs0mg"},{"bike_id":"fe1d6d40-79c3-4068-8512-f35564645462","system_id":"levelo_inurba_marseille","lat":43.28578,"lon":5.39868,"is_reserved":false,"is_disabled":false,"rental_uris":{"android":"levelo://app?vid=fe1d6d40-79c3-4068-8512-f35564645462","ios":"levelo://app?vid=fe1d6d40-79c3-4068-8512-f35564645462"},"vehicle_type_id":"4","last_reported":1773699744,"current_range_meters":4000,"station_id":"st_d4a7ka997mjs738ck50g","pricing_plan_id":"cebpf4jnsgd1na2vs0mg"},{"bike_id":"330fe512-5a4f-4dc0-af53-e34acc96e946","system_id":"levelo_inurba_marseille","lat":43.25338,"lon":5.42158,"is_reserved":false,"is_disabled":false,"rental_uris":{"android":"levelo://app?vid=330fe512-5a4f-4dc0-af53-e34acc96e946","ios":"levelo://app?vid=330fe512-5a4f-4dc0-af53-e34acc96e946"},"vehicle_type_id":"4","last_reported":1773699744,"current_range_meters":4000,"station_id":"st_d2m65c5bi1j21697t3ng","pricing_plan_id":"cebpf4jnsgd1na2vs0mg"},{"bike_id":"162a09a4-04f4-49fe-b042-0ccbba2b391e","system_id":"levelo_inurba_marseille","lat":43.24646,"lon":5.43149,"is_reserved":false,"is_disabled":false,"rental_uris":{"android":"levelo://app?vid=162a09a4-04f4-49fe-b042-0ccbba2b391e","ios":"levelo://app?vid=162a09a4-04f4-49fe-b042-0ccbba2b391e"},"vehicle_type_id":"4","last_reported":1773699744,"current_range_meters":4000,"station_id":"","pricing_plan_id":"cebpf4jnsgd1na2vs0mg"},{"bike_id":"9356019c-cf2c-489c-ad6f-5ac5a6e94ed0","system_id":"levelo_inurba_marseille","lat":43.29036,"lon":5.38138,"is_reserved":false,"is_disabled":true,"rental_uris":{"android":"levelo://app?vid=9356019c-cf2c-489c-ad6f-5ac5a6e94ed0","ios":"levelo://app?vid=9356019c-cf2c-489c-ad6f-5ac5a6e94ed0"},"vehicle_type_id":"4","last_reported":1773699744,"current_range_meters":4000,"station_id":"ce4bh4p2rcd13ifvqe1g","pricing_plan_id":"cebpf4jnsgd1na2vs0mg"},{"bike_id":"58c83b1e-15cd-4315-8891-95acf644dd3c","system_id":"levelo_inurba_marseille","lat":43.31264,"lon":5.40167,"is_reserved":false,"is_disabled":false,"rental_uris":{"android":"levelo://app?vid=58c83b1e-15cd-4315-8891-95acf644dd3c","ios":"levelo://app?vid=58c83b1e-15cd-4315-8891-95acf644dd3c"},"vehicle_type_id":"4","last_reported":1773699744,"current_range_meters":4000,"station_id":"ce4bh092rcd13ifvqd30","pricing_plan_id":"cebpf4jnsgd1na2vs0mg"},{"bike_id":"fb557160-2a07-4528-8b25-3dddc12a17e9","system_id":"levelo_inurba_marseille","lat":43.31504,"lon":5.37292,"is_reserved":false,"is_disabled":false,"rental_uris":{"android":"levelo://app?vid=fb557160-2a07-4528-8b25-3dddc12a17e9","ios":"levelo://app?vid=fb557160-2a07-4528-8b25-3dddc12a17e9"},"vehicle_type_id":"4","last_reported":1773699744,"current_range_meters":4000,"station_id":"ce4bgt12rcd13ifvqcd0","pricing_plan_id":"cebpf4jnsgd1na2vs0mg"},{"bike_id":"c5e12d9b-6e5b-48d8-afc8-3e5af009d179","system_id":"levelo_inurba_marseille","lat":43.28419,"lon":5.37513,"is_reserved":false,"is_disabled":false,"rental_uris":{"android":"levelo://app?vid=c5e12d9b-6e5b-48d8-afc8-3e5af009d179","ios":"levelo://app?vid=c5e12d9b-6e5b-48d8-afc8-3e5af009d179"},"vehicle_type_id":"4","last_reported":1773699744,"current_range_meters":4000,"station_id":"ce4bh412rcd13ifvqds0","pricing_plan_id":"cebpf4jnsgd1na2vs0mg"},{"bike_id":"6afd1434-ba24-44e5-9451-290f478c5575","system_id":"levelo_inurba_marseille","lat":43.29183,"lon":5.37149,"is_reserved":false,"is_disabled":false,"rental_uris":{"android":"levelo://app?vid=6afd1434-ba24-44e5-9451-290f478c5575","ios":"levelo://app?vid=6afd1434-ba24-44e5-9451-290f478c5575"},"vehicle_type_id":"4","last_reported":1773699744,"current_range_meters":4000,"station_id":"ce4bha92rcd13ifvqeh0","pricing_plan_id":"cebpf4jnsgd1na2vs0mg"},{"bike_id":"e89a9c90-e436-40ef-ba7e-83a8ed68680e","system_id":"levelo_inurba_marseille","lat":43.22572,"lon":5.41621,"is_reserved":false,"is_disabled":false,"rental_uris":{"android":"levelo://app?vid=e89a9c90-e436-40ef-ba7e-83a8ed68680e","ios":"levelo://app?vid=e89a9c90-e436-40ef-ba7e-83a8ed68680e"},"vehicle_type_id":"4","last_reported":1773699744,"current_range_meters":4000,"station_id":"st_d2o4gvlbi1j2169b742g","pricing_plan_id":"cebpf4jnsgd1na2vs0mg"},{"bike_id":"b394f1ff-b00b-44b8-91bb-61252e638bd9","system_id":"levelo_inurba_marseille","lat":43.30811,"lon":5.38126,"is_reserved":false,"is_disabled":false,"rental_uris":{"android":"levelo://app?vid=b394f1ff-b00b-44b8-91bb-61252e638bd9","ios":"levelo://app?vid=b394f1ff-b00b-44b8-91bb-61252e638bd9"},"vehicle_type_id":"4","last_reported":1773699744,"current_range_meters":4000,"station_id":"ce4bgt12rcd13ifvqce0","pricing_plan_id":"cebpf4jnsgd1na2vs0mg"},{"bike_id":"2a3fb117-14db-4bb4-8017-c02bcd77eb87","system_id":"levelo_inurba_marseille","lat":43.28411,"lon":5.37509,"is_reserved":false,"is_disabled":false,"rental_uris":{"android":"levelo://app?vid=2a3fb117-14db-4bb4-8017-c02bcd77eb87","ios":"levelo://app?vid=2a3fb117-14db-4bb4-8017-c02bcd77eb87"},"vehicle_type_id":"4","last_reported":1773699744,"current_range_meters":4000,"station_id":"ce4bh412rcd13ifvqds0","pricing_plan_id":"cebpf4jnsgd1na2vs0mg"},{"bike_id":"bd8ff244-9d25-43a9-81c3-b439b3f3ff7d","system_id":"levelo_inurba_marseille","lat":43.28379,"lon":5.37573,"is_reserved":false,"is_disabled":false,"rental_uris":{"android":"levelo://app?vid=bd8ff244-9d25-43a9-81c3-b439b3f3ff7d","ios":"levelo://app?vid=bd8ff244-9d25-43a9-81c3-b439b3f3ff7d"},"vehicle_type_id":"4","last_reported":1773699744,"current_range_meters":4400,"station_id":"","pricing_plan_id":"cebpf4jnsgd1na2vs0mg"},{"bike_id":"0c335a06-bb8d-4e60-b16b-2272ae511e41","system_id":"levelo_inurba_marseille","lat":43.287026,"lon":5.373634,"is_reserved":false,"is_disabled":false,"rental_uris":{"android":"levelo://app?vid=0c335a06-bb8d-4e60-b16b-2272ae511e41","ios":"levelo://app?vid=0c335a06-bb8d-4e60-b16b-2272ae511e41"},"vehicle_type_id":"4","last_reported":1773699744,"current_range_meters":4400,"station_id":"ce4bh3p2rcd13ifvqdq0","pricing_plan_id":"cebpf4jnsgd1na2vs0mg"},{"bike_id":"4345a5c6-5a92-4f87-982c-7172ded5735e","system_id":"levelo_inurba_marseille","lat":43.29259,"lon":5.3762,"is_reserved":false,"is_disabled":false,"rental_uris":{"android":"levelo://app?vid=4345a5c6-5a92-4f87-982c-7172ded5735e","ios":"levelo://app?vid=4345a5c6-5a92-4f87-982c-7172ded5735e"},"vehicle_type_id":"4","last_reported":1773699744,"current_range_meters":4400,"station_id":"ce4bgi12rcd13ifvqb80","pricing_plan_id":"cebpf4jnsgd1na2vs0mg"},{"bike_id":"fb205df0-14f5-497e-9645-0f06c85189e5","system_id":"levelo_inurba_marseille","lat":43.28716,"lon":5.35204,"is_reserved":false,"is_disabled":false,"rental_uris":{"android":"levelo://app?vid=fb205df0-14f5-497e-9645-0f06c85189e5","ios":"levelo://app?vid=fb205df0-14f5-497e-9645-0f06c85189e5"},"vehicle_type_id":"4","last_reported":1773699744,"current_range_meters":4400,"station_id":"","pricing_plan_id":"cebpf4jnsgd1na2vs0mg"},{"bike_id":"96b8cd26-2a67-483c-9d87-f928671b1c14","system_id":"levelo_inurba_marseille","lat":43.23163,"lon":5.39969,"is_reserved":false,"is_disabled":false,"rental_uris":{"android":"levelo://app?vid=96b8cd26-2a67-483c-9d87-f928671b1c14","ios":"levelo://app?vid=96b8cd26-2a67-483c-9d87-f928671b1c14"},"vehicle_type_id":"4","last_reported":1773699744,"current_range_meters":4400,"station_id":"ce4bhn12rcd13ifvqgqg","pricing_plan_id":"cebpf4jnsgd1na2vs0mg"},{"bike_id":"5656b650-91cc-4afc-8ef2-c4a31176e0ea","system_id":"levelo_inurba_marseille","lat":43.29599,"lon":5.37741,"is_reserved":false,"is_disabled":false,"rental_uris":{"android":"levelo://app?vid=5656b650-91cc-4afc-8ef2-c4a31176e0ea","ios":"levelo://app?vid=5656b650-91cc-4afc-8ef2-c4a31176e0ea"},"vehicle_type_id":"4","last_reported":1773699744,"current_range_meters":4400,"station_id":"ce4bgi92rcd13ifvqb90","pricing_plan_id":"cebpf4jnsgd1na2vs0mg"},{"bike_id":"f3041050-db25-4d4b-ae9c-9e3ebc17b49c","system_id":"levelo_inurba_marseille","lat":43.31178,"lon":5.38706,"is_reserved":false,"is_disabled":false,"rental_uris":{"android":"levelo://app?vid=f3041050-db25-4d4b-ae9c-9e3ebc17b49c","ios":"levelo://app?vid=f3041050-db25-4d4b-ae9c-9e3ebc17b49c"},"vehicle_type_id":"4","last_reported":1773699744,"current_range_meters":4400,"station_id":"ce4bgv12rcd13ifvqcp0","pricing_plan_id":"cebpf4jnsgd1na2vs0mg"},{"bike_id":"c90382b0-e849-4385-8fa8-3258977ce5b8","system_id":"levelo_inurba_marseille","lat":43.30907,"lon":5.36842,"is_reserved":false,"is_disabled":false,"rental_uris":{"android":"levelo://app?vid=c90382b0-e849-4385-8fa8-3258977ce5b8","ios":"levelo://app?vid=c90382b0-e849-4385-8fa8-3258977ce5b8"},"vehicle_type_id":"4","last_reported":1773699744,"current_range_meters":4400,"station_id":"ce4bgn92rcd13ifvqbvg","pricing_plan_id":"cebpf4jnsgd1na2vs0mg"},{"bike_id":"fa82fa39-0ac5-44d9-9c9c-abc5c5736da4","system_id":"levelo_inurba_marseille","lat":43.30308,"lon":5.36846,"is_reserved":false,"is_disabled":false,"rental_uris":{"android":"levelo://app?vid=fa82fa39-0ac5-44d9-9c9c-abc5c5736da4","ios":"levelo://app?vid=fa82fa39-0ac5-44d9-9c9c-abc5c5736da4"},"vehicle_type_id":"4","last_reported":1773699744,"current_range_meters":4400,"station_id":"ce4bgqh2rcd13ifvqc5g","pricing_plan_id":"cebpf4jnsgd1na2vs0mg"},{"bike_id":"94c7c5c3-055a-428d-8583-99d88f2d6ac6","system_id":"levelo_inurba_marseille","lat":43.22558,"lon":5.41639,"is_reserved":false,"is_disabled":false,"rental_uris":{"android":"levelo://app?vid=94c7c5c3-055a-428d-8583-99d88f2d6ac6","ios":"levelo://app?vid=94c7c5c3-055a-428d-8583-99d88f2d6ac6"},"vehicle_type_id":"4","last_reported":1773699744,"current_range_meters":4400,"station_id":"st_d2o4gvlbi1j2169b742g","pricing_plan_id":"cebpf4jnsgd1na2vs0mg"},{"bike_id":"6740b991-1e20-4c8c-9f2c-3871e13a61e4","system_id":"levelo_inurba_marseille","lat":43.31503,"lon":5.37292,"is_reserved":false,"is_disabled":false,"rental_uris":{"android":"levelo://app?vid=6740b991-1e20-4c8c-9f2c-3871e13a61e4","ios":"levelo://app?vid=6740b991-1e20-4c8c-9f2c-3871e13a61e4"},"vehicle_type_id":"4","last_reported":1773699744,"current_range_meters":4400,"station_id":"ce4bgt12rcd13ifvqcd0","pricing_plan_id":"cebpf4jnsgd1na2vs0mg"},{"bike_id":"77c7d1f8-b246-46d2-b5b4-d3bfaaf9bfbe","system_id":"levelo_inurba_marseille","lat":43.30798,"lon":5.38139,"is_reserved":false,"is_disabled":false,"rental_uris":{"android":"levelo://app?vid=77c7d1f8-b246-46d2-b5b4-d3bfaaf9bfbe","ios":"levelo://app?vid=77c7d1f8-b246-46d2-b5b4-d3bfaaf9bfbe"},"vehicle_type_id":"4","last_reported":1773699744,"current_range_meters":4400,"station_id":"ce4bgt12rcd13ifvqce0","pricing_plan_id":"cebpf4jnsgd1na2vs0mg"},{"bike_id":"e7dcb867-a1b1-407f-b89e-d76b1fc4b4e7","system_id":"levelo_inurba_marseille","lat":43.25488,"lon":5.37645,"is_reserved":false,"is_disabled":false,"rental_uris":{"android":"levelo://app?vid=e7dcb867-a1b1-407f-b89e-d76b1fc4b4e7","ios":"levelo://app?vid=e7dcb867-a1b1-407f-b89e-d76b1fc4b4e7"},"vehicle_type_id":"4","last_reported":1773699744,"current_range_meters":4400,"station_id":"ce4bhh12rcd13ifvqff0","pricing_plan_id":"cebpf4jnsgd1na2vs0mg"},{"bike_id":"b5ab56b5-06f8-4463-b747-a1ff4511f236","system_id":"levelo_inurba_marseille","lat":43.30139,"lon":5.39867,"is_reserved":false,"is_disabled":false,"rental_uris":{"android":"levelo://app?vid=b5ab56b5-06f8-4463-b747-a1ff4511f236","ios":"levelo://app?vid=b5ab56b5-06f8-4463-b747-a1ff4511f236"},"vehicle_type_id":"4","last_reported":1773699744,"current_range_meters":4400,"station_id":"ce4bh0h2rcd13ifvqd40","pricing_plan_id":"cebpf4jnsgd1na2vs0mg"},{"bike_id":"8a733d26-3bea-4400-9674-b3365d481c4a","system_id":"levelo_inurba_marseille","lat":43.21751,"lon":5.34596,"is_reserved":false,"is_disabled":false,"rental_uris":{"android":"levelo://app?vid=8a733d26-3bea-4400-9674-b3365d481c4a","ios":"levelo://app?vid=8a733d26-3bea-4400-9674-b3365d481c4a"},"vehicle_type_id":"4","last_reported":1773699744,"current_range_meters":4400,"station_id":"st_cvj6r9ubvosntc0bgbag","pricing_plan_id":"cebpf4jnsgd1na2vs0mg"},{"bike_id":"d2976fd3-6450-4498-b60b-e700290dd641","system_id":"levelo_inurba_marseille","lat":43.29551,"lon":5.37494,"is_reserved":false,"is_disabled":false,"rental_uris":{"android":"levelo://app?vid=d2976fd3-6450-4498-b60b-e700290dd641","ios":"levelo://app?vid=d2976fd3-6450-4498-b60b-e700290dd641"},"vehicle_type_id":"4","last_reported":1773699744,"current_range_meters":4400,"station_id":"ce4bgkp2rcd13ifvqbmg","pricing_plan_id":"cebpf4jnsgd1na2vs0mg"},{"bike_id":"2204d452-1e8d-43d0-9038-aa59f58897e7","system_id":"levelo_inurba_marseille","lat":43.246546,"lon":5.381586,"is_reserved":false,"is_disabled":false,"rental_uris":{"android":"levelo://app?vid=2204d452-1e8d-43d0-9038-aa59f58897e7","ios":"levelo://app?vid=2204d452-1e8d-43d0-9038-aa59f58897e7"},"vehicle_type_id":"4","last_reported":1773699744,"current_range_meters":4800,"station_id":"ce4bhih2rcd13ifvqfr0","pricing_plan_id":"cebpf4jnsgd1na2vs0mg"},{"bike_id":"29e3373b-ced8-4b61-b6b8-e27d6370d22b","system_id":"levelo_inurba_marseille","lat":43.24464,"lon":5.42527,"is_reserved":false,"is_disabled":false,"rental_uris":{"android":"levelo://app?vid=29e3373b-ced8-4b61-b6b8-e27d6370d22b","ios":"levelo://app?vid=29e3373b-ced8-4b61-b6b8-e27d6370d22b"},"vehicle_type_id":"4","last_reported":1773699744,"current_range_meters":4800,"station_id":"st_d4a3vfp97mjs738cd8kg","pricing_plan_id":"cebpf4jnsgd1na2vs0mg"},{"bike_id":"bcc8e6aa-96f0-4f28-afeb-6669fabdb4fc","system_id":"levelo_inurba_marseille","lat":43.31487,"lon":5.37296,"is_reserved":false,"is_disabled":false,"rental_uris":{"android":"levelo://app?vid=bcc8e6aa-96f0-4f28-afeb-6669fabdb4fc","ios":"levelo://app?vid=bcc8e6aa-96f0-4f28-afeb-6669fabdb4fc"},"vehicle_type_id":"4","last_reported":1773699744,"current_range_meters":4800,"station_id":"ce4bgt12rcd13ifvqcd0","pricing_plan_id":"cebpf4jnsgd1na2vs0mg"},{"bike_id":"3d735fa8-0069-4c0a-ac38-9ba65a5df755","system_id":"levelo_inurba_marseille","lat":43.24542,"lon":5.39524,"is_reserved":false,"is_disabled":false,"rental_uris":{"android":"levelo://app?vid=3d735fa8-0069-4c0a-ac38-9ba65a5df755","ios":"levelo://app?vid=3d735fa8-0069-4c0a-ac38-9ba65a5df755"},"vehicle_type_id":"4","last_reported":1773699744,"current_range_meters":4800,"station_id":"ce4bhlp2rcd13ifvqgjg","pricing_plan_id":"cebpf4jnsgd1na2vs0mg"},{"bike_id":"6dd5bc46-d652-487e-bb29-76e29f0774c7","system_id":"levelo_inurba_marseille","lat":43.28409,"lon":5.37512,"is_reserved":false,"is_disabled":false,"rental_uris":{"android":"levelo://app?vid=6dd5bc46-d652-487e-bb29-76e29f0774c7","ios":"levelo://app?vid=6dd5bc46-d652-487e-bb29-76e29f0774c7"},"vehicle_type_id":"4","last_reported":1773699744,"current_range_meters":4800,"station_id":"ce4bh412rcd13ifvqds0","pricing_plan_id":"cebpf4jnsgd1na2vs0mg"},{"bike_id":"b1fb4160-7a04-4427-ade0-f327b0c87228","system_id":"levelo_inurba_marseille","lat":43.31704,"lon":5.40469,"is_reserved":false,"is_disabled":false,"rental_uris":{"android":"levelo://app?vid=b1fb4160-7a04-4427-ade0-f327b0c87228","ios":"levelo://app?vid=b1fb4160-7a04-4427-ade0-f327b0c87228"},"vehicle_type_id":"4","last_reported":1773699744,"current_range_meters":4800,"station_id":"ce4bh012rcd13ifvqd00","pricing_plan_id":"cebpf4jnsgd1na2vs0mg"},{"bike_id":"01ad50d2-b184-4de9-a95a-7acdbfb0404a","system_id":"levelo_inurba_marseille","lat":43.272001,"lon":5.391867,"is_reserved":false,"is_disabled":false,"rental_uris":{"android":"levelo://app?vid=01ad50d2-b184-4de9-a95a-7acdbfb0404a","ios":"levelo://app?vid=01ad50d2-b184-4de9-a95a-7acdbfb0404a"},"vehicle_type_id":"4","last_reported":1773699744,"current_range_meters":4800,"station_id":"ce4bhhp2rcd13ifvqfm0","pricing_plan_id":"cebpf4jnsgd1na2vs0mg"},{"bike_id":"01346258-331f-4e86-8dbf-2b574910957a","system_id":"levelo_inurba_marseille","lat":43.25338,"lon":5.42166,"is_reserved":false,"is_disabled":false,"rental_uris":{"android":"levelo://app?vid=01346258-331f-4e86-8dbf-2b574910957a","ios":"levelo://app?vid=01346258-331f-4e86-8dbf-2b574910957a"},"vehicle_type_id":"4","last_reported":1773699744,"current_range_meters":4800,"station_id":"st_d2m65c5bi1j21697t3ng","pricing_plan_id":"cebpf4jnsgd1na2vs0mg"},{"bike_id":"ee08aa37-ca1a-4c1f-996d-ec0f8f7f31e5","system_id":"levelo_inurba_marseille","lat":43.33547,"lon":5.37463,"is_reserved":false,"is_disabled":false,"rental_uris":{"android":"levelo://app?vid=ee08aa37-ca1a-4c1f-996d-ec0f8f7f31e5","ios":"levelo://app?vid=ee08aa37-ca1a-4c1f-996d-ec0f8f7f31e5"},"vehicle_type_id":"4","last_reported":1773699744,"current_range_meters":4800,"station_id":"st_d46tts09ee8s73dlu43g","pricing_plan_id":"cebpf4jnsgd1na2vs0mg"},{"bike_id":"ba3f2c88-013c-4fa6-a75a-c9c5bea86738","system_id":"levelo_inurba_marseille","lat":43.21749,"lon":5.34614,"is_reserved":false,"is_disabled":false,"rental_uris":{"android":"levelo://app?vid=ba3f2c88-013c-4fa6-a75a-c9c5bea86738","ios":"levelo://app?vid=ba3f2c88-013c-4fa6-a75a-c9c5bea86738"},"vehicle_type_id":"4","last_reported":1773699744,"current_range_meters":4800,"station_id":"st_cvj6r9ubvosntc0bgbag","pricing_plan_id":"cebpf4jnsgd1na2vs0mg"},{"bike_id":"510a8508-5171-4bf6-a8d6-a17248a012b1","system_id":"levelo_inurba_marseille","lat":43.30189,"lon":5.39841,"is_reserved":false,"is_disabled":false,"rental_uris":{"android":"levelo://app?vid=510a8508-5171-4bf6-a8d6-a17248a012b1","ios":"levelo://app?vid=510a8508-5171-4bf6-a8d6-a17248a012b1"},"vehicle_type_id":"4","last_reported":1773699744,"current_range_meters":4800,"station_id":"","pricing_plan_id":"cebpf4jnsgd1na2vs0mg"},{"bike_id":"eb5e5820-0429-4da1-8d37-440241da5579","system_id":"levelo_inurba_marseille","lat":43.24665,"lon":5.38169,"is_reserved":false,"is_disabled":false,"rental_uris":{"android":"levelo://app?vid=eb5e5820-0429-4da1-8d37-440241da5579","ios":"levelo://app?vid=eb5e5820-0429-4da1-8d37-440241da5579"},"vehicle_type_id":"4","last_reported":1773699744,"current_range_meters":4800,"station_id":"ce4bhih2rcd13ifvqfr0","pricing_plan_id":"cebpf4jnsgd1na2vs0mg"},{"bike_id":"1bf0f7a5-5c14-4cfc-b27d-856f2342d90e","system_id":"levelo_inurba_marseille","lat":43.30266,"lon":5.36925,"is_reserved":false,"is_disabled":false,"rental_uris":{"android":"levelo://app?vid=1bf0f7a5-5c14-4cfc-b27d-856f2342d90e","ios":"levelo://app?vid=1bf0f7a5-5c14-4cfc-b27d-856f2342d90e"},"vehicle_type_id":"4","last_reported":1773699744,"current_range_meters":5600,"station_id":"ce4bgqh2rcd13ifvqc5g","pricing_plan_id":"cebpf4jnsgd1na2vs0mg"},{"bike_id":"eae81de0-4c13-4562-a942-ee9c6b13e9b2","system_id":"levelo_inurba_marseille","lat":43.284007,"lon":5.375041,"is_reserved":false,"is_disabled":false,"rental_uris":{"android":"levelo://app?vid=eae81de0-4c13-4562-a942-ee9c6b13e9b2","ios":"levelo://app?vid=eae81de0-4c13-4562-a942-ee9c6b13e9b2"},"vehicle_type_id":"4","last_reported":1773699744,"current_range_meters":5600,"station_id":"ce4bh412rcd13ifvqds0","pricing_plan_id":"cebpf4jnsgd1na2vs0mg"},{"bike_id":"ce9ad2ce-bcf1-4e22-b1db-a513ed5fe488","system_id":"levelo_inurba_marseille","lat":43.31045,"lon":5.37168,"is_reserved":false,"is_disabled":false,"rental_uris":{"android":"levelo://app?vid=ce9ad2ce-bcf1-4e22-b1db-a513ed5fe488","ios":"levelo://app?vid=ce9ad2ce-bcf1-4e22-b1db-a513ed5fe488"},"vehicle_type_id":"4","last_reported":1773699744,"current_range_meters":5600,"station_id":"st_d4kl2rp97mjs73e7tdfg","pricing_plan_id":"cebpf4jnsgd1na2vs0mg"},{"bike_id":"1c737dbe-34de-4357-9453-719dff49eeef","system_id":"levelo_inurba_marseille","lat":43.25346,"lon":5.42197,"is_reserved":false,"is_disabled":false,"rental_uris":{"android":"levelo://app?vid=1c737dbe-34de-4357-9453-719dff49eeef","ios":"levelo://app?vid=1c737dbe-34de-4357-9453-719dff49eeef"},"vehicle_type_id":"4","last_reported":1773699744,"current_range_meters":5600,"station_id":"st_d2m65c5bi1j21697t3ng","pricing_plan_id":"cebpf4jnsgd1na2vs0mg"},{"bike_id":"1f268422-f1ea-4346-b196-b9823dc3cd82","system_id":"levelo_inurba_marseille","lat":43.29026,"lon":5.39977,"is_reserved":false,"is_disabled":false,"rental_uris":{"android":"levelo://app?vid=1f268422-f1ea-4346-b196-b9823dc3cd82","ios":"levelo://app?vid=1f268422-f1ea-4346-b196-b9823dc3cd82"},"vehicle_type_id":"4","last_reported":1773699744,"current_range_meters":5600,"station_id":"ce4bh392rcd13ifvqdm0","pricing_plan_id":"cebpf4jnsgd1na2vs0mg"},{"bike_id":"bf256410-a985-4a3e-9678-affc37079ec3","system_id":"levelo_inurba_marseille","lat":43.31173,"lon":5.38728,"is_reserved":false,"is_disabled":false,"rental_uris":{"android":"levelo://app?vid=bf256410-a985-4a3e-9678-affc37079ec3","ios":"levelo://app?vid=bf256410-a985-4a3e-9678-affc37079ec3"},"vehicle_type_id":"4","last_reported":1773699744,"current_range_meters":5600,"station_id":"ce4bgv12rcd13ifvqcp0","pricing_plan_id":"cebpf4jnsgd1na2vs0mg"},{"bike_id":"5018dc5d-3964-4f0e-b6fb-6000a8d70384","system_id":"levelo_inurba_marseille","lat":43.30735,"lon":5.42456,"is_reserved":false,"is_disabled":false,"rental_uris":{"android":"levelo://app?vid=5018dc5d-3964-4f0e-b6fb-6000a8d70384","ios":"levelo://app?vid=5018dc5d-3964-4f0e-b6fb-6000a8d70384"},"vehicle_type_id":"4","last_reported":1773699744,"current_range_meters":5600,"station_id":"st_cvj6ca6bvosntc0bfgr0","pricing_plan_id":"cebpf4jnsgd1na2vs0mg"},{"bike_id":"2e0ccf0b-9667-45fb-99ba-44104dae0873","system_id":"levelo_inurba_marseille","lat":43.33531,"lon":5.37488,"is_reserved":false,"is_disabled":false,"rental_uris":{"android":"levelo://app?vid=2e0ccf0b-9667-45fb-99ba-44104dae0873","ios":"levelo://app?vid=2e0ccf0b-9667-45fb-99ba-44104dae0873"},"vehicle_type_id":"4","last_reported":1773699744,"current_range_meters":5600,"station_id":"st_d46tts09ee8s73dlu43g","pricing_plan_id":"cebpf4jnsgd1na2vs0mg"},{"bike_id":"3166b5cb-18d1-4ac2-93c2-033b7de60c7b","system_id":"levelo_inurba_marseille","lat":43.25014,"lon":5.38919,"is_reserved":false,"is_disabled":true,"rental_uris":{"android":"levelo://app?vid=3166b5cb-18d1-4ac2-93c2-033b7de60c7b","ios":"levelo://app?vid=3166b5cb-18d1-4ac2-93c2-033b7de60c7b"},"vehicle_type_id":"4","last_reported":1773699744,"current_range_meters":5600,"station_id":"ce4bhgp2rcd13ifvqfd0","pricing_plan_id":"cebpf4jnsgd1na2vs0mg"},{"bike_id":"f4c86c3f-07bc-4af5-98d4-b3f685666ca8","system_id":"levelo_inurba_marseille","lat":43.30241,"lon":5.40078,"is_reserved":false,"is_disabled":false,"rental_uris":{"android":"levelo://app?vid=f4c86c3f-07bc-4af5-98d4-b3f685666ca8","ios":"levelo://app?vid=f4c86c3f-07bc-4af5-98d4-b3f685666ca8"},"vehicle_type_id":"4","last_reported":1773699744,"current_range_meters":5600,"station_id":"ce4bgvh2rcd13ifvqcs0","pricing_plan_id":"cebpf4jnsgd1na2vs0mg"},{"bike_id":"ac4a335d-e4ee-499e-bb25-2c82977e8c9b","system_id":"levelo_inurba_marseille","lat":43.28491,"lon":5.48377,"is_reserved":false,"is_disabled":false,"rental_uris":{"android":"levelo://app?vid=ac4a335d-e4ee-499e-bb25-2c82977e8c9b","ios":"levelo://app?vid=ac4a335d-e4ee-499e-bb25-2c82977e8c9b"},"vehicle_type_id":"4","last_reported":1773699744,"current_range_meters":5600,"station_id":"","pricing_plan_id":"cebpf4jnsgd1na2vs0mg"},{"bike_id":"e4ef0cfc-65cf-4753-808d-9b333cbf3fd7","system_id":"levelo_inurba_marseille","lat":43.27986,"lon":5.41664,"is_reserved":false,"is_disabled":false,"rental_uris":{"android":"levelo://app?vid=e4ef0cfc-65cf-4753-808d-9b333cbf3fd7","ios":"levelo://app?vid=e4ef0cfc-65cf-4753-808d-9b333cbf3fd7"},"vehicle_type_id":"4","last_reported":1773699744,"current_range_meters":6000,"station_id":"ce4bho12rcd13ifvqh1g","pricing_plan_id":"cebpf4jnsgd1na2vs0mg"},{"bike_id":"2c954639-c0f2-4783-b15e-28c14eab276f","system_id":"levelo_inurba_marseille","lat":43.31373,"lon":5.38518,"is_reserved":false,"is_disabled":false,"rental_uris":{"android":"levelo://app?vid=2c954639-c0f2-4783-b15e-28c14eab276f","ios":"levelo://app?vid=2c954639-c0f2-4783-b15e-28c14eab276f"},"vehicle_type_id":"4","last_reported":1773699744,"current_range_meters":6000,"station_id":"ce4bgt92rcd13ifvqcf0","pricing_plan_id":"cebpf4jnsgd1na2vs0mg"},{"bike_id":"38ae23e6-23d1-448c-8e70-f2eee48d35ba","system_id":"levelo_inurba_marseille","lat":43.26382,"lon":5.41052,"is_reserved":false,"is_disabled":false,"rental_uris":{"android":"levelo://app?vid=38ae23e6-23d1-448c-8e70-f2eee48d35ba","ios":"levelo://app?vid=38ae23e6-23d1-448c-8e70-f2eee48d35ba"},"vehicle_type_id":"4","last_reported":1773699744,"current_range_meters":6000,"station_id":"st_d4e5ca6na9uc73bfl5fg","pricing_plan_id":"cebpf4jnsgd1na2vs0mg"},{"bike_id":"34309bea-e1e9-4079-b4f6-df8586ef004e","system_id":"levelo_inurba_marseille","lat":43.28417,"lon":5.34986,"is_reserved":false,"is_disabled":false,"rental_uris":{"android":"levelo://app?vid=34309bea-e1e9-4079-b4f6-df8586ef004e","ios":"levelo://app?vid=34309bea-e1e9-4079-b4f6-df8586ef004e"},"vehicle_type_id":"4","last_reported":1773699744,"current_range_meters":6000,"station_id":"ce4bhbh2rcd13ifvqepg","pricing_plan_id":"cebpf4jnsgd1na2vs0mg"},{"bike_id":"55836559-5990-44a9-9e64-26cee1370358","system_id":"levelo_inurba_marseille","lat":43.29063,"lon":5.37133,"is_reserved":false,"is_disabled":true,"rental_uris":{"android":"levelo://app?vid=55836559-5990-44a9-9e64-26cee1370358","ios":"levelo://app?vid=55836559-5990-44a9-9e64-26cee1370358"},"vehicle_type_id":"4","last_reported":1773699744,"current_range_meters":6000,"station_id":"ce4bh5p2rcd13ifvqe4g","pricing_plan_id":"cebpf4jnsgd1na2vs0mg"},{"bike_id":"b64a0aec-50d6-4a7f-b597-2e61c2627c3c","system_id":"levelo_inurba_marseille","lat":43.31045,"lon":5.37158,"is_reserved":false,"is_disabled":false,"rental_uris":{"android":"levelo://app?vid=b64a0aec-50d6-4a7f-b597-2e61c2627c3c","ios":"levelo://app?vid=b64a0aec-50d6-4a7f-b597-2e61c2627c3c"},"vehicle_type_id":"4","last_reported":1773699744,"current_range_meters":6000,"station_id":"st_d4kl2rp97mjs73e7tdfg","pricing_plan_id":"cebpf4jnsgd1na2vs0mg"},{"bike_id":"fc1da8b1-0780-414b-bb37-49311ca06c86","system_id":"levelo_inurba_marseille","lat":43.28469,"lon":5.48373,"is_reserved":false,"is_disabled":false,"rental_uris":{"android":"levelo://app?vid=fc1da8b1-0780-414b-bb37-49311ca06c86","ios":"levelo://app?vid=fc1da8b1-0780-414b-bb37-49311ca06c86"},"vehicle_type_id":"4","last_reported":1773699744,"current_range_meters":6000,"station_id":"st_d3svhcjqgbts73a3dn0g","pricing_plan_id":"cebpf4jnsgd1na2vs0mg"},{"bike_id":"e2cb8bc0-efd9-43da-8e33-b818f7ab7685","system_id":"levelo_inurba_marseille","lat":43.29725,"lon":5.42793,"is_reserved":false,"is_disabled":false,"rental_uris":{"android":"levelo://app?vid=e2cb8bc0-efd9-43da-8e33-b818f7ab7685","ios":"levelo://app?vid=e2cb8bc0-efd9-43da-8e33-b818f7ab7685"},"vehicle_type_id":"4","last_reported":1773699744,"current_range_meters":6000,"station_id":"st_d3md5207bmas73dh9klg","pricing_plan_id":"cebpf4jnsgd1na2vs0mg"},{"bike_id":"3d36474f-f8a8-4519-b285-8d0b431dded8","system_id":"levelo_inurba_marseille","lat":43.31174,"lon":5.38699,"is_reserved":false,"is_disabled":false,"rental_uris":{"android":"levelo://app?vid=3d36474f-f8a8-4519-b285-8d0b431dded8","ios":"levelo://app?vid=3d36474f-f8a8-4519-b285-8d0b431dded8"},"vehicle_type_id":"4","last_reported":1773699744,"current_range_meters":6000,"station_id":"ce4bgv12rcd13ifvqcp0","pricing_plan_id":"cebpf4jnsgd1na2vs0mg"},{"bike_id":"e1944edb-2bec-4780-a4fc-74d3d7993546","system_id":"levelo_inurba_marseille","lat":43.29699,"lon":5.36589,"is_reserved":false,"is_disabled":false,"rental_uris":{"android":"levelo://app?vid=e1944edb-2bec-4780-a4fc-74d3d7993546","ios":"levelo://app?vid=e1944edb-2bec-4780-a4fc-74d3d7993546"},"vehicle_type_id":"4","last_reported":1773699744,"current_range_meters":6000,"station_id":"ce4bgn12rcd13ifvqbt0","pricing_plan_id":"cebpf4jnsgd1na2vs0mg"},{"bike_id":"b73f89f3-a8e6-4527-b89e-530ba374165e","system_id":"levelo_inurba_marseille","lat":43.30741,"lon":5.42427,"is_reserved":false,"is_disabled":false,"rental_uris":{"android":"levelo://app?vid=b73f89f3-a8e6-4527-b89e-530ba374165e","ios":"levelo://app?vid=b73f89f3-a8e6-4527-b89e-530ba374165e"},"vehicle_type_id":"4","last_reported":1773699744,"current_range_meters":6000,"station_id":"st_cvj6ca6bvosntc0bfgr0","pricing_plan_id":"cebpf4jnsgd1na2vs0mg"},{"bike_id":"330fa00b-b68f-4160-a4e5-d3b9915d949b","system_id":"levelo_inurba_marseille","lat":43.21187,"lon":5.35052,"is_reserved":false,"is_disabled":false,"rental_uris":{"android":"levelo://app?vid=330fa00b-b68f-4160-a4e5-d3b9915d949b","ios":"levelo://app?vid=330fa00b-b68f-4160-a4e5-d3b9915d949b"},"vehicle_type_id":"4","last_reported":1773699744,"current_range_meters":6000,"station_id":"st_cvj6sg6p6f1abm77japg","pricing_plan_id":"cebpf4jnsgd1na2vs0mg"},{"bike_id":"d0eec46e-c68d-434f-ab35-cc22794ab69b","system_id":"levelo_inurba_marseille","lat":43.30135,"lon":5.38751,"is_reserved":false,"is_disabled":false,"rental_uris":{"android":"levelo://app?vid=d0eec46e-c68d-434f-ab35-cc22794ab69b","ios":"levelo://app?vid=d0eec46e-c68d-434f-ab35-cc22794ab69b"},"vehicle_type_id":"4","last_reported":1773699744,"current_range_meters":6000,"station_id":"ce4bghh2rcd13ifvqb60","pricing_plan_id":"cebpf4jnsgd1na2vs0mg"},{"bike_id":"3abc6025-c015-4125-b222-5a083c682149","system_id":"levelo_inurba_marseille","lat":43.30967,"lon":5.38253,"is_reserved":false,"is_disabled":false,"rental_uris":{"android":"levelo://app?vid=3abc6025-c015-4125-b222-5a083c682149","ios":"levelo://app?vid=3abc6025-c015-4125-b222-5a083c682149"},"vehicle_type_id":"4","last_reported":1773699744,"current_range_meters":6000,"station_id":"","pricing_plan_id":"cebpf4jnsgd1na2vs0mg"},{"bike_id":"673469c2-d54f-4b4c-9099-35d90cf7c1ec","system_id":"levelo_inurba_marseille","lat":43.29513,"lon":5.39408,"is_reserved":false,"is_disabled":false,"rental_uris":{"android":"levelo://app?vid=673469c2-d54f-4b4c-9099-35d90cf7c1ec","ios":"levelo://app?vid=673469c2-d54f-4b4c-9099-35d90cf7c1ec"},"vehicle_type_id":"4","last_reported":1773699744,"current_range_meters":6400,"station_id":"ce4bh292rcd13ifvqdf0","pricing_plan_id":"cebpf4jnsgd1na2vs0mg"},{"bike_id":"7cd60be8-0b65-4d1d-a1d6-175ba90b64b3","system_id":"levelo_inurba_marseille","lat":43.28112,"lon":5.40632,"is_reserved":false,"is_disabled":true,"rental_uris":{"android":"levelo://app?vid=7cd60be8-0b65-4d1d-a1d6-175ba90b64b3","ios":"levelo://app?vid=7cd60be8-0b65-4d1d-a1d6-175ba90b64b3"},"vehicle_type_id":"4","last_reported":1773699744,"current_range_meters":6400,"station_id":"","pricing_plan_id":"cebpf4jnsgd1na2vs0mg"},{"bike_id":"a5550b5f-44b8-4aae-b426-0055e4f9b868","system_id":"levelo_inurba_marseille","lat":43.25343,"lon":5.42181,"is_reserved":false,"is_disabled":false,"rental_uris":{"android":"levelo://app?vid=a5550b5f-44b8-4aae-b426-0055e4f9b868","ios":"levelo://app?vid=a5550b5f-44b8-4aae-b426-0055e4f9b868"},"vehicle_type_id":"4","last_reported":1773699744,"current_range_meters":6400,"station_id":"st_d2m65c5bi1j21697t3ng","pricing_plan_id":"cebpf4jnsgd1na2vs0mg"},{"bike_id":"a0d867cb-b97b-4168-932e-ec7fd3fbd32b","system_id":"levelo_inurba_marseille","lat":43.22553,"lon":5.4163,"is_reserved":false,"is_disabled":false,"rental_uris":{"android":"levelo://app?vid=a0d867cb-b97b-4168-932e-ec7fd3fbd32b","ios":"levelo://app?vid=a0d867cb-b97b-4168-932e-ec7fd3fbd32b"},"vehicle_type_id":"4","last_reported":1773699744,"current_range_meters":6400,"station_id":"st_d2o4gvlbi1j2169b742g","pricing_plan_id":"cebpf4jnsgd1na2vs0mg"},{"bike_id":"4bf98024-7bc8-4d54-bd00-6b0873dc2014","system_id":"levelo_inurba_marseille","lat":43.25332,"lon":5.42173,"is_reserved":false,"is_disabled":false,"rental_uris":{"android":"levelo://app?vid=4bf98024-7bc8-4d54-bd00-6b0873dc2014","ios":"levelo://app?vid=4bf98024-7bc8-4d54-bd00-6b0873dc2014"},"vehicle_type_id":"4","last_reported":1773699744,"current_range_meters":6400,"station_id":"st_d2m65c5bi1j21697t3ng","pricing_plan_id":"cebpf4jnsgd1na2vs0mg"},{"bike_id":"88468e56-7c4c-4a90-8442-41ce4e8f9f2a","system_id":"levelo_inurba_marseille","lat":43.28394,"lon":5.37557,"is_reserved":false,"is_disabled":false,"rental_uris":{"android":"levelo://app?vid=88468e56-7c4c-4a90-8442-41ce4e8f9f2a","ios":"levelo://app?vid=88468e56-7c4c-4a90-8442-41ce4e8f9f2a"},"vehicle_type_id":"4","last_reported":1773699744,"current_range_meters":6400,"station_id":"ce4bh412rcd13ifvqds0","pricing_plan_id":"cebpf4jnsgd1na2vs0mg"},{"bike_id":"3cc705dd-f58b-4194-8692-3ae4cdcde2be","system_id":"levelo_inurba_marseille","lat":43.28369,"lon":5.37305,"is_reserved":false,"is_disabled":false,"rental_uris":{"android":"levelo://app?vid=3cc705dd-f58b-4194-8692-3ae4cdcde2be","ios":"levelo://app?vid=3cc705dd-f58b-4194-8692-3ae4cdcde2be"},"vehicle_type_id":"4","last_reported":1773699744,"current_range_meters":6400,"station_id":"ce4bh412rcd13ifvqds0","pricing_plan_id":"cebpf4jnsgd1na2vs0mg"},{"bike_id":"13f661f4-94b3-4670-a9ca-95a2e28b52d8","system_id":"levelo_inurba_marseille","lat":43.22564,"lon":5.41621,"is_reserved":false,"is_disabled":false,"rental_uris":{"android":"levelo://app?vid=13f661f4-94b3-4670-a9ca-95a2e28b52d8","ios":"levelo://app?vid=13f661f4-94b3-4670-a9ca-95a2e28b52d8"},"vehicle_type_id":"4","last_reported":1773699744,"current_range_meters":6400,"station_id":"st_d2o4gvlbi1j2169b742g","pricing_plan_id":"cebpf4jnsgd1na2vs0mg"},{"bike_id":"ea397162-17cc-4898-8ca5-d0b3d5ea33fe","system_id":"levelo_inurba_marseille","lat":43.24649,"lon":5.43161,"is_reserved":false,"is_disabled":false,"rental_uris":{"android":"levelo://app?vid=ea397162-17cc-4898-8ca5-d0b3d5ea33fe","ios":"levelo://app?vid=ea397162-17cc-4898-8ca5-d0b3d5ea33fe"},"vehicle_type_id":"4","last_reported":1773699744,"current_range_meters":6400,"station_id":"","pricing_plan_id":"cebpf4jnsgd1na2vs0mg"},{"bike_id":"45bd2f1a-185a-47a7-8662-22a7c4d38515","system_id":"levelo_inurba_marseille","lat":43.21761,"lon":5.34626,"is_reserved":false,"is_disabled":false,"rental_uris":{"android":"levelo://app?vid=45bd2f1a-185a-47a7-8662-22a7c4d38515","ios":"levelo://app?vid=45bd2f1a-185a-47a7-8662-22a7c4d38515"},"vehicle_type_id":"4","last_reported":1773699744,"current_range_meters":6400,"station_id":"st_cvj6r9ubvosntc0bgbag","pricing_plan_id":"cebpf4jnsgd1na2vs0mg"},{"bike_id":"4c3db936-e69a-41de-afbf-75ba732077fd","system_id":"levelo_inurba_marseille","lat":43.21197,"lon":5.35056,"is_reserved":false,"is_disabled":false,"rental_uris":{"android":"levelo://app?vid=4c3db936-e69a-41de-afbf-75ba732077fd","ios":"levelo://app?vid=4c3db936-e69a-41de-afbf-75ba732077fd"},"vehicle_type_id":"4","last_reported":1773699744,"current_range_meters":6400,"station_id":"st_cvj6sg6p6f1abm77japg","pricing_plan_id":"cebpf4jnsgd1na2vs0mg"},{"bike_id":"8fbe5000-140a-4b68-81fa-345f621db6a4","system_id":"levelo_inurba_marseille","lat":43.28458,"lon":5.35889,"is_reserved":false,"is_disabled":false,"rental_uris":{"android":"levelo://app?vid=8fbe5000-140a-4b68-81fa-345f621db6a4","ios":"levelo://app?vid=8fbe5000-140a-4b68-81fa-345f621db6a4"},"vehicle_type_id":"4","last_reported":1773699744,"current_range_meters":6400,"station_id":"ce4bhah2rcd13ifvqei0","pricing_plan_id":"cebpf4jnsgd1na2vs0mg"},{"bike_id":"614d7870-f82e-40fe-959d-ace58e74ba21","system_id":"levelo_inurba_marseille","lat":43.28615,"lon":5.3987,"is_reserved":false,"is_disabled":false,"rental_uris":{"android":"levelo://app?vid=614d7870-f82e-40fe-959d-ace58e74ba21","ios":"levelo://app?vid=614d7870-f82e-40fe-959d-ace58e74ba21"},"vehicle_type_id":"4","last_reported":1773699744,"current_range_meters":6400,"station_id":"st_d4a7ka997mjs738ck50g","pricing_plan_id":"cebpf4jnsgd1na2vs0mg"},{"bike_id":"b01da5e2-0aa3-4714-952c-3d17357ac82a","system_id":"levelo_inurba_marseille","lat":43.31179,"lon":5.38708,"is_reserved":false,"is_disabled":false,"rental_uris":{"android":"levelo://app?vid=b01da5e2-0aa3-4714-952c-3d17357ac82a","ios":"levelo://app?vid=b01da5e2-0aa3-4714-952c-3d17357ac82a"},"vehicle_type_id":"4","last_reported":1773699744,"current_range_meters":6400,"station_id":"ce4bgv12rcd13ifvqcp0","pricing_plan_id":"cebpf4jnsgd1na2vs0mg"},{"bike_id":"fa2dbaee-68d1-4500-b1bb-59e2d6b100a2","system_id":"levelo_inurba_marseille","lat":43.28425,"lon":5.37521,"is_reserved":false,"is_disabled":false,"rental_uris":{"android":"levelo://app?vid=fa2dbaee-68d1-4500-b1bb-59e2d6b100a2","ios":"levelo://app?vid=fa2dbaee-68d1-4500-b1bb-59e2d6b100a2"},"vehicle_type_id":"4","last_reported":1773699744,"current_range_meters":6400,"station_id":"ce4bh412rcd13ifvqds0","pricing_plan_id":"cebpf4jnsgd1na2vs0mg"},{"bike_id":"4e025545-ed8d-4eae-8dea-76bd0aad9403","system_id":"levelo_inurba_marseille","lat":43.31438,"lon":5.37319,"is_reserved":false,"is_disabled":false,"rental_uris":{"android":"levelo://app?vid=4e025545-ed8d-4eae-8dea-76bd0aad9403","ios":"levelo://app?vid=4e025545-ed8d-4eae-8dea-76bd0aad9403"},"vehicle_type_id":"4","last_reported":1773699744,"current_range_meters":6800,"station_id":"ce4bgt12rcd13ifvqcd0","pricing_plan_id":"cebpf4jnsgd1na2vs0mg"},{"bike_id":"6f78a449-c530-47d8-8312-6b0f4acae89b","system_id":"levelo_inurba_marseille","lat":43.288496,"lon":5.393059,"is_reserved":false,"is_disabled":false,"rental_uris":{"android":"levelo://app?vid=6f78a449-c530-47d8-8312-6b0f4acae89b","ios":"levelo://app?vid=6f78a449-c530-47d8-8312-6b0f4acae89b"},"vehicle_type_id":"4","last_reported":1773699744,"current_range_meters":6800,"station_id":"ce4bh2p2rcd13ifvqdi0","pricing_plan_id":"cebpf4jnsgd1na2vs0mg"},{"bike_id":"77145b46-58f5-47ad-acc4-b91b6f461c88","system_id":"levelo_inurba_marseille","lat":43.28399,"lon":5.37533,"is_reserved":false,"is_disabled":false,"rental_uris":{"android":"levelo://app?vid=77145b46-58f5-47ad-acc4-b91b6f461c88","ios":"levelo://app?vid=77145b46-58f5-47ad-acc4-b91b6f461c88"},"vehicle_type_id":"4","last_reported":1773699744,"current_range_meters":6800,"station_id":"ce4bh412rcd13ifvqds0","pricing_plan_id":"cebpf4jnsgd1na2vs0mg"},{"bike_id":"a46383b6-187e-4da7-b4cb-3b01d866b479","system_id":"levelo_inurba_marseille","lat":43.3115,"lon":5.38693,"is_reserved":false,"is_disabled":false,"rental_uris":{"android":"levelo://app?vid=a46383b6-187e-4da7-b4cb-3b01d866b479","ios":"levelo://app?vid=a46383b6-187e-4da7-b4cb-3b01d866b479"},"vehicle_type_id":"4","last_reported":1773699744,"current_range_meters":6800,"station_id":"ce4bgv12rcd13ifvqcp0","pricing_plan_id":"cebpf4jnsgd1na2vs0mg"},{"bike_id":"e01c7d9e-0e3b-41a1-9ded-3a0b6ca728a8","system_id":"levelo_inurba_marseille","lat":43.24164,"lon":5.3639,"is_reserved":false,"is_disabled":false,"rental_uris":{"android":"levelo://app?vid=e01c7d9e-0e3b-41a1-9ded-3a0b6ca728a8","ios":"levelo://app?vid=e01c7d9e-0e3b-41a1-9ded-3a0b6ca728a8"},"vehicle_type_id":"4","last_reported":1773699744,"current_range_meters":6800,"station_id":"cpo36qri1sfpv3e86is0","pricing_plan_id":"cebpf4jnsgd1na2vs0mg"},{"bike_id":"3854dfa7-ba2f-4c25-aed9-1ff5408517ca","system_id":"levelo_inurba_marseille","lat":43.29511,"lon":5.38202,"is_reserved":false,"is_disabled":false,"rental_uris":{"android":"levelo://app?vid=3854dfa7-ba2f-4c25-aed9-1ff5408517ca","ios":"levelo://app?vid=3854dfa7-ba2f-4c25-aed9-1ff5408517ca"},"vehicle_type_id":"4","last_reported":1773699744,"current_range_meters":6800,"station_id":"","pricing_plan_id":"cebpf4jnsgd1na2vs0mg"},{"bike_id":"efff081d-3492-461b-8be7-f11196a57462","system_id":"levelo_inurba_marseille","lat":43.23192,"lon":5.39987,"is_reserved":false,"is_disabled":false,"rental_uris":{"android":"levelo://app?vid=efff081d-3492-461b-8be7-f11196a57462","ios":"levelo://app?vid=efff081d-3492-461b-8be7-f11196a57462"},"vehicle_type_id":"4","last_reported":1773699744,"current_range_meters":6800,"station_id":"ce4bhn12rcd13ifvqgqg","pricing_plan_id":"cebpf4jnsgd1na2vs0mg"},{"bike_id":"37a3d953-abf9-4169-96d4-21b63e36958a","system_id":"levelo_inurba_marseille","lat":43.29192,"lon":5.35811,"is_reserved":false,"is_disabled":true,"rental_uris":{"android":"levelo://app?vid=37a3d953-abf9-4169-96d4-21b63e36958a","ios":"levelo://app?vid=37a3d953-abf9-4169-96d4-21b63e36958a"},"vehicle_type_id":"4","last_reported":1773699744,"current_range_meters":6800,"station_id":"ce4bhb12rcd13ifvqel0","pricing_plan_id":"cebpf4jnsgd1na2vs0mg"},{"bike_id":"3aa6d3b0-d8e8-4a37-a131-591ec6e0fe54","system_id":"levelo_inurba_marseille","lat":43.3135,"lon":5.38497,"is_reserved":false,"is_disabled":true,"rental_uris":{"android":"levelo://app?vid=3aa6d3b0-d8e8-4a37-a131-591ec6e0fe54","ios":"levelo://app?vid=3aa6d3b0-d8e8-4a37-a131-591ec6e0fe54"},"vehicle_type_id":"4","last_reported":1773699744,"current_range_meters":6800,"station_id":"ce4bgt92rcd13ifvqcf0","pricing_plan_id":"cebpf4jnsgd1na2vs0mg"},{"bike_id":"4ae70e12-865a-4387-a80b-d88f17a7c39b","system_id":"levelo_inurba_marseille","lat":43.21752,"lon":5.34603,"is_reserved":false,"is_disabled":false,"rental_uris":{"android":"levelo://app?vid=4ae70e12-865a-4387-a80b-d88f17a7c39b","ios":"levelo://app?vid=4ae70e12-865a-4387-a80b-d88f17a7c39b"},"vehicle_type_id":"4","last_reported":1773699744,"current_range_meters":6800,"station_id":"st_cvj6r9ubvosntc0bgbag","pricing_plan_id":"cebpf4jnsgd1na2vs0mg"},{"bike_id":"34c5f1e9-cd08-4e9f-a4be-aec6d0a9e4d7","system_id":"levelo_inurba_marseille","lat":43.29274,"lon":5.40882,"is_reserved":false,"is_disabled":false,"rental_uris":{"android":"levelo://app?vid=34c5f1e9-cd08-4e9f-a4be-aec6d0a9e4d7","ios":"levelo://app?vid=34c5f1e9-cd08-4e9f-a4be-aec6d0a9e4d7"},"vehicle_type_id":"4","last_reported":1773699744,"current_range_meters":6800,"station_id":"ce4bh192rcd13ifvqdc0","pricing_plan_id":"cebpf4jnsgd1na2vs0mg"},{"bike_id":"5952a02b-6e6d-4187-94dc-c8a4d586793c","system_id":"levelo_inurba_marseille","lat":43.30178,"lon":5.36598,"is_reserved":false,"is_disabled":false,"rental_uris":{"android":"levelo://app?vid=5952a02b-6e6d-4187-94dc-c8a4d586793c","ios":"levelo://app?vid=5952a02b-6e6d-4187-94dc-c8a4d586793c"},"vehicle_type_id":"4","last_reported":1773699744,"current_range_meters":7200,"station_id":"ce4bgrh2rcd13ifvqc8g","pricing_plan_id":"cebpf4jnsgd1na2vs0mg"},{"bike_id":"fb709e4b-58a2-4349-bc60-6e2833f96ea9","system_id":"levelo_inurba_marseille","lat":43.28472,"lon":5.48413,"is_reserved":false,"is_disabled":false,"rental_uris":{"android":"levelo://app?vid=fb709e4b-58a2-4349-bc60-6e2833f96ea9","ios":"levelo://app?vid=fb709e4b-58a2-4349-bc60-6e2833f96ea9"},"vehicle_type_id":"4","last_reported":1773699744,"current_range_meters":7200,"station_id":"","pricing_plan_id":"cebpf4jnsgd1na2vs0mg"},{"bike_id":"1a84020a-456e-442d-a4af-de588b00d377","system_id":"levelo_inurba_marseille","lat":43.29823,"lon":5.4406,"is_reserved":false,"is_disabled":false,"rental_uris":{"android":"levelo://app?vid=1a84020a-456e-442d-a4af-de588b00d377","ios":"levelo://app?vid=1a84020a-456e-442d-a4af-de588b00d377"},"vehicle_type_id":"4","last_reported":1773699744,"current_range_meters":7200,"station_id":"st_d3jp68qikq2c7381ktn0","pricing_plan_id":"cebpf4jnsgd1na2vs0mg"},{"bike_id":"e06ea876-b508-4a04-ae9c-665467443e08","system_id":"levelo_inurba_marseille","lat":43.28934,"lon":5.39618,"is_reserved":false,"is_disabled":false,"rental_uris":{"android":"levelo://app?vid=e06ea876-b508-4a04-ae9c-665467443e08","ios":"levelo://app?vid=e06ea876-b508-4a04-ae9c-665467443e08"},"vehicle_type_id":"4","last_reported":1773699744,"current_range_meters":7200,"station_id":"ce4bh3h2rcd13ifvqdn0","pricing_plan_id":"cebpf4jnsgd1na2vs0mg"},{"bike_id":"2942f135-530e-48d1-97e5-d52701f4ed07","system_id":"levelo_inurba_marseille","lat":43.2654,"lon":5.3729,"is_reserved":false,"is_disabled":false,"rental_uris":{"android":"levelo://app?vid=2942f135-530e-48d1-97e5-d52701f4ed07","ios":"levelo://app?vid=2942f135-530e-48d1-97e5-d52701f4ed07"},"vehicle_type_id":"4","last_reported":1773699744,"current_range_meters":7200,"station_id":"ce4bhg12rcd13ifvqf70","pricing_plan_id":"cebpf4jnsgd1na2vs0mg"},{"bike_id":"24c82992-500c-48ce-97ad-943eb35ef392","system_id":"levelo_inurba_marseille","lat":43.22527,"lon":5.34832,"is_reserved":false,"is_disabled":false,"rental_uris":{"android":"levelo://app?vid=24c82992-500c-48ce-97ad-943eb35ef392","ios":"levelo://app?vid=24c82992-500c-48ce-97ad-943eb35ef392"},"vehicle_type_id":"4","last_reported":1773699744,"current_range_meters":7200,"station_id":"st_cvj5dfep6f1abm77gieg","pricing_plan_id":"cebpf4jnsgd1na2vs0mg"},{"bike_id":"44b206bf-edaa-4160-aad8-7e88d25fcb88","system_id":"levelo_inurba_marseille","lat":43.31273,"lon":5.40165,"is_reserved":false,"is_disabled":false,"rental_uris":{"android":"levelo://app?vid=44b206bf-edaa-4160-aad8-7e88d25fcb88","ios":"levelo://app?vid=44b206bf-edaa-4160-aad8-7e88d25fcb88"},"vehicle_type_id":"4","last_reported":1773699744,"current_range_meters":7200,"station_id":"ce4bh092rcd13ifvqd30","pricing_plan_id":"cebpf4jnsgd1na2vs0mg"},{"bike_id":"26b2c97f-bcfd-45d1-b2a5-515f9e341531","system_id":"levelo_inurba_marseille","lat":43.29772,"lon":5.38554,"is_reserved":false,"is_disabled":false,"rental_uris":{"android":"levelo://app?vid=26b2c97f-bcfd-45d1-b2a5-515f9e341531","ios":"levelo://app?vid=26b2c97f-bcfd-45d1-b2a5-515f9e341531"},"vehicle_type_id":"4","last_reported":1773699744,"current_range_meters":7200,"station_id":"","pricing_plan_id":"cebpf4jnsgd1na2vs0mg"},{"bike_id":"135fe89f-7236-4e77-9c2d-8c30862b6569","system_id":"levelo_inurba_marseille","lat":43.25591,"lon":5.38229,"is_reserved":false,"is_disabled":false,"rental_uris":{"android":"levelo://app?vid=135fe89f-7236-4e77-9c2d-8c30862b6569","ios":"levelo://app?vid=135fe89f-7236-4e77-9c2d-8c30862b6569"},"vehicle_type_id":"4","last_reported":1773699744,"current_range_meters":7200,"station_id":"ce4bhih2rcd13ifvqfs0","pricing_plan_id":"cebpf4jnsgd1na2vs0mg"},{"bike_id":"12c70c69-a0b8-43b5-9e2f-12e8ea312b37","system_id":"levelo_inurba_marseille","lat":43.3021,"lon":5.39445,"is_reserved":false,"is_disabled":true,"rental_uris":{"android":"levelo://app?vid=12c70c69-a0b8-43b5-9e2f-12e8ea312b37","ios":"levelo://app?vid=12c70c69-a0b8-43b5-9e2f-12e8ea312b37"},"vehicle_type_id":"4","last_reported":1773699744,"current_range_meters":7200,"station_id":"ce4bh0p2rcd13ifvqd70","pricing_plan_id":"cebpf4jnsgd1na2vs0mg"},{"bike_id":"499b9c0b-178a-4b39-8e04-bfe8d7fbae53","system_id":"levelo_inurba_marseille","lat":43.31885,"lon":5.4074,"is_reserved":false,"is_disabled":false,"rental_uris":{"android":"levelo://app?vid=499b9c0b-178a-4b39-8e04-bfe8d7fbae53","ios":"levelo://app?vid=499b9c0b-178a-4b39-8e04-bfe8d7fbae53"},"vehicle_type_id":"4","last_reported":1773699744,"current_range_meters":7200,"station_id":"ce4bhq12rcd13ifvqhig","pricing_plan_id":"cebpf4jnsgd1na2vs0mg"},{"bike_id":"2300042d-2830-407c-b65b-9c2dcb237bfd","system_id":"levelo_inurba_marseille","lat":43.2926,"lon":5.38439,"is_reserved":false,"is_disabled":false,"rental_uris":{"android":"levelo://app?vid=2300042d-2830-407c-b65b-9c2dcb237bfd","ios":"levelo://app?vid=2300042d-2830-407c-b65b-9c2dcb237bfd"},"vehicle_type_id":"4","last_reported":1773699744,"current_range_meters":7200,"station_id":"ce4bh692rcd13ifvqea0","pricing_plan_id":"cebpf4jnsgd1na2vs0mg"},{"bike_id":"f68ebebf-db93-47ca-9d50-d5d38dbe85ed","system_id":"levelo_inurba_marseille","lat":43.33126,"lon":5.37702,"is_reserved":false,"is_disabled":false,"rental_uris":{"android":"levelo://app?vid=f68ebebf-db93-47ca-9d50-d5d38dbe85ed","ios":"levelo://app?vid=f68ebebf-db93-47ca-9d50-d5d38dbe85ed"},"vehicle_type_id":"4","last_reported":1773699744,"current_range_meters":7200,"station_id":"st_d46cu089ee8s73dldbu0","pricing_plan_id":"cebpf4jnsgd1na2vs0mg"},{"bike_id":"94f57199-aa29-467b-99b1-bc511201aba3","system_id":"levelo_inurba_marseille","lat":43.28485,"lon":5.48399,"is_reserved":false,"is_disabled":false,"rental_uris":{"android":"levelo://app?vid=94f57199-aa29-467b-99b1-bc511201aba3","ios":"levelo://app?vid=94f57199-aa29-467b-99b1-bc511201aba3"},"vehicle_type_id":"4","last_reported":1773699744,"current_range_meters":7200,"station_id":"st_d3svhcjqgbts73a3dn0g","pricing_plan_id":"cebpf4jnsgd1na2vs0mg"},{"bike_id":"4fe96584-a2a1-4906-9fa5-07cec2d82775","system_id":"levelo_inurba_marseille","lat":43.30249,"lon":5.40095,"is_reserved":false,"is_disabled":false,"rental_uris":{"android":"levelo://app?vid=4fe96584-a2a1-4906-9fa5-07cec2d82775","ios":"levelo://app?vid=4fe96584-a2a1-4906-9fa5-07cec2d82775"},"vehicle_type_id":"4","last_reported":1773699744,"current_range_meters":7200,"station_id":"ce4bgvh2rcd13ifvqcs0","pricing_plan_id":"cebpf4jnsgd1na2vs0mg"},{"bike_id":"2a029d8b-1bc5-4736-b010-c12618934f0f","system_id":"levelo_inurba_marseille","lat":43.29273,"lon":5.36837,"is_reserved":false,"is_disabled":true,"rental_uris":{"android":"levelo://app?vid=2a029d8b-1bc5-4736-b010-c12618934f0f","ios":"levelo://app?vid=2a029d8b-1bc5-4736-b010-c12618934f0f"},"vehicle_type_id":"4","last_reported":1773699744,"current_range_meters":7200,"station_id":"ce4bhbp2rcd13ifvqesg","pricing_plan_id":"cebpf4jnsgd1na2vs0mg"},{"bike_id":"06b81f7a-659e-4170-a7d6-e806772f374c","system_id":"levelo_inurba_marseille","lat":43.315282,"lon":5.380383,"is_reserved":false,"is_disabled":false,"rental_uris":{"android":"levelo://app?vid=06b81f7a-659e-4170-a7d6-e806772f374c","ios":"levelo://app?vid=06b81f7a-659e-4170-a7d6-e806772f374c"},"vehicle_type_id":"4","last_reported":1773699744,"current_range_meters":7200,"station_id":"ce4bhsp2rcd13ifvqi50","pricing_plan_id":"cebpf4jnsgd1na2vs0mg"},{"bike_id":"8afdd292-ab63-46e7-b1b1-1e2caafb1ef7","system_id":"levelo_inurba_marseille","lat":43.25567,"lon":5.38247,"is_reserved":false,"is_disabled":false,"rental_uris":{"android":"levelo://app?vid=8afdd292-ab63-46e7-b1b1-1e2caafb1ef7","ios":"levelo://app?vid=8afdd292-ab63-46e7-b1b1-1e2caafb1ef7"},"vehicle_type_id":"4","last_reported":1773699744,"current_range_meters":7200,"station_id":"ce4bhih2rcd13ifvqfs0","pricing_plan_id":"cebpf4jnsgd1na2vs0mg"},{"bike_id":"21d24554-e38d-4b69-8d3b-f36f85db085b","system_id":"levelo_inurba_marseille","lat":43.24837,"lon":5.38537,"is_reserved":false,"is_disabled":false,"rental_uris":{"android":"levelo://app?vid=21d24554-e38d-4b69-8d3b-f36f85db085b","ios":"levelo://app?vid=21d24554-e38d-4b69-8d3b-f36f85db085b"},"vehicle_type_id":"4","last_reported":1773699744,"current_range_meters":7200,"station_id":"","pricing_plan_id":"cebpf4jnsgd1na2vs0mg"},{"bike_id":"255588d0-0ed7-4c29-ace3-d6e4c9541ee4","system_id":"levelo_inurba_marseille","lat":43.285327,"lon":5.384057,"is_reserved":false,"is_disabled":false,"rental_uris":{"android":"levelo://app?vid=255588d0-0ed7-4c29-ace3-d6e4c9541ee4","ios":"levelo://app?vid=255588d0-0ed7-4c29-ace3-d6e4c9541ee4"},"vehicle_type_id":"4","last_reported":1773699744,"current_range_meters":7200,"station_id":"ce4bh512rcd13ifvqe3g","pricing_plan_id":"cebpf4jnsgd1na2vs0mg"},{"bike_id":"edbf7259-fee1-4917-8333-f321aca11081","system_id":"levelo_inurba_marseille","lat":43.30339,"lon":5.40452,"is_reserved":false,"is_disabled":false,"rental_uris":{"android":"levelo://app?vid=edbf7259-fee1-4917-8333-f321aca11081","ios":"levelo://app?vid=edbf7259-fee1-4917-8333-f321aca11081"},"vehicle_type_id":"4","last_reported":1773699744,"current_range_meters":7200,"station_id":"ce4bh012rcd13ifvqd10","pricing_plan_id":"cebpf4jnsgd1na2vs0mg"},{"bike_id":"0be5f90c-ab10-431f-9711-c33afc648be5","system_id":"levelo_inurba_marseille","lat":43.29032,"lon":5.39962,"is_reserved":false,"is_disabled":false,"rental_uris":{"android":"levelo://app?vid=0be5f90c-ab10-431f-9711-c33afc648be5","ios":"levelo://app?vid=0be5f90c-ab10-431f-9711-c33afc648be5"},"vehicle_type_id":"4","last_reported":1773699744,"current_range_meters":7200,"station_id":"ce4bh392rcd13ifvqdm0","pricing_plan_id":"cebpf4jnsgd1na2vs0mg"},{"bike_id":"70f5dc2f-023d-4884-a29b-a1fd8ac95735","system_id":"levelo_inurba_marseille","lat":43.22587,"lon":5.41626,"is_reserved":false,"is_disabled":false,"rental_uris":{"android":"levelo://app?vid=70f5dc2f-023d-4884-a29b-a1fd8ac95735","ios":"levelo://app?vid=70f5dc2f-023d-4884-a29b-a1fd8ac95735"},"vehicle_type_id":"4","last_reported":1773699744,"current_range_meters":8000,"station_id":"st_d2o4gvlbi1j2169b742g","pricing_plan_id":"cebpf4jnsgd1na2vs0mg"},{"bike_id":"706d9f6d-66d3-4569-9c3d-ced163161277","system_id":"levelo_inurba_marseille","lat":43.30313,"lon":5.36894,"is_reserved":false,"is_disabled":true,"rental_uris":{"android":"levelo://app?vid=706d9f6d-66d3-4569-9c3d-ced163161277","ios":"levelo://app?vid=706d9f6d-66d3-4569-9c3d-ced163161277"},"vehicle_type_id":"4","last_reported":1773699744,"current_range_meters":8000,"station_id":"ce4bgqh2rcd13ifvqc5g","pricing_plan_id":"cebpf4jnsgd1na2vs0mg"},{"bike_id":"fb65d9a5-e6ae-439b-8668-a277dbf2dfb8","system_id":"levelo_inurba_marseille","lat":43.25002,"lon":5.38943,"is_reserved":false,"is_disabled":false,"rental_uris":{"android":"levelo://app?vid=fb65d9a5-e6ae-439b-8668-a277dbf2dfb8","ios":"levelo://app?vid=fb65d9a5-e6ae-439b-8668-a277dbf2dfb8"},"vehicle_type_id":"4","last_reported":1773699744,"current_range_meters":8000,"station_id":"ce4bhgp2rcd13ifvqfd0","pricing_plan_id":"cebpf4jnsgd1na2vs0mg"},{"bike_id":"4eb4878c-5fb7-451b-9650-ccb7a5374052","system_id":"levelo_inurba_marseille","lat":43.26515,"lon":5.39522,"is_reserved":false,"is_disabled":false,"rental_uris":{"android":"levelo://app?vid=4eb4878c-5fb7-451b-9650-ccb7a5374052","ios":"levelo://app?vid=4eb4878c-5fb7-451b-9650-ccb7a5374052"},"vehicle_type_id":"4","last_reported":1773699744,"current_range_meters":8000,"station_id":"ce4bhi12rcd13ifvqfq0","pricing_plan_id":"cebpf4jnsgd1na2vs0mg"},{"bike_id":"cbc1a0e1-9f88-4095-9d77-d755dca9c42c","system_id":"levelo_inurba_marseille","lat":43.29632,"lon":5.38456,"is_reserved":false,"is_disabled":false,"rental_uris":{"android":"levelo://app?vid=cbc1a0e1-9f88-4095-9d77-d755dca9c42c","ios":"levelo://app?vid=cbc1a0e1-9f88-4095-9d77-d755dca9c42c"},"vehicle_type_id":"4","last_reported":1773699744,"current_range_meters":8000,"station_id":"","pricing_plan_id":"cebpf4jnsgd1na2vs0mg"},{"bike_id":"e3cbef5e-856d-4878-a9dd-a74b00a2bbd4","system_id":"levelo_inurba_marseille","lat":43.23058,"lon":5.3549,"is_reserved":false,"is_disabled":false,"rental_uris":{"android":"levelo://app?vid=e3cbef5e-856d-4878-a9dd-a74b00a2bbd4","ios":"levelo://app?vid=e3cbef5e-856d-4878-a9dd-a74b00a2bbd4"},"vehicle_type_id":"4","last_reported":1773699744,"current_range_meters":8000,"station_id":"cpo3342slgdg3j2ifvpg","pricing_plan_id":"cebpf4jnsgd1na2vs0mg"},{"bike_id":"af5e586f-4011-4ddb-ad2a-4f6dcb0ef2d5","system_id":"levelo_inurba_marseille","lat":43.23788,"lon":5.36629,"is_reserved":false,"is_disabled":false,"rental_uris":{"android":"levelo://app?vid=af5e586f-4011-4ddb-ad2a-4f6dcb0ef2d5","ios":"levelo://app?vid=af5e586f-4011-4ddb-ad2a-4f6dcb0ef2d5"},"vehicle_type_id":"4","last_reported":1773699744,"current_range_meters":8000,"station_id":"st_d3nk18o9ro0c73en2l3g","pricing_plan_id":"cebpf4jnsgd1na2vs0mg"},{"bike_id":"6833ac7f-55e7-46a7-8771-ab1768b33aa6","system_id":"levelo_inurba_marseille","lat":43.31182,"lon":5.38734,"is_reserved":false,"is_disabled":false,"rental_uris":{"android":"levelo://app?vid=6833ac7f-55e7-46a7-8771-ab1768b33aa6","ios":"levelo://app?vid=6833ac7f-55e7-46a7-8771-ab1768b33aa6"},"vehicle_type_id":"4","last_reported":1773699744,"current_range_meters":8000,"station_id":"ce4bgv12rcd13ifvqcp0","pricing_plan_id":"cebpf4jnsgd1na2vs0mg"},{"bike_id":"2b305a9b-7982-4e8d-8f1d-8e975931dd94","system_id":"levelo_inurba_marseille","lat":43.29143,"lon":5.39289,"is_reserved":false,"is_disabled":false,"rental_uris":{"android":"levelo://app?vid=2b305a9b-7982-4e8d-8f1d-8e975931dd94","ios":"levelo://app?vid=2b305a9b-7982-4e8d-8f1d-8e975931dd94"},"vehicle_type_id":"4","last_reported":1773699744,"current_range_meters":8000,"station_id":"","pricing_plan_id":"cebpf4jnsgd1na2vs0mg"},{"bike_id":"39b21da8-0830-470e-a1d2-8d03480419f8","system_id":"levelo_inurba_marseille","lat":43.30747,"lon":5.44016,"is_reserved":false,"is_disabled":false,"rental_uris":{"android":"levelo://app?vid=39b21da8-0830-470e-a1d2-8d03480419f8","ios":"levelo://app?vid=39b21da8-0830-470e-a1d2-8d03480419f8"},"vehicle_type_id":"4","last_reported":1773699744,"current_range_meters":8000,"station_id":"","pricing_plan_id":"cebpf4jnsgd1na2vs0mg"},{"bike_id":"f8013b02-5a73-4630-a9b1-0ee400b153fa","system_id":"levelo_inurba_marseille","lat":43.2816,"lon":5.42636,"is_reserved":false,"is_disabled":false,"rental_uris":{"android":"levelo://app?vid=f8013b02-5a73-4630-a9b1-0ee400b153fa","ios":"levelo://app?vid=f8013b02-5a73-4630-a9b1-0ee400b153fa"},"vehicle_type_id":"4","last_reported":1773699744,"current_range_meters":8000,"station_id":"ce4bhnh2rcd13ifvqgug","pricing_plan_id":"cebpf4jnsgd1na2vs0mg"},{"bike_id":"0b8f510d-5717-474e-909f-3bb5879a2906","system_id":"levelo_inurba_marseille","lat":43.31487,"lon":5.3731,"is_reserved":false,"is_disabled":false,"rental_uris":{"android":"levelo://app?vid=0b8f510d-5717-474e-909f-3bb5879a2906","ios":"levelo://app?vid=0b8f510d-5717-474e-909f-3bb5879a2906"},"vehicle_type_id":"4","last_reported":1773699744,"current_range_meters":8000,"station_id":"ce4bgt12rcd13ifvqcd0","pricing_plan_id":"cebpf4jnsgd1na2vs0mg"},{"bike_id":"8271fb01-8cae-4787-a778-02a637a71a1d","system_id":"levelo_inurba_marseille","lat":43.32471,"lon":5.36584,"is_reserved":false,"is_disabled":false,"rental_uris":{"android":"levelo://app?vid=8271fb01-8cae-4787-a778-02a637a71a1d","ios":"levelo://app?vid=8271fb01-8cae-4787-a778-02a637a71a1d"},"vehicle_type_id":"4","last_reported":1773699744,"current_range_meters":8000,"station_id":"ce4bhs12rcd13ifvqhvg","pricing_plan_id":"cebpf4jnsgd1na2vs0mg"},{"bike_id":"ce468619-5338-42f6-9c02-b883f67a2730","system_id":"levelo_inurba_marseille","lat":43.25727,"lon":5.41111,"is_reserved":false,"is_disabled":false,"rental_uris":{"android":"levelo://app?vid=ce468619-5338-42f6-9c02-b883f67a2730","ios":"levelo://app?vid=ce468619-5338-42f6-9c02-b883f67a2730"},"vehicle_type_id":"4","last_reported":1773699744,"current_range_meters":8000,"station_id":"ce4bhkp2rcd13ifvqgd0","pricing_plan_id":"cebpf4jnsgd1na2vs0mg"},{"bike_id":"6ca37cf6-a453-4ff5-bc74-475de89fa5c1","system_id":"levelo_inurba_marseille","lat":43.30585,"lon":5.39339,"is_reserved":false,"is_disabled":false,"rental_uris":{"android":"levelo://app?vid=6ca37cf6-a453-4ff5-bc74-475de89fa5c1","ios":"levelo://app?vid=6ca37cf6-a453-4ff5-bc74-475de89fa5c1"},"vehicle_type_id":"4","last_reported":1773699744,"current_range_meters":8000,"station_id":"ce4bh0p2rcd13ifvqd80","pricing_plan_id":"cebpf4jnsgd1na2vs0mg"},{"bike_id":"d8721eca-bc32-4d2a-9674-7c121d528c27","system_id":"levelo_inurba_marseille","lat":43.29976,"lon":5.37183,"is_reserved":false,"is_disabled":false,"rental_uris":{"android":"levelo://app?vid=d8721eca-bc32-4d2a-9674-7c121d528c27","ios":"levelo://app?vid=d8721eca-bc32-4d2a-9674-7c121d528c27"},"vehicle_type_id":"4","last_reported":1773699744,"current_range_meters":8000,"station_id":"ce4bgr92rcd13ifvqc7g","pricing_plan_id":"cebpf4jnsgd1na2vs0mg"},{"bike_id":"de37d312-895c-4d9a-a732-dab830fd8951","system_id":"levelo_inurba_marseille","lat":43.28643,"lon":5.3641,"is_reserved":false,"is_disabled":false,"rental_uris":{"android":"levelo://app?vid=de37d312-895c-4d9a-a732-dab830fd8951","ios":"levelo://app?vid=de37d312-895c-4d9a-a732-dab830fd8951"},"vehicle_type_id":"4","last_reported":1773699744,"current_range_meters":8000,"station_id":"","pricing_plan_id":"cebpf4jnsgd1na2vs0mg"},{"bike_id":"9f893a57-9b8d-4b1f-9ebd-9779750ffa6f","system_id":"levelo_inurba_marseille","lat":43.30894,"lon":5.37182,"is_reserved":false,"is_disabled":false,"rental_uris":{"android":"levelo://app?vid=9f893a57-9b8d-4b1f-9ebd-9779750ffa6f","ios":"levelo://app?vid=9f893a57-9b8d-4b1f-9ebd-9779750ffa6f"},"vehicle_type_id":"4","last_reported":1773699744,"current_range_meters":8000,"station_id":"ce4bguh2rcd13ifvqckg","pricing_plan_id":"cebpf4jnsgd1na2vs0mg"},{"bike_id":"f80a0e4c-d57a-49ca-bb04-5e2145b03e21","system_id":"levelo_inurba_marseille","lat":43.24314,"lon":5.40233,"is_reserved":false,"is_disabled":false,"rental_uris":{"android":"levelo://app?vid=f80a0e4c-d57a-49ca-bb04-5e2145b03e21","ios":"levelo://app?vid=f80a0e4c-d57a-49ca-bb04-5e2145b03e21"},"vehicle_type_id":"4","last_reported":1773699744,"current_range_meters":8000,"station_id":"","pricing_plan_id":"cebpf4jnsgd1na2vs0mg"},{"bike_id":"dc90c9c6-4d31-4538-a7d0-1b6c7bdaf8d3","system_id":"levelo_inurba_marseille","lat":43.31171,"lon":5.3871,"is_reserved":false,"is_disabled":false,"rental_uris":{"android":"levelo://app?vid=dc90c9c6-4d31-4538-a7d0-1b6c7bdaf8d3","ios":"levelo://app?vid=dc90c9c6-4d31-4538-a7d0-1b6c7bdaf8d3"},"vehicle_type_id":"4","last_reported":1773699744,"current_range_meters":8000,"station_id":"ce4bgv12rcd13ifvqcp0","pricing_plan_id":"cebpf4jnsgd1na2vs0mg"},{"bike_id":"9a4bbdec-3e83-48ee-978f-aeba653aaf1f","system_id":"levelo_inurba_marseille","lat":43.28663,"lon":5.36352,"is_reserved":false,"is_disabled":false,"rental_uris":{"android":"levelo://app?vid=9a4bbdec-3e83-48ee-978f-aeba653aaf1f","ios":"levelo://app?vid=9a4bbdec-3e83-48ee-978f-aeba653aaf1f"},"vehicle_type_id":"4","last_reported":1773699744,"current_range_meters":8000,"station_id":"ce4bhah2rcd13ifvqej0","pricing_plan_id":"cebpf4jnsgd1na2vs0mg"},{"bike_id":"a8d16a38-1e1f-4098-97ea-af865e0d84d0","system_id":"levelo_inurba_marseille","lat":43.30729,"lon":5.42428,"is_reserved":false,"is_disabled":false,"rental_uris":{"android":"levelo://app?vid=a8d16a38-1e1f-4098-97ea-af865e0d84d0","ios":"levelo://app?vid=a8d16a38-1e1f-4098-97ea-af865e0d84d0"},"vehicle_type_id":"4","last_reported":1773699744,"current_range_meters":8000,"station_id":"st_cvj6ca6bvosntc0bfgr0","pricing_plan_id":"cebpf4jnsgd1na2vs0mg"},{"bike_id":"a412617c-f628-4d7d-bdac-6d93931fd973","system_id":"levelo_inurba_marseille","lat":43.30152,"lon":5.43733,"is_reserved":false,"is_disabled":false,"rental_uris":{"android":"levelo://app?vid=a412617c-f628-4d7d-bdac-6d93931fd973","ios":"levelo://app?vid=a412617c-f628-4d7d-bdac-6d93931fd973"},"vehicle_type_id":"4","last_reported":1773699744,"current_range_meters":8000,"station_id":"","pricing_plan_id":"cebpf4jnsgd1na2vs0mg"},{"bike_id":"bc8f0dcd-b887-435f-81f3-d7c31bdc7ccb","system_id":"levelo_inurba_marseille","lat":43.29728,"lon":5.38771,"is_reserved":false,"is_disabled":false,"rental_uris":{"android":"levelo://app?vid=bc8f0dcd-b887-435f-81f3-d7c31bdc7ccb","ios":"levelo://app?vid=bc8f0dcd-b887-435f-81f3-d7c31bdc7ccb"},"vehicle_type_id":"4","last_reported":1773699744,"current_range_meters":8000,"station_id":"","pricing_plan_id":"cebpf4jnsgd1na2vs0mg"},{"bike_id":"6add6d6d-0759-4fc8-8420-b8632f09398d","system_id":"levelo_inurba_marseille","lat":43.26562,"lon":5.38998,"is_reserved":false,"is_disabled":false,"rental_uris":{"android":"levelo://app?vid=6add6d6d-0759-4fc8-8420-b8632f09398d","ios":"levelo://app?vid=6add6d6d-0759-4fc8-8420-b8632f09398d"},"vehicle_type_id":"4","last_reported":1773699744,"current_range_meters":8000,"station_id":"ce4bhe12rcd13ifvqf30","pricing_plan_id":"cebpf4jnsgd1na2vs0mg"},{"bike_id":"afebd6f1-ad36-4715-af7d-d0ee74a946c8","system_id":"levelo_inurba_marseille","lat":43.27376,"lon":5.36266,"is_reserved":false,"is_disabled":false,"rental_uris":{"android":"levelo://app?vid=afebd6f1-ad36-4715-af7d-d0ee74a946c8","ios":"levelo://app?vid=afebd6f1-ad36-4715-af7d-d0ee74a946c8"},"vehicle_type_id":"4","last_reported":1773699744,"current_range_meters":8400,"station_id":"ce4bhbh2rcd13ifvqeo0","pricing_plan_id":"cebpf4jnsgd1na2vs0mg"},{"bike_id":"0d78d831-edcd-4155-a7f6-b62c63e038fe","system_id":"levelo_inurba_marseille","lat":43.33035,"lon":5.39039,"is_reserved":false,"is_disabled":false,"rental_uris":{"android":"levelo://app?vid=0d78d831-edcd-4155-a7f6-b62c63e038fe","ios":"levelo://app?vid=0d78d831-edcd-4155-a7f6-b62c63e038fe"},"vehicle_type_id":"4","last_reported":1773699744,"current_range_meters":8400,"station_id":"ce4bhr92rcd13ifvqhrg","pricing_plan_id":"cebpf4jnsgd1na2vs0mg"},{"bike_id":"837af263-c35b-47db-8eef-e45a547c9499","system_id":"levelo_inurba_marseille","lat":43.30881,"lon":5.37182,"is_reserved":false,"is_disabled":false,"rental_uris":{"android":"levelo://app?vid=837af263-c35b-47db-8eef-e45a547c9499","ios":"levelo://app?vid=837af263-c35b-47db-8eef-e45a547c9499"},"vehicle_type_id":"4","last_reported":1773699744,"current_range_meters":8400,"station_id":"ce4bguh2rcd13ifvqckg","pricing_plan_id":"cebpf4jnsgd1na2vs0mg"},{"bike_id":"dd8558f2-de46-4a6f-a78a-82f6e24400fe","system_id":"levelo_inurba_marseille","lat":43.27488,"lon":5.41637,"is_reserved":false,"is_disabled":false,"rental_uris":{"android":"levelo://app?vid=dd8558f2-de46-4a6f-a78a-82f6e24400fe","ios":"levelo://app?vid=dd8558f2-de46-4a6f-a78a-82f6e24400fe"},"vehicle_type_id":"4","last_reported":1773699744,"current_range_meters":8400,"station_id":"st_d6im8g6chgec73a5pndg","pricing_plan_id":"cebpf4jnsgd1na2vs0mg"},{"bike_id":"e0c5b89b-a605-4cd7-832a-ebeb999b977d","system_id":"levelo_inurba_marseille","lat":43.27825,"lon":5.40697,"is_reserved":false,"is_disabled":false,"rental_uris":{"android":"levelo://app?vid=e0c5b89b-a605-4cd7-832a-ebeb999b977d","ios":"levelo://app?vid=e0c5b89b-a605-4cd7-832a-ebeb999b977d"},"vehicle_type_id":"4","last_reported":1773699744,"current_range_meters":8400,"station_id":"ce4bhnh2rcd13ifvqgtg","pricing_plan_id":"cebpf4jnsgd1na2vs0mg"},{"bike_id":"86f5ca5a-43c3-42be-98e4-dd293014b338","system_id":"levelo_inurba_marseille","lat":43.27502,"lon":5.41577,"is_reserved":false,"is_disabled":false,"rental_uris":{"android":"levelo://app?vid=86f5ca5a-43c3-42be-98e4-dd293014b338","ios":"levelo://app?vid=86f5ca5a-43c3-42be-98e4-dd293014b338"},"vehicle_type_id":"4","last_reported":1773699744,"current_range_meters":8400,"station_id":"st_d6im8g6chgec73a5pndg","pricing_plan_id":"cebpf4jnsgd1na2vs0mg"},{"bike_id":"09928bae-984c-476e-b9c2-413b0f4a97a7","system_id":"levelo_inurba_marseille","lat":43.28231,"lon":5.39055,"is_reserved":false,"is_disabled":false,"rental_uris":{"android":"levelo://app?vid=09928bae-984c-476e-b9c2-413b0f4a97a7","ios":"levelo://app?vid=09928bae-984c-476e-b9c2-413b0f4a97a7"},"vehicle_type_id":"4","last_reported":1773699744,"current_range_meters":8400,"station_id":"ce4bhn92rcd13ifvqgsg","pricing_plan_id":"cebpf4jnsgd1na2vs0mg"},{"bike_id":"a9ea1cdc-3087-49d2-8431-42111ecb501e","system_id":"levelo_inurba_marseille","lat":43.21177,"lon":5.35112,"is_reserved":false,"is_disabled":false,"rental_uris":{"android":"levelo://app?vid=a9ea1cdc-3087-49d2-8431-42111ecb501e","ios":"levelo://app?vid=a9ea1cdc-3087-49d2-8431-42111ecb501e"},"vehicle_type_id":"4","last_reported":1773699744,"current_range_meters":8400,"station_id":"st_cvj6sg6p6f1abm77japg","pricing_plan_id":"cebpf4jnsgd1na2vs0mg"},{"bike_id":"f97e8681-60a9-4e2b-b5cd-897892e96788","system_id":"levelo_inurba_marseille","lat":43.24995,"lon":5.38933,"is_reserved":false,"is_disabled":false,"rental_uris":{"android":"levelo://app?vid=f97e8681-60a9-4e2b-b5cd-897892e96788","ios":"levelo://app?vid=f97e8681-60a9-4e2b-b5cd-897892e96788"},"vehicle_type_id":"4","last_reported":1773699744,"current_range_meters":8400,"station_id":"ce4bhgp2rcd13ifvqfd0","pricing_plan_id":"cebpf4jnsgd1na2vs0mg"},{"bike_id":"fc9e1ad4-6717-4128-9222-3bb01969928b","system_id":"levelo_inurba_marseille","lat":43.28417,"lon":5.37522,"is_reserved":false,"is_disabled":false,"rental_uris":{"android":"levelo://app?vid=fc9e1ad4-6717-4128-9222-3bb01969928b","ios":"levelo://app?vid=fc9e1ad4-6717-4128-9222-3bb01969928b"},"vehicle_type_id":"4","last_reported":1773699744,"current_range_meters":8400,"station_id":"ce4bh412rcd13ifvqds0","pricing_plan_id":"cebpf4jnsgd1na2vs0mg"},{"bike_id":"c5068d6e-fa35-466c-8d97-fd6e210c6de3","system_id":"levelo_inurba_marseille","lat":43.24972,"lon":5.4049,"is_reserved":false,"is_disabled":false,"rental_uris":{"android":"levelo://app?vid=c5068d6e-fa35-466c-8d97-fd6e210c6de3","ios":"levelo://app?vid=c5068d6e-fa35-466c-8d97-fd6e210c6de3"},"vehicle_type_id":"4","last_reported":1773699744,"current_range_meters":8400,"station_id":"st_d2ngiaodas8pm72gd1h0","pricing_plan_id":"cebpf4jnsgd1na2vs0mg"},{"bike_id":"31492df6-bb21-47e6-bb83-716787b61192","system_id":"levelo_inurba_marseille","lat":43.29286,"lon":5.40095,"is_reserved":false,"is_disabled":false,"rental_uris":{"android":"levelo://app?vid=31492df6-bb21-47e6-bb83-716787b61192","ios":"levelo://app?vid=31492df6-bb21-47e6-bb83-716787b61192"},"vehicle_type_id":"4","last_reported":1773699744,"current_range_meters":8400,"station_id":"ce4bh312rcd13ifvqdk0","pricing_plan_id":"cebpf4jnsgd1na2vs0mg"},{"bike_id":"eee00f3e-c05b-44aa-8a1b-f6a871381f3c","system_id":"levelo_inurba_marseille","lat":43.21743,"lon":5.34607,"is_reserved":false,"is_disabled":false,"rental_uris":{"android":"levelo://app?vid=eee00f3e-c05b-44aa-8a1b-f6a871381f3c","ios":"levelo://app?vid=eee00f3e-c05b-44aa-8a1b-f6a871381f3c"},"vehicle_type_id":"4","last_reported":1773699744,"current_range_meters":8400,"station_id":"st_cvj6r9ubvosntc0bgbag","pricing_plan_id":"cebpf4jnsgd1na2vs0mg"},{"bike_id":"914f680f-0073-41d5-8a40-4d7e34a4e9b2","system_id":"levelo_inurba_marseille","lat":43.22927,"lon":5.35377,"is_reserved":false,"is_disabled":false,"rental_uris":{"android":"levelo://app?vid=914f680f-0073-41d5-8a40-4d7e34a4e9b2","ios":"levelo://app?vid=914f680f-0073-41d5-8a40-4d7e34a4e9b2"},"vehicle_type_id":"4","last_reported":1773699744,"current_range_meters":8400,"station_id":"cpo3532slgdg3j2ikp40","pricing_plan_id":"cebpf4jnsgd1na2vs0mg"},{"bike_id":"5ba62be3-39e9-4667-b8d1-ae0198fa2406","system_id":"levelo_inurba_marseille","lat":43.25049,"lon":5.39531,"is_reserved":false,"is_disabled":false,"rental_uris":{"android":"levelo://app?vid=5ba62be3-39e9-4667-b8d1-ae0198fa2406","ios":"levelo://app?vid=5ba62be3-39e9-4667-b8d1-ae0198fa2406"},"vehicle_type_id":"4","last_reported":1773699744,"current_range_meters":8400,"station_id":"","pricing_plan_id":"cebpf4jnsgd1na2vs0mg"},{"bike_id":"4f82b206-5c61-42ba-98f8-68a02db3941b","system_id":"levelo_inurba_marseille","lat":43.28396,"lon":5.37525,"is_reserved":false,"is_disabled":false,"rental_uris":{"android":"levelo://app?vid=4f82b206-5c61-42ba-98f8-68a02db3941b","ios":"levelo://app?vid=4f82b206-5c61-42ba-98f8-68a02db3941b"},"vehicle_type_id":"4","last_reported":1773699744,"current_range_meters":8400,"station_id":"ce4bh412rcd13ifvqds0","pricing_plan_id":"cebpf4jnsgd1na2vs0mg"},{"bike_id":"4ab18dc6-a011-496c-9dde-ff6c3dfdd1aa","system_id":"levelo_inurba_marseille","lat":43.2976,"lon":5.42778,"is_reserved":false,"is_disabled":false,"rental_uris":{"android":"levelo://app?vid=4ab18dc6-a011-496c-9dde-ff6c3dfdd1aa","ios":"levelo://app?vid=4ab18dc6-a011-496c-9dde-ff6c3dfdd1aa"},"vehicle_type_id":"4","last_reported":1773699744,"current_range_meters":8400,"station_id":"st_d3md5207bmas73dh9klg","pricing_plan_id":"cebpf4jnsgd1na2vs0mg"},{"bike_id":"c8be7d1b-3fac-4b82-b59e-2f9d2b16ff77","system_id":"levelo_inurba_marseille","lat":43.28485,"lon":5.4839,"is_reserved":false,"is_disabled":false,"rental_uris":{"android":"levelo://app?vid=c8be7d1b-3fac-4b82-b59e-2f9d2b16ff77","ios":"levelo://app?vid=c8be7d1b-3fac-4b82-b59e-2f9d2b16ff77"},"vehicle_type_id":"4","last_reported":1773699744,"current_range_meters":8400,"station_id":"","pricing_plan_id":"cebpf4jnsgd1na2vs0mg"},{"bike_id":"a06955b3-2d6d-4c13-9926-d37354e87d37","system_id":"levelo_inurba_marseille","lat":43.25824,"lon":5.39429,"is_reserved":false,"is_disabled":false,"rental_uris":{"android":"levelo://app?vid=a06955b3-2d6d-4c13-9926-d37354e87d37","ios":"levelo://app?vid=a06955b3-2d6d-4c13-9926-d37354e87d37"},"vehicle_type_id":"4","last_reported":1773699744,"current_range_meters":8400,"station_id":"ce4bhip2rcd13ifvqft0","pricing_plan_id":"cebpf4jnsgd1na2vs0mg"},{"bike_id":"81943ed2-d627-42b6-a3d5-10f555c97676","system_id":"levelo_inurba_marseille","lat":43.28346,"lon":5.38069,"is_reserved":false,"is_disabled":false,"rental_uris":{"android":"levelo://app?vid=81943ed2-d627-42b6-a3d5-10f555c97676","ios":"levelo://app?vid=81943ed2-d627-42b6-a3d5-10f555c97676"},"vehicle_type_id":"4","last_reported":1773699744,"current_range_meters":8400,"station_id":"ce4bh412rcd13ifvqdr0","pricing_plan_id":"cebpf4jnsgd1na2vs0mg"},{"bike_id":"a43f5778-0a57-44af-89f8-2d820cab149e","system_id":"levelo_inurba_marseille","lat":43.21738,"lon":5.34608,"is_reserved":false,"is_disabled":false,"rental_uris":{"android":"levelo://app?vid=a43f5778-0a57-44af-89f8-2d820cab149e","ios":"levelo://app?vid=a43f5778-0a57-44af-89f8-2d820cab149e"},"vehicle_type_id":"4","last_reported":1773699744,"current_range_meters":8400,"station_id":"st_cvj6r9ubvosntc0bgbag","pricing_plan_id":"cebpf4jnsgd1na2vs0mg"},{"bike_id":"4a5368c7-ef65-4b3c-83b2-a1f3a192e6ce","system_id":"levelo_inurba_marseille","lat":43.21745,"lon":5.34602,"is_reserved":false,"is_disabled":false,"rental_uris":{"android":"levelo://app?vid=4a5368c7-ef65-4b3c-83b2-a1f3a192e6ce","ios":"levelo://app?vid=4a5368c7-ef65-4b3c-83b2-a1f3a192e6ce"},"vehicle_type_id":"4","last_reported":1773699744,"current_range_meters":8800,"station_id":"st_cvj6r9ubvosntc0bgbag","pricing_plan_id":"cebpf4jnsgd1na2vs0mg"},{"bike_id":"8b56a0df-33bb-4a91-8ad1-ac380652b364","system_id":"levelo_inurba_marseille","lat":43.32996,"lon":5.41248,"is_reserved":false,"is_disabled":false,"rental_uris":{"android":"levelo://app?vid=8b56a0df-33bb-4a91-8ad1-ac380652b364","ios":"levelo://app?vid=8b56a0df-33bb-4a91-8ad1-ac380652b364"},"vehicle_type_id":"4","last_reported":1773699744,"current_range_meters":8800,"station_id":"","pricing_plan_id":"cebpf4jnsgd1na2vs0mg"},{"bike_id":"40e21bdf-4656-49f9-96ac-701c51568d72","system_id":"levelo_inurba_marseille","lat":43.31033,"lon":5.37181,"is_reserved":false,"is_disabled":false,"rental_uris":{"android":"levelo://app?vid=40e21bdf-4656-49f9-96ac-701c51568d72","ios":"levelo://app?vid=40e21bdf-4656-49f9-96ac-701c51568d72"},"vehicle_type_id":"4","last_reported":1773699744,"current_range_meters":8800,"station_id":"st_d4kl2rp97mjs73e7tdfg","pricing_plan_id":"cebpf4jnsgd1na2vs0mg"},{"bike_id":"3fd9b977-bd80-48b1-9c56-de1c9b173b76","system_id":"levelo_inurba_marseille","lat":43.23792,"lon":5.36628,"is_reserved":false,"is_disabled":false,"rental_uris":{"android":"levelo://app?vid=3fd9b977-bd80-48b1-9c56-de1c9b173b76","ios":"levelo://app?vid=3fd9b977-bd80-48b1-9c56-de1c9b173b76"},"vehicle_type_id":"4","last_reported":1773699744,"current_range_meters":8800,"station_id":"st_d3nk18o9ro0c73en2l3g","pricing_plan_id":"cebpf4jnsgd1na2vs0mg"},{"bike_id":"79cded9c-12c2-42da-980c-3dc499ca9932","system_id":"levelo_inurba_marseille","lat":43.29745,"lon":5.38739,"is_reserved":false,"is_disabled":false,"rental_uris":{"android":"levelo://app?vid=79cded9c-12c2-42da-980c-3dc499ca9932","ios":"levelo://app?vid=79cded9c-12c2-42da-980c-3dc499ca9932"},"vehicle_type_id":"4","last_reported":1773699744,"current_range_meters":8800,"station_id":"","pricing_plan_id":"cebpf4jnsgd1na2vs0mg"},{"bike_id":"acc4f0ce-04cb-4366-8954-b91a9c94716d","system_id":"levelo_inurba_marseille","lat":43.28443,"lon":5.39182,"is_reserved":false,"is_disabled":false,"rental_uris":{"android":"levelo://app?vid=acc4f0ce-04cb-4366-8954-b91a9c94716d","ios":"levelo://app?vid=acc4f0ce-04cb-4366-8954-b91a9c94716d"},"vehicle_type_id":"4","last_reported":1773699744,"current_range_meters":8800,"station_id":"ce4bhoh2rcd13ifvqh5g","pricing_plan_id":"cebpf4jnsgd1na2vs0mg"},{"bike_id":"dc23daad-4dee-4502-a50b-d22b3eb16921","system_id":"levelo_inurba_marseille","lat":43.24809,"lon":5.37445,"is_reserved":false,"is_disabled":false,"rental_uris":{"android":"levelo://app?vid=dc23daad-4dee-4502-a50b-d22b3eb16921","ios":"levelo://app?vid=dc23daad-4dee-4502-a50b-d22b3eb16921"},"vehicle_type_id":"4","last_reported":1773699744,"current_range_meters":8800,"station_id":"ce4bhgh2rcd13ifvqfb0","pricing_plan_id":"cebpf4jnsgd1na2vs0mg"},{"bike_id":"ad3aeb7a-c19e-4a87-84b2-1697e07aae46","system_id":"levelo_inurba_marseille","lat":43.29515,"lon":5.39407,"is_reserved":false,"is_disabled":false,"rental_uris":{"android":"levelo://app?vid=ad3aeb7a-c19e-4a87-84b2-1697e07aae46","ios":"levelo://app?vid=ad3aeb7a-c19e-4a87-84b2-1697e07aae46"},"vehicle_type_id":"4","last_reported":1773699744,"current_range_meters":8800,"station_id":"ce4bh292rcd13ifvqdf0","pricing_plan_id":"cebpf4jnsgd1na2vs0mg"},{"bike_id":"ea1f0381-1e97-4f63-ab3d-6e793a69c46c","system_id":"levelo_inurba_marseille","lat":43.25876,"lon":5.39921,"is_reserved":false,"is_disabled":false,"rental_uris":{"android":"levelo://app?vid=ea1f0381-1e97-4f63-ab3d-6e793a69c46c","ios":"levelo://app?vid=ea1f0381-1e97-4f63-ab3d-6e793a69c46c"},"vehicle_type_id":"4","last_reported":1773699744,"current_range_meters":8800,"station_id":"ce4bhl92rcd13ifvqghg","pricing_plan_id":"cebpf4jnsgd1na2vs0mg"},{"bike_id":"c0b2ab3a-ddb0-4968-adf7-e5ae2cd0abcd","system_id":"levelo_inurba_marseille","lat":43.23207,"lon":5.35546,"is_reserved":false,"is_disabled":false,"rental_uris":{"android":"levelo://app?vid=c0b2ab3a-ddb0-4968-adf7-e5ae2cd0abcd","ios":"levelo://app?vid=c0b2ab3a-ddb0-4968-adf7-e5ae2cd0abcd"},"vehicle_type_id":"4","last_reported":1773699744,"current_range_meters":8800,"station_id":"ce4bhu92rcd13ifvqi70","pricing_plan_id":"cebpf4jnsgd1na2vs0mg"},{"bike_id":"1c2eeded-2b83-4c92-a1b4-02ff58ffc9c9","system_id":"levelo_inurba_marseille","lat":43.28963,"lon":5.36452,"is_reserved":false,"is_disabled":false,"rental_uris":{"android":"levelo://app?vid=1c2eeded-2b83-4c92-a1b4-02ff58ffc9c9","ios":"levelo://app?vid=1c2eeded-2b83-4c92-a1b4-02ff58ffc9c9"},"vehicle_type_id":"4","last_reported":1773699744,"current_range_meters":8800,"station_id":"","pricing_plan_id":"cebpf4jnsgd1na2vs0mg"},{"bike_id":"fbb3aca8-55b6-4646-ac1a-997999b6b08f","system_id":"levelo_inurba_marseille","lat":43.29567,"lon":5.39947,"is_reserved":false,"is_disabled":false,"rental_uris":{"android":"levelo://app?vid=fbb3aca8-55b6-4646-ac1a-997999b6b08f","ios":"levelo://app?vid=fbb3aca8-55b6-4646-ac1a-997999b6b08f"},"vehicle_type_id":"4","last_reported":1773699744,"current_range_meters":8800,"station_id":"ce4bh312rcd13ifvqdj0","pricing_plan_id":"cebpf4jnsgd1na2vs0mg"},{"bike_id":"8d5e8fd3-e2d1-4788-a586-6e671925e300","system_id":"levelo_inurba_marseille","lat":43.22946,"lon":5.35361,"is_reserved":false,"is_disabled":false,"rental_uris":{"android":"levelo://app?vid=8d5e8fd3-e2d1-4788-a586-6e671925e300","ios":"levelo://app?vid=8d5e8fd3-e2d1-4788-a586-6e671925e300"},"vehicle_type_id":"4","last_reported":1773699744,"current_range_meters":8800,"station_id":"cpo3532slgdg3j2ikp40","pricing_plan_id":"cebpf4jnsgd1na2vs0mg"},{"bike_id":"72b45880-0b61-4ecc-89ed-bfa235968316","system_id":"levelo_inurba_marseille","lat":43.30955,"lon":5.39025,"is_reserved":false,"is_disabled":false,"rental_uris":{"android":"levelo://app?vid=72b45880-0b61-4ecc-89ed-bfa235968316","ios":"levelo://app?vid=72b45880-0b61-4ecc-89ed-bfa235968316"},"vehicle_type_id":"4","last_reported":1773699744,"current_range_meters":8800,"station_id":"ce4bgup2rcd13ifvqco0","pricing_plan_id":"cebpf4jnsgd1na2vs0mg"},{"bike_id":"394e9a10-4994-45e4-891f-3d0d082955e5","system_id":"levelo_inurba_marseille","lat":43.30316,"lon":5.40431,"is_reserved":false,"is_disabled":false,"rental_uris":{"android":"levelo://app?vid=394e9a10-4994-45e4-891f-3d0d082955e5","ios":"levelo://app?vid=394e9a10-4994-45e4-891f-3d0d082955e5"},"vehicle_type_id":"4","last_reported":1773699744,"current_range_meters":8800,"station_id":"ce4bh012rcd13ifvqd10","pricing_plan_id":"cebpf4jnsgd1na2vs0mg"},{"bike_id":"768b4476-4ab7-4561-8a43-3a3384aa435e","system_id":"levelo_inurba_marseille","lat":43.30599,"lon":5.39344,"is_reserved":false,"is_disabled":false,"rental_uris":{"android":"levelo://app?vid=768b4476-4ab7-4561-8a43-3a3384aa435e","ios":"levelo://app?vid=768b4476-4ab7-4561-8a43-3a3384aa435e"},"vehicle_type_id":"4","last_reported":1773699744,"current_range_meters":8800,"station_id":"ce4bh0p2rcd13ifvqd80","pricing_plan_id":"cebpf4jnsgd1na2vs0mg"},{"bike_id":"5dcb4815-6000-4648-acbd-5f58233ed44d","system_id":"levelo_inurba_marseille","lat":43.30125,"lon":5.38101,"is_reserved":false,"is_disabled":true,"rental_uris":{"android":"levelo://app?vid=5dcb4815-6000-4648-acbd-5f58233ed44d","ios":"levelo://app?vid=5dcb4815-6000-4648-acbd-5f58233ed44d"},"vehicle_type_id":"4","last_reported":1773699744,"current_range_meters":8800,"station_id":"ce4bgjp2rcd13ifvqbh0","pricing_plan_id":"cebpf4jnsgd1na2vs0mg"},{"bike_id":"7023df15-bd71-4979-ad86-8126cbad2f55","system_id":"levelo_inurba_marseille","lat":43.28403,"lon":5.37502,"is_reserved":false,"is_disabled":false,"rental_uris":{"android":"levelo://app?vid=7023df15-bd71-4979-ad86-8126cbad2f55","ios":"levelo://app?vid=7023df15-bd71-4979-ad86-8126cbad2f55"},"vehicle_type_id":"4","last_reported":1773699744,"current_range_meters":8800,"station_id":"ce4bh412rcd13ifvqds0","pricing_plan_id":"cebpf4jnsgd1na2vs0mg"},{"bike_id":"e3cdee97-285b-44dd-b4f0-9d7ee0bc8e94","system_id":"levelo_inurba_marseille","lat":43.21206,"lon":5.35069,"is_reserved":false,"is_disabled":false,"rental_uris":{"android":"levelo://app?vid=e3cdee97-285b-44dd-b4f0-9d7ee0bc8e94","ios":"levelo://app?vid=e3cdee97-285b-44dd-b4f0-9d7ee0bc8e94"},"vehicle_type_id":"4","last_reported":1773699744,"current_range_meters":8800,"station_id":"st_cvj6sg6p6f1abm77japg","pricing_plan_id":"cebpf4jnsgd1na2vs0mg"},{"bike_id":"004eca10-d53c-4c3e-a794-3a3f18d4e111","system_id":"levelo_inurba_marseille","lat":43.29258,"lon":5.40898,"is_reserved":false,"is_disabled":false,"rental_uris":{"android":"levelo://app?vid=004eca10-d53c-4c3e-a794-3a3f18d4e111","ios":"levelo://app?vid=004eca10-d53c-4c3e-a794-3a3f18d4e111"},"vehicle_type_id":"4","last_reported":1773699744,"current_range_meters":8800,"station_id":"ce4bh192rcd13ifvqdc0","pricing_plan_id":"cebpf4jnsgd1na2vs0mg"},{"bike_id":"5793868a-4d81-41f5-8b83-6ab0e33cf8bb","system_id":"levelo_inurba_marseille","lat":43.30949,"lon":5.39037,"is_reserved":false,"is_disabled":true,"rental_uris":{"android":"levelo://app?vid=5793868a-4d81-41f5-8b83-6ab0e33cf8bb","ios":"levelo://app?vid=5793868a-4d81-41f5-8b83-6ab0e33cf8bb"},"vehicle_type_id":"4","last_reported":1773699744,"current_range_meters":8800,"station_id":"ce4bgup2rcd13ifvqco0","pricing_plan_id":"cebpf4jnsgd1na2vs0mg"},{"bike_id":"2c246cd0-1447-4211-998d-6b7d0cbe68e3","system_id":"levelo_inurba_marseille","lat":43.29903,"lon":5.43673,"is_reserved":false,"is_disabled":false,"rental_uris":{"android":"levelo://app?vid=2c246cd0-1447-4211-998d-6b7d0cbe68e3","ios":"levelo://app?vid=2c246cd0-1447-4211-998d-6b7d0cbe68e3"},"vehicle_type_id":"4","last_reported":1773699744,"current_range_meters":8800,"station_id":"ce4bhpp2rcd13ifvqhfg","pricing_plan_id":"cebpf4jnsgd1na2vs0mg"},{"bike_id":"701da738-d1f9-4e93-907d-4f308ea80e6a","system_id":"levelo_inurba_marseille","lat":43.25571,"lon":5.38249,"is_reserved":false,"is_disabled":false,"rental_uris":{"android":"levelo://app?vid=701da738-d1f9-4e93-907d-4f308ea80e6a","ios":"levelo://app?vid=701da738-d1f9-4e93-907d-4f308ea80e6a"},"vehicle_type_id":"4","last_reported":1773699744,"current_range_meters":8800,"station_id":"ce4bhih2rcd13ifvqfs0","pricing_plan_id":"cebpf4jnsgd1na2vs0mg"},{"bike_id":"c9c78441-890b-4b8a-a403-28974123dae8","system_id":"levelo_inurba_marseille","lat":43.29087,"lon":5.38151,"is_reserved":false,"is_disabled":false,"rental_uris":{"android":"levelo://app?vid=c9c78441-890b-4b8a-a403-28974123dae8","ios":"levelo://app?vid=c9c78441-890b-4b8a-a403-28974123dae8"},"vehicle_type_id":"4","last_reported":1773699744,"current_range_meters":8800,"station_id":"ce4bh512rcd13ifvqe2g","pricing_plan_id":"cebpf4jnsgd1na2vs0mg"},{"bike_id":"63df9ac8-8a95-42d0-9687-305675e45ed8","system_id":"levelo_inurba_marseille","lat":43.30369,"lon":5.39779,"is_reserved":false,"is_disabled":false,"rental_uris":{"android":"levelo://app?vid=63df9ac8-8a95-42d0-9687-305675e45ed8","ios":"levelo://app?vid=63df9ac8-8a95-42d0-9687-305675e45ed8"},"vehicle_type_id":"4","last_reported":1773699744,"current_range_meters":8800,"station_id":"","pricing_plan_id":"cebpf4jnsgd1na2vs0mg"},{"bike_id":"16c69ff3-aeea-48da-98b5-7d9cd45460ae","system_id":"levelo_inurba_marseille","lat":43.23189,"lon":5.35583,"is_reserved":false,"is_disabled":false,"rental_uris":{"android":"levelo://app?vid=16c69ff3-aeea-48da-98b5-7d9cd45460ae","ios":"levelo://app?vid=16c69ff3-aeea-48da-98b5-7d9cd45460ae"},"vehicle_type_id":"4","last_reported":1773699744,"current_range_meters":8800,"station_id":"ce4bhu92rcd13ifvqi70","pricing_plan_id":"cebpf4jnsgd1na2vs0mg"},{"bike_id":"0909c211-ae5c-48d0-82ac-ae474ece6f2f","system_id":"levelo_inurba_marseille","lat":43.27515,"lon":5.41597,"is_reserved":false,"is_disabled":true,"rental_uris":{"android":"levelo://app?vid=0909c211-ae5c-48d0-82ac-ae474ece6f2f","ios":"levelo://app?vid=0909c211-ae5c-48d0-82ac-ae474ece6f2f"},"vehicle_type_id":"4","last_reported":1773699744,"current_range_meters":8800,"station_id":"st_d6im8g6chgec73a5pndg","pricing_plan_id":"cebpf4jnsgd1na2vs0mg"},{"bike_id":"585820b3-77be-4e8b-a87f-93717675d371","system_id":"levelo_inurba_marseille","lat":43.25095,"lon":5.3951,"is_reserved":false,"is_disabled":false,"rental_uris":{"android":"levelo://app?vid=585820b3-77be-4e8b-a87f-93717675d371","ios":"levelo://app?vid=585820b3-77be-4e8b-a87f-93717675d371"},"vehicle_type_id":"4","last_reported":1773699744,"current_range_meters":8800,"station_id":"ce4bhm12rcd13ifvqgkg","pricing_plan_id":"cebpf4jnsgd1na2vs0mg"},{"bike_id":"35fccabf-4c4a-4fac-97d9-f9fa0e13c826","system_id":"levelo_inurba_marseille","lat":43.33534,"lon":5.37462,"is_reserved":false,"is_disabled":false,"rental_uris":{"android":"levelo://app?vid=35fccabf-4c4a-4fac-97d9-f9fa0e13c826","ios":"levelo://app?vid=35fccabf-4c4a-4fac-97d9-f9fa0e13c826"},"vehicle_type_id":"4","last_reported":1773699744,"current_range_meters":8800,"station_id":"st_d46tts09ee8s73dlu43g","pricing_plan_id":"cebpf4jnsgd1na2vs0mg"},