{"last_updated":1731092794,"ttl":60,"version":"2.2","data":{"bikes":[{"bike_id":"37b18ebd-4aa0-4ca2-bfbb-ac9479701cc7","system_id":"levelo_inurba_marseille","lat":43.28081,"lon":5.3966,"is_reserved":false,"is_disabled":false,"rental_uris":{"android":"levelo://app?vid=37b18ebd-4aa0-4ca2-bfbb-ac9479701cc7","ios":"levelo://app?vid=37b18ebd-4aa0-4ca2-bfbb-ac9479701cc7"},"vehicle_type_id":"4","last_reported":1731092794,"current_range_meters":28400,"station_id":"ce4bho12rcd13ifvqh2g","pricing_plan_id":"cebpf4jnsgd1na2vs0mg"},{"bike_id":"5e90810b-f893-4541-9313-b224d94d0794","system_id":"levelo_inurba_marseille","lat":43.29973,"lon":5.38492,"is_reserved":false,"is_disabled":false,"rental_uris":{"android":"levelo://app?vid=5e90810b-f893-4541-9313-b224d94d0794","ios":"levelo://app?vid=5e90810b-f893-4541-9313-b224d94d0794"},"vehicle_type_id":"4","last_reported":1731092794,"current_range_meters":35600,"station_id":"ce4bgj92rcd13ifvqbd0","pricing_plan_id":"cebpf4jnsgd1na2vs0mg"},{"bike_id":"82536cc0-376e-4593-bc1a-7a6291b8b76e","system_id":"levelo_inurba_marseille","lat":43.26942,"lon":5.40256,"is_reserved":false,"is_disabled":false,"rental_uris":{"android":"levelo://app?vid=82536cc0-376e-4593-bc1a-7a6291b8b76e","ios":"levelo://app?vid=82536cc0-376e-4593-bc1a-7a6291b8b76e"},"vehicle_type_id":"4","last_reported":1731092794,"current_range_meters":37600,"station_id":"cjm6bp8fraef2m0cb0m0","pricing_plan_id":"cebpf4jnsgd1na2vs0mg"},{"bike_id":"68bb9078-c705-4e4c-81de-7ae7c7d86c43","system_id":"levelo_inurba_marseille","lat":43.31612,"lon":5.37769,"is_reserved":false,"is_disabled":false,"rental_uris":{"android":"levelo://app?vid=68bb9078-c705-4e4c-81de-7ae7c7d86c43","ios":"levelo://app?vid=68bb9078-c705-4e4c-81de-7ae7c7d86c43"},"vehicle_type_id":"4","last_reported":1731092794,"current_range_meters":32800,"station_id":"ce4bgth2rcd13ifvqch0","pricing_plan_id":"cebpf4jnsgd1na2vs0mg"},{"bike_id":"e7e383c4-9583-4985-9fc6-1e1eb8af56a7","system_id":"levelo_inurba_marseille","lat":43.29536,"lon":5.37481,"is_reserved":false,"is_disabled":false,"rental_uris":{"android":"levelo://app?vid=e7e383c4-9583-4985-9fc6-1e1eb8af56a7","ios":"levelo://app?vid=e7e383c4-9583-4985-9fc6-1e1eb8af56a7"},"vehicle_type_id":"4","last_reported":1731092794,"current_range_meters":38800,"station_id":"ce4bgkp2rcd13ifvqbmg","pricing_plan_id":"cebpf4jnsgd1na2vs0mg"},{"bike_id":"3f8e9100-8f64-42ec-b328-73d6145177de","system_id":"levelo_inurba_marseille","lat":43.337444,"lon":5.374475,"is_reserved":false,"is_disabled":false,"rental_uris":{"android":"levelo://app?vid=3f8e9100-8f64-42ec-b328-73d6145177de","ios":"levelo://app?vid=3f8e9100-8f64-42ec-b328-73d6145177de"},"vehicle_type_id":"4","last_reported":1731092794,"current_range_meters":20000,"station_id":"","pricing_plan_id":"cebpf4jnsgd1na2vs0mg"},{"bike_id":"80f82b3a-f845-4fcb-8369-8424e6a25244","system_id":"levelo_inurba_marseille","lat":43.27308,"lon":5.39081,"is_reserved":false,"is_disabled":false,"rental_uris":{"android":"levelo://app?vid=80f82b3a-f845-4fcb-8369-8424e6a25244","ios":"levelo://app?vid=80f82b3a-f845-4fcb-8369-8424e6a25244"},"vehicle_type_id":"4","last_reported":1731092794,"current_range_meters":24000,"station_id":"ce4bhgp2rcd13ifvqfe0","pricing_plan_id":"cebpf4jnsgd1na2vs0mg"},{"bike_id":"2b71a9d2-3360-4ca4-8e23-6be6968c51d6","system_id":"levelo_inurba_marseille","lat":43.28,"lon":5.40011,"is_reserved":false,"is_disabled":false,"rental_uris":{"android":"levelo://app?vid=2b71a9d2-3360-4ca4-8e23-6be6968c51d6","ios":"levelo://app?vid=2b71a9d2-3360-4ca4-8e23-6be6968c51d6"},"vehicle_type_id":"4","last_reported":1731092794,"current_range_meters":6800,"station_id":"ce4bho92rcd13ifvqh4g","pricing_plan_id":"cebpf4jnsgd1na2vs0mg"},{"bike_id":"afefcee5-30a3-424e-a984-dcdd0e6b782a","system_id":"levelo_inurba_marseille","lat":43.29158,"lon":5.3716,"is_reserved":false,"is_disabled":false,"rental_uris":{"android":"levelo://app?vid=afefcee5-30a3-424e-a984-dcdd0e6b782a","ios":"levelo://app?vid=afefcee5-30a3-424e-a984-dcdd0e6b782a"},"vehicle_type_id":"4","last_reported":1731092794,"current_range_meters":6800,"station_id":"ce4bha92rcd13ifvqeh0","pricing_plan_id":"cebpf4jnsgd1na2vs0mg"},{"bike_id":"85ec6972-2474-4903-af30-b7a390d3db72","system_id":"levelo_inurba_marseille","lat":43.26229,"lon":5.37434,"is_reserved":false,"is_disabled":false,"rental_uris":{"android":"levelo://app?vid=85ec6972-2474-4903-af30-b7a390d3db72","ios":"levelo://app?vid=85ec6972-2474-4903-af30-b7a390d3db72"},"vehicle_type_id":"4","last_reported":1731092794,"current_range_meters":34800,"station_id":"ce4bhgp2rcd13ifvqfc0","pricing_plan_id":"cebpf4jnsgd1na2vs0mg"},{"bike_id":"c88f1b31-dd3c-4e82-a81a-152198c83c26","system_id":"levelo_inurba_marseille","lat":43.31203,"lon":5.36847,"is_reserved":false,"is_disabled":false,"rental_uris":{"android":"levelo://app?vid=c88f1b31-dd3c-4e82-a81a-152198c83c26","ios":"levelo://app?vid=c88f1b31-dd3c-4e82-a81a-152198c83c26"},"vehicle_type_id":"4","last_reported":1731092794,"current_range_meters":8400,"station_id":"ce4bgl92rcd13ifvqbq0","pricing_plan_id":"cebpf4jnsgd1na2vs0mg"},{"bike_id":"7a61aa54-4124-4dcd-858b-db846d80c8c4","system_id":"levelo_inurba_marseille","lat":43.27618,"lon":5.36112,"is_reserved":false,"is_disabled":false,"rental_uris":{"android":"levelo://app?vid=7a61aa54-4124-4dcd-858b-db846d80c8c4","ios":"levelo://app?vid=7a61aa54-4124-4dcd-858b-db846d80c8c4"},"vehicle_type_id":"4","last_reported":1731092794,"current_range_meters":6800,"station_id":"ce4bgj92rcd13ifvqbe0","pricing_plan_id":"cebpf4jnsgd1na2vs0mg"},{"bike_id":"3e80f0e3-f994-4134-ab8a-2338da3ff797","system_id":"levelo_inurba_marseille","lat":43.34139,"lon":5.40908,"is_reserved":false,"is_disabled":false,"rental_uris":{"android":"levelo://app?vid=3e80f0e3-f994-4134-ab8a-2338da3ff797","ios":"levelo://app?vid=3e80f0e3-f994-4134-ab8a-2338da3ff797"},"vehicle_type_id":"4","last_reported":1731092794,"current_range_meters":8400,"station_id":"ce4bhqh2rcd13ifvqhlg","pricing_plan_id":"cebpf4jnsgd1na2vs0mg"},{"bike_id":"820756cf-0a4b-4add-995b-4f302f481527","system_id":"levelo_inurba_marseille","lat":43.2621,"lon":5.37441,"is_reserved":false,"is_disabled":false,"rental_uris":{"android":"levelo://app?vid=820756cf-0a4b-4add-995b-4f302f481527","ios":"levelo://app?vid=820756cf-0a4b-4add-995b-4f302f481527"},"vehicle_type_id":"4","last_reported":1731092794,"current_range_meters":15200,"station_id":"ce4bhgp2rcd13ifvqfc0","pricing_plan_id":"cebpf4jnsgd1na2vs0mg"},{"bike_id":"b29d39ea-ec1b-4379-af8c-f852303f7c25","system_id":"levelo_inurba_marseille","lat":43.31226,"lon":5.36856,"is_reserved":false,"is_disabled":false,"rental_uris":{"android":"levelo://app?vid=b29d39ea-ec1b-4379-af8c-f852303f7c25","ios":"levelo://app?vid=b29d39ea-ec1b-4379-af8c-f852303f7c25"},"vehicle_type_id":"4","last_reported":1731092794,"current_range_meters":6400,"station_id":"ce4bgl92rcd13ifvqbq0","pricing_plan_id":"cebpf4jnsgd1na2vs0mg"},{"bike_id":"1a92279e-1152-4bb1-a030-ac5c06a6a547","system_id":"levelo_inurba_marseille","lat":43.30797,"lon":5.43527,"is_reserved":false,"is_disabled":false,"rental_uris":{"android":"levelo://app?vid=1a92279e-1152-4bb1-a030-ac5c06a6a547","ios":"levelo://app?vid=1a92279e-1152-4bb1-a030-ac5c06a6a547"},"vehicle_type_id":"4","last_reported":1731092794,"current_range_meters":39200,"station_id":"ce4bhph2rcd13ifvqheg","pricing_plan_id":"cebpf4jnsgd1na2vs0mg"},{"bike_id":"d1a14875-c4c1-42aa-a7c2-8e96cb80e3de","system_id":"levelo_inurba_marseille","lat":43.29287,"lon":5.37131,"is_reserved":false,"is_disabled":false,"rental_uris":{"android":"levelo://app?vid=d1a14875-c4c1-42aa-a7c2-8e96cb80e3de","ios":"levelo://app?vid=d1a14875-c4c1-42aa-a7c2-8e96cb80e3de"},"vehicle_type_id":"4","last_reported":1731092794,"current_range_meters":38800,"station_id":"ce4bgh92rcd13ifvqb40","pricing_plan_id":"cebpf4jnsgd1na2vs0mg"},{"bike_id":"b2ea2d84-8520-4feb-b30b-1ffe3087e1c8","system_id":"levelo_inurba_marseille","lat":43.29252,"lon":5.38428,"is_reserved":false,"is_disabled":false,"rental_uris":{"android":"levelo://app?vid=b2ea2d84-8520-4feb-b30b-1ffe3087e1c8","ios":"levelo://app?vid=b2ea2d84-8520-4feb-b30b-1ffe3087e1c8"},"vehicle_type_id":"4","last_reported":1731092794,"current_range_meters":24400,"station_id":"ce4bh692rcd13ifvqea0","pricing_plan_id":"cebpf4jnsgd1na2vs0mg"},{"bike_id":"28b8c937-8fd8-4260-9e8f-5ae529cf470f","system_id":"levelo_inurba_marseille","lat":43.258227,"lon":5.394288,"is_reserved":false,"is_disabled":false,"rental_uris":{"android":"levelo://app?vid=28b8c937-8fd8-4260-9e8f-5ae529cf470f","ios":"levelo://app?vid=28b8c937-8fd8-4260-9e8f-5ae529cf470f"},"vehicle_type_id":"4","last_reported":1731092794,"current_range_meters":32800,"station_id":"ce4bhip2rcd13ifvqft0","pricing_plan_id":"cebpf4jnsgd1na2vs0mg"},{"bike_id":"b9059161-bc2a-4853-8231-de961bd5f1e7","system_id":"levelo_inurba_marseille","lat":43.3371,"lon":5.39176,"is_reserved":false,"is_disabled":false,"rental_uris":{"android":"levelo://app?vid=b9059161-bc2a-4853-8231-de961bd5f1e7","ios":"levelo://app?vid=b9059161-bc2a-4853-8231-de961bd5f1e7"},"vehicle_type_id":"4","last_reported":1731092794,"current_range_meters":26000,"station_id":"ce4bhr92rcd13ifvqhsg","pricing_plan_id":"cebpf4jnsgd1na2vs0mg"},{"bike_id":"543d68fd-cb11-4412-852d-f63930a8c2bf","system_id":"levelo_inurba_marseille","lat":43.28564,"lon":5.39492,"is_reserved":false,"is_disabled":false,"rental_uris":{"android":"levelo://app?vid=543d68fd-cb11-4412-852d-f63930a8c2bf","ios":"levelo://app?vid=543d68fd-cb11-4412-852d-f63930a8c2bf"},"vehicle_type_id":"4","last_reported":1731092794,"current_range_meters":27600,"station_id":"ce4bh292rcd13ifvqdg0","pricing_plan_id":"cebpf4jnsgd1na2vs0mg"},{"bike_id":"eed59be7-0021-4779-ae77-47f2c3f2e673","system_id":"levelo_inurba_marseille","lat":43.273208,"lon":5.390679,"is_reserved":false,"is_disabled":false,"rental_uris":{"android":"levelo://app?vid=eed59be7-0021-4779-ae77-47f2c3f2e673","ios":"levelo://app?vid=eed59be7-0021-4779-ae77-47f2c3f2e673"},"vehicle_type_id":"4","last_reported":1731092794,"current_range_meters":27600,"station_id":"ce4bhgp2rcd13ifvqfe0","pricing_plan_id":"cebpf4jnsgd1na2vs0mg"},{"bike_id":"f88532bb-c3da-4268-9eb0-7a943999b014","system_id":"levelo_inurba_marseille","lat":43.28699,"lon":5.37382,"is_reserved":false,"is_disabled":false,"rental_uris":{"android":"levelo://app?vid=f88532bb-c3da-4268-9eb0-7a943999b014","ios":"levelo://app?vid=f88532bb-c3da-4268-9eb0-7a943999b014"},"vehicle_type_id":"4","last_reported":1731092794,"current_range_meters":32400,"station_id":"ce4bh3p2rcd13ifvqdq0","pricing_plan_id":"cebpf4jnsgd1na2vs0mg"},{"bike_id":"90849aa7-29be-4f63-a008-efbe269f63de","system_id":"levelo_inurba_marseille","lat":43.2926,"lon":5.38444,"is_reserved":false,"is_disabled":false,"rental_uris":{"android":"levelo://app?vid=90849aa7-29be-4f63-a008-efbe269f63de","ios":"levelo://app?vid=90849aa7-29be-4f63-a008-efbe269f63de"},"vehicle_type_id":"4","last_reported":1731092794,"current_range_meters":14400,"station_id":"ce4bh692rcd13ifvqea0","pricing_plan_id":"cebpf4jnsgd1na2vs0mg"},{"bike_id":"472115b4-ad9e-4747-a3d8-cbc23ead78a7","system_id":"levelo_inurba_marseille","lat":43.26932,"lon":5.40248,"is_reserved":false,"is_disabled":false,"rental_uris":{"android":"levelo://app?vid=472115b4-ad9e-4747-a3d8-cbc23ead78a7","ios":"levelo://app?vid=472115b4-ad9e-4747-a3d8-cbc23ead78a7"},"vehicle_type_id":"4","last_reported":1731092794,"current_range_meters":24000,"station_id":"cjm6bp8fraef2m0cb0m0","pricing_plan_id":"cebpf4jnsgd1na2vs0mg"},{"bike_id":"98257627-6cb9-44f7-b6af-1428c66ea619","system_id":"levelo_inurba_marseille","lat":43.29035,"lon":5.38613,"is_reserved":false,"is_disabled":false,"rental_uris":{"android":"levelo://app?vid=98257627-6cb9-44f7-b6af-1428c66ea619","ios":"levelo://app?vid=98257627-6cb9-44f7-b6af-1428c66ea619"},"vehicle_type_id":"4","last_reported":1731092794,"current_range_meters":37600,"station_id":"ce4bh4p2rcd13ifvqe0g","pricing_plan_id":"cebpf4jnsgd1na2vs0mg"},{"bike_id":"22c2910c-c395-401a-9c60-3a72ab53ce1d","system_id":"levelo_inurba_marseille","lat":43.26548,"lon":5.39502,"is_reserved":false,"is_disabled":false,"rental_uris":{"android":"levelo://app?vid=22c2910c-c395-401a-9c60-3a72ab53ce1d","ios":"levelo://app?vid=22c2910c-c395-401a-9c60-3a72ab53ce1d"},"vehicle_type_id":"4","last_reported":1731092794,"current_range_meters":30800,"station_id":"ce4bhh12rcd13ifvqfg0","pricing_plan_id":"cebpf4jnsgd1na2vs0mg"},{"bike_id":"f4ef053d-e709-4411-bdd9-de1d0f41e46f","system_id":"levelo_inurba_marseille","lat":43.2293,"lon":5.35374,"is_reserved":false,"is_disabled":false,"rental_uris":{"android":"levelo://app?vid=f4ef053d-e709-4411-bdd9-de1d0f41e46f","ios":"levelo://app?vid=f4ef053d-e709-4411-bdd9-de1d0f41e46f"},"vehicle_type_id":"4","last_reported":1731092794,"current_range_meters":39200,"station_id":"cpo3532slgdg3j2ikp40","pricing_plan_id":"cebpf4jnsgd1na2vs0mg"},{"bike_id":"7b28e8d2-008b-42bf-8db3-b456cc7125ae","system_id":"levelo_inurba_marseille","lat":43.31331,"lon":5.39695,"is_reserved":false,"is_disabled":false,"rental_uris":{"android":"levelo://app?vid=7b28e8d2-008b-42bf-8db3-b456cc7125ae","ios":"levelo://app?vid=7b28e8d2-008b-42bf-8db3-b456cc7125ae"},"vehicle_type_id":"4","last_reported":1731092794,"current_range_meters":37600,"station_id":"ce4bgvp2rcd13ifvqcu0","pricing_plan_id":"cebpf4jnsgd1na2vs0mg"},{"bike_id":"a2983f6d-42f1-40b8-becb-062dd3d43987","system_id":"levelo_inurba_marseille","lat":43.27211,"lon":5.39177,"is_reserved":false,"is_disabled":false,"rental_uris":{"android":"levelo://app?vid=a2983f6d-42f1-40b8-becb-062dd3d43987","ios":"levelo://app?vid=a2983f6d-42f1-40b8-becb-062dd3d43987"},"vehicle_type_id":"4","last_reported":1731092794,"current_range_meters":12400,"station_id":"ce4bhhp2rcd13ifvqfm0","pricing_plan_id":"cebpf4jnsgd1na2vs0mg"},{"bike_id":"80590553-7a60-4301-a5bc-0f28a55be41a","system_id":"levelo_inurba_marseille","lat":43.26805,"lon":5.4027,"is_reserved":false,"is_disabled":false,"rental_uris":{"android":"levelo://app?vid=80590553-7a60-4301-a5bc-0f28a55be41a","ios":"levelo://app?vid=80590553-7a60-4301-a5bc-0f28a55be41a"},"vehicle_type_id":"4","last_reported":1731092794,"current_range_meters":7200,"station_id":"ce501612rcd8frsf0b60","pricing_plan_id":"cebpf4jnsgd1na2vs0mg"},{"bike_id":"eeaf409b-4064-4be5-a338-aee5a3d3e4d6","system_id":"levelo_inurba_marseille","lat":43.26948,"lon":5.40229,"is_reserved":false,"is_disabled":false,"rental_uris":{"android":"levelo://app?vid=eeaf409b-4064-4be5-a338-aee5a3d3e4d6","ios":"levelo://app?vid=eeaf409b-4064-4be5-a338-aee5a3d3e4d6"},"vehicle_type_id":"4","last_reported":1731092794,"current_range_meters":8000,"station_id":"cjm6bp8fraef2m0cb0m0","pricing_plan_id":"cebpf4jnsgd1na2vs0mg"},{"bike_id":"94603413-9432-4fe4-84e3-15a9f5aadcf7","system_id":"levelo_inurba_marseille","lat":43.29426,"lon":5.3974,"is_reserved":false,"is_disabled":false,"rental_uris":{"android":"levelo://app?vid=94603413-9432-4fe4-84e3-15a9f5aadcf7","ios":"levelo://app?vid=94603413-9432-4fe4-84e3-15a9f5aadcf7"},"vehicle_type_id":"4","last_reported":1731092794,"current_range_meters":38800,"station_id":"ce4bh3h2rcd13ifvqdo0","pricing_plan_id":"cebpf4jnsgd1na2vs0mg"},{"bike_id":"982c92fa-5a39-4022-a5c2-2c0c81e43e5c","system_id":"levelo_inurba_marseille","lat":43.26943,"lon":5.40252,"is_reserved":false,"is_disabled":false,"rental_uris":{"android":"levelo://app?vid=982c92fa-5a39-4022-a5c2-2c0c81e43e5c","ios":"levelo://app?vid=982c92fa-5a39-4022-a5c2-2c0c81e43e5c"},"vehicle_type_id":"4","last_reported":1731092794,"current_range_meters":30000,"station_id":"cjm6bp8fraef2m0cb0m0","pricing_plan_id":"cebpf4jnsgd1na2vs0mg"},{"bike_id":"356f1942-04ab-4ba9-8844-0891228215aa","system_id":"levelo_inurba_marseille","lat":43.2408,"lon":5.37748,"is_reserved":false,"is_disabled":false,"rental_uris":{"android":"levelo://app?vid=356f1942-04ab-4ba9-8844-0891228215aa","ios":"levelo://app?vid=356f1942-04ab-4ba9-8844-0891228215aa"},"vehicle_type_id":"4","last_reported":1731092794,"current_range_meters":28000,"station_id":"ce4bhnp2rcd13ifvqgvg","pricing_plan_id":"cebpf4jnsgd1na2vs0mg"},{"bike_id":"0068481c-09a4-465d-a885-c578d3b25bf9","system_id":"levelo_inurba_marseille","lat":43.29419,"lon":5.38622,"is_reserved":false,"is_disabled":false,"rental_uris":{"android":"levelo://app?vid=0068481c-09a4-465d-a885-c578d3b25bf9","ios":"levelo://app?vid=0068481c-09a4-465d-a885-c578d3b25bf9"},"vehicle_type_id":"4","last_reported":1731092794,"current_range_meters":14000,"station_id":"ce4bh2h2rcd13ifvqdh0","pricing_plan_id":"cebpf4jnsgd1na2vs0mg"},{"bike_id":"71bb50a1-6cdb-4a6f-b24c-1cbd7c603ad3","system_id":"levelo_inurba_marseille","lat":43.31423,"lon":5.37387,"is_reserved":false,"is_disabled":false,"rental_uris":{"android":"levelo://app?vid=71bb50a1-6cdb-4a6f-b24c-1cbd7c603ad3","ios":"levelo://app?vid=71bb50a1-6cdb-4a6f-b24c-1cbd7c603ad3"},"vehicle_type_id":"4","last_reported":1731092794,"current_range_meters":32400,"station_id":"","pricing_plan_id":"cebpf4jnsgd1na2vs0mg"},{"bike_id":"b4ad1abe-6669-4317-b6c7-ea7e704ed285","system_id":"levelo_inurba_marseille","lat":43.29578,"lon":5.36743,"is_reserved":false,"is_disabled":false,"rental_uris":{"android":"levelo://app?vid=b4ad1abe-6669-4317-b6c7-ea7e704ed285","ios":"levelo://app?vid=b4ad1abe-6669-4317-b6c7-ea7e704ed285"},"vehicle_type_id":"4","last_reported":1731092794,"current_range_meters":39200,"station_id":"ce4bgph2rcd13ifvqc2g","pricing_plan_id":"cebpf4jnsgd1na2vs0mg"},{"bike_id":"b8fdd341-0697-41ca-82c9-e4253415f4e6","system_id":"levelo_inurba_marseille","lat":43.23055,"lon":5.35495,"is_reserved":false,"is_disabled":false,"rental_uris":{"android":"levelo://app?vid=b8fdd341-0697-41ca-82c9-e4253415f4e6","ios":"levelo://app?vid=b8fdd341-0697-41ca-82c9-e4253415f4e6"},"vehicle_type_id":"4","last_reported":1731092794,"current_range_meters":36400,"station_id":"cpo3342slgdg3j2ifvpg","pricing_plan_id":"cebpf4jnsgd1na2vs0mg"},{"bike_id":"47cbe465-b5dd-4266-b5e2-ce88d8328444","system_id":"levelo_inurba_marseille","lat":43.24661,"lon":5.38159,"is_reserved":false,"is_disabled":false,"rental_uris":{"android":"levelo://app?vid=47cbe465-b5dd-4266-b5e2-ce88d8328444","ios":"levelo://app?vid=47cbe465-b5dd-4266-b5e2-ce88d8328444"},"vehicle_type_id":"4","last_reported":1731092794,"current_range_meters":21600,"station_id":"ce4bhih2rcd13ifvqfr0","pricing_plan_id":"cebpf4jnsgd1na2vs0mg"},{"bike_id":"8ff5e79b-a318-4cea-90de-983e55b74757","system_id":"levelo_inurba_marseille","lat":43.29039,"lon":5.35893,"is_reserved":false,"is_disabled":false,"rental_uris":{"android":"levelo://app?vid=8ff5e79b-a318-4cea-90de-983e55b74757","ios":"levelo://app?vid=8ff5e79b-a318-4cea-90de-983e55b74757"},"vehicle_type_id":"4","last_reported":1731092794,"current_range_meters":7200,"station_id":"ce4bha92rcd13ifvqeg0","pricing_plan_id":"cebpf4jnsgd1na2vs0mg"},{"bike_id":"dba055a8-65ad-4a26-95af-d855889f0816","system_id":"levelo_inurba_marseille","lat":43.27167,"lon":5.4099,"is_reserved":false,"is_disabled":false,"rental_uris":{"android":"levelo://app?vid=dba055a8-65ad-4a26-95af-d855889f0816","ios":"levelo://app?vid=dba055a8-65ad-4a26-95af-d855889f0816"},"vehicle_type_id":"4","last_reported":1731092794,"current_range_meters":4800,"station_id":"ce4bhl12rcd13ifvqgf0","pricing_plan_id":"cebpf4jnsgd1na2vs0mg"},{"bike_id":"06c91963-161f-484f-a554-3b806fb83130","system_id":"levelo_inurba_marseille","lat":43.30015,"lon":5.38918,"is_reserved":false,"is_disabled":false,"rental_uris":{"android":"levelo://app?vid=06c91963-161f-484f-a554-3b806fb83130","ios":"levelo://app?vid=06c91963-161f-484f-a554-3b806fb83130"},"vehicle_type_id":"4","last_reported":1731092794,"current_range_meters":30800,"station_id":"ce4bh2h2rcd13ifvqdh0","pricing_plan_id":"cebpf4jnsgd1na2vs0mg"},{"bike_id":"8c326b26-9203-4a12-8c49-2dc336785955","system_id":"levelo_inurba_marseille","lat":43.29523,"lon":5.38535,"is_reserved":false,"is_disabled":false,"rental_uris":{"android":"levelo://app?vid=8c326b26-9203-4a12-8c49-2dc336785955","ios":"levelo://app?vid=8c326b26-9203-4a12-8c49-2dc336785955"},"vehicle_type_id":"4","last_reported":1731092794,"current_range_meters":13600,"station_id":"ce4bgih2rcd13ifvqba0","pricing_plan_id":"cebpf4jnsgd1na2vs0mg"},{"bike_id":"07ded4ee-3bc0-486a-b1c6-9efd7a96b6b0","system_id":"levelo_inurba_marseille","lat":43.2998,"lon":5.37171,"is_reserved":false,"is_disabled":false,"rental_uris":{"android":"levelo://app?vid=07ded4ee-3bc0-486a-b1c6-9efd7a96b6b0","ios":"levelo://app?vid=07ded4ee-3bc0-486a-b1c6-9efd7a96b6b0"},"vehicle_type_id":"4","last_reported":1731092794,"current_range_meters":6000,"station_id":"ce4bgr92rcd13ifvqc7g","pricing_plan_id":"cebpf4jnsgd1na2vs0mg"},{"bike_id":"d4010da9-e06b-4744-929b-56e3c105253f","system_id":"levelo_inurba_marseille","lat":43.29681,"lon":5.37299,"is_reserved":false,"is_disabled":false,"rental_uris":{"android":"levelo://app?vid=d4010da9-e06b-4744-929b-56e3c105253f","ios":"levelo://app?vid=d4010da9-e06b-4744-929b-56e3c105253f"},"vehicle_type_id":"4","last_reported":1731092794,"current_range_meters":16000,"station_id":"ce4bgk12rcd13ifvqbj0","pricing_plan_id":"cebpf4jnsgd1na2vs0mg"},{"bike_id":"761d53cd-b164-4f2d-aacb-3c421146af51","system_id":"levelo_inurba_marseille","lat":43.29887,"lon":5.39736,"is_reserved":false,"is_disabled":false,"rental_uris":{"android":"levelo://app?vid=761d53cd-b164-4f2d-aacb-3c421146af51","ios":"levelo://app?vid=761d53cd-b164-4f2d-aacb-3c421146af51"},"vehicle_type_id":"4","last_reported":1731092794,"current_range_meters":38800,"station_id":"ce4bh0h2rcd13ifvqd50","pricing_plan_id":"cebpf4jnsgd1na2vs0mg"},{"bike_id":"5652996e-f294-4e2b-9b35-349a504b4536","system_id":"levelo_inurba_marseille","lat":43.312333,"lon":5.376457,"is_reserved":false,"is_disabled":false,"rental_uris":{"android":"levelo://app?vid=5652996e-f294-4e2b-9b35-349a504b4536","ios":"levelo://app?vid=5652996e-f294-4e2b-9b35-349a504b4536"},"vehicle_type_id":"4","last_reported":1731092794,"current_range_meters":28800,"station_id":"ce4bgt92rcd13ifvqcg0","pricing_plan_id":"cebpf4jnsgd1na2vs0mg"},{"bike_id":"ac1ceaa2-30d9-46ba-979d-5486e08ff315","system_id":"levelo_inurba_marseille","lat":43.3171,"lon":5.43703,"is_reserved":false,"is_disabled":false,"rental_uris":{"android":"levelo://app?vid=ac1ceaa2-30d9-46ba-979d-5486e08ff315","ios":"levelo://app?vid=ac1ceaa2-30d9-46ba-979d-5486e08ff315"},"vehicle_type_id":"4","last_reported":1731092794,"current_range_meters":9600,"station_id":"ce4bhp92rcd13ifvqhcg","pricing_plan_id":"cebpf4jnsgd1na2vs0mg"},{"bike_id":"84734344-4100-498f-90db-13a43f921e51","system_id":"levelo_inurba_marseille","lat":43.29621,"lon":5.37152,"is_reserved":false,"is_disabled":false,"rental_uris":{"android":"levelo://app?vid=84734344-4100-498f-90db-13a43f921e51","ios":"levelo://app?vid=84734344-4100-498f-90db-13a43f921e51"},"vehicle_type_id":"4","last_reported":1731092794,"current_range_meters":28400,"station_id":"ce4bgnh2rcd13ifvqc0g","pricing_plan_id":"cebpf4jnsgd1na2vs0mg"},{"bike_id":"82bcb5cc-eff7-40fa-ae6c-a3c17f56dccf","system_id":"levelo_inurba_marseille","lat":43.3199,"lon":5.3814,"is_reserved":false,"is_disabled":false,"rental_uris":{"android":"levelo://app?vid=82bcb5cc-eff7-40fa-ae6c-a3c17f56dccf","ios":"levelo://app?vid=82bcb5cc-eff7-40fa-ae6c-a3c17f56dccf"},"vehicle_type_id":"4","last_reported":1731092794,"current_range_meters":14000,"station_id":"ce4bhr12rcd13ifvqhpg","pricing_plan_id":"cebpf4jnsgd1na2vs0mg"},{"bike_id":"b8ef9640-9524-4f24-8173-bd17b4f5b7d8","system_id":"levelo_inurba_marseille","lat":43.27318,"lon":5.3907,"is_reserved":false,"is_disabled":false,"rental_uris":{"android":"levelo://app?vid=b8ef9640-9524-4f24-8173-bd17b4f5b7d8","ios":"levelo://app?vid=b8ef9640-9524-4f24-8173-bd17b4f5b7d8"},"vehicle_type_id":"4","last_reported":1731092794,"current_range_meters":35200,"station_id":"ce4bhgp2rcd13ifvqfe0","pricing_plan_id":"cebpf4jnsgd1na2vs0mg"},{"bike_id":"a209540f-9864-4234-9442-19e2c4083f97","system_id":"levelo_inurba_marseille","lat":43.26946,"lon":5.38634,"is_reserved":false,"is_disabled":false,"rental_uris":{"android":"levelo://app?vid=a209540f-9864-4234-9442-19e2c4083f97","ios":"levelo://app?vid=a209540f-9864-4234-9442-19e2c4083f97"},"vehicle_type_id":"4","last_reported":1731092794,"current_range_meters":16400,"station_id":"ce4bhh92rcd13ifvqfh0","pricing_plan_id":"cebpf4jnsgd1na2vs0mg"},{"bike_id":"be074bbf-7203-48e7-a1b1-50a075eef0c3","system_id":"levelo_inurba_marseille","lat":43.28436,"lon":5.39183,"is_reserved":false,"is_disabled":false,"rental_uris":{"android":"levelo://app?vid=be074bbf-7203-48e7-a1b1-50a075eef0c3","ios":"levelo://app?vid=be074bbf-7203-48e7-a1b1-50a075eef0c3"},"vehicle_type_id":"4","last_reported":1731092794,"current_range_meters":38800,"station_id":"ce4bhoh2rcd13ifvqh5g","pricing_plan_id":"cebpf4jnsgd1na2vs0mg"},{"bike_id":"bc2d6971-e395-4768-9fc5-d20d0fa99369","system_id":"levelo_inurba_marseille","lat":43.28008,"lon":5.40015,"is_reserved":false,"is_disabled":false,"rental_uris":{"android":"levelo://app?vid=bc2d6971-e395-4768-9fc5-d20d0fa99369","ios":"levelo://app?vid=bc2d6971-e395-4768-9fc5-d20d0fa99369"},"vehicle_type_id":"4","last_reported":1731092794,"current_range_meters":19200,"station_id":"ce4bho92rcd13ifvqh4g","pricing_plan_id":"cebpf4jnsgd1na2vs0mg"},{"bike_id":"4196c03e-69d8-4f99-9423-2897f6861c23","system_id":"levelo_inurba_marseille","lat":43.28102,"lon":5.378325,"is_reserved":false,"is_disabled":false,"rental_uris":{"android":"levelo://app?vid=4196c03e-69d8-4f99-9423-2897f6861c23","ios":"levelo://app?vid=4196c03e-69d8-4f99-9423-2897f6861c23"},"vehicle_type_id":"4","last_reported":1731092794,"current_range_meters":10000,"station_id":"ce4bha12rcd13ifvqee0","pricing_plan_id":"cebpf4jnsgd1na2vs0mg"},{"bike_id":"2a1f2b15-e51a-4a08-958c-9704bd56602b","system_id":"levelo_inurba_marseille","lat":43.26804,"lon":5.4027,"is_reserved":false,"is_disabled":false,"rental_uris":{"android":"levelo://app?vid=2a1f2b15-e51a-4a08-958c-9704bd56602b","ios":"levelo://app?vid=2a1f2b15-e51a-4a08-958c-9704bd56602b"},"vehicle_type_id":"4","last_reported":1731092794,"current_range_meters":9200,"station_id":"ce501612rcd8frsf0b60","pricing_plan_id":"cebpf4jnsgd1na2vs0mg"},{"bike_id":"79c31e38-c961-491e-bf26-01c3071ff7ba","system_id":"levelo_inurba_marseille","lat":43.27315,"lon":5.39072,"is_reserved":false,"is_disabled":false,"rental_uris":{"android":"levelo://app?vid=79c31e38-c961-491e-bf26-01c3071ff7ba","ios":"levelo://app?vid=79c31e38-c961-491e-bf26-01c3071ff7ba"},"vehicle_type_id":"4","last_reported":1731092794,"current_range_meters":33200,"station_id":"ce4bhgp2rcd13ifvqfe0","pricing_plan_id":"cebpf4jnsgd1na2vs0mg"},{"bike_id":"d0d7f828-bd04-4608-b04e-888aeb08a5a6","system_id":"levelo_inurba_marseille","lat":43.27059,"lon":5.40261,"is_reserved":false,"is_disabled":false,"rental_uris":{"android":"levelo://app?vid=d0d7f828-bd04-4608-b04e-888aeb08a5a6","ios":"levelo://app?vid=d0d7f828-bd04-4608-b04e-888aeb08a5a6"},"vehicle_type_id":"4","last_reported":1731092794,"current_range_meters":8000,"station_id":"ce4bhk92rcd13ifvqgc0","pricing_plan_id":"cebpf4jnsgd1na2vs0mg"},{"bike_id":"f2b88fdd-2e0b-4b5e-888c-35155555732c","system_id":"levelo_inurba_marseille","lat":43.31998,"lon":5.38148,"is_reserved":false,"is_disabled":false,"rental_uris":{"android":"levelo://app?vid=f2b88fdd-2e0b-4b5e-888c-35155555732c","ios":"levelo://app?vid=f2b88fdd-2e0b-4b5e-888c-35155555732c"},"vehicle_type_id":"4","last_reported":1731092794,"current_range_meters":39200,"station_id":"ce4bhr12rcd13ifvqhpg","pricing_plan_id":"cebpf4jnsgd1na2vs0mg"},{"bike_id":"6620e73e-63eb-4fc6-8f54-cfecf7ecd726","system_id":"levelo_inurba_marseille","lat":43.27998,"lon":5.40018,"is_reserved":false,"is_disabled":false,"rental_uris":{"android":"levelo://app?vid=6620e73e-63eb-4fc6-8f54-cfecf7ecd726","ios":"levelo://app?vid=6620e73e-63eb-4fc6-8f54-cfecf7ecd726"},"vehicle_type_id":"4","last_reported":1731092794,"current_range_meters":8400,"station_id":"ce4bho92rcd13ifvqh4g","pricing_plan_id":"cebpf4jnsgd1na2vs0mg"},{"bike_id":"b9478b1d-79e3-44c9-ae60-496dd5151f62","system_id":"levelo_inurba_marseille","lat":43.29169,"lon":5.37147,"is_reserved":false,"is_disabled":false,"rental_uris":{"android":"levelo://app?vid=b9478b1d-79e3-44c9-ae60-496dd5151f62","ios":"levelo://app?vid=b9478b1d-79e3-44c9-ae60-496dd5151f62"},"vehicle_type_id":"4","last_reported":1731092794,"current_range_meters":39200,"station_id":"ce4bha92rcd13ifvqeh0","pricing_plan_id":"cebpf4jnsgd1na2vs0mg"},{"bike_id":"445b0f4b-8924-4eb8-a9ee-1ae6fc6cecb1","system_id":"levelo_inurba_marseille","lat":43.31684,"lon":5.40476,"is_reserved":false,"is_disabled":false,"rental_uris":{"android":"levelo://app?vid=445b0f4b-8924-4eb8-a9ee-1ae6fc6cecb1","ios":"levelo://app?vid=445b0f4b-8924-4eb8-a9ee-1ae6fc6cecb1"},"vehicle_type_id":"4","last_reported":1731092794,"current_range_meters":18800,"station_id":"ce4bh012rcd13ifvqd00","pricing_plan_id":"cebpf4jnsgd1na2vs0mg"},{"bike_id":"9d57b37d-83f6-4582-99f3-b1d88cd1b679","system_id":"levelo_inurba_marseille","lat":43.29218,"lon":5.3606,"is_reserved":false,"is_disabled":false,"rental_uris":{"android":"levelo://app?vid=9d57b37d-83f6-4582-99f3-b1d88cd1b679","ios":"levelo://app?vid=9d57b37d-83f6-4582-99f3-b1d88cd1b679"},"vehicle_type_id":"4","last_reported":1731092794,"current_range_meters":20000,"station_id":"ce4bhbh2rcd13ifvqeqg","pricing_plan_id":"cebpf4jnsgd1na2vs0mg"},{"bike_id":"d070148f-8ecc-4c75-8cb1-c8bc85f50390","system_id":"levelo_inurba_marseille","lat":43.33021,"lon":5.39044,"is_reserved":false,"is_disabled":false,"rental_uris":{"android":"levelo://app?vid=d070148f-8ecc-4c75-8cb1-c8bc85f50390","ios":"levelo://app?vid=d070148f-8ecc-4c75-8cb1-c8bc85f50390"},"vehicle_type_id":"4","last_reported":1731092794,"current_range_meters":14000,"station_id":"ce4bhr92rcd13ifvqhrg","pricing_plan_id":"cebpf4jnsgd1na2vs0mg"},{"bike_id":"49802e5d-6e7d-4d65-ade0-af9d690a65b9","system_id":"levelo_inurba_marseille","lat":43.27819,"lon":5.40718,"is_reserved":false,"is_disabled":false,"rental_uris":{"android":"levelo://app?vid=49802e5d-6e7d-4d65-ade0-af9d690a65b9","ios":"levelo://app?vid=49802e5d-6e7d-4d65-ade0-af9d690a65b9"},"vehicle_type_id":"4","last_reported":1731092794,"current_range_meters":22800,"station_id":"ce4bhnh2rcd13ifvqgtg","pricing_plan_id":"cebpf4jnsgd1na2vs0mg"},{"bike_id":"29824cde-4cdc-4355-9b22-a5922a403deb","system_id":"levelo_inurba_marseille","lat":43.337444,"lon":5.374475,"is_reserved":false,"is_disabled":false,"rental_uris":{"android":"levelo://app?vid=29824cde-4cdc-4355-9b22-a5922a403deb","ios":"levelo://app?vid=29824cde-4cdc-4355-9b22-a5922a403deb"},"vehicle_type_id":"4","last_reported":1731092794,"current_range_meters":36800,"station_id":"","pricing_plan_id":"cebpf4jnsgd1na2vs0mg"},{"bike_id":"bd8c2fc7-b0b3-4959-b841-fd9492586770","system_id":"levelo_inurba_marseille","lat":43.2695,"lon":5.40245,"is_reserved":false,"is_disabled":false,"rental_uris":{"android":"levelo://app?vid=bd8c2fc7-b0b3-4959-b841-fd9492586770","ios":"levelo://app?vid=bd8c2fc7-b0b3-4959-b841-fd9492586770"},"vehicle_type_id":"4","last_reported":1731092794,"current_range_meters":28400,"station_id":"cjm6bp8fraef2m0cb0m0","pricing_plan_id":"cebpf4jnsgd1na2vs0mg"},{"bike_id":"136548bd-9b2c-4d98-84ce-36d39467f2b3","system_id":"levelo_inurba_marseille","lat":43.26942,"lon":5.40246,"is_reserved":false,"is_disabled":false,"rental_uris":{"android":"levelo://app?vid=136548bd-9b2c-4d98-84ce-36d39467f2b3","ios":"levelo://app?vid=136548bd-9b2c-4d98-84ce-36d39467f2b3"},"vehicle_type_id":"4","last_reported":1731092794,"current_range_meters":22800,"station_id":"cjm6bp8fraef2m0cb0m0","pricing_plan_id":"cebpf4jnsgd1na2vs0mg"},{"bike_id":"e08e30ec-710f-43b7-b10f-8b3cf628bd5b","system_id":"levelo_inurba_marseille","lat":43.26959,"lon":5.38624,"is_reserved":false,"is_disabled":false,"rental_uris":{"android":"levelo://app?vid=e08e30ec-710f-43b7-b10f-8b3cf628bd5b","ios":"levelo://app?vid=e08e30ec-710f-43b7-b10f-8b3cf628bd5b"},"vehicle_type_id":"4","last_reported":1731092794,"current_range_meters":32800,"station_id":"ce4bhh92rcd13ifvqfh0","pricing_plan_id":"cebpf4jnsgd1na2vs0mg"},{"bike_id":"eccb9bf1-4a0c-4df5-8229-bf46f21c4329","system_id":"levelo_inurba_marseille","lat":43.31717,"lon":5.42407,"is_reserved":false,"is_disabled":false,"rental_uris":{"android":"levelo://app?vid=eccb9bf1-4a0c-4df5-8229-bf46f21c4329","ios":"levelo://app?vid=eccb9bf1-4a0c-4df5-8229-bf46f21c4329"},"vehicle_type_id":"4","last_reported":1731092794,"current_range_meters":36800,"station_id":"ce4bhp92rcd13ifvqhbg","pricing_plan_id":"cebpf4jnsgd1na2vs0mg"},{"bike_id":"ef288286-229d-4b9a-a189-8d61840dcffb","system_id":"levelo_inurba_marseille","lat":43.23189,"lon":5.35548,"is_reserved":false,"is_disabled":false,"rental_uris":{"android":"levelo://app?vid=ef288286-229d-4b9a-a189-8d61840dcffb","ios":"levelo://app?vid=ef288286-229d-4b9a-a189-8d61840dcffb"},"vehicle_type_id":"4","last_reported":1731092794,"current_range_meters":37600,"station_id":"ce4bhu92rcd13ifvqi70","pricing_plan_id":"cebpf4jnsgd1na2vs0mg"},{"bike_id":"92860f3a-6eab-4f7c-b9c8-ec43b76ff206","system_id":"levelo_inurba_marseille","lat":43.23963,"lon":5.36628,"is_reserved":false,"is_disabled":false,"rental_uris":{"android":"levelo://app?vid=92860f3a-6eab-4f7c-b9c8-ec43b76ff206","ios":"levelo://app?vid=92860f3a-6eab-4f7c-b9c8-ec43b76ff206"},"vehicle_type_id":"4","last_reported":1731092794,"current_range_meters":32000,"station_id":"ce4bhi12rcd13ifvqfp0","pricing_plan_id":"cebpf4jnsgd1na2vs0mg"},{"bike_id":"68a16cb1-5aff-45bf-9786-11e01f81ed1f","system_id":"levelo_inurba_marseille","lat":43.26211,"lon":5.37444,"is_reserved":false,"is_disabled":false,"rental_uris":{"android":"levelo://app?vid=68a16cb1-5aff-45bf-9786-11e01f81ed1f","ios":"levelo://app?vid=68a16cb1-5aff-45bf-9786-11e01f81ed1f"},"vehicle_type_id":"4","last_reported":1731092794,"current_range_meters":36800,"station_id":"ce4bhgp2rcd13ifvqfc0","pricing_plan_id":"cebpf4jnsgd1na2vs0mg"},{"bike_id":"886c5890-2348-46d7-aae9-e41e14c2a41f","system_id":"levelo_inurba_marseille","lat":43.27993,"lon":5.40026,"is_reserved":false,"is_disabled":false,"rental_uris":{"android":"levelo://app?vid=886c5890-2348-46d7-aae9-e41e14c2a41f","ios":"levelo://app?vid=886c5890-2348-46d7-aae9-e41e14c2a41f"},"vehicle_type_id":"4","last_reported":1731092794,"current_range_meters":4400,"station_id":"ce4bho92rcd13ifvqh4g","pricing_plan_id":"cebpf4jnsgd1na2vs0mg"},{"bike_id":"ec2c11b7-eadd-46da-a0b4-6f08cd8a9b45","system_id":"levelo_inurba_marseille","lat":43.2742,"lon":5.39419,"is_reserved":false,"is_disabled":false,"rental_uris":{"android":"levelo://app?vid=ec2c11b7-eadd-46da-a0b4-6f08cd8a9b45","ios":"levelo://app?vid=ec2c11b7-eadd-46da-a0b4-6f08cd8a9b45"},"vehicle_type_id":"4","last_reported":1731092794,"current_range_meters":24000,"station_id":"ce4bhdp2rcd13ifvqf20","pricing_plan_id":"cebpf4jnsgd1na2vs0mg"},{"bike_id":"656f03ea-10f7-4666-a917-0338320213c2","system_id":"levelo_inurba_marseille","lat":43.31267,"lon":5.40173,"is_reserved":false,"is_disabled":false,"rental_uris":{"android":"levelo://app?vid=656f03ea-10f7-4666-a917-0338320213c2","ios":"levelo://app?vid=656f03ea-10f7-4666-a917-0338320213c2"},"vehicle_type_id":"4","last_reported":1731092794,"current_range_meters":3200,"station_id":"ce4bh092rcd13ifvqd30","pricing_plan_id":"cebpf4jnsgd1na2vs0mg"},{"bike_id":"ba272f7d-ac8e-4542-b4f8-d34bda986418","system_id":"levelo_inurba_marseille","lat":43.25829,"lon":5.39432,"is_reserved":false,"is_disabled":false,"rental_uris":{"android":"levelo://app?vid=ba272f7d-ac8e-4542-b4f8-d34bda986418","ios":"levelo://app?vid=ba272f7d-ac8e-4542-b4f8-d34bda986418"},"vehicle_type_id":"4","last_reported":1731092794,"current_range_meters":36800,"station_id":"ce4bhip2rcd13ifvqft0","pricing_plan_id":"cebpf4jnsgd1na2vs0mg"},{"bike_id":"5b5df625-091a-48ae-a114-d616b146cb56","system_id":"levelo_inurba_marseille","lat":43.29837,"lon":5.36267,"is_reserved":false,"is_disabled":false,"rental_uris":{"android":"levelo://app?vid=5b5df625-091a-48ae-a114-d616b146cb56","ios":"levelo://app?vid=5b5df625-091a-48ae-a114-d616b146cb56"},"vehicle_type_id":"4","last_reported":1731092794,"current_range_meters":38400,"station_id":"ce4bgpp2rcd13ifvqc3g","pricing_plan_id":"cebpf4jnsgd1na2vs0mg"},{"bike_id":"37cbea81-cd52-4d51-b897-93a27b07082a","system_id":"levelo_inurba_marseille","lat":43.29533,"lon":5.38548,"is_reserved":false,"is_disabled":false,"rental_uris":{"android":"levelo://app?vid=37cbea81-cd52-4d51-b897-93a27b07082a","ios":"levelo://app?vid=37cbea81-cd52-4d51-b897-93a27b07082a"},"vehicle_type_id":"4","last_reported":1731092794,"current_range_meters":26800,"station_id":"ce4bgih2rcd13ifvqba0","pricing_plan_id":"cebpf4jnsgd1na2vs0mg"},{"bike_id":"c0b0244e-d43e-46aa-a1c9-86c34fd228aa","system_id":"levelo_inurba_marseille","lat":43.31489,"lon":5.37313,"is_reserved":false,"is_disabled":false,"rental_uris":{"android":"levelo://app?vid=c0b0244e-d43e-46aa-a1c9-86c34fd228aa","ios":"levelo://app?vid=c0b0244e-d43e-46aa-a1c9-86c34fd228aa"},"vehicle_type_id":"4","last_reported":1731092794,"current_range_meters":30800,"station_id":"ce4bgt12rcd13ifvqcd0","pricing_plan_id":"cebpf4jnsgd1na2vs0mg"},{"bike_id":"1d9634b7-92f8-42dc-b38d-c9b269308e00","system_id":"levelo_inurba_marseille","lat":43.28004,"lon":5.40015,"is_reserved":false,"is_disabled":false,"rental_uris":{"android":"levelo://app?vid=1d9634b7-92f8-42dc-b38d-c9b269308e00","ios":"levelo://app?vid=1d9634b7-92f8-42dc-b38d-c9b269308e00"},"vehicle_type_id":"4","last_reported":1731092794,"current_range_meters":35200,"station_id":"ce4bho92rcd13ifvqh4g","pricing_plan_id":"cebpf4jnsgd1na2vs0mg"},{"bike_id":"8faa22dc-5f3c-4af6-b84b-f554e09d6313","system_id":"levelo_inurba_marseille","lat":43.337444,"lon":5.374475,"is_reserved":false,"is_disabled":false,"rental_uris":{"android":"levelo://app?vid=8faa22dc-5f3c-4af6-b84b-f554e09d6313","ios":"levelo://app?vid=8faa22dc-5f3c-4af6-b84b-f554e09d6313"},"vehicle_type_id":"4","last_reported":1731092794,"current_range_meters":36800,"station_id":"","pricing_plan_id":"cebpf4jnsgd1na2vs0mg"},{"bike_id":"c5eb6fd9-48e9-46e5-82ae-a044f97572e4","system_id":"levelo_inurba_marseille","lat":43.28932,"lon":5.36649,"is_reserved":false,"is_disabled":false,"rental_uris":{"android":"levelo://app?vid=c5eb6fd9-48e9-46e5-82ae-a044f97572e4","ios":"levelo://app?vid=c5eb6fd9-48e9-46e5-82ae-a044f97572e4"},"vehicle_type_id":"4","last_reported":1731092794,"current_range_meters":35600,"station_id":"ce4bhap2rcd13ifvqek0","pricing_plan_id":"cebpf4jnsgd1na2vs0mg"},{"bike_id":"61892a9e-576b-4a39-a5c5-aa7b307c3d49","system_id":"levelo_inurba_marseille","lat":43.27995,"lon":5.40011,"is_reserved":false,"is_disabled":false,"rental_uris":{"android":"levelo://app?vid=61892a9e-576b-4a39-a5c5-aa7b307c3d49","ios":"levelo://app?vid=61892a9e-576b-4a39-a5c5-aa7b307c3d49"},"vehicle_type_id":"4","last_reported":1731092794,"current_range_meters":19200,"station_id":"ce4bho92rcd13ifvqh4g","pricing_plan_id":"cebpf4jnsgd1na2vs0mg"},{"bike_id":"5e6a58d2-0708-47e0-ad50-e5637983716c","system_id":"levelo_inurba_marseille","lat":43.27176,"lon":5.40992,"is_reserved":false,"is_disabled":false,"rental_uris":{"android":"levelo://app?vid=5e6a58d2-0708-47e0-ad50-e5637983716c","ios":"levelo://app?vid=5e6a58d2-0708-47e0-ad50-e5637983716c"},"vehicle_type_id":"4","last_reported":1731092794,"current_range_meters":38000,"station_id":"ce4bhl12rcd13ifvqgf0","pricing_plan_id":"cebpf4jnsgd1na2vs0mg"},{"bike_id":"804d1eeb-66c6-4c53-84af-991639b68540","system_id":"levelo_inurba_marseille","lat":43.29529,"lon":5.3855,"is_reserved":false,"is_disabled":false,"rental_uris":{"android":"levelo://app?vid=804d1eeb-66c6-4c53-84af-991639b68540","ios":"levelo://app?vid=804d1eeb-66c6-4c53-84af-991639b68540"},"vehicle_type_id":"4","last_reported":1731092794,"current_range_meters":38000,"station_id":"ce4bgih2rcd13ifvqba0","pricing_plan_id":"cebpf4jnsgd1na2vs0mg"},{"bike_id":"f37f9e0e-1eab-48d8-9ff0-3aaa290d9422","system_id":"levelo_inurba_marseille","lat":43.24997,"lon":5.38938,"is_reserved":false,"is_disabled":false,"rental_uris":{"android":"levelo://app?vid=f37f9e0e-1eab-48d8-9ff0-3aaa290d9422","ios":"levelo://app?vid=f37f9e0e-1eab-48d8-9ff0-3aaa290d9422"},"vehicle_type_id":"4","last_reported":1731092794,"current_range_meters":34000,"station_id":"ce4bhgp2rcd13ifvqfd0","pricing_plan_id":"cebpf4jnsgd1na2vs0mg"},{"bike_id":"dee76a84-a568-43ea-9d78-a3ea36150b1b","system_id":"levelo_inurba_marseille","lat":43.2951,"lon":5.38536,"is_reserved":false,"is_disabled":false,"rental_uris":{"android":"levelo://app?vid=dee76a84-a568-43ea-9d78-a3ea36150b1b","ios":"levelo://app?vid=dee76a84-a568-43ea-9d78-a3ea36150b1b"},"vehicle_type_id":"4","last_reported":1731092794,"current_range_meters":32400,"station_id":"ce4bgih2rcd13ifvqba0","pricing_plan_id":"cebpf4jnsgd1na2vs0mg"},{"bike_id":"51c9ec69-0aca-4a87-9653-500df8e21edb","system_id":"levelo_inurba_marseille","lat":43.32293,"lon":5.38274,"is_reserved":false,"is_disabled":false,"rental_uris":{"android":"levelo://app?vid=51c9ec69-0aca-4a87-9653-500df8e21edb","ios":"levelo://app?vid=51c9ec69-0aca-4a87-9653-500df8e21edb"},"vehicle_type_id":"4","last_reported":1731092794,"current_range_meters":27600,"station_id":"ce4bhr12rcd13ifvqhqg","pricing_plan_id":"cebpf4jnsgd1na2vs0mg"},{"bike_id":"f71f3d24-e3fa-489a-bd82-3a7b3caecc0b","system_id":"levelo_inurba_marseille","lat":43.31198,"lon":5.36841,"is_reserved":false,"is_disabled":false,"rental_uris":{"android":"levelo://app?vid=f71f3d24-e3fa-489a-bd82-3a7b3caecc0b","ios":"levelo://app?vid=f71f3d24-e3fa-489a-bd82-3a7b3caecc0b"},"vehicle_type_id":"4","last_reported":1731092794,"current_range_meters":38000,"station_id":"ce4bgl92rcd13ifvqbq0","pricing_plan_id":"cebpf4jnsgd1na2vs0mg"},{"bike_id":"4b92fd64-88b8-40f9-8d11-48c482fdda57","system_id":"levelo_inurba_marseille","lat":43.26059,"lon":5.39395,"is_reserved":false,"is_disabled":false,"rental_uris":{"android":"levelo://app?vid=4b92fd64-88b8-40f9-8d11-48c482fdda57","ios":"levelo://app?vid=4b92fd64-88b8-40f9-8d11-48c482fdda57"},"vehicle_type_id":"4","last_reported":1731092794,"current_range_meters":20400,"station_id":"ce4bhh92rcd13ifvqfj0","pricing_plan_id":"cebpf4jnsgd1na2vs0mg"},{"bike_id":"067248fa-b30d-4024-a318-e38ffe4a12d5","system_id":"levelo_inurba_marseille","lat":43.29566,"lon":5.37515,"is_reserved":false,"is_disabled":false,"rental_uris":{"android":"levelo://app?vid=067248fa-b30d-4024-a318-e38ffe4a12d5","ios":"levelo://app?vid=067248fa-b30d-4024-a318-e38ffe4a12d5"},"vehicle_type_id":"4","last_reported":1731092794,"current_range_meters":39200,"station_id":"ce4bgh92rcd13ifvqb50","pricing_plan_id":"cebpf4jnsgd1na2vs0mg"},{"bike_id":"1f3ba906-6e07-4370-b207-43e1aae1c14a","system_id":"levelo_inurba_marseille","lat":43.31336,"lon":5.36726,"is_reserved":false,"is_disabled":false,"rental_uris":{"android":"levelo://app?vid=1f3ba906-6e07-4370-b207-43e1aae1c14a","ios":"levelo://app?vid=1f3ba906-6e07-4370-b207-43e1aae1c14a"},"vehicle_type_id":"4","last_reported":1731092794,"current_range_meters":10800,"station_id":"ce4bgr92rcd13ifvqc6g","pricing_plan_id":"cebpf4jnsgd1na2vs0mg"},{"bike_id":"1a4cc96b-63d8-4ab9-8fc2-91d9e9b5a889","system_id":"levelo_inurba_marseille","lat":43.30917,"lon":5.36849,"is_reserved":false,"is_disabled":false,"rental_uris":{"android":"levelo://app?vid=1a4cc96b-63d8-4ab9-8fc2-91d9e9b5a889","ios":"levelo://app?vid=1a4cc96b-63d8-4ab9-8fc2-91d9e9b5a889"},"vehicle_type_id":"4","last_reported":1731092794,"current_range_meters":38400,"station_id":"ce4bgn92rcd13ifvqbvg","pricing_plan_id":"cebpf4jnsgd1na2vs0mg"},{"bike_id":"8b792342-90e2-45c5-8153-6444b1c3d7cd","system_id":"levelo_inurba_marseille","lat":43.29527,"lon":5.38546,"is_reserved":false,"is_disabled":false,"rental_uris":{"android":"levelo://app?vid=8b792342-90e2-45c5-8153-6444b1c3d7cd","ios":"levelo://app?vid=8b792342-90e2-45c5-8153-6444b1c3d7cd"},"vehicle_type_id":"4","last_reported":1731092794,"current_range_meters":38800,"station_id":"ce4bgih2rcd13ifvqba0","pricing_plan_id":"cebpf4jnsgd1na2vs0mg"},{"bike_id":"d6fdae69-642e-4d84-a8fd-edeb75ed0ef4","system_id":"levelo_inurba_marseille","lat":43.22932,"lon":5.35376,"is_reserved":false,"is_disabled":false,"rental_uris":{"android":"levelo://app?vid=d6fdae69-642e-4d84-a8fd-edeb75ed0ef4","ios":"levelo://app?vid=d6fdae69-642e-4d84-a8fd-edeb75ed0ef4"},"vehicle_type_id":"4","last_reported":1731092794,"current_range_meters":39200,"station_id":"cpo3532slgdg3j2ikp40","pricing_plan_id":"cebpf4jnsgd1na2vs0mg"},{"bike_id":"524fb560-798d-4786-b860-7275f49fd133","system_id":"levelo_inurba_marseille","lat":43.29296,"lon":5.37159,"is_reserved":false,"is_disabled":false,"rental_uris":{"android":"levelo://app?vid=524fb560-798d-4786-b860-7275f49fd133","ios":"levelo://app?vid=524fb560-798d-4786-b860-7275f49fd133"},"vehicle_type_id":"4","last_reported":1731092794,"current_range_meters":34000,"station_id":"ce4bgh92rcd13ifvqb40","pricing_plan_id":"cebpf4jnsgd1na2vs0mg"},{"bike_id":"86d64521-d332-4842-b4fb-5fa4820d8c81","system_id":"levelo_inurba_marseille","lat":43.337444,"lon":5.374475,"is_reserved":false,"is_disabled":false,"rental_uris":{"android":"levelo://app?vid=86d64521-d332-4842-b4fb-5fa4820d8c81","ios":"levelo://app?vid=86d64521-d332-4842-b4fb-5fa4820d8c81"},"vehicle_type_id":"4","last_reported":1731092794,"current_range_meters":36400,"station_id":"","pricing_plan_id":"cebpf4jnsgd1na2vs0mg"},{"bike_id":"6e3652f0-10f5-40da-8f6f-f9a8d62095fd","system_id":"levelo_inurba_marseille","lat":43.28368,"lon":5.38645,"is_reserved":false,"is_disabled":false,"rental_uris":{"android":"levelo://app?vid=6e3652f0-10f5-40da-8f6f-f9a8d62095fd","ios":"levelo://app?vid=6e3652f0-10f5-40da-8f6f-f9a8d62095fd"},"vehicle_type_id":"4","last_reported":1731092794,"current_range_meters":9600,"station_id":"ce4bh492rcd13ifvqdvg","pricing_plan_id":"cebpf4jnsgd1na2vs0mg"},{"bike_id":"561dcda3-b315-468a-84a8-7bb4d296bc0c","system_id":"levelo_inurba_marseille","lat":43.29583,"lon":5.36745,"is_reserved":false,"is_disabled":false,"rental_uris":{"android":"levelo://app?vid=561dcda3-b315-468a-84a8-7bb4d296bc0c","ios":"levelo://app?vid=561dcda3-b315-468a-84a8-7bb4d296bc0c"},"vehicle_type_id":"4","last_reported":1731092794,"current_range_meters":15200,"station_id":"ce4bgph2rcd13ifvqc2g","pricing_plan_id":"cebpf4jnsgd1na2vs0mg"},{"bike_id":"448d3bf9-78cb-439a-a23b-0e48f1b89013","system_id":"levelo_inurba_marseille","lat":43.32379,"lon":5.38895,"is_reserved":false,"is_disabled":false,"rental_uris":{"android":"levelo://app?vid=448d3bf9-78cb-439a-a23b-0e48f1b89013","ios":"levelo://app?vid=448d3bf9-78cb-439a-a23b-0e48f1b89013"},"vehicle_type_id":"4","last_reported":1731092794,"current_range_meters":16000,"station_id":"ce4bhqp2rcd13ifvqhog","pricing_plan_id":"cebpf4jnsgd1na2vs0mg"},{"bike_id":"269a5e98-c2a3-4d57-8052-1f8935a0e3f5","system_id":"levelo_inurba_marseille","lat":43.29257,"lon":5.38438,"is_reserved":false,"is_disabled":false,"rental_uris":{"android":"levelo://app?vid=269a5e98-c2a3-4d57-8052-1f8935a0e3f5","ios":"levelo://app?vid=269a5e98-c2a3-4d57-8052-1f8935a0e3f5"},"vehicle_type_id":"4","last_reported":1731092794,"current_range_meters":7200,"station_id":"ce4bh692rcd13ifvqea0","pricing_plan_id":"cebpf4jnsgd1na2vs0mg"},{"bike_id":"c03a20fa-3791-4da6-975e-2909a37834ec","system_id":"levelo_inurba_marseille","lat":43.267152,"lon":5.382415,"is_reserved":false,"is_disabled":false,"rental_uris":{"android":"levelo://app?vid=c03a20fa-3791-4da6-975e-2909a37834ec","ios":"levelo://app?vid=c03a20fa-3791-4da6-975e-2909a37834ec"},"vehicle_type_id":"4","last_reported":1731092794,"current_range_meters":34800,"station_id":"ce4bhg92rcd13ifvqf90","pricing_plan_id":"cebpf4jnsgd1na2vs0mg"},{"bike_id":"7a649100-5f06-45b3-85ee-6410ce3af0a5","system_id":"levelo_inurba_marseille","lat":43.24998,"lon":5.38924,"is_reserved":false,"is_disabled":false,"rental_uris":{"android":"levelo://app?vid=7a649100-5f06-45b3-85ee-6410ce3af0a5","ios":"levelo://app?vid=7a649100-5f06-45b3-85ee-6410ce3af0a5"},"vehicle_type_id":"4","last_reported":1731092794,"current_range_meters":37600,"station_id":"ce4bhgp2rcd13ifvqfd0","pricing_plan_id":"cebpf4jnsgd1na2vs0mg"},{"bike_id":"49e5375d-3a61-4f0c-b4f9-249ede520d54","system_id":"levelo_inurba_marseille","lat":43.27312,"lon":5.3908,"is_reserved":false,"is_disabled":false,"rental_uris":{"android":"levelo://app?vid=49e5375d-3a61-4f0c-b4f9-249ede520d54","ios":"levelo://app?vid=49e5375d-3a61-4f0c-b4f9-249ede520d54"},"vehicle_type_id":"4","last_reported":1731092794,"current_range_meters":10000,"station_id":"ce4bhgp2rcd13ifvqfe0","pricing_plan_id":"cebpf4jnsgd1na2vs0mg"},{"bike_id":"5b372420-640a-472d-9f39-1c503f1004ce","system_id":"levelo_inurba_marseille","lat":43.28994,"lon":5.35606,"is_reserved":false,"is_disabled":false,"rental_uris":{"android":"levelo://app?vid=5b372420-640a-472d-9f39-1c503f1004ce","ios":"levelo://app?vid=5b372420-640a-472d-9f39-1c503f1004ce"},"vehicle_type_id":"4","last_reported":1731092794,"current_range_meters":15200,"station_id":"ce4bhb92rcd13ifvqen0","pricing_plan_id":"cebpf4jnsgd1na2vs0mg"},{"bike_id":"9bb8c5d7-cad2-430b-8ef0-c08b020acb0c","system_id":"levelo_inurba_marseille","lat":43.26793,"lon":5.39411,"is_reserved":false,"is_disabled":false,"rental_uris":{"android":"levelo://app?vid=9bb8c5d7-cad2-430b-8ef0-c08b020acb0c","ios":"levelo://app?vid=9bb8c5d7-cad2-430b-8ef0-c08b020acb0c"},"vehicle_type_id":"4","last_reported":1731092794,"current_range_meters":30400,"station_id":"ce4bhh12rcd13ifvqfg0","pricing_plan_id":"cebpf4jnsgd1na2vs0mg"},{"bike_id":"a0d9d5ae-de17-4341-bed9-edfa4e4e8139","system_id":"levelo_inurba_marseille","lat":43.30438,"lon":5.36632,"is_reserved":false,"is_disabled":false,"rental_uris":{"android":"levelo://app?vid=a0d9d5ae-de17-4341-bed9-edfa4e4e8139","ios":"levelo://app?vid=a0d9d5ae-de17-4341-bed9-edfa4e4e8139"},"vehicle_type_id":"4","last_reported":1731092794,"current_range_meters":6800,"station_id":"","pricing_plan_id":"cebpf4jnsgd1na2vs0mg"},{"bike_id":"99e03d11-763b-4e9c-ba9a-0c9a2185b360","system_id":"levelo_inurba_marseille","lat":43.32476,"lon":5.36565,"is_reserved":false,"is_disabled":false,"rental_uris":{"android":"levelo://app?vid=99e03d11-763b-4e9c-ba9a-0c9a2185b360","ios":"levelo://app?vid=99e03d11-763b-4e9c-ba9a-0c9a2185b360"},"vehicle_type_id":"4","last_reported":1731092794,"current_range_meters":35600,"station_id":"ce4bhs12rcd13ifvqhvg","pricing_plan_id":"cebpf4jnsgd1na2vs0mg"},{"bike_id":"77579d8b-19be-49f1-81b8-797c693d2109","system_id":"levelo_inurba_marseille","lat":43.27998,"lon":5.40012,"is_reserved":false,"is_disabled":false,"rental_uris":{"android":"levelo://app?vid=77579d8b-19be-49f1-81b8-797c693d2109","ios":"levelo://app?vid=77579d8b-19be-49f1-81b8-797c693d2109"},"vehicle_type_id":"4","last_reported":1731092794,"current_range_meters":6800,"station_id":"ce4bho92rcd13ifvqh4g","pricing_plan_id":"cebpf4jnsgd1na2vs0mg"},{"bike_id":"69238ca5-0d5a-46b2-9951-7fc49ceae118","system_id":"levelo_inurba_marseille","lat":43.30151,"lon":5.38084,"is_reserved":false,"is_disabled":false,"rental_uris":{"android":"levelo://app?vid=69238ca5-0d5a-46b2-9951-7fc49ceae118","ios":"levelo://app?vid=69238ca5-0d5a-46b2-9951-7fc49ceae118"},"vehicle_type_id":"4","last_reported":1731092794,"current_range_meters":36400,"station_id":"ce4bgjp2rcd13ifvqbh0","pricing_plan_id":"cebpf4jnsgd1na2vs0mg"},{"bike_id":"9948fe99-c849-4325-b4f5-4a0727ba3775","system_id":"levelo_inurba_marseille","lat":43.33025,"lon":5.39039,"is_reserved":false,"is_disabled":false,"rental_uris":{"android":"levelo://app?vid=9948fe99-c849-4325-b4f5-4a0727ba3775","ios":"levelo://app?vid=9948fe99-c849-4325-b4f5-4a0727ba3775"},"vehicle_type_id":"4","last_reported":1731092794,"current_range_meters":25600,"station_id":"ce4bhr92rcd13ifvqhrg","pricing_plan_id":"cebpf4jnsgd1na2vs0mg"},{"bike_id":"af4daf64-18f9-41ec-b8bd-1df711ac30af","system_id":"levelo_inurba_marseille","lat":43.31218,"lon":5.36844,"is_reserved":false,"is_disabled":false,"rental_uris":{"android":"levelo://app?vid=af4daf64-18f9-41ec-b8bd-1df711ac30af","ios":"levelo://app?vid=af4daf64-18f9-41ec-b8bd-1df711ac30af"},"vehicle_type_id":"4","last_reported":1731092794,"current_range_meters":29600,"station_id":"ce4bgl92rcd13ifvqbq0","pricing_plan_id":"cebpf4jnsgd1na2vs0mg"},{"bike_id":"a51214de-a1dc-43ca-8fe5-b2b3592a748c","system_id":"levelo_inurba_marseille","lat":43.25813,"lon":5.39419,"is_reserved":false,"is_disabled":false,"rental_uris":{"android":"levelo://app?vid=a51214de-a1dc-43ca-8fe5-b2b3592a748c","ios":"levelo://app?vid=a51214de-a1dc-43ca-8fe5-b2b3592a748c"},"vehicle_type_id":"4","last_reported":1731092794,"current_range_meters":30800,"station_id":"ce4bhip2rcd13ifvqft0","pricing_plan_id":"cebpf4jnsgd1na2vs0mg"},{"bike_id":"92bbe5af-b5d9-48fc-afb8-3b15fc8d3190","system_id":"levelo_inurba_marseille","lat":43.3172,"lon":5.42408,"is_reserved":false,"is_disabled":false,"rental_uris":{"android":"levelo://app?vid=92bbe5af-b5d9-48fc-afb8-3b15fc8d3190","ios":"levelo://app?vid=92bbe5af-b5d9-48fc-afb8-3b15fc8d3190"},"vehicle_type_id":"4","last_reported":1731092794,"current_range_meters":27600,"station_id":"ce4bhp92rcd13ifvqhbg","pricing_plan_id":"cebpf4jnsgd1na2vs0mg"},{"bike_id":"766799c6-586b-4a88-8d56-fe4d76a4eacb","system_id":"levelo_inurba_marseille","lat":43.32366,"lon":5.38886,"is_reserved":false,"is_disabled":false,"rental_uris":{"android":"levelo://app?vid=766799c6-586b-4a88-8d56-fe4d76a4eacb","ios":"levelo://app?vid=766799c6-586b-4a88-8d56-fe4d76a4eacb"},"vehicle_type_id":"4","last_reported":1731092794,"current_range_meters":30400,"station_id":"ce4bhqp2rcd13ifvqhog","pricing_plan_id":"cebpf4jnsgd1na2vs0mg"},{"bike_id":"f2b48753-19da-4417-9c33-55d3019c581a","system_id":"levelo_inurba_marseille","lat":43.27995,"lon":5.40023,"is_reserved":false,"is_disabled":false,"rental_uris":{"android":"levelo://app?vid=f2b48753-19da-4417-9c33-55d3019c581a","ios":"levelo://app?vid=f2b48753-19da-4417-9c33-55d3019c581a"},"vehicle_type_id":"4","last_reported":1731092794,"current_range_meters":16000,"station_id":"ce4bho92rcd13ifvqh4g","pricing_plan_id":"cebpf4jnsgd1na2vs0mg"},{"bike_id":"1a660a56-fccd-4940-835b-fb5663da7a72","system_id":"levelo_inurba_marseille","lat":43.26673,"lon":5.38265,"is_reserved":false,"is_disabled":false,"rental_uris":{"android":"levelo://app?vid=1a660a56-fccd-4940-835b-fb5663da7a72","ios":"levelo://app?vid=1a660a56-fccd-4940-835b-fb5663da7a72"},"vehicle_type_id":"4","last_reported":1731092794,"current_range_meters":33200,"station_id":"ce4bhg92rcd13ifvqf90","pricing_plan_id":"cebpf4jnsgd1na2vs0mg"},{"bike_id":"4adc051b-cab2-444f-a4c6-933d4708baf0","system_id":"levelo_inurba_marseille","lat":43.31714,"lon":5.42398,"is_reserved":false,"is_disabled":false,"rental_uris":{"android":"levelo://app?vid=4adc051b-cab2-444f-a4c6-933d4708baf0","ios":"levelo://app?vid=4adc051b-cab2-444f-a4c6-933d4708baf0"},"vehicle_type_id":"4","last_reported":1731092794,"current_range_meters":12000,"station_id":"ce4bhp92rcd13ifvqhbg","pricing_plan_id":"cebpf4jnsgd1na2vs0mg"},{"bike_id":"bc8c65ea-340f-43bd-929c-b94baecf3659","system_id":"levelo_inurba_marseille","lat":43.24996,"lon":5.38931,"is_reserved":false,"is_disabled":false,"rental_uris":{"android":"levelo://app?vid=bc8c65ea-340f-43bd-929c-b94baecf3659","ios":"levelo://app?vid=bc8c65ea-340f-43bd-929c-b94baecf3659"},"vehicle_type_id":"4","last_reported":1731092794,"current_range_meters":30800,"station_id":"ce4bhgp2rcd13ifvqfd0","pricing_plan_id":"cebpf4jnsgd1na2vs0mg"},{"bike_id":"51077039-f16f-40c8-b3a3-43f1d712330f","system_id":"levelo_inurba_marseille","lat":43.26791,"lon":5.39412,"is_reserved":false,"is_disabled":false,"rental_uris":{"android":"levelo://app?vid=51077039-f16f-40c8-b3a3-43f1d712330f","ios":"levelo://app?vid=51077039-f16f-40c8-b3a3-43f1d712330f"},"vehicle_type_id":"4","last_reported":1731092794,"current_range_meters":17200,"station_id":"ce4bhh12rcd13ifvqfg0","pricing_plan_id":"cebpf4jnsgd1na2vs0mg"},{"bike_id":"3255d714-f850-46bb-a908-5e84096398d8","system_id":"levelo_inurba_marseille","lat":43.27995,"lon":5.40001,"is_reserved":false,"is_disabled":false,"rental_uris":{"android":"levelo://app?vid=3255d714-f850-46bb-a908-5e84096398d8","ios":"levelo://app?vid=3255d714-f850-46bb-a908-5e84096398d8"},"vehicle_type_id":"4","last_reported":1731092794,"current_range_meters":20000,"station_id":"ce4bho92rcd13ifvqh4g","pricing_plan_id":"cebpf4jnsgd1na2vs0mg"},{"bike_id":"2fb19143-7a0c-42d0-947d-4cb86b880c17","system_id":"levelo_inurba_marseille","lat":43.29419,"lon":5.38626,"is_reserved":false,"is_disabled":false,"rental_uris":{"android":"levelo://app?vid=2fb19143-7a0c-42d0-947d-4cb86b880c17","ios":"levelo://app?vid=2fb19143-7a0c-42d0-947d-4cb86b880c17"},"vehicle_type_id":"4","last_reported":1731092794,"current_range_meters":37600,"station_id":"ce4bh2h2rcd13ifvqdh0","pricing_plan_id":"cebpf4jnsgd1na2vs0mg"},{"bike_id":"88f52a5f-4acb-44b2-87b8-d0fd0b2cb235","system_id":"levelo_inurba_marseille","lat":43.26804,"lon":5.40266,"is_reserved":false,"is_disabled":false,"rental_uris":{"android":"levelo://app?vid=88f52a5f-4acb-44b2-87b8-d0fd0b2cb235","ios":"levelo://app?vid=88f52a5f-4acb-44b2-87b8-d0fd0b2cb235"},"vehicle_type_id":"4","last_reported":1731092794,"current_range_meters":28400,"station_id":"ce501612rcd8frsf0b60","pricing_plan_id":"cebpf4jnsgd1na2vs0mg"},{"bike_id":"4d8441f8-4fb5-4511-a09d-32be7916caf0","system_id":"levelo_inurba_marseille","lat":43.29974,"lon":5.37163,"is_reserved":false,"is_disabled":false,"rental_uris":{"android":"levelo://app?vid=4d8441f8-4fb5-4511-a09d-32be7916caf0","ios":"levelo://app?vid=4d8441f8-4fb5-4511-a09d-32be7916caf0"},"vehicle_type_id":"4","last_reported":1731092794,"current_range_meters":38800,"station_id":"ce4bgr92rcd13ifvqc7g","pricing_plan_id":"cebpf4jnsgd1na2vs0mg"},{"bike_id":"4113105e-5f11-4fec-b110-d8c24630e2c4","system_id":"levelo_inurba_marseille","lat":43.27211,"lon":5.39177,"is_reserved":false,"is_disabled":false,"rental_uris":{"android":"levelo://app?vid=4113105e-5f11-4fec-b110-d8c24630e2c4","ios":"levelo://app?vid=4113105e-5f11-4fec-b110-d8c24630e2c4"},"vehicle_type_id":"4","last_reported":1731092794,"current_range_meters":28000,"station_id":"ce4bhhp2rcd13ifvqfm0","pricing_plan_id":"cebpf4jnsgd1na2vs0mg"},{"bike_id":"2bbcb9cc-f8b8-4b14-879a-f3df66920005","system_id":"levelo_inurba_marseille","lat":43.31222,"lon":5.36855,"is_reserved":false,"is_disabled":false,"rental_uris":{"android":"levelo://app?vid=2bbcb9cc-f8b8-4b14-879a-f3df66920005","ios":"levelo://app?vid=2bbcb9cc-f8b8-4b14-879a-f3df66920005"},"vehicle_type_id":"4","last_reported":1731092794,"current_range_meters":19200,"station_id":"ce4bgl92rcd13ifvqbq0","pricing_plan_id":"cebpf4jnsgd1na2vs0mg"},{"bike_id":"f3fa2e9d-b1ad-49ef-b1a7-67cb4f69c01a","system_id":"levelo_inurba_marseille","lat":43.26189,"lon":5.37452,"is_reserved":false,"is_disabled":false,"rental_uris":{"android":"levelo://app?vid=f3fa2e9d-b1ad-49ef-b1a7-67cb4f69c01a","ios":"levelo://app?vid=f3fa2e9d-b1ad-49ef-b1a7-67cb4f69c01a"},"vehicle_type_id":"4","last_reported":1731092794,"current_range_meters":36800,"station_id":"ce4bhgp2rcd13ifvqfc0","pricing_plan_id":"cebpf4jnsgd1na2vs0mg"},{"bike_id":"f94bdcbe-9a46-4c5f-879c-d5fc8c43084c","system_id":"levelo_inurba_marseille","lat":43.33026,"lon":5.39039,"is_reserved":false,"is_disabled":false,"rental_uris":{"android":"levelo://app?vid=f94bdcbe-9a46-4c5f-879c-d5fc8c43084c","ios":"levelo://app?vid=f94bdcbe-9a46-4c5f-879c-d5fc8c43084c"},"vehicle_type_id":"4","last_reported":1731092794,"current_range_meters":38800,"station_id":"ce4bhr92rcd13ifvqhrg","pricing_plan_id":"cebpf4jnsgd1na2vs0mg"},{"bike_id":"b0067b94-5135-4af8-8952-029600922514","system_id":"levelo_inurba_marseille","lat":43.25869,"lon":5.39898,"is_reserved":false,"is_disabled":false,"rental_uris":{"android":"levelo://app?vid=b0067b94-5135-4af8-8952-029600922514","ios":"levelo://app?vid=b0067b94-5135-4af8-8952-029600922514"},"vehicle_type_id":"4","last_reported":1731092794,"current_range_meters":6000,"station_id":"ce4bhl92rcd13ifvqghg","pricing_plan_id":"cebpf4jnsgd1na2vs0mg"},{"bike_id":"46236b54-003d-407c-892b-fc08621a8550","system_id":"levelo_inurba_marseille","lat":43.28604,"lon":5.37058,"is_reserved":false,"is_disabled":false,"rental_uris":{"android":"levelo://app?vid=46236b54-003d-407c-892b-fc08621a8550","ios":"levelo://app?vid=46236b54-003d-407c-892b-fc08621a8550"},"vehicle_type_id":"4","last_reported":1731092794,"current_range_meters":23200,"station_id":"ce4bht12rcd13ifvqi60","pricing_plan_id":"cebpf4jnsgd1na2vs0mg"},{"bike_id":"1cc386eb-9dac-421b-8b68-bf009979a046","system_id":"levelo_inurba_marseille","lat":43.30877,"lon":5.39638,"is_reserved":false,"is_disabled":false,"rental_uris":{"android":"levelo://app?vid=1cc386eb-9dac-421b-8b68-bf009979a046","ios":"levelo://app?vid=1cc386eb-9dac-421b-8b68-bf009979a046"},"vehicle_type_id":"4","last_reported":1731092794,"current_range_meters":8000,"station_id":"ce4bh012rcd13ifvqcv0","pricing_plan_id":"cebpf4jnsgd1na2vs0mg"},{"bike_id":"ae9d8fef-154d-4809-99b6-c308924e7ae8","system_id":"levelo_inurba_marseille","lat":43.29422,"lon":5.38623,"is_reserved":false,"is_disabled":false,"rental_uris":{"android":"levelo://app?vid=ae9d8fef-154d-4809-99b6-c308924e7ae8","ios":"levelo://app?vid=ae9d8fef-154d-4809-99b6-c308924e7ae8"},"vehicle_type_id":"4","last_reported":1731092794,"current_range_meters":38800,"station_id":"ce4bh2h2rcd13ifvqdh0","pricing_plan_id":"cebpf4jnsgd1na2vs0mg"},{"bike_id":"2a6caaf6-34f1-4e12-8c9d-153fd774cf91","system_id":"levelo_inurba_marseille","lat":43.24808,"lon":5.37457,"is_reserved":false,"is_disabled":false,"rental_uris":{"android":"levelo://app?vid=2a6caaf6-34f1-4e12-8c9d-153fd774cf91","ios":"levelo://app?vid=2a6caaf6-34f1-4e12-8c9d-153fd774cf91"},"vehicle_type_id":"4","last_reported":1731092794,"current_range_meters":27600,"station_id":"ce4bhgh2rcd13ifvqfb0","pricing_plan_id":"cebpf4jnsgd1na2vs0mg"},{"bike_id":"5ce8e61c-3342-4241-b80c-2e4895aa2f21","system_id":"levelo_inurba_marseille","lat":43.29519,"lon":5.38534,"is_reserved":false,"is_disabled":false,"rental_uris":{"android":"levelo://app?vid=5ce8e61c-3342-4241-b80c-2e4895aa2f21","ios":"levelo://app?vid=5ce8e61c-3342-4241-b80c-2e4895aa2f21"},"vehicle_type_id":"4","last_reported":1731092794,"current_range_meters":10800,"station_id":"ce4bgih2rcd13ifvqba0","pricing_plan_id":"cebpf4jnsgd1na2vs0mg"},{"bike_id":"6dff1885-15b3-4a8b-86f4-def77a197e46","system_id":"levelo_inurba_marseille","lat":43.29849,"lon":5.36286,"is_reserved":false,"is_disabled":false,"rental_uris":{"android":"levelo://app?vid=6dff1885-15b3-4a8b-86f4-def77a197e46","ios":"levelo://app?vid=6dff1885-15b3-4a8b-86f4-def77a197e46"},"vehicle_type_id":"4","last_reported":1731092794,"current_range_meters":38800,"station_id":"ce4bgpp2rcd13ifvqc3g","pricing_plan_id":"cebpf4jnsgd1na2vs0mg"},{"bike_id":"1ec34cec-b291-4b82-8234-762765a89749","system_id":"levelo_inurba_marseille","lat":43.2694,"lon":5.40254,"is_reserved":false,"is_disabled":false,"rental_uris":{"android":"levelo://app?vid=1ec34cec-b291-4b82-8234-762765a89749","ios":"levelo://app?vid=1ec34cec-b291-4b82-8234-762765a89749"},"vehicle_type_id":"4","last_reported":1731092794,"current_range_meters":24400,"station_id":"cjm6bp8fraef2m0cb0m0","pricing_plan_id":"cebpf4jnsgd1na2vs0mg"},{"bike_id":"cf288c2a-669a-4f3d-9675-1ee72c7ac844","system_id":"levelo_inurba_marseille","lat":43.31331,"lon":5.39698,"is_reserved":false,"is_disabled":false,"rental_uris":{"android":"levelo://app?vid=cf288c2a-669a-4f3d-9675-1ee72c7ac844","ios":"levelo://app?vid=cf288c2a-669a-4f3d-9675-1ee72c7ac844"},"vehicle_type_id":"4","last_reported":1731092794,"current_range_meters":20800,"station_id":"ce4bgvp2rcd13ifvqcu0","pricing_plan_id":"cebpf4jnsgd1na2vs0mg"},{"bike_id":"ff989801-f59b-46d1-867b-7c2b6eab1cca","system_id":"levelo_inurba_marseille","lat":43.337444,"lon":5.374475,"is_reserved":false,"is_disabled":false,"rental_uris":{"android":"levelo://app?vid=ff989801-f59b-46d1-867b-7c2b6eab1cca","ios":"levelo://app?vid=ff989801-f59b-46d1-867b-7c2b6eab1cca"},"vehicle_type_id":"4","last_reported":1731092794,"current_range_meters":36800,"station_id":"","pricing_plan_id":"cebpf4jnsgd1na2vs0mg"},{"bike_id":"21a2d68f-04cb-4377-a541-25bbae46d4e1","system_id":"levelo_inurba_marseille","lat":43.27998,"lon":5.40017,"is_reserved":false,"is_disabled":false,"rental_uris":{"android":"levelo://app?vid=21a2d68f-04cb-4377-a541-25bbae46d4e1","ios":"levelo://app?vid=21a2d68f-04cb-4377-a541-25bbae46d4e1"},"vehicle_type_id":"4","last_reported":1731092794,"current_range_meters":6800,"station_id":"ce4bho92rcd13ifvqh4g","pricing_plan_id":"cebpf4jnsgd1na2vs0mg"},{"bike_id":"9d5d59d0-d3d9-492e-b9cc-e20201e0c6c4","system_id":"levelo_inurba_marseille","lat":43.26939,"lon":5.40259,"is_reserved":false,"is_disabled":false,"rental_uris":{"android":"levelo://app?vid=9d5d59d0-d3d9-492e-b9cc-e20201e0c6c4","ios":"levelo://app?vid=9d5d59d0-d3d9-492e-b9cc-e20201e0c6c4"},"vehicle_type_id":"4","last_reported":1731092794,"current_range_meters":14800,"station_id":"cjm6bp8fraef2m0cb0m0","pricing_plan_id":"cebpf4jnsgd1na2vs0mg"},{"bike_id":"7a111f95-0e6e-4864-809a-a23d3dc8fce5","system_id":"levelo_inurba_marseille","lat":43.27998,"lon":5.40014,"is_reserved":false,"is_disabled":false,"rental_uris":{"android":"levelo://app?vid=7a111f95-0e6e-4864-809a-a23d3dc8fce5","ios":"levelo://app?vid=7a111f95-0e6e-4864-809a-a23d3dc8fce5"},"vehicle_type_id":"4","last_reported":1731092794,"current_range_meters":39200,"station_id":"ce4bho92rcd13ifvqh4g","pricing_plan_id":"cebpf4jnsgd1na2vs0mg"},{"bike_id":"cfe894de-4a81-4056-877f-ac9953747d71","system_id":"levelo_inurba_marseille","lat":43.27422,"lon":5.39414,"is_reserved":false,"is_disabled":false,"rental_uris":{"android":"levelo://app?vid=cfe894de-4a81-4056-877f-ac9953747d71","ios":"levelo://app?vid=cfe894de-4a81-4056-877f-ac9953747d71"},"vehicle_type_id":"4","last_reported":1731092794,"current_range_meters":34800,"station_id":"ce4bhdp2rcd13ifvqf20","pricing_plan_id":"cebpf4jnsgd1na2vs0mg"},{"bike_id":"a77eecaa-6b97-4428-9c77-06e3c5a949fb","system_id":"levelo_inurba_marseille","lat":43.29289,"lon":5.37464,"is_reserved":false,"is_disabled":false,"rental_uris":{"android":"levelo://app?vid=a77eecaa-6b97-4428-9c77-06e3c5a949fb","ios":"levelo://app?vid=a77eecaa-6b97-4428-9c77-06e3c5a949fb"},"vehicle_type_id":"4","last_reported":1731092794,"current_range_meters":3600,"station_id":"ce4bgi12rcd13ifvqb70","pricing_plan_id":"cebpf4jnsgd1na2vs0mg"},{"bike_id":"d115c69c-dc61-4019-86ca-8f3ef1285cfb","system_id":"levelo_inurba_marseille","lat":43.22927,"lon":5.35378,"is_reserved":false,"is_disabled":false,"rental_uris":{"android":"levelo://app?vid=d115c69c-dc61-4019-86ca-8f3ef1285cfb","ios":"levelo://app?vid=d115c69c-dc61-4019-86ca-8f3ef1285cfb"},"vehicle_type_id":"4","last_reported":1731092794,"current_range_meters":36000,"station_id":"cpo3532slgdg3j2ikp40","pricing_plan_id":"cebpf4jnsgd1na2vs0mg"},{"bike_id":"0361b4f1-40e1-43b7-8a6f-c28564b4da09","system_id":"levelo_inurba_marseille","lat":43.29245,"lon":5.3843,"is_reserved":false,"is_disabled":false,"rental_uris":{"android":"levelo://app?vid=0361b4f1-40e1-43b7-8a6f-c28564b4da09","ios":"levelo://app?vid=0361b4f1-40e1-43b7-8a6f-c28564b4da09"},"vehicle_type_id":"4","last_reported":1731092794,"current_range_meters":20800,"station_id":"ce4bh692rcd13ifvqea0","pricing_plan_id":"cebpf4jnsgd1na2vs0mg"},{"bike_id":"78c5160a-771f-4dfb-b625-ac1e40749dc9","system_id":"levelo_inurba_marseille","lat":43.30273,"lon":5.36875,"is_reserved":false,"is_disabled":false,"rental_uris":{"android":"levelo://app?vid=78c5160a-771f-4dfb-b625-ac1e40749dc9","ios":"levelo://app?vid=78c5160a-771f-4dfb-b625-ac1e40749dc9"},"vehicle_type_id":"4","last_reported":1731092794,"current_range_meters":30800,"station_id":"ce4bgqh2rcd13ifvqc5g","pricing_plan_id":"cebpf4jnsgd1na2vs0mg"},{"bike_id":"be94c940-c56d-4132-af66-fedb762b3e0f","system_id":"levelo_inurba_marseille","lat":43.2319,"lon":5.35557,"is_reserved":false,"is_disabled":false,"rental_uris":{"android":"levelo://app?vid=be94c940-c56d-4132-af66-fedb762b3e0f","ios":"levelo://app?vid=be94c940-c56d-4132-af66-fedb762b3e0f"},"vehicle_type_id":"4","last_reported":1731092794,"current_range_meters":38800,"station_id":"ce4bhu92rcd13ifvqi70","pricing_plan_id":"cebpf4jnsgd1na2vs0mg"},{"bike_id":"6ba9ca98-cdab-46e8-bcb3-d22861a3b09f","system_id":"levelo_inurba_marseille","lat":43.26212,"lon":5.37442,"is_reserved":false,"is_disabled":false,"rental_uris":{"android":"levelo://app?vid=6ba9ca98-cdab-46e8-bcb3-d22861a3b09f","ios":"levelo://app?vid=6ba9ca98-cdab-46e8-bcb3-d22861a3b09f"},"vehicle_type_id":"4","last_reported":1731092794,"current_range_meters":36400,"station_id":"ce4bhgp2rcd13ifvqfc0","pricing_plan_id":"cebpf4jnsgd1na2vs0mg"},{"bike_id":"2f50d96b-cc66-4d3c-a0f2-c895cc6eafff","system_id":"levelo_inurba_marseille","lat":43.31334,"lon":5.39685,"is_reserved":false,"is_disabled":false,"rental_uris":{"android":"levelo://app?vid=2f50d96b-cc66-4d3c-a0f2-c895cc6eafff","ios":"levelo://app?vid=2f50d96b-cc66-4d3c-a0f2-c895cc6eafff"},"vehicle_type_id":"4","last_reported":1731092794,"current_range_meters":13600,"station_id":"ce4bgvp2rcd13ifvqcu0","pricing_plan_id":"cebpf4jnsgd1na2vs0mg"},{"bike_id":"73a2fecc-8ffd-4864-a14b-7a5b0d425dbd","system_id":"levelo_inurba_marseille","lat":43.27051,"lon":5.40261,"is_reserved":false,"is_disabled":false,"rental_uris":{"android":"levelo://app?vid=73a2fecc-8ffd-4864-a14b-7a5b0d425dbd","ios":"levelo://app?vid=73a2fecc-8ffd-4864-a14b-7a5b0d425dbd"},"vehicle_type_id":"4","last_reported":1731092794,"current_range_meters":34800,"station_id":"ce4bhk92rcd13ifvqgc0","pricing_plan_id":"cebpf4jnsgd1na2vs0mg"},{"bike_id":"dc8b6b7f-5b62-41a6-b1f7-6ec941a004e3","system_id":"levelo_inurba_marseille","lat":43.27815,"lon":5.40711,"is_reserved":false,"is_disabled":false,"rental_uris":{"android":"levelo://app?vid=dc8b6b7f-5b62-41a6-b1f7-6ec941a004e3","ios":"levelo://app?vid=dc8b6b7f-5b62-41a6-b1f7-6ec941a004e3"},"vehicle_type_id":"4","last_reported":1731092794,"current_range_meters":33200,"station_id":"ce4bhnh2rcd13ifvqgtg","pricing_plan_id":"cebpf4jnsgd1na2vs0mg"},{"bike_id":"1b5044ff-9ed0-4b12-a6de-53d067c7e05d","system_id":"levelo_inurba_marseille","lat":43.29763,"lon":5.37104,"is_reserved":false,"is_disabled":false,"rental_uris":{"android":"levelo://app?vid=1b5044ff-9ed0-4b12-a6de-53d067c7e05d","ios":"levelo://app?vid=1b5044ff-9ed0-4b12-a6de-53d067c7e05d"},"vehicle_type_id":"4","last_reported":1731092794,"current_range_meters":39200,"station_id":"ce4bgop2rcd13ifvqc1g","pricing_plan_id":"cebpf4jnsgd1na2vs0mg"},{"bike_id":"89d5b1ef-4df5-4200-ae49-4cb2f2259b44","system_id":"levelo_inurba_marseille","lat":43.272118,"lon":5.391834,"is_reserved":false,"is_disabled":false,"rental_uris":{"android":"levelo://app?vid=89d5b1ef-4df5-4200-ae49-4cb2f2259b44","ios":"levelo://app?vid=89d5b1ef-4df5-4200-ae49-4cb2f2259b44"},"vehicle_type_id":"4","last_reported":1731092794,"current_range_meters":19600,"station_id":"ce4bhhp2rcd13ifvqfm0","pricing_plan_id":"cebpf4jnsgd1na2vs0mg"},{"bike_id":"8d9907b8-c5d9-4917-bc3a-078a23921f15","system_id":"levelo_inurba_marseille","lat":43.26936,"lon":5.40247,"is_reserved":false,"is_disabled":false,"rental_uris":{"android":"levelo://app?vid=8d9907b8-c5d9-4917-bc3a-078a23921f15","ios":"levelo://app?vid=8d9907b8-c5d9-4917-bc3a-078a23921f15"},"vehicle_type_id":"4","last_reported":1731092794,"current_range_meters":33600,"station_id":"cjm6bp8fraef2m0cb0m0","pricing_plan_id":"cebpf4jnsgd1na2vs0mg"},{"bike_id":"58fa0043-c06d-4dc0-a6cf-b530db387a61","system_id":"levelo_inurba_marseille","lat":43.27675,"lon":5.38876,"is_reserved":false,"is_disabled":false,"rental_uris":{"android":"levelo://app?vid=58fa0043-c06d-4dc0-a6cf-b530db387a61","ios":"levelo://app?vid=58fa0043-c06d-4dc0-a6cf-b530db387a61"},"vehicle_type_id":"4","last_reported":1731092794,"current_range_meters":11200,"station_id":"ce4bhi12rcd13ifvqfo0","pricing_plan_id":"cebpf4jnsgd1na2vs0mg"},{"bike_id":"1b9655c3-da19-4993-b463-4bd7234cf5a0","system_id":"levelo_inurba_marseille","lat":43.29016,"lon":5.37562,"is_reserved":false,"is_disabled":false,"rental_uris":{"android":"levelo://app?vid=1b9655c3-da19-4993-b463-4bd7234cf5a0","ios":"levelo://app?vid=1b9655c3-da19-4993-b463-4bd7234cf5a0"},"vehicle_type_id":"4","last_reported":1731092794,"current_range_meters":23200,"station_id":"ce4bh692rcd13ifvqe90","pricing_plan_id":"cebpf4jnsgd1na2vs0mg"},{"bike_id":"1d46a855-bc25-4c0f-82b0-7744f9a8f5a4","system_id":"levelo_inurba_marseille","lat":43.29366,"lon":5.37849,"is_reserved":false,"is_disabled":false,"rental_uris":{"android":"levelo://app?vid=1d46a855-bc25-4c0f-82b0-7744f9a8f5a4","ios":"levelo://app?vid=1d46a855-bc25-4c0f-82b0-7744f9a8f5a4"},"vehicle_type_id":"4","last_reported":1731092794,"current_range_meters":5600,"station_id":"ce4bgjh2rcd13ifvqbf0","pricing_plan_id":"cebpf4jnsgd1na2vs0mg"},{"bike_id":"e8c4323a-8226-48f9-a2d8-aa54f0635b3b","system_id":"levelo_inurba_marseille","lat":43.30315,"lon":5.39205,"is_reserved":false,"is_disabled":false,"rental_uris":{"android":"levelo://app?vid=e8c4323a-8226-48f9-a2d8-aa54f0635b3b","ios":"levelo://app?vid=e8c4323a-8226-48f9-a2d8-aa54f0635b3b"},"vehicle_type_id":"4","last_reported":1731092794,"current_range_meters":18800,"station_id":"ce4bgkh2rcd13ifvqbk0","pricing_plan_id":"cebpf4jnsgd1na2vs0mg"},{"bike_id":"ec9282d1-72a3-450d-9fc7-70f2e917175a","system_id":"levelo_inurba_marseille","lat":43.25004,"lon":5.38914,"is_reserved":false,"is_disabled":false,"rental_uris":{"android":"levelo://app?vid=ec9282d1-72a3-450d-9fc7-70f2e917175a","ios":"levelo://app?vid=ec9282d1-72a3-450d-9fc7-70f2e917175a"},"vehicle_type_id":"4","last_reported":1731092794,"current_range_meters":34800,"station_id":"ce4bhgp2rcd13ifvqfd0","pricing_plan_id":"cebpf4jnsgd1na2vs0mg"},{"bike_id":"290a8601-ce40-429c-85ab-3bf527aed84d","system_id":"levelo_inurba_marseille","lat":43.28417,"lon":5.34973,"is_reserved":false,"is_disabled":false,"rental_uris":{"android":"levelo://app?vid=290a8601-ce40-429c-85ab-3bf527aed84d","ios":"levelo://app?vid=290a8601-ce40-429c-85ab-3bf527aed84d"},"vehicle_type_id":"4","last_reported":1731092794,"current_range_meters":18000,"station_id":"ce4bhbh2rcd13ifvqepg","pricing_plan_id":"cebpf4jnsgd1na2vs0mg"},{"bike_id":"02f3bd69-c440-439f-96d2-1f56246cbb70","system_id":"levelo_inurba_marseille","lat":43.23055,"lon":5.35489,"is_reserved":false,"is_disabled":false,"rental_uris":{"android":"levelo://app?vid=02f3bd69-c440-439f-96d2-1f56246cbb70","ios":"levelo://app?vid=02f3bd69-c440-439f-96d2-1f56246cbb70"},"vehicle_type_id":"4","last_reported":1731092794,"current_range_meters":30800,"station_id":"cpo3342slgdg3j2ifvpg","pricing_plan_id":"cebpf4jnsgd1na2vs0mg"},{"bike_id":"033097e6-de3d-44fa-a83d-d8ef134dc263","system_id":"levelo_inurba_marseille","lat":43.29362,"lon":5.37856,"is_reserved":false,"is_disabled":false,"rental_uris":{"android":"levelo://app?vid=033097e6-de3d-44fa-a83d-d8ef134dc263","ios":"levelo://app?vid=033097e6-de3d-44fa-a83d-d8ef134dc263"},"vehicle_type_id":"4","last_reported":1731092794,"current_range_meters":29600,"station_id":"ce4bgjh2rcd13ifvqbf0","pricing_plan_id":"cebpf4jnsgd1na2vs0mg"},{"bike_id":"f397d829-ec1b-4fa5-bd8d-72f9273b5813","system_id":"levelo_inurba_marseille","lat":43.29256,"lon":5.38447,"is_reserved":false,"is_disabled":false,"rental_uris":{"android":"levelo://app?vid=f397d829-ec1b-4fa5-bd8d-72f9273b5813","ios":"levelo://app?vid=f397d829-ec1b-4fa5-bd8d-72f9273b5813"},"vehicle_type_id":"4","last_reported":1731092794,"current_range_meters":36400,"station_id":"ce4bh692rcd13ifvqea0","pricing_plan_id":"cebpf4jnsgd1na2vs0mg"},{"bike_id":"04c33c41-7d2c-4ad1-9547-7c592fdb82f1","system_id":"levelo_inurba_marseille","lat":43.31748,"lon":5.39019,"is_reserved":false,"is_disabled":false,"rental_uris":{"android":"levelo://app?vid=04c33c41-7d2c-4ad1-9547-7c592fdb82f1","ios":"levelo://app?vid=04c33c41-7d2c-4ad1-9547-7c592fdb82f1"},"vehicle_type_id":"4","last_reported":1731092794,"current_range_meters":37600,"station_id":"ce4bhqp2rcd13ifvqhng","pricing_plan_id":"cebpf4jnsgd1na2vs0mg"},{"bike_id":"a842f678-5646-44f0-8a4d-392643bfb6e8","system_id":"levelo_inurba_marseille","lat":43.27204,"lon":5.39174,"is_reserved":false,"is_disabled":false,"rental_uris":{"android":"levelo://app?vid=a842f678-5646-44f0-8a4d-392643bfb6e8","ios":"levelo://app?vid=a842f678-5646-44f0-8a4d-392643bfb6e8"},"vehicle_type_id":"4","last_reported":1731092794,"current_range_meters":30400,"station_id":"ce4bhhp2rcd13ifvqfm0","pricing_plan_id":"cebpf4jnsgd1na2vs0mg"},{"bike_id":"2cc3a499-dcb5-48f3-b2f3-80d8e1b5bd1b","system_id":"levelo_inurba_marseille","lat":43.296612,"lon":5.378464,"is_reserved":false,"is_disabled":false,"rental_uris":{"android":"levelo://app?vid=2cc3a499-dcb5-48f3-b2f3-80d8e1b5bd1b","ios":"levelo://app?vid=2cc3a499-dcb5-48f3-b2f3-80d8e1b5bd1b"},"vehicle_type_id":"4","last_reported":1731092794,"current_range_meters":32400,"station_id":"ce4bgi92rcd13ifvqb90","pricing_plan_id":"cebpf4jnsgd1na2vs0mg"},{"bike_id":"7e8d6a90-f792-4a95-9015-81871beb55ba","system_id":"levelo_inurba_marseille","lat":43.26553,"lon":5.37286,"is_reserved":false,"is_disabled":false,"rental_uris":{"android":"levelo://app?vid=7e8d6a90-f792-4a95-9015-81871beb55ba","ios":"levelo://app?vid=7e8d6a90-f792-4a95-9015-81871beb55ba"},"vehicle_type_id":"4","last_reported":1731092794,"current_range_meters":34000,"station_id":"ce4bhg12rcd13ifvqf70","pricing_plan_id":"cebpf4jnsgd1na2vs0mg"},{"bike_id":"b1ec116a-76f2-4eee-8b23-80d7665d58d9","system_id":"levelo_inurba_marseille","lat":43.31712,"lon":5.43704,"is_reserved":false,"is_disabled":false,"rental_uris":{"android":"levelo://app?vid=b1ec116a-76f2-4eee-8b23-80d7665d58d9","ios":"levelo://app?vid=b1ec116a-76f2-4eee-8b23-80d7665d58d9"},"vehicle_type_id":"4","last_reported":1731092794,"current_range_meters":25200,"station_id":"ce4bhp92rcd13ifvqhcg","pricing_plan_id":"cebpf4jnsgd1na2vs0mg"},{"bike_id":"c3cae747-1840-4e85-b0e3-f2a4aea40a4a","system_id":"levelo_inurba_marseille","lat":43.31339,"lon":5.39141,"is_reserved":false,"is_disabled":false,"rental_uris":{"android":"levelo://app?vid=c3cae747-1840-4e85-b0e3-f2a4aea40a4a","ios":"levelo://app?vid=c3cae747-1840-4e85-b0e3-f2a4aea40a4a"},"vehicle_type_id":"4","last_reported":1731092794,"current_range_meters":8000,"station_id":"","pricing_plan_id":"cebpf4jnsgd1na2vs0mg"},{"bike_id":"44a69c4b-44cf-4090-a9a4-2176c77c6afd","system_id":"levelo_inurba_marseille","lat":43.24556,"lon":5.39524,"is_reserved":false,"is_disabled":false,"rental_uris":{"android":"levelo://app?vid=44a69c4b-44cf-4090-a9a4-2176c77c6afd","ios":"levelo://app?vid=44a69c4b-44cf-4090-a9a4-2176c77c6afd"},"vehicle_type_id":"4","last_reported":1731092794,"current_range_meters":2800,"station_id":"ce4bhlp2rcd13ifvqgjg","pricing_plan_id":"cebpf4jnsgd1na2vs0mg"},{"bike_id":"d76d317d-40cb-4c09-bfb6-86ac752753c3","system_id":"levelo_inurba_marseille","lat":43.28001,"lon":5.40012,"is_reserved":false,"is_disabled":false,"rental_uris":{"android":"levelo://app?vid=d76d317d-40cb-4c09-bfb6-86ac752753c3","ios":"levelo://app?vid=d76d317d-40cb-4c09-bfb6-86ac752753c3"},"vehicle_type_id":"4","last_reported":1731092794,"current_range_meters":36800,"station_id":"ce4bho92rcd13ifvqh4g","pricing_plan_id":"cebpf4jnsgd1na2vs0mg"},{"bike_id":"33c17b9d-5a30-44e0-813b-0af48e9d677b","system_id":"levelo_inurba_marseille","lat":43.28066,"lon":5.39661,"is_reserved":false,"is_disabled":false,"rental_uris":{"android":"levelo://app?vid=33c17b9d-5a30-44e0-813b-0af48e9d677b","ios":"levelo://app?vid=33c17b9d-5a30-44e0-813b-0af48e9d677b"},"vehicle_type_id":"4","last_reported":1731092794,"current_range_meters":16800,"station_id":"ce4bho12rcd13ifvqh2g","pricing_plan_id":"cebpf4jnsgd1na2vs0mg"},{"bike_id":"d2abf79a-e626-4f31-9a11-682d1bbde0f6","system_id":"levelo_inurba_marseille","lat":43.27432,"lon":5.39414,"is_reserved":false,"is_disabled":false,"rental_uris":{"android":"levelo://app?vid=d2abf79a-e626-4f31-9a11-682d1bbde0f6","ios":"levelo://app?vid=d2abf79a-e626-4f31-9a11-682d1bbde0f6"},"vehicle_type_id":"4","last_reported":1731092794,"current_range_meters":38800,"station_id":"ce4bhdp2rcd13ifvqf20","pricing_plan_id":"cebpf4jnsgd1na2vs0mg"},{"bike_id":"0439bb19-1db6-4b5a-8ad1-a860e96d1d70","system_id":"levelo_inurba_marseille","lat":43.27317,"lon":5.39065,"is_reserved":false,"is_disabled":false,"rental_uris":{"android":"levelo://app?vid=0439bb19-1db6-4b5a-8ad1-a860e96d1d70","ios":"levelo://app?vid=0439bb19-1db6-4b5a-8ad1-a860e96d1d70"},"vehicle_type_id":"4","last_reported":1731092794,"current_range_meters":28800,"station_id":"ce4bhgp2rcd13ifvqfe0","pricing_plan_id":"cebpf4jnsgd1na2vs0mg"},{"bike_id":"526c0f5f-85b8-4acb-82ae-2bf4d2413f48","system_id":"levelo_inurba_marseille","lat":43.31883,"lon":5.40736,"is_reserved":false,"is_disabled":false,"rental_uris":{"android":"levelo://app?vid=526c0f5f-85b8-4acb-82ae-2bf4d2413f48","ios":"levelo://app?vid=526c0f5f-85b8-4acb-82ae-2bf4d2413f48"},"vehicle_type_id":"4","last_reported":1731092794,"current_range_meters":9600,"station_id":"ce4bhq12rcd13ifvqhig","pricing_plan_id":"cebpf4jnsgd1na2vs0mg"},{"bike_id":"b7fbbd83-4fff-49f5-a5d6-5bb7a0338a78","system_id":"levelo_inurba_marseille","lat":43.283444,"lon":5.381025,"is_reserved":false,"is_disabled":false,"rental_uris":{"android":"levelo://app?vid=b7fbbd83-4fff-49f5-a5d6-5bb7a0338a78","ios":"levelo://app?vid=b7fbbd83-4fff-49f5-a5d6-5bb7a0338a78"},"vehicle_type_id":"4","last_reported":1731092794,"current_range_meters":9200,"station_id":"ce4bh412rcd13ifvqdr0","pricing_plan_id":"cebpf4jnsgd1na2vs0mg"},{"bike_id":"da2a1d33-2479-4d48-8d90-9ac7495be367","system_id":"levelo_inurba_marseille","lat":43.30801,"lon":5.43521,"is_reserved":false,"is_disabled":false,"rental_uris":{"android":"levelo://app?vid=da2a1d33-2479-4d48-8d90-9ac7495be367","ios":"levelo://app?vid=da2a1d33-2479-4d48-8d90-9ac7495be367"},"vehicle_type_id":"4","last_reported":1731092794,"current_range_meters":25200,"station_id":"ce4bhph2rcd13ifvqheg","pricing_plan_id":"cebpf4jnsgd1na2vs0mg"},{"bike_id":"d07f578e-415c-455e-8fb0-751c9e5de7e9","system_id":"levelo_inurba_marseille","lat":43.30657,"lon":5.40099,"is_reserved":false,"is_disabled":false,"rental_uris":{"android":"levelo://app?vid=d07f578e-415c-455e-8fb0-751c9e5de7e9","ios":"levelo://app?vid=d07f578e-415c-455e-8fb0-751c9e5de7e9"},"vehicle_type_id":"4","last_reported":1731092794,"current_range_meters":29600,"station_id":"ce4bh112rcd13ifvqda0","pricing_plan_id":"cebpf4jnsgd1na2vs0mg"},{"bike_id":"82ee39fb-80cb-45e2-96fc-f298d0e6d2de","system_id":"levelo_inurba_marseille","lat":43.32482,"lon":5.36571,"is_reserved":false,"is_disabled":false,"rental_uris":{"android":"levelo://app?vid=82ee39fb-80cb-45e2-96fc-f298d0e6d2de","ios":"levelo://app?vid=82ee39fb-80cb-45e2-96fc-f298d0e6d2de"},"vehicle_type_id":"4","last_reported":1731092794,"current_range_meters":38400,"station_id":"ce4bhs12rcd13ifvqhvg","pricing_plan_id":"cebpf4jnsgd1na2vs0mg"},{"bike_id":"3551d5a2-e8b0-4911-9469-9a6bf6a7dfc8","system_id":"levelo_inurba_marseille","lat":43.23195,"lon":5.35555,"is_reserved":false,"is_disabled":false,"rental_uris":{"android":"levelo://app?vid=3551d5a2-e8b0-4911-9469-9a6bf6a7dfc8","ios":"levelo://app?vid=3551d5a2-e8b0-4911-9469-9a6bf6a7dfc8"},"vehicle_type_id":"4","last_reported":1731092794,"current_range_meters":35200,"station_id":"ce4bhu92rcd13ifvqi70","pricing_plan_id":"cebpf4jnsgd1na2vs0mg"},{"bike_id":"dd4b8ccc-9881-431f-a809-2464311b340f","system_id":"levelo_inurba_marseille","lat":43.2942,"lon":5.38627,"is_reserved":false,"is_disabled":false,"rental_uris":{"android":"levelo://app?vid=dd4b8ccc-9881-431f-a809-2464311b340f","ios":"levelo://app?vid=dd4b8ccc-9881-431f-a809-2464311b340f"},"vehicle_type_id":"4","last_reported":1731092794,"current_range_meters":26000,"station_id":"ce4bh2h2rcd13ifvqdh0","pricing_plan_id":"cebpf4jnsgd1na2vs0mg"},{"bike_id":"e6e58508-e21b-487a-ad8c-b0280617f0d6","system_id":"levelo_inurba_marseille","lat":43.29792,"lon":5.38105,"is_reserved":false,"is_disabled":false,"rental_uris":{"android":"levelo://app?vid=e6e58508-e21b-487a-ad8c-b0280617f0d6","ios":"levelo://app?vid=e6e58508-e21b-487a-ad8c-b0280617f0d6"},"vehicle_type_id":"4","last_reported":1731092794,"current_range_meters":31200,"station_id":"ce4bgip2rcd13ifvqbb0","pricing_plan_id":"cebpf4jnsgd1na2vs0mg"},{"bike_id":"c0a52d17-cbb9-4fc8-81d7-31b6a7874899","system_id":"levelo_inurba_marseille","lat":43.23966,"lon":5.36636,"is_reserved":false,"is_disabled":false,"rental_uris":{"android":"levelo://app?vid=c0a52d17-cbb9-4fc8-81d7-31b6a7874899","ios":"levelo://app?vid=c0a52d17-cbb9-4fc8-81d7-31b6a7874899"},"vehicle_type_id":"4","last_reported":1731092794,"current_range_meters":28800,"station_id":"ce4bhi12rcd13ifvqfp0","pricing_plan_id":"cebpf4jnsgd1na2vs0mg"},{"bike_id":"af087737-82ff-43a7-925e-78bce74e231b","system_id":"levelo_inurba_marseille","lat":43.272083,"lon":5.391871,"is_reserved":false,"is_disabled":false,"rental_uris":{"android":"levelo://app?vid=af087737-82ff-43a7-925e-78bce74e231b","ios":"levelo://app?vid=af087737-82ff-43a7-925e-78bce74e231b"},"vehicle_type_id":"4","last_reported":1731092794,"current_range_meters":18000,"station_id":"ce4bhhp2rcd13ifvqfm0","pricing_plan_id":"cebpf4jnsgd1na2vs0mg"},{"bike_id":"4c07837e-0d50-4e06-b253-03141c23a37b","system_id":"levelo_inurba_marseille","lat":43.32479,"lon":5.36557,"is_reserved":false,"is_disabled":false,"rental_uris":{"android":"levelo://app?vid=4c07837e-0d50-4e06-b253-03141c23a37b","ios":"levelo://app?vid=4c07837e-0d50-4e06-b253-03141c23a37b"},"vehicle_type_id":"4","last_reported":1731092794,"current_range_meters":24400,"station_id":"ce4bhs12rcd13ifvqhvg","pricing_plan_id":"cebpf4jnsgd1na2vs0mg"},{"bike_id":"0cbf4ecc-0d41-4297-b64a-e183ad781fea","system_id":"levelo_inurba_marseille","lat":43.25819,"lon":5.39437,"is_reserved":false,"is_disabled":false,"rental_uris":{"android":"levelo://app?vid=0cbf4ecc-0d41-4297-b64a-e183ad781fea","ios":"levelo://app?vid=0cbf4ecc-0d41-4297-b64a-e183ad781fea"},"vehicle_type_id":"4","last_reported":1731092794,"current_range_meters":5600,"station_id":"ce4bhip2rcd13ifvqft0","pricing_plan_id":"cebpf4jnsgd1na2vs0mg"},{"bike_id":"afbaee43-3077-47c4-825d-31878e8cdd00","system_id":"levelo_inurba_marseille","lat":43.27179,"lon":5.40998,"is_reserved":false,"is_disabled":false,"rental_uris":{"android":"levelo://app?vid=afbaee43-3077-47c4-825d-31878e8cdd00","ios":"levelo://app?vid=afbaee43-3077-47c4-825d-31878e8cdd00"},"vehicle_type_id":"4","last_reported":1731092794,"current_range_meters":22400,"station_id":"ce4bhl12rcd13ifvqgf0","pricing_plan_id":"cebpf4jnsgd1na2vs0mg"},{"bike_id":"0faf5887-29e6-4c5e-8f06-6c671e19bff3","system_id":"levelo_inurba_marseille","lat":43.27994,"lon":5.40011,"is_reserved":false,"is_disabled":false,"rental_uris":{"android":"levelo://app?vid=0faf5887-29e6-4c5e-8f06-6c671e19bff3","ios":"levelo://app?vid=0faf5887-29e6-4c5e-8f06-6c671e19bff3"},"vehicle_type_id":"4","last_reported":1731092794,"current_range_meters":2800,"station_id":"ce4bho92rcd13ifvqh4g","pricing_plan_id":"cebpf4jnsgd1na2vs0mg"},{"bike_id":"ee3b47d5-0cc4-44c8-8ca7-ba29dcbcdc62","system_id":"levelo_inurba_marseille","lat":43.32363,"lon":5.3889,"is_reserved":false,"is_disabled":false,"rental_uris":{"android":"levelo://app?vid=ee3b47d5-0cc4-44c8-8ca7-ba29dcbcdc62","ios":"levelo://app?vid=ee3b47d5-0cc4-44c8-8ca7-ba29dcbcdc62"},"vehicle_type_id":"4","last_reported":1731092794,"current_range_meters":30800,"station_id":"ce4bhqp2rcd13ifvqhog","pricing_plan_id":"cebpf4jnsgd1na2vs0mg"},{"bike_id":"4ef11a7e-5741-4137-93db-9843a378e6ee","system_id":"levelo_inurba_marseille","lat":43.317132,"lon":5.437087,"is_reserved":false,"is_disabled":false,"rental_uris":{"android":"levelo://app?vid=4ef11a7e-5741-4137-93db-9843a378e6ee","ios":"levelo://app?vid=4ef11a7e-5741-4137-93db-9843a378e6ee"},"vehicle_type_id":"4","last_reported":1731092794,"current_range_meters":14000,"station_id":"ce4bhp92rcd13ifvqhcg","pricing_plan_id":"cebpf4jnsgd1na2vs0mg"},{"bike_id":"e5da59f7-e4cc-44f8-adf9-910c99affb9f","system_id":"levelo_inurba_marseille","lat":43.27304,"lon":5.39066,"is_reserved":false,"is_disabled":false,"rental_uris":{"android":"levelo://app?vid=e5da59f7-e4cc-44f8-adf9-910c99affb9f","ios":"levelo://app?vid=e5da59f7-e4cc-44f8-adf9-910c99affb9f"},"vehicle_type_id":"4","last_reported":1731092794,"current_range_meters":30400,"station_id":"ce4bhgp2rcd13ifvqfe0","pricing_plan_id":"cebpf4jnsgd1na2vs0mg"},{"bike_id":"717fbbb8-cef3-48d0-8040-006b9f6375de","system_id":"levelo_inurba_marseille","lat":43.28857,"lon":5.39325,"is_reserved":false,"is_disabled":false,"rental_uris":{"android":"levelo://app?vid=717fbbb8-cef3-48d0-8040-006b9f6375de","ios":"levelo://app?vid=717fbbb8-cef3-48d0-8040-006b9f6375de"},"vehicle_type_id":"4","last_reported":1731092794,"current_range_meters":38800,"station_id":"ce4bh2p2rcd13ifvqdi0","pricing_plan_id":"cebpf4jnsgd1na2vs0mg"},{"bike_id":"56c85d66-b40f-4bce-a136-d65a91bb557e","system_id":"levelo_inurba_marseille","lat":43.28936,"lon":5.39636,"is_reserved":false,"is_disabled":false,"rental_uris":{"android":"levelo://app?vid=56c85d66-b40f-4bce-a136-d65a91bb557e","ios":"levelo://app?vid=56c85d66-b40f-4bce-a136-d65a91bb557e"},"vehicle_type_id":"4","last_reported":1731092794,"current_range_meters":24800,"station_id":"ce4bh3h2rcd13ifvqdn0","pricing_plan_id":"cebpf4jnsgd1na2vs0mg"},{"bike_id":"0e141d26-1590-4636-b4c9-c14d8461a0ec","system_id":"levelo_inurba_marseille","lat":43.29412,"lon":5.38623,"is_reserved":false,"is_disabled":false,"rental_uris":{"android":"levelo://app?vid=0e141d26-1590-4636-b4c9-c14d8461a0ec","ios":"levelo://app?vid=0e141d26-1590-4636-b4c9-c14d8461a0ec"},"vehicle_type_id":"4","last_reported":1731092794,"current_range_meters":13600,"station_id":"ce4bh2h2rcd13ifvqdh0","pricing_plan_id":"cebpf4jnsgd1na2vs0mg"},{"bike_id":"16a5ad9c-793e-4f00-81ce-a5aa600737e3","system_id":"levelo_inurba_marseille","lat":43.27294,"lon":5.39076,"is_reserved":false,"is_disabled":false,"rental_uris":{"android":"levelo://app?vid=16a5ad9c-793e-4f00-81ce-a5aa600737e3","ios":"levelo://app?vid=16a5ad9c-793e-4f00-81ce-a5aa600737e3"},"vehicle_type_id":"4","last_reported":1731092794,"current_range_meters":28000,"station_id":"ce4bhgp2rcd13ifvqfe0","pricing_plan_id":"cebpf4jnsgd1na2vs0mg"},{"bike_id":"94a52404-014a-4876-983c-7bd1062448f0","system_id":"levelo_inurba_marseille","lat":43.26954,"lon":5.38642,"is_reserved":false,"is_disabled":false,"rental_uris":{"android":"levelo://app?vid=94a52404-014a-4876-983c-7bd1062448f0","ios":"levelo://app?vid=94a52404-014a-4876-983c-7bd1062448f0"},"vehicle_type_id":"4","last_reported":1731092794,"current_range_meters":36400,"station_id":"ce4bhh92rcd13ifvqfh0","pricing_plan_id":"cebpf4jnsgd1na2vs0mg"},{"bike_id":"dab71239-038d-40ea-a2f0-f2fac2f9ec32","system_id":"levelo_inurba_marseille","lat":43.31681,"lon":5.4047,"is_reserved":false,"is_disabled":false,"rental_uris":{"android":"levelo://app?vid=dab71239-038d-40ea-a2f0-f2fac2f9ec32","ios":"levelo://app?vid=dab71239-038d-40ea-a2f0-f2fac2f9ec32"},"vehicle_type_id":"4","last_reported":1731092794,"current_range_meters":34800,"station_id":"ce4bh012rcd13ifvqd00","pricing_plan_id":"cebpf4jnsgd1na2vs0mg"},{"bike_id":"e7a7c099-07dc-45b7-9c26-587a7a6c3265","system_id":"levelo_inurba_marseille","lat":43.337444,"lon":5.374475,"is_reserved":false,"is_disabled":false,"rental_uris":{"android":"levelo://app?vid=e7a7c099-07dc-45b7-9c26-587a7a6c3265","ios":"levelo://app?vid=e7a7c099-07dc-45b7-9c26-587a7a6c3265"},"vehicle_type_id":"4","last_reported":1731092794,"current_range_meters":36800,"station_id":"","pricing_plan_id":"cebpf4jnsgd1na2vs0mg"},{"bike_id":"a2008a83-a060-4ece-a83e-51a7064aca81","system_id":"levelo_inurba_marseille","lat":43.29247,"lon":5.38434,"is_reserved":false,"is_disabled":false,"rental_uris":{"android":"levelo://app?vid=a2008a83-a060-4ece-a83e-51a7064aca81","ios":"levelo://app?vid=a2008a83-a060-4ece-a83e-51a7064aca81"},"vehicle_type_id":"4","last_reported":1731092794,"current_range_meters":32000,"station_id":"ce4bh692rcd13ifvqea0","pricing_plan_id":"cebpf4jnsgd1na2vs0mg"},{"bike_id":"0cdc6a91-11b4-4847-b159-ef1725c0f01e","system_id":"levelo_inurba_marseille","lat":43.29186,"lon":5.35808,"is_reserved":false,"is_disabled":false,"rental_uris":{"android":"levelo://app?vid=0cdc6a91-11b4-4847-b159-ef1725c0f01e","ios":"levelo://app?vid=0cdc6a91-11b4-4847-b159-ef1725c0f01e"},"vehicle_type_id":"4","last_reported":1731092794,"current_range_meters":4800,"station_id":"ce4bhb12rcd13ifvqel0","pricing_plan_id":"cebpf4jnsgd1na2vs0mg"},{"bike_id":"79dc3083-457c-4216-8555-3c16768d76ee","system_id":"levelo_inurba_marseille","lat":43.29554,"lon":5.36269,"is_reserved":false,"is_disabled":false,"rental_uris":{"android":"levelo://app?vid=79dc3083-457c-4216-8555-3c16768d76ee","ios":"levelo://app?vid=79dc3083-457c-4216-8555-3c16768d76ee"},"vehicle_type_id":"4","last_reported":1731092794,"current_range_meters":16000,"station_id":"","pricing_plan_id":"cebpf4jnsgd1na2vs0mg"},{"bike_id":"14a910cd-892a-47ce-8c12-ba88b008fa3f","system_id":"levelo_inurba_marseille","lat":43.31218,"lon":5.36852,"is_reserved":false,"is_disabled":false,"rental_uris":{"android":"levelo://app?vid=14a910cd-892a-47ce-8c12-ba88b008fa3f","ios":"levelo://app?vid=14a910cd-892a-47ce-8c12-ba88b008fa3f"},"vehicle_type_id":"4","last_reported":1731092794,"current_range_meters":11600,"station_id":"ce4bgl92rcd13ifvqbq0","pricing_plan_id":"cebpf4jnsgd1na2vs0mg"},{"bike_id":"bdab7898-eebd-4c44-ae08-ec1b33e21ec2","system_id":"levelo_inurba_marseille","lat":43.26935,"lon":5.40245,"is_reserved":false,"is_disabled":false,"rental_uris":{"android":"levelo://app?vid=bdab7898-eebd-4c44-ae08-ec1b33e21ec2","ios":"levelo://app?vid=bdab7898-eebd-4c44-ae08-ec1b33e21ec2"},"vehicle_type_id":"4","last_reported":1731092794,"current_range_meters":33200,"station_id":"cjm6bp8fraef2m0cb0m0","pricing_plan_id":"cebpf4jnsgd1na2vs0mg"},{"bike_id":"7412bc0e-86dc-4ea2-a7be-094a62d3f403","system_id":"levelo_inurba_marseille","lat":43.26939,"lon":5.40248,"is_reserved":false,"is_disabled":false,"rental_uris":{"android":"levelo://app?vid=7412bc0e-86dc-4ea2-a7be-094a62d3f403","ios":"levelo://app?vid=7412bc0e-86dc-4ea2-a7be-094a62d3f403"},"vehicle_type_id":"4","last_reported":1731092794,"current_range_meters":37600,"station_id":"cjm6bp8fraef2m0cb0m0","pricing_plan_id":"cebpf4jnsgd1na2vs0mg"},{"bike_id":"c0a6af47-16f3-4cb8-90d4-3b839e1099a5","system_id":"levelo_inurba_marseille","lat":43.29511,"lon":5.39407,"is_reserved":false,"is_disabled":false,"rental_uris":{"android":"levelo://app?vid=c0a6af47-16f3-4cb8-90d4-3b839e1099a5","ios":"levelo://app?vid=c0a6af47-16f3-4cb8-90d4-3b839e1099a5"},"vehicle_type_id":"4","last_reported":1731092794,"current_range_meters":39200,"station_id":"ce4bh292rcd13ifvqdf0","pricing_plan_id":"cebpf4jnsgd1na2vs0mg"},{"bike_id":"881c1038-1fb6-4295-b6c5-64935ad00904","system_id":"levelo_inurba_marseille","lat":43.29155,"lon":5.37163,"is_reserved":false,"is_disabled":false,"rental_uris":{"android":"levelo://app?vid=881c1038-1fb6-4295-b6c5-64935ad00904","ios":"levelo://app?vid=881c1038-1fb6-4295-b6c5-64935ad00904"},"vehicle_type_id":"4","last_reported":1731092794,"current_range_meters":8000,"station_id":"ce4bha92rcd13ifvqeh0","pricing_plan_id":"cebpf4jnsgd1na2vs0mg"},{"bike_id":"6756c371-ecfa-43d1-9e91-4053f3e878ce","system_id":"levelo_inurba_marseille","lat":43.27206,"lon":5.39174,"is_reserved":false,"is_disabled":false,"rental_uris":{"android":"levelo://app?vid=6756c371-ecfa-43d1-9e91-4053f3e878ce","ios":"levelo://app?vid=6756c371-ecfa-43d1-9e91-4053f3e878ce"},"vehicle_type_id":"4","last_reported":1731092794,"current_range_meters":28400,"station_id":"ce4bhhp2rcd13ifvqfm0","pricing_plan_id":"cebpf4jnsgd1na2vs0mg"},{"bike_id":"85e2a126-132b-422b-908b-0eb09e8bbb18","system_id":"levelo_inurba_marseille","lat":43.24994,"lon":5.3893,"is_reserved":false,"is_disabled":false,"rental_uris":{"android":"levelo://app?vid=85e2a126-132b-422b-908b-0eb09e8bbb18","ios":"levelo://app?vid=85e2a126-132b-422b-908b-0eb09e8bbb18"},"vehicle_type_id":"4","last_reported":1731092794,"current_range_meters":32800,"station_id":"ce4bhgp2rcd13ifvqfd0","pricing_plan_id":"cebpf4jnsgd1na2vs0mg"},{"bike_id":"2600d00e-f854-463a-aafc-8f6e7525480c","system_id":"levelo_inurba_marseille","lat":43.28816,"lon":5.3585,"is_reserved":false,"is_disabled":false,"rental_uris":{"android":"levelo://app?vid=2600d00e-f854-463a-aafc-8f6e7525480c","ios":"levelo://app?vid=2600d00e-f854-463a-aafc-8f6e7525480c"},"vehicle_type_id":"4","last_reported":1731092794,"current_range_meters":36800,"station_id":"ce4bhb12rcd13ifvqem0","pricing_plan_id":"cebpf4jnsgd1na2vs0mg"},{"bike_id":"a1793573-d450-46cf-8e45-928e525adc22","system_id":"levelo_inurba_marseille","lat":43.29885,"lon":5.39735,"is_reserved":false,"is_disabled":false,"rental_uris":{"android":"levelo://app?vid=a1793573-d450-46cf-8e45-928e525adc22","ios":"levelo://app?vid=a1793573-d450-46cf-8e45-928e525adc22"},"vehicle_type_id":"4","last_reported":1731092794,"current_range_meters":26000,"station_id":"ce4bh0h2rcd13ifvqd50","pricing_plan_id":"cebpf4jnsgd1na2vs0mg"},{"bike_id":"0413894a-4063-47d6-8c7b-a4e87d820a67","system_id":"levelo_inurba_marseille","lat":43.31711,"lon":5.43709,"is_reserved":false,"is_disabled":false,"rental_uris":{"android":"levelo://app?vid=0413894a-4063-47d6-8c7b-a4e87d820a67","ios":"levelo://app?vid=0413894a-4063-47d6-8c7b-a4e87d820a67"},"vehicle_type_id":"4","last_reported":1731092794,"current_range_meters":24400,"station_id":"ce4bhp92rcd13ifvqhcg","pricing_plan_id":"cebpf4jnsgd1na2vs0mg"},{"bike_id":"191f90fe-8e86-4786-a8e4-d22cad89cdc1","system_id":"levelo_inurba_marseille","lat":43.337444,"lon":5.374475,"is_reserved":false,"is_disabled":false,"rental_uris":{"android":"levelo://app?vid=191f90fe-8e86-4786-a8e4-d22cad89cdc1","ios":"levelo://app?vid=191f90fe-8e86-4786-a8e4-d22cad89cdc1"},"vehicle_type_id":"4","last_reported":1731092794,"current_range_meters":35200,"station_id":"","pricing_plan_id":"cebpf4jnsgd1na2vs0mg"},{"bike_id":"b2a35e19-2dd1-4c58-a2f3-45eb31abeb2b","system_id":"levelo_inurba_marseille","lat":43.23967,"lon":5.36632,"is_reserved":false,"is_disabled":false,"rental_uris":{"android":"levelo://app?vid=b2a35e19-2dd1-4c58-a2f3-45eb31abeb2b","ios":"levelo://app?vid=b2a35e19-2dd1-4c58-a2f3-45eb31abeb2b"},"vehicle_type_id":"4","last_reported":1731092794,"current_range_meters":16000,"station_id":"ce4bhi12rcd13ifvqfp0","pricing_plan_id":"cebpf4jnsgd1na2vs0mg"},{"bike_id":"892d74d4-13f6-4bb3-a73b-dbe02d0e84f2","system_id":"levelo_inurba_marseille","lat":43.28572,"lon":5.39497,"is_reserved":false,"is_disabled":false,"rental_uris":{"android":"levelo://app?vid=892d74d4-13f6-4bb3-a73b-dbe02d0e84f2","ios":"levelo://app?vid=892d74d4-13f6-4bb3-a73b-dbe02d0e84f2"},"vehicle_type_id":"4","last_reported":1731092794,"current_range_meters":8800,"station_id":"ce4bh292rcd13ifvqdg0","pricing_plan_id":"cebpf4jnsgd1na2vs0mg"},{"bike_id":"eede7ae8-2e17-4712-8cb2-43fabc57a89e","system_id":"levelo_inurba_marseille","lat":43.25103,"lon":5.40327,"is_reserved":false,"is_disabled":false,"rental_uris":{"android":"levelo://app?vid=eede7ae8-2e17-4712-8cb2-43fabc57a89e","ios":"levelo://app?vid=eede7ae8-2e17-4712-8cb2-43fabc57a89e"},"vehicle_type_id":"4","last_reported":1731092794,"current_range_meters":30000,"station_id":"ce4bhlh2rcd13ifvqgig","pricing_plan_id":"cebpf4jnsgd1na2vs0mg"},{"bike_id":"9f733fef-b3b4-4c5f-85eb-d0781f0c815a","system_id":"levelo_inurba_marseille","lat":43.29563,"lon":5.37505,"is_reserved":false,"is_disabled":false,"rental_uris":{"android":"levelo://app?vid=9f733fef-b3b4-4c5f-85eb-d0781f0c815a","ios":"levelo://app?vid=9f733fef-b3b4-4c5f-85eb-d0781f0c815a"},"vehicle_type_id":"4","last_reported":1731092794,"current_range_meters":38800,"station_id":"ce4bgh92rcd13ifvqb50","pricing_plan_id":"cebpf4jnsgd1na2vs0mg"},{"bike_id":"ba47390f-999a-4c45-b73e-0241fc7ba4ae","system_id":"levelo_inurba_marseille","lat":43.29515,"lon":5.38531,"is_reserved":false,"is_disabled":false,"rental_uris":{"android":"levelo://app?vid=ba47390f-999a-4c45-b73e-0241fc7ba4ae","ios":"levelo://app?vid=ba47390f-999a-4c45-b73e-0241fc7ba4ae"},"vehicle_type_id":"4","last_reported":1731092794,"current_range_meters":28800,"station_id":"ce4bgih2rcd13ifvqba0","pricing_plan_id":"cebpf4jnsgd1na2vs0mg"},