{"last_updated":1707048666,"ttl":30,"version":"2.2","data":{"bikes":[{"bike_id":"de295ffe-5af6-41ae-b673-8bb3fccc30f9","system_id":"levelo_inurba_marseille","lat":43.31341,"lon":5.367098,"is_reserved":false,"is_disabled":false,"rental_uris":{"android":"levelo://app?vid=de295ffe-5af6-41ae-b673-8bb3fccc30f9","ios":"levelo://app?vid=de295ffe-5af6-41ae-b673-8bb3fccc30f9"},"vehicle_type_id":"4","last_reported":1707048666,"current_range_meters":16000,"station_id":"ce4bgr92rcd13ifvqc6g","pricing_plan_id":"free"},{"bike_id":"d95e2387-434c-4b69-8908-9707087feaf0","system_id":"levelo_inurba_marseille","lat":43.312239,"lon":5.368562,"is_reserved":false,"is_disabled":false,"rental_uris":{"android":"levelo://app?vid=d95e2387-434c-4b69-8908-9707087feaf0","ios":"levelo://app?vid=d95e2387-434c-4b69-8908-9707087feaf0"},"vehicle_type_id":"4","last_reported":1707048666,"current_range_meters":0,"station_id":"ce4bgl92rcd13ifvqbq0","pricing_plan_id":"free"},{"bike_id":"ddf4ba4c-d640-4874-bc07-19c1970fccf8","system_id":"levelo_inurba_marseille","lat":43.312239,"lon":5.368562,"is_reserved":false,"is_disabled":false,"rental_uris":{"android":"levelo://app?vid=ddf4ba4c-d640-4874-bc07-19c1970fccf8","ios":"levelo://app?vid=ddf4ba4c-d640-4874-bc07-19c1970fccf8"},"vehicle_type_id":"4","last_reported":1707048666,"current_range_meters":18400,"station_id":"ce4bgl92rcd13ifvqbq0","pricing_plan_id":"free"},{"bike_id":"6184aed5-250e-4bf9-a26c-87f567d34f86","system_id":"levelo_inurba_marseille","lat":43.3124,"lon":5.36864,"is_reserved":false,"is_disabled":false,"rental_uris":{"android":"levelo://app?vid=6184aed5-250e-4bf9-a26c-87f567d34f86","ios":"levelo://app?vid=6184aed5-250e-4bf9-a26c-87f567d34f86"},"vehicle_type_id":"4","last_reported":1707048666,"current_range_meters":6800,"station_id":"ce4bgl92rcd13ifvqbq0","pricing_plan_id":"free"},{"bike_id":"6ecd07a2-ee5e-47c4-93be-a7d99db601d7","system_id":"levelo_inurba_marseille","lat":43.31493,"lon":5.37305,"is_reserved":false,"is_disabled":false,"rental_uris":{"android":"levelo://app?vid=6ecd07a2-ee5e-47c4-93be-a7d99db601d7","ios":"levelo://app?vid=6ecd07a2-ee5e-47c4-93be-a7d99db601d7"},"vehicle_type_id":"4","last_reported":1707048666,"current_range_meters":0,"station_id":"ce4bgt12rcd13ifvqcd0","pricing_plan_id":"free"},{"bike_id":"fe10b9e7-bc70-4094-b5eb-57282a9868cd","system_id":"levelo_inurba_marseille","lat":43.31495,"lon":5.3731,"is_reserved":false,"is_disabled":false,"rental_uris":{"android":"levelo://app?vid=fe10b9e7-bc70-4094-b5eb-57282a9868cd","ios":"levelo://app?vid=fe10b9e7-bc70-4094-b5eb-57282a9868cd"},"vehicle_type_id":"4","last_reported":1707048666,"current_range_meters":0,"station_id":"ce4bgt12rcd13ifvqcd0","pricing_plan_id":"free"},{"bike_id":"4d82c740-6280-4cde-aed6-cd83c5b72eef","system_id":"levelo_inurba_marseille","lat":43.309039,"lon":5.371797,"is_reserved":false,"is_disabled":false,"rental_uris":{"android":"levelo://app?vid=4d82c740-6280-4cde-aed6-cd83c5b72eef","ios":"levelo://app?vid=4d82c740-6280-4cde-aed6-cd83c5b72eef"},"vehicle_type_id":"4","last_reported":1707048666,"current_range_meters":4000,"station_id":"ce4bguh2rcd13ifvqckg","pricing_plan_id":"free"},{"bike_id":"82634a15-58d6-490e-9ad8-4261dbaa00cb","system_id":"levelo_inurba_marseille","lat":43.309039,"lon":5.371797,"is_reserved":false,"is_disabled":false,"rental_uris":{"android":"levelo://app?vid=82634a15-58d6-490e-9ad8-4261dbaa00cb","ios":"levelo://app?vid=82634a15-58d6-490e-9ad8-4261dbaa00cb"},"vehicle_type_id":"4","last_reported":1707048666,"current_range_meters":0,"station_id":"ce4bguh2rcd13ifvqckg","pricing_plan_id":"free"},{"bike_id":"8bea6ee2-bb12-4611-84ff-9527b54da0c8","system_id":"levelo_inurba_marseille","lat":43.31368,"lon":5.374595,"is_reserved":false,"is_disabled":false,"rental_uris":{"android":"levelo://app?vid=8bea6ee2-bb12-4611-84ff-9527b54da0c8","ios":"levelo://app?vid=8bea6ee2-bb12-4611-84ff-9527b54da0c8"},"vehicle_type_id":"4","last_reported":1707048666,"current_range_meters":28800,"station_id":"ce4bgt12rcd13ifvqcd0","pricing_plan_id":"free"},{"bike_id":"ff9487e4-8f3e-469a-8522-23ad292f611d","system_id":"levelo_inurba_marseille","lat":43.305712,"lon":5.365641,"is_reserved":false,"is_disabled":false,"rental_uris":{"android":"levelo://app?vid=ff9487e4-8f3e-469a-8522-23ad292f611d","ios":"levelo://app?vid=ff9487e4-8f3e-469a-8522-23ad292f611d"},"vehicle_type_id":"4","last_reported":1707048666,"current_range_meters":9200,"station_id":"ce4bgs12rcd13ifvqcag","pricing_plan_id":"free"},{"bike_id":"e5e60d2f-cd2d-44d8-a7bc-de2058d36b3f","system_id":"levelo_inurba_marseille","lat":43.305712,"lon":5.365641,"is_reserved":false,"is_disabled":false,"rental_uris":{"android":"levelo://app?vid=e5e60d2f-cd2d-44d8-a7bc-de2058d36b3f","ios":"levelo://app?vid=e5e60d2f-cd2d-44d8-a7bc-de2058d36b3f"},"vehicle_type_id":"4","last_reported":1707048666,"current_range_meters":20000,"station_id":"ce4bgs12rcd13ifvqcag","pricing_plan_id":"free"},{"bike_id":"9f685ce1-b684-4d0f-9cfc-89b70558d519","system_id":"levelo_inurba_marseille","lat":43.305368,"lon":5.367343,"is_reserved":false,"is_disabled":false,"rental_uris":{"android":"levelo://app?vid=9f685ce1-b684-4d0f-9cfc-89b70558d519","ios":"levelo://app?vid=9f685ce1-b684-4d0f-9cfc-89b70558d519"},"vehicle_type_id":"4","last_reported":1707048666,"current_range_meters":31200,"station_id":"ce4bgrp2rcd13ifvqc9g","pricing_plan_id":"free"},{"bike_id":"4ab340f9-ab92-45b0-8a3e-7e06017bb31f","system_id":"levelo_inurba_marseille","lat":43.305368,"lon":5.367343,"is_reserved":false,"is_disabled":false,"rental_uris":{"android":"levelo://app?vid=4ab340f9-ab92-45b0-8a3e-7e06017bb31f","ios":"levelo://app?vid=4ab340f9-ab92-45b0-8a3e-7e06017bb31f"},"vehicle_type_id":"4","last_reported":1707048666,"current_range_meters":27200,"station_id":"ce4bgrp2rcd13ifvqc9g","pricing_plan_id":"free"},{"bike_id":"c14d1e35-5d76-457a-9e57-30c647792ca1","system_id":"levelo_inurba_marseille","lat":43.305714,"lon":5.365633,"is_reserved":false,"is_disabled":false,"rental_uris":{"android":"levelo://app?vid=c14d1e35-5d76-457a-9e57-30c647792ca1","ios":"levelo://app?vid=c14d1e35-5d76-457a-9e57-30c647792ca1"},"vehicle_type_id":"4","last_reported":1707048666,"current_range_meters":26400,"station_id":"ce4bgs12rcd13ifvqcag","pricing_plan_id":"free"},{"bike_id":"df00cd5b-1161-4a42-865a-2e4a53c52bec","system_id":"levelo_inurba_marseille","lat":43.305714,"lon":5.365633,"is_reserved":false,"is_disabled":false,"rental_uris":{"android":"levelo://app?vid=df00cd5b-1161-4a42-865a-2e4a53c52bec","ios":"levelo://app?vid=df00cd5b-1161-4a42-865a-2e4a53c52bec"},"vehicle_type_id":"4","last_reported":1707048666,"current_range_meters":10400,"station_id":"ce4bgs12rcd13ifvqcag","pricing_plan_id":"free"},{"bike_id":"6d4781e5-fcbe-4cde-a383-d81f4d3c73a5","system_id":"levelo_inurba_marseille","lat":43.305368,"lon":5.367343,"is_reserved":false,"is_disabled":false,"rental_uris":{"android":"levelo://app?vid=6d4781e5-fcbe-4cde-a383-d81f4d3c73a5","ios":"levelo://app?vid=6d4781e5-fcbe-4cde-a383-d81f4d3c73a5"},"vehicle_type_id":"4","last_reported":1707048666,"current_range_meters":4800,"station_id":"ce4bgrp2rcd13ifvqc9g","pricing_plan_id":"free"},{"bike_id":"507a07de-c1ed-440d-a2cf-9d0fb4d826b0","system_id":"levelo_inurba_marseille","lat":43.305368,"lon":5.367343,"is_reserved":false,"is_disabled":false,"rental_uris":{"android":"levelo://app?vid=507a07de-c1ed-440d-a2cf-9d0fb4d826b0","ios":"levelo://app?vid=507a07de-c1ed-440d-a2cf-9d0fb4d826b0"},"vehicle_type_id":"4","last_reported":1707048666,"current_range_meters":4000,"station_id":"ce4bgrp2rcd13ifvqc9g","pricing_plan_id":"free"},{"bike_id":"53cdaf6a-cabd-4b2d-b389-d3386941bd14","system_id":"levelo_inurba_marseille","lat":43.305706,"lon":5.365654,"is_reserved":false,"is_disabled":false,"rental_uris":{"android":"levelo://app?vid=53cdaf6a-cabd-4b2d-b389-d3386941bd14","ios":"levelo://app?vid=53cdaf6a-cabd-4b2d-b389-d3386941bd14"},"vehicle_type_id":"4","last_reported":1707048666,"current_range_meters":5200,"station_id":"ce4bgs12rcd13ifvqcag","pricing_plan_id":"free"},{"bike_id":"46e0b49c-082f-4296-9f92-dd6ce23d495b","system_id":"levelo_inurba_marseille","lat":43.305714,"lon":5.365633,"is_reserved":false,"is_disabled":false,"rental_uris":{"android":"levelo://app?vid=46e0b49c-082f-4296-9f92-dd6ce23d495b","ios":"levelo://app?vid=46e0b49c-082f-4296-9f92-dd6ce23d495b"},"vehicle_type_id":"4","last_reported":1707048666,"current_range_meters":10400,"station_id":"ce4bgs12rcd13ifvqcag","pricing_plan_id":"free"},{"bike_id":"0b556396-3d64-4bbf-9dfd-3b31629109df","system_id":"levelo_inurba_marseille","lat":43.305706,"lon":5.365654,"is_reserved":false,"is_disabled":false,"rental_uris":{"android":"levelo://app?vid=0b556396-3d64-4bbf-9dfd-3b31629109df","ios":"levelo://app?vid=0b556396-3d64-4bbf-9dfd-3b31629109df"},"vehicle_type_id":"4","last_reported":1707048666,"current_range_meters":25600,"station_id":"ce4bgs12rcd13ifvqcag","pricing_plan_id":"free"},{"bike_id":"a0b2e381-9b87-4071-b665-79e9a0e2f024","system_id":"levelo_inurba_marseille","lat":43.305706,"lon":5.365654,"is_reserved":false,"is_disabled":false,"rental_uris":{"android":"levelo://app?vid=a0b2e381-9b87-4071-b665-79e9a0e2f024","ios":"levelo://app?vid=a0b2e381-9b87-4071-b665-79e9a0e2f024"},"vehicle_type_id":"4","last_reported":1707048666,"current_range_meters":24000,"station_id":"ce4bgs12rcd13ifvqcag","pricing_plan_id":"free"},{"bike_id":"0dcf5ffe-ecf8-427d-a904-ad8ac7aba93e","system_id":"levelo_inurba_marseille","lat":43.305706,"lon":5.365654,"is_reserved":false,"is_disabled":false,"rental_uris":{"android":"levelo://app?vid=0dcf5ffe-ecf8-427d-a904-ad8ac7aba93e","ios":"levelo://app?vid=0dcf5ffe-ecf8-427d-a904-ad8ac7aba93e"},"vehicle_type_id":"4","last_reported":1707048666,"current_range_meters":15200,"station_id":"ce4bgs12rcd13ifvqcag","pricing_plan_id":"free"},{"bike_id":"98790c96-e454-4d28-abed-9a8739cf50f5","system_id":"levelo_inurba_marseille","lat":43.305706,"lon":5.365654,"is_reserved":false,"is_disabled":false,"rental_uris":{"android":"levelo://app?vid=98790c96-e454-4d28-abed-9a8739cf50f5","ios":"levelo://app?vid=98790c96-e454-4d28-abed-9a8739cf50f5"},"vehicle_type_id":"4","last_reported":1707048666,"current_range_meters":17600,"station_id":"ce4bgs12rcd13ifvqcag","pricing_plan_id":"free"},{"bike_id":"bc82912f-2213-4d7a-9014-3568616d3e15","system_id":"levelo_inurba_marseille","lat":43.305706,"lon":5.365654,"is_reserved":false,"is_disabled":false,"rental_uris":{"android":"levelo://app?vid=bc82912f-2213-4d7a-9014-3568616d3e15","ios":"levelo://app?vid=bc82912f-2213-4d7a-9014-3568616d3e15"},"vehicle_type_id":"4","last_reported":1707048666,"current_range_meters":18400,"station_id":"ce4bgs12rcd13ifvqcag","pricing_plan_id":"free"},{"bike_id":"0c11532b-c16f-4049-8e35-4644b6a391df","system_id":"levelo_inurba_marseille","lat":43.30529,"lon":5.36541,"is_reserved":false,"is_disabled":false,"rental_uris":{"android":"levelo://app?vid=0c11532b-c16f-4049-8e35-4644b6a391df","ios":"levelo://app?vid=0c11532b-c16f-4049-8e35-4644b6a391df"},"vehicle_type_id":"4","last_reported":1707048666,"current_range_meters":22400,"station_id":"ce4bgs12rcd13ifvqcag","pricing_plan_id":"free"},{"bike_id":"221877f9-4405-4aa3-bd6c-07c90e6e4da1","system_id":"levelo_inurba_marseille","lat":43.305989,"lon":5.37225,"is_reserved":false,"is_disabled":false,"rental_uris":{"android":"levelo://app?vid=221877f9-4405-4aa3-bd6c-07c90e6e4da1","ios":"levelo://app?vid=221877f9-4405-4aa3-bd6c-07c90e6e4da1"},"vehicle_type_id":"4","last_reported":1707048666,"current_range_meters":20400,"station_id":"ce4bgqh2rcd13ifvqc4g","pricing_plan_id":"free"},{"bike_id":"aba5ca8e-35d3-4ee0-8d04-995e97c538c6","system_id":"levelo_inurba_marseille","lat":43.305989,"lon":5.37225,"is_reserved":false,"is_disabled":false,"rental_uris":{"android":"levelo://app?vid=aba5ca8e-35d3-4ee0-8d04-995e97c538c6","ios":"levelo://app?vid=aba5ca8e-35d3-4ee0-8d04-995e97c538c6"},"vehicle_type_id":"4","last_reported":1707048666,"current_range_meters":21200,"station_id":"ce4bgqh2rcd13ifvqc4g","pricing_plan_id":"free"},{"bike_id":"f3b4fff2-83ee-41f1-b34f-c67c2d981f0e","system_id":"levelo_inurba_marseille","lat":43.305989,"lon":5.37225,"is_reserved":false,"is_disabled":false,"rental_uris":{"android":"levelo://app?vid=f3b4fff2-83ee-41f1-b34f-c67c2d981f0e","ios":"levelo://app?vid=f3b4fff2-83ee-41f1-b34f-c67c2d981f0e"},"vehicle_type_id":"4","last_reported":1707048666,"current_range_meters":31600,"station_id":"ce4bgqh2rcd13ifvqc4g","pricing_plan_id":"free"},{"bike_id":"310cb37e-796c-41bc-ad26-6a8d439cca67","system_id":"levelo_inurba_marseille","lat":43.311125,"lon":5.377624,"is_reserved":false,"is_disabled":false,"rental_uris":{"android":"levelo://app?vid=310cb37e-796c-41bc-ad26-6a8d439cca67","ios":"levelo://app?vid=310cb37e-796c-41bc-ad26-6a8d439cca67"},"vehicle_type_id":"4","last_reported":1707048666,"current_range_meters":8400,"station_id":"ce4bgt92rcd13ifvqcg0","pricing_plan_id":"free"},{"bike_id":"c60e7252-bcc2-4201-a624-aec62d3d6b5d","system_id":"levelo_inurba_marseille","lat":43.316473,"lon":5.376847,"is_reserved":false,"is_disabled":false,"rental_uris":{"android":"levelo://app?vid=c60e7252-bcc2-4201-a624-aec62d3d6b5d","ios":"levelo://app?vid=c60e7252-bcc2-4201-a624-aec62d3d6b5d"},"vehicle_type_id":"4","last_reported":1707048666,"current_range_meters":2000,"station_id":"","pricing_plan_id":"free"},{"bike_id":"53cfdef4-95ec-47e8-8483-0dea310416b5","system_id":"levelo_inurba_marseille","lat":43.307945,"lon":5.376487,"is_reserved":false,"is_disabled":false,"rental_uris":{"android":"levelo://app?vid=53cfdef4-95ec-47e8-8483-0dea310416b5","ios":"levelo://app?vid=53cfdef4-95ec-47e8-8483-0dea310416b5"},"vehicle_type_id":"4","last_reported":1707048666,"current_range_meters":30400,"station_id":"ce4bgv92rcd13ifvqcq0","pricing_plan_id":"free"},{"bike_id":"544a54c5-badf-418f-891b-250bbc823c70","system_id":"levelo_inurba_marseille","lat":43.30778,"lon":5.37648,"is_reserved":false,"is_disabled":false,"rental_uris":{"android":"levelo://app?vid=544a54c5-badf-418f-891b-250bbc823c70","ios":"levelo://app?vid=544a54c5-badf-418f-891b-250bbc823c70"},"vehicle_type_id":"4","last_reported":1707048666,"current_range_meters":10800,"station_id":"ce4bgv92rcd13ifvqcq0","pricing_plan_id":"free"},{"bike_id":"662cde05-06f7-4ec2-8e64-e6a473293046","system_id":"levelo_inurba_marseille","lat":43.307945,"lon":5.376487,"is_reserved":false,"is_disabled":false,"rental_uris":{"android":"levelo://app?vid=662cde05-06f7-4ec2-8e64-e6a473293046","ios":"levelo://app?vid=662cde05-06f7-4ec2-8e64-e6a473293046"},"vehicle_type_id":"4","last_reported":1707048666,"current_range_meters":30000,"station_id":"ce4bgv92rcd13ifvqcq0","pricing_plan_id":"free"},{"bike_id":"e7965e6f-bd7f-495a-8399-535932249956","system_id":"levelo_inurba_marseille","lat":43.307945,"lon":5.376487,"is_reserved":false,"is_disabled":false,"rental_uris":{"android":"levelo://app?vid=e7965e6f-bd7f-495a-8399-535932249956","ios":"levelo://app?vid=e7965e6f-bd7f-495a-8399-535932249956"},"vehicle_type_id":"4","last_reported":1707048666,"current_range_meters":31200,"station_id":"ce4bgv92rcd13ifvqcq0","pricing_plan_id":"free"},{"bike_id":"b3fdee80-37a0-47bb-b8ca-a3c133c6ab3b","system_id":"levelo_inurba_marseille","lat":43.303131,"lon":5.369103,"is_reserved":false,"is_disabled":false,"rental_uris":{"android":"levelo://app?vid=b3fdee80-37a0-47bb-b8ca-a3c133c6ab3b","ios":"levelo://app?vid=b3fdee80-37a0-47bb-b8ca-a3c133c6ab3b"},"vehicle_type_id":"4","last_reported":1707048666,"current_range_meters":15200,"station_id":"ce4bgqh2rcd13ifvqc5g","pricing_plan_id":"free"},{"bike_id":"571fef53-a5c0-496a-bb58-304ffe830756","system_id":"levelo_inurba_marseille","lat":43.30304,"lon":5.368987,"is_reserved":false,"is_disabled":false,"rental_uris":{"android":"levelo://app?vid=571fef53-a5c0-496a-bb58-304ffe830756","ios":"levelo://app?vid=571fef53-a5c0-496a-bb58-304ffe830756"},"vehicle_type_id":"4","last_reported":1707048666,"current_range_meters":24400,"station_id":"ce4bgqh2rcd13ifvqc5g","pricing_plan_id":"free"},{"bike_id":"681af3e8-0936-4066-a358-2200ebb59299","system_id":"levelo_inurba_marseille","lat":43.301939,"lon":5.366286,"is_reserved":false,"is_disabled":false,"rental_uris":{"android":"levelo://app?vid=681af3e8-0936-4066-a358-2200ebb59299","ios":"levelo://app?vid=681af3e8-0936-4066-a358-2200ebb59299"},"vehicle_type_id":"4","last_reported":1707048666,"current_range_meters":12000,"station_id":"ce4bgrh2rcd13ifvqc8g","pricing_plan_id":"free"},{"bike_id":"8d413466-9bc7-461a-9510-0f9fc336a503","system_id":"levelo_inurba_marseille","lat":43.324771,"lon":5.36557,"is_reserved":false,"is_disabled":false,"rental_uris":{"android":"levelo://app?vid=8d413466-9bc7-461a-9510-0f9fc336a503","ios":"levelo://app?vid=8d413466-9bc7-461a-9510-0f9fc336a503"},"vehicle_type_id":"4","last_reported":1707048666,"current_range_meters":16000,"station_id":"ce4bhs12rcd13ifvqhvg","pricing_plan_id":"free"},{"bike_id":"e02d39fa-8b1a-4c06-be70-7ae3b5941109","system_id":"levelo_inurba_marseille","lat":43.307985,"lon":5.38148,"is_reserved":false,"is_disabled":false,"rental_uris":{"android":"levelo://app?vid=e02d39fa-8b1a-4c06-be70-7ae3b5941109","ios":"levelo://app?vid=e02d39fa-8b1a-4c06-be70-7ae3b5941109"},"vehicle_type_id":"4","last_reported":1707048666,"current_range_meters":24800,"station_id":"ce4bgt12rcd13ifvqce0","pricing_plan_id":"free"},{"bike_id":"abffc79b-bb72-4b0b-98f7-8fd448a41c55","system_id":"levelo_inurba_marseille","lat":43.308012,"lon":5.381511,"is_reserved":false,"is_disabled":false,"rental_uris":{"android":"levelo://app?vid=abffc79b-bb72-4b0b-98f7-8fd448a41c55","ios":"levelo://app?vid=abffc79b-bb72-4b0b-98f7-8fd448a41c55"},"vehicle_type_id":"4","last_reported":1707048666,"current_range_meters":14800,"station_id":"ce4bgt12rcd13ifvqce0","pricing_plan_id":"free"},{"bike_id":"ad78e184-0738-43f7-a100-98d8a310c50a","system_id":"levelo_inurba_marseille","lat":43.304606,"lon":5.379026,"is_reserved":false,"is_disabled":false,"rental_uris":{"android":"levelo://app?vid=ad78e184-0738-43f7-a100-98d8a310c50a","ios":"levelo://app?vid=ad78e184-0738-43f7-a100-98d8a310c50a"},"vehicle_type_id":"4","last_reported":1707048666,"current_range_meters":27600,"station_id":"ce4bgup2rcd13ifvqcn0","pricing_plan_id":"free"},{"bike_id":"b7bd530a-22b9-49ae-a793-92ae9808f53f","system_id":"levelo_inurba_marseille","lat":43.304606,"lon":5.379026,"is_reserved":false,"is_disabled":false,"rental_uris":{"android":"levelo://app?vid=b7bd530a-22b9-49ae-a793-92ae9808f53f","ios":"levelo://app?vid=b7bd530a-22b9-49ae-a793-92ae9808f53f"},"vehicle_type_id":"4","last_reported":1707048666,"current_range_meters":25600,"station_id":"ce4bgup2rcd13ifvqcn0","pricing_plan_id":"free"},{"bike_id":"04bddb4c-ee4e-41ad-9c78-d50d26180486","system_id":"levelo_inurba_marseille","lat":43.304606,"lon":5.379026,"is_reserved":false,"is_disabled":false,"rental_uris":{"android":"levelo://app?vid=04bddb4c-ee4e-41ad-9c78-d50d26180486","ios":"levelo://app?vid=04bddb4c-ee4e-41ad-9c78-d50d26180486"},"vehicle_type_id":"4","last_reported":1707048666,"current_range_meters":9200,"station_id":"ce4bgup2rcd13ifvqcn0","pricing_plan_id":"free"},{"bike_id":"008eec45-f55e-4812-bd74-a050767e5eb6","system_id":"levelo_inurba_marseille","lat":43.304606,"lon":5.379026,"is_reserved":false,"is_disabled":false,"rental_uris":{"android":"levelo://app?vid=008eec45-f55e-4812-bd74-a050767e5eb6","ios":"levelo://app?vid=008eec45-f55e-4812-bd74-a050767e5eb6"},"vehicle_type_id":"4","last_reported":1707048666,"current_range_meters":30800,"station_id":"ce4bgup2rcd13ifvqcn0","pricing_plan_id":"free"},{"bike_id":"86d98dda-1dfc-4a9c-8e82-50a628e5a830","system_id":"levelo_inurba_marseille","lat":43.304606,"lon":5.379026,"is_reserved":false,"is_disabled":false,"rental_uris":{"android":"levelo://app?vid=86d98dda-1dfc-4a9c-8e82-50a628e5a830","ios":"levelo://app?vid=86d98dda-1dfc-4a9c-8e82-50a628e5a830"},"vehicle_type_id":"4","last_reported":1707048666,"current_range_meters":12400,"station_id":"ce4bgup2rcd13ifvqcn0","pricing_plan_id":"free"},{"bike_id":"d0e2659b-5bb3-4c60-9c27-a1b51b6d5ce6","system_id":"levelo_inurba_marseille","lat":43.304606,"lon":5.379026,"is_reserved":false,"is_disabled":false,"rental_uris":{"android":"levelo://app?vid=d0e2659b-5bb3-4c60-9c27-a1b51b6d5ce6","ios":"levelo://app?vid=d0e2659b-5bb3-4c60-9c27-a1b51b6d5ce6"},"vehicle_type_id":"4","last_reported":1707048666,"current_range_meters":24000,"station_id":"ce4bgup2rcd13ifvqcn0","pricing_plan_id":"free"},{"bike_id":"bc974708-dcbd-4a8a-ac0d-164e8d7c65dc","system_id":"levelo_inurba_marseille","lat":43.324771,"lon":5.36557,"is_reserved":false,"is_disabled":false,"rental_uris":{"android":"levelo://app?vid=bc974708-dcbd-4a8a-ac0d-164e8d7c65dc","ios":"levelo://app?vid=bc974708-dcbd-4a8a-ac0d-164e8d7c65dc"},"vehicle_type_id":"4","last_reported":1707048666,"current_range_meters":22000,"station_id":"ce4bhs12rcd13ifvqhvg","pricing_plan_id":"free"},{"bike_id":"84b3fa35-e44f-41b6-b3c9-6ac3477b18ed","system_id":"levelo_inurba_marseille","lat":43.304606,"lon":5.379026,"is_reserved":false,"is_disabled":false,"rental_uris":{"android":"levelo://app?vid=84b3fa35-e44f-41b6-b3c9-6ac3477b18ed","ios":"levelo://app?vid=84b3fa35-e44f-41b6-b3c9-6ac3477b18ed"},"vehicle_type_id":"4","last_reported":1707048666,"current_range_meters":12800,"station_id":"ce4bgup2rcd13ifvqcn0","pricing_plan_id":"free"},{"bike_id":"45431690-367e-4bb6-94e3-091374a3108b","system_id":"levelo_inurba_marseille","lat":43.302972,"lon":5.377,"is_reserved":false,"is_disabled":false,"rental_uris":{"android":"levelo://app?vid=45431690-367e-4bb6-94e3-091374a3108b","ios":"levelo://app?vid=45431690-367e-4bb6-94e3-091374a3108b"},"vehicle_type_id":"4","last_reported":1707048666,"current_range_meters":27200,"station_id":"ce4bguh2rcd13ifvqcj0","pricing_plan_id":"free"},{"bike_id":"dda80877-c865-40ce-bbdd-2867bd7c1a84","system_id":"levelo_inurba_marseille","lat":43.302862,"lon":5.376945,"is_reserved":false,"is_disabled":false,"rental_uris":{"android":"levelo://app?vid=dda80877-c865-40ce-bbdd-2867bd7c1a84","ios":"levelo://app?vid=dda80877-c865-40ce-bbdd-2867bd7c1a84"},"vehicle_type_id":"4","last_reported":1707048666,"current_range_meters":29600,"station_id":"ce4bguh2rcd13ifvqcj0","pricing_plan_id":"free"},{"bike_id":"d5752836-f393-4b21-ba9c-c2b9ba436727","system_id":"levelo_inurba_marseille","lat":43.302781,"lon":5.376997,"is_reserved":false,"is_disabled":false,"rental_uris":{"android":"levelo://app?vid=d5752836-f393-4b21-ba9c-c2b9ba436727","ios":"levelo://app?vid=d5752836-f393-4b21-ba9c-c2b9ba436727"},"vehicle_type_id":"4","last_reported":1707048666,"current_range_meters":27200,"station_id":"ce4bguh2rcd13ifvqcj0","pricing_plan_id":"free"},{"bike_id":"fb9beed5-30de-4ca4-8427-e5ed09d576be","system_id":"levelo_inurba_marseille","lat":43.301429,"lon":5.37413,"is_reserved":false,"is_disabled":false,"rental_uris":{"android":"levelo://app?vid=fb9beed5-30de-4ca4-8427-e5ed09d576be","ios":"levelo://app?vid=fb9beed5-30de-4ca4-8427-e5ed09d576be"},"vehicle_type_id":"4","last_reported":1707048666,"current_range_meters":28400,"station_id":"ce4bgs92rcd13ifvqcc0","pricing_plan_id":"free"},{"bike_id":"245843ad-bfeb-465e-a2d5-e97ffa7d3f53","system_id":"levelo_inurba_marseille","lat":43.31355,"lon":5.38479,"is_reserved":false,"is_disabled":false,"rental_uris":{"android":"levelo://app?vid=245843ad-bfeb-465e-a2d5-e97ffa7d3f53","ios":"levelo://app?vid=245843ad-bfeb-465e-a2d5-e97ffa7d3f53"},"vehicle_type_id":"4","last_reported":1707048666,"current_range_meters":25200,"station_id":"ce4bgt92rcd13ifvqcf0","pricing_plan_id":"free"},{"bike_id":"820739b6-be9b-4162-93e4-c442965ccfcf","system_id":"levelo_inurba_marseille","lat":43.299222,"lon":5.365554,"is_reserved":false,"is_disabled":false,"rental_uris":{"android":"levelo://app?vid=820739b6-be9b-4162-93e4-c442965ccfcf","ios":"levelo://app?vid=820739b6-be9b-4162-93e4-c442965ccfcf"},"vehicle_type_id":"4","last_reported":1707048666,"current_range_meters":16000,"station_id":"ce4bgm92rcd13ifvqbr0","pricing_plan_id":"free"},{"bike_id":"a9240393-ec67-473d-aed6-83808febf2bd","system_id":"levelo_inurba_marseille","lat":43.298433,"lon":5.362774,"is_reserved":false,"is_disabled":false,"rental_uris":{"android":"levelo://app?vid=a9240393-ec67-473d-aed6-83808febf2bd","ios":"levelo://app?vid=a9240393-ec67-473d-aed6-83808febf2bd"},"vehicle_type_id":"4","last_reported":1707048666,"current_range_meters":25600,"station_id":"ce4bgpp2rcd13ifvqc3g","pricing_plan_id":"free"},{"bike_id":"7c8fe6bb-42b8-4878-9154-24323d10ef17","system_id":"levelo_inurba_marseille","lat":43.298433,"lon":5.362774,"is_reserved":false,"is_disabled":false,"rental_uris":{"android":"levelo://app?vid=7c8fe6bb-42b8-4878-9154-24323d10ef17","ios":"levelo://app?vid=7c8fe6bb-42b8-4878-9154-24323d10ef17"},"vehicle_type_id":"4","last_reported":1707048666,"current_range_meters":31200,"station_id":"ce4bgpp2rcd13ifvqc3g","pricing_plan_id":"free"},{"bike_id":"aab4adfc-55f2-4967-83db-3e686e415440","system_id":"levelo_inurba_marseille","lat":43.298433,"lon":5.362774,"is_reserved":false,"is_disabled":false,"rental_uris":{"android":"levelo://app?vid=aab4adfc-55f2-4967-83db-3e686e415440","ios":"levelo://app?vid=aab4adfc-55f2-4967-83db-3e686e415440"},"vehicle_type_id":"4","last_reported":1707048666,"current_range_meters":29200,"station_id":"ce4bgpp2rcd13ifvqc3g","pricing_plan_id":"free"},{"bike_id":"d3766b14-fc7e-461f-9614-8a50557d539c","system_id":"levelo_inurba_marseille","lat":43.299243,"lon":5.37481,"is_reserved":false,"is_disabled":false,"rental_uris":{"android":"levelo://app?vid=d3766b14-fc7e-461f-9614-8a50557d539c","ios":"levelo://app?vid=d3766b14-fc7e-461f-9614-8a50557d539c"},"vehicle_type_id":"4","last_reported":1707048666,"current_range_meters":24800,"station_id":"ce4bgjh2rcd13ifvqbg0","pricing_plan_id":"free"},{"bike_id":"c3aab67d-334d-4698-b463-a5619848e293","system_id":"levelo_inurba_marseille","lat":43.297794,"lon":5.370888,"is_reserved":false,"is_disabled":false,"rental_uris":{"android":"levelo://app?vid=c3aab67d-334d-4698-b463-a5619848e293","ios":"levelo://app?vid=c3aab67d-334d-4698-b463-a5619848e293"},"vehicle_type_id":"4","last_reported":1707048666,"current_range_meters":9600,"station_id":"ce4bgop2rcd13ifvqc1g","pricing_plan_id":"free"},{"bike_id":"d3067c66-e7e2-46f1-8f0d-eabc61ae0d41","system_id":"levelo_inurba_marseille","lat":43.322846,"lon":5.382716,"is_reserved":false,"is_disabled":false,"rental_uris":{"android":"levelo://app?vid=d3067c66-e7e2-46f1-8f0d-eabc61ae0d41","ios":"levelo://app?vid=d3067c66-e7e2-46f1-8f0d-eabc61ae0d41"},"vehicle_type_id":"4","last_reported":1707048666,"current_range_meters":4000,"station_id":"ce4bhr12rcd13ifvqhqg","pricing_plan_id":"free"},{"bike_id":"a28f0eb8-6ba7-4a7e-9d96-6aa8c8ab36d0","system_id":"levelo_inurba_marseille","lat":43.322872,"lon":5.382756,"is_reserved":false,"is_disabled":false,"rental_uris":{"android":"levelo://app?vid=a28f0eb8-6ba7-4a7e-9d96-6aa8c8ab36d0","ios":"levelo://app?vid=a28f0eb8-6ba7-4a7e-9d96-6aa8c8ab36d0"},"vehicle_type_id":"4","last_reported":1707048666,"current_range_meters":30000,"station_id":"ce4bhr12rcd13ifvqhqg","pricing_plan_id":"free"},{"bike_id":"8b023912-5267-4e1c-a403-4d70b425cebe","system_id":"levelo_inurba_marseille","lat":43.322881,"lon":5.382814,"is_reserved":false,"is_disabled":false,"rental_uris":{"android":"levelo://app?vid=8b023912-5267-4e1c-a403-4d70b425cebe","ios":"levelo://app?vid=8b023912-5267-4e1c-a403-4d70b425cebe"},"vehicle_type_id":"4","last_reported":1707048666,"current_range_meters":29600,"station_id":"ce4bhr12rcd13ifvqhqg","pricing_plan_id":"free"},{"bike_id":"d73908e2-2bfd-489b-804e-d4e95fac72d2","system_id":"levelo_inurba_marseille","lat":43.32826,"lon":5.36692,"is_reserved":false,"is_disabled":false,"rental_uris":{"android":"levelo://app?vid=d73908e2-2bfd-489b-804e-d4e95fac72d2","ios":"levelo://app?vid=d73908e2-2bfd-489b-804e-d4e95fac72d2"},"vehicle_type_id":"4","last_reported":1707048666,"current_range_meters":22400,"station_id":"ce4bhs92rcd13ifvqi0g","pricing_plan_id":"free"},{"bike_id":"1900e2ea-9239-49b1-933e-57903fa99707","system_id":"levelo_inurba_marseille","lat":43.32826,"lon":5.36695,"is_reserved":false,"is_disabled":false,"rental_uris":{"android":"levelo://app?vid=1900e2ea-9239-49b1-933e-57903fa99707","ios":"levelo://app?vid=1900e2ea-9239-49b1-933e-57903fa99707"},"vehicle_type_id":"4","last_reported":1707048666,"current_range_meters":11200,"station_id":"ce4bhs92rcd13ifvqi0g","pricing_plan_id":"free"},{"bike_id":"81d6c55c-5ab6-4964-9500-181a7b78889c","system_id":"levelo_inurba_marseille","lat":43.32829,"lon":5.36691,"is_reserved":false,"is_disabled":false,"rental_uris":{"android":"levelo://app?vid=81d6c55c-5ab6-4964-9500-181a7b78889c","ios":"levelo://app?vid=81d6c55c-5ab6-4964-9500-181a7b78889c"},"vehicle_type_id":"4","last_reported":1707048666,"current_range_meters":12000,"station_id":"ce4bhs92rcd13ifvqi0g","pricing_plan_id":"free"},{"bike_id":"f2930654-2727-44d2-8169-6ccf4a2f30fe","system_id":"levelo_inurba_marseille","lat":43.29582,"lon":5.36745,"is_reserved":false,"is_disabled":false,"rental_uris":{"android":"levelo://app?vid=f2930654-2727-44d2-8169-6ccf4a2f30fe","ios":"levelo://app?vid=f2930654-2727-44d2-8169-6ccf4a2f30fe"},"vehicle_type_id":"4","last_reported":1707048666,"current_range_meters":6000,"station_id":"ce4bgph2rcd13ifvqc2g","pricing_plan_id":"free"},{"bike_id":"2dc6850b-d6a2-4539-a85f-1387396e622c","system_id":"levelo_inurba_marseille","lat":43.29573,"lon":5.367355,"is_reserved":false,"is_disabled":false,"rental_uris":{"android":"levelo://app?vid=2dc6850b-d6a2-4539-a85f-1387396e622c","ios":"levelo://app?vid=2dc6850b-d6a2-4539-a85f-1387396e622c"},"vehicle_type_id":"4","last_reported":1707048666,"current_range_meters":19200,"station_id":"ce4bgph2rcd13ifvqc2g","pricing_plan_id":"free"},{"bike_id":"953be6df-c951-40a9-9e33-d564cc315870","system_id":"levelo_inurba_marseille","lat":43.29573,"lon":5.367355,"is_reserved":false,"is_disabled":false,"rental_uris":{"android":"levelo://app?vid=953be6df-c951-40a9-9e33-d564cc315870","ios":"levelo://app?vid=953be6df-c951-40a9-9e33-d564cc315870"},"vehicle_type_id":"4","last_reported":1707048666,"current_range_meters":31200,"station_id":"ce4bgph2rcd13ifvqc2g","pricing_plan_id":"free"},{"bike_id":"e71dbeb2-bdcd-41a9-9e92-b0477debf34d","system_id":"levelo_inurba_marseille","lat":43.296501,"lon":5.374465,"is_reserved":false,"is_disabled":false,"rental_uris":{"android":"levelo://app?vid=e71dbeb2-bdcd-41a9-9e92-b0477debf34d","ios":"levelo://app?vid=e71dbeb2-bdcd-41a9-9e92-b0477debf34d"},"vehicle_type_id":"4","last_reported":1707048666,"current_range_meters":12800,"station_id":"","pricing_plan_id":"free"},{"bike_id":"f8e9fa1b-48e0-4209-ae38-fb574e2d742b","system_id":"levelo_inurba_marseille","lat":43.296935,"lon":5.376544,"is_reserved":false,"is_disabled":false,"rental_uris":{"android":"levelo://app?vid=f8e9fa1b-48e0-4209-ae38-fb574e2d742b","ios":"levelo://app?vid=f8e9fa1b-48e0-4209-ae38-fb574e2d742b"},"vehicle_type_id":"4","last_reported":1707048666,"current_range_meters":19200,"station_id":"ce4bgkh2rcd13ifvqbl0","pricing_plan_id":"free"},{"bike_id":"ab7887c2-0878-42c5-b5ab-afa0bde1ba85","system_id":"levelo_inurba_marseille","lat":43.299028,"lon":5.381509,"is_reserved":false,"is_disabled":false,"rental_uris":{"android":"levelo://app?vid=ab7887c2-0878-42c5-b5ab-afa0bde1ba85","ios":"levelo://app?vid=ab7887c2-0878-42c5-b5ab-afa0bde1ba85"},"vehicle_type_id":"4","last_reported":1707048666,"current_range_meters":14800,"station_id":"ce4bgj12rcd13ifvqbc0","pricing_plan_id":"free"},{"bike_id":"2c6224c1-2fa3-4cb5-8416-7dfb8a3a137c","system_id":"levelo_inurba_marseille","lat":43.296921,"lon":5.376579,"is_reserved":false,"is_disabled":false,"rental_uris":{"android":"levelo://app?vid=2c6224c1-2fa3-4cb5-8416-7dfb8a3a137c","ios":"levelo://app?vid=2c6224c1-2fa3-4cb5-8416-7dfb8a3a137c"},"vehicle_type_id":"4","last_reported":1707048666,"current_range_meters":21600,"station_id":"ce4bgkh2rcd13ifvqbl0","pricing_plan_id":"free"},{"bike_id":"2540d50c-be8f-47a0-8644-d89d524bc6d8","system_id":"levelo_inurba_marseille","lat":43.309589,"lon":5.390258,"is_reserved":false,"is_disabled":false,"rental_uris":{"android":"levelo://app?vid=2540d50c-be8f-47a0-8644-d89d524bc6d8","ios":"levelo://app?vid=2540d50c-be8f-47a0-8644-d89d524bc6d8"},"vehicle_type_id":"4","last_reported":1707048666,"current_range_meters":25600,"station_id":"ce4bgup2rcd13ifvqco0","pricing_plan_id":"free"},{"bike_id":"af179bc8-efcc-4233-b0a7-32b70d3c8202","system_id":"levelo_inurba_marseille","lat":43.30949,"lon":5.39035,"is_reserved":false,"is_disabled":false,"rental_uris":{"android":"levelo://app?vid=af179bc8-efcc-4233-b0a7-32b70d3c8202","ios":"levelo://app?vid=af179bc8-efcc-4233-b0a7-32b70d3c8202"},"vehicle_type_id":"4","last_reported":1707048666,"current_range_meters":0,"station_id":"ce4bgup2rcd13ifvqco0","pricing_plan_id":"free"},{"bike_id":"68eb9a1b-ce5c-45c2-b83a-0fe6066181e7","system_id":"levelo_inurba_marseille","lat":43.2969,"lon":5.37698,"is_reserved":false,"is_disabled":false,"rental_uris":{"android":"levelo://app?vid=68eb9a1b-ce5c-45c2-b83a-0fe6066181e7","ios":"levelo://app?vid=68eb9a1b-ce5c-45c2-b83a-0fe6066181e7"},"vehicle_type_id":"4","last_reported":1707048666,"current_range_meters":0,"station_id":"ce4bgkh2rcd13ifvqbl0","pricing_plan_id":"free"},{"bike_id":"c7970a6b-9cd7-4bd9-9cf2-3c58e824a04c","system_id":"levelo_inurba_marseille","lat":43.317557,"lon":5.390173,"is_reserved":false,"is_disabled":false,"rental_uris":{"android":"levelo://app?vid=c7970a6b-9cd7-4bd9-9cf2-3c58e824a04c","ios":"levelo://app?vid=c7970a6b-9cd7-4bd9-9cf2-3c58e824a04c"},"vehicle_type_id":"4","last_reported":1707048666,"current_range_meters":13200,"station_id":"ce4bhqp2rcd13ifvqhng","pricing_plan_id":"free"},{"bike_id":"15ebf64d-09af-4cd5-9bbd-35d3850675ca","system_id":"levelo_inurba_marseille","lat":43.317557,"lon":5.390173,"is_reserved":false,"is_disabled":false,"rental_uris":{"android":"levelo://app?vid=15ebf64d-09af-4cd5-9bbd-35d3850675ca","ios":"levelo://app?vid=15ebf64d-09af-4cd5-9bbd-35d3850675ca"},"vehicle_type_id":"4","last_reported":1707048666,"current_range_meters":14400,"station_id":"ce4bhqp2rcd13ifvqhng","pricing_plan_id":"free"},{"bike_id":"a100895a-dfdf-4e9d-bf4a-f1415c1f64e0","system_id":"levelo_inurba_marseille","lat":43.317557,"lon":5.390173,"is_reserved":false,"is_disabled":false,"rental_uris":{"android":"levelo://app?vid=a100895a-dfdf-4e9d-bf4a-f1415c1f64e0","ios":"levelo://app?vid=a100895a-dfdf-4e9d-bf4a-f1415c1f64e0"},"vehicle_type_id":"4","last_reported":1707048666,"current_range_meters":14000,"station_id":"ce4bhqp2rcd13ifvqhng","pricing_plan_id":"free"},{"bike_id":"86eba5ee-3f3e-465e-879d-a26eca611b6f","system_id":"levelo_inurba_marseille","lat":43.318272,"lon":5.390259,"is_reserved":false,"is_disabled":false,"rental_uris":{"android":"levelo://app?vid=86eba5ee-3f3e-465e-879d-a26eca611b6f","ios":"levelo://app?vid=86eba5ee-3f3e-465e-879d-a26eca611b6f"},"vehicle_type_id":"4","last_reported":1707048666,"current_range_meters":17600,"station_id":"","pricing_plan_id":"free"},{"bike_id":"939a4f48-7d4d-498f-9acb-eb41e6be6100","system_id":"levelo_inurba_marseille","lat":43.298037,"lon":5.381066,"is_reserved":false,"is_disabled":false,"rental_uris":{"android":"levelo://app?vid=939a4f48-7d4d-498f-9acb-eb41e6be6100","ios":"levelo://app?vid=939a4f48-7d4d-498f-9acb-eb41e6be6100"},"vehicle_type_id":"4","last_reported":1707048666,"current_range_meters":1200,"station_id":"ce4bgip2rcd13ifvqbb0","pricing_plan_id":"free"},{"bike_id":"d3dbb6ac-3752-4c5f-a964-bdc0ddef4e52","system_id":"levelo_inurba_marseille","lat":43.29621,"lon":5.3772,"is_reserved":false,"is_disabled":false,"rental_uris":{"android":"levelo://app?vid=d3dbb6ac-3752-4c5f-a964-bdc0ddef4e52","ios":"levelo://app?vid=d3dbb6ac-3752-4c5f-a964-bdc0ddef4e52"},"vehicle_type_id":"4","last_reported":1707048666,"current_range_meters":0,"station_id":"ce4bgi92rcd13ifvqb90","pricing_plan_id":"free"},{"bike_id":"b17ede08-bc62-4a5e-8981-010c18fd0193","system_id":"levelo_inurba_marseille","lat":43.295279,"lon":5.375048,"is_reserved":false,"is_disabled":false,"rental_uris":{"android":"levelo://app?vid=b17ede08-bc62-4a5e-8981-010c18fd0193","ios":"levelo://app?vid=b17ede08-bc62-4a5e-8981-010c18fd0193"},"vehicle_type_id":"4","last_reported":1707048666,"current_range_meters":27200,"station_id":"ce4bgkp2rcd13ifvqbmg","pricing_plan_id":"free"},{"bike_id":"999af2fa-7743-40b1-ad5a-09d74cc1efed","system_id":"levelo_inurba_marseille","lat":43.32359,"lon":5.38872,"is_reserved":false,"is_disabled":false,"rental_uris":{"android":"levelo://app?vid=999af2fa-7743-40b1-ad5a-09d74cc1efed","ios":"levelo://app?vid=999af2fa-7743-40b1-ad5a-09d74cc1efed"},"vehicle_type_id":"4","last_reported":1707048666,"current_range_meters":23200,"station_id":"ce4bhqp2rcd13ifvqhog","pricing_plan_id":"free"},{"bike_id":"6546d732-35dc-4d39-bdea-98269a1dd008","system_id":"levelo_inurba_marseille","lat":43.32367,"lon":5.388836,"is_reserved":false,"is_disabled":false,"rental_uris":{"android":"levelo://app?vid=6546d732-35dc-4d39-bdea-98269a1dd008","ios":"levelo://app?vid=6546d732-35dc-4d39-bdea-98269a1dd008"},"vehicle_type_id":"4","last_reported":1707048666,"current_range_meters":4800,"station_id":"ce4bhqp2rcd13ifvqhog","pricing_plan_id":"free"},{"bike_id":"c6478534-8a92-48aa-87e2-bf565bc04fb6","system_id":"levelo_inurba_marseille","lat":43.32367,"lon":5.388836,"is_reserved":false,"is_disabled":false,"rental_uris":{"android":"levelo://app?vid=c6478534-8a92-48aa-87e2-bf565bc04fb6","ios":"levelo://app?vid=c6478534-8a92-48aa-87e2-bf565bc04fb6"},"vehicle_type_id":"4","last_reported":1707048666,"current_range_meters":2800,"station_id":"ce4bhqp2rcd13ifvqhog","pricing_plan_id":"free"},{"bike_id":"048e34a5-fed2-4518-b810-3624c92550ae","system_id":"levelo_inurba_marseille","lat":43.32367,"lon":5.388836,"is_reserved":false,"is_disabled":false,"rental_uris":{"android":"levelo://app?vid=048e34a5-fed2-4518-b810-3624c92550ae","ios":"levelo://app?vid=048e34a5-fed2-4518-b810-3624c92550ae"},"vehicle_type_id":"4","last_reported":1707048666,"current_range_meters":800,"station_id":"ce4bhqp2rcd13ifvqhog","pricing_plan_id":"free"},{"bike_id":"cf43375b-8817-4ab6-ad42-e6780f9b774a","system_id":"levelo_inurba_marseille","lat":43.32367,"lon":5.388836,"is_reserved":false,"is_disabled":false,"rental_uris":{"android":"levelo://app?vid=cf43375b-8817-4ab6-ad42-e6780f9b774a","ios":"levelo://app?vid=cf43375b-8817-4ab6-ad42-e6780f9b774a"},"vehicle_type_id":"4","last_reported":1707048666,"current_range_meters":12000,"station_id":"ce4bhqp2rcd13ifvqhog","pricing_plan_id":"free"},{"bike_id":"75ed1df4-b7df-4e88-9e9a-696a19f1762a","system_id":"levelo_inurba_marseille","lat":43.32367,"lon":5.38881,"is_reserved":false,"is_disabled":false,"rental_uris":{"android":"levelo://app?vid=75ed1df4-b7df-4e88-9e9a-696a19f1762a","ios":"levelo://app?vid=75ed1df4-b7df-4e88-9e9a-696a19f1762a"},"vehicle_type_id":"4","last_reported":1707048666,"current_range_meters":6400,"station_id":"ce4bhqp2rcd13ifvqhog","pricing_plan_id":"free"},{"bike_id":"9b081c91-637e-47ff-a6d8-ba13bb5f1be4","system_id":"levelo_inurba_marseille","lat":43.32367,"lon":5.388836,"is_reserved":false,"is_disabled":false,"rental_uris":{"android":"levelo://app?vid=9b081c91-637e-47ff-a6d8-ba13bb5f1be4","ios":"levelo://app?vid=9b081c91-637e-47ff-a6d8-ba13bb5f1be4"},"vehicle_type_id":"4","last_reported":1707048666,"current_range_meters":27600,"station_id":"ce4bhqp2rcd13ifvqhog","pricing_plan_id":"free"},{"bike_id":"54abef4b-dc58-499a-b9eb-45d29f3d616b","system_id":"levelo_inurba_marseille","lat":43.29297,"lon":5.37455,"is_reserved":false,"is_disabled":false,"rental_uris":{"android":"levelo://app?vid=54abef4b-dc58-499a-b9eb-45d29f3d616b","ios":"levelo://app?vid=54abef4b-dc58-499a-b9eb-45d29f3d616b"},"vehicle_type_id":"4","last_reported":1707048666,"current_range_meters":12000,"station_id":"ce4bgi12rcd13ifvqb70","pricing_plan_id":"free"},{"bike_id":"c0b676bd-8e98-4cb3-a8fc-e861348c3b2d","system_id":"levelo_inurba_marseille","lat":43.29361,"lon":5.37862,"is_reserved":false,"is_disabled":false,"rental_uris":{"android":"levelo://app?vid=c0b676bd-8e98-4cb3-a8fc-e861348c3b2d","ios":"levelo://app?vid=c0b676bd-8e98-4cb3-a8fc-e861348c3b2d"},"vehicle_type_id":"4","last_reported":1707048666,"current_range_meters":0,"station_id":"ce4bgjh2rcd13ifvqbf0","pricing_plan_id":"free"},{"bike_id":"f20ebac8-851c-4e23-93e7-e3113c7f799a","system_id":"levelo_inurba_marseille","lat":43.293009,"lon":5.374584,"is_reserved":false,"is_disabled":false,"rental_uris":{"android":"levelo://app?vid=f20ebac8-851c-4e23-93e7-e3113c7f799a","ios":"levelo://app?vid=f20ebac8-851c-4e23-93e7-e3113c7f799a"},"vehicle_type_id":"4","last_reported":1707048666,"current_range_meters":8400,"station_id":"ce4bgi12rcd13ifvqb70","pricing_plan_id":"free"},{"bike_id":"2221d0a3-2f96-4ab7-8654-e2f89c028b4e","system_id":"levelo_inurba_marseille","lat":43.291994,"lon":5.357886,"is_reserved":false,"is_disabled":false,"rental_uris":{"android":"levelo://app?vid=2221d0a3-2f96-4ab7-8654-e2f89c028b4e","ios":"levelo://app?vid=2221d0a3-2f96-4ab7-8654-e2f89c028b4e"},"vehicle_type_id":"4","last_reported":1707048666,"current_range_meters":20800,"station_id":"ce4bhb12rcd13ifvqel0","pricing_plan_id":"free"},{"bike_id":"c6daa204-4f4a-44c4-8fd3-0dabf60cd5d8","system_id":"levelo_inurba_marseille","lat":43.313291,"lon":5.396838,"is_reserved":false,"is_disabled":false,"rental_uris":{"android":"levelo://app?vid=c6daa204-4f4a-44c4-8fd3-0dabf60cd5d8","ios":"levelo://app?vid=c6daa204-4f4a-44c4-8fd3-0dabf60cd5d8"},"vehicle_type_id":"4","last_reported":1707048666,"current_range_meters":5200,"station_id":"ce4bgvp2rcd13ifvqcu0","pricing_plan_id":"free"},{"bike_id":"d7b864d9-0f4e-483f-a3aa-3de53903d219","system_id":"levelo_inurba_marseille","lat":43.313291,"lon":5.396838,"is_reserved":false,"is_disabled":false,"rental_uris":{"android":"levelo://app?vid=d7b864d9-0f4e-483f-a3aa-3de53903d219","ios":"levelo://app?vid=d7b864d9-0f4e-483f-a3aa-3de53903d219"},"vehicle_type_id":"4","last_reported":1707048666,"current_range_meters":28400,"station_id":"ce4bgvp2rcd13ifvqcu0","pricing_plan_id":"free"},{"bike_id":"4419a724-5255-4916-9ab6-08c2c5ae2fc3","system_id":"levelo_inurba_marseille","lat":43.31632,"lon":5.39675,"is_reserved":false,"is_disabled":false,"rental_uris":{"android":"levelo://app?vid=4419a724-5255-4916-9ab6-08c2c5ae2fc3","ios":"levelo://app?vid=4419a724-5255-4916-9ab6-08c2c5ae2fc3"},"vehicle_type_id":"4","last_reported":1707048666,"current_range_meters":28800,"station_id":"","pricing_plan_id":"free"},{"bike_id":"6fae173a-8dd3-4c6c-89f0-73f260fd888a","system_id":"levelo_inurba_marseille","lat":43.290631,"lon":5.359244,"is_reserved":false,"is_disabled":false,"rental_uris":{"android":"levelo://app?vid=6fae173a-8dd3-4c6c-89f0-73f260fd888a","ios":"levelo://app?vid=6fae173a-8dd3-4c6c-89f0-73f260fd888a"},"vehicle_type_id":"4","last_reported":1707048666,"current_range_meters":26800,"station_id":"ce4bha92rcd13ifvqeg0","pricing_plan_id":"free"},{"bike_id":"7c755874-04f4-49a7-881c-3dccfea2f0df","system_id":"levelo_inurba_marseille","lat":43.290441,"lon":5.359123,"is_reserved":false,"is_disabled":false,"rental_uris":{"android":"levelo://app?vid=7c755874-04f4-49a7-881c-3dccfea2f0df","ios":"levelo://app?vid=7c755874-04f4-49a7-881c-3dccfea2f0df"},"vehicle_type_id":"4","last_reported":1707048666,"current_range_meters":0,"station_id":"","pricing_plan_id":"free"},{"bike_id":"991f48fd-2dd1-41ba-9d67-239dcfda5656","system_id":"levelo_inurba_marseille","lat":43.294153,"lon":5.386305,"is_reserved":false,"is_disabled":false,"rental_uris":{"android":"levelo://app?vid=991f48fd-2dd1-41ba-9d67-239dcfda5656","ios":"levelo://app?vid=991f48fd-2dd1-41ba-9d67-239dcfda5656"},"vehicle_type_id":"4","last_reported":1707048666,"current_range_meters":26400,"station_id":"ce4bh2h2rcd13ifvqdh0","pricing_plan_id":"free"},{"bike_id":"9a97cc9a-85cf-4dcd-a09b-6631a1abad9b","system_id":"levelo_inurba_marseille","lat":43.289184,"lon":5.366408,"is_reserved":false,"is_disabled":false,"rental_uris":{"android":"levelo://app?vid=9a97cc9a-85cf-4dcd-a09b-6631a1abad9b","ios":"levelo://app?vid=9a97cc9a-85cf-4dcd-a09b-6631a1abad9b"},"vehicle_type_id":"4","last_reported":1707048666,"current_range_meters":3200,"station_id":"ce4bhap2rcd13ifvqek0","pricing_plan_id":"free"},{"bike_id":"5bdbf397-a7e9-46e4-823e-f838db817311","system_id":"levelo_inurba_marseille","lat":43.289468,"lon":5.363719,"is_reserved":false,"is_disabled":false,"rental_uris":{"android":"levelo://app?vid=5bdbf397-a7e9-46e4-823e-f838db817311","ios":"levelo://app?vid=5bdbf397-a7e9-46e4-823e-f838db817311"},"vehicle_type_id":"4","last_reported":1707048666,"current_range_meters":31200,"station_id":"ce4bhc92rcd13ifvqetg","pricing_plan_id":"free"},{"bike_id":"64e61931-4283-47f2-a95b-6387244c9cc8","system_id":"levelo_inurba_marseille","lat":43.28936,"lon":5.364085,"is_reserved":false,"is_disabled":false,"rental_uris":{"android":"levelo://app?vid=64e61931-4283-47f2-a95b-6387244c9cc8","ios":"levelo://app?vid=64e61931-4283-47f2-a95b-6387244c9cc8"},"vehicle_type_id":"4","last_reported":1707048666,"current_range_meters":31200,"station_id":"ce4bhc92rcd13ifvqetg","pricing_plan_id":"free"},{"bike_id":"e025630c-9a21-4384-8629-bac536688a11","system_id":"levelo_inurba_marseille","lat":43.28935,"lon":5.36403,"is_reserved":false,"is_disabled":false,"rental_uris":{"android":"levelo://app?vid=e025630c-9a21-4384-8629-bac536688a11","ios":"levelo://app?vid=e025630c-9a21-4384-8629-bac536688a11"},"vehicle_type_id":"4","last_reported":1707048666,"current_range_meters":31200,"station_id":"ce4bhc92rcd13ifvqetg","pricing_plan_id":"free"},{"bike_id":"fb846bfa-9423-4b5a-96b8-bbcdd87a1fdb","system_id":"levelo_inurba_marseille","lat":43.290284,"lon":5.356068,"is_reserved":false,"is_disabled":false,"rental_uris":{"android":"levelo://app?vid=fb846bfa-9423-4b5a-96b8-bbcdd87a1fdb","ios":"levelo://app?vid=fb846bfa-9423-4b5a-96b8-bbcdd87a1fdb"},"vehicle_type_id":"4","last_reported":1707048666,"current_range_meters":18000,"station_id":"ce4bhb92rcd13ifvqen0","pricing_plan_id":"free"},{"bike_id":"5d70c5ed-509d-4fc0-804c-564081a309c5","system_id":"levelo_inurba_marseille","lat":43.292644,"lon":5.384257,"is_reserved":false,"is_disabled":false,"rental_uris":{"android":"levelo://app?vid=5d70c5ed-509d-4fc0-804c-564081a309c5","ios":"levelo://app?vid=5d70c5ed-509d-4fc0-804c-564081a309c5"},"vehicle_type_id":"4","last_reported":1707048666,"current_range_meters":0,"station_id":"ce4bh692rcd13ifvqea0","pricing_plan_id":"free"},{"bike_id":"cab8f76a-5f63-4d30-a734-a81af8deabf4","system_id":"levelo_inurba_marseille","lat":43.319179,"lon":5.407725,"is_reserved":false,"is_disabled":false,"rental_uris":{"android":"levelo://app?vid=cab8f76a-5f63-4d30-a734-a81af8deabf4","ios":"levelo://app?vid=cab8f76a-5f63-4d30-a734-a81af8deabf4"},"vehicle_type_id":"4","last_reported":1707048666,"current_range_meters":21200,"station_id":"ce4bhq12rcd13ifvqhig","pricing_plan_id":"free"},{"bike_id":"b35ed3fd-6794-42df-9bac-0ddc4084adae","system_id":"levelo_inurba_marseille","lat":43.29004,"lon":5.35614,"is_reserved":false,"is_disabled":false,"rental_uris":{"android":"levelo://app?vid=b35ed3fd-6794-42df-9bac-0ddc4084adae","ios":"levelo://app?vid=b35ed3fd-6794-42df-9bac-0ddc4084adae"},"vehicle_type_id":"4","last_reported":1707048666,"current_range_meters":20800,"station_id":"ce4bhb92rcd13ifvqen0","pricing_plan_id":"free"},{"bike_id":"70da85d9-31c2-4def-8c45-a17debd276b0","system_id":"levelo_inurba_marseille","lat":43.290104,"lon":5.356111,"is_reserved":false,"is_disabled":false,"rental_uris":{"android":"levelo://app?vid=70da85d9-31c2-4def-8c45-a17debd276b0","ios":"levelo://app?vid=70da85d9-31c2-4def-8c45-a17debd276b0"},"vehicle_type_id":"4","last_reported":1707048666,"current_range_meters":30400,"station_id":"ce4bhb92rcd13ifvqen0","pricing_plan_id":"free"},{"bike_id":"a6e5cc85-3185-4c97-a982-026a4b6c989b","system_id":"levelo_inurba_marseille","lat":43.29005,"lon":5.35608,"is_reserved":false,"is_disabled":false,"rental_uris":{"android":"levelo://app?vid=a6e5cc85-3185-4c97-a982-026a4b6c989b","ios":"levelo://app?vid=a6e5cc85-3185-4c97-a982-026a4b6c989b"},"vehicle_type_id":"4","last_reported":1707048666,"current_range_meters":22400,"station_id":"ce4bhb92rcd13ifvqen0","pricing_plan_id":"free"},{"bike_id":"78d076e7-19b0-4e69-b0e7-5e4a148b9a83","system_id":"levelo_inurba_marseille","lat":43.290104,"lon":5.356111,"is_reserved":false,"is_disabled":false,"rental_uris":{"android":"levelo://app?vid=78d076e7-19b0-4e69-b0e7-5e4a148b9a83","ios":"levelo://app?vid=78d076e7-19b0-4e69-b0e7-5e4a148b9a83"},"vehicle_type_id":"4","last_reported":1707048666,"current_range_meters":26000,"station_id":"ce4bhb92rcd13ifvqen0","pricing_plan_id":"free"},{"bike_id":"407f52c7-ebaa-44b7-853b-aca69f668be1","system_id":"levelo_inurba_marseille","lat":43.29004,"lon":5.35605,"is_reserved":false,"is_disabled":false,"rental_uris":{"android":"levelo://app?vid=407f52c7-ebaa-44b7-853b-aca69f668be1","ios":"levelo://app?vid=407f52c7-ebaa-44b7-853b-aca69f668be1"},"vehicle_type_id":"4","last_reported":1707048666,"current_range_meters":19200,"station_id":"ce4bhb92rcd13ifvqen0","pricing_plan_id":"free"},{"bike_id":"d2346e48-3285-406d-8c0b-91e3dd60826e","system_id":"levelo_inurba_marseille","lat":43.290995,"lon":5.381361,"is_reserved":false,"is_disabled":false,"rental_uris":{"android":"levelo://app?vid=d2346e48-3285-406d-8c0b-91e3dd60826e","ios":"levelo://app?vid=d2346e48-3285-406d-8c0b-91e3dd60826e"},"vehicle_type_id":"4","last_reported":1707048666,"current_range_meters":3600,"station_id":"ce4bh512rcd13ifvqe2g","pricing_plan_id":"free"},{"bike_id":"e4202881-354f-4099-88f5-b8b60e67ce13","system_id":"levelo_inurba_marseille","lat":43.289743,"lon":5.378304,"is_reserved":false,"is_disabled":false,"rental_uris":{"android":"levelo://app?vid=e4202881-354f-4099-88f5-b8b60e67ce13","ios":"levelo://app?vid=e4202881-354f-4099-88f5-b8b60e67ce13"},"vehicle_type_id":"4","last_reported":1707048666,"current_range_meters":24400,"station_id":"ce4bh9p2rcd13ifvqed0","pricing_plan_id":"free"},{"bike_id":"716bc777-24c0-49b4-bbdd-34a004e99eb0","system_id":"levelo_inurba_marseille","lat":43.330442,"lon":5.389148,"is_reserved":false,"is_disabled":false,"rental_uris":{"android":"levelo://app?vid=716bc777-24c0-49b4-bbdd-34a004e99eb0","ios":"levelo://app?vid=716bc777-24c0-49b4-bbdd-34a004e99eb0"},"vehicle_type_id":"4","last_reported":1707048666,"current_range_meters":6800,"station_id":"ce4bhr92rcd13ifvqhrg","pricing_plan_id":"free"},{"bike_id":"13e2688c-43e3-47dc-964f-ea3beace7ef6","system_id":"levelo_inurba_marseille","lat":43.330442,"lon":5.389148,"is_reserved":false,"is_disabled":false,"rental_uris":{"android":"levelo://app?vid=13e2688c-43e3-47dc-964f-ea3beace7ef6","ios":"levelo://app?vid=13e2688c-43e3-47dc-964f-ea3beace7ef6"},"vehicle_type_id":"4","last_reported":1707048666,"current_range_meters":26000,"station_id":"ce4bhr92rcd13ifvqhrg","pricing_plan_id":"free"},{"bike_id":"84ac4dc3-c2f9-4ae0-bf58-9c14e10a514e","system_id":"levelo_inurba_marseille","lat":43.330442,"lon":5.389148,"is_reserved":false,"is_disabled":false,"rental_uris":{"android":"levelo://app?vid=84ac4dc3-c2f9-4ae0-bf58-9c14e10a514e","ios":"levelo://app?vid=84ac4dc3-c2f9-4ae0-bf58-9c14e10a514e"},"vehicle_type_id":"4","last_reported":1707048666,"current_range_meters":0,"station_id":"ce4bhr92rcd13ifvqhrg","pricing_plan_id":"free"},{"bike_id":"5e3e9499-26d7-46d4-8dbf-b03fde83c768","system_id":"levelo_inurba_marseille","lat":43.28856,"lon":5.358371,"is_reserved":false,"is_disabled":false,"rental_uris":{"android":"levelo://app?vid=5e3e9499-26d7-46d4-8dbf-b03fde83c768","ios":"levelo://app?vid=5e3e9499-26d7-46d4-8dbf-b03fde83c768"},"vehicle_type_id":"4","last_reported":1707048666,"current_range_meters":14800,"station_id":"ce4bhb12rcd13ifvqem0","pricing_plan_id":"free"},{"bike_id":"1fa721e9-0a34-46fc-bf33-29b3c18a3ea1","system_id":"levelo_inurba_marseille","lat":43.28856,"lon":5.358371,"is_reserved":false,"is_disabled":false,"rental_uris":{"android":"levelo://app?vid=1fa721e9-0a34-46fc-bf33-29b3c18a3ea1","ios":"levelo://app?vid=1fa721e9-0a34-46fc-bf33-29b3c18a3ea1"},"vehicle_type_id":"4","last_reported":1707048666,"current_range_meters":0,"station_id":"ce4bhb12rcd13ifvqem0","pricing_plan_id":"free"},{"bike_id":"00fcc0c2-d5cd-4aaa-831c-3f8107f3d5fd","system_id":"levelo_inurba_marseille","lat":43.28843,"lon":5.35846,"is_reserved":false,"is_disabled":false,"rental_uris":{"android":"levelo://app?vid=00fcc0c2-d5cd-4aaa-831c-3f8107f3d5fd","ios":"levelo://app?vid=00fcc0c2-d5cd-4aaa-831c-3f8107f3d5fd"},"vehicle_type_id":"4","last_reported":1707048666,"current_range_meters":0,"station_id":"ce4bhb12rcd13ifvqem0","pricing_plan_id":"free"},{"bike_id":"c6776248-4950-445f-9307-ae6dd6fb03af","system_id":"levelo_inurba_marseille","lat":43.33738,"lon":5.37457,"is_reserved":false,"is_disabled":false,"rental_uris":{"android":"levelo://app?vid=c6776248-4950-445f-9307-ae6dd6fb03af","ios":"levelo://app?vid=c6776248-4950-445f-9307-ae6dd6fb03af"},"vehicle_type_id":"4","last_reported":1707048666,"current_range_meters":25200,"station_id":"","pricing_plan_id":"free"},{"bike_id":"71dfc90c-6a75-4311-bc5b-f8620debba53","system_id":"levelo_inurba_marseille","lat":43.312609,"lon":5.401662,"is_reserved":false,"is_disabled":false,"rental_uris":{"android":"levelo://app?vid=71dfc90c-6a75-4311-bc5b-f8620debba53","ios":"levelo://app?vid=71dfc90c-6a75-4311-bc5b-f8620debba53"},"vehicle_type_id":"4","last_reported":1707048666,"current_range_meters":22400,"station_id":"ce4bh092rcd13ifvqd30","pricing_plan_id":"free"},{"bike_id":"c88b544a-7d5f-44cd-9e90-26ffcf31651a","system_id":"levelo_inurba_marseille","lat":43.32686,"lon":5.39586,"is_reserved":false,"is_disabled":false,"rental_uris":{"android":"levelo://app?vid=c88b544a-7d5f-44cd-9e90-26ffcf31651a","ios":"levelo://app?vid=c88b544a-7d5f-44cd-9e90-26ffcf31651a"},"vehicle_type_id":"4","last_reported":1707048666,"current_range_meters":14000,"station_id":"","pricing_plan_id":"free"},{"bike_id":"90aff8d5-af8f-4373-893d-36de47e53f73","system_id":"levelo_inurba_marseille","lat":43.306412,"lon":5.401035,"is_reserved":false,"is_disabled":false,"rental_uris":{"android":"levelo://app?vid=90aff8d5-af8f-4373-893d-36de47e53f73","ios":"levelo://app?vid=90aff8d5-af8f-4373-893d-36de47e53f73"},"vehicle_type_id":"4","last_reported":1707048666,"current_range_meters":10400,"station_id":"ce4bh112rcd13ifvqda0","pricing_plan_id":"free"},{"bike_id":"b5c8cd35-34dd-45ee-b3e7-3050ef3cbe6a","system_id":"levelo_inurba_marseille","lat":43.337673,"lon":5.374918,"is_reserved":false,"is_disabled":false,"rental_uris":{"android":"levelo://app?vid=b5c8cd35-34dd-45ee-b3e7-3050ef3cbe6a","ios":"levelo://app?vid=b5c8cd35-34dd-45ee-b3e7-3050ef3cbe6a"},"vehicle_type_id":"4","last_reported":1707048666,"current_range_meters":12400,"station_id":"","pricing_plan_id":"free"},{"bike_id":"b8b4c931-a1e4-47de-9f78-6b9827100106","system_id":"levelo_inurba_marseille","lat":43.28727,"lon":5.36078,"is_reserved":false,"is_disabled":false,"rental_uris":{"android":"levelo://app?vid=b8b4c931-a1e4-47de-9f78-6b9827100106","ios":"levelo://app?vid=b8b4c931-a1e4-47de-9f78-6b9827100106"},"vehicle_type_id":"4","last_reported":1707048666,"current_range_meters":18000,"station_id":"cki0cbj6b192h4jlfktg","pricing_plan_id":"free"},{"bike_id":"cd8fab46-734c-4d78-9f02-264eb356a35c","system_id":"levelo_inurba_marseille","lat":43.286961,"lon":5.373785,"is_reserved":false,"is_disabled":false,"rental_uris":{"android":"levelo://app?vid=cd8fab46-734c-4d78-9f02-264eb356a35c","ios":"levelo://app?vid=cd8fab46-734c-4d78-9f02-264eb356a35c"},"vehicle_type_id":"4","last_reported":1707048666,"current_range_meters":10000,"station_id":"ce4bh3p2rcd13ifvqdq0","pricing_plan_id":"free"},{"bike_id":"586cc85b-0cf1-4e6d-8bb8-5fe527c4997d","system_id":"levelo_inurba_marseille","lat":43.302759,"lon":5.400793,"is_reserved":false,"is_disabled":false,"rental_uris":{"android":"levelo://app?vid=586cc85b-0cf1-4e6d-8bb8-5fe527c4997d","ios":"levelo://app?vid=586cc85b-0cf1-4e6d-8bb8-5fe527c4997d"},"vehicle_type_id":"4","last_reported":1707048666,"current_range_meters":4400,"station_id":"ce4bgvh2rcd13ifvqcs0","pricing_plan_id":"free"},{"bike_id":"61fc974b-4219-43d4-abe9-bf8d4f0a7ac9","system_id":"levelo_inurba_marseille","lat":43.289307,"lon":5.38406,"is_reserved":false,"is_disabled":false,"rental_uris":{"android":"levelo://app?vid=61fc974b-4219-43d4-abe9-bf8d4f0a7ac9","ios":"levelo://app?vid=61fc974b-4219-43d4-abe9-bf8d4f0a7ac9"},"vehicle_type_id":"4","last_reported":1707048666,"current_range_meters":18000,"station_id":"ce4bh612rcd13ifvqe6g","pricing_plan_id":"free"},{"bike_id":"ffcc497b-ac2a-444a-b334-5de3c32115f3","system_id":"levelo_inurba_marseille","lat":43.29025,"lon":5.38639,"is_reserved":false,"is_disabled":false,"rental_uris":{"android":"levelo://app?vid=ffcc497b-ac2a-444a-b334-5de3c32115f3","ios":"levelo://app?vid=ffcc497b-ac2a-444a-b334-5de3c32115f3"},"vehicle_type_id":"4","last_reported":1707048666,"current_range_meters":8800,"station_id":"ce4bh4p2rcd13ifvqe0g","pricing_plan_id":"free"},{"bike_id":"c049e34b-aa41-488c-b38d-a797d9372e69","system_id":"levelo_inurba_marseille","lat":43.302759,"lon":5.400793,"is_reserved":false,"is_disabled":false,"rental_uris":{"android":"levelo://app?vid=c049e34b-aa41-488c-b38d-a797d9372e69","ios":"levelo://app?vid=c049e34b-aa41-488c-b38d-a797d9372e69"},"vehicle_type_id":"4","last_reported":1707048666,"current_range_meters":19600,"station_id":"ce4bgvh2rcd13ifvqcs0","pricing_plan_id":"free"},{"bike_id":"1006b270-62d1-41ce-b772-12d85684a5f0","system_id":"levelo_inurba_marseille","lat":43.290345,"lon":5.38646,"is_reserved":false,"is_disabled":false,"rental_uris":{"android":"levelo://app?vid=1006b270-62d1-41ce-b772-12d85684a5f0","ios":"levelo://app?vid=1006b270-62d1-41ce-b772-12d85684a5f0"},"vehicle_type_id":"4","last_reported":1707048666,"current_range_meters":10400,"station_id":"ce4bh4p2rcd13ifvqe0g","pricing_plan_id":"free"},{"bike_id":"8b0c5ff6-5ed3-4424-beb7-5341695527fb","system_id":"levelo_inurba_marseille","lat":43.302759,"lon":5.400793,"is_reserved":false,"is_disabled":false,"rental_uris":{"android":"levelo://app?vid=8b0c5ff6-5ed3-4424-beb7-5341695527fb","ios":"levelo://app?vid=8b0c5ff6-5ed3-4424-beb7-5341695527fb"},"vehicle_type_id":"4","last_reported":1707048666,"current_range_meters":16800,"station_id":"ce4bgvh2rcd13ifvqcs0","pricing_plan_id":"free"},{"bike_id":"c1d02dea-6fe7-44f1-b090-a37c51541c02","system_id":"levelo_inurba_marseille","lat":43.31688,"lon":5.40478,"is_reserved":false,"is_disabled":false,"rental_uris":{"android":"levelo://app?vid=c1d02dea-6fe7-44f1-b090-a37c51541c02","ios":"levelo://app?vid=c1d02dea-6fe7-44f1-b090-a37c51541c02"},"vehicle_type_id":"4","last_reported":1707048666,"current_range_meters":14000,"station_id":"ce4bh012rcd13ifvqd00","pricing_plan_id":"free"},{"bike_id":"5cabdb91-ac46-4c1d-847f-bfb3a0055c4f","system_id":"levelo_inurba_marseille","lat":43.316821,"lon":5.404737,"is_reserved":false,"is_disabled":false,"rental_uris":{"android":"levelo://app?vid=5cabdb91-ac46-4c1d-847f-bfb3a0055c4f","ios":"levelo://app?vid=5cabdb91-ac46-4c1d-847f-bfb3a0055c4f"},"vehicle_type_id":"4","last_reported":1707048666,"current_range_meters":28400,"station_id":"ce4bh012rcd13ifvqd00","pricing_plan_id":"free"},{"bike_id":"7907705b-8fae-42ed-9b25-8e48663364e9","system_id":"levelo_inurba_marseille","lat":43.291994,"lon":5.392907,"is_reserved":false,"is_disabled":false,"rental_uris":{"android":"levelo://app?vid=7907705b-8fae-42ed-9b25-8e48663364e9","ios":"levelo://app?vid=7907705b-8fae-42ed-9b25-8e48663364e9"},"vehicle_type_id":"4","last_reported":1707048666,"current_range_meters":16000,"station_id":"ce4bh192rcd13ifvqdd0","pricing_plan_id":"free"},{"bike_id":"5796c04a-8559-4838-9150-a760904b7b4d","system_id":"levelo_inurba_marseille","lat":43.291994,"lon":5.392907,"is_reserved":false,"is_disabled":false,"rental_uris":{"android":"levelo://app?vid=5796c04a-8559-4838-9150-a760904b7b4d","ios":"levelo://app?vid=5796c04a-8559-4838-9150-a760904b7b4d"},"vehicle_type_id":"4","last_reported":1707048666,"current_range_meters":11600,"station_id":"ce4bh192rcd13ifvqdd0","pricing_plan_id":"free"},{"bike_id":"b0894661-0d61-475e-8682-89881143ae86","system_id":"levelo_inurba_marseille","lat":43.284625,"lon":5.35894,"is_reserved":false,"is_disabled":false,"rental_uris":{"android":"levelo://app?vid=b0894661-0d61-475e-8682-89881143ae86","ios":"levelo://app?vid=b0894661-0d61-475e-8682-89881143ae86"},"vehicle_type_id":"4","last_reported":1707048666,"current_range_meters":25200,"station_id":"ce4bhah2rcd13ifvqei0","pricing_plan_id":"free"},{"bike_id":"959ddf3a-b927-4500-9bac-6857bd30b5d5","system_id":"levelo_inurba_marseille","lat":43.286594,"lon":5.383336,"is_reserved":false,"is_disabled":false,"rental_uris":{"android":"levelo://app?vid=959ddf3a-b927-4500-9bac-6857bd30b5d5","ios":"levelo://app?vid=959ddf3a-b927-4500-9bac-6857bd30b5d5"},"vehicle_type_id":"4","last_reported":1707048666,"current_range_meters":12000,"station_id":"","pricing_plan_id":"free"},{"bike_id":"a05f1bed-a03c-47b7-aa2f-33ca3c2cf6ad","system_id":"levelo_inurba_marseille","lat":43.28621,"lon":5.35105,"is_reserved":false,"is_disabled":false,"rental_uris":{"android":"levelo://app?vid=a05f1bed-a03c-47b7-aa2f-33ca3c2cf6ad","ios":"levelo://app?vid=a05f1bed-a03c-47b7-aa2f-33ca3c2cf6ad"},"vehicle_type_id":"4","last_reported":1707048666,"current_range_meters":24800,"station_id":"ce4bhch2rcd13ifvqeug","pricing_plan_id":"free"},{"bike_id":"aa65758a-aec3-4830-b13b-6cf537127a7c","system_id":"levelo_inurba_marseille","lat":43.28614,"lon":5.3511,"is_reserved":false,"is_disabled":false,"rental_uris":{"android":"levelo://app?vid=aa65758a-aec3-4830-b13b-6cf537127a7c","ios":"levelo://app?vid=aa65758a-aec3-4830-b13b-6cf537127a7c"},"vehicle_type_id":"4","last_reported":1707048666,"current_range_meters":18400,"station_id":"ce4bhch2rcd13ifvqeug","pricing_plan_id":"free"},{"bike_id":"1b18b81f-ab58-4066-b7ab-186f6b3b3b49","system_id":"levelo_inurba_marseille","lat":43.285856,"lon":5.350771,"is_reserved":false,"is_disabled":false,"rental_uris":{"android":"levelo://app?vid=1b18b81f-ab58-4066-b7ab-186f6b3b3b49","ios":"levelo://app?vid=1b18b81f-ab58-4066-b7ab-186f6b3b3b49"},"vehicle_type_id":"4","last_reported":1707048666,"current_range_meters":26000,"station_id":"ce4bhch2rcd13ifvqeug","pricing_plan_id":"free"},{"bike_id":"97b6dd9c-c617-4160-90b3-207e6d5a2043","system_id":"levelo_inurba_marseille","lat":43.283998,"lon":5.375062,"is_reserved":false,"is_disabled":false,"rental_uris":{"android":"levelo://app?vid=97b6dd9c-c617-4160-90b3-207e6d5a2043","ios":"levelo://app?vid=97b6dd9c-c617-4160-90b3-207e6d5a2043"},"vehicle_type_id":"4","last_reported":1707048666,"current_range_meters":20800,"station_id":"ce4bh412rcd13ifvqds0","pricing_plan_id":"free"},{"bike_id":"ed55e961-e33d-4e96-863a-a02568b59b0a","system_id":"levelo_inurba_marseille","lat":43.337168,"lon":5.391825,"is_reserved":false,"is_disabled":false,"rental_uris":{"android":"levelo://app?vid=ed55e961-e33d-4e96-863a-a02568b59b0a","ios":"levelo://app?vid=ed55e961-e33d-4e96-863a-a02568b59b0a"},"vehicle_type_id":"4","last_reported":1707048666,"current_range_meters":29600,"station_id":"ce4bhr92rcd13ifvqhsg","pricing_plan_id":"free"},{"bike_id":"3c58f18d-b5bf-40f3-bd04-17a6bdfcc283","system_id":"levelo_inurba_marseille","lat":43.32286,"lon":5.40637,"is_reserved":false,"is_disabled":false,"rental_uris":{"android":"levelo://app?vid=3c58f18d-b5bf-40f3-bd04-17a6bdfcc283","ios":"levelo://app?vid=3c58f18d-b5bf-40f3-bd04-17a6bdfcc283"},"vehicle_type_id":"4","last_reported":1707048666,"current_range_meters":1600,"station_id":"","pricing_plan_id":"free"},{"bike_id":"0dfdf9e3-2510-4f67-b50d-c67f94231c81","system_id":"levelo_inurba_marseille","lat":43.337249,"lon":5.391772,"is_reserved":false,"is_disabled":false,"rental_uris":{"android":"levelo://app?vid=0dfdf9e3-2510-4f67-b50d-c67f94231c81","ios":"levelo://app?vid=0dfdf9e3-2510-4f67-b50d-c67f94231c81"},"vehicle_type_id":"4","last_reported":1707048666,"current_range_meters":26800,"station_id":"ce4bhr92rcd13ifvqhsg","pricing_plan_id":"free"},{"bike_id":"8f658ab6-8fed-4977-8e88-a981133a25a8","system_id":"levelo_inurba_marseille","lat":43.33318,"lon":5.39806,"is_reserved":false,"is_disabled":false,"rental_uris":{"android":"levelo://app?vid=8f658ab6-8fed-4977-8e88-a981133a25a8","ios":"levelo://app?vid=8f658ab6-8fed-4977-8e88-a981133a25a8"},"vehicle_type_id":"4","last_reported":1707048666,"current_range_meters":0,"station_id":"","pricing_plan_id":"free"},{"bike_id":"e7bb5d47-2b4d-48f9-bc41-41f973ff59db","system_id":"levelo_inurba_marseille","lat":43.284793,"lon":5.384119,"is_reserved":false,"is_disabled":false,"rental_uris":{"android":"levelo://app?vid=e7bb5d47-2b4d-48f9-bc41-41f973ff59db","ios":"levelo://app?vid=e7bb5d47-2b4d-48f9-bc41-41f973ff59db"},"vehicle_type_id":"4","last_reported":1707048666,"current_range_meters":11200,"station_id":"ce4bh512rcd13ifvqe3g","pricing_plan_id":"free"},{"bike_id":"4e0049c2-d7fd-49fc-8d8e-6cf5f24bd07e","system_id":"levelo_inurba_marseille","lat":43.288501,"lon":5.393087,"is_reserved":false,"is_disabled":false,"rental_uris":{"android":"levelo://app?vid=4e0049c2-d7fd-49fc-8d8e-6cf5f24bd07e","ios":"levelo://app?vid=4e0049c2-d7fd-49fc-8d8e-6cf5f24bd07e"},"vehicle_type_id":"4","last_reported":1707048666,"current_range_meters":5600,"station_id":"ce4bh2p2rcd13ifvqdi0","pricing_plan_id":"free"},{"bike_id":"c6f0da87-7f6b-43d7-9290-51b6d8026528","system_id":"levelo_inurba_marseille","lat":43.283494,"lon":5.380945,"is_reserved":false,"is_disabled":false,"rental_uris":{"android":"levelo://app?vid=c6f0da87-7f6b-43d7-9290-51b6d8026528","ios":"levelo://app?vid=c6f0da87-7f6b-43d7-9290-51b6d8026528"},"vehicle_type_id":"4","last_reported":1707048666,"current_range_meters":3200,"station_id":"ce4bh412rcd13ifvqdr0","pricing_plan_id":"free"},{"bike_id":"bebd52ad-59f6-44fe-9abe-79af44254e7c","system_id":"levelo_inurba_marseille","lat":43.284219,"lon":5.3497,"is_reserved":false,"is_disabled":false,"rental_uris":{"android":"levelo://app?vid=bebd52ad-59f6-44fe-9abe-79af44254e7c","ios":"levelo://app?vid=bebd52ad-59f6-44fe-9abe-79af44254e7c"},"vehicle_type_id":"4","last_reported":1707048666,"current_range_meters":16400,"station_id":"ce4bhbh2rcd13ifvqepg","pricing_plan_id":"free"},{"bike_id":"bd0b1ad3-bcf6-4b06-b204-d71900d73e0a","system_id":"levelo_inurba_marseille","lat":43.284217,"lon":5.349697,"is_reserved":false,"is_disabled":false,"rental_uris":{"android":"levelo://app?vid=bd0b1ad3-bcf6-4b06-b204-d71900d73e0a","ios":"levelo://app?vid=bd0b1ad3-bcf6-4b06-b204-d71900d73e0a"},"vehicle_type_id":"4","last_reported":1707048666,"current_range_meters":18400,"station_id":"ce4bhbh2rcd13ifvqepg","pricing_plan_id":"free"},{"bike_id":"16a9f1b8-0677-4a8e-9617-06e698ce8847","system_id":"levelo_inurba_marseille","lat":43.284219,"lon":5.3497,"is_reserved":false,"is_disabled":false,"rental_uris":{"android":"levelo://app?vid=16a9f1b8-0677-4a8e-9617-06e698ce8847","ios":"levelo://app?vid=16a9f1b8-0677-4a8e-9617-06e698ce8847"},"vehicle_type_id":"4","last_reported":1707048666,"current_range_meters":24000,"station_id":"ce4bhbh2rcd13ifvqepg","pricing_plan_id":"free"},{"bike_id":"543101cb-dc76-4713-ae34-7c6ff0be0694","system_id":"levelo_inurba_marseille","lat":43.284217,"lon":5.349697,"is_reserved":false,"is_disabled":false,"rental_uris":{"android":"levelo://app?vid=543101cb-dc76-4713-ae34-7c6ff0be0694","ios":"levelo://app?vid=543101cb-dc76-4713-ae34-7c6ff0be0694"},"vehicle_type_id":"4","last_reported":1707048666,"current_range_meters":18800,"station_id":"ce4bhbh2rcd13ifvqepg","pricing_plan_id":"free"},{"bike_id":"ff2b5e00-17f0-424d-915e-08ce84a71789","system_id":"levelo_inurba_marseille","lat":43.284217,"lon":5.349697,"is_reserved":false,"is_disabled":false,"rental_uris":{"android":"levelo://app?vid=ff2b5e00-17f0-424d-915e-08ce84a71789","ios":"levelo://app?vid=ff2b5e00-17f0-424d-915e-08ce84a71789"},"vehicle_type_id":"4","last_reported":1707048666,"current_range_meters":20800,"station_id":"ce4bhbh2rcd13ifvqepg","pricing_plan_id":"free"},{"bike_id":"1c1160ec-ba53-4d80-81ca-a26a619fb0c5","system_id":"levelo_inurba_marseille","lat":43.284217,"lon":5.349697,"is_reserved":false,"is_disabled":false,"rental_uris":{"android":"levelo://app?vid=1c1160ec-ba53-4d80-81ca-a26a619fb0c5","ios":"levelo://app?vid=1c1160ec-ba53-4d80-81ca-a26a619fb0c5"},"vehicle_type_id":"4","last_reported":1707048666,"current_range_meters":16400,"station_id":"ce4bhbh2rcd13ifvqepg","pricing_plan_id":"free"},{"bike_id":"e6cb6f19-be98-4726-8ddf-b89e2fec2f30","system_id":"levelo_inurba_marseille","lat":43.284219,"lon":5.3497,"is_reserved":false,"is_disabled":false,"rental_uris":{"android":"levelo://app?vid=e6cb6f19-be98-4726-8ddf-b89e2fec2f30","ios":"levelo://app?vid=e6cb6f19-be98-4726-8ddf-b89e2fec2f30"},"vehicle_type_id":"4","last_reported":1707048666,"current_range_meters":28800,"station_id":"ce4bhbh2rcd13ifvqepg","pricing_plan_id":"free"},{"bike_id":"2690ece4-b36b-4915-afa5-54b18a3394ca","system_id":"levelo_inurba_marseille","lat":43.284217,"lon":5.349697,"is_reserved":false,"is_disabled":false,"rental_uris":{"android":"levelo://app?vid=2690ece4-b36b-4915-afa5-54b18a3394ca","ios":"levelo://app?vid=2690ece4-b36b-4915-afa5-54b18a3394ca"},"vehicle_type_id":"4","last_reported":1707048666,"current_range_meters":2000,"station_id":"ce4bhbh2rcd13ifvqepg","pricing_plan_id":"free"},{"bike_id":"fd854dd9-69c6-4df6-ace5-44bbc78384fb","system_id":"levelo_inurba_marseille","lat":43.284217,"lon":5.349697,"is_reserved":false,"is_disabled":false,"rental_uris":{"android":"levelo://app?vid=fd854dd9-69c6-4df6-ace5-44bbc78384fb","ios":"levelo://app?vid=fd854dd9-69c6-4df6-ace5-44bbc78384fb"},"vehicle_type_id":"4","last_reported":1707048666,"current_range_meters":25600,"station_id":"ce4bhbh2rcd13ifvqepg","pricing_plan_id":"free"},{"bike_id":"626192c1-ccdd-4639-be32-8f3b8ba74627","system_id":"levelo_inurba_marseille","lat":43.284217,"lon":5.349697,"is_reserved":false,"is_disabled":false,"rental_uris":{"android":"levelo://app?vid=626192c1-ccdd-4639-be32-8f3b8ba74627","ios":"levelo://app?vid=626192c1-ccdd-4639-be32-8f3b8ba74627"},"vehicle_type_id":"4","last_reported":1707048666,"current_range_meters":20000,"station_id":"ce4bhbh2rcd13ifvqepg","pricing_plan_id":"free"},{"bike_id":"203ebfe2-5a6f-4332-a31a-7bfeae25c44b","system_id":"levelo_inurba_marseille","lat":43.284217,"lon":5.349697,"is_reserved":false,"is_disabled":false,"rental_uris":{"android":"levelo://app?vid=203ebfe2-5a6f-4332-a31a-7bfeae25c44b","ios":"levelo://app?vid=203ebfe2-5a6f-4332-a31a-7bfeae25c44b"},"vehicle_type_id":"4","last_reported":1707048666,"current_range_meters":31200,"station_id":"ce4bhbh2rcd13ifvqepg","pricing_plan_id":"free"},{"bike_id":"00ec931d-6aee-47f3-ba00-cddb5cbe4fca","system_id":"levelo_inurba_marseille","lat":43.282735,"lon":5.35066,"is_reserved":false,"is_disabled":false,"rental_uris":{"android":"levelo://app?vid=00ec931d-6aee-47f3-ba00-cddb5cbe4fca","ios":"levelo://app?vid=00ec931d-6aee-47f3-ba00-cddb5cbe4fca"},"vehicle_type_id":"4","last_reported":1707048666,"current_range_meters":27600,"station_id":"ce4bhbp2rcd13ifvqerg","pricing_plan_id":"free"},{"bike_id":"efef05d7-967d-4d52-a40e-0cc4037cd663","system_id":"levelo_inurba_marseille","lat":43.28272,"lon":5.35071,"is_reserved":false,"is_disabled":false,"rental_uris":{"android":"levelo://app?vid=efef05d7-967d-4d52-a40e-0cc4037cd663","ios":"levelo://app?vid=efef05d7-967d-4d52-a40e-0cc4037cd663"},"vehicle_type_id":"4","last_reported":1707048666,"current_range_meters":23200,"station_id":"ce4bhbp2rcd13ifvqerg","pricing_plan_id":"free"},{"bike_id":"43b3539d-5bf6-4955-9c57-bf0730b8c981","system_id":"levelo_inurba_marseille","lat":43.28272,"lon":5.35069,"is_reserved":false,"is_disabled":false,"rental_uris":{"android":"levelo://app?vid=43b3539d-5bf6-4955-9c57-bf0730b8c981","ios":"levelo://app?vid=43b3539d-5bf6-4955-9c57-bf0730b8c981"},"vehicle_type_id":"4","last_reported":1707048666,"current_range_meters":27600,"station_id":"ce4bhbp2rcd13ifvqerg","pricing_plan_id":"free"},{"bike_id":"e0acd6b9-40ca-4d48-a9b6-b3ed244a15ed","system_id":"levelo_inurba_marseille","lat":43.2827,"lon":5.35068,"is_reserved":false,"is_disabled":false,"rental_uris":{"android":"levelo://app?vid=e0acd6b9-40ca-4d48-a9b6-b3ed244a15ed","ios":"levelo://app?vid=e0acd6b9-40ca-4d48-a9b6-b3ed244a15ed"},"vehicle_type_id":"4","last_reported":1707048666,"current_range_meters":0,"station_id":"ce4bhbp2rcd13ifvqerg","pricing_plan_id":"free"},{"bike_id":"949914db-877a-4e91-9479-3997cd8c3591","system_id":"levelo_inurba_marseille","lat":43.282675,"lon":5.350767,"is_reserved":false,"is_disabled":false,"rental_uris":{"android":"levelo://app?vid=949914db-877a-4e91-9479-3997cd8c3591","ios":"levelo://app?vid=949914db-877a-4e91-9479-3997cd8c3591"},"vehicle_type_id":"4","last_reported":1707048666,"current_range_meters":0,"station_id":"ce4bhbp2rcd13ifvqerg","pricing_plan_id":"free"},{"bike_id":"0507efa1-432b-48fc-a980-c44678593f79","system_id":"levelo_inurba_marseille","lat":43.283502,"lon":5.386471,"is_reserved":false,"is_disabled":false,"rental_uris":{"android":"levelo://app?vid=0507efa1-432b-48fc-a980-c44678593f79","ios":"levelo://app?vid=0507efa1-432b-48fc-a980-c44678593f79"},"vehicle_type_id":"4","last_reported":1707048666,"current_range_meters":24400,"station_id":"ce4bh492rcd13ifvqdvg","pricing_plan_id":"free"},{"bike_id":"397ba61a-dc6e-4eab-8a40-2df2b71416a9","system_id":"levelo_inurba_marseille","lat":43.28273,"lon":5.35056,"is_reserved":false,"is_disabled":false,"rental_uris":{"android":"levelo://app?vid=397ba61a-dc6e-4eab-8a40-2df2b71416a9","ios":"levelo://app?vid=397ba61a-dc6e-4eab-8a40-2df2b71416a9"},"vehicle_type_id":"4","last_reported":1707048666,"current_range_meters":14400,"station_id":"ce4bhbp2rcd13ifvqerg","pricing_plan_id":"free"},{"bike_id":"fc6600d6-07d7-4e5c-8ae4-41b0d12d3be6","system_id":"levelo_inurba_marseille","lat":43.28271,"lon":5.35061,"is_reserved":false,"is_disabled":false,"rental_uris":{"android":"levelo://app?vid=fc6600d6-07d7-4e5c-8ae4-41b0d12d3be6","ios":"levelo://app?vid=fc6600d6-07d7-4e5c-8ae4-41b0d12d3be6"},"vehicle_type_id":"4","last_reported":1707048666,"current_range_meters":19600,"station_id":"ce4bhbp2rcd13ifvqerg","pricing_plan_id":"free"},{"bike_id":"9b89050d-53d3-407b-b2f2-e8f87da695aa","system_id":"levelo_inurba_marseille","lat":43.2827,"lon":5.35063,"is_reserved":false,"is_disabled":false,"rental_uris":{"android":"levelo://app?vid=9b89050d-53d3-407b-b2f2-e8f87da695aa","ios":"levelo://app?vid=9b89050d-53d3-407b-b2f2-e8f87da695aa"},"vehicle_type_id":"4","last_reported":1707048666,"current_range_meters":21200,"station_id":"ce4bhbp2rcd13ifvqerg","pricing_plan_id":"free"},{"bike_id":"5d95e1ad-ac58-4d5d-83da-795a6557d2d9","system_id":"levelo_inurba_marseille","lat":43.28264,"lon":5.35083,"is_reserved":false,"is_disabled":false,"rental_uris":{"android":"levelo://app?vid=5d95e1ad-ac58-4d5d-83da-795a6557d2d9","ios":"levelo://app?vid=5d95e1ad-ac58-4d5d-83da-795a6557d2d9"},"vehicle_type_id":"4","last_reported":1707048666,"current_range_meters":400,"station_id":"ce4bhbp2rcd13ifvqerg","pricing_plan_id":"free"},{"bike_id":"2010c46b-5842-4552-835a-7a4ce722be1e","system_id":"levelo_inurba_marseille","lat":43.282677,"lon":5.350695,"is_reserved":false,"is_disabled":false,"rental_uris":{"android":"levelo://app?vid=2010c46b-5842-4552-835a-7a4ce722be1e","ios":"levelo://app?vid=2010c46b-5842-4552-835a-7a4ce722be1e"},"vehicle_type_id":"4","last_reported":1707048666,"current_range_meters":28000,"station_id":"ce4bhbp2rcd13ifvqerg","pricing_plan_id":"free"},{"bike_id":"5edad695-e6cf-4f5c-858f-d48afd03e07f","system_id":"levelo_inurba_marseille","lat":43.2827,"lon":5.3506,"is_reserved":false,"is_disabled":false,"rental_uris":{"android":"levelo://app?vid=5edad695-e6cf-4f5c-858f-d48afd03e07f","ios":"levelo://app?vid=5edad695-e6cf-4f5c-858f-d48afd03e07f"},"vehicle_type_id":"4","last_reported":1707048666,"current_range_meters":1600,"station_id":"ce4bhbp2rcd13ifvqerg","pricing_plan_id":"free"},{"bike_id":"2bfe6dc0-aabb-4fd3-8ed2-3f7669c0ffd5","system_id":"levelo_inurba_marseille","lat":43.28269,"lon":5.35062,"is_reserved":false,"is_disabled":false,"rental_uris":{"android":"levelo://app?vid=2bfe6dc0-aabb-4fd3-8ed2-3f7669c0ffd5","ios":"levelo://app?vid=2bfe6dc0-aabb-4fd3-8ed2-3f7669c0ffd5"},"vehicle_type_id":"4","last_reported":1707048666,"current_range_meters":18800,"station_id":"ce4bhbp2rcd13ifvqerg","pricing_plan_id":"free"},{"bike_id":"d0d14243-76db-4660-997e-7ab617086ff1","system_id":"levelo_inurba_marseille","lat":43.28264,"lon":5.35072,"is_reserved":false,"is_disabled":false,"rental_uris":{"android":"levelo://app?vid=d0d14243-76db-4660-997e-7ab617086ff1","ios":"levelo://app?vid=d0d14243-76db-4660-997e-7ab617086ff1"},"vehicle_type_id":"4","last_reported":1707048666,"current_range_meters":2400,"station_id":"ce4bhbp2rcd13ifvqerg","pricing_plan_id":"free"},{"bike_id":"de02e51e-2424-485b-bbe7-db70eee7c4bb","system_id":"levelo_inurba_marseille","lat":43.283502,"lon":5.386471,"is_reserved":false,"is_disabled":false,"rental_uris":{"android":"levelo://app?vid=de02e51e-2424-485b-bbe7-db70eee7c4bb","ios":"levelo://app?vid=de02e51e-2424-485b-bbe7-db70eee7c4bb"},"vehicle_type_id":"4","last_reported":1707048666,"current_range_meters":15200,"station_id":"ce4bh492rcd13ifvqdvg","pricing_plan_id":"free"},{"bike_id":"ea3868ac-9c8b-4f89-8e5b-f5d0ea832418","system_id":"levelo_inurba_marseille","lat":43.282635,"lon":5.350715,"is_reserved":false,"is_disabled":false,"rental_uris":{"android":"levelo://app?vid=ea3868ac-9c8b-4f89-8e5b-f5d0ea832418","ios":"levelo://app?vid=ea3868ac-9c8b-4f89-8e5b-f5d0ea832418"},"vehicle_type_id":"4","last_reported":1707048666,"current_range_meters":28000,"station_id":"ce4bhbp2rcd13ifvqerg","pricing_plan_id":"free"},{"bike_id":"ab907cdf-e79b-45b7-86f3-3846308a752b","system_id":"levelo_inurba_marseille","lat":43.282629,"lon":5.350726,"is_reserved":false,"is_disabled":false,"rental_uris":{"android":"levelo://app?vid=ab907cdf-e79b-45b7-86f3-3846308a752b","ios":"levelo://app?vid=ab907cdf-e79b-45b7-86f3-3846308a752b"},"vehicle_type_id":"4","last_reported":1707048666,"current_range_meters":29600,"station_id":"ce4bhbp2rcd13ifvqerg","pricing_plan_id":"free"},{"bike_id":"1d9878ca-76e9-4ba9-95ff-37f2054c5c1d","system_id":"levelo_inurba_marseille","lat":43.282624,"lon":5.350732,"is_reserved":false,"is_disabled":false,"rental_uris":{"android":"levelo://app?vid=1d9878ca-76e9-4ba9-95ff-37f2054c5c1d","ios":"levelo://app?vid=1d9878ca-76e9-4ba9-95ff-37f2054c5c1d"},"vehicle_type_id":"4","last_reported":1707048666,"current_range_meters":10000,"station_id":"ce4bhbp2rcd13ifvqerg","pricing_plan_id":"free"},{"bike_id":"4997f785-a7bd-4f17-a1d3-51ac42e5676d","system_id":"levelo_inurba_marseille","lat":43.28263,"lon":5.35068,"is_reserved":false,"is_disabled":false,"rental_uris":{"android":"levelo://app?vid=4997f785-a7bd-4f17-a1d3-51ac42e5676d","ios":"levelo://app?vid=4997f785-a7bd-4f17-a1d3-51ac42e5676d"},"vehicle_type_id":"4","last_reported":1707048666,"current_range_meters":15600,"station_id":"ce4bhbp2rcd13ifvqerg","pricing_plan_id":"free"},{"bike_id":"7f7041d2-a79f-4c1b-a6bd-676a6a3397db","system_id":"levelo_inurba_marseille","lat":43.282651,"lon":5.350552,"is_reserved":false,"is_disabled":false,"rental_uris":{"android":"levelo://app?vid=7f7041d2-a79f-4c1b-a6bd-676a6a3397db","ios":"levelo://app?vid=7f7041d2-a79f-4c1b-a6bd-676a6a3397db"},"vehicle_type_id":"4","last_reported":1707048666,"current_range_meters":2400,"station_id":"ce4bhbp2rcd13ifvqerg","pricing_plan_id":"free"},{"bike_id":"1fad58a4-a836-4217-968d-8817c2403aa8","system_id":"levelo_inurba_marseille","lat":43.280382,"lon":5.369291,"is_reserved":false,"is_disabled":false,"rental_uris":{"android":"levelo://app?vid=1fad58a4-a836-4217-968d-8817c2403aa8","ios":"levelo://app?vid=1fad58a4-a836-4217-968d-8817c2403aa8"},"vehicle_type_id":"4","last_reported":1707048666,"current_range_meters":21200,"station_id":"ce4bha12rcd13ifvqef0","pricing_plan_id":"free"},{"bike_id":"7ed32c65-1122-4585-bec2-28b4f0307fc6","system_id":"levelo_inurba_marseille","lat":43.282556,"lon":5.350733,"is_reserved":false,"is_disabled":false,"rental_uris":{"android":"levelo://app?vid=7ed32c65-1122-4585-bec2-28b4f0307fc6","ios":"levelo://app?vid=7ed32c65-1122-4585-bec2-28b4f0307fc6"},"vehicle_type_id":"4","last_reported":1707048666,"current_range_meters":0,"station_id":"ce4bhbp2rcd13ifvqerg","pricing_plan_id":"free"},{"bike_id":"ee999d41-d401-4a32-ad96-d405b0eb8d25","system_id":"levelo_inurba_marseille","lat":43.28255,"lon":5.35058,"is_reserved":false,"is_disabled":false,"rental_uris":{"android":"levelo://app?vid=ee999d41-d401-4a32-ad96-d405b0eb8d25","ios":"levelo://app?vid=ee999d41-d401-4a32-ad96-d405b0eb8d25"},"vehicle_type_id":"4","last_reported":1707048666,"current_range_meters":18800,"station_id":"ce4bhbp2rcd13ifvqerg","pricing_plan_id":"free"},{"bike_id":"71d58b92-edec-48ac-a338-0c7404e39a67","system_id":"levelo_inurba_marseille","lat":43.282563,"lon":5.350004,"is_reserved":false,"is_disabled":false,"rental_uris":{"android":"levelo://app?vid=71d58b92-edec-48ac-a338-0c7404e39a67","ios":"levelo://app?vid=71d58b92-edec-48ac-a338-0c7404e39a67"},"vehicle_type_id":"4","last_reported":1707048666,"current_range_meters":2400,"station_id":"","pricing_plan_id":"free"},{"bike_id":"e56eb92b-f186-4059-b16d-c0436beaab97","system_id":"levelo_inurba_marseille","lat":43.296263,"lon":5.40601,"is_reserved":false,"is_disabled":false,"rental_uris":{"android":"levelo://app?vid=e56eb92b-f186-4059-b16d-c0436beaab97","ios":"levelo://app?vid=e56eb92b-f186-4059-b16d-c0436beaab97"},"vehicle_type_id":"4","last_reported":1707048666,"current_range_meters":28000,"station_id":"ce4bh0h2rcd13ifvqd60","pricing_plan_id":"free"},{"bike_id":"fa302e06-e42a-473c-ad06-f406efe8b017","system_id":"levelo_inurba_marseille","lat":43.296263,"lon":5.40601,"is_reserved":false,"is_disabled":false,"rental_uris":{"android":"levelo://app?vid=fa302e06-e42a-473c-ad06-f406efe8b017","ios":"levelo://app?vid=fa302e06-e42a-473c-ad06-f406efe8b017"},"vehicle_type_id":"4","last_reported":1707048666,"current_range_meters":9200,"station_id":"ce4bh0h2rcd13ifvqd60","pricing_plan_id":"free"},{"bike_id":"5bcc14bb-a67b-43f7-9484-70d45ab4521e","system_id":"levelo_inurba_marseille","lat":43.29041,"lon":5.399634,"is_reserved":false,"is_disabled":false,"rental_uris":{"android":"levelo://app?vid=5bcc14bb-a67b-43f7-9484-70d45ab4521e","ios":"levelo://app?vid=5bcc14bb-a67b-43f7-9484-70d45ab4521e"},"vehicle_type_id":"4","last_reported":1707048666,"current_range_meters":27200,"station_id":"ce4bh392rcd13ifvqdm0","pricing_plan_id":"free"},{"bike_id":"523c8b62-a394-427c-83ac-1e8f246890d3","system_id":"levelo_inurba_marseille","lat":43.281721,"lon":5.383057,"is_reserved":false,"is_disabled":false,"rental_uris":{"android":"levelo://app?vid=523c8b62-a394-427c-83ac-1e8f246890d3","ios":"levelo://app?vid=523c8b62-a394-427c-83ac-1e8f246890d3"},"vehicle_type_id":"4","last_reported":1707048666,"current_range_meters":2800,"station_id":"","pricing_plan_id":"free"},{"bike_id":"a71c406f-18e7-4fbf-b554-210bb7663bde","system_id":"levelo_inurba_marseille","lat":43.326605,"lon":5.409903,"is_reserved":false,"is_disabled":false,"rental_uris":{"android":"levelo://app?vid=a71c406f-18e7-4fbf-b554-210bb7663bde","ios":"levelo://app?vid=a71c406f-18e7-4fbf-b554-210bb7663bde"},"vehicle_type_id":"4","last_reported":1707048666,"current_range_meters":23200,"station_id":"ce4bhpp2rcd13ifvqhgg","pricing_plan_id":"free"},{"bike_id":"8b1d9aa1-44d8-4960-ae87-dff725b9e0f5","system_id":"levelo_inurba_marseille","lat":43.304188,"lon":5.412904,"is_reserved":false,"is_disabled":false,"rental_uris":{"android":"levelo://app?vid=8b1d9aa1-44d8-4960-ae87-dff725b9e0f5","ios":"levelo://app?vid=8b1d9aa1-44d8-4960-ae87-dff725b9e0f5"},"vehicle_type_id":"4","last_reported":1707048666,"current_range_meters":22800,"station_id":"ce4bhop2rcd13ifvqh8g","pricing_plan_id":"free"},{"bike_id":"9acc8f12-b89d-4b2d-bc7c-51ec8e7fbbd9","system_id":"levelo_inurba_marseille","lat":43.304188,"lon":5.412904,"is_reserved":false,"is_disabled":false,"rental_uris":{"android":"levelo://app?vid=9acc8f12-b89d-4b2d-bc7c-51ec8e7fbbd9","ios":"levelo://app?vid=9acc8f12-b89d-4b2d-bc7c-51ec8e7fbbd9"},"vehicle_type_id":"4","last_reported":1707048666,"current_range_meters":18400,"station_id":"ce4bhop2rcd13ifvqh8g","pricing_plan_id":"free"},{"bike_id":"3263285d-2fcd-4ddf-a5f7-6e237fb5775d","system_id":"levelo_inurba_marseille","lat":43.279087,"lon":5.380114,"is_reserved":false,"is_disabled":false,"rental_uris":{"android":"levelo://app?vid=3263285d-2fcd-4ddf-a5f7-6e237fb5775d","ios":"levelo://app?vid=3263285d-2fcd-4ddf-a5f7-6e237fb5775d"},"vehicle_type_id":"4","last_reported":1707048666,"current_range_meters":24400,"station_id":"ce4bhf92rcd13ifvqf50","pricing_plan_id":"free"},{"bike_id":"0406fa3a-1e61-45e4-a0a0-3de5e801fd93","system_id":"levelo_inurba_marseille","lat":43.287116,"lon":5.399881,"is_reserved":false,"is_disabled":false,"rental_uris":{"android":"levelo://app?vid=0406fa3a-1e61-45e4-a0a0-3de5e801fd93","ios":"levelo://app?vid=0406fa3a-1e61-45e4-a0a0-3de5e801fd93"},"vehicle_type_id":"4","last_reported":1707048666,"current_range_meters":0,"station_id":"ce4bho92rcd13ifvqh3g","pricing_plan_id":"free"},{"bike_id":"0e21862a-faea-4598-b11f-37789112f386","system_id":"levelo_inurba_marseille","lat":43.320045,"lon":5.415048,"is_reserved":false,"is_disabled":false,"rental_uris":{"android":"levelo://app?vid=0e21862a-faea-4598-b11f-37789112f386","ios":"levelo://app?vid=0e21862a-faea-4598-b11f-37789112f386"},"vehicle_type_id":"4","last_reported":1707048666,"current_range_meters":18400,"station_id":"ce4bhq92rcd13ifvqhkg","pricing_plan_id":"free"},{"bike_id":"4eccbd47-6cc9-4679-b1ca-e7dff7c3d665","system_id":"levelo_inurba_marseille","lat":43.320265,"lon":5.41574,"is_reserved":false,"is_disabled":false,"rental_uris":{"android":"levelo://app?vid=4eccbd47-6cc9-4679-b1ca-e7dff7c3d665","ios":"levelo://app?vid=4eccbd47-6cc9-4679-b1ca-e7dff7c3d665"},"vehicle_type_id":"4","last_reported":1707048666,"current_range_meters":0,"station_id":"ce4bhq92rcd13ifvqhkg","pricing_plan_id":"free"},{"bike_id":"1b6e469c-f677-4df1-a94d-89c8d116ff64","system_id":"levelo_inurba_marseille","lat":43.292569,"lon":5.409107,"is_reserved":false,"is_disabled":false,"rental_uris":{"android":"levelo://app?vid=1b6e469c-f677-4df1-a94d-89c8d116ff64","ios":"levelo://app?vid=1b6e469c-f677-4df1-a94d-89c8d116ff64"},"vehicle_type_id":"4","last_reported":1707048666,"current_range_meters":30400,"station_id":"ce4bh192rcd13ifvqdc0","pricing_plan_id":"free"},{"bike_id":"8c49000c-8494-4283-942c-9cae94a59251","system_id":"levelo_inurba_marseille","lat":43.292569,"lon":5.409107,"is_reserved":false,"is_disabled":false,"rental_uris":{"android":"levelo://app?vid=8c49000c-8494-4283-942c-9cae94a59251","ios":"levelo://app?vid=8c49000c-8494-4283-942c-9cae94a59251"},"vehicle_type_id":"4","last_reported":1707048666,"current_range_meters":8400,"station_id":"ce4bh192rcd13ifvqdc0","pricing_plan_id":"free"},{"bike_id":"df433914-0567-4d65-a3e5-19e6b59dba85","system_id":"levelo_inurba_marseille","lat":43.292552,"lon":5.409148,"is_reserved":false,"is_disabled":false,"rental_uris":{"android":"levelo://app?vid=df433914-0567-4d65-a3e5-19e6b59dba85","ios":"levelo://app?vid=df433914-0567-4d65-a3e5-19e6b59dba85"},"vehicle_type_id":"4","last_reported":1707048666,"current_range_meters":24000,"station_id":"ce4bh192rcd13ifvqdc0","pricing_plan_id":"free"},{"bike_id":"41782107-55f5-43f9-822d-6590cad417e5","system_id":"levelo_inurba_marseille","lat":43.276179,"lon":5.361009,"is_reserved":false,"is_disabled":false,"rental_uris":{"android":"levelo://app?vid=41782107-55f5-43f9-822d-6590cad417e5","ios":"levelo://app?vid=41782107-55f5-43f9-822d-6590cad417e5"},"vehicle_type_id":"4","last_reported":1707048666,"current_range_meters":20400,"station_id":"ce4bgj92rcd13ifvqbe0","pricing_plan_id":"free"},{"bike_id":"f5de6bc5-cb6c-4e94-91af-0ccfd0dbd3c6","system_id":"levelo_inurba_marseille","lat":43.325233,"lon":5.414318,"is_reserved":false,"is_disabled":false,"rental_uris":{"android":"levelo://app?vid=f5de6bc5-cb6c-4e94-91af-0ccfd0dbd3c6","ios":"levelo://app?vid=f5de6bc5-cb6c-4e94-91af-0ccfd0dbd3c6"},"vehicle_type_id":"4","last_reported":1707048666,"current_range_meters":29200,"station_id":"ce4bhq12rcd13ifvqhhg","pricing_plan_id":"free"},{"bike_id":"d428bc57-661e-4410-b6e0-fd74c417a9aa","system_id":"levelo_inurba_marseille","lat":43.30343,"lon":5.41839,"is_reserved":false,"is_disabled":false,"rental_uris":{"android":"levelo://app?vid=d428bc57-661e-4410-b6e0-fd74c417a9aa","ios":"levelo://app?vid=d428bc57-661e-4410-b6e0-fd74c417a9aa"},"vehicle_type_id":"4","last_reported":1707048666,"current_range_meters":20400,"station_id":"","pricing_plan_id":"free"},{"bike_id":"9de04763-e3a1-4dd8-b9e2-d2c777837ba6","system_id":"levelo_inurba_marseille","lat":43.27378,"lon":5.36255,"is_reserved":false,"is_disabled":false,"rental_uris":{"android":"levelo://app?vid=9de04763-e3a1-4dd8-b9e2-d2c777837ba6","ios":"levelo://app?vid=9de04763-e3a1-4dd8-b9e2-d2c777837ba6"},"vehicle_type_id":"4","last_reported":1707048666,"current_range_meters":10400,"station_id":"ce4bhbh2rcd13ifvqeo0","pricing_plan_id":"free"},{"bike_id":"1695f48d-19e8-4058-9b5d-f58d3c1c251d","system_id":"levelo_inurba_marseille","lat":43.27378,"lon":5.36251,"is_reserved":false,"is_disabled":false,"rental_uris":{"android":"levelo://app?vid=1695f48d-19e8-4058-9b5d-f58d3c1c251d","ios":"levelo://app?vid=1695f48d-19e8-4058-9b5d-f58d3c1c251d"},"vehicle_type_id":"4","last_reported":1707048666,"current_range_meters":16000,"station_id":"ce4bhbh2rcd13ifvqeo0","pricing_plan_id":"free"},{"bike_id":"dca07654-ef30-4793-b615-b1d5a701cb1a","system_id":"levelo_inurba_marseille","lat":43.273767,"lon":5.362528,"is_reserved":false,"is_disabled":false,"rental_uris":{"android":"levelo://app?vid=dca07654-ef30-4793-b615-b1d5a701cb1a","ios":"levelo://app?vid=dca07654-ef30-4793-b615-b1d5a701cb1a"},"vehicle_type_id":"4","last_reported":1707048666,"current_range_meters":16400,"station_id":"ce4bhbh2rcd13ifvqeo0","pricing_plan_id":"free"},{"bike_id":"c94abb7a-56e6-4960-8a24-fe28ce977b22","system_id":"levelo_inurba_marseille","lat":43.273613,"lon":5.362705,"is_reserved":false,"is_disabled":false,"rental_uris":{"android":"levelo://app?vid=c94abb7a-56e6-4960-8a24-fe28ce977b22","ios":"levelo://app?vid=c94abb7a-56e6-4960-8a24-fe28ce977b22"},"vehicle_type_id":"4","last_reported":1707048666,"current_range_meters":24000,"station_id":"ce4bhbh2rcd13ifvqeo0","pricing_plan_id":"free"},{"bike_id":"3135fe05-eaf7-4571-ace4-48903d81327c","system_id":"levelo_inurba_marseille","lat":43.275625,"lon":5.384392,"is_reserved":false,"is_disabled":false,"rental_uris":{"android":"levelo://app?vid=3135fe05-eaf7-4571-ace4-48903d81327c","ios":"levelo://app?vid=3135fe05-eaf7-4571-ace4-48903d81327c"},"vehicle_type_id":"4","last_reported":1707048666,"current_range_meters":8800,"station_id":"ce4bhh92rcd13ifvqfi0","pricing_plan_id":"free"},{"bike_id":"97074b00-903c-4326-89e4-98b6892bd247","system_id":"levelo_inurba_marseille","lat":43.27373,"lon":5.36249,"is_reserved":false,"is_disabled":false,"rental_uris":{"android":"levelo://app?vid=97074b00-903c-4326-89e4-98b6892bd247","ios":"levelo://app?vid=97074b00-903c-4326-89e4-98b6892bd247"},"vehicle_type_id":"4","last_reported":1707048666,"current_range_meters":28800,"station_id":"ce4bhbh2rcd13ifvqeo0","pricing_plan_id":"free"},{"bike_id":"5e2407f9-70d9-4193-95b1-f1e7fa8d17e4","system_id":"levelo_inurba_marseille","lat":43.33601,"lon":5.4102,"is_reserved":false,"is_disabled":false,"rental_uris":{"android":"levelo://app?vid=5e2407f9-70d9-4193-95b1-f1e7fa8d17e4","ios":"levelo://app?vid=5e2407f9-70d9-4193-95b1-f1e7fa8d17e4"},"vehicle_type_id":"4","last_reported":1707048666,"current_range_meters":5600,"station_id":"ce4bhqh2rcd13ifvqhmg","pricing_plan_id":"free"},{"bike_id":"74ebf639-4ceb-4658-a299-f8cd9c3a8ee5","system_id":"levelo_inurba_marseille","lat":43.273613,"lon":5.362705,"is_reserved":false,"is_disabled":false,"rental_uris":{"android":"levelo://app?vid=74ebf639-4ceb-4658-a299-f8cd9c3a8ee5","ios":"levelo://app?vid=74ebf639-4ceb-4658-a299-f8cd9c3a8ee5"},"vehicle_type_id":"4","last_reported":1707048666,"current_range_meters":31200,"station_id":"ce4bhbh2rcd13ifvqeo0","pricing_plan_id":"free"},{"bike_id":"f704af7f-bdf9-4881-a45c-70d973aaa50e","system_id":"levelo_inurba_marseille","lat":43.336029,"lon":5.410244,"is_reserved":false,"is_disabled":false,"rental_uris":{"android":"levelo://app?vid=f704af7f-bdf9-4881-a45c-70d973aaa50e","ios":"levelo://app?vid=f704af7f-bdf9-4881-a45c-70d973aaa50e"},"vehicle_type_id":"4","last_reported":1707048666,"current_range_meters":18800,"station_id":"ce4bhqh2rcd13ifvqhmg","pricing_plan_id":"free"},{"bike_id":"a9800d85-3f74-46c5-92af-227e8597688c","system_id":"levelo_inurba_marseille","lat":43.27368,"lon":5.36263,"is_reserved":false,"is_disabled":false,"rental_uris":{"android":"levelo://app?vid=a9800d85-3f74-46c5-92af-227e8597688c","ios":"levelo://app?vid=a9800d85-3f74-46c5-92af-227e8597688c"},"vehicle_type_id":"4","last_reported":1707048666,"current_range_meters":31200,"station_id":"ce4bhbh2rcd13ifvqeo0","pricing_plan_id":"free"},{"bike_id":"051fb3d6-31a5-429e-9b05-708c7d564f81","system_id":"levelo_inurba_marseille","lat":43.336018,"lon":5.41026,"is_reserved":false,"is_disabled":false,"rental_uris":{"android":"levelo://app?vid=051fb3d6-31a5-429e-9b05-708c7d564f81","ios":"levelo://app?vid=051fb3d6-31a5-429e-9b05-708c7d564f81"},"vehicle_type_id":"4","last_reported":1707048666,"current_range_meters":10000,"station_id":"ce4bhqh2rcd13ifvqhmg","pricing_plan_id":"free"},{"bike_id":"10179605-4ea6-4659-8e82-dfe3cb87eb8d","system_id":"levelo_inurba_marseille","lat":43.27368,"lon":5.36255,"is_reserved":false,"is_disabled":false,"rental_uris":{"android":"levelo://app?vid=10179605-4ea6-4659-8e82-dfe3cb87eb8d","ios":"levelo://app?vid=10179605-4ea6-4659-8e82-dfe3cb87eb8d"},"vehicle_type_id":"4","last_reported":1707048666,"current_range_meters":29600,"station_id":"ce4bhbh2rcd13ifvqeo0","pricing_plan_id":"free"},{"bike_id":"2a5f3901-fe6d-4ca6-a973-93dc17c338a8","system_id":"levelo_inurba_marseille","lat":43.33599,"lon":5.41032,"is_reserved":false,"is_disabled":false,"rental_uris":{"android":"levelo://app?vid=2a5f3901-fe6d-4ca6-a973-93dc17c338a8","ios":"levelo://app?vid=2a5f3901-fe6d-4ca6-a973-93dc17c338a8"},"vehicle_type_id":"4","last_reported":1707048666,"current_range_meters":800,"station_id":"ce4bhqh2rcd13ifvqhmg","pricing_plan_id":"free"},{"bike_id":"59d4f130-2b65-4088-92f9-12f164266b73","system_id":"levelo_inurba_marseille","lat":43.33612,"lon":5.410321,"is_reserved":false,"is_disabled":false,"rental_uris":{"android":"levelo://app?vid=59d4f130-2b65-4088-92f9-12f164266b73","ios":"levelo://app?vid=59d4f130-2b65-4088-92f9-12f164266b73"},"vehicle_type_id":"4","last_reported":1707048666,"current_range_meters":11200,"station_id":"ce4bhqh2rcd13ifvqhmg","pricing_plan_id":"free"},{"bike_id":"f0a680e8-74d9-43b9-9396-fce9ff94fe4d","system_id":"levelo_inurba_marseille","lat":43.27366,"lon":5.3626,"is_reserved":false,"is_disabled":false,"rental_uris":{"android":"levelo://app?vid=f0a680e8-74d9-43b9-9396-fce9ff94fe4d","ios":"levelo://app?vid=f0a680e8-74d9-43b9-9396-fce9ff94fe4d"},"vehicle_type_id":"4","last_reported":1707048666,"current_range_meters":31200,"station_id":"ce4bhbh2rcd13ifvqeo0","pricing_plan_id":"free"},{"bike_id":"cac0c37c-0de6-4d0e-b410-5707d253bd44","system_id":"levelo_inurba_marseille","lat":43.336148,"lon":5.410349,"is_reserved":false,"is_disabled":false,"rental_uris":{"android":"levelo://app?vid=cac0c37c-0de6-4d0e-b410-5707d253bd44","ios":"levelo://app?vid=cac0c37c-0de6-4d0e-b410-5707d253bd44"},"vehicle_type_id":"4","last_reported":1707048666,"current_range_meters":31200,"station_id":"ce4bhqh2rcd13ifvqhmg","pricing_plan_id":"free"},{"bike_id":"fda18995-5b00-4523-9077-095b84694a1a","system_id":"levelo_inurba_marseille","lat":43.336148,"lon":5.410349,"is_reserved":false,"is_disabled":false,"rental_uris":{"android":"levelo://app?vid=fda18995-5b00-4523-9077-095b84694a1a","ios":"levelo://app?vid=fda18995-5b00-4523-9077-095b84694a1a"},"vehicle_type_id":"4","last_reported":1707048666,"current_range_meters":31200,"station_id":"ce4bhqh2rcd13ifvqhmg","pricing_plan_id":"free"},{"bike_id":"285c0f71-4697-42ed-8562-2c1fd85beeae","system_id":"levelo_inurba_marseille","lat":43.276769,"lon":5.388787,"is_reserved":false,"is_disabled":false,"rental_uris":{"android":"levelo://app?vid=285c0f71-4697-42ed-8562-2c1fd85beeae","ios":"levelo://app?vid=285c0f71-4697-42ed-8562-2c1fd85beeae"},"vehicle_type_id":"4","last_reported":1707048666,"current_range_meters":21600,"station_id":"ce4bhi12rcd13ifvqfo0","pricing_plan_id":"free"},{"bike_id":"65fe8b5d-caed-4b2f-a1de-4bc99d2a4018","system_id":"levelo_inurba_marseille","lat":43.317121,"lon":5.423936,"is_reserved":false,"is_disabled":false,"rental_uris":{"android":"levelo://app?vid=65fe8b5d-caed-4b2f-a1de-4bc99d2a4018","ios":"levelo://app?vid=65fe8b5d-caed-4b2f-a1de-4bc99d2a4018"},"vehicle_type_id":"4","last_reported":1707048666,"current_range_meters":0,"station_id":"ce4bhp92rcd13ifvqhbg","pricing_plan_id":"free"},{"bike_id":"83cfee18-fdb6-48c9-910a-cf2c3b18a96a","system_id":"levelo_inurba_marseille","lat":43.317121,"lon":5.423936,"is_reserved":false,"is_disabled":false,"rental_uris":{"android":"levelo://app?vid=83cfee18-fdb6-48c9-910a-cf2c3b18a96a","ios":"levelo://app?vid=83cfee18-fdb6-48c9-910a-cf2c3b18a96a"},"vehicle_type_id":"4","last_reported":1707048666,"current_range_meters":31200,"station_id":"ce4bhp92rcd13ifvqhbg","pricing_plan_id":"free"},{"bike_id":"d6631a1e-95e1-4d14-9455-b37f6a32279d","system_id":"levelo_inurba_marseille","lat":43.317121,"lon":5.423936,"is_reserved":false,"is_disabled":false,"rental_uris":{"android":"levelo://app?vid=d6631a1e-95e1-4d14-9455-b37f6a32279d","ios":"levelo://app?vid=d6631a1e-95e1-4d14-9455-b37f6a32279d"},"vehicle_type_id":"4","last_reported":1707048666,"current_range_meters":3200,"station_id":"ce4bhp92rcd13ifvqhbg","pricing_plan_id":"free"},{"bike_id":"f1617fdb-504f-4823-a16e-07aa08b42e86","system_id":"levelo_inurba_marseille","lat":43.317121,"lon":5.423936,"is_reserved":false,"is_disabled":false,"rental_uris":{"android":"levelo://app?vid=f1617fdb-504f-4823-a16e-07aa08b42e86","ios":"levelo://app?vid=f1617fdb-504f-4823-a16e-07aa08b42e86"},"vehicle_type_id":"4","last_reported":1707048666,"current_range_meters":3600,"station_id":"ce4bhp92rcd13ifvqhbg","pricing_plan_id":"free"},{"bike_id":"f982038d-6f6f-4dc6-a3ea-b86f1c6aafff","system_id":"levelo_inurba_marseille","lat":43.310785,"lon":5.424305,"is_reserved":false,"is_disabled":false,"rental_uris":{"android":"levelo://app?vid=f982038d-6f6f-4dc6-a3ea-b86f1c6aafff","ios":"levelo://app?vid=f982038d-6f6f-4dc6-a3ea-b86f1c6aafff"},"vehicle_type_id":"4","last_reported":1707048666,"current_range_meters":26400,"station_id":"ce4bhp92rcd13ifvqhag","pricing_plan_id":"free"},{"bike_id":"9c1591f8-179d-41c0-9aef-6a89cee57cd0","system_id":"levelo_inurba_marseille","lat":43.310785,"lon":5.424305,"is_reserved":false,"is_disabled":false,"rental_uris":{"android":"levelo://app?vid=9c1591f8-179d-41c0-9aef-6a89cee57cd0","ios":"levelo://app?vid=9c1591f8-179d-41c0-9aef-6a89cee57cd0"},"vehicle_type_id":"4","last_reported":1707048666,"current_range_meters":7600,"station_id":"ce4bhp92rcd13ifvqhag","pricing_plan_id":"free"},{"bike_id":"12e2b105-dcb5-40b2-9315-97c4f28fa71b","system_id":"levelo_inurba_marseille","lat":43.31081,"lon":5.42432,"is_reserved":false,"is_disabled":false,"rental_uris":{"android":"levelo://app?vid=12e2b105-dcb5-40b2-9315-97c4f28fa71b","ios":"levelo://app?vid=12e2b105-dcb5-40b2-9315-97c4f28fa71b"},"vehicle_type_id":"4","last_reported":1707048666,"current_range_meters":0,"station_id":"ce4bhp92rcd13ifvqhag","pricing_plan_id":"free"},{"bike_id":"1ae01579-7e5f-4bb0-ab29-68fe6cde5349","system_id":"levelo_inurba_marseille","lat":43.27378,"lon":5.390795,"is_reserved":false,"is_disabled":false,"rental_uris":{"android":"levelo://app?vid=1ae01579-7e5f-4bb0-ab29-68fe6cde5349","ios":"levelo://app?vid=1ae01579-7e5f-4bb0-ab29-68fe6cde5349"},