{"last_updated":1748866906,"ttl":60,"version":"2.2","data":{"bikes":[{"bike_id":"eeedf0fe-972e-4a5e-8e58-8c523f478774","system_id":"levelo_inurba_marseille","lat":43.313475,"lon":5.367341,"is_reserved":false,"is_disabled":false,"rental_uris":{"android":"levelo://app?vid=eeedf0fe-972e-4a5e-8e58-8c523f478774","ios":"levelo://app?vid=eeedf0fe-972e-4a5e-8e58-8c523f478774"},"vehicle_type_id":"4","last_reported":1748866906,"current_range_meters":2800,"station_id":"","pricing_plan_id":"cebpf4jnsgd1na2vs0mg"},{"bike_id":"eb414361-009b-49a9-aa55-d09f2f225325","system_id":"levelo_inurba_marseille","lat":43.29037,"lon":5.38139,"is_reserved":false,"is_disabled":false,"rental_uris":{"android":"levelo://app?vid=eb414361-009b-49a9-aa55-d09f2f225325","ios":"levelo://app?vid=eb414361-009b-49a9-aa55-d09f2f225325"},"vehicle_type_id":"4","last_reported":1748866906,"current_range_meters":2800,"station_id":"ce4bh4p2rcd13ifvqe1g","pricing_plan_id":"cebpf4jnsgd1na2vs0mg"},{"bike_id":"856921fa-71f2-4879-a42b-58fd6d7b6a14","system_id":"levelo_inurba_marseille","lat":43.320069,"lon":5.394663,"is_reserved":false,"is_disabled":false,"rental_uris":{"android":"levelo://app?vid=856921fa-71f2-4879-a42b-58fd6d7b6a14","ios":"levelo://app?vid=856921fa-71f2-4879-a42b-58fd6d7b6a14"},"vehicle_type_id":"4","last_reported":1748866906,"current_range_meters":3200,"station_id":"","pricing_plan_id":"cebpf4jnsgd1na2vs0mg"},{"bike_id":"1d145910-c533-404d-9c78-9846214a9a9d","system_id":"levelo_inurba_marseille","lat":43.306053,"lon":5.393653,"is_reserved":false,"is_disabled":false,"rental_uris":{"android":"levelo://app?vid=1d145910-c533-404d-9c78-9846214a9a9d","ios":"levelo://app?vid=1d145910-c533-404d-9c78-9846214a9a9d"},"vehicle_type_id":"4","last_reported":1748866906,"current_range_meters":3600,"station_id":"ce4bh0p2rcd13ifvqd80","pricing_plan_id":"cebpf4jnsgd1na2vs0mg"},{"bike_id":"e619ac69-8767-4101-b9cf-f103bcdc09fe","system_id":"levelo_inurba_marseille","lat":43.28721,"lon":5.36091,"is_reserved":false,"is_disabled":false,"rental_uris":{"android":"levelo://app?vid=e619ac69-8767-4101-b9cf-f103bcdc09fe","ios":"levelo://app?vid=e619ac69-8767-4101-b9cf-f103bcdc09fe"},"vehicle_type_id":"4","last_reported":1748866906,"current_range_meters":3200,"station_id":"cki0cbj6b192h4jlfktg","pricing_plan_id":"cebpf4jnsgd1na2vs0mg"},{"bike_id":"7f6152fb-4764-441c-837f-1953bb95f056","system_id":"levelo_inurba_marseille","lat":43.2695,"lon":5.38624,"is_reserved":false,"is_disabled":false,"rental_uris":{"android":"levelo://app?vid=7f6152fb-4764-441c-837f-1953bb95f056","ios":"levelo://app?vid=7f6152fb-4764-441c-837f-1953bb95f056"},"vehicle_type_id":"4","last_reported":1748866906,"current_range_meters":3600,"station_id":"ce4bhh92rcd13ifvqfh0","pricing_plan_id":"cebpf4jnsgd1na2vs0mg"},{"bike_id":"138e6dfa-41dd-4ecc-b996-cbc4994eca66","system_id":"levelo_inurba_marseille","lat":43.29522,"lon":5.3751,"is_reserved":false,"is_disabled":false,"rental_uris":{"android":"levelo://app?vid=138e6dfa-41dd-4ecc-b996-cbc4994eca66","ios":"levelo://app?vid=138e6dfa-41dd-4ecc-b996-cbc4994eca66"},"vehicle_type_id":"4","last_reported":1748866906,"current_range_meters":3600,"station_id":"ce4bgkp2rcd13ifvqbmg","pricing_plan_id":"cebpf4jnsgd1na2vs0mg"},{"bike_id":"1c49fb93-aa0e-4784-835f-f5d95a43e453","system_id":"levelo_inurba_marseille","lat":43.296228,"lon":5.371621,"is_reserved":false,"is_disabled":false,"rental_uris":{"android":"levelo://app?vid=1c49fb93-aa0e-4784-835f-f5d95a43e453","ios":"levelo://app?vid=1c49fb93-aa0e-4784-835f-f5d95a43e453"},"vehicle_type_id":"4","last_reported":1748866906,"current_range_meters":4000,"station_id":"ce4bgnh2rcd13ifvqc0g","pricing_plan_id":"cebpf4jnsgd1na2vs0mg"},{"bike_id":"65355cbf-d41f-4454-a844-ccd27e227b15","system_id":"levelo_inurba_marseille","lat":43.29718,"lon":5.37694,"is_reserved":false,"is_disabled":false,"rental_uris":{"android":"levelo://app?vid=65355cbf-d41f-4454-a844-ccd27e227b15","ios":"levelo://app?vid=65355cbf-d41f-4454-a844-ccd27e227b15"},"vehicle_type_id":"4","last_reported":1748866906,"current_range_meters":4000,"station_id":"ce4bgkh2rcd13ifvqbl0","pricing_plan_id":"cebpf4jnsgd1na2vs0mg"},{"bike_id":"62d09e51-cd7a-47d9-bb45-069315c0e75a","system_id":"levelo_inurba_marseille","lat":43.24387,"lon":5.37053,"is_reserved":false,"is_disabled":false,"rental_uris":{"android":"levelo://app?vid=62d09e51-cd7a-47d9-bb45-069315c0e75a","ios":"levelo://app?vid=62d09e51-cd7a-47d9-bb45-069315c0e75a"},"vehicle_type_id":"4","last_reported":1748866906,"current_range_meters":4400,"station_id":"ce4bhhh2rcd13ifvqfk0","pricing_plan_id":"cebpf4jnsgd1na2vs0mg"},{"bike_id":"8dfc0c97-f5a4-46f2-9ef0-0395d5a5262f","system_id":"levelo_inurba_marseille","lat":43.28267,"lon":5.35063,"is_reserved":false,"is_disabled":false,"rental_uris":{"android":"levelo://app?vid=8dfc0c97-f5a4-46f2-9ef0-0395d5a5262f","ios":"levelo://app?vid=8dfc0c97-f5a4-46f2-9ef0-0395d5a5262f"},"vehicle_type_id":"4","last_reported":1748866906,"current_range_meters":4400,"station_id":"ce4bhbp2rcd13ifvqerg","pricing_plan_id":"cebpf4jnsgd1na2vs0mg"},{"bike_id":"892d0868-b63c-4a0a-9f8b-47b73e4ab569","system_id":"levelo_inurba_marseille","lat":43.30426,"lon":5.397461,"is_reserved":false,"is_disabled":false,"rental_uris":{"android":"levelo://app?vid=892d0868-b63c-4a0a-9f8b-47b73e4ab569","ios":"levelo://app?vid=892d0868-b63c-4a0a-9f8b-47b73e4ab569"},"vehicle_type_id":"4","last_reported":1748866906,"current_range_meters":4400,"station_id":"ce4bh092rcd13ifvqd20","pricing_plan_id":"cebpf4jnsgd1na2vs0mg"},{"bike_id":"1e0a1263-2d49-46a8-b582-8ca914271a59","system_id":"levelo_inurba_marseille","lat":43.25871,"lon":5.39894,"is_reserved":false,"is_disabled":false,"rental_uris":{"android":"levelo://app?vid=1e0a1263-2d49-46a8-b582-8ca914271a59","ios":"levelo://app?vid=1e0a1263-2d49-46a8-b582-8ca914271a59"},"vehicle_type_id":"4","last_reported":1748866906,"current_range_meters":4000,"station_id":"ce4bhl92rcd13ifvqghg","pricing_plan_id":"cebpf4jnsgd1na2vs0mg"},{"bike_id":"65221174-3cac-4cac-9e53-28ed83387792","system_id":"levelo_inurba_marseille","lat":43.296322,"lon":5.405954,"is_reserved":false,"is_disabled":false,"rental_uris":{"android":"levelo://app?vid=65221174-3cac-4cac-9e53-28ed83387792","ios":"levelo://app?vid=65221174-3cac-4cac-9e53-28ed83387792"},"vehicle_type_id":"4","last_reported":1748866906,"current_range_meters":4000,"station_id":"ce4bh0h2rcd13ifvqd60","pricing_plan_id":"cebpf4jnsgd1na2vs0mg"},{"bike_id":"8c646242-c6bc-4c42-8a25-7444cae6e6cd","system_id":"levelo_inurba_marseille","lat":43.26957,"lon":5.3863,"is_reserved":false,"is_disabled":false,"rental_uris":{"android":"levelo://app?vid=8c646242-c6bc-4c42-8a25-7444cae6e6cd","ios":"levelo://app?vid=8c646242-c6bc-4c42-8a25-7444cae6e6cd"},"vehicle_type_id":"4","last_reported":1748866906,"current_range_meters":4400,"station_id":"ce4bhh92rcd13ifvqfh0","pricing_plan_id":"cebpf4jnsgd1na2vs0mg"},{"bike_id":"308eaf9c-019f-4bf6-a7a3-3470486b0bc9","system_id":"levelo_inurba_marseille","lat":43.23199,"lon":5.35552,"is_reserved":false,"is_disabled":false,"rental_uris":{"android":"levelo://app?vid=308eaf9c-019f-4bf6-a7a3-3470486b0bc9","ios":"levelo://app?vid=308eaf9c-019f-4bf6-a7a3-3470486b0bc9"},"vehicle_type_id":"4","last_reported":1748866906,"current_range_meters":4800,"station_id":"ce4bhu92rcd13ifvqi70","pricing_plan_id":"cebpf4jnsgd1na2vs0mg"},{"bike_id":"4afbd1c0-88a8-41dc-9b9e-80107bf33057","system_id":"levelo_inurba_marseille","lat":43.29921,"lon":5.37459,"is_reserved":false,"is_disabled":false,"rental_uris":{"android":"levelo://app?vid=4afbd1c0-88a8-41dc-9b9e-80107bf33057","ios":"levelo://app?vid=4afbd1c0-88a8-41dc-9b9e-80107bf33057"},"vehicle_type_id":"4","last_reported":1748866906,"current_range_meters":4800,"station_id":"ce4bgjh2rcd13ifvqbg0","pricing_plan_id":"cebpf4jnsgd1na2vs0mg"},{"bike_id":"2300d72d-38b4-430d-8861-3837b49d3d52","system_id":"levelo_inurba_marseille","lat":43.28486,"lon":5.38566,"is_reserved":false,"is_disabled":false,"rental_uris":{"android":"levelo://app?vid=2300d72d-38b4-430d-8861-3837b49d3d52","ios":"levelo://app?vid=2300d72d-38b4-430d-8861-3837b49d3d52"},"vehicle_type_id":"4","last_reported":1748866906,"current_range_meters":5600,"station_id":"ce4bh8p2rcd13ifvqeb0","pricing_plan_id":"cebpf4jnsgd1na2vs0mg"},{"bike_id":"ff74b03e-48b0-4fee-b34c-3c4df9df2c40","system_id":"levelo_inurba_marseille","lat":43.23195,"lon":5.35554,"is_reserved":false,"is_disabled":false,"rental_uris":{"android":"levelo://app?vid=ff74b03e-48b0-4fee-b34c-3c4df9df2c40","ios":"levelo://app?vid=ff74b03e-48b0-4fee-b34c-3c4df9df2c40"},"vehicle_type_id":"4","last_reported":1748866906,"current_range_meters":5600,"station_id":"ce4bhu92rcd13ifvqi70","pricing_plan_id":"cebpf4jnsgd1na2vs0mg"},{"bike_id":"bd474dda-9635-4458-9aa3-df6fcb1ca6f4","system_id":"levelo_inurba_marseille","lat":43.30134,"lon":5.38059,"is_reserved":false,"is_disabled":false,"rental_uris":{"android":"levelo://app?vid=bd474dda-9635-4458-9aa3-df6fcb1ca6f4","ios":"levelo://app?vid=bd474dda-9635-4458-9aa3-df6fcb1ca6f4"},"vehicle_type_id":"4","last_reported":1748866906,"current_range_meters":5600,"station_id":"ce4bgjp2rcd13ifvqbh0","pricing_plan_id":"cebpf4jnsgd1na2vs0mg"},{"bike_id":"322e98ab-e99a-4689-8ca7-d5c5bbd1315a","system_id":"levelo_inurba_marseille","lat":43.31345,"lon":5.36721,"is_reserved":false,"is_disabled":false,"rental_uris":{"android":"levelo://app?vid=322e98ab-e99a-4689-8ca7-d5c5bbd1315a","ios":"levelo://app?vid=322e98ab-e99a-4689-8ca7-d5c5bbd1315a"},"vehicle_type_id":"4","last_reported":1748866906,"current_range_meters":5600,"station_id":"ce4bgr92rcd13ifvqc6g","pricing_plan_id":"cebpf4jnsgd1na2vs0mg"},{"bike_id":"4fb1c657-8fe0-46da-b3cf-1795380c0f39","system_id":"levelo_inurba_marseille","lat":43.29959,"lon":5.41312,"is_reserved":false,"is_disabled":false,"rental_uris":{"android":"levelo://app?vid=4fb1c657-8fe0-46da-b3cf-1795380c0f39","ios":"levelo://app?vid=4fb1c657-8fe0-46da-b3cf-1795380c0f39"},"vehicle_type_id":"4","last_reported":1748866906,"current_range_meters":6000,"station_id":"ce4bhp12rcd13ifvqh9g","pricing_plan_id":"cebpf4jnsgd1na2vs0mg"},{"bike_id":"f379db0f-d3c7-48dd-b031-4e246dedd871","system_id":"levelo_inurba_marseille","lat":43.27967,"lon":5.38735,"is_reserved":false,"is_disabled":false,"rental_uris":{"android":"levelo://app?vid=f379db0f-d3c7-48dd-b031-4e246dedd871","ios":"levelo://app?vid=f379db0f-d3c7-48dd-b031-4e246dedd871"},"vehicle_type_id":"4","last_reported":1748866906,"current_range_meters":6000,"station_id":"ce4bhg12rcd13ifvqf80","pricing_plan_id":"cebpf4jnsgd1na2vs0mg"},{"bike_id":"c97038f3-4518-4c9d-afaa-4920937e02fa","system_id":"levelo_inurba_marseille","lat":43.24622,"lon":5.39309,"is_reserved":false,"is_disabled":false,"rental_uris":{"android":"levelo://app?vid=c97038f3-4518-4c9d-afaa-4920937e02fa","ios":"levelo://app?vid=c97038f3-4518-4c9d-afaa-4920937e02fa"},"vehicle_type_id":"4","last_reported":1748866906,"current_range_meters":6000,"station_id":"","pricing_plan_id":"cebpf4jnsgd1na2vs0mg"},{"bike_id":"bff91e46-d50f-47f4-abcc-a302e9440288","system_id":"levelo_inurba_marseille","lat":43.331588,"lon":5.389494,"is_reserved":false,"is_disabled":false,"rental_uris":{"android":"levelo://app?vid=bff91e46-d50f-47f4-abcc-a302e9440288","ios":"levelo://app?vid=bff91e46-d50f-47f4-abcc-a302e9440288"},"vehicle_type_id":"4","last_reported":1748866906,"current_range_meters":6000,"station_id":"","pricing_plan_id":"cebpf4jnsgd1na2vs0mg"},{"bike_id":"7ced9755-22ef-472b-a132-59f3ed7b161f","system_id":"levelo_inurba_marseille","lat":43.30615,"lon":5.39351,"is_reserved":false,"is_disabled":false,"rental_uris":{"android":"levelo://app?vid=7ced9755-22ef-472b-a132-59f3ed7b161f","ios":"levelo://app?vid=7ced9755-22ef-472b-a132-59f3ed7b161f"},"vehicle_type_id":"4","last_reported":1748866906,"current_range_meters":6400,"station_id":"ce4bh0p2rcd13ifvqd80","pricing_plan_id":"cebpf4jnsgd1na2vs0mg"},{"bike_id":"25277efd-d7a9-4272-ad89-425379d77ab1","system_id":"levelo_inurba_marseille","lat":43.29968,"lon":5.38496,"is_reserved":false,"is_disabled":false,"rental_uris":{"android":"levelo://app?vid=25277efd-d7a9-4272-ad89-425379d77ab1","ios":"levelo://app?vid=25277efd-d7a9-4272-ad89-425379d77ab1"},"vehicle_type_id":"4","last_reported":1748866906,"current_range_meters":6400,"station_id":"ce4bgj92rcd13ifvqbd0","pricing_plan_id":"cebpf4jnsgd1na2vs0mg"},{"bike_id":"aadb95fc-d156-41e0-9614-75d762b11d28","system_id":"levelo_inurba_marseille","lat":43.319404,"lon":5.440478,"is_reserved":false,"is_disabled":false,"rental_uris":{"android":"levelo://app?vid=aadb95fc-d156-41e0-9614-75d762b11d28","ios":"levelo://app?vid=aadb95fc-d156-41e0-9614-75d762b11d28"},"vehicle_type_id":"4","last_reported":1748866906,"current_range_meters":6400,"station_id":"","pricing_plan_id":"cebpf4jnsgd1na2vs0mg"},{"bike_id":"14fc4d5f-444f-4964-8a2b-69ab04e10a57","system_id":"levelo_inurba_marseille","lat":43.28356,"lon":5.38107,"is_reserved":false,"is_disabled":false,"rental_uris":{"android":"levelo://app?vid=14fc4d5f-444f-4964-8a2b-69ab04e10a57","ios":"levelo://app?vid=14fc4d5f-444f-4964-8a2b-69ab04e10a57"},"vehicle_type_id":"4","last_reported":1748866906,"current_range_meters":6400,"station_id":"ce4bh412rcd13ifvqdr0","pricing_plan_id":"cebpf4jnsgd1na2vs0mg"},{"bike_id":"1c20821a-9c47-422b-ba0c-2b16b479bde0","system_id":"levelo_inurba_marseille","lat":43.248873,"lon":5.397359,"is_reserved":false,"is_disabled":false,"rental_uris":{"android":"levelo://app?vid=1c20821a-9c47-422b-ba0c-2b16b479bde0","ios":"levelo://app?vid=1c20821a-9c47-422b-ba0c-2b16b479bde0"},"vehicle_type_id":"4","last_reported":1748866906,"current_range_meters":6800,"station_id":"","pricing_plan_id":"cebpf4jnsgd1na2vs0mg"},{"bike_id":"a28d69b7-8694-4eb2-a7ed-5f35abb3e935","system_id":"levelo_inurba_marseille","lat":43.30889,"lon":5.39653,"is_reserved":false,"is_disabled":false,"rental_uris":{"android":"levelo://app?vid=a28d69b7-8694-4eb2-a7ed-5f35abb3e935","ios":"levelo://app?vid=a28d69b7-8694-4eb2-a7ed-5f35abb3e935"},"vehicle_type_id":"4","last_reported":1748866906,"current_range_meters":6800,"station_id":"ce4bh012rcd13ifvqcv0","pricing_plan_id":"cebpf4jnsgd1na2vs0mg"},{"bike_id":"d89e5e9b-573c-4456-8b3d-3fee687b26ce","system_id":"levelo_inurba_marseille","lat":43.21195,"lon":5.35074,"is_reserved":false,"is_disabled":true,"rental_uris":{"android":"levelo://app?vid=d89e5e9b-573c-4456-8b3d-3fee687b26ce","ios":"levelo://app?vid=d89e5e9b-573c-4456-8b3d-3fee687b26ce"},"vehicle_type_id":"4","last_reported":1748866906,"current_range_meters":6800,"station_id":"","pricing_plan_id":"cebpf4jnsgd1na2vs0mg"},{"bike_id":"181065aa-18ce-472b-9d4f-ab6e621d3a25","system_id":"levelo_inurba_marseille","lat":43.283373,"lon":5.381038,"is_reserved":false,"is_disabled":false,"rental_uris":{"android":"levelo://app?vid=181065aa-18ce-472b-9d4f-ab6e621d3a25","ios":"levelo://app?vid=181065aa-18ce-472b-9d4f-ab6e621d3a25"},"vehicle_type_id":"4","last_reported":1748866906,"current_range_meters":6800,"station_id":"ce4bh412rcd13ifvqdr0","pricing_plan_id":"cebpf4jnsgd1na2vs0mg"},{"bike_id":"7dc27019-d30a-42ea-b510-9709ba6a8a63","system_id":"levelo_inurba_marseille","lat":43.2862,"lon":5.35105,"is_reserved":false,"is_disabled":false,"rental_uris":{"android":"levelo://app?vid=7dc27019-d30a-42ea-b510-9709ba6a8a63","ios":"levelo://app?vid=7dc27019-d30a-42ea-b510-9709ba6a8a63"},"vehicle_type_id":"4","last_reported":1748866906,"current_range_meters":6800,"station_id":"ce4bhch2rcd13ifvqeug","pricing_plan_id":"cebpf4jnsgd1na2vs0mg"},{"bike_id":"5384a350-f756-4f10-9cf0-b0ca7e8f4b37","system_id":"levelo_inurba_marseille","lat":43.28275,"lon":5.35062,"is_reserved":false,"is_disabled":false,"rental_uris":{"android":"levelo://app?vid=5384a350-f756-4f10-9cf0-b0ca7e8f4b37","ios":"levelo://app?vid=5384a350-f756-4f10-9cf0-b0ca7e8f4b37"},"vehicle_type_id":"4","last_reported":1748866906,"current_range_meters":6800,"station_id":"ce4bhbp2rcd13ifvqerg","pricing_plan_id":"cebpf4jnsgd1na2vs0mg"},{"bike_id":"bfc5ef3f-b45a-4475-9ae4-9a0465f66e15","system_id":"levelo_inurba_marseille","lat":43.25121,"lon":5.39355,"is_reserved":false,"is_disabled":false,"rental_uris":{"android":"levelo://app?vid=bfc5ef3f-b45a-4475-9ae4-9a0465f66e15","ios":"levelo://app?vid=bfc5ef3f-b45a-4475-9ae4-9a0465f66e15"},"vehicle_type_id":"4","last_reported":1748866906,"current_range_meters":6800,"station_id":"","pricing_plan_id":"cebpf4jnsgd1na2vs0mg"},{"bike_id":"8e1399e1-3fc8-4bcf-980c-b779509d3daf","system_id":"levelo_inurba_marseille","lat":43.27906,"lon":5.38016,"is_reserved":false,"is_disabled":false,"rental_uris":{"android":"levelo://app?vid=8e1399e1-3fc8-4bcf-980c-b779509d3daf","ios":"levelo://app?vid=8e1399e1-3fc8-4bcf-980c-b779509d3daf"},"vehicle_type_id":"4","last_reported":1748866906,"current_range_meters":7200,"station_id":"ce4bhf92rcd13ifvqf50","pricing_plan_id":"cebpf4jnsgd1na2vs0mg"},{"bike_id":"c7aa496f-5556-4272-bc79-3012a4604f0a","system_id":"levelo_inurba_marseille","lat":43.33753,"lon":5.39203,"is_reserved":false,"is_disabled":false,"rental_uris":{"android":"levelo://app?vid=c7aa496f-5556-4272-bc79-3012a4604f0a","ios":"levelo://app?vid=c7aa496f-5556-4272-bc79-3012a4604f0a"},"vehicle_type_id":"4","last_reported":1748866906,"current_range_meters":7200,"station_id":"ce4bhr92rcd13ifvqhsg","pricing_plan_id":"cebpf4jnsgd1na2vs0mg"},{"bike_id":"7150699d-340f-4cdf-81a4-26eb5219a048","system_id":"levelo_inurba_marseille","lat":43.28975,"lon":5.37834,"is_reserved":false,"is_disabled":false,"rental_uris":{"android":"levelo://app?vid=7150699d-340f-4cdf-81a4-26eb5219a048","ios":"levelo://app?vid=7150699d-340f-4cdf-81a4-26eb5219a048"},"vehicle_type_id":"4","last_reported":1748866906,"current_range_meters":7200,"station_id":"ce4bh9p2rcd13ifvqed0","pricing_plan_id":"cebpf4jnsgd1na2vs0mg"},{"bike_id":"3bb92c33-91d8-4f88-8f2c-672c7868f4ad","system_id":"levelo_inurba_marseille","lat":43.328847,"lon":5.405407,"is_reserved":false,"is_disabled":false,"rental_uris":{"android":"levelo://app?vid=3bb92c33-91d8-4f88-8f2c-672c7868f4ad","ios":"levelo://app?vid=3bb92c33-91d8-4f88-8f2c-672c7868f4ad"},"vehicle_type_id":"4","last_reported":1748866906,"current_range_meters":7200,"station_id":"","pricing_plan_id":"cebpf4jnsgd1na2vs0mg"},{"bike_id":"20583f53-0782-4411-8eb0-3a48ccfd6860","system_id":"levelo_inurba_marseille","lat":43.25952,"lon":5.40916,"is_reserved":false,"is_disabled":false,"rental_uris":{"android":"levelo://app?vid=20583f53-0782-4411-8eb0-3a48ccfd6860","ios":"levelo://app?vid=20583f53-0782-4411-8eb0-3a48ccfd6860"},"vehicle_type_id":"4","last_reported":1748866906,"current_range_meters":7200,"station_id":"ce4bhm92rcd13ifvqglg","pricing_plan_id":"cebpf4jnsgd1na2vs0mg"},{"bike_id":"d8453719-6a3e-40ff-b1fc-40f7a93e50bc","system_id":"levelo_inurba_marseille","lat":43.299695,"lon":5.38508,"is_reserved":false,"is_disabled":false,"rental_uris":{"android":"levelo://app?vid=d8453719-6a3e-40ff-b1fc-40f7a93e50bc","ios":"levelo://app?vid=d8453719-6a3e-40ff-b1fc-40f7a93e50bc"},"vehicle_type_id":"4","last_reported":1748866906,"current_range_meters":7200,"station_id":"ce4bgj92rcd13ifvqbd0","pricing_plan_id":"cebpf4jnsgd1na2vs0mg"},{"bike_id":"5d722bbd-b218-411a-aed1-093a279811ea","system_id":"levelo_inurba_marseille","lat":43.29063,"lon":5.37162,"is_reserved":false,"is_disabled":false,"rental_uris":{"android":"levelo://app?vid=5d722bbd-b218-411a-aed1-093a279811ea","ios":"levelo://app?vid=5d722bbd-b218-411a-aed1-093a279811ea"},"vehicle_type_id":"4","last_reported":1748866906,"current_range_meters":8000,"station_id":"ce4bh5p2rcd13ifvqe4g","pricing_plan_id":"cebpf4jnsgd1na2vs0mg"},{"bike_id":"2281d03f-4eb2-4242-8275-5f5376fb83b0","system_id":"levelo_inurba_marseille","lat":43.241763,"lon":5.397357,"is_reserved":false,"is_disabled":false,"rental_uris":{"android":"levelo://app?vid=2281d03f-4eb2-4242-8275-5f5376fb83b0","ios":"levelo://app?vid=2281d03f-4eb2-4242-8275-5f5376fb83b0"},"vehicle_type_id":"4","last_reported":1748866906,"current_range_meters":8000,"station_id":"ce4bhn12rcd13ifvqgpg","pricing_plan_id":"cebpf4jnsgd1na2vs0mg"},{"bike_id":"cedcdfaa-a372-475e-a56d-4ad78455bd86","system_id":"levelo_inurba_marseille","lat":43.30151,"lon":5.37406,"is_reserved":false,"is_disabled":false,"rental_uris":{"android":"levelo://app?vid=cedcdfaa-a372-475e-a56d-4ad78455bd86","ios":"levelo://app?vid=cedcdfaa-a372-475e-a56d-4ad78455bd86"},"vehicle_type_id":"4","last_reported":1748866906,"current_range_meters":8000,"station_id":"ce4bgs92rcd13ifvqcc0","pricing_plan_id":"cebpf4jnsgd1na2vs0mg"},{"bike_id":"5f1190bc-a363-46ab-b72b-e7d1f2965910","system_id":"levelo_inurba_marseille","lat":43.29889,"lon":5.3972,"is_reserved":false,"is_disabled":false,"rental_uris":{"android":"levelo://app?vid=5f1190bc-a363-46ab-b72b-e7d1f2965910","ios":"levelo://app?vid=5f1190bc-a363-46ab-b72b-e7d1f2965910"},"vehicle_type_id":"4","last_reported":1748866906,"current_range_meters":8000,"station_id":"ce4bh0h2rcd13ifvqd50","pricing_plan_id":"cebpf4jnsgd1na2vs0mg"},{"bike_id":"6c58d642-0f6d-4103-85ab-59d593919366","system_id":"levelo_inurba_marseille","lat":43.341473,"lon":5.408997,"is_reserved":false,"is_disabled":false,"rental_uris":{"android":"levelo://app?vid=6c58d642-0f6d-4103-85ab-59d593919366","ios":"levelo://app?vid=6c58d642-0f6d-4103-85ab-59d593919366"},"vehicle_type_id":"4","last_reported":1748866906,"current_range_meters":8000,"station_id":"ce4bhqh2rcd13ifvqhlg","pricing_plan_id":"cebpf4jnsgd1na2vs0mg"},{"bike_id":"43df8678-f7df-481c-9ada-60e3f3db1487","system_id":"levelo_inurba_marseille","lat":43.28339,"lon":5.35025,"is_reserved":false,"is_disabled":false,"rental_uris":{"android":"levelo://app?vid=43df8678-f7df-481c-9ada-60e3f3db1487","ios":"levelo://app?vid=43df8678-f7df-481c-9ada-60e3f3db1487"},"vehicle_type_id":"4","last_reported":1748866906,"current_range_meters":8000,"station_id":"","pricing_plan_id":"cebpf4jnsgd1na2vs0mg"},{"bike_id":"036a3f84-6c04-4f85-bd69-c60fcc1a093a","system_id":"levelo_inurba_marseille","lat":43.33025,"lon":5.39058,"is_reserved":false,"is_disabled":false,"rental_uris":{"android":"levelo://app?vid=036a3f84-6c04-4f85-bd69-c60fcc1a093a","ios":"levelo://app?vid=036a3f84-6c04-4f85-bd69-c60fcc1a093a"},"vehicle_type_id":"4","last_reported":1748866906,"current_range_meters":8000,"station_id":"ce4bhr92rcd13ifvqhrg","pricing_plan_id":"cebpf4jnsgd1na2vs0mg"},{"bike_id":"50409bc6-e5b0-40da-b920-9555a8f01e76","system_id":"levelo_inurba_marseille","lat":43.301546,"lon":5.387041,"is_reserved":false,"is_disabled":false,"rental_uris":{"android":"levelo://app?vid=50409bc6-e5b0-40da-b920-9555a8f01e76","ios":"levelo://app?vid=50409bc6-e5b0-40da-b920-9555a8f01e76"},"vehicle_type_id":"4","last_reported":1748866906,"current_range_meters":8400,"station_id":"ce4bh0h2rcd13ifvqd40","pricing_plan_id":"cebpf4jnsgd1na2vs0mg"},{"bike_id":"60ff8420-b9cd-424d-83d3-061a20c8c6bf","system_id":"levelo_inurba_marseille","lat":43.21192,"lon":5.35077,"is_reserved":false,"is_disabled":true,"rental_uris":{"android":"levelo://app?vid=60ff8420-b9cd-424d-83d3-061a20c8c6bf","ios":"levelo://app?vid=60ff8420-b9cd-424d-83d3-061a20c8c6bf"},"vehicle_type_id":"4","last_reported":1748866906,"current_range_meters":8400,"station_id":"","pricing_plan_id":"cebpf4jnsgd1na2vs0mg"},{"bike_id":"3f95f290-ca2a-4bc5-8263-1c7d1b41676d","system_id":"levelo_inurba_marseille","lat":43.29787,"lon":5.37104,"is_reserved":false,"is_disabled":false,"rental_uris":{"android":"levelo://app?vid=3f95f290-ca2a-4bc5-8263-1c7d1b41676d","ios":"levelo://app?vid=3f95f290-ca2a-4bc5-8263-1c7d1b41676d"},"vehicle_type_id":"4","last_reported":1748866906,"current_range_meters":8000,"station_id":"ce4bgop2rcd13ifvqc1g","pricing_plan_id":"cebpf4jnsgd1na2vs0mg"},{"bike_id":"6e8749e3-8a3c-4cc2-abd2-de6aca1a0f70","system_id":"levelo_inurba_marseille","lat":43.313641,"lon":5.367372,"is_reserved":false,"is_disabled":false,"rental_uris":{"android":"levelo://app?vid=6e8749e3-8a3c-4cc2-abd2-de6aca1a0f70","ios":"levelo://app?vid=6e8749e3-8a3c-4cc2-abd2-de6aca1a0f70"},"vehicle_type_id":"4","last_reported":1748866906,"current_range_meters":8400,"station_id":"ce4bgr92rcd13ifvqc6g","pricing_plan_id":"cebpf4jnsgd1na2vs0mg"},{"bike_id":"50005151-5aa9-408d-bdcd-0258025785d5","system_id":"levelo_inurba_marseille","lat":43.28944,"lon":5.36639,"is_reserved":false,"is_disabled":false,"rental_uris":{"android":"levelo://app?vid=50005151-5aa9-408d-bdcd-0258025785d5","ios":"levelo://app?vid=50005151-5aa9-408d-bdcd-0258025785d5"},"vehicle_type_id":"4","last_reported":1748866906,"current_range_meters":8400,"station_id":"ce4bhap2rcd13ifvqek0","pricing_plan_id":"cebpf4jnsgd1na2vs0mg"},{"bike_id":"49eb1798-533e-4291-9ae7-d3d911be4b01","system_id":"levelo_inurba_marseille","lat":43.28621,"lon":5.35104,"is_reserved":false,"is_disabled":false,"rental_uris":{"android":"levelo://app?vid=49eb1798-533e-4291-9ae7-d3d911be4b01","ios":"levelo://app?vid=49eb1798-533e-4291-9ae7-d3d911be4b01"},"vehicle_type_id":"4","last_reported":1748866906,"current_range_meters":8400,"station_id":"ce4bhch2rcd13ifvqeug","pricing_plan_id":"cebpf4jnsgd1na2vs0mg"},{"bike_id":"77563c89-0ac2-4043-bd50-220ab97bc1f7","system_id":"levelo_inurba_marseille","lat":43.323,"lon":5.38271,"is_reserved":false,"is_disabled":false,"rental_uris":{"android":"levelo://app?vid=77563c89-0ac2-4043-bd50-220ab97bc1f7","ios":"levelo://app?vid=77563c89-0ac2-4043-bd50-220ab97bc1f7"},"vehicle_type_id":"4","last_reported":1748866906,"current_range_meters":8400,"station_id":"ce4bhr12rcd13ifvqhqg","pricing_plan_id":"cebpf4jnsgd1na2vs0mg"},{"bike_id":"7a4aba5b-3f18-4c6a-9c85-a99a09aeff17","system_id":"levelo_inurba_marseille","lat":43.30794,"lon":5.37654,"is_reserved":false,"is_disabled":false,"rental_uris":{"android":"levelo://app?vid=7a4aba5b-3f18-4c6a-9c85-a99a09aeff17","ios":"levelo://app?vid=7a4aba5b-3f18-4c6a-9c85-a99a09aeff17"},"vehicle_type_id":"4","last_reported":1748866906,"current_range_meters":8400,"station_id":"ce4bgv92rcd13ifvqcq0","pricing_plan_id":"cebpf4jnsgd1na2vs0mg"},{"bike_id":"c94b197a-b686-4fe6-bcab-5f66c81add56","system_id":"levelo_inurba_marseille","lat":43.23148,"lon":5.43731,"is_reserved":false,"is_disabled":false,"rental_uris":{"android":"levelo://app?vid=c94b197a-b686-4fe6-bcab-5f66c81add56","ios":"levelo://app?vid=c94b197a-b686-4fe6-bcab-5f66c81add56"},"vehicle_type_id":"4","last_reported":1748866906,"current_range_meters":8400,"station_id":"ce4bhmp2rcd13ifvqgog","pricing_plan_id":"cebpf4jnsgd1na2vs0mg"},{"bike_id":"a1f8de0f-1c03-4691-831a-981baa9dd178","system_id":"levelo_inurba_marseille","lat":43.33728,"lon":5.3918,"is_reserved":false,"is_disabled":false,"rental_uris":{"android":"levelo://app?vid=a1f8de0f-1c03-4691-831a-981baa9dd178","ios":"levelo://app?vid=a1f8de0f-1c03-4691-831a-981baa9dd178"},"vehicle_type_id":"4","last_reported":1748866906,"current_range_meters":8800,"station_id":"ce4bhr92rcd13ifvqhsg","pricing_plan_id":"cebpf4jnsgd1na2vs0mg"},{"bike_id":"ad0764c8-527f-4cde-b961-4de405f923eb","system_id":"levelo_inurba_marseille","lat":43.23181,"lon":5.43699,"is_reserved":false,"is_disabled":false,"rental_uris":{"android":"levelo://app?vid=ad0764c8-527f-4cde-b961-4de405f923eb","ios":"levelo://app?vid=ad0764c8-527f-4cde-b961-4de405f923eb"},"vehicle_type_id":"4","last_reported":1748866906,"current_range_meters":8800,"station_id":"ce4bhmp2rcd13ifvqgog","pricing_plan_id":"cebpf4jnsgd1na2vs0mg"},{"bike_id":"5dead81c-52cf-467b-885d-461d40fb80a5","system_id":"levelo_inurba_marseille","lat":43.25098,"lon":5.409702,"is_reserved":false,"is_disabled":false,"rental_uris":{"android":"levelo://app?vid=5dead81c-52cf-467b-885d-461d40fb80a5","ios":"levelo://app?vid=5dead81c-52cf-467b-885d-461d40fb80a5"},"vehicle_type_id":"4","last_reported":1748866906,"current_range_meters":8800,"station_id":"","pricing_plan_id":"cebpf4jnsgd1na2vs0mg"},{"bike_id":"fcf2608a-068e-43ae-a732-6bb6b1fce247","system_id":"levelo_inurba_marseille","lat":43.2962,"lon":5.37727,"is_reserved":false,"is_disabled":false,"rental_uris":{"android":"levelo://app?vid=fcf2608a-068e-43ae-a732-6bb6b1fce247","ios":"levelo://app?vid=fcf2608a-068e-43ae-a732-6bb6b1fce247"},"vehicle_type_id":"4","last_reported":1748866906,"current_range_meters":8800,"station_id":"ce4bgi92rcd13ifvqb90","pricing_plan_id":"cebpf4jnsgd1na2vs0mg"},{"bike_id":"3fa25def-2c75-47f2-897a-8b5cad5bb9d7","system_id":"levelo_inurba_marseille","lat":43.24393,"lon":5.37058,"is_reserved":false,"is_disabled":false,"rental_uris":{"android":"levelo://app?vid=3fa25def-2c75-47f2-897a-8b5cad5bb9d7","ios":"levelo://app?vid=3fa25def-2c75-47f2-897a-8b5cad5bb9d7"},"vehicle_type_id":"4","last_reported":1748866906,"current_range_meters":8800,"station_id":"ce4bhhh2rcd13ifvqfk0","pricing_plan_id":"cebpf4jnsgd1na2vs0mg"},{"bike_id":"b71e1c3d-15b2-4eb2-9825-456184e42b3a","system_id":"levelo_inurba_marseille","lat":43.291031,"lon":5.381475,"is_reserved":false,"is_disabled":false,"rental_uris":{"android":"levelo://app?vid=b71e1c3d-15b2-4eb2-9825-456184e42b3a","ios":"levelo://app?vid=b71e1c3d-15b2-4eb2-9825-456184e42b3a"},"vehicle_type_id":"4","last_reported":1748866906,"current_range_meters":8400,"station_id":"ce4bh512rcd13ifvqe2g","pricing_plan_id":"cebpf4jnsgd1na2vs0mg"},{"bike_id":"1fbdb284-044b-45b9-a174-9369f7ceefa8","system_id":"levelo_inurba_marseille","lat":43.23156,"lon":5.43719,"is_reserved":false,"is_disabled":false,"rental_uris":{"android":"levelo://app?vid=1fbdb284-044b-45b9-a174-9369f7ceefa8","ios":"levelo://app?vid=1fbdb284-044b-45b9-a174-9369f7ceefa8"},"vehicle_type_id":"4","last_reported":1748866906,"current_range_meters":8800,"station_id":"ce4bhmp2rcd13ifvqgog","pricing_plan_id":"cebpf4jnsgd1na2vs0mg"},{"bike_id":"29184fb4-9faf-4ec0-bd7b-064021f024d2","system_id":"levelo_inurba_marseille","lat":43.3054,"lon":5.36539,"is_reserved":false,"is_disabled":false,"rental_uris":{"android":"levelo://app?vid=29184fb4-9faf-4ec0-bd7b-064021f024d2","ios":"levelo://app?vid=29184fb4-9faf-4ec0-bd7b-064021f024d2"},"vehicle_type_id":"4","last_reported":1748866906,"current_range_meters":9200,"station_id":"ce4bgs12rcd13ifvqcag","pricing_plan_id":"cebpf4jnsgd1na2vs0mg"},{"bike_id":"4129cac4-5893-4452-a234-f800d8ab0cb1","system_id":"levelo_inurba_marseille","lat":43.30136,"lon":5.3807,"is_reserved":false,"is_disabled":false,"rental_uris":{"android":"levelo://app?vid=4129cac4-5893-4452-a234-f800d8ab0cb1","ios":"levelo://app?vid=4129cac4-5893-4452-a234-f800d8ab0cb1"},"vehicle_type_id":"4","last_reported":1748866906,"current_range_meters":9200,"station_id":"ce4bgjp2rcd13ifvqbh0","pricing_plan_id":"cebpf4jnsgd1na2vs0mg"},{"bike_id":"d72d5a5e-a033-4555-a5b7-2e9b101d2f01","system_id":"levelo_inurba_marseille","lat":43.24375,"lon":5.41156,"is_reserved":false,"is_disabled":false,"rental_uris":{"android":"levelo://app?vid=d72d5a5e-a033-4555-a5b7-2e9b101d2f01","ios":"levelo://app?vid=d72d5a5e-a033-4555-a5b7-2e9b101d2f01"},"vehicle_type_id":"4","last_reported":1748866906,"current_range_meters":9200,"station_id":"","pricing_plan_id":"cebpf4jnsgd1na2vs0mg"},{"bike_id":"0a92e517-9363-41c9-a3fa-8f6e6cc909f6","system_id":"levelo_inurba_marseille","lat":43.29216,"lon":5.37893,"is_reserved":false,"is_disabled":false,"rental_uris":{"android":"levelo://app?vid=0a92e517-9363-41c9-a3fa-8f6e6cc909f6","ios":"levelo://app?vid=0a92e517-9363-41c9-a3fa-8f6e6cc909f6"},"vehicle_type_id":"4","last_reported":1748866906,"current_range_meters":9200,"station_id":"","pricing_plan_id":"cebpf4jnsgd1na2vs0mg"},{"bike_id":"de700630-8400-4bdb-9d76-5c3f830187a6","system_id":"levelo_inurba_marseille","lat":43.2418,"lon":5.39729,"is_reserved":false,"is_disabled":false,"rental_uris":{"android":"levelo://app?vid=de700630-8400-4bdb-9d76-5c3f830187a6","ios":"levelo://app?vid=de700630-8400-4bdb-9d76-5c3f830187a6"},"vehicle_type_id":"4","last_reported":1748866906,"current_range_meters":9200,"station_id":"ce4bhn12rcd13ifvqgpg","pricing_plan_id":"cebpf4jnsgd1na2vs0mg"},{"bike_id":"37686f17-e3c7-4ceb-9399-a2a89711d827","system_id":"levelo_inurba_marseille","lat":43.21743,"lon":5.34608,"is_reserved":false,"is_disabled":false,"rental_uris":{"android":"levelo://app?vid=37686f17-e3c7-4ceb-9399-a2a89711d827","ios":"levelo://app?vid=37686f17-e3c7-4ceb-9399-a2a89711d827"},"vehicle_type_id":"4","last_reported":1748866906,"current_range_meters":9200,"station_id":"st_cvj6r9ubvosntc0bgbag","pricing_plan_id":"cebpf4jnsgd1na2vs0mg"},{"bike_id":"73a4770d-0c02-48d5-a0f7-4d250b83527c","system_id":"levelo_inurba_marseille","lat":43.324747,"lon":5.424768,"is_reserved":false,"is_disabled":false,"rental_uris":{"android":"levelo://app?vid=73a4770d-0c02-48d5-a0f7-4d250b83527c","ios":"levelo://app?vid=73a4770d-0c02-48d5-a0f7-4d250b83527c"},"vehicle_type_id":"4","last_reported":1748866906,"current_range_meters":9200,"station_id":"","pricing_plan_id":"cebpf4jnsgd1na2vs0mg"},{"bike_id":"0b3654db-33dc-4a56-850c-0b6b7ac0b481","system_id":"levelo_inurba_marseille","lat":43.23078,"lon":5.40192,"is_reserved":false,"is_disabled":false,"rental_uris":{"android":"levelo://app?vid=0b3654db-33dc-4a56-850c-0b6b7ac0b481","ios":"levelo://app?vid=0b3654db-33dc-4a56-850c-0b6b7ac0b481"},"vehicle_type_id":"4","last_reported":1748866906,"current_range_meters":9200,"station_id":"","pricing_plan_id":"cebpf4jnsgd1na2vs0mg"},{"bike_id":"e64512a5-b95f-4a58-ba71-e1cb4f92ddfb","system_id":"levelo_inurba_marseille","lat":43.29896,"lon":5.43673,"is_reserved":false,"is_disabled":false,"rental_uris":{"android":"levelo://app?vid=e64512a5-b95f-4a58-ba71-e1cb4f92ddfb","ios":"levelo://app?vid=e64512a5-b95f-4a58-ba71-e1cb4f92ddfb"},"vehicle_type_id":"4","last_reported":1748866906,"current_range_meters":8800,"station_id":"ce4bhpp2rcd13ifvqhfg","pricing_plan_id":"cebpf4jnsgd1na2vs0mg"},{"bike_id":"9376123c-1d7b-4fd1-a6da-d86eaa91c545","system_id":"levelo_inurba_marseille","lat":43.269403,"lon":5.4025,"is_reserved":false,"is_disabled":false,"rental_uris":{"android":"levelo://app?vid=9376123c-1d7b-4fd1-a6da-d86eaa91c545","ios":"levelo://app?vid=9376123c-1d7b-4fd1-a6da-d86eaa91c545"},"vehicle_type_id":"4","last_reported":1748866906,"current_range_meters":9600,"station_id":"cjm6bp8fraef2m0cb0m0","pricing_plan_id":"cebpf4jnsgd1na2vs0mg"},{"bike_id":"f917124d-ef96-42e2-9017-b1f90fb3c72d","system_id":"levelo_inurba_marseille","lat":43.30956,"lon":5.3904,"is_reserved":false,"is_disabled":false,"rental_uris":{"android":"levelo://app?vid=f917124d-ef96-42e2-9017-b1f90fb3c72d","ios":"levelo://app?vid=f917124d-ef96-42e2-9017-b1f90fb3c72d"},"vehicle_type_id":"4","last_reported":1748866906,"current_range_meters":9600,"station_id":"ce4bgup2rcd13ifvqco0","pricing_plan_id":"cebpf4jnsgd1na2vs0mg"},{"bike_id":"05a6139a-375b-4e23-a3c8-223df20d812c","system_id":"levelo_inurba_marseille","lat":43.314497,"lon":5.373776,"is_reserved":false,"is_disabled":false,"rental_uris":{"android":"levelo://app?vid=05a6139a-375b-4e23-a3c8-223df20d812c","ios":"levelo://app?vid=05a6139a-375b-4e23-a3c8-223df20d812c"},"vehicle_type_id":"4","last_reported":1748866906,"current_range_meters":9600,"station_id":"","pricing_plan_id":"cebpf4jnsgd1na2vs0mg"},{"bike_id":"c36bd383-74a7-41fe-8c4e-b4e265509657","system_id":"levelo_inurba_marseille","lat":43.30196,"lon":5.36632,"is_reserved":false,"is_disabled":false,"rental_uris":{"android":"levelo://app?vid=c36bd383-74a7-41fe-8c4e-b4e265509657","ios":"levelo://app?vid=c36bd383-74a7-41fe-8c4e-b4e265509657"},"vehicle_type_id":"4","last_reported":1748866906,"current_range_meters":9600,"station_id":"ce4bgrh2rcd13ifvqc8g","pricing_plan_id":"cebpf4jnsgd1na2vs0mg"},{"bike_id":"610aabad-fedc-42aa-95c6-282085a8039c","system_id":"levelo_inurba_marseille","lat":43.25504,"lon":5.3765,"is_reserved":false,"is_disabled":false,"rental_uris":{"android":"levelo://app?vid=610aabad-fedc-42aa-95c6-282085a8039c","ios":"levelo://app?vid=610aabad-fedc-42aa-95c6-282085a8039c"},"vehicle_type_id":"4","last_reported":1748866906,"current_range_meters":9200,"station_id":"ce4bhh12rcd13ifvqff0","pricing_plan_id":"cebpf4jnsgd1na2vs0mg"},{"bike_id":"a1a36460-37a1-46d9-afb5-ddf88c4d9da6","system_id":"levelo_inurba_marseille","lat":43.24999,"lon":5.38932,"is_reserved":false,"is_disabled":false,"rental_uris":{"android":"levelo://app?vid=a1a36460-37a1-46d9-afb5-ddf88c4d9da6","ios":"levelo://app?vid=a1a36460-37a1-46d9-afb5-ddf88c4d9da6"},"vehicle_type_id":"4","last_reported":1748866906,"current_range_meters":9600,"station_id":"ce4bhgp2rcd13ifvqfd0","pricing_plan_id":"cebpf4jnsgd1na2vs0mg"},{"bike_id":"edb2b4a9-acc2-42eb-836b-beae950e740b","system_id":"levelo_inurba_marseille","lat":43.26787,"lon":5.39411,"is_reserved":false,"is_disabled":false,"rental_uris":{"android":"levelo://app?vid=edb2b4a9-acc2-42eb-836b-beae950e740b","ios":"levelo://app?vid=edb2b4a9-acc2-42eb-836b-beae950e740b"},"vehicle_type_id":"4","last_reported":1748866906,"current_range_meters":10000,"station_id":"ce4bhh12rcd13ifvqfg0","pricing_plan_id":"cebpf4jnsgd1na2vs0mg"},{"bike_id":"ec18e669-df19-48de-a321-513197b4cc2c","system_id":"levelo_inurba_marseille","lat":43.29626,"lon":5.37739,"is_reserved":false,"is_disabled":false,"rental_uris":{"android":"levelo://app?vid=ec18e669-df19-48de-a321-513197b4cc2c","ios":"levelo://app?vid=ec18e669-df19-48de-a321-513197b4cc2c"},"vehicle_type_id":"4","last_reported":1748866906,"current_range_meters":9600,"station_id":"ce4bgi92rcd13ifvqb90","pricing_plan_id":"cebpf4jnsgd1na2vs0mg"},{"bike_id":"734f1fc4-90d8-45d9-93a4-29158bb48d51","system_id":"levelo_inurba_marseille","lat":43.29622,"lon":5.3774,"is_reserved":false,"is_disabled":false,"rental_uris":{"android":"levelo://app?vid=734f1fc4-90d8-45d9-93a4-29158bb48d51","ios":"levelo://app?vid=734f1fc4-90d8-45d9-93a4-29158bb48d51"},"vehicle_type_id":"4","last_reported":1748866906,"current_range_meters":10000,"station_id":"ce4bgi92rcd13ifvqb90","pricing_plan_id":"cebpf4jnsgd1na2vs0mg"},{"bike_id":"75c664b5-8c32-42f6-9085-436c62fd99be","system_id":"levelo_inurba_marseille","lat":43.32337,"lon":5.36699,"is_reserved":false,"is_disabled":false,"rental_uris":{"android":"levelo://app?vid=75c664b5-8c32-42f6-9085-436c62fd99be","ios":"levelo://app?vid=75c664b5-8c32-42f6-9085-436c62fd99be"},"vehicle_type_id":"4","last_reported":1748866906,"current_range_meters":10000,"station_id":"","pricing_plan_id":"cebpf4jnsgd1na2vs0mg"},{"bike_id":"c0a76da6-7ded-414a-bbe9-dcbf8292dec1","system_id":"levelo_inurba_marseille","lat":43.21751,"lon":5.34602,"is_reserved":false,"is_disabled":false,"rental_uris":{"android":"levelo://app?vid=c0a76da6-7ded-414a-bbe9-dcbf8292dec1","ios":"levelo://app?vid=c0a76da6-7ded-414a-bbe9-dcbf8292dec1"},"vehicle_type_id":"4","last_reported":1748866906,"current_range_meters":10800,"station_id":"st_cvj6r9ubvosntc0bgbag","pricing_plan_id":"cebpf4jnsgd1na2vs0mg"},{"bike_id":"2e6c40ba-60e0-4437-9623-b13521ac47d0","system_id":"levelo_inurba_marseille","lat":43.3122,"lon":5.36837,"is_reserved":false,"is_disabled":false,"rental_uris":{"android":"levelo://app?vid=2e6c40ba-60e0-4437-9623-b13521ac47d0","ios":"levelo://app?vid=2e6c40ba-60e0-4437-9623-b13521ac47d0"},"vehicle_type_id":"4","last_reported":1748866906,"current_range_meters":10800,"station_id":"ce4bgl92rcd13ifvqbq0","pricing_plan_id":"cebpf4jnsgd1na2vs0mg"},{"bike_id":"afe42cf5-b493-4fb7-b710-2b3f0a107bae","system_id":"levelo_inurba_marseille","lat":43.31743,"lon":5.38758,"is_reserved":false,"is_disabled":false,"rental_uris":{"android":"levelo://app?vid=afe42cf5-b493-4fb7-b710-2b3f0a107bae","ios":"levelo://app?vid=afe42cf5-b493-4fb7-b710-2b3f0a107bae"},"vehicle_type_id":"4","last_reported":1748866906,"current_range_meters":10800,"station_id":"","pricing_plan_id":"cebpf4jnsgd1na2vs0mg"},{"bike_id":"784180dd-9bbc-4a7e-817b-24dd293372b0","system_id":"levelo_inurba_marseille","lat":43.27996,"lon":5.40013,"is_reserved":false,"is_disabled":false,"rental_uris":{"android":"levelo://app?vid=784180dd-9bbc-4a7e-817b-24dd293372b0","ios":"levelo://app?vid=784180dd-9bbc-4a7e-817b-24dd293372b0"},"vehicle_type_id":"4","last_reported":1748866906,"current_range_meters":10800,"station_id":"ce4bho92rcd13ifvqh4g","pricing_plan_id":"cebpf4jnsgd1na2vs0mg"},{"bike_id":"7d637a36-e741-476f-8a95-7c372c228d87","system_id":"levelo_inurba_marseille","lat":43.25008,"lon":5.38932,"is_reserved":false,"is_disabled":false,"rental_uris":{"android":"levelo://app?vid=7d637a36-e741-476f-8a95-7c372c228d87","ios":"levelo://app?vid=7d637a36-e741-476f-8a95-7c372c228d87"},"vehicle_type_id":"4","last_reported":1748866906,"current_range_meters":10800,"station_id":"ce4bhgp2rcd13ifvqfd0","pricing_plan_id":"cebpf4jnsgd1na2vs0mg"},{"bike_id":"ec5291cc-fdc7-4362-8cf3-af39754fd9b3","system_id":"levelo_inurba_marseille","lat":43.31331,"lon":5.36751,"is_reserved":false,"is_disabled":false,"rental_uris":{"android":"levelo://app?vid=ec5291cc-fdc7-4362-8cf3-af39754fd9b3","ios":"levelo://app?vid=ec5291cc-fdc7-4362-8cf3-af39754fd9b3"},"vehicle_type_id":"4","last_reported":1748866906,"current_range_meters":11200,"station_id":"ce4bgr92rcd13ifvqc6g","pricing_plan_id":"cebpf4jnsgd1na2vs0mg"},{"bike_id":"005bcc6c-5313-491c-af50-25a503840f66","system_id":"levelo_inurba_marseille","lat":43.21771,"lon":5.34619,"is_reserved":false,"is_disabled":false,"rental_uris":{"android":"levelo://app?vid=005bcc6c-5313-491c-af50-25a503840f66","ios":"levelo://app?vid=005bcc6c-5313-491c-af50-25a503840f66"},"vehicle_type_id":"4","last_reported":1748866906,"current_range_meters":11200,"station_id":"st_cvj6r9ubvosntc0bgbag","pricing_plan_id":"cebpf4jnsgd1na2vs0mg"},{"bike_id":"95fe3d04-bf10-496a-a9af-78693925cc62","system_id":"levelo_inurba_marseille","lat":43.240817,"lon":5.377379,"is_reserved":false,"is_disabled":false,"rental_uris":{"android":"levelo://app?vid=95fe3d04-bf10-496a-a9af-78693925cc62","ios":"levelo://app?vid=95fe3d04-bf10-496a-a9af-78693925cc62"},"vehicle_type_id":"4","last_reported":1748866906,"current_range_meters":11200,"station_id":"ce4bhnp2rcd13ifvqgvg","pricing_plan_id":"cebpf4jnsgd1na2vs0mg"},{"bike_id":"5397e061-e5cc-41cf-b108-9a11297b4b7f","system_id":"levelo_inurba_marseille","lat":43.311949,"lon":5.416197,"is_reserved":false,"is_disabled":false,"rental_uris":{"android":"levelo://app?vid=5397e061-e5cc-41cf-b108-9a11297b4b7f","ios":"levelo://app?vid=5397e061-e5cc-41cf-b108-9a11297b4b7f"},"vehicle_type_id":"4","last_reported":1748866906,"current_range_meters":11200,"station_id":"","pricing_plan_id":"cebpf4jnsgd1na2vs0mg"},{"bike_id":"7ef855e5-5de9-444b-a3d5-c9d284684ab4","system_id":"levelo_inurba_marseille","lat":43.27374,"lon":5.36257,"is_reserved":false,"is_disabled":false,"rental_uris":{"android":"levelo://app?vid=7ef855e5-5de9-444b-a3d5-c9d284684ab4","ios":"levelo://app?vid=7ef855e5-5de9-444b-a3d5-c9d284684ab4"},"vehicle_type_id":"4","last_reported":1748866906,"current_range_meters":11200,"station_id":"ce4bhbh2rcd13ifvqeo0","pricing_plan_id":"cebpf4jnsgd1na2vs0mg"},{"bike_id":"f541a2b8-edeb-4b3c-a555-8afb241593e0","system_id":"levelo_inurba_marseille","lat":43.248117,"lon":5.374507,"is_reserved":false,"is_disabled":false,"rental_uris":{"android":"levelo://app?vid=f541a2b8-edeb-4b3c-a555-8afb241593e0","ios":"levelo://app?vid=f541a2b8-edeb-4b3c-a555-8afb241593e0"},"vehicle_type_id":"4","last_reported":1748866906,"current_range_meters":11200,"station_id":"ce4bhgh2rcd13ifvqfb0","pricing_plan_id":"cebpf4jnsgd1na2vs0mg"},{"bike_id":"2f49deb8-c492-436a-9a05-4146361f10d2","system_id":"levelo_inurba_marseille","lat":43.31686,"lon":5.40477,"is_reserved":false,"is_disabled":false,"rental_uris":{"android":"levelo://app?vid=2f49deb8-c492-436a-9a05-4146361f10d2","ios":"levelo://app?vid=2f49deb8-c492-436a-9a05-4146361f10d2"},"vehicle_type_id":"4","last_reported":1748866906,"current_range_meters":11200,"station_id":"ce4bh012rcd13ifvqd00","pricing_plan_id":"cebpf4jnsgd1na2vs0mg"},{"bike_id":"7a6151c7-a921-4835-8394-2344c58e4547","system_id":"levelo_inurba_marseille","lat":43.25722,"lon":5.41128,"is_reserved":false,"is_disabled":false,"rental_uris":{"android":"levelo://app?vid=7a6151c7-a921-4835-8394-2344c58e4547","ios":"levelo://app?vid=7a6151c7-a921-4835-8394-2344c58e4547"},"vehicle_type_id":"4","last_reported":1748866906,"current_range_meters":11600,"station_id":"ce4bhkp2rcd13ifvqgd0","pricing_plan_id":"cebpf4jnsgd1na2vs0mg"},{"bike_id":"218f6c8d-e3e4-4093-9e7b-4362ebcd001c","system_id":"levelo_inurba_marseille","lat":43.21776,"lon":5.3458,"is_reserved":false,"is_disabled":false,"rental_uris":{"android":"levelo://app?vid=218f6c8d-e3e4-4093-9e7b-4362ebcd001c","ios":"levelo://app?vid=218f6c8d-e3e4-4093-9e7b-4362ebcd001c"},"vehicle_type_id":"4","last_reported":1748866906,"current_range_meters":11600,"station_id":"st_cvj6r9ubvosntc0bgbag","pricing_plan_id":"cebpf4jnsgd1na2vs0mg"},{"bike_id":"0973ec3b-35c6-4e58-b7e2-eb5c1bac8909","system_id":"levelo_inurba_marseille","lat":43.25114,"lon":5.4034,"is_reserved":false,"is_disabled":false,"rental_uris":{"android":"levelo://app?vid=0973ec3b-35c6-4e58-b7e2-eb5c1bac8909","ios":"levelo://app?vid=0973ec3b-35c6-4e58-b7e2-eb5c1bac8909"},"vehicle_type_id":"4","last_reported":1748866906,"current_range_meters":11600,"station_id":"ce4bhlh2rcd13ifvqgig","pricing_plan_id":"cebpf4jnsgd1na2vs0mg"},{"bike_id":"a6954edc-8075-48da-a861-4f13d3fdacf2","system_id":"levelo_inurba_marseille","lat":43.24192,"lon":5.39734,"is_reserved":false,"is_disabled":false,"rental_uris":{"android":"levelo://app?vid=a6954edc-8075-48da-a861-4f13d3fdacf2","ios":"levelo://app?vid=a6954edc-8075-48da-a861-4f13d3fdacf2"},"vehicle_type_id":"4","last_reported":1748866906,"current_range_meters":11600,"station_id":"ce4bhn12rcd13ifvqgpg","pricing_plan_id":"cebpf4jnsgd1na2vs0mg"},{"bike_id":"11b5625e-29da-44d0-a0b2-35a6fbd25aa5","system_id":"levelo_inurba_marseille","lat":43.24087,"lon":5.37772,"is_reserved":false,"is_disabled":false,"rental_uris":{"android":"levelo://app?vid=11b5625e-29da-44d0-a0b2-35a6fbd25aa5","ios":"levelo://app?vid=11b5625e-29da-44d0-a0b2-35a6fbd25aa5"},"vehicle_type_id":"4","last_reported":1748866906,"current_range_meters":12000,"station_id":"ce4bhnp2rcd13ifvqgvg","pricing_plan_id":"cebpf4jnsgd1na2vs0mg"},{"bike_id":"4a5e36cc-e487-43bb-b2c0-e7700f14ec16","system_id":"levelo_inurba_marseille","lat":43.26217,"lon":5.40424,"is_reserved":false,"is_disabled":false,"rental_uris":{"android":"levelo://app?vid=4a5e36cc-e487-43bb-b2c0-e7700f14ec16","ios":"levelo://app?vid=4a5e36cc-e487-43bb-b2c0-e7700f14ec16"},"vehicle_type_id":"4","last_reported":1748866906,"current_range_meters":12000,"station_id":"ce4bhmh2rcd13ifvqgmg","pricing_plan_id":"cebpf4jnsgd1na2vs0mg"},{"bike_id":"8e08a661-5942-44b2-ae20-aa22d2a4e351","system_id":"levelo_inurba_marseille","lat":43.301545,"lon":5.380973,"is_reserved":false,"is_disabled":false,"rental_uris":{"android":"levelo://app?vid=8e08a661-5942-44b2-ae20-aa22d2a4e351","ios":"levelo://app?vid=8e08a661-5942-44b2-ae20-aa22d2a4e351"},"vehicle_type_id":"4","last_reported":1748866906,"current_range_meters":11600,"station_id":"ce4bgjp2rcd13ifvqbh0","pricing_plan_id":"cebpf4jnsgd1na2vs0mg"},{"bike_id":"a79d1f14-488a-4717-9122-17153b9e053b","system_id":"levelo_inurba_marseille","lat":43.21759,"lon":5.34599,"is_reserved":false,"is_disabled":false,"rental_uris":{"android":"levelo://app?vid=a79d1f14-488a-4717-9122-17153b9e053b","ios":"levelo://app?vid=a79d1f14-488a-4717-9122-17153b9e053b"},"vehicle_type_id":"4","last_reported":1748866906,"current_range_meters":12000,"station_id":"st_cvj6r9ubvosntc0bgbag","pricing_plan_id":"cebpf4jnsgd1na2vs0mg"},{"bike_id":"6282b243-60e0-4c4d-857a-9fd33e6aaf41","system_id":"levelo_inurba_marseille","lat":43.30892,"lon":5.39647,"is_reserved":false,"is_disabled":false,"rental_uris":{"android":"levelo://app?vid=6282b243-60e0-4c4d-857a-9fd33e6aaf41","ios":"levelo://app?vid=6282b243-60e0-4c4d-857a-9fd33e6aaf41"},"vehicle_type_id":"4","last_reported":1748866906,"current_range_meters":12000,"station_id":"ce4bh012rcd13ifvqcv0","pricing_plan_id":"cebpf4jnsgd1na2vs0mg"},{"bike_id":"59387ad6-d210-4239-8e55-53547c26e18a","system_id":"levelo_inurba_marseille","lat":43.2251,"lon":5.34794,"is_reserved":false,"is_disabled":false,"rental_uris":{"android":"levelo://app?vid=59387ad6-d210-4239-8e55-53547c26e18a","ios":"levelo://app?vid=59387ad6-d210-4239-8e55-53547c26e18a"},"vehicle_type_id":"4","last_reported":1748866906,"current_range_meters":12000,"station_id":"st_cvj5dfep6f1abm77gieg","pricing_plan_id":"cebpf4jnsgd1na2vs0mg"},{"bike_id":"716ae743-21da-48ff-a8cd-4d872669e845","system_id":"levelo_inurba_marseille","lat":43.28106,"lon":5.37852,"is_reserved":false,"is_disabled":false,"rental_uris":{"android":"levelo://app?vid=716ae743-21da-48ff-a8cd-4d872669e845","ios":"levelo://app?vid=716ae743-21da-48ff-a8cd-4d872669e845"},"vehicle_type_id":"4","last_reported":1748866906,"current_range_meters":12400,"station_id":"ce4bha12rcd13ifvqee0","pricing_plan_id":"cebpf4jnsgd1na2vs0mg"},{"bike_id":"0c5255ce-a387-4cb2-949a-904c22588e14","system_id":"levelo_inurba_marseille","lat":43.240735,"lon":5.377632,"is_reserved":false,"is_disabled":false,"rental_uris":{"android":"levelo://app?vid=0c5255ce-a387-4cb2-949a-904c22588e14","ios":"levelo://app?vid=0c5255ce-a387-4cb2-949a-904c22588e14"},"vehicle_type_id":"4","last_reported":1748866906,"current_range_meters":12400,"station_id":"ce4bhnp2rcd13ifvqgvg","pricing_plan_id":"cebpf4jnsgd1na2vs0mg"},{"bike_id":"df919859-f3d8-4660-ad23-9eb787b92536","system_id":"levelo_inurba_marseille","lat":43.229317,"lon":5.353788,"is_reserved":false,"is_disabled":false,"rental_uris":{"android":"levelo://app?vid=df919859-f3d8-4660-ad23-9eb787b92536","ios":"levelo://app?vid=df919859-f3d8-4660-ad23-9eb787b92536"},"vehicle_type_id":"4","last_reported":1748866906,"current_range_meters":12400,"station_id":"cpo3532slgdg3j2ikp40","pricing_plan_id":"cebpf4jnsgd1na2vs0mg"},{"bike_id":"2c64e4bc-106d-4a69-8474-903f360d4142","system_id":"levelo_inurba_marseille","lat":43.23192,"lon":5.39991,"is_reserved":false,"is_disabled":true,"rental_uris":{"android":"levelo://app?vid=2c64e4bc-106d-4a69-8474-903f360d4142","ios":"levelo://app?vid=2c64e4bc-106d-4a69-8474-903f360d4142"},"vehicle_type_id":"4","last_reported":1748866906,"current_range_meters":12400,"station_id":"ce4bhn12rcd13ifvqgqg","pricing_plan_id":"cebpf4jnsgd1na2vs0mg"},{"bike_id":"41ab561b-deed-4743-a96c-0360e4ec4d0e","system_id":"levelo_inurba_marseille","lat":43.298978,"lon":5.436715,"is_reserved":false,"is_disabled":false,"rental_uris":{"android":"levelo://app?vid=41ab561b-deed-4743-a96c-0360e4ec4d0e","ios":"levelo://app?vid=41ab561b-deed-4743-a96c-0360e4ec4d0e"},"vehicle_type_id":"4","last_reported":1748866906,"current_range_meters":12400,"station_id":"ce4bhpp2rcd13ifvqhfg","pricing_plan_id":"cebpf4jnsgd1na2vs0mg"},{"bike_id":"574dceb7-82c3-4f01-a992-0391d1461390","system_id":"levelo_inurba_marseille","lat":43.28154,"lon":5.42659,"is_reserved":false,"is_disabled":false,"rental_uris":{"android":"levelo://app?vid=574dceb7-82c3-4f01-a992-0391d1461390","ios":"levelo://app?vid=574dceb7-82c3-4f01-a992-0391d1461390"},"vehicle_type_id":"4","last_reported":1748866906,"current_range_meters":12400,"station_id":"ce4bhnh2rcd13ifvqgug","pricing_plan_id":"cebpf4jnsgd1na2vs0mg"},{"bike_id":"5c2dff29-9912-4044-a879-b599b663f3c7","system_id":"levelo_inurba_marseille","lat":43.29296,"lon":5.37465,"is_reserved":false,"is_disabled":false,"rental_uris":{"android":"levelo://app?vid=5c2dff29-9912-4044-a879-b599b663f3c7","ios":"levelo://app?vid=5c2dff29-9912-4044-a879-b599b663f3c7"},"vehicle_type_id":"4","last_reported":1748866906,"current_range_meters":12400,"station_id":"ce4bgi12rcd13ifvqb70","pricing_plan_id":"cebpf4jnsgd1na2vs0mg"},{"bike_id":"7882bbbf-1721-4616-a85e-0812507f8d25","system_id":"levelo_inurba_marseille","lat":43.29174,"lon":5.37148,"is_reserved":false,"is_disabled":false,"rental_uris":{"android":"levelo://app?vid=7882bbbf-1721-4616-a85e-0812507f8d25","ios":"levelo://app?vid=7882bbbf-1721-4616-a85e-0812507f8d25"},"vehicle_type_id":"4","last_reported":1748866906,"current_range_meters":12000,"station_id":"ce4bha92rcd13ifvqeh0","pricing_plan_id":"cebpf4jnsgd1na2vs0mg"},{"bike_id":"d54bad3a-7ff1-4a15-aeab-92cdac98e952","system_id":"levelo_inurba_marseille","lat":43.278862,"lon":5.396065,"is_reserved":false,"is_disabled":false,"rental_uris":{"android":"levelo://app?vid=d54bad3a-7ff1-4a15-aeab-92cdac98e952","ios":"levelo://app?vid=d54bad3a-7ff1-4a15-aeab-92cdac98e952"},"vehicle_type_id":"4","last_reported":1748866906,"current_range_meters":12400,"station_id":"ce4bhf92rcd13ifvqf40","pricing_plan_id":"cebpf4jnsgd1na2vs0mg"},{"bike_id":"7df127ef-fcc8-4410-961f-c4cd6b650d43","system_id":"levelo_inurba_marseille","lat":43.24674,"lon":5.38153,"is_reserved":false,"is_disabled":false,"rental_uris":{"android":"levelo://app?vid=7df127ef-fcc8-4410-961f-c4cd6b650d43","ios":"levelo://app?vid=7df127ef-fcc8-4410-961f-c4cd6b650d43"},"vehicle_type_id":"4","last_reported":1748866906,"current_range_meters":12800,"station_id":"ce4bhih2rcd13ifvqfr0","pricing_plan_id":"cebpf4jnsgd1na2vs0mg"},{"bike_id":"a1d5ac53-09cb-4e8c-8b07-94cac92bb8b4","system_id":"levelo_inurba_marseille","lat":43.28973,"lon":5.37827,"is_reserved":false,"is_disabled":false,"rental_uris":{"android":"levelo://app?vid=a1d5ac53-09cb-4e8c-8b07-94cac92bb8b4","ios":"levelo://app?vid=a1d5ac53-09cb-4e8c-8b07-94cac92bb8b4"},"vehicle_type_id":"4","last_reported":1748866906,"current_range_meters":12800,"station_id":"ce4bh9p2rcd13ifvqed0","pricing_plan_id":"cebpf4jnsgd1na2vs0mg"},{"bike_id":"c7d9dac6-93f2-44fa-ac6c-9f56db2f2ac8","system_id":"levelo_inurba_marseille","lat":43.29976,"lon":5.38489,"is_reserved":false,"is_disabled":false,"rental_uris":{"android":"levelo://app?vid=c7d9dac6-93f2-44fa-ac6c-9f56db2f2ac8","ios":"levelo://app?vid=c7d9dac6-93f2-44fa-ac6c-9f56db2f2ac8"},"vehicle_type_id":"4","last_reported":1748866906,"current_range_meters":12800,"station_id":"","pricing_plan_id":"cebpf4jnsgd1na2vs0mg"},{"bike_id":"36eaf3ec-0d6a-499c-9bee-a446e81e15ff","system_id":"levelo_inurba_marseille","lat":43.30086,"lon":5.39079,"is_reserved":false,"is_disabled":false,"rental_uris":{"android":"levelo://app?vid=36eaf3ec-0d6a-499c-9bee-a446e81e15ff","ios":"levelo://app?vid=36eaf3ec-0d6a-499c-9bee-a446e81e15ff"},"vehicle_type_id":"4","last_reported":1748866906,"current_range_meters":12800,"station_id":"ce4bh192rcd13ifvqdb0","pricing_plan_id":"cebpf4jnsgd1na2vs0mg"},{"bike_id":"cefb1dfe-2365-4243-bbe5-1fe46ca37daa","system_id":"levelo_inurba_marseille","lat":43.29095,"lon":5.38128,"is_reserved":false,"is_disabled":false,"rental_uris":{"android":"levelo://app?vid=cefb1dfe-2365-4243-bbe5-1fe46ca37daa","ios":"levelo://app?vid=cefb1dfe-2365-4243-bbe5-1fe46ca37daa"},"vehicle_type_id":"4","last_reported":1748866906,"current_range_meters":13600,"station_id":"ce4bh512rcd13ifvqe2g","pricing_plan_id":"cebpf4jnsgd1na2vs0mg"},{"bike_id":"8e4d421b-9a96-4b99-8137-915430664cc9","system_id":"levelo_inurba_marseille","lat":43.24167,"lon":5.364,"is_reserved":false,"is_disabled":false,"rental_uris":{"android":"levelo://app?vid=8e4d421b-9a96-4b99-8137-915430664cc9","ios":"levelo://app?vid=8e4d421b-9a96-4b99-8137-915430664cc9"},"vehicle_type_id":"4","last_reported":1748866906,"current_range_meters":13600,"station_id":"cpo36qri1sfpv3e86is0","pricing_plan_id":"cebpf4jnsgd1na2vs0mg"},{"bike_id":"00631d3c-2231-4625-9d84-019f18cef5bc","system_id":"levelo_inurba_marseille","lat":43.29299,"lon":5.37625,"is_reserved":false,"is_disabled":false,"rental_uris":{"android":"levelo://app?vid=00631d3c-2231-4625-9d84-019f18cef5bc","ios":"levelo://app?vid=00631d3c-2231-4625-9d84-019f18cef5bc"},"vehicle_type_id":"4","last_reported":1748866906,"current_range_meters":13600,"station_id":"ce4bgi12rcd13ifvqb80","pricing_plan_id":"cebpf4jnsgd1na2vs0mg"},{"bike_id":"74d5de7c-ebf0-47ff-b754-bcefcf1b83b8","system_id":"levelo_inurba_marseille","lat":43.32368,"lon":5.38884,"is_reserved":false,"is_disabled":false,"rental_uris":{"android":"levelo://app?vid=74d5de7c-ebf0-47ff-b754-bcefcf1b83b8","ios":"levelo://app?vid=74d5de7c-ebf0-47ff-b754-bcefcf1b83b8"},"vehicle_type_id":"4","last_reported":1748866906,"current_range_meters":13600,"station_id":"ce4bhqp2rcd13ifvqhog","pricing_plan_id":"cebpf4jnsgd1na2vs0mg"},{"bike_id":"45ee6955-6da7-46cb-9861-7ab12d5e85fb","system_id":"levelo_inurba_marseille","lat":43.28358,"lon":5.38113,"is_reserved":false,"is_disabled":false,"rental_uris":{"android":"levelo://app?vid=45ee6955-6da7-46cb-9861-7ab12d5e85fb","ios":"levelo://app?vid=45ee6955-6da7-46cb-9861-7ab12d5e85fb"},"vehicle_type_id":"4","last_reported":1748866906,"current_range_meters":13600,"station_id":"ce4bh412rcd13ifvqdr0","pricing_plan_id":"cebpf4jnsgd1na2vs0mg"},{"bike_id":"f1c8c7e1-3f34-4d38-a503-caa580ebde75","system_id":"levelo_inurba_marseille","lat":43.22507,"lon":5.34792,"is_reserved":false,"is_disabled":false,"rental_uris":{"android":"levelo://app?vid=f1c8c7e1-3f34-4d38-a503-caa580ebde75","ios":"levelo://app?vid=f1c8c7e1-3f34-4d38-a503-caa580ebde75"},"vehicle_type_id":"4","last_reported":1748866906,"current_range_meters":14000,"station_id":"","pricing_plan_id":"cebpf4jnsgd1na2vs0mg"},{"bike_id":"0c11b441-cd79-40c0-bfd7-f68a34f41d8f","system_id":"levelo_inurba_marseille","lat":43.31361,"lon":5.36755,"is_reserved":false,"is_disabled":false,"rental_uris":{"android":"levelo://app?vid=0c11b441-cd79-40c0-bfd7-f68a34f41d8f","ios":"levelo://app?vid=0c11b441-cd79-40c0-bfd7-f68a34f41d8f"},"vehicle_type_id":"4","last_reported":1748866906,"current_range_meters":14000,"station_id":"ce4bgr92rcd13ifvqc6g","pricing_plan_id":"cebpf4jnsgd1na2vs0mg"},{"bike_id":"8d5e9119-c175-4f0a-93f3-ca050d40f285","system_id":"levelo_inurba_marseille","lat":43.28734,"lon":5.37934,"is_reserved":false,"is_disabled":false,"rental_uris":{"android":"levelo://app?vid=8d5e9119-c175-4f0a-93f3-ca050d40f285","ios":"levelo://app?vid=8d5e9119-c175-4f0a-93f3-ca050d40f285"},"vehicle_type_id":"4","last_reported":1748866906,"current_range_meters":12800,"station_id":"ce4bh9p2rcd13ifvqec0","pricing_plan_id":"cebpf4jnsgd1na2vs0mg"},{"bike_id":"f650e29b-5fc1-475f-a93c-c80fd0720da2","system_id":"levelo_inurba_marseille","lat":43.29043,"lon":5.37564,"is_reserved":false,"is_disabled":false,"rental_uris":{"android":"levelo://app?vid=f650e29b-5fc1-475f-a93c-c80fd0720da2","ios":"levelo://app?vid=f650e29b-5fc1-475f-a93c-c80fd0720da2"},"vehicle_type_id":"4","last_reported":1748866906,"current_range_meters":13600,"station_id":"ce4bh692rcd13ifvqe90","pricing_plan_id":"cebpf4jnsgd1na2vs0mg"},{"bike_id":"d1351fed-bdae-450a-a73c-85ceff52ac63","system_id":"levelo_inurba_marseille","lat":43.28001,"lon":5.40008,"is_reserved":false,"is_disabled":false,"rental_uris":{"android":"levelo://app?vid=d1351fed-bdae-450a-a73c-85ceff52ac63","ios":"levelo://app?vid=d1351fed-bdae-450a-a73c-85ceff52ac63"},"vehicle_type_id":"4","last_reported":1748866906,"current_range_meters":14400,"station_id":"ce4bho92rcd13ifvqh4g","pricing_plan_id":"cebpf4jnsgd1na2vs0mg"},{"bike_id":"eca45143-16af-4fbb-8c61-2374cc75d18f","system_id":"levelo_inurba_marseille","lat":43.29821,"lon":5.38092,"is_reserved":false,"is_disabled":false,"rental_uris":{"android":"levelo://app?vid=eca45143-16af-4fbb-8c61-2374cc75d18f","ios":"levelo://app?vid=eca45143-16af-4fbb-8c61-2374cc75d18f"},"vehicle_type_id":"4","last_reported":1748866906,"current_range_meters":14400,"station_id":"ce4bgip2rcd13ifvqbb0","pricing_plan_id":"cebpf4jnsgd1na2vs0mg"},{"bike_id":"ab6e4084-c12e-44b7-bddb-0c1970117956","system_id":"levelo_inurba_marseille","lat":43.31226,"lon":5.368513,"is_reserved":false,"is_disabled":false,"rental_uris":{"android":"levelo://app?vid=ab6e4084-c12e-44b7-bddb-0c1970117956","ios":"levelo://app?vid=ab6e4084-c12e-44b7-bddb-0c1970117956"},"vehicle_type_id":"4","last_reported":1748866906,"current_range_meters":14400,"station_id":"ce4bgl92rcd13ifvqbq0","pricing_plan_id":"cebpf4jnsgd1na2vs0mg"},{"bike_id":"d1376fdb-bb8d-40aa-8de5-84acb3706c2e","system_id":"levelo_inurba_marseille","lat":43.323591,"lon":5.367587,"is_reserved":false,"is_disabled":false,"rental_uris":{"android":"levelo://app?vid=d1376fdb-bb8d-40aa-8de5-84acb3706c2e","ios":"levelo://app?vid=d1376fdb-bb8d-40aa-8de5-84acb3706c2e"},"vehicle_type_id":"4","last_reported":1748866906,"current_range_meters":14400,"station_id":"ce4bhsh2rcd13ifvqi2g","pricing_plan_id":"cebpf4jnsgd1na2vs0mg"},{"bike_id":"f9ba8850-482d-43cd-93c6-da015477c7af","system_id":"levelo_inurba_marseille","lat":43.28636,"lon":5.38347,"is_reserved":false,"is_disabled":false,"rental_uris":{"android":"levelo://app?vid=f9ba8850-482d-43cd-93c6-da015477c7af","ios":"levelo://app?vid=f9ba8850-482d-43cd-93c6-da015477c7af"},"vehicle_type_id":"4","last_reported":1748866906,"current_range_meters":14400,"station_id":"","pricing_plan_id":"cebpf4jnsgd1na2vs0mg"},{"bike_id":"0bb5a125-38ce-4877-97e5-b8b00f70f3bd","system_id":"levelo_inurba_marseille","lat":43.275681,"lon":5.384179,"is_reserved":false,"is_disabled":false,"rental_uris":{"android":"levelo://app?vid=0bb5a125-38ce-4877-97e5-b8b00f70f3bd","ios":"levelo://app?vid=0bb5a125-38ce-4877-97e5-b8b00f70f3bd"},"vehicle_type_id":"4","last_reported":1748866906,"current_range_meters":14400,"station_id":"ce4bhh92rcd13ifvqfi0","pricing_plan_id":"cebpf4jnsgd1na2vs0mg"},{"bike_id":"65618225-bb32-4e2c-8cb5-9009cbc8d45a","system_id":"levelo_inurba_marseille","lat":43.23161,"lon":5.437043,"is_reserved":false,"is_disabled":false,"rental_uris":{"android":"levelo://app?vid=65618225-bb32-4e2c-8cb5-9009cbc8d45a","ios":"levelo://app?vid=65618225-bb32-4e2c-8cb5-9009cbc8d45a"},"vehicle_type_id":"4","last_reported":1748866906,"current_range_meters":14800,"station_id":"ce4bhmp2rcd13ifvqgog","pricing_plan_id":"cebpf4jnsgd1na2vs0mg"},{"bike_id":"65ef1e47-c760-40b6-9075-b7e984ccec5a","system_id":"levelo_inurba_marseille","lat":43.25937,"lon":5.409,"is_reserved":false,"is_disabled":false,"rental_uris":{"android":"levelo://app?vid=65ef1e47-c760-40b6-9075-b7e984ccec5a","ios":"levelo://app?vid=65ef1e47-c760-40b6-9075-b7e984ccec5a"},"vehicle_type_id":"4","last_reported":1748866906,"current_range_meters":14800,"station_id":"ce4bhm92rcd13ifvqglg","pricing_plan_id":"cebpf4jnsgd1na2vs0mg"},{"bike_id":"5ce0fd2d-1a08-4331-b2ba-8b0778e857a7","system_id":"levelo_inurba_marseille","lat":43.28389,"lon":5.38142,"is_reserved":false,"is_disabled":false,"rental_uris":{"android":"levelo://app?vid=5ce0fd2d-1a08-4331-b2ba-8b0778e857a7","ios":"levelo://app?vid=5ce0fd2d-1a08-4331-b2ba-8b0778e857a7"},"vehicle_type_id":"4","last_reported":1748866906,"current_range_meters":14800,"station_id":"ce4bh412rcd13ifvqdr0","pricing_plan_id":"cebpf4jnsgd1na2vs0mg"},{"bike_id":"c919ea94-6c36-4e0a-83e4-049ad3ac8dbc","system_id":"levelo_inurba_marseille","lat":43.23153,"lon":5.43718,"is_reserved":false,"is_disabled":false,"rental_uris":{"android":"levelo://app?vid=c919ea94-6c36-4e0a-83e4-049ad3ac8dbc","ios":"levelo://app?vid=c919ea94-6c36-4e0a-83e4-049ad3ac8dbc"},"vehicle_type_id":"4","last_reported":1748866906,"current_range_meters":14800,"station_id":"ce4bhmp2rcd13ifvqgog","pricing_plan_id":"cebpf4jnsgd1na2vs0mg"},{"bike_id":"e4b6151b-ff96-4dd5-902c-43c013fd51af","system_id":"levelo_inurba_marseille","lat":43.30592,"lon":5.39355,"is_reserved":false,"is_disabled":false,"rental_uris":{"android":"levelo://app?vid=e4b6151b-ff96-4dd5-902c-43c013fd51af","ios":"levelo://app?vid=e4b6151b-ff96-4dd5-902c-43c013fd51af"},"vehicle_type_id":"4","last_reported":1748866906,"current_range_meters":14800,"station_id":"ce4bh0p2rcd13ifvqd80","pricing_plan_id":"cebpf4jnsgd1na2vs0mg"},{"bike_id":"43eeb705-a3cf-4425-899c-c2bad5347dd3","system_id":"levelo_inurba_marseille","lat":43.29974,"lon":5.38489,"is_reserved":false,"is_disabled":false,"rental_uris":{"android":"levelo://app?vid=43eeb705-a3cf-4425-899c-c2bad5347dd3","ios":"levelo://app?vid=43eeb705-a3cf-4425-899c-c2bad5347dd3"},"vehicle_type_id":"4","last_reported":1748866906,"current_range_meters":14400,"station_id":"ce4bgj92rcd13ifvqbd0","pricing_plan_id":"cebpf4jnsgd1na2vs0mg"},{"bike_id":"2b753f85-f91b-4398-9420-58e40e4f3a65","system_id":"levelo_inurba_marseille","lat":43.298495,"lon":5.362938,"is_reserved":false,"is_disabled":false,"rental_uris":{"android":"levelo://app?vid=2b753f85-f91b-4398-9420-58e40e4f3a65","ios":"levelo://app?vid=2b753f85-f91b-4398-9420-58e40e4f3a65"},"vehicle_type_id":"4","last_reported":1748866906,"current_range_meters":14800,"station_id":"ce4bgpp2rcd13ifvqc3g","pricing_plan_id":"cebpf4jnsgd1na2vs0mg"},{"bike_id":"64518071-8fa2-4bfb-b08c-c80ea0817c1a","system_id":"levelo_inurba_marseille","lat":43.27494,"lon":5.42452,"is_reserved":false,"is_disabled":false,"rental_uris":{"android":"levelo://app?vid=64518071-8fa2-4bfb-b08c-c80ea0817c1a","ios":"levelo://app?vid=64518071-8fa2-4bfb-b08c-c80ea0817c1a"},"vehicle_type_id":"4","last_reported":1748866906,"current_range_meters":14800,"station_id":"ce4bhn92rcd13ifvqgrg","pricing_plan_id":"cebpf4jnsgd1na2vs0mg"},{"bike_id":"fa62253e-e4db-42d1-9a63-6ab16922bf00","system_id":"levelo_inurba_marseille","lat":43.32005,"lon":5.36808,"is_reserved":false,"is_disabled":false,"rental_uris":{"android":"levelo://app?vid=fa62253e-e4db-42d1-9a63-6ab16922bf00","ios":"levelo://app?vid=fa62253e-e4db-42d1-9a63-6ab16922bf00"},"vehicle_type_id":"4","last_reported":1748866906,"current_range_meters":15200,"station_id":"","pricing_plan_id":"cebpf4jnsgd1na2vs0mg"},{"bike_id":"499fb29d-0d16-4a40-9c2e-e16e069b3a26","system_id":"levelo_inurba_marseille","lat":43.295796,"lon":5.375171,"is_reserved":false,"is_disabled":false,"rental_uris":{"android":"levelo://app?vid=499fb29d-0d16-4a40-9c2e-e16e069b3a26","ios":"levelo://app?vid=499fb29d-0d16-4a40-9c2e-e16e069b3a26"},"vehicle_type_id":"4","last_reported":1748866906,"current_range_meters":15200,"station_id":"ce4bgh92rcd13ifvqb50","pricing_plan_id":"cebpf4jnsgd1na2vs0mg"},{"bike_id":"fd7c9fb5-a874-44ad-a5a5-21accd8d3bf2","system_id":"levelo_inurba_marseille","lat":43.28796,"lon":5.4004,"is_reserved":false,"is_disabled":false,"rental_uris":{"android":"levelo://app?vid=fd7c9fb5-a874-44ad-a5a5-21accd8d3bf2","ios":"levelo://app?vid=fd7c9fb5-a874-44ad-a5a5-21accd8d3bf2"},"vehicle_type_id":"4","last_reported":1748866906,"current_range_meters":15200,"station_id":"","pricing_plan_id":"cebpf4jnsgd1na2vs0mg"},{"bike_id":"c01d9bbd-bf7b-4a16-b2ce-c011a7d02e42","system_id":"levelo_inurba_marseille","lat":43.29278,"lon":5.3845,"is_reserved":false,"is_disabled":false,"rental_uris":{"android":"levelo://app?vid=c01d9bbd-bf7b-4a16-b2ce-c011a7d02e42","ios":"levelo://app?vid=c01d9bbd-bf7b-4a16-b2ce-c011a7d02e42"},"vehicle_type_id":"4","last_reported":1748866906,"current_range_meters":15200,"station_id":"ce4bh692rcd13ifvqea0","pricing_plan_id":"cebpf4jnsgd1na2vs0mg"},{"bike_id":"6dd1b4d4-21f5-4a4f-8a06-003ca7f52503","system_id":"levelo_inurba_marseille","lat":43.30954,"lon":5.39035,"is_reserved":false,"is_disabled":false,"rental_uris":{"android":"levelo://app?vid=6dd1b4d4-21f5-4a4f-8a06-003ca7f52503","ios":"levelo://app?vid=6dd1b4d4-21f5-4a4f-8a06-003ca7f52503"},"vehicle_type_id":"4","last_reported":1748866906,"current_range_meters":15200,"station_id":"ce4bgup2rcd13ifvqco0","pricing_plan_id":"cebpf4jnsgd1na2vs0mg"},{"bike_id":"9c99e6d3-dc3c-4a1d-88ad-8e44dc120da6","system_id":"levelo_inurba_marseille","lat":43.26958,"lon":5.38621,"is_reserved":false,"is_disabled":false,"rental_uris":{"android":"levelo://app?vid=9c99e6d3-dc3c-4a1d-88ad-8e44dc120da6","ios":"levelo://app?vid=9c99e6d3-dc3c-4a1d-88ad-8e44dc120da6"},"vehicle_type_id":"4","last_reported":1748866906,"current_range_meters":15200,"station_id":"ce4bhh92rcd13ifvqfh0","pricing_plan_id":"cebpf4jnsgd1na2vs0mg"},{"bike_id":"84f07d9e-f274-494b-ba22-ec6cda2a2271","system_id":"levelo_inurba_marseille","lat":43.29797,"lon":5.38115,"is_reserved":false,"is_disabled":false,"rental_uris":{"android":"levelo://app?vid=84f07d9e-f274-494b-ba22-ec6cda2a2271","ios":"levelo://app?vid=84f07d9e-f274-494b-ba22-ec6cda2a2271"},"vehicle_type_id":"4","last_reported":1748866906,"current_range_meters":15200,"station_id":"ce4bgip2rcd13ifvqbb0","pricing_plan_id":"cebpf4jnsgd1na2vs0mg"},{"bike_id":"cfeff680-d98e-4077-b74b-68a8b1ac84a5","system_id":"levelo_inurba_marseille","lat":43.28942,"lon":5.36624,"is_reserved":false,"is_disabled":false,"rental_uris":{"android":"levelo://app?vid=cfeff680-d98e-4077-b74b-68a8b1ac84a5","ios":"levelo://app?vid=cfeff680-d98e-4077-b74b-68a8b1ac84a5"},"vehicle_type_id":"4","last_reported":1748866906,"current_range_meters":15200,"station_id":"ce4bhap2rcd13ifvqek0","pricing_plan_id":"cebpf4jnsgd1na2vs0mg"},{"bike_id":"e1185c3f-87a6-4d0a-a6c5-956e916d3e0f","system_id":"levelo_inurba_marseille","lat":43.21187,"lon":5.35081,"is_reserved":false,"is_disabled":false,"rental_uris":{"android":"levelo://app?vid=e1185c3f-87a6-4d0a-a6c5-956e916d3e0f","ios":"levelo://app?vid=e1185c3f-87a6-4d0a-a6c5-956e916d3e0f"},"vehicle_type_id":"4","last_reported":1748866906,"current_range_meters":16000,"station_id":"st_cvj6sg6p6f1abm77japg","pricing_plan_id":"cebpf4jnsgd1na2vs0mg"},{"bike_id":"080030b8-ec1d-458a-b792-62cfb9f8de2b","system_id":"levelo_inurba_marseille","lat":43.31369,"lon":5.382667,"is_reserved":false,"is_disabled":false,"rental_uris":{"android":"levelo://app?vid=080030b8-ec1d-458a-b792-62cfb9f8de2b","ios":"levelo://app?vid=080030b8-ec1d-458a-b792-62cfb9f8de2b"},"vehicle_type_id":"4","last_reported":1748866906,"current_range_meters":16000,"station_id":"","pricing_plan_id":"cebpf4jnsgd1na2vs0mg"},{"bike_id":"d78fb221-b15a-452d-a755-9885dd31dfa6","system_id":"levelo_inurba_marseille","lat":43.31226,"lon":5.36866,"is_reserved":false,"is_disabled":false,"rental_uris":{"android":"levelo://app?vid=d78fb221-b15a-452d-a755-9885dd31dfa6","ios":"levelo://app?vid=d78fb221-b15a-452d-a755-9885dd31dfa6"},"vehicle_type_id":"4","last_reported":1748866906,"current_range_meters":16000,"station_id":"ce4bgl92rcd13ifvqbq0","pricing_plan_id":"cebpf4jnsgd1na2vs0mg"},{"bike_id":"50e4ca6a-4a4a-44e5-aa73-72f4fd4506e6","system_id":"levelo_inurba_marseille","lat":43.21757,"lon":5.3459,"is_reserved":false,"is_disabled":false,"rental_uris":{"android":"levelo://app?vid=50e4ca6a-4a4a-44e5-aa73-72f4fd4506e6","ios":"levelo://app?vid=50e4ca6a-4a4a-44e5-aa73-72f4fd4506e6"},"vehicle_type_id":"4","last_reported":1748866906,"current_range_meters":16000,"station_id":"st_cvj6r9ubvosntc0bgbag","pricing_plan_id":"cebpf4jnsgd1na2vs0mg"},{"bike_id":"0e8c3011-1b8d-403e-ba65-b9120be128f1","system_id":"levelo_inurba_marseille","lat":43.27827,"lon":5.40726,"is_reserved":false,"is_disabled":false,"rental_uris":{"android":"levelo://app?vid=0e8c3011-1b8d-403e-ba65-b9120be128f1","ios":"levelo://app?vid=0e8c3011-1b8d-403e-ba65-b9120be128f1"},"vehicle_type_id":"4","last_reported":1748866906,"current_range_meters":16000,"station_id":"ce4bhnh2rcd13ifvqgtg","pricing_plan_id":"cebpf4jnsgd1na2vs0mg"},{"bike_id":"c4aea8e6-a6f2-4d96-830e-57e046402925","system_id":"levelo_inurba_marseille","lat":43.3056,"lon":5.3654,"is_reserved":false,"is_disabled":false,"rental_uris":{"android":"levelo://app?vid=c4aea8e6-a6f2-4d96-830e-57e046402925","ios":"levelo://app?vid=c4aea8e6-a6f2-4d96-830e-57e046402925"},"vehicle_type_id":"4","last_reported":1748866906,"current_range_meters":16000,"station_id":"ce4bgs12rcd13ifvqcag","pricing_plan_id":"cebpf4jnsgd1na2vs0mg"},{"bike_id":"2add906f-0df7-473d-9432-f2d962147916","system_id":"levelo_inurba_marseille","lat":43.30623,"lon":5.39333,"is_reserved":false,"is_disabled":false,"rental_uris":{"android":"levelo://app?vid=2add906f-0df7-473d-9432-f2d962147916","ios":"levelo://app?vid=2add906f-0df7-473d-9432-f2d962147916"},"vehicle_type_id":"4","last_reported":1748866906,"current_range_meters":16000,"station_id":"ce4bh0p2rcd13ifvqd80","pricing_plan_id":"cebpf4jnsgd1na2vs0mg"},{"bike_id":"f68b568c-19c3-4299-b1fc-d195d756dfea","system_id":"levelo_inurba_marseille","lat":43.28267,"lon":5.3506,"is_reserved":false,"is_disabled":false,"rental_uris":{"android":"levelo://app?vid=f68b568c-19c3-4299-b1fc-d195d756dfea","ios":"levelo://app?vid=f68b568c-19c3-4299-b1fc-d195d756dfea"},"vehicle_type_id":"4","last_reported":1748866906,"current_range_meters":16000,"station_id":"ce4bhbp2rcd13ifvqerg","pricing_plan_id":"cebpf4jnsgd1na2vs0mg"},{"bike_id":"36894e79-10d0-4d6b-9c04-7bf294d5e33c","system_id":"levelo_inurba_marseille","lat":43.29274,"lon":5.38448,"is_reserved":false,"is_disabled":false,"rental_uris":{"android":"levelo://app?vid=36894e79-10d0-4d6b-9c04-7bf294d5e33c","ios":"levelo://app?vid=36894e79-10d0-4d6b-9c04-7bf294d5e33c"},"vehicle_type_id":"4","last_reported":1748866906,"current_range_meters":16000,"station_id":"ce4bh692rcd13ifvqea0","pricing_plan_id":"cebpf4jnsgd1na2vs0mg"},{"bike_id":"ac2caa47-de50-4eb2-a0a2-d67e53dc1071","system_id":"levelo_inurba_marseille","lat":43.301424,"lon":5.374193,"is_reserved":false,"is_disabled":false,"rental_uris":{"android":"levelo://app?vid=ac2caa47-de50-4eb2-a0a2-d67e53dc1071","ios":"levelo://app?vid=ac2caa47-de50-4eb2-a0a2-d67e53dc1071"},"vehicle_type_id":"4","last_reported":1748866906,"current_range_meters":16400,"station_id":"ce4bgs92rcd13ifvqcc0","pricing_plan_id":"cebpf4jnsgd1na2vs0mg"},{"bike_id":"bb481a19-5696-4cb7-85ba-0ae468ead9ca","system_id":"levelo_inurba_marseille","lat":43.28925,"lon":5.38385,"is_reserved":false,"is_disabled":false,"rental_uris":{"android":"levelo://app?vid=bb481a19-5696-4cb7-85ba-0ae468ead9ca","ios":"levelo://app?vid=bb481a19-5696-4cb7-85ba-0ae468ead9ca"},"vehicle_type_id":"4","last_reported":1748866906,"current_range_meters":16400,"station_id":"ce4bh612rcd13ifvqe6g","pricing_plan_id":"cebpf4jnsgd1na2vs0mg"},{"bike_id":"28b3baf9-56f2-4305-a02c-fde12abc16a2","system_id":"levelo_inurba_marseille","lat":43.29884,"lon":5.39741,"is_reserved":false,"is_disabled":false,"rental_uris":{"android":"levelo://app?vid=28b3baf9-56f2-4305-a02c-fde12abc16a2","ios":"levelo://app?vid=28b3baf9-56f2-4305-a02c-fde12abc16a2"},"vehicle_type_id":"4","last_reported":1748866906,"current_range_meters":16400,"station_id":"ce4bh0h2rcd13ifvqd50","pricing_plan_id":"cebpf4jnsgd1na2vs0mg"},{"bike_id":"591590d4-8f21-4023-a961-5c59da8686f4","system_id":"levelo_inurba_marseille","lat":43.2397,"lon":5.36621,"is_reserved":false,"is_disabled":false,"rental_uris":{"android":"levelo://app?vid=591590d4-8f21-4023-a961-5c59da8686f4","ios":"levelo://app?vid=591590d4-8f21-4023-a961-5c59da8686f4"},"vehicle_type_id":"4","last_reported":1748866906,"current_range_meters":16400,"station_id":"ce4bhi12rcd13ifvqfp0","pricing_plan_id":"cebpf4jnsgd1na2vs0mg"},{"bike_id":"a688aa03-5584-43d6-8aef-3f6b47566496","system_id":"levelo_inurba_marseille","lat":43.28204,"lon":5.35102,"is_reserved":false,"is_disabled":false,"rental_uris":{"android":"levelo://app?vid=a688aa03-5584-43d6-8aef-3f6b47566496","ios":"levelo://app?vid=a688aa03-5584-43d6-8aef-3f6b47566496"},"vehicle_type_id":"4","last_reported":1748866906,"current_range_meters":16400,"station_id":"ce4bhbp2rcd13ifvqerg","pricing_plan_id":"cebpf4jnsgd1na2vs0mg"},{"bike_id":"c58c3096-2d3d-475d-847d-ba9003605ded","system_id":"levelo_inurba_marseille","lat":43.2409,"lon":5.37673,"is_reserved":false,"is_disabled":false,"rental_uris":{"android":"levelo://app?vid=c58c3096-2d3d-475d-847d-ba9003605ded","ios":"levelo://app?vid=c58c3096-2d3d-475d-847d-ba9003605ded"},"vehicle_type_id":"4","last_reported":1748866906,"current_range_meters":16400,"station_id":"ce4bhnp2rcd13ifvqgvg","pricing_plan_id":"cebpf4jnsgd1na2vs0mg"},{"bike_id":"26d6f250-774a-44dd-bee1-562e64385162","system_id":"levelo_inurba_marseille","lat":43.24686,"lon":5.38148,"is_reserved":false,"is_disabled":false,"rental_uris":{"android":"levelo://app?vid=26d6f250-774a-44dd-bee1-562e64385162","ios":"levelo://app?vid=26d6f250-774a-44dd-bee1-562e64385162"},"vehicle_type_id":"4","last_reported":1748866906,"current_range_meters":16400,"station_id":"ce4bhih2rcd13ifvqfr0","pricing_plan_id":"cebpf4jnsgd1na2vs0mg"},{"bike_id":"1075abc3-2eb8-4ccb-8bbe-33dc935bc3e6","system_id":"levelo_inurba_marseille","lat":43.28407,"lon":5.3751,"is_reserved":false,"is_disabled":false,"rental_uris":{"android":"levelo://app?vid=1075abc3-2eb8-4ccb-8bbe-33dc935bc3e6","ios":"levelo://app?vid=1075abc3-2eb8-4ccb-8bbe-33dc935bc3e6"},"vehicle_type_id":"4","last_reported":1748866906,"current_range_meters":16800,"station_id":"ce4bh412rcd13ifvqds0","pricing_plan_id":"cebpf4jnsgd1na2vs0mg"},{"bike_id":"cb25bc94-5efd-4286-8687-c7c60b6c2561","system_id":"levelo_inurba_marseille","lat":43.28353,"lon":5.38107,"is_reserved":false,"is_disabled":false,"rental_uris":{"android":"levelo://app?vid=cb25bc94-5efd-4286-8687-c7c60b6c2561","ios":"levelo://app?vid=cb25bc94-5efd-4286-8687-c7c60b6c2561"},"vehicle_type_id":"4","last_reported":1748866906,"current_range_meters":16800,"station_id":"ce4bh412rcd13ifvqdr0","pricing_plan_id":"cebpf4jnsgd1na2vs0mg"},{"bike_id":"11d1dc6b-4743-4fc2-ab0e-0ebfb42c9098","system_id":"levelo_inurba_marseille","lat":43.24092,"lon":5.37729,"is_reserved":false,"is_disabled":false,"rental_uris":{"android":"levelo://app?vid=11d1dc6b-4743-4fc2-ab0e-0ebfb42c9098","ios":"levelo://app?vid=11d1dc6b-4743-4fc2-ab0e-0ebfb42c9098"},"vehicle_type_id":"4","last_reported":1748866906,"current_range_meters":16800,"station_id":"ce4bhnp2rcd13ifvqgvg","pricing_plan_id":"cebpf4jnsgd1na2vs0mg"},{"bike_id":"d80a47f9-1139-47a6-bc23-c9d98c0ba18f","system_id":"levelo_inurba_marseille","lat":43.28269,"lon":5.35058,"is_reserved":false,"is_disabled":false,"rental_uris":{"android":"levelo://app?vid=d80a47f9-1139-47a6-bc23-c9d98c0ba18f","ios":"levelo://app?vid=d80a47f9-1139-47a6-bc23-c9d98c0ba18f"},"vehicle_type_id":"4","last_reported":1748866906,"current_range_meters":16800,"station_id":"ce4bhbp2rcd13ifvqerg","pricing_plan_id":"cebpf4jnsgd1na2vs0mg"},{"bike_id":"8fa49b55-3848-431e-92a3-bc16f6085529","system_id":"levelo_inurba_marseille","lat":43.29847,"lon":5.362861,"is_reserved":false,"is_disabled":false,"rental_uris":{"android":"levelo://app?vid=8fa49b55-3848-431e-92a3-bc16f6085529","ios":"levelo://app?vid=8fa49b55-3848-431e-92a3-bc16f6085529"},"vehicle_type_id":"4","last_reported":1748866906,"current_range_meters":16800,"station_id":"ce4bgpp2rcd13ifvqc3g","pricing_plan_id":"cebpf4jnsgd1na2vs0mg"},{"bike_id":"dd8d83a9-9b83-4a1e-9020-ab495b13d89c","system_id":"levelo_inurba_marseille","lat":43.28002,"lon":5.4002,"is_reserved":false,"is_disabled":false,"rental_uris":{"android":"levelo://app?vid=dd8d83a9-9b83-4a1e-9020-ab495b13d89c","ios":"levelo://app?vid=dd8d83a9-9b83-4a1e-9020-ab495b13d89c"},"vehicle_type_id":"4","last_reported":1748866906,"current_range_meters":16400,"station_id":"ce4bho92rcd13ifvqh4g","pricing_plan_id":"cebpf4jnsgd1na2vs0mg"},{"bike_id":"94569b96-174f-4a2c-aec4-5f1dc536a9e6","system_id":"levelo_inurba_marseille","lat":43.30142,"lon":5.38778,"is_reserved":false,"is_disabled":false,"rental_uris":{"android":"levelo://app?vid=94569b96-174f-4a2c-aec4-5f1dc536a9e6","ios":"levelo://app?vid=94569b96-174f-4a2c-aec4-5f1dc536a9e6"},"vehicle_type_id":"4","last_reported":1748866906,"current_range_meters":16800,"station_id":"ce4bghh2rcd13ifvqb60","pricing_plan_id":"cebpf4jnsgd1na2vs0mg"},{"bike_id":"be1469f0-6541-4f7d-b1e2-a0f2f2063047","system_id":"levelo_inurba_marseille","lat":43.26569,"lon":5.39006,"is_reserved":false,"is_disabled":false,"rental_uris":{"android":"levelo://app?vid=be1469f0-6541-4f7d-b1e2-a0f2f2063047","ios":"levelo://app?vid=be1469f0-6541-4f7d-b1e2-a0f2f2063047"},"vehicle_type_id":"4","last_reported":1748866906,"current_range_meters":17200,"station_id":"ce4bhe12rcd13ifvqf30","pricing_plan_id":"cebpf4jnsgd1na2vs0mg"},{"bike_id":"909d6579-2d02-429e-8280-66a5a7536507","system_id":"levelo_inurba_marseille","lat":43.28924,"lon":5.36627,"is_reserved":false,"is_disabled":false,"rental_uris":{"android":"levelo://app?vid=909d6579-2d02-429e-8280-66a5a7536507","ios":"levelo://app?vid=909d6579-2d02-429e-8280-66a5a7536507"},"vehicle_type_id":"4","last_reported":1748866906,"current_range_meters":17200,"station_id":"ce4bhap2rcd13ifvqek0","pricing_plan_id":"cebpf4jnsgd1na2vs0mg"},{"bike_id":"ec488bb4-0fd8-4bc9-80f8-f907c5574e33","system_id":"levelo_inurba_marseille","lat":43.29822,"lon":5.38098,"is_reserved":false,"is_disabled":false,"rental_uris":{"android":"levelo://app?vid=ec488bb4-0fd8-4bc9-80f8-f907c5574e33","ios":"levelo://app?vid=ec488bb4-0fd8-4bc9-80f8-f907c5574e33"},"vehicle_type_id":"4","last_reported":1748866906,"current_range_meters":17200,"station_id":"ce4bgip2rcd13ifvqbb0","pricing_plan_id":"cebpf4jnsgd1na2vs0mg"},{"bike_id":"598a02d1-ba59-4da1-8242-4340f6602a91","system_id":"levelo_inurba_marseille","lat":43.30587,"lon":5.39356,"is_reserved":false,"is_disabled":false,"rental_uris":{"android":"levelo://app?vid=598a02d1-ba59-4da1-8242-4340f6602a91","ios":"levelo://app?vid=598a02d1-ba59-4da1-8242-4340f6602a91"},"vehicle_type_id":"4","last_reported":1748866906,"current_range_meters":17600,"station_id":"ce4bh0p2rcd13ifvqd80","pricing_plan_id":"cebpf4jnsgd1na2vs0mg"},{"bike_id":"f7c222b7-121f-4289-83d7-a78068e28d1f","system_id":"levelo_inurba_marseille","lat":43.2603,"lon":5.375446,"is_reserved":false,"is_disabled":false,"rental_uris":{"android":"levelo://app?vid=f7c222b7-121f-4289-83d7-a78068e28d1f","ios":"levelo://app?vid=f7c222b7-121f-4289-83d7-a78068e28d1f"},"vehicle_type_id":"4","last_reported":1748866906,"current_range_meters":17600,"station_id":"ce4bhgh2rcd13ifvqfa0","pricing_plan_id":"cebpf4jnsgd1na2vs0mg"},{"bike_id":"b06ea5b4-1fc5-413b-9ae6-2a73cf063c07","system_id":"levelo_inurba_marseille","lat":43.29787,"lon":5.38105,"is_reserved":false,"is_disabled":false,"rental_uris":{"android":"levelo://app?vid=b06ea5b4-1fc5-413b-9ae6-2a73cf063c07","ios":"levelo://app?vid=b06ea5b4-1fc5-413b-9ae6-2a73cf063c07"},"vehicle_type_id":"4","last_reported":1748866906,"current_range_meters":17600,"station_id":"ce4bgip2rcd13ifvqbb0","pricing_plan_id":"cebpf4jnsgd1na2vs0mg"},{"bike_id":"d34dc121-96f3-484d-b390-2adfd545fd48","system_id":"levelo_inurba_marseille","lat":43.28431,"lon":5.34991,"is_reserved":false,"is_disabled":false,"rental_uris":{"android":"levelo://app?vid=d34dc121-96f3-484d-b390-2adfd545fd48","ios":"levelo://app?vid=d34dc121-96f3-484d-b390-2adfd545fd48"},"vehicle_type_id":"4","last_reported":1748866906,"current_range_meters":17600,"station_id":"ce4bhbh2rcd13ifvqepg","pricing_plan_id":"cebpf4jnsgd1na2vs0mg"},{"bike_id":"206735aa-cc71-47f7-9c67-d08fbdf682ee","system_id":"levelo_inurba_marseille","lat":43.25108,"lon":5.40323,"is_reserved":false,"is_disabled":false,"rental_uris":{"android":"levelo://app?vid=206735aa-cc71-47f7-9c67-d08fbdf682ee","ios":"levelo://app?vid=206735aa-cc71-47f7-9c67-d08fbdf682ee"},"vehicle_type_id":"4","last_reported":1748866906,"current_range_meters":17600,"station_id":"ce4bhlh2rcd13ifvqgig","pricing_plan_id":"cebpf4jnsgd1na2vs0mg"},{"bike_id":"ab24b27a-f66d-4c49-a3ff-a7c50d96e803","system_id":"levelo_inurba_marseille","lat":43.24074,"lon":5.37755,"is_reserved":false,"is_disabled":false,"rental_uris":{"android":"levelo://app?vid=ab24b27a-f66d-4c49-a3ff-a7c50d96e803","ios":"levelo://app?vid=ab24b27a-f66d-4c49-a3ff-a7c50d96e803"},"vehicle_type_id":"4","last_reported":1748866906,"current_range_meters":17600,"station_id":"ce4bhnp2rcd13ifvqgvg","pricing_plan_id":"cebpf4jnsgd1na2vs0mg"},{"bike_id":"3b683aa6-b9d3-4776-919c-96da9481b6a5","system_id":"levelo_inurba_marseille","lat":43.25008,"lon":5.38925,"is_reserved":false,"is_disabled":false,"rental_uris":{"android":"levelo://app?vid=3b683aa6-b9d3-4776-919c-96da9481b6a5","ios":"levelo://app?vid=3b683aa6-b9d3-4776-919c-96da9481b6a5"},"vehicle_type_id":"4","last_reported":1748866906,"current_range_meters":17600,"station_id":"ce4bhgp2rcd13ifvqfd0","pricing_plan_id":"cebpf4jnsgd1na2vs0mg"},{"bike_id":"233e0c85-0462-44c9-8452-32f60ad13c07","system_id":"levelo_inurba_marseille","lat":43.24397,"lon":5.370627,"is_reserved":false,"is_disabled":true,"rental_uris":{"android":"levelo://app?vid=233e0c85-0462-44c9-8452-32f60ad13c07","ios":"levelo://app?vid=233e0c85-0462-44c9-8452-32f60ad13c07"},"vehicle_type_id":"4","last_reported":1748866906,"current_range_meters":17600,"station_id":"ce4bhhh2rcd13ifvqfk0","pricing_plan_id":"cebpf4jnsgd1na2vs0mg"},{"bike_id":"8dc0a0ba-59b6-4499-a721-6f09d95d650e","system_id":"levelo_inurba_marseille","lat":43.29849,"lon":5.36285,"is_reserved":false,"is_disabled":false,"rental_uris":{"android":"levelo://app?vid=8dc0a0ba-59b6-4499-a721-6f09d95d650e","ios":"levelo://app?vid=8dc0a0ba-59b6-4499-a721-6f09d95d650e"},"vehicle_type_id":"4","last_reported":1748866906,"current_range_meters":17600,"station_id":"ce4bgpp2rcd13ifvqc3g","pricing_plan_id":"cebpf4jnsgd1na2vs0mg"},{"bike_id":"d95de767-9f7f-4ef5-b1f6-99eb1e53bef6","system_id":"levelo_inurba_marseille","lat":43.30927,"lon":5.40141,"is_reserved":false,"is_disabled":true,"rental_uris":{"android":"levelo://app?vid=d95de767-9f7f-4ef5-b1f6-99eb1e53bef6","ios":"levelo://app?vid=d95de767-9f7f-4ef5-b1f6-99eb1e53bef6"},"vehicle_type_id":"4","last_reported":1748866906,"current_range_meters":18000,"station_id":"ce4bgvp2rcd13ifvqct0","pricing_plan_id":"cebpf4jnsgd1na2vs0mg"},{"bike_id":"3c5e4f52-fa59-43cf-9fec-f6d4ba5207e2","system_id":"levelo_inurba_marseille","lat":43.22938,"lon":5.35378,"is_reserved":false,"is_disabled":false,"rental_uris":{"android":"levelo://app?vid=3c5e4f52-fa59-43cf-9fec-f6d4ba5207e2","ios":"levelo://app?vid=3c5e4f52-fa59-43cf-9fec-f6d4ba5207e2"},"vehicle_type_id":"4","last_reported":1748866906,"current_range_meters":18000,"station_id":"cpo3532slgdg3j2ikp40","pricing_plan_id":"cebpf4jnsgd1na2vs0mg"},{"bike_id":"4501ef29-c7e4-4354-b9e8-fe05b9e81f5c","system_id":"levelo_inurba_marseille","lat":43.29877,"lon":5.39737,"is_reserved":false,"is_disabled":false,"rental_uris":{"android":"levelo://app?vid=4501ef29-c7e4-4354-b9e8-fe05b9e81f5c","ios":"levelo://app?vid=4501ef29-c7e4-4354-b9e8-fe05b9e81f5c"},"vehicle_type_id":"4","last_reported":1748866906,"current_range_meters":18000,"station_id":"ce4bh0h2rcd13ifvqd50","pricing_plan_id":"cebpf4jnsgd1na2vs0mg"},{"bike_id":"ec59f1e2-883d-41c9-b002-c26e2f4f6b2e","system_id":"levelo_inurba_marseille","lat":43.312556,"lon":5.376012,"is_reserved":false,"is_disabled":false,"rental_uris":{"android":"levelo://app?vid=ec59f1e2-883d-41c9-b002-c26e2f4f6b2e","ios":"levelo://app?vid=ec59f1e2-883d-41c9-b002-c26e2f4f6b2e"},"vehicle_type_id":"4","last_reported":1748866906,"current_range_meters":18000,"station_id":"","pricing_plan_id":"cebpf4jnsgd1na2vs0mg"},{"bike_id":"76332249-0fc1-4d34-ba91-371d00c10b00","system_id":"levelo_inurba_marseille","lat":43.30549,"lon":5.36698,"is_reserved":false,"is_disabled":false,"rental_uris":{"android":"levelo://app?vid=76332249-0fc1-4d34-ba91-371d00c10b00","ios":"levelo://app?vid=76332249-0fc1-4d34-ba91-371d00c10b00"},"vehicle_type_id":"4","last_reported":1748866906,"current_range_meters":17600,"station_id":"ce4bgrp2rcd13ifvqc9g","pricing_plan_id":"cebpf4jnsgd1na2vs0mg"},{"bike_id":"0a3d1566-2e85-4eb2-9ac5-ec65806049c0","system_id":"levelo_inurba_marseille","lat":43.24107,"lon":5.37759,"is_reserved":false,"is_disabled":false,"rental_uris":{"android":"levelo://app?vid=0a3d1566-2e85-4eb2-9ac5-ec65806049c0","ios":"levelo://app?vid=0a3d1566-2e85-4eb2-9ac5-ec65806049c0"},"vehicle_type_id":"4","last_reported":1748866906,"current_range_meters":17600,"station_id":"ce4bhnp2rcd13ifvqgvg","pricing_plan_id":"cebpf4jnsgd1na2vs0mg"},{"bike_id":"207887e6-2ae4-416f-88d4-762e419331b7","system_id":"levelo_inurba_marseille","lat":43.231506,"lon":5.437041,"is_reserved":false,"is_disabled":false,"rental_uris":{"android":"levelo://app?vid=207887e6-2ae4-416f-88d4-762e419331b7","ios":"levelo://app?vid=207887e6-2ae4-416f-88d4-762e419331b7"},"vehicle_type_id":"4","last_reported":1748866906,"current_range_meters":18800,"station_id":"ce4bhmp2rcd13ifvqgog","pricing_plan_id":"cebpf4jnsgd1na2vs0mg"},{"bike_id":"94416d4e-1bb1-40f7-bc6b-87d804a7b5a9","system_id":"levelo_inurba_marseille","lat":43.31228,"lon":5.36848,"is_reserved":false,"is_disabled":false,"rental_uris":{"android":"levelo://app?vid=94416d4e-1bb1-40f7-bc6b-87d804a7b5a9","ios":"levelo://app?vid=94416d4e-1bb1-40f7-bc6b-87d804a7b5a9"},"vehicle_type_id":"4","last_reported":1748866906,"current_range_meters":18800,"station_id":"ce4bgl92rcd13ifvqbq0","pricing_plan_id":"cebpf4jnsgd1na2vs0mg"},{"bike_id":"1cb7c0a1-48f8-49ab-9106-52040059037c","system_id":"levelo_inurba_marseille","lat":43.23034,"lon":5.35428,"is_reserved":false,"is_disabled":false,"rental_uris":{"android":"levelo://app?vid=1cb7c0a1-48f8-49ab-9106-52040059037c","ios":"levelo://app?vid=1cb7c0a1-48f8-49ab-9106-52040059037c"},"vehicle_type_id":"4","last_reported":1748866906,"current_range_meters":18800,"station_id":"cpo3342slgdg3j2ifvpg","pricing_plan_id":"cebpf4jnsgd1na2vs0mg"},{"bike_id":"56ebd079-5325-4146-a252-c6e09bfabc00","system_id":"levelo_inurba_marseille","lat":43.319013,"lon":5.40733,"is_reserved":false,"is_disabled":false,"rental_uris":{"android":"levelo://app?vid=56ebd079-5325-4146-a252-c6e09bfabc00","ios":"levelo://app?vid=56ebd079-5325-4146-a252-c6e09bfabc00"},"vehicle_type_id":"4","last_reported":1748866906,"current_range_meters":18800,"station_id":"ce4bhq12rcd13ifvqhig","pricing_plan_id":"cebpf4jnsgd1na2vs0mg"},{"bike_id":"6db8da9d-ed27-45cf-9935-6e37c99d0be9","system_id":"levelo_inurba_marseille","lat":43.26233,"lon":5.40186,"is_reserved":false,"is_disabled":false,"rental_uris":{"android":"levelo://app?vid=6db8da9d-ed27-45cf-9935-6e37c99d0be9","ios":"levelo://app?vid=6db8da9d-ed27-45cf-9935-6e37c99d0be9"},"vehicle_type_id":"4","last_reported":1748866906,"current_range_meters":19200,"station_id":"","pricing_plan_id":"cebpf4jnsgd1na2vs0mg"},{"bike_id":"0b828886-d113-4238-960e-6b84efe0c08e","system_id":"levelo_inurba_marseille","lat":43.2455,"lon":5.3952,"is_reserved":false,"is_disabled":false,"rental_uris":{"android":"levelo://app?vid=0b828886-d113-4238-960e-6b84efe0c08e","ios":"levelo://app?vid=0b828886-d113-4238-960e-6b84efe0c08e"},"vehicle_type_id":"4","last_reported":1748866906,"current_range_meters":19200,"station_id":"ce4bhlp2rcd13ifvqgjg","pricing_plan_id":"cebpf4jnsgd1na2vs0mg"},{"bike_id":"ef17b56f-9789-4b73-9b86-3e177d4d12f6","system_id":"levelo_inurba_marseille","lat":43.297815,"lon":5.380883,"is_reserved":false,"is_disabled":false,"rental_uris":{"android":"levelo://app?vid=ef17b56f-9789-4b73-9b86-3e177d4d12f6","ios":"levelo://app?vid=ef17b56f-9789-4b73-9b86-3e177d4d12f6"},"vehicle_type_id":"4","last_reported":1748866906,"current_range_meters":19200,"station_id":"ce4bgip2rcd13ifvqbb0","pricing_plan_id":"cebpf4jnsgd1na2vs0mg"},{"bike_id":"f1fd2a62-0557-4ef7-980b-f406378bcbc1","system_id":"levelo_inurba_marseille","lat":43.292965,"lon":5.374453,"is_reserved":false,"is_disabled":false,"rental_uris":{"android":"levelo://app?vid=f1fd2a62-0557-4ef7-980b-f406378bcbc1","ios":"levelo://app?vid=f1fd2a62-0557-4ef7-980b-f406378bcbc1"},"vehicle_type_id":"4","last_reported":1748866906,"current_range_meters":19200,"station_id":"ce4bgi12rcd13ifvqb70","pricing_plan_id":"cebpf4jnsgd1na2vs0mg"},{"bike_id":"112dbde3-befe-4538-a5db-da8ea38a99a1","system_id":"levelo_inurba_marseille","lat":43.24684,"lon":5.38163,"is_reserved":false,"is_disabled":false,"rental_uris":{"android":"levelo://app?vid=112dbde3-befe-4538-a5db-da8ea38a99a1","ios":"levelo://app?vid=112dbde3-befe-4538-a5db-da8ea38a99a1"},"vehicle_type_id":"4","last_reported":1748866906,"current_range_meters":18800,"station_id":"ce4bhih2rcd13ifvqfr0","pricing_plan_id":"cebpf4jnsgd1na2vs0mg"},{"bike_id":"cec6c8d7-488a-4d69-860f-429583fefc3f","system_id":"levelo_inurba_marseille","lat":43.323621,"lon":5.367514,"is_reserved":false,"is_disabled":false,"rental_uris":{"android":"levelo://app?vid=cec6c8d7-488a-4d69-860f-429583fefc3f","ios":"levelo://app?vid=cec6c8d7-488a-4d69-860f-429583fefc3f"},"vehicle_type_id":"4","last_reported":1748866906,"current_range_meters":19200,"station_id":"ce4bhsh2rcd13ifvqi2g","pricing_plan_id":"cebpf4jnsgd1na2vs0mg"},{"bike_id":"0359ab15-265b-4b37-87ab-468d233892c5","system_id":"levelo_inurba_marseille","lat":43.25931,"lon":5.40887,"is_reserved":false,"is_disabled":false,"rental_uris":{"android":"levelo://app?vid=0359ab15-265b-4b37-87ab-468d233892c5","ios":"levelo://app?vid=0359ab15-265b-4b37-87ab-468d233892c5"},"vehicle_type_id":"4","last_reported":1748866906,"current_range_meters":19200,"station_id":"ce4bhm92rcd13ifvqglg","pricing_plan_id":"cebpf4jnsgd1na2vs0mg"},{"bike_id":"b9e7d004-1965-43d4-a4ec-d227ca7274a5","system_id":"levelo_inurba_marseille","lat":43.2862,"lon":5.35105,"is_reserved":false,"is_disabled":false,"rental_uris":{"android":"levelo://app?vid=b9e7d004-1965-43d4-a4ec-d227ca7274a5","ios":"levelo://app?vid=b9e7d004-1965-43d4-a4ec-d227ca7274a5"},"vehicle_type_id":"4","last_reported":1748866906,"current_range_meters":19200,"station_id":"ce4bhch2rcd13ifvqeug","pricing_plan_id":"cebpf4jnsgd1na2vs0mg"},{"bike_id":"961f3f7b-0f2c-4d42-9f49-7462bebe5264","system_id":"levelo_inurba_marseille","lat":43.314883,"lon":5.372958,"is_reserved":false,"is_disabled":false,"rental_uris":{"android":"levelo://app?vid=961f3f7b-0f2c-4d42-9f49-7462bebe5264","ios":"levelo://app?vid=961f3f7b-0f2c-4d42-9f49-7462bebe5264"},"vehicle_type_id":"4","last_reported":1748866906,"current_range_meters":19200,"station_id":"ce4bgt12rcd13ifvqcd0","pricing_plan_id":"cebpf4jnsgd1na2vs0mg"},{"bike_id":"34dfda1c-4285-42c5-9163-90f6b8181856","system_id":"levelo_inurba_marseille","lat":43.30598,"lon":5.39343,"is_reserved":false,"is_disabled":false,"rental_uris":{"android":"levelo://app?vid=34dfda1c-4285-42c5-9163-90f6b8181856","ios":"levelo://app?vid=34dfda1c-4285-42c5-9163-90f6b8181856"},"vehicle_type_id":"4","last_reported":1748866906,"current_range_meters":19200,"station_id":"ce4bh0p2rcd13ifvqd80","pricing_plan_id":"cebpf4jnsgd1na2vs0mg"},{"bike_id":"4b8c821f-5909-479c-9528-00d8a8dde4ef","system_id":"levelo_inurba_marseille","lat":43.292674,"lon":5.376145,"is_reserved":false,"is_disabled":false,"rental_uris":{"android":"levelo://app?vid=4b8c821f-5909-479c-9528-00d8a8dde4ef","ios":"levelo://app?vid=4b8c821f-5909-479c-9528-00d8a8dde4ef"},"vehicle_type_id":"4","last_reported":1748866906,"current_range_meters":19200,"station_id":"ce4bgi12rcd13ifvqb80","pricing_plan_id":"cebpf4jnsgd1na2vs0mg"},{"bike_id":"47f602ed-2cd6-4cf3-8da2-b75f54ef794d","system_id":"levelo_inurba_marseille","lat":43.29706,"lon":5.366,"is_reserved":false,"is_disabled":false,"rental_uris":{"android":"levelo://app?vid=47f602ed-2cd6-4cf3-8da2-b75f54ef794d","ios":"levelo://app?vid=47f602ed-2cd6-4cf3-8da2-b75f54ef794d"},"vehicle_type_id":"4","last_reported":1748866906,"current_range_meters":19200,"station_id":"ce4bgn12rcd13ifvqbt0","pricing_plan_id":"cebpf4jnsgd1na2vs0mg"},{"bike_id":"80e39660-55a4-4dbd-9971-307ad5d39164","system_id":"levelo_inurba_marseille","lat":43.28488,"lon":5.3841,"is_reserved":false,"is_disabled":false,"rental_uris":{"android":"levelo://app?vid=80e39660-55a4-4dbd-9971-307ad5d39164","ios":"levelo://app?vid=80e39660-55a4-4dbd-9971-307ad5d39164"},"vehicle_type_id":"4","last_reported":1748866906,"current_range_meters":19600,"station_id":"ce4bh512rcd13ifvqe3g","pricing_plan_id":"cebpf4jnsgd1na2vs0mg"},{"bike_id":"bed0e4e6-3f04-4e2c-94c3-0674cb8bf3b0","system_id":"levelo_inurba_marseille","lat":43.31112,"lon":5.37787,"is_reserved":false,"is_disabled":false,"rental_uris":{"android":"levelo://app?vid=bed0e4e6-3f04-4e2c-94c3-0674cb8bf3b0","ios":"levelo://app?vid=bed0e4e6-3f04-4e2c-94c3-0674cb8bf3b0"},"vehicle_type_id":"4","last_reported":1748866906,"current_range_meters":19600,"station_id":"ce4bgt92rcd13ifvqcg0","pricing_plan_id":"cebpf4jnsgd1na2vs0mg"},{"bike_id":"8cffa249-8640-4845-ab9d-8759cd0147e9","system_id":"levelo_inurba_marseille","lat":43.28002,"lon":5.400197,"is_reserved":false,"is_disabled":false,"rental_uris":{"android":"levelo://app?vid=8cffa249-8640-4845-ab9d-8759cd0147e9","ios":"levelo://app?vid=8cffa249-8640-4845-ab9d-8759cd0147e9"},"vehicle_type_id":"4","last_reported":1748866906,"current_range_meters":19600,"station_id":"ce4bho92rcd13ifvqh4g","pricing_plan_id":"cebpf4jnsgd1na2vs0mg"},{"bike_id":"50e711d3-f527-436a-b8c2-0e834de9f076","system_id":"levelo_inurba_marseille","lat":43.31359,"lon":5.3849,"is_reserved":false,"is_disabled":false,"rental_uris":{"android":"levelo://app?vid=50e711d3-f527-436a-b8c2-0e834de9f076","ios":"levelo://app?vid=50e711d3-f527-436a-b8c2-0e834de9f076"},"vehicle_type_id":"4","last_reported":1748866906,"current_range_meters":19600,"station_id":"ce4bgt92rcd13ifvqcf0","pricing_plan_id":"cebpf4jnsgd1na2vs0mg"},{"bike_id":"5de2d812-2bb1-4adb-860e-6a3c1d4ca222","system_id":"levelo_inurba_marseille","lat":43.30251,"lon":5.40075,"is_reserved":false,"is_disabled":false,"rental_uris":{"android":"levelo://app?vid=5de2d812-2bb1-4adb-860e-6a3c1d4ca222","ios":"levelo://app?vid=5de2d812-2bb1-4adb-860e-6a3c1d4ca222"},"vehicle_type_id":"4","last_reported":1748866906,"current_range_meters":19200,"station_id":"ce4bgvh2rcd13ifvqcs0","pricing_plan_id":"cebpf4jnsgd1na2vs0mg"},{"bike_id":"c9c2480d-5657-4e4b-aadb-5f27360ada98","system_id":"levelo_inurba_marseille","lat":43.30802,"lon":5.38149,"is_reserved":false,"is_disabled":false,"rental_uris":{"android":"levelo://app?vid=c9c2480d-5657-4e4b-aadb-5f27360ada98","ios":"levelo://app?vid=c9c2480d-5657-4e4b-aadb-5f27360ada98"},"vehicle_type_id":"4","last_reported":1748866906,"current_range_meters":19200,"station_id":"ce4bgt12rcd13ifvqce0","pricing_plan_id":"cebpf4jnsgd1na2vs0mg"},{"bike_id":"8e45c534-9f38-4aaf-bfc0-20831aa0c778","system_id":"levelo_inurba_marseille","lat":43.26025,"lon":5.39411,"is_reserved":false,"is_disabled":false,"rental_uris":{"android":"levelo://app?vid=8e45c534-9f38-4aaf-bfc0-20831aa0c778","ios":"levelo://app?vid=8e45c534-9f38-4aaf-bfc0-20831aa0c778"},"vehicle_type_id":"4","last_reported":1748866906,"current_range_meters":19600,"station_id":"","pricing_plan_id":"cebpf4jnsgd1na2vs0mg"},{"bike_id":"eb72deed-44e7-4a3e-982b-5b4df113534f","system_id":"levelo_inurba_marseille","lat":43.21751,"lon":5.34606,"is_reserved":false,"is_disabled":false,"rental_uris":{"android":"levelo://app?vid=eb72deed-44e7-4a3e-982b-5b4df113534f","ios":"levelo://app?vid=eb72deed-44e7-4a3e-982b-5b4df113534f"},"vehicle_type_id":"4","last_reported":1748866906,"current_range_meters":19600,"station_id":"st_cvj6r9ubvosntc0bgbag","pricing_plan_id":"cebpf4jnsgd1na2vs0mg"},{"bike_id":"ce0eed92-c9c1-45a9-a44e-6bed98301aa3","system_id":"levelo_inurba_marseille","lat":43.24182,"lon":5.39735,"is_reserved":false,"is_disabled":false,"rental_uris":{"android":"levelo://app?vid=ce0eed92-c9c1-45a9-a44e-6bed98301aa3","ios":"levelo://app?vid=ce0eed92-c9c1-45a9-a44e-6bed98301aa3"},"vehicle_type_id":"4","last_reported":1748866906,"current_range_meters":19600,"station_id":"ce4bhn12rcd13ifvqgpg","pricing_plan_id":"cebpf4jnsgd1na2vs0mg"},{"bike_id":"9aaa7bae-8e13-44a9-89a1-da24429bc0d9","system_id":"levelo_inurba_marseille","lat":43.298716,"lon":5.397271,"is_reserved":false,"is_disabled":false,"rental_uris":{"android":"levelo://app?vid=9aaa7bae-8e13-44a9-89a1-da24429bc0d9","ios":"levelo://app?vid=9aaa7bae-8e13-44a9-89a1-da24429bc0d9"},"vehicle_type_id":"4","last_reported":1748866906,"current_range_meters":19600,"station_id":"ce4bh0h2rcd13ifvqd50","pricing_plan_id":"cebpf4jnsgd1na2vs0mg"},{"bike_id":"f7fb4a6d-3bb2-429f-8e24-58ce957ef0f0","system_id":"levelo_inurba_marseille","lat":43.31343,"lon":5.36714,"is_reserved":false,"is_disabled":false,"rental_uris":{"android":"levelo://app?vid=f7fb4a6d-3bb2-429f-8e24-58ce957ef0f0","ios":"levelo://app?vid=f7fb4a6d-3bb2-429f-8e24-58ce957ef0f0"},"vehicle_type_id":"4","last_reported":1748866906,"current_range_meters":19600,"station_id":"ce4bgr92rcd13ifvqc6g","pricing_plan_id":"cebpf4jnsgd1na2vs0mg"},{"bike_id":"c85e3e19-c4c5-4c57-99e1-6399cd57cec5","system_id":"levelo_inurba_marseille","lat":43.33741,"lon":5.39189,"is_reserved":false,"is_disabled":false,"rental_uris":{"android":"levelo://app?vid=c85e3e19-c4c5-4c57-99e1-6399cd57cec5","ios":"levelo://app?vid=c85e3e19-c4c5-4c57-99e1-6399cd57cec5"},"vehicle_type_id":"4","last_reported":1748866906,"current_range_meters":20000,"station_id":"ce4bhr92rcd13ifvqhsg","pricing_plan_id":"cebpf4jnsgd1na2vs0mg"},{"bike_id":"072f0dba-0d8f-4cb2-9cb9-edcfc2a3661b","system_id":"levelo_inurba_marseille","lat":43.28108,"lon":5.378301,"is_reserved":false,"is_disabled":false,"rental_uris":{"android":"levelo://app?vid=072f0dba-0d8f-4cb2-9cb9-edcfc2a3661b","ios":"levelo://app?vid=072f0dba-0d8f-4cb2-9cb9-edcfc2a3661b"},