{"last_updated":1728040023,"ttl":60,"version":"2.2","data":{"bikes":[{"bike_id":"98d725e3-26b9-42b7-946b-c9baf467855a","system_id":"levelo_inurba_marseille","lat":43.2903,"lon":5.38645,"is_reserved":false,"is_disabled":false,"rental_uris":{"android":"levelo://app?vid=98d725e3-26b9-42b7-946b-c9baf467855a","ios":"levelo://app?vid=98d725e3-26b9-42b7-946b-c9baf467855a"},"vehicle_type_id":"4","last_reported":1728040023,"current_range_meters":20800,"station_id":"ce4bh4p2rcd13ifvqe0g","pricing_plan_id":"cebpf4jnsgd1na2vs0mg"},{"bike_id":"086b36b2-8fa9-4a21-a966-d0afeb3875cc","system_id":"levelo_inurba_marseille","lat":43.30159,"lon":5.38088,"is_reserved":false,"is_disabled":false,"rental_uris":{"android":"levelo://app?vid=086b36b2-8fa9-4a21-a966-d0afeb3875cc","ios":"levelo://app?vid=086b36b2-8fa9-4a21-a966-d0afeb3875cc"},"vehicle_type_id":"4","last_reported":1728040023,"current_range_meters":36400,"station_id":"ce4bgjp2rcd13ifvqbh0","pricing_plan_id":"cebpf4jnsgd1na2vs0mg"},{"bike_id":"d373ca15-154c-47aa-906f-b38d23b806e7","system_id":"levelo_inurba_marseille","lat":43.34148,"lon":5.40906,"is_reserved":false,"is_disabled":false,"rental_uris":{"android":"levelo://app?vid=d373ca15-154c-47aa-906f-b38d23b806e7","ios":"levelo://app?vid=d373ca15-154c-47aa-906f-b38d23b806e7"},"vehicle_type_id":"4","last_reported":1728040023,"current_range_meters":34800,"station_id":"ce4bhqh2rcd13ifvqhlg","pricing_plan_id":"cebpf4jnsgd1na2vs0mg"},{"bike_id":"ea1c4b47-df71-47c6-91fa-b3b8c49b241b","system_id":"levelo_inurba_marseille","lat":43.30157,"lon":5.38084,"is_reserved":false,"is_disabled":false,"rental_uris":{"android":"levelo://app?vid=ea1c4b47-df71-47c6-91fa-b3b8c49b241b","ios":"levelo://app?vid=ea1c4b47-df71-47c6-91fa-b3b8c49b241b"},"vehicle_type_id":"4","last_reported":1728040023,"current_range_meters":12800,"station_id":"ce4bgjp2rcd13ifvqbh0","pricing_plan_id":"cebpf4jnsgd1na2vs0mg"},{"bike_id":"73cd6488-8ebc-4a99-b8d9-47e990f578b1","system_id":"levelo_inurba_marseille","lat":43.26573,"lon":5.3901,"is_reserved":false,"is_disabled":false,"rental_uris":{"android":"levelo://app?vid=73cd6488-8ebc-4a99-b8d9-47e990f578b1","ios":"levelo://app?vid=73cd6488-8ebc-4a99-b8d9-47e990f578b1"},"vehicle_type_id":"4","last_reported":1728040023,"current_range_meters":28000,"station_id":"ce4bhe12rcd13ifvqf30","pricing_plan_id":"cebpf4jnsgd1na2vs0mg"},{"bike_id":"25f7535d-eefb-4d6b-8502-f13aae189155","system_id":"levelo_inurba_marseille","lat":43.29795,"lon":5.38101,"is_reserved":false,"is_disabled":false,"rental_uris":{"android":"levelo://app?vid=25f7535d-eefb-4d6b-8502-f13aae189155","ios":"levelo://app?vid=25f7535d-eefb-4d6b-8502-f13aae189155"},"vehicle_type_id":"4","last_reported":1728040023,"current_range_meters":3600,"station_id":"ce4bgip2rcd13ifvqbb0","pricing_plan_id":"cebpf4jnsgd1na2vs0mg"},{"bike_id":"188c9562-e2ab-4cb6-9f01-67f00b91527e","system_id":"levelo_inurba_marseille","lat":43.28939,"lon":5.38413,"is_reserved":false,"is_disabled":false,"rental_uris":{"android":"levelo://app?vid=188c9562-e2ab-4cb6-9f01-67f00b91527e","ios":"levelo://app?vid=188c9562-e2ab-4cb6-9f01-67f00b91527e"},"vehicle_type_id":"4","last_reported":1728040023,"current_range_meters":8800,"station_id":"ce4bh612rcd13ifvqe6g","pricing_plan_id":"cebpf4jnsgd1na2vs0mg"},{"bike_id":"756088e4-bd38-4606-aa6f-cbbf1461af00","system_id":"levelo_inurba_marseille","lat":43.22936,"lon":5.35378,"is_reserved":false,"is_disabled":false,"rental_uris":{"android":"levelo://app?vid=756088e4-bd38-4606-aa6f-cbbf1461af00","ios":"levelo://app?vid=756088e4-bd38-4606-aa6f-cbbf1461af00"},"vehicle_type_id":"4","last_reported":1728040023,"current_range_meters":12800,"station_id":"cpo3532slgdg3j2ikp40","pricing_plan_id":"cebpf4jnsgd1na2vs0mg"},{"bike_id":"4aad6d46-0a20-4202-abe4-87a116bc5e33","system_id":"levelo_inurba_marseille","lat":43.30757,"lon":5.37652,"is_reserved":false,"is_disabled":false,"rental_uris":{"android":"levelo://app?vid=4aad6d46-0a20-4202-abe4-87a116bc5e33","ios":"levelo://app?vid=4aad6d46-0a20-4202-abe4-87a116bc5e33"},"vehicle_type_id":"4","last_reported":1728040023,"current_range_meters":16800,"station_id":"ce4bgv92rcd13ifvqcq0","pricing_plan_id":"cebpf4jnsgd1na2vs0mg"},{"bike_id":"1693ff41-8c99-41ae-8a32-22d707069ab7","system_id":"levelo_inurba_marseille","lat":43.30525,"lon":5.36543,"is_reserved":false,"is_disabled":false,"rental_uris":{"android":"levelo://app?vid=1693ff41-8c99-41ae-8a32-22d707069ab7","ios":"levelo://app?vid=1693ff41-8c99-41ae-8a32-22d707069ab7"},"vehicle_type_id":"4","last_reported":1728040023,"current_range_meters":40000,"station_id":"ce4bgs12rcd13ifvqcag","pricing_plan_id":"cebpf4jnsgd1na2vs0mg"},{"bike_id":"1c139831-4422-46b4-8fea-52cbe62adac3","system_id":"levelo_inurba_marseille","lat":43.25829,"lon":5.39436,"is_reserved":false,"is_disabled":false,"rental_uris":{"android":"levelo://app?vid=1c139831-4422-46b4-8fea-52cbe62adac3","ios":"levelo://app?vid=1c139831-4422-46b4-8fea-52cbe62adac3"},"vehicle_type_id":"4","last_reported":1728040023,"current_range_meters":25200,"station_id":"ce4bhip2rcd13ifvqft0","pricing_plan_id":"cebpf4jnsgd1na2vs0mg"},{"bike_id":"4bd76817-ccb5-49e3-b292-b597fc400de9","system_id":"levelo_inurba_marseille","lat":43.30309,"lon":5.36902,"is_reserved":false,"is_disabled":false,"rental_uris":{"android":"levelo://app?vid=4bd76817-ccb5-49e3-b292-b597fc400de9","ios":"levelo://app?vid=4bd76817-ccb5-49e3-b292-b597fc400de9"},"vehicle_type_id":"4","last_reported":1728040023,"current_range_meters":18000,"station_id":"ce4bgqh2rcd13ifvqc5g","pricing_plan_id":"cebpf4jnsgd1na2vs0mg"},{"bike_id":"f6fb3196-d5e5-487f-b3f4-2597581d1de3","system_id":"levelo_inurba_marseille","lat":43.28567,"lon":5.39501,"is_reserved":false,"is_disabled":false,"rental_uris":{"android":"levelo://app?vid=f6fb3196-d5e5-487f-b3f4-2597581d1de3","ios":"levelo://app?vid=f6fb3196-d5e5-487f-b3f4-2597581d1de3"},"vehicle_type_id":"4","last_reported":1728040023,"current_range_meters":8800,"station_id":"ce4bh292rcd13ifvqdg0","pricing_plan_id":"cebpf4jnsgd1na2vs0mg"},{"bike_id":"5c68a0ab-2eb8-4e35-b1d0-fe83f6c92a47","system_id":"levelo_inurba_marseille","lat":43.23172,"lon":5.39989,"is_reserved":false,"is_disabled":false,"rental_uris":{"android":"levelo://app?vid=5c68a0ab-2eb8-4e35-b1d0-fe83f6c92a47","ios":"levelo://app?vid=5c68a0ab-2eb8-4e35-b1d0-fe83f6c92a47"},"vehicle_type_id":"4","last_reported":1728040023,"current_range_meters":8000,"station_id":"ce4bhn12rcd13ifvqgqg","pricing_plan_id":"cebpf4jnsgd1na2vs0mg"},{"bike_id":"19560bbe-7b32-4dbe-b839-6d6169f1bd64","system_id":"levelo_inurba_marseille","lat":43.27943,"lon":5.41051,"is_reserved":false,"is_disabled":false,"rental_uris":{"android":"levelo://app?vid=19560bbe-7b32-4dbe-b839-6d6169f1bd64","ios":"levelo://app?vid=19560bbe-7b32-4dbe-b839-6d6169f1bd64"},"vehicle_type_id":"4","last_reported":1728040023,"current_range_meters":24800,"station_id":"ce4bhnp2rcd13ifvqh0g","pricing_plan_id":"cebpf4jnsgd1na2vs0mg"},{"bike_id":"9a80c41d-cf63-4df8-8186-6963d9398093","system_id":"levelo_inurba_marseille","lat":43.29039,"lon":5.39972,"is_reserved":false,"is_disabled":false,"rental_uris":{"android":"levelo://app?vid=9a80c41d-cf63-4df8-8186-6963d9398093","ios":"levelo://app?vid=9a80c41d-cf63-4df8-8186-6963d9398093"},"vehicle_type_id":"4","last_reported":1728040023,"current_range_meters":18000,"station_id":"ce4bhm12rcd13ifvqgkg","pricing_plan_id":"cebpf4jnsgd1na2vs0mg"},{"bike_id":"a99e0887-fb66-4880-8761-33fdb36b8615","system_id":"levelo_inurba_marseille","lat":43.23179,"lon":5.39998,"is_reserved":false,"is_disabled":false,"rental_uris":{"android":"levelo://app?vid=a99e0887-fb66-4880-8761-33fdb36b8615","ios":"levelo://app?vid=a99e0887-fb66-4880-8761-33fdb36b8615"},"vehicle_type_id":"4","last_reported":1728040023,"current_range_meters":10800,"station_id":"ce4bhn12rcd13ifvqgqg","pricing_plan_id":"cebpf4jnsgd1na2vs0mg"},{"bike_id":"c78b24d7-868c-4d48-93f5-d21cffda9467","system_id":"levelo_inurba_marseille","lat":43.26055,"lon":5.39403,"is_reserved":false,"is_disabled":false,"rental_uris":{"android":"levelo://app?vid=c78b24d7-868c-4d48-93f5-d21cffda9467","ios":"levelo://app?vid=c78b24d7-868c-4d48-93f5-d21cffda9467"},"vehicle_type_id":"4","last_reported":1728040023,"current_range_meters":40000,"station_id":"ce4bhh92rcd13ifvqfj0","pricing_plan_id":"cebpf4jnsgd1na2vs0mg"},{"bike_id":"088f4c7d-efac-4048-957c-d65eb00ae2f5","system_id":"levelo_inurba_marseille","lat":43.29614,"lon":5.37711,"is_reserved":false,"is_disabled":false,"rental_uris":{"android":"levelo://app?vid=088f4c7d-efac-4048-957c-d65eb00ae2f5","ios":"levelo://app?vid=088f4c7d-efac-4048-957c-d65eb00ae2f5"},"vehicle_type_id":"4","last_reported":1728040023,"current_range_meters":36800,"station_id":"ce4bgi92rcd13ifvqb90","pricing_plan_id":"cebpf4jnsgd1na2vs0mg"},{"bike_id":"23e1101b-2220-4d81-9fb5-99b813778ca3","system_id":"levelo_inurba_marseille","lat":43.26567,"lon":5.39004,"is_reserved":false,"is_disabled":false,"rental_uris":{"android":"levelo://app?vid=23e1101b-2220-4d81-9fb5-99b813778ca3","ios":"levelo://app?vid=23e1101b-2220-4d81-9fb5-99b813778ca3"},"vehicle_type_id":"4","last_reported":1728040023,"current_range_meters":15200,"station_id":"ce4bhe12rcd13ifvqf30","pricing_plan_id":"cebpf4jnsgd1na2vs0mg"},{"bike_id":"71c36e4f-7ce3-48ed-91b2-a3dd3c92291c","system_id":"levelo_inurba_marseille","lat":43.30156,"lon":5.37409,"is_reserved":false,"is_disabled":false,"rental_uris":{"android":"levelo://app?vid=71c36e4f-7ce3-48ed-91b2-a3dd3c92291c","ios":"levelo://app?vid=71c36e4f-7ce3-48ed-91b2-a3dd3c92291c"},"vehicle_type_id":"4","last_reported":1728040023,"current_range_meters":10000,"station_id":"ce4bgs92rcd13ifvqcc0","pricing_plan_id":"cebpf4jnsgd1na2vs0mg"},{"bike_id":"998dc9a1-9dc6-4c75-b72e-8b00bb514c1a","system_id":"levelo_inurba_marseille","lat":43.28274,"lon":5.35066,"is_reserved":false,"is_disabled":false,"rental_uris":{"android":"levelo://app?vid=998dc9a1-9dc6-4c75-b72e-8b00bb514c1a","ios":"levelo://app?vid=998dc9a1-9dc6-4c75-b72e-8b00bb514c1a"},"vehicle_type_id":"4","last_reported":1728040023,"current_range_meters":22400,"station_id":"ce4bhbp2rcd13ifvqerg","pricing_plan_id":"cebpf4jnsgd1na2vs0mg"},{"bike_id":"f37cd0f0-1281-4dbb-8844-dbbd6cce14df","system_id":"levelo_inurba_marseille","lat":43.31529,"lon":5.3803,"is_reserved":false,"is_disabled":false,"rental_uris":{"android":"levelo://app?vid=f37cd0f0-1281-4dbb-8844-dbbd6cce14df","ios":"levelo://app?vid=f37cd0f0-1281-4dbb-8844-dbbd6cce14df"},"vehicle_type_id":"4","last_reported":1728040023,"current_range_meters":33200,"station_id":"ce4bhsp2rcd13ifvqi50","pricing_plan_id":"cebpf4jnsgd1na2vs0mg"},{"bike_id":"cb92aba5-4872-4e7f-a488-965e8c3995a3","system_id":"levelo_inurba_marseille","lat":43.29892,"lon":5.43672,"is_reserved":false,"is_disabled":false,"rental_uris":{"android":"levelo://app?vid=cb92aba5-4872-4e7f-a488-965e8c3995a3","ios":"levelo://app?vid=cb92aba5-4872-4e7f-a488-965e8c3995a3"},"vehicle_type_id":"4","last_reported":1728040023,"current_range_meters":31200,"station_id":"ce4bhpp2rcd13ifvqhfg","pricing_plan_id":"cebpf4jnsgd1na2vs0mg"},{"bike_id":"6cfba2c1-fcc9-4b48-804b-4855ce9d54f8","system_id":"levelo_inurba_marseille","lat":43.28004,"lon":5.40014,"is_reserved":false,"is_disabled":false,"rental_uris":{"android":"levelo://app?vid=6cfba2c1-fcc9-4b48-804b-4855ce9d54f8","ios":"levelo://app?vid=6cfba2c1-fcc9-4b48-804b-4855ce9d54f8"},"vehicle_type_id":"4","last_reported":1728040023,"current_range_meters":38400,"station_id":"ce4bho92rcd13ifvqh4g","pricing_plan_id":"cebpf4jnsgd1na2vs0mg"},{"bike_id":"1a7ed56a-5ef7-4e31-a7f4-ad7577378a0a","system_id":"levelo_inurba_marseille","lat":43.26569,"lon":5.38997,"is_reserved":false,"is_disabled":false,"rental_uris":{"android":"levelo://app?vid=1a7ed56a-5ef7-4e31-a7f4-ad7577378a0a","ios":"levelo://app?vid=1a7ed56a-5ef7-4e31-a7f4-ad7577378a0a"},"vehicle_type_id":"4","last_reported":1728040023,"current_range_meters":38400,"station_id":"ce4bhe12rcd13ifvqf30","pricing_plan_id":"cebpf4jnsgd1na2vs0mg"},{"bike_id":"a46733e6-53a7-4c1d-bded-b19993219f98","system_id":"levelo_inurba_marseille","lat":43.29324,"lon":5.37177,"is_reserved":false,"is_disabled":false,"rental_uris":{"android":"levelo://app?vid=a46733e6-53a7-4c1d-bded-b19993219f98","ios":"levelo://app?vid=a46733e6-53a7-4c1d-bded-b19993219f98"},"vehicle_type_id":"4","last_reported":1728040023,"current_range_meters":38400,"station_id":"ce4bgh92rcd13ifvqb40","pricing_plan_id":"cebpf4jnsgd1na2vs0mg"},{"bike_id":"bbe16d9f-1398-4ae8-9389-fdd330196eb0","system_id":"levelo_inurba_marseille","lat":43.28421,"lon":5.34994,"is_reserved":false,"is_disabled":false,"rental_uris":{"android":"levelo://app?vid=bbe16d9f-1398-4ae8-9389-fdd330196eb0","ios":"levelo://app?vid=bbe16d9f-1398-4ae8-9389-fdd330196eb0"},"vehicle_type_id":"4","last_reported":1728040023,"current_range_meters":38800,"station_id":"ce4bhbh2rcd13ifvqepg","pricing_plan_id":"cebpf4jnsgd1na2vs0mg"},{"bike_id":"e6b2df58-b4a0-4aec-933d-a62e42f34d34","system_id":"levelo_inurba_marseille","lat":43.33725,"lon":5.39195,"is_reserved":false,"is_disabled":false,"rental_uris":{"android":"levelo://app?vid=e6b2df58-b4a0-4aec-933d-a62e42f34d34","ios":"levelo://app?vid=e6b2df58-b4a0-4aec-933d-a62e42f34d34"},"vehicle_type_id":"4","last_reported":1728040023,"current_range_meters":20400,"station_id":"ce4bhr92rcd13ifvqhsg","pricing_plan_id":"cebpf4jnsgd1na2vs0mg"},{"bike_id":"403b9a65-80d1-462a-86d2-ae897d65bc96","system_id":"levelo_inurba_marseille","lat":43.30146,"lon":5.38091,"is_reserved":false,"is_disabled":false,"rental_uris":{"android":"levelo://app?vid=403b9a65-80d1-462a-86d2-ae897d65bc96","ios":"levelo://app?vid=403b9a65-80d1-462a-86d2-ae897d65bc96"},"vehicle_type_id":"4","last_reported":1728040023,"current_range_meters":38400,"station_id":"ce4bgjp2rcd13ifvqbh0","pricing_plan_id":"cebpf4jnsgd1na2vs0mg"},{"bike_id":"d77938b7-ff1e-465c-a8b9-4b07085a5cc9","system_id":"levelo_inurba_marseille","lat":43.23064,"lon":5.35496,"is_reserved":false,"is_disabled":false,"rental_uris":{"android":"levelo://app?vid=d77938b7-ff1e-465c-a8b9-4b07085a5cc9","ios":"levelo://app?vid=d77938b7-ff1e-465c-a8b9-4b07085a5cc9"},"vehicle_type_id":"4","last_reported":1728040023,"current_range_meters":21600,"station_id":"cpo3342slgdg3j2ifvpg","pricing_plan_id":"cebpf4jnsgd1na2vs0mg"},{"bike_id":"62e97e30-13d0-4f1c-8c61-668841275218","system_id":"levelo_inurba_marseille","lat":43.337444,"lon":5.374475,"is_reserved":false,"is_disabled":false,"rental_uris":{"android":"levelo://app?vid=62e97e30-13d0-4f1c-8c61-668841275218","ios":"levelo://app?vid=62e97e30-13d0-4f1c-8c61-668841275218"},"vehicle_type_id":"4","last_reported":1728040023,"current_range_meters":17200,"station_id":"","pricing_plan_id":"cebpf4jnsgd1na2vs0mg"},{"bike_id":"566a9cf0-f209-4c9f-9e1e-a43a024de395","system_id":"levelo_inurba_marseille","lat":43.27383,"lon":5.36259,"is_reserved":false,"is_disabled":false,"rental_uris":{"android":"levelo://app?vid=566a9cf0-f209-4c9f-9e1e-a43a024de395","ios":"levelo://app?vid=566a9cf0-f209-4c9f-9e1e-a43a024de395"},"vehicle_type_id":"4","last_reported":1728040023,"current_range_meters":26000,"station_id":"ce4bhbh2rcd13ifvqeo0","pricing_plan_id":"cebpf4jnsgd1na2vs0mg"},{"bike_id":"b73551f1-4737-42f3-8efd-5f2fca843848","system_id":"levelo_inurba_marseille","lat":43.29894,"lon":5.43689,"is_reserved":false,"is_disabled":false,"rental_uris":{"android":"levelo://app?vid=b73551f1-4737-42f3-8efd-5f2fca843848","ios":"levelo://app?vid=b73551f1-4737-42f3-8efd-5f2fca843848"},"vehicle_type_id":"4","last_reported":1728040023,"current_range_meters":18000,"station_id":"ce4bhpp2rcd13ifvqhfg","pricing_plan_id":"cebpf4jnsgd1na2vs0mg"},{"bike_id":"87749804-87dc-47db-aa3f-c22f6f69e6f5","system_id":"levelo_inurba_marseille","lat":43.30875,"lon":5.39663,"is_reserved":false,"is_disabled":false,"rental_uris":{"android":"levelo://app?vid=87749804-87dc-47db-aa3f-c22f6f69e6f5","ios":"levelo://app?vid=87749804-87dc-47db-aa3f-c22f6f69e6f5"},"vehicle_type_id":"4","last_reported":1728040023,"current_range_meters":4800,"station_id":"ce4bh012rcd13ifvqcv0","pricing_plan_id":"cebpf4jnsgd1na2vs0mg"},{"bike_id":"09a12e82-5593-4e1b-bbe4-b615412cf4d2","system_id":"levelo_inurba_marseille","lat":43.27811,"lon":5.40712,"is_reserved":false,"is_disabled":false,"rental_uris":{"android":"levelo://app?vid=09a12e82-5593-4e1b-bbe4-b615412cf4d2","ios":"levelo://app?vid=09a12e82-5593-4e1b-bbe4-b615412cf4d2"},"vehicle_type_id":"4","last_reported":1728040023,"current_range_meters":13600,"station_id":"ce4bhnh2rcd13ifvqgtg","pricing_plan_id":"cebpf4jnsgd1na2vs0mg"},{"bike_id":"bbd5c6eb-4e34-4e43-ad0b-2ce3da5feb55","system_id":"levelo_inurba_marseille","lat":43.27175,"lon":5.41005,"is_reserved":false,"is_disabled":false,"rental_uris":{"android":"levelo://app?vid=bbd5c6eb-4e34-4e43-ad0b-2ce3da5feb55","ios":"levelo://app?vid=bbd5c6eb-4e34-4e43-ad0b-2ce3da5feb55"},"vehicle_type_id":"4","last_reported":1728040023,"current_range_meters":28000,"station_id":"ce4bhl12rcd13ifvqgf0","pricing_plan_id":"cebpf4jnsgd1na2vs0mg"},{"bike_id":"1d2f50f0-a92b-4cc3-8df7-4e1465139892","system_id":"levelo_inurba_marseille","lat":43.25582,"lon":5.38228,"is_reserved":false,"is_disabled":false,"rental_uris":{"android":"levelo://app?vid=1d2f50f0-a92b-4cc3-8df7-4e1465139892","ios":"levelo://app?vid=1d2f50f0-a92b-4cc3-8df7-4e1465139892"},"vehicle_type_id":"4","last_reported":1728040023,"current_range_meters":39200,"station_id":"ce4bhih2rcd13ifvqfs0","pricing_plan_id":"cebpf4jnsgd1na2vs0mg"},{"bike_id":"cfe196f6-4cf0-48e5-a004-ac20ba547e9f","system_id":"levelo_inurba_marseille","lat":43.2707,"lon":5.42274,"is_reserved":false,"is_disabled":false,"rental_uris":{"android":"levelo://app?vid=cfe196f6-4cf0-48e5-a004-ac20ba547e9f","ios":"levelo://app?vid=cfe196f6-4cf0-48e5-a004-ac20ba547e9f"},"vehicle_type_id":"4","last_reported":1728040023,"current_range_meters":3600,"station_id":"ce4bhk92rcd13ifvqgb0","pricing_plan_id":"cebpf4jnsgd1na2vs0mg"},{"bike_id":"6323c3ea-75d7-47ca-8873-1f720d264584","system_id":"levelo_inurba_marseille","lat":43.25499,"lon":5.37653,"is_reserved":false,"is_disabled":false,"rental_uris":{"android":"levelo://app?vid=6323c3ea-75d7-47ca-8873-1f720d264584","ios":"levelo://app?vid=6323c3ea-75d7-47ca-8873-1f720d264584"},"vehicle_type_id":"4","last_reported":1728040023,"current_range_meters":38800,"station_id":"ce4bhh12rcd13ifvqff0","pricing_plan_id":"cebpf4jnsgd1na2vs0mg"},{"bike_id":"3f70306f-1741-4d2d-8040-398f49a11dda","system_id":"levelo_inurba_marseille","lat":43.23962,"lon":5.36635,"is_reserved":false,"is_disabled":false,"rental_uris":{"android":"levelo://app?vid=3f70306f-1741-4d2d-8040-398f49a11dda","ios":"levelo://app?vid=3f70306f-1741-4d2d-8040-398f49a11dda"},"vehicle_type_id":"4","last_reported":1728040023,"current_range_meters":30800,"station_id":"ce4bhi12rcd13ifvqfp0","pricing_plan_id":"cebpf4jnsgd1na2vs0mg"},{"bike_id":"e94ef389-8f41-4ef3-979b-ef3392751861","system_id":"levelo_inurba_marseille","lat":43.25116,"lon":5.40319,"is_reserved":false,"is_disabled":false,"rental_uris":{"android":"levelo://app?vid=e94ef389-8f41-4ef3-979b-ef3392751861","ios":"levelo://app?vid=e94ef389-8f41-4ef3-979b-ef3392751861"},"vehicle_type_id":"4","last_reported":1728040023,"current_range_meters":7200,"station_id":"ce4bhlh2rcd13ifvqgig","pricing_plan_id":"cebpf4jnsgd1na2vs0mg"},{"bike_id":"86a59fdf-5419-4bd8-a9ed-c91c60731103","system_id":"levelo_inurba_marseille","lat":43.30306,"lon":5.37907,"is_reserved":false,"is_disabled":false,"rental_uris":{"android":"levelo://app?vid=86a59fdf-5419-4bd8-a9ed-c91c60731103","ios":"levelo://app?vid=86a59fdf-5419-4bd8-a9ed-c91c60731103"},"vehicle_type_id":"4","last_reported":1728040023,"current_range_meters":18000,"station_id":"","pricing_plan_id":"cebpf4jnsgd1na2vs0mg"},{"bike_id":"8415ea03-c99e-45ae-a548-d6dca9836e16","system_id":"levelo_inurba_marseille","lat":43.25105,"lon":5.40325,"is_reserved":false,"is_disabled":false,"rental_uris":{"android":"levelo://app?vid=8415ea03-c99e-45ae-a548-d6dca9836e16","ios":"levelo://app?vid=8415ea03-c99e-45ae-a548-d6dca9836e16"},"vehicle_type_id":"4","last_reported":1728040023,"current_range_meters":33600,"station_id":"ce4bhlh2rcd13ifvqgig","pricing_plan_id":"cebpf4jnsgd1na2vs0mg"},{"bike_id":"d9eda32c-e1a6-4f22-ac22-785054db8b0c","system_id":"levelo_inurba_marseille","lat":43.30959,"lon":5.39044,"is_reserved":false,"is_disabled":false,"rental_uris":{"android":"levelo://app?vid=d9eda32c-e1a6-4f22-ac22-785054db8b0c","ios":"levelo://app?vid=d9eda32c-e1a6-4f22-ac22-785054db8b0c"},"vehicle_type_id":"4","last_reported":1728040023,"current_range_meters":24400,"station_id":"ce4bgup2rcd13ifvqco0","pricing_plan_id":"cebpf4jnsgd1na2vs0mg"},{"bike_id":"370a207e-4106-4ac5-be2b-998af9608169","system_id":"levelo_inurba_marseille","lat":43.28027,"lon":5.36956,"is_reserved":false,"is_disabled":false,"rental_uris":{"android":"levelo://app?vid=370a207e-4106-4ac5-be2b-998af9608169","ios":"levelo://app?vid=370a207e-4106-4ac5-be2b-998af9608169"},"vehicle_type_id":"4","last_reported":1728040023,"current_range_meters":24000,"station_id":"ce4bha12rcd13ifvqef0","pricing_plan_id":"cebpf4jnsgd1na2vs0mg"},{"bike_id":"beea6eb6-d89b-42e1-a56f-94268078a8a1","system_id":"levelo_inurba_marseille","lat":43.29006,"lon":5.35608,"is_reserved":false,"is_disabled":false,"rental_uris":{"android":"levelo://app?vid=beea6eb6-d89b-42e1-a56f-94268078a8a1","ios":"levelo://app?vid=beea6eb6-d89b-42e1-a56f-94268078a8a1"},"vehicle_type_id":"4","last_reported":1728040023,"current_range_meters":23200,"station_id":"ce4bhb92rcd13ifvqen0","pricing_plan_id":"cebpf4jnsgd1na2vs0mg"},{"bike_id":"17dfb840-f8c0-4bc2-9c91-6aeef1a89e62","system_id":"levelo_inurba_marseille","lat":43.32553,"lon":5.41441,"is_reserved":false,"is_disabled":false,"rental_uris":{"android":"levelo://app?vid=17dfb840-f8c0-4bc2-9c91-6aeef1a89e62","ios":"levelo://app?vid=17dfb840-f8c0-4bc2-9c91-6aeef1a89e62"},"vehicle_type_id":"4","last_reported":1728040023,"current_range_meters":38800,"station_id":"ce4bhq12rcd13ifvqhhg","pricing_plan_id":"cebpf4jnsgd1na2vs0mg"},{"bike_id":"77b85791-1a73-4a81-9786-4d95297d8cb5","system_id":"levelo_inurba_marseille","lat":43.27807,"lon":5.40711,"is_reserved":false,"is_disabled":false,"rental_uris":{"android":"levelo://app?vid=77b85791-1a73-4a81-9786-4d95297d8cb5","ios":"levelo://app?vid=77b85791-1a73-4a81-9786-4d95297d8cb5"},"vehicle_type_id":"4","last_reported":1728040023,"current_range_meters":25600,"station_id":"ce4bhnh2rcd13ifvqgtg","pricing_plan_id":"cebpf4jnsgd1na2vs0mg"},{"bike_id":"eeb96273-081a-4d9d-9b7b-3d86312985be","system_id":"levelo_inurba_marseille","lat":43.29934,"lon":5.36579,"is_reserved":false,"is_disabled":false,"rental_uris":{"android":"levelo://app?vid=eeb96273-081a-4d9d-9b7b-3d86312985be","ios":"levelo://app?vid=eeb96273-081a-4d9d-9b7b-3d86312985be"},"vehicle_type_id":"4","last_reported":1728040023,"current_range_meters":6000,"station_id":"ce4bgm92rcd13ifvqbr0","pricing_plan_id":"cebpf4jnsgd1na2vs0mg"},{"bike_id":"4116a42b-3a07-4938-b83d-07bec4a2d803","system_id":"levelo_inurba_marseille","lat":43.30598,"lon":5.37231,"is_reserved":false,"is_disabled":false,"rental_uris":{"android":"levelo://app?vid=4116a42b-3a07-4938-b83d-07bec4a2d803","ios":"levelo://app?vid=4116a42b-3a07-4938-b83d-07bec4a2d803"},"vehicle_type_id":"4","last_reported":1728040023,"current_range_meters":26800,"station_id":"ce4bgqh2rcd13ifvqc4g","pricing_plan_id":"cebpf4jnsgd1na2vs0mg"},{"bike_id":"9ae1ee60-dc31-4641-b81c-ed7d70d2769a","system_id":"levelo_inurba_marseille","lat":43.30161,"lon":5.38087,"is_reserved":false,"is_disabled":false,"rental_uris":{"android":"levelo://app?vid=9ae1ee60-dc31-4641-b81c-ed7d70d2769a","ios":"levelo://app?vid=9ae1ee60-dc31-4641-b81c-ed7d70d2769a"},"vehicle_type_id":"4","last_reported":1728040023,"current_range_meters":18800,"station_id":"ce4bgjp2rcd13ifvqbh0","pricing_plan_id":"cebpf4jnsgd1na2vs0mg"},{"bike_id":"1c10b30c-0ab7-4106-a6f3-908a099292be","system_id":"levelo_inurba_marseille","lat":43.32361,"lon":5.38889,"is_reserved":false,"is_disabled":false,"rental_uris":{"android":"levelo://app?vid=1c10b30c-0ab7-4106-a6f3-908a099292be","ios":"levelo://app?vid=1c10b30c-0ab7-4106-a6f3-908a099292be"},"vehicle_type_id":"4","last_reported":1728040023,"current_range_meters":16400,"station_id":"ce4bhqp2rcd13ifvqhog","pricing_plan_id":"cebpf4jnsgd1na2vs0mg"},{"bike_id":"85a60867-0292-479f-99a9-23810b153b98","system_id":"levelo_inurba_marseille","lat":43.2707,"lon":5.42275,"is_reserved":false,"is_disabled":false,"rental_uris":{"android":"levelo://app?vid=85a60867-0292-479f-99a9-23810b153b98","ios":"levelo://app?vid=85a60867-0292-479f-99a9-23810b153b98"},"vehicle_type_id":"4","last_reported":1728040023,"current_range_meters":9200,"station_id":"ce4bhk92rcd13ifvqgb0","pricing_plan_id":"cebpf4jnsgd1na2vs0mg"},{"bike_id":"e08c062f-61a2-493a-875d-6e296e2965d6","system_id":"levelo_inurba_marseille","lat":43.33757,"lon":5.37444,"is_reserved":false,"is_disabled":false,"rental_uris":{"android":"levelo://app?vid=e08c062f-61a2-493a-875d-6e296e2965d6","ios":"levelo://app?vid=e08c062f-61a2-493a-875d-6e296e2965d6"},"vehicle_type_id":"4","last_reported":1728040023,"current_range_meters":36400,"station_id":"","pricing_plan_id":"cebpf4jnsgd1na2vs0mg"},{"bike_id":"fa3d6ca4-2f87-4548-92ec-46dd58791c3a","system_id":"levelo_inurba_marseille","lat":43.2315,"lon":5.43717,"is_reserved":false,"is_disabled":false,"rental_uris":{"android":"levelo://app?vid=fa3d6ca4-2f87-4548-92ec-46dd58791c3a","ios":"levelo://app?vid=fa3d6ca4-2f87-4548-92ec-46dd58791c3a"},"vehicle_type_id":"4","last_reported":1728040023,"current_range_meters":8800,"station_id":"ce4bhmp2rcd13ifvqgog","pricing_plan_id":"cebpf4jnsgd1na2vs0mg"},{"bike_id":"5c8970c0-3ceb-465a-9f61-48e90dd5c290","system_id":"levelo_inurba_marseille","lat":43.25009,"lon":5.38932,"is_reserved":false,"is_disabled":false,"rental_uris":{"android":"levelo://app?vid=5c8970c0-3ceb-465a-9f61-48e90dd5c290","ios":"levelo://app?vid=5c8970c0-3ceb-465a-9f61-48e90dd5c290"},"vehicle_type_id":"4","last_reported":1728040023,"current_range_meters":27200,"station_id":"ce4bhgp2rcd13ifvqfd0","pricing_plan_id":"cebpf4jnsgd1na2vs0mg"},{"bike_id":"4c81f33e-1ced-4cd3-9243-352462c111d0","system_id":"levelo_inurba_marseille","lat":43.28269,"lon":5.35065,"is_reserved":false,"is_disabled":false,"rental_uris":{"android":"levelo://app?vid=4c81f33e-1ced-4cd3-9243-352462c111d0","ios":"levelo://app?vid=4c81f33e-1ced-4cd3-9243-352462c111d0"},"vehicle_type_id":"4","last_reported":1728040023,"current_range_meters":40000,"station_id":"ce4bhbp2rcd13ifvqerg","pricing_plan_id":"cebpf4jnsgd1na2vs0mg"},{"bike_id":"721b3704-deeb-4183-93f9-aafe82cb71e4","system_id":"levelo_inurba_marseille","lat":43.26195,"lon":5.37928,"is_reserved":false,"is_disabled":false,"rental_uris":{"android":"levelo://app?vid=721b3704-deeb-4183-93f9-aafe82cb71e4","ios":"levelo://app?vid=721b3704-deeb-4183-93f9-aafe82cb71e4"},"vehicle_type_id":"4","last_reported":1728040023,"current_range_meters":38800,"station_id":"ce4bhjp2rcd13ifvqg90","pricing_plan_id":"cebpf4jnsgd1na2vs0mg"},{"bike_id":"6a54dde9-70a0-4044-bcce-4b752c889747","system_id":"levelo_inurba_marseille","lat":43.2742,"lon":5.39416,"is_reserved":false,"is_disabled":false,"rental_uris":{"android":"levelo://app?vid=6a54dde9-70a0-4044-bcce-4b752c889747","ios":"levelo://app?vid=6a54dde9-70a0-4044-bcce-4b752c889747"},"vehicle_type_id":"4","last_reported":1728040023,"current_range_meters":38800,"station_id":"ce4bhdp2rcd13ifvqf20","pricing_plan_id":"cebpf4jnsgd1na2vs0mg"},{"bike_id":"f7dfacd5-65dc-4067-9367-ceff0e852b92","system_id":"levelo_inurba_marseille","lat":43.31275,"lon":5.40174,"is_reserved":false,"is_disabled":false,"rental_uris":{"android":"levelo://app?vid=f7dfacd5-65dc-4067-9367-ceff0e852b92","ios":"levelo://app?vid=f7dfacd5-65dc-4067-9367-ceff0e852b92"},"vehicle_type_id":"4","last_reported":1728040023,"current_range_meters":38000,"station_id":"ce4bh092rcd13ifvqd30","pricing_plan_id":"cebpf4jnsgd1na2vs0mg"},{"bike_id":"161640e1-ab1a-4afe-9f0c-8c935ec6d165","system_id":"levelo_inurba_marseille","lat":43.27173,"lon":5.40985,"is_reserved":false,"is_disabled":false,"rental_uris":{"android":"levelo://app?vid=161640e1-ab1a-4afe-9f0c-8c935ec6d165","ios":"levelo://app?vid=161640e1-ab1a-4afe-9f0c-8c935ec6d165"},"vehicle_type_id":"4","last_reported":1728040023,"current_range_meters":39200,"station_id":"ce4bhl12rcd13ifvqgf0","pricing_plan_id":"cebpf4jnsgd1na2vs0mg"},{"bike_id":"09d9b46f-6176-432d-8eb8-3f383e506322","system_id":"levelo_inurba_marseille","lat":43.23178,"lon":5.39988,"is_reserved":false,"is_disabled":false,"rental_uris":{"android":"levelo://app?vid=09d9b46f-6176-432d-8eb8-3f383e506322","ios":"levelo://app?vid=09d9b46f-6176-432d-8eb8-3f383e506322"},"vehicle_type_id":"4","last_reported":1728040023,"current_range_meters":32800,"station_id":"ce4bhn12rcd13ifvqgqg","pricing_plan_id":"cebpf4jnsgd1na2vs0mg"},{"bike_id":"b3404529-2fc0-49b4-84f0-b644e8a2b421","system_id":"levelo_inurba_marseille","lat":43.250588,"lon":5.403534,"is_reserved":false,"is_disabled":false,"rental_uris":{"android":"levelo://app?vid=b3404529-2fc0-49b4-84f0-b644e8a2b421","ios":"levelo://app?vid=b3404529-2fc0-49b4-84f0-b644e8a2b421"},"vehicle_type_id":"4","last_reported":1728040023,"current_range_meters":33200,"station_id":"ce4bhlh2rcd13ifvqgig","pricing_plan_id":"cebpf4jnsgd1na2vs0mg"},{"bike_id":"12014e5f-9061-4078-ba17-f5b4421eab0c","system_id":"levelo_inurba_marseille","lat":43.23148,"lon":5.43724,"is_reserved":false,"is_disabled":false,"rental_uris":{"android":"levelo://app?vid=12014e5f-9061-4078-ba17-f5b4421eab0c","ios":"levelo://app?vid=12014e5f-9061-4078-ba17-f5b4421eab0c"},"vehicle_type_id":"4","last_reported":1728040023,"current_range_meters":12800,"station_id":"ce4bhmp2rcd13ifvqgog","pricing_plan_id":"cebpf4jnsgd1na2vs0mg"},{"bike_id":"7fdb1ee4-4faa-47fd-864b-9b745f6cecc9","system_id":"levelo_inurba_marseille","lat":43.31366,"lon":5.38484,"is_reserved":false,"is_disabled":false,"rental_uris":{"android":"levelo://app?vid=7fdb1ee4-4faa-47fd-864b-9b745f6cecc9","ios":"levelo://app?vid=7fdb1ee4-4faa-47fd-864b-9b745f6cecc9"},"vehicle_type_id":"4","last_reported":1728040023,"current_range_meters":20000,"station_id":"ce4bgt92rcd13ifvqcf0","pricing_plan_id":"cebpf4jnsgd1na2vs0mg"},{"bike_id":"2cfc4f84-82e1-426a-8f6c-632f88ab8c05","system_id":"levelo_inurba_marseille","lat":43.30791,"lon":5.37652,"is_reserved":false,"is_disabled":false,"rental_uris":{"android":"levelo://app?vid=2cfc4f84-82e1-426a-8f6c-632f88ab8c05","ios":"levelo://app?vid=2cfc4f84-82e1-426a-8f6c-632f88ab8c05"},"vehicle_type_id":"4","last_reported":1728040023,"current_range_meters":37600,"station_id":"ce4bgv92rcd13ifvqcq0","pricing_plan_id":"cebpf4jnsgd1na2vs0mg"},{"bike_id":"9e0100fa-38ba-4642-9558-80fa1a3178e7","system_id":"levelo_inurba_marseille","lat":43.30598,"lon":5.39358,"is_reserved":false,"is_disabled":false,"rental_uris":{"android":"levelo://app?vid=9e0100fa-38ba-4642-9558-80fa1a3178e7","ios":"levelo://app?vid=9e0100fa-38ba-4642-9558-80fa1a3178e7"},"vehicle_type_id":"4","last_reported":1728040023,"current_range_meters":38000,"station_id":"ce4bh0p2rcd13ifvqd80","pricing_plan_id":"cebpf4jnsgd1na2vs0mg"},{"bike_id":"781757d6-91df-4aa1-afd2-cfd41967db46","system_id":"levelo_inurba_marseille","lat":43.25011,"lon":5.38926,"is_reserved":false,"is_disabled":false,"rental_uris":{"android":"levelo://app?vid=781757d6-91df-4aa1-afd2-cfd41967db46","ios":"levelo://app?vid=781757d6-91df-4aa1-afd2-cfd41967db46"},"vehicle_type_id":"4","last_reported":1728040023,"current_range_meters":40000,"station_id":"ce4bhgp2rcd13ifvqfd0","pricing_plan_id":"cebpf4jnsgd1na2vs0mg"},{"bike_id":"8cf49df0-9ffb-433d-9f2c-420606a292e3","system_id":"levelo_inurba_marseille","lat":43.295319,"lon":5.391211,"is_reserved":false,"is_disabled":false,"rental_uris":{"android":"levelo://app?vid=8cf49df0-9ffb-433d-9f2c-420606a292e3","ios":"levelo://app?vid=8cf49df0-9ffb-433d-9f2c-420606a292e3"},"vehicle_type_id":"4","last_reported":1728040023,"current_range_meters":9600,"station_id":"ce4bh2p2rcd13ifvqdi0","pricing_plan_id":"cebpf4jnsgd1na2vs0mg"},{"bike_id":"992d9f4b-edbd-40e5-9178-1d50b7264708","system_id":"levelo_inurba_marseille","lat":43.29008,"lon":5.35611,"is_reserved":false,"is_disabled":false,"rental_uris":{"android":"levelo://app?vid=992d9f4b-edbd-40e5-9178-1d50b7264708","ios":"levelo://app?vid=992d9f4b-edbd-40e5-9178-1d50b7264708"},"vehicle_type_id":"4","last_reported":1728040023,"current_range_meters":16800,"station_id":"ce4bhb92rcd13ifvqen0","pricing_plan_id":"cebpf4jnsgd1na2vs0mg"},{"bike_id":"59711bed-cbfd-4ce6-a81e-da606d1064fd","system_id":"levelo_inurba_marseille","lat":43.284736,"lon":5.34994,"is_reserved":false,"is_disabled":false,"rental_uris":{"android":"levelo://app?vid=59711bed-cbfd-4ce6-a81e-da606d1064fd","ios":"levelo://app?vid=59711bed-cbfd-4ce6-a81e-da606d1064fd"},"vehicle_type_id":"4","last_reported":1728040023,"current_range_meters":19200,"station_id":"ce4bhbh2rcd13ifvqepg","pricing_plan_id":"cebpf4jnsgd1na2vs0mg"},{"bike_id":"fd872ba7-9877-4e67-9269-d8995abba644","system_id":"levelo_inurba_marseille","lat":43.22936,"lon":5.35378,"is_reserved":false,"is_disabled":false,"rental_uris":{"android":"levelo://app?vid=fd872ba7-9877-4e67-9269-d8995abba644","ios":"levelo://app?vid=fd872ba7-9877-4e67-9269-d8995abba644"},"vehicle_type_id":"4","last_reported":1728040023,"current_range_meters":20400,"station_id":"cpo3532slgdg3j2ikp40","pricing_plan_id":"cebpf4jnsgd1na2vs0mg"},{"bike_id":"2aff882f-70c6-4c20-a164-263eea28f973","system_id":"levelo_inurba_marseille","lat":43.3078,"lon":5.37643,"is_reserved":false,"is_disabled":false,"rental_uris":{"android":"levelo://app?vid=2aff882f-70c6-4c20-a164-263eea28f973","ios":"levelo://app?vid=2aff882f-70c6-4c20-a164-263eea28f973"},"vehicle_type_id":"4","last_reported":1728040023,"current_range_meters":38800,"station_id":"ce4bgv92rcd13ifvqcq0","pricing_plan_id":"cebpf4jnsgd1na2vs0mg"},{"bike_id":"8908f273-54fb-4b9b-a6ea-81c136343f03","system_id":"levelo_inurba_marseille","lat":43.29888,"lon":5.38897,"is_reserved":false,"is_disabled":false,"rental_uris":{"android":"levelo://app?vid=8908f273-54fb-4b9b-a6ea-81c136343f03","ios":"levelo://app?vid=8908f273-54fb-4b9b-a6ea-81c136343f03"},"vehicle_type_id":"4","last_reported":1728040023,"current_range_meters":36800,"station_id":"ce4bh392rcd13ifvqdl0","pricing_plan_id":"cebpf4jnsgd1na2vs0mg"},{"bike_id":"71d0b119-3653-471e-8fb7-1afc92050bdf","system_id":"levelo_inurba_marseille","lat":43.291992,"lon":5.35803,"is_reserved":false,"is_disabled":false,"rental_uris":{"android":"levelo://app?vid=71d0b119-3653-471e-8fb7-1afc92050bdf","ios":"levelo://app?vid=71d0b119-3653-471e-8fb7-1afc92050bdf"},"vehicle_type_id":"4","last_reported":1728040023,"current_range_meters":37600,"station_id":"ce4bhb12rcd13ifvqel0","pricing_plan_id":"cebpf4jnsgd1na2vs0mg"},{"bike_id":"36f9422c-2770-42e4-8bdc-8a55171e917b","system_id":"levelo_inurba_marseille","lat":43.31331,"lon":5.39704,"is_reserved":false,"is_disabled":false,"rental_uris":{"android":"levelo://app?vid=36f9422c-2770-42e4-8bdc-8a55171e917b","ios":"levelo://app?vid=36f9422c-2770-42e4-8bdc-8a55171e917b"},"vehicle_type_id":"4","last_reported":1728040023,"current_range_meters":38800,"station_id":"ce4bgvp2rcd13ifvqcu0","pricing_plan_id":"cebpf4jnsgd1na2vs0mg"},{"bike_id":"294c9d5c-e674-4ee2-aa5d-646145ca34dd","system_id":"levelo_inurba_marseille","lat":43.29227,"lon":5.36073,"is_reserved":false,"is_disabled":false,"rental_uris":{"android":"levelo://app?vid=294c9d5c-e674-4ee2-aa5d-646145ca34dd","ios":"levelo://app?vid=294c9d5c-e674-4ee2-aa5d-646145ca34dd"},"vehicle_type_id":"4","last_reported":1728040023,"current_range_meters":33200,"station_id":"ce4bhbh2rcd13ifvqeqg","pricing_plan_id":"cebpf4jnsgd1na2vs0mg"},{"bike_id":"3c12f06e-bd86-43ae-a5d0-3f6a16b16b13","system_id":"levelo_inurba_marseille","lat":43.29846,"lon":5.36279,"is_reserved":false,"is_disabled":false,"rental_uris":{"android":"levelo://app?vid=3c12f06e-bd86-43ae-a5d0-3f6a16b16b13","ios":"levelo://app?vid=3c12f06e-bd86-43ae-a5d0-3f6a16b16b13"},"vehicle_type_id":"4","last_reported":1728040023,"current_range_meters":34800,"station_id":"ce4bgpp2rcd13ifvqc3g","pricing_plan_id":"cebpf4jnsgd1na2vs0mg"},{"bike_id":"37fc9dac-d94b-44a6-af05-51d485ff8cca","system_id":"levelo_inurba_marseille","lat":43.30416,"lon":5.41284,"is_reserved":false,"is_disabled":false,"rental_uris":{"android":"levelo://app?vid=37fc9dac-d94b-44a6-af05-51d485ff8cca","ios":"levelo://app?vid=37fc9dac-d94b-44a6-af05-51d485ff8cca"},"vehicle_type_id":"4","last_reported":1728040023,"current_range_meters":8800,"station_id":"ce4bhop2rcd13ifvqh8g","pricing_plan_id":"cebpf4jnsgd1na2vs0mg"},{"bike_id":"0c4e14ce-7c6f-444b-9fe6-0b51da0878f8","system_id":"levelo_inurba_marseille","lat":43.28988,"lon":5.37853,"is_reserved":false,"is_disabled":false,"rental_uris":{"android":"levelo://app?vid=0c4e14ce-7c6f-444b-9fe6-0b51da0878f8","ios":"levelo://app?vid=0c4e14ce-7c6f-444b-9fe6-0b51da0878f8"},"vehicle_type_id":"4","last_reported":1728040023,"current_range_meters":36800,"station_id":"ce4bh9p2rcd13ifvqed0","pricing_plan_id":"cebpf4jnsgd1na2vs0mg"},{"bike_id":"c0d98248-97c3-4400-b396-ebf3a802014f","system_id":"levelo_inurba_marseille","lat":43.29789,"lon":5.37102,"is_reserved":false,"is_disabled":false,"rental_uris":{"android":"levelo://app?vid=c0d98248-97c3-4400-b396-ebf3a802014f","ios":"levelo://app?vid=c0d98248-97c3-4400-b396-ebf3a802014f"},"vehicle_type_id":"4","last_reported":1728040023,"current_range_meters":21600,"station_id":"ce4bgop2rcd13ifvqc1g","pricing_plan_id":"cebpf4jnsgd1na2vs0mg"},{"bike_id":"2d8970bf-7065-4a3a-8b19-c6b387242313","system_id":"levelo_inurba_marseille","lat":43.30597,"lon":5.39359,"is_reserved":false,"is_disabled":false,"rental_uris":{"android":"levelo://app?vid=2d8970bf-7065-4a3a-8b19-c6b387242313","ios":"levelo://app?vid=2d8970bf-7065-4a3a-8b19-c6b387242313"},"vehicle_type_id":"4","last_reported":1728040023,"current_range_meters":20800,"station_id":"ce4bh0p2rcd13ifvqd80","pricing_plan_id":"cebpf4jnsgd1na2vs0mg"},{"bike_id":"50e6aeb8-7e25-4c09-9781-24c9f5d23dff","system_id":"levelo_inurba_marseille","lat":43.33763,"lon":5.3744,"is_reserved":false,"is_disabled":false,"rental_uris":{"android":"levelo://app?vid=50e6aeb8-7e25-4c09-9781-24c9f5d23dff","ios":"levelo://app?vid=50e6aeb8-7e25-4c09-9781-24c9f5d23dff"},"vehicle_type_id":"4","last_reported":1728040023,"current_range_meters":32800,"station_id":"","pricing_plan_id":"cebpf4jnsgd1na2vs0mg"},{"bike_id":"d388ea53-b68b-46d1-8097-c8043378c09e","system_id":"levelo_inurba_marseille","lat":43.30311,"lon":5.369,"is_reserved":false,"is_disabled":false,"rental_uris":{"android":"levelo://app?vid=d388ea53-b68b-46d1-8097-c8043378c09e","ios":"levelo://app?vid=d388ea53-b68b-46d1-8097-c8043378c09e"},"vehicle_type_id":"4","last_reported":1728040023,"current_range_meters":38800,"station_id":"ce4bgqh2rcd13ifvqc5g","pricing_plan_id":"cebpf4jnsgd1na2vs0mg"},{"bike_id":"4061a425-0fa8-4b85-ba2e-dd23d5b416e9","system_id":"levelo_inurba_marseille","lat":43.288544,"lon":5.358315,"is_reserved":false,"is_disabled":false,"rental_uris":{"android":"levelo://app?vid=4061a425-0fa8-4b85-ba2e-dd23d5b416e9","ios":"levelo://app?vid=4061a425-0fa8-4b85-ba2e-dd23d5b416e9"},"vehicle_type_id":"4","last_reported":1728040023,"current_range_meters":32800,"station_id":"ce4bhb12rcd13ifvqem0","pricing_plan_id":"cebpf4jnsgd1na2vs0mg"},{"bike_id":"2fa80a2d-1591-492e-b225-696fcb5c87fd","system_id":"levelo_inurba_marseille","lat":43.2656,"lon":5.37289,"is_reserved":false,"is_disabled":false,"rental_uris":{"android":"levelo://app?vid=2fa80a2d-1591-492e-b225-696fcb5c87fd","ios":"levelo://app?vid=2fa80a2d-1591-492e-b225-696fcb5c87fd"},"vehicle_type_id":"4","last_reported":1728040023,"current_range_meters":30400,"station_id":"ce4bhg12rcd13ifvqf70","pricing_plan_id":"cebpf4jnsgd1na2vs0mg"},{"bike_id":"fc77e798-098b-4774-9d4e-f65ebac594b3","system_id":"levelo_inurba_marseille","lat":43.30131,"lon":5.38785,"is_reserved":false,"is_disabled":false,"rental_uris":{"android":"levelo://app?vid=fc77e798-098b-4774-9d4e-f65ebac594b3","ios":"levelo://app?vid=fc77e798-098b-4774-9d4e-f65ebac594b3"},"vehicle_type_id":"4","last_reported":1728040023,"current_range_meters":4800,"station_id":"ce4bghh2rcd13ifvqb60","pricing_plan_id":"cebpf4jnsgd1na2vs0mg"},{"bike_id":"16044011-f562-4cfd-82e1-71520f10d5cc","system_id":"levelo_inurba_marseille","lat":43.30879,"lon":5.39661,"is_reserved":false,"is_disabled":false,"rental_uris":{"android":"levelo://app?vid=16044011-f562-4cfd-82e1-71520f10d5cc","ios":"levelo://app?vid=16044011-f562-4cfd-82e1-71520f10d5cc"},"vehicle_type_id":"4","last_reported":1728040023,"current_range_meters":8400,"station_id":"ce4bh012rcd13ifvqcv0","pricing_plan_id":"cebpf4jnsgd1na2vs0mg"},{"bike_id":"674bd154-d2cc-4fa3-88d6-7281a5a010e2","system_id":"levelo_inurba_marseille","lat":43.28442,"lon":5.3918,"is_reserved":false,"is_disabled":false,"rental_uris":{"android":"levelo://app?vid=674bd154-d2cc-4fa3-88d6-7281a5a010e2","ios":"levelo://app?vid=674bd154-d2cc-4fa3-88d6-7281a5a010e2"},"vehicle_type_id":"4","last_reported":1728040023,"current_range_meters":36400,"station_id":"ce4bhoh2rcd13ifvqh5g","pricing_plan_id":"cebpf4jnsgd1na2vs0mg"},{"bike_id":"0745fcf5-f7b5-4ac2-a297-9f4707ff9580","system_id":"levelo_inurba_marseille","lat":43.30142,"lon":5.37414,"is_reserved":false,"is_disabled":false,"rental_uris":{"android":"levelo://app?vid=0745fcf5-f7b5-4ac2-a297-9f4707ff9580","ios":"levelo://app?vid=0745fcf5-f7b5-4ac2-a297-9f4707ff9580"},"vehicle_type_id":"4","last_reported":1728040023,"current_range_meters":26000,"station_id":"ce4bgs92rcd13ifvqcc0","pricing_plan_id":"cebpf4jnsgd1na2vs0mg"},{"bike_id":"e19d55ba-8944-4c99-becc-381e451fec76","system_id":"levelo_inurba_marseille","lat":43.2718,"lon":5.4099,"is_reserved":false,"is_disabled":false,"rental_uris":{"android":"levelo://app?vid=e19d55ba-8944-4c99-becc-381e451fec76","ios":"levelo://app?vid=e19d55ba-8944-4c99-becc-381e451fec76"},"vehicle_type_id":"4","last_reported":1728040023,"current_range_meters":32000,"station_id":"ce4bhl12rcd13ifvqgf0","pricing_plan_id":"cebpf4jnsgd1na2vs0mg"},{"bike_id":"be8ed04b-7cde-4ab3-aecc-58dbff48750f","system_id":"levelo_inurba_marseille","lat":43.30537,"lon":5.36539,"is_reserved":false,"is_disabled":false,"rental_uris":{"android":"levelo://app?vid=be8ed04b-7cde-4ab3-aecc-58dbff48750f","ios":"levelo://app?vid=be8ed04b-7cde-4ab3-aecc-58dbff48750f"},"vehicle_type_id":"4","last_reported":1728040023,"current_range_meters":36800,"station_id":"ce4bgs12rcd13ifvqcag","pricing_plan_id":"cebpf4jnsgd1na2vs0mg"},{"bike_id":"296d1e43-be60-4f11-b5c4-f5a90f535aac","system_id":"levelo_inurba_marseille","lat":43.29227,"lon":5.36071,"is_reserved":false,"is_disabled":false,"rental_uris":{"android":"levelo://app?vid=296d1e43-be60-4f11-b5c4-f5a90f535aac","ios":"levelo://app?vid=296d1e43-be60-4f11-b5c4-f5a90f535aac"},"vehicle_type_id":"4","last_reported":1728040023,"current_range_meters":24400,"station_id":"ce4bhbh2rcd13ifvqeqg","pricing_plan_id":"cebpf4jnsgd1na2vs0mg"},{"bike_id":"d5c6765e-8024-45cf-a496-72dd4161506b","system_id":"levelo_inurba_marseille","lat":43.28667,"lon":5.38659,"is_reserved":false,"is_disabled":false,"rental_uris":{"android":"levelo://app?vid=d5c6765e-8024-45cf-a496-72dd4161506b","ios":"levelo://app?vid=d5c6765e-8024-45cf-a496-72dd4161506b"},"vehicle_type_id":"4","last_reported":1728040023,"current_range_meters":38400,"station_id":"ce4bh492rcd13ifvqdug","pricing_plan_id":"cebpf4jnsgd1na2vs0mg"},{"bike_id":"f8ed13ba-0f92-4c24-a66c-ce1d50a499a4","system_id":"levelo_inurba_marseille","lat":43.3091,"lon":5.3685,"is_reserved":false,"is_disabled":false,"rental_uris":{"android":"levelo://app?vid=f8ed13ba-0f92-4c24-a66c-ce1d50a499a4","ios":"levelo://app?vid=f8ed13ba-0f92-4c24-a66c-ce1d50a499a4"},"vehicle_type_id":"4","last_reported":1728040023,"current_range_meters":16000,"station_id":"ce4bgn92rcd13ifvqbvg","pricing_plan_id":"cebpf4jnsgd1na2vs0mg"},{"bike_id":"53c6fe7a-c5f0-4c29-bdb6-08c6c7db5c71","system_id":"levelo_inurba_marseille","lat":43.32117,"lon":5.36769,"is_reserved":false,"is_disabled":false,"rental_uris":{"android":"levelo://app?vid=53c6fe7a-c5f0-4c29-bdb6-08c6c7db5c71","ios":"levelo://app?vid=53c6fe7a-c5f0-4c29-bdb6-08c6c7db5c71"},"vehicle_type_id":"4","last_reported":1728040023,"current_range_meters":6000,"station_id":"ce4bhrh2rcd13ifvqhug","pricing_plan_id":"cebpf4jnsgd1na2vs0mg"},{"bike_id":"b7cd3224-74ff-426f-8638-1fd36adc9f26","system_id":"levelo_inurba_marseille","lat":43.25003,"lon":5.38943,"is_reserved":false,"is_disabled":false,"rental_uris":{"android":"levelo://app?vid=b7cd3224-74ff-426f-8638-1fd36adc9f26","ios":"levelo://app?vid=b7cd3224-74ff-426f-8638-1fd36adc9f26"},"vehicle_type_id":"4","last_reported":1728040023,"current_range_meters":9200,"station_id":"ce4bhgp2rcd13ifvqfd0","pricing_plan_id":"cebpf4jnsgd1na2vs0mg"},{"bike_id":"0d1f71a9-c33d-44dd-a305-c32b50aeff33","system_id":"levelo_inurba_marseille","lat":43.31327,"lon":5.39694,"is_reserved":false,"is_disabled":false,"rental_uris":{"android":"levelo://app?vid=0d1f71a9-c33d-44dd-a305-c32b50aeff33","ios":"levelo://app?vid=0d1f71a9-c33d-44dd-a305-c32b50aeff33"},"vehicle_type_id":"4","last_reported":1728040023,"current_range_meters":24400,"station_id":"ce4bgvp2rcd13ifvqcu0","pricing_plan_id":"cebpf4jnsgd1na2vs0mg"},{"bike_id":"4b19992d-840b-471e-8296-416ef7deabca","system_id":"levelo_inurba_marseille","lat":43.30916,"lon":5.36844,"is_reserved":false,"is_disabled":false,"rental_uris":{"android":"levelo://app?vid=4b19992d-840b-471e-8296-416ef7deabca","ios":"levelo://app?vid=4b19992d-840b-471e-8296-416ef7deabca"},"vehicle_type_id":"4","last_reported":1728040023,"current_range_meters":24400,"station_id":"ce4bgn92rcd13ifvqbvg","pricing_plan_id":"cebpf4jnsgd1na2vs0mg"},{"bike_id":"6ce60676-3f86-4aaa-a5df-572436c32ad4","system_id":"levelo_inurba_marseille","lat":43.23203,"lon":5.35547,"is_reserved":false,"is_disabled":false,"rental_uris":{"android":"levelo://app?vid=6ce60676-3f86-4aaa-a5df-572436c32ad4","ios":"levelo://app?vid=6ce60676-3f86-4aaa-a5df-572436c32ad4"},"vehicle_type_id":"4","last_reported":1728040023,"current_range_meters":15200,"station_id":"ce4bhu92rcd13ifvqi70","pricing_plan_id":"cebpf4jnsgd1na2vs0mg"},{"bike_id":"00d133f4-9bbe-4431-9407-a54f88ff7f96","system_id":"levelo_inurba_marseille","lat":43.29001,"lon":5.35608,"is_reserved":false,"is_disabled":false,"rental_uris":{"android":"levelo://app?vid=00d133f4-9bbe-4431-9407-a54f88ff7f96","ios":"levelo://app?vid=00d133f4-9bbe-4431-9407-a54f88ff7f96"},"vehicle_type_id":"4","last_reported":1728040023,"current_range_meters":36800,"station_id":"ce4bhb92rcd13ifvqen0","pricing_plan_id":"cebpf4jnsgd1na2vs0mg"},{"bike_id":"bb1d45c3-f50a-4ba0-9942-1edc9ffd3ed6","system_id":"levelo_inurba_marseille","lat":43.249925,"lon":5.389245,"is_reserved":false,"is_disabled":false,"rental_uris":{"android":"levelo://app?vid=bb1d45c3-f50a-4ba0-9942-1edc9ffd3ed6","ios":"levelo://app?vid=bb1d45c3-f50a-4ba0-9942-1edc9ffd3ed6"},"vehicle_type_id":"4","last_reported":1728040023,"current_range_meters":35600,"station_id":"ce4bhgp2rcd13ifvqfd0","pricing_plan_id":"cebpf4jnsgd1na2vs0mg"},{"bike_id":"f09e2df4-4cd7-4bfe-90d8-a977266db37d","system_id":"levelo_inurba_marseille","lat":43.29623,"lon":5.37164,"is_reserved":false,"is_disabled":false,"rental_uris":{"android":"levelo://app?vid=f09e2df4-4cd7-4bfe-90d8-a977266db37d","ios":"levelo://app?vid=f09e2df4-4cd7-4bfe-90d8-a977266db37d"},"vehicle_type_id":"4","last_reported":1728040023,"current_range_meters":22000,"station_id":"ce4bgnh2rcd13ifvqc0g","pricing_plan_id":"cebpf4jnsgd1na2vs0mg"},{"bike_id":"3c374c13-9929-493c-bbaf-bc13e28cb7c2","system_id":"levelo_inurba_marseille","lat":43.3055,"lon":5.36557,"is_reserved":false,"is_disabled":false,"rental_uris":{"android":"levelo://app?vid=3c374c13-9929-493c-bbaf-bc13e28cb7c2","ios":"levelo://app?vid=3c374c13-9929-493c-bbaf-bc13e28cb7c2"},"vehicle_type_id":"4","last_reported":1728040023,"current_range_meters":4800,"station_id":"ce4bgs12rcd13ifvqcag","pricing_plan_id":"cebpf4jnsgd1na2vs0mg"},{"bike_id":"fae696dc-f737-4e0b-843e-9884e9247108","system_id":"levelo_inurba_marseille","lat":43.31488,"lon":5.37307,"is_reserved":false,"is_disabled":false,"rental_uris":{"android":"levelo://app?vid=fae696dc-f737-4e0b-843e-9884e9247108","ios":"levelo://app?vid=fae696dc-f737-4e0b-843e-9884e9247108"},"vehicle_type_id":"4","last_reported":1728040023,"current_range_meters":25200,"station_id":"ce4bgt12rcd13ifvqcd0","pricing_plan_id":"cebpf4jnsgd1na2vs0mg"},{"bike_id":"ac491eed-1fef-4832-b4ca-d42b5b54f337","system_id":"levelo_inurba_marseille","lat":43.28422,"lon":5.34976,"is_reserved":false,"is_disabled":false,"rental_uris":{"android":"levelo://app?vid=ac491eed-1fef-4832-b4ca-d42b5b54f337","ios":"levelo://app?vid=ac491eed-1fef-4832-b4ca-d42b5b54f337"},"vehicle_type_id":"4","last_reported":1728040023,"current_range_meters":36800,"station_id":"ce4bhbh2rcd13ifvqepg","pricing_plan_id":"cebpf4jnsgd1na2vs0mg"},{"bike_id":"bb5f5452-4b9b-417d-b148-b396a874f3d9","system_id":"levelo_inurba_marseille","lat":43.33758,"lon":5.37438,"is_reserved":false,"is_disabled":false,"rental_uris":{"android":"levelo://app?vid=bb5f5452-4b9b-417d-b148-b396a874f3d9","ios":"levelo://app?vid=bb5f5452-4b9b-417d-b148-b396a874f3d9"},"vehicle_type_id":"4","last_reported":1728040023,"current_range_meters":37600,"station_id":"","pricing_plan_id":"cebpf4jnsgd1na2vs0mg"},{"bike_id":"8078e2a7-4c07-44bb-b2c1-ce1f2684d23f","system_id":"levelo_inurba_marseille","lat":43.28,"lon":5.40018,"is_reserved":false,"is_disabled":false,"rental_uris":{"android":"levelo://app?vid=8078e2a7-4c07-44bb-b2c1-ce1f2684d23f","ios":"levelo://app?vid=8078e2a7-4c07-44bb-b2c1-ce1f2684d23f"},"vehicle_type_id":"4","last_reported":1728040023,"current_range_meters":17600,"station_id":"ce4bho92rcd13ifvqh4g","pricing_plan_id":"cebpf4jnsgd1na2vs0mg"},{"bike_id":"0a59fef2-d212-4155-9925-108d390ac81f","system_id":"levelo_inurba_marseille","lat":43.23157,"lon":5.43701,"is_reserved":false,"is_disabled":false,"rental_uris":{"android":"levelo://app?vid=0a59fef2-d212-4155-9925-108d390ac81f","ios":"levelo://app?vid=0a59fef2-d212-4155-9925-108d390ac81f"},"vehicle_type_id":"4","last_reported":1728040023,"current_range_meters":37600,"station_id":"ce4bhmp2rcd13ifvqgog","pricing_plan_id":"cebpf4jnsgd1na2vs0mg"},{"bike_id":"a6692f1f-5525-4523-bd49-a7c219bc26c1","system_id":"levelo_inurba_marseille","lat":43.26555,"lon":5.3729,"is_reserved":false,"is_disabled":false,"rental_uris":{"android":"levelo://app?vid=a6692f1f-5525-4523-bd49-a7c219bc26c1","ios":"levelo://app?vid=a6692f1f-5525-4523-bd49-a7c219bc26c1"},"vehicle_type_id":"4","last_reported":1728040023,"current_range_meters":33200,"station_id":"ce4bhg12rcd13ifvqf70","pricing_plan_id":"cebpf4jnsgd1na2vs0mg"},{"bike_id":"abea3f01-9882-46ec-912d-b302b4b83fac","system_id":"levelo_inurba_marseille","lat":43.30447,"lon":5.38935,"is_reserved":false,"is_disabled":false,"rental_uris":{"android":"levelo://app?vid=abea3f01-9882-46ec-912d-b302b4b83fac","ios":"levelo://app?vid=abea3f01-9882-46ec-912d-b302b4b83fac"},"vehicle_type_id":"4","last_reported":1728040023,"current_range_meters":14400,"station_id":"ce4bh0p2rcd13ifvqd80","pricing_plan_id":"cebpf4jnsgd1na2vs0mg"},{"bike_id":"85c14bf3-d16c-4446-8adf-7da33df9b5f8","system_id":"levelo_inurba_marseille","lat":43.23964,"lon":5.36635,"is_reserved":false,"is_disabled":false,"rental_uris":{"android":"levelo://app?vid=85c14bf3-d16c-4446-8adf-7da33df9b5f8","ios":"levelo://app?vid=85c14bf3-d16c-4446-8adf-7da33df9b5f8"},"vehicle_type_id":"4","last_reported":1728040023,"current_range_meters":36400,"station_id":"ce4bhi12rcd13ifvqfp0","pricing_plan_id":"cebpf4jnsgd1na2vs0mg"},{"bike_id":"f28532ab-2844-4c68-acee-baaa073b03fa","system_id":"levelo_inurba_marseille","lat":43.3248,"lon":5.36568,"is_reserved":false,"is_disabled":false,"rental_uris":{"android":"levelo://app?vid=f28532ab-2844-4c68-acee-baaa073b03fa","ios":"levelo://app?vid=f28532ab-2844-4c68-acee-baaa073b03fa"},"vehicle_type_id":"4","last_reported":1728040023,"current_range_meters":37600,"station_id":"ce4bhs12rcd13ifvqhvg","pricing_plan_id":"cebpf4jnsgd1na2vs0mg"},{"bike_id":"2932372f-9cc0-4359-8f46-5081c47b933d","system_id":"levelo_inurba_marseille","lat":43.28356,"lon":5.38098,"is_reserved":false,"is_disabled":false,"rental_uris":{"android":"levelo://app?vid=2932372f-9cc0-4359-8f46-5081c47b933d","ios":"levelo://app?vid=2932372f-9cc0-4359-8f46-5081c47b933d"},"vehicle_type_id":"4","last_reported":1728040023,"current_range_meters":2800,"station_id":"ce4bh412rcd13ifvqdr0","pricing_plan_id":"cebpf4jnsgd1na2vs0mg"},{"bike_id":"9860e32c-c268-4590-9d3f-5345719d3cd2","system_id":"levelo_inurba_marseille","lat":43.27073,"lon":5.42282,"is_reserved":false,"is_disabled":false,"rental_uris":{"android":"levelo://app?vid=9860e32c-c268-4590-9d3f-5345719d3cd2","ios":"levelo://app?vid=9860e32c-c268-4590-9d3f-5345719d3cd2"},"vehicle_type_id":"4","last_reported":1728040023,"current_range_meters":7200,"station_id":"ce4bhk92rcd13ifvqgb0","pricing_plan_id":"cebpf4jnsgd1na2vs0mg"},{"bike_id":"eb0ceef9-bd8b-443a-b266-1a21ef7b954d","system_id":"levelo_inurba_marseille","lat":43.279354,"lon":5.41049,"is_reserved":false,"is_disabled":false,"rental_uris":{"android":"levelo://app?vid=eb0ceef9-bd8b-443a-b266-1a21ef7b954d","ios":"levelo://app?vid=eb0ceef9-bd8b-443a-b266-1a21ef7b954d"},"vehicle_type_id":"4","last_reported":1728040023,"current_range_meters":34800,"station_id":"","pricing_plan_id":"cebpf4jnsgd1na2vs0mg"},{"bike_id":"d602bb9e-b75e-4df7-8d65-c5a2586c9b89","system_id":"levelo_inurba_marseille","lat":43.29856,"lon":5.36286,"is_reserved":false,"is_disabled":false,"rental_uris":{"android":"levelo://app?vid=d602bb9e-b75e-4df7-8d65-c5a2586c9b89","ios":"levelo://app?vid=d602bb9e-b75e-4df7-8d65-c5a2586c9b89"},"vehicle_type_id":"4","last_reported":1728040023,"current_range_meters":28800,"station_id":"ce4bgpp2rcd13ifvqc3g","pricing_plan_id":"cebpf4jnsgd1na2vs0mg"},{"bike_id":"0df22634-8a99-4927-af03-09431c9e9149","system_id":"levelo_inurba_marseille","lat":43.25485,"lon":5.37648,"is_reserved":false,"is_disabled":false,"rental_uris":{"android":"levelo://app?vid=0df22634-8a99-4927-af03-09431c9e9149","ios":"levelo://app?vid=0df22634-8a99-4927-af03-09431c9e9149"},"vehicle_type_id":"4","last_reported":1728040023,"current_range_meters":23200,"station_id":"ce4bhh12rcd13ifvqff0","pricing_plan_id":"cebpf4jnsgd1na2vs0mg"},{"bike_id":"4a6d82ea-4a93-4702-b867-6ab3478675d0","system_id":"levelo_inurba_marseille","lat":43.30157,"lon":5.38086,"is_reserved":false,"is_disabled":false,"rental_uris":{"android":"levelo://app?vid=4a6d82ea-4a93-4702-b867-6ab3478675d0","ios":"levelo://app?vid=4a6d82ea-4a93-4702-b867-6ab3478675d0"},"vehicle_type_id":"4","last_reported":1728040023,"current_range_meters":37600,"station_id":"ce4bgjp2rcd13ifvqbh0","pricing_plan_id":"cebpf4jnsgd1na2vs0mg"},{"bike_id":"4aa2d78a-2df8-40f1-b44e-a41cc0b2e120","system_id":"levelo_inurba_marseille","lat":43.30539,"lon":5.36716,"is_reserved":false,"is_disabled":false,"rental_uris":{"android":"levelo://app?vid=4aa2d78a-2df8-40f1-b44e-a41cc0b2e120","ios":"levelo://app?vid=4aa2d78a-2df8-40f1-b44e-a41cc0b2e120"},"vehicle_type_id":"4","last_reported":1728040023,"current_range_meters":4000,"station_id":"ce4bgrp2rcd13ifvqc9g","pricing_plan_id":"cebpf4jnsgd1na2vs0mg"},{"bike_id":"d504f447-2c81-4c4d-8a78-c7288882aa2a","system_id":"levelo_inurba_marseille","lat":43.25497,"lon":5.3764,"is_reserved":false,"is_disabled":false,"rental_uris":{"android":"levelo://app?vid=d504f447-2c81-4c4d-8a78-c7288882aa2a","ios":"levelo://app?vid=d504f447-2c81-4c4d-8a78-c7288882aa2a"},"vehicle_type_id":"4","last_reported":1728040023,"current_range_meters":38800,"station_id":"ce4bhh12rcd13ifvqff0","pricing_plan_id":"cebpf4jnsgd1na2vs0mg"},{"bike_id":"9fb2cf1f-c558-4107-86de-19542a615419","system_id":"levelo_inurba_marseille","lat":43.30788,"lon":5.3765,"is_reserved":false,"is_disabled":false,"rental_uris":{"android":"levelo://app?vid=9fb2cf1f-c558-4107-86de-19542a615419","ios":"levelo://app?vid=9fb2cf1f-c558-4107-86de-19542a615419"},"vehicle_type_id":"4","last_reported":1728040023,"current_range_meters":14800,"station_id":"ce4bgv92rcd13ifvqcq0","pricing_plan_id":"cebpf4jnsgd1na2vs0mg"},{"bike_id":"eeb5aa50-689e-4fe5-b801-43359c478d12","system_id":"levelo_inurba_marseille","lat":43.3135,"lon":5.3672,"is_reserved":false,"is_disabled":false,"rental_uris":{"android":"levelo://app?vid=eeb5aa50-689e-4fe5-b801-43359c478d12","ios":"levelo://app?vid=eeb5aa50-689e-4fe5-b801-43359c478d12"},"vehicle_type_id":"4","last_reported":1728040023,"current_range_meters":27600,"station_id":"ce4bgr92rcd13ifvqc6g","pricing_plan_id":"cebpf4jnsgd1na2vs0mg"},{"bike_id":"c8e4ff73-620c-4248-92f7-758d5098242c","system_id":"levelo_inurba_marseille","lat":43.22931,"lon":5.35376,"is_reserved":false,"is_disabled":false,"rental_uris":{"android":"levelo://app?vid=c8e4ff73-620c-4248-92f7-758d5098242c","ios":"levelo://app?vid=c8e4ff73-620c-4248-92f7-758d5098242c"},"vehicle_type_id":"4","last_reported":1728040023,"current_range_meters":22000,"station_id":"cpo3532slgdg3j2ikp40","pricing_plan_id":"cebpf4jnsgd1na2vs0mg"},{"bike_id":"ae93b151-282f-4d4d-bcb0-b72e5445f628","system_id":"levelo_inurba_marseille","lat":43.290283,"lon":5.386584,"is_reserved":false,"is_disabled":false,"rental_uris":{"android":"levelo://app?vid=ae93b151-282f-4d4d-bcb0-b72e5445f628","ios":"levelo://app?vid=ae93b151-282f-4d4d-bcb0-b72e5445f628"},"vehicle_type_id":"4","last_reported":1728040023,"current_range_meters":8400,"station_id":"ce4bh4p2rcd13ifvqe0g","pricing_plan_id":"cebpf4jnsgd1na2vs0mg"},{"bike_id":"583eb2a3-c703-4842-8648-2706b2b88008","system_id":"levelo_inurba_marseille","lat":43.28152,"lon":5.42642,"is_reserved":false,"is_disabled":false,"rental_uris":{"android":"levelo://app?vid=583eb2a3-c703-4842-8648-2706b2b88008","ios":"levelo://app?vid=583eb2a3-c703-4842-8648-2706b2b88008"},"vehicle_type_id":"4","last_reported":1728040023,"current_range_meters":4800,"station_id":"ce4bhnh2rcd13ifvqgug","pricing_plan_id":"cebpf4jnsgd1na2vs0mg"},{"bike_id":"5a38b339-efc6-4cf3-a524-ae3bec233892","system_id":"levelo_inurba_marseille","lat":43.29726,"lon":5.37672,"is_reserved":false,"is_disabled":false,"rental_uris":{"android":"levelo://app?vid=5a38b339-efc6-4cf3-a524-ae3bec233892","ios":"levelo://app?vid=5a38b339-efc6-4cf3-a524-ae3bec233892"},"vehicle_type_id":"4","last_reported":1728040023,"current_range_meters":10800,"station_id":"ce4bgkh2rcd13ifvqbl0","pricing_plan_id":"cebpf4jnsgd1na2vs0mg"},{"bike_id":"017c5186-41c9-4a71-90ca-3f3e96bf2454","system_id":"levelo_inurba_marseille","lat":43.28932,"lon":5.3839,"is_reserved":false,"is_disabled":false,"rental_uris":{"android":"levelo://app?vid=017c5186-41c9-4a71-90ca-3f3e96bf2454","ios":"levelo://app?vid=017c5186-41c9-4a71-90ca-3f3e96bf2454"},"vehicle_type_id":"4","last_reported":1728040023,"current_range_meters":38400,"station_id":"ce4bh612rcd13ifvqe6g","pricing_plan_id":"cebpf4jnsgd1na2vs0mg"},{"bike_id":"d1038e68-2366-4bc6-a30f-2029cfd50ea5","system_id":"levelo_inurba_marseille","lat":43.30187,"lon":5.36603,"is_reserved":false,"is_disabled":false,"rental_uris":{"android":"levelo://app?vid=d1038e68-2366-4bc6-a30f-2029cfd50ea5","ios":"levelo://app?vid=d1038e68-2366-4bc6-a30f-2029cfd50ea5"},"vehicle_type_id":"4","last_reported":1728040023,"current_range_meters":14800,"station_id":"ce4bgrh2rcd13ifvqc8g","pricing_plan_id":"cebpf4jnsgd1na2vs0mg"},{"bike_id":"77c59eab-5250-44c4-be86-099c0defe9c4","system_id":"levelo_inurba_marseille","lat":43.33754,"lon":5.37444,"is_reserved":false,"is_disabled":false,"rental_uris":{"android":"levelo://app?vid=77c59eab-5250-44c4-be86-099c0defe9c4","ios":"levelo://app?vid=77c59eab-5250-44c4-be86-099c0defe9c4"},"vehicle_type_id":"4","last_reported":1728040023,"current_range_meters":32000,"station_id":"","pricing_plan_id":"cebpf4jnsgd1na2vs0mg"},{"bike_id":"d39fe60d-adbe-4ff4-9a70-44533f0060ba","system_id":"levelo_inurba_marseille","lat":43.26939,"lon":5.40252,"is_reserved":false,"is_disabled":false,"rental_uris":{"android":"levelo://app?vid=d39fe60d-adbe-4ff4-9a70-44533f0060ba","ios":"levelo://app?vid=d39fe60d-adbe-4ff4-9a70-44533f0060ba"},"vehicle_type_id":"4","last_reported":1728040023,"current_range_meters":38800,"station_id":"cjm6bp8fraef2m0cb0m0","pricing_plan_id":"cebpf4jnsgd1na2vs0mg"},{"bike_id":"96f7eac2-1ee0-4fd3-826c-2b0634866f06","system_id":"levelo_inurba_marseille","lat":43.29743,"lon":5.3906,"is_reserved":false,"is_disabled":false,"rental_uris":{"android":"levelo://app?vid=96f7eac2-1ee0-4fd3-826c-2b0634866f06","ios":"levelo://app?vid=96f7eac2-1ee0-4fd3-826c-2b0634866f06"},"vehicle_type_id":"4","last_reported":1728040023,"current_range_meters":5600,"station_id":"ce4bhoh2rcd13ifvqh5g","pricing_plan_id":"cebpf4jnsgd1na2vs0mg"},{"bike_id":"a9422961-cf7b-429a-818a-31f530dda1b5","system_id":"levelo_inurba_marseille","lat":43.27053,"lon":5.4026,"is_reserved":false,"is_disabled":false,"rental_uris":{"android":"levelo://app?vid=a9422961-cf7b-429a-818a-31f530dda1b5","ios":"levelo://app?vid=a9422961-cf7b-429a-818a-31f530dda1b5"},"vehicle_type_id":"4","last_reported":1728040023,"current_range_meters":23200,"station_id":"ce4bhk92rcd13ifvqgc0","pricing_plan_id":"cebpf4jnsgd1na2vs0mg"},{"bike_id":"09648bcd-aff3-4e5d-a358-b65c5d88ce54","system_id":"levelo_inurba_marseille","lat":43.25002,"lon":5.38941,"is_reserved":false,"is_disabled":false,"rental_uris":{"android":"levelo://app?vid=09648bcd-aff3-4e5d-a358-b65c5d88ce54","ios":"levelo://app?vid=09648bcd-aff3-4e5d-a358-b65c5d88ce54"},"vehicle_type_id":"4","last_reported":1728040023,"current_range_meters":35200,"station_id":"ce4bhgp2rcd13ifvqfd0","pricing_plan_id":"cebpf4jnsgd1na2vs0mg"},{"bike_id":"0a9cc8d0-0c91-4156-9d7f-cfe0e1bb54e7","system_id":"levelo_inurba_marseille","lat":43.2972,"lon":5.36616,"is_reserved":false,"is_disabled":false,"rental_uris":{"android":"levelo://app?vid=0a9cc8d0-0c91-4156-9d7f-cfe0e1bb54e7","ios":"levelo://app?vid=0a9cc8d0-0c91-4156-9d7f-cfe0e1bb54e7"},"vehicle_type_id":"4","last_reported":1728040023,"current_range_meters":6800,"station_id":"ce4bgn12rcd13ifvqbt0","pricing_plan_id":"cebpf4jnsgd1na2vs0mg"},{"bike_id":"693c0048-a11f-442c-9e42-6d47471d445e","system_id":"levelo_inurba_marseille","lat":43.30155,"lon":5.381,"is_reserved":false,"is_disabled":false,"rental_uris":{"android":"levelo://app?vid=693c0048-a11f-442c-9e42-6d47471d445e","ios":"levelo://app?vid=693c0048-a11f-442c-9e42-6d47471d445e"},"vehicle_type_id":"4","last_reported":1728040023,"current_range_meters":38000,"station_id":"ce4bgjp2rcd13ifvqbh0","pricing_plan_id":"cebpf4jnsgd1na2vs0mg"},{"bike_id":"3b026f44-a714-4cd5-98f1-1685c58a6a44","system_id":"levelo_inurba_marseille","lat":43.27209,"lon":5.39183,"is_reserved":false,"is_disabled":false,"rental_uris":{"android":"levelo://app?vid=3b026f44-a714-4cd5-98f1-1685c58a6a44","ios":"levelo://app?vid=3b026f44-a714-4cd5-98f1-1685c58a6a44"},"vehicle_type_id":"4","last_reported":1728040023,"current_range_meters":38400,"station_id":"ce4bhhp2rcd13ifvqfm0","pricing_plan_id":"cebpf4jnsgd1na2vs0mg"},{"bike_id":"fdb68aa5-0a31-4ff3-9837-ee5d5fa5bae6","system_id":"levelo_inurba_marseille","lat":43.23152,"lon":5.43702,"is_reserved":false,"is_disabled":false,"rental_uris":{"android":"levelo://app?vid=fdb68aa5-0a31-4ff3-9837-ee5d5fa5bae6","ios":"levelo://app?vid=fdb68aa5-0a31-4ff3-9837-ee5d5fa5bae6"},"vehicle_type_id":"4","last_reported":1728040023,"current_range_meters":40000,"station_id":"ce4bhmp2rcd13ifvqgog","pricing_plan_id":"cebpf4jnsgd1na2vs0mg"},{"bike_id":"b417a8d0-1fac-4a2b-9294-35cea48e57c1","system_id":"levelo_inurba_marseille","lat":43.33027,"lon":5.39045,"is_reserved":false,"is_disabled":false,"rental_uris":{"android":"levelo://app?vid=b417a8d0-1fac-4a2b-9294-35cea48e57c1","ios":"levelo://app?vid=b417a8d0-1fac-4a2b-9294-35cea48e57c1"},"vehicle_type_id":"4","last_reported":1728040023,"current_range_meters":16800,"station_id":"ce4bhr92rcd13ifvqhrg","pricing_plan_id":"cebpf4jnsgd1na2vs0mg"},{"bike_id":"52acd51a-f333-47ab-b523-a252f640adb0","system_id":"levelo_inurba_marseille","lat":43.27945,"lon":5.41041,"is_reserved":false,"is_disabled":false,"rental_uris":{"android":"levelo://app?vid=52acd51a-f333-47ab-b523-a252f640adb0","ios":"levelo://app?vid=52acd51a-f333-47ab-b523-a252f640adb0"},"vehicle_type_id":"4","last_reported":1728040023,"current_range_meters":20400,"station_id":"ce4bhnp2rcd13ifvqh0g","pricing_plan_id":"cebpf4jnsgd1na2vs0mg"},{"bike_id":"81135a2f-3484-4943-8cb1-e9f527d2c044","system_id":"levelo_inurba_marseille","lat":43.23177,"lon":5.39989,"is_reserved":false,"is_disabled":false,"rental_uris":{"android":"levelo://app?vid=81135a2f-3484-4943-8cb1-e9f527d2c044","ios":"levelo://app?vid=81135a2f-3484-4943-8cb1-e9f527d2c044"},"vehicle_type_id":"4","last_reported":1728040023,"current_range_meters":30400,"station_id":"ce4bhn12rcd13ifvqgqg","pricing_plan_id":"cebpf4jnsgd1na2vs0mg"},{"bike_id":"2ffa78a4-0af1-4ea9-9e2e-c941948ef2b9","system_id":"levelo_inurba_marseille","lat":43.30547,"lon":5.36551,"is_reserved":false,"is_disabled":false,"rental_uris":{"android":"levelo://app?vid=2ffa78a4-0af1-4ea9-9e2e-c941948ef2b9","ios":"levelo://app?vid=2ffa78a4-0af1-4ea9-9e2e-c941948ef2b9"},"vehicle_type_id":"4","last_reported":1728040023,"current_range_meters":38800,"station_id":"ce4bgs12rcd13ifvqcag","pricing_plan_id":"cebpf4jnsgd1na2vs0mg"},{"bike_id":"cce03b88-5482-4e13-8ad1-d2b255858149","system_id":"levelo_inurba_marseille","lat":43.2707,"lon":5.42274,"is_reserved":false,"is_disabled":false,"rental_uris":{"android":"levelo://app?vid=cce03b88-5482-4e13-8ad1-d2b255858149","ios":"levelo://app?vid=cce03b88-5482-4e13-8ad1-d2b255858149"},"vehicle_type_id":"4","last_reported":1728040023,"current_range_meters":32400,"station_id":"ce4bhk92rcd13ifvqgb0","pricing_plan_id":"cebpf4jnsgd1na2vs0mg"},{"bike_id":"aea3c164-0cf2-452c-86f7-f977aff110a5","system_id":"levelo_inurba_marseille","lat":43.29971,"lon":5.3717,"is_reserved":false,"is_disabled":false,"rental_uris":{"android":"levelo://app?vid=aea3c164-0cf2-452c-86f7-f977aff110a5","ios":"levelo://app?vid=aea3c164-0cf2-452c-86f7-f977aff110a5"},"vehicle_type_id":"4","last_reported":1728040023,"current_range_meters":3200,"station_id":"ce4bgr92rcd13ifvqc7g","pricing_plan_id":"cebpf4jnsgd1na2vs0mg"},{"bike_id":"3d743f14-6bda-4d52-ac79-3261a0662f90","system_id":"levelo_inurba_marseille","lat":43.25084,"lon":5.39525,"is_reserved":false,"is_disabled":false,"rental_uris":{"android":"levelo://app?vid=3d743f14-6bda-4d52-ac79-3261a0662f90","ios":"levelo://app?vid=3d743f14-6bda-4d52-ac79-3261a0662f90"},"vehicle_type_id":"4","last_reported":1728040023,"current_range_meters":38800,"station_id":"ce4bhm12rcd13ifvqgkg","pricing_plan_id":"cebpf4jnsgd1na2vs0mg"},{"bike_id":"b90e8964-d55e-4f46-a9b3-9b532d7f9aad","system_id":"levelo_inurba_marseille","lat":43.2587,"lon":5.39897,"is_reserved":false,"is_disabled":false,"rental_uris":{"android":"levelo://app?vid=b90e8964-d55e-4f46-a9b3-9b532d7f9aad","ios":"levelo://app?vid=b90e8964-d55e-4f46-a9b3-9b532d7f9aad"},"vehicle_type_id":"4","last_reported":1728040023,"current_range_meters":30800,"station_id":"ce4bhl92rcd13ifvqghg","pricing_plan_id":"cebpf4jnsgd1na2vs0mg"},{"bike_id":"ad2704f3-a6d6-4ffc-b79b-3dcc182ab923","system_id":"levelo_inurba_marseille","lat":43.27614,"lon":5.36105,"is_reserved":false,"is_disabled":false,"rental_uris":{"android":"levelo://app?vid=ad2704f3-a6d6-4ffc-b79b-3dcc182ab923","ios":"levelo://app?vid=ad2704f3-a6d6-4ffc-b79b-3dcc182ab923"},"vehicle_type_id":"4","last_reported":1728040023,"current_range_meters":16800,"station_id":"ce4bgj92rcd13ifvqbe0","pricing_plan_id":"cebpf4jnsgd1na2vs0mg"},{"bike_id":"1e4b9dd3-b33a-4d2a-8266-ed32618ab5b8","system_id":"levelo_inurba_marseille","lat":43.23151,"lon":5.4372,"is_reserved":false,"is_disabled":false,"rental_uris":{"android":"levelo://app?vid=1e4b9dd3-b33a-4d2a-8266-ed32618ab5b8","ios":"levelo://app?vid=1e4b9dd3-b33a-4d2a-8266-ed32618ab5b8"},"vehicle_type_id":"4","last_reported":1728040023,"current_range_meters":21600,"station_id":"ce4bhmp2rcd13ifvqgog","pricing_plan_id":"cebpf4jnsgd1na2vs0mg"},{"bike_id":"3030be14-cd14-43e8-af08-4e82ecfc50ed","system_id":"levelo_inurba_marseille","lat":43.30539,"lon":5.36533,"is_reserved":false,"is_disabled":false,"rental_uris":{"android":"levelo://app?vid=3030be14-cd14-43e8-af08-4e82ecfc50ed","ios":"levelo://app?vid=3030be14-cd14-43e8-af08-4e82ecfc50ed"},"vehicle_type_id":"4","last_reported":1728040023,"current_range_meters":19200,"station_id":"ce4bgs12rcd13ifvqcag","pricing_plan_id":"cebpf4jnsgd1na2vs0mg"},{"bike_id":"d7877609-6b5f-4f1b-b1e9-67841d44573b","system_id":"levelo_inurba_marseille","lat":43.29553,"lon":5.42293,"is_reserved":false,"is_disabled":false,"rental_uris":{"android":"levelo://app?vid=d7877609-6b5f-4f1b-b1e9-67841d44573b","ios":"levelo://app?vid=d7877609-6b5f-4f1b-b1e9-67841d44573b"},"vehicle_type_id":"4","last_reported":1728040023,"current_range_meters":21600,"station_id":"ce4bhph2rcd13ifvqhdg","pricing_plan_id":"cebpf4jnsgd1na2vs0mg"},{"bike_id":"411a622e-0c64-4ae7-ab3a-3b4f2603408c","system_id":"levelo_inurba_marseille","lat":43.29899,"lon":5.43664,"is_reserved":false,"is_disabled":false,"rental_uris":{"android":"levelo://app?vid=411a622e-0c64-4ae7-ab3a-3b4f2603408c","ios":"levelo://app?vid=411a622e-0c64-4ae7-ab3a-3b4f2603408c"},"vehicle_type_id":"4","last_reported":1728040023,"current_range_meters":28400,"station_id":"ce4bhpp2rcd13ifvqhfg","pricing_plan_id":"cebpf4jnsgd1na2vs0mg"},{"bike_id":"d9513a24-3235-43a7-b9a5-1c5cfe37603f","system_id":"levelo_inurba_marseille","lat":43.23056,"lon":5.35493,"is_reserved":false,"is_disabled":false,"rental_uris":{"android":"levelo://app?vid=d9513a24-3235-43a7-b9a5-1c5cfe37603f","ios":"levelo://app?vid=d9513a24-3235-43a7-b9a5-1c5cfe37603f"},"vehicle_type_id":"4","last_reported":1728040023,"current_range_meters":25600,"station_id":"cpo3342slgdg3j2ifvpg","pricing_plan_id":"cebpf4jnsgd1na2vs0mg"},{"bike_id":"7bdcdbb9-b52f-4b42-9e65-be051a80cf8b","system_id":"levelo_inurba_marseille","lat":43.32484,"lon":5.36575,"is_reserved":false,"is_disabled":false,"rental_uris":{"android":"levelo://app?vid=7bdcdbb9-b52f-4b42-9e65-be051a80cf8b","ios":"levelo://app?vid=7bdcdbb9-b52f-4b42-9e65-be051a80cf8b"},"vehicle_type_id":"4","last_reported":1728040023,"current_range_meters":8400,"station_id":"ce4bhs12rcd13ifvqhvg","pricing_plan_id":"cebpf4jnsgd1na2vs0mg"},{"bike_id":"4bd008e2-ced4-419f-9986-7bdf08969ddd","system_id":"levelo_inurba_marseille","lat":43.30914,"lon":5.36863,"is_reserved":false,"is_disabled":false,"rental_uris":{"android":"levelo://app?vid=4bd008e2-ced4-419f-9986-7bdf08969ddd","ios":"levelo://app?vid=4bd008e2-ced4-419f-9986-7bdf08969ddd"},"vehicle_type_id":"4","last_reported":1728040023,"current_range_meters":36800,"station_id":"ce4bgn92rcd13ifvqbvg","pricing_plan_id":"cebpf4jnsgd1na2vs0mg"},{"bike_id":"251a23b4-a966-4fc5-b708-11ed753c045d","system_id":"levelo_inurba_marseille","lat":43.29419,"lon":5.3863,"is_reserved":false,"is_disabled":false,"rental_uris":{"android":"levelo://app?vid=251a23b4-a966-4fc5-b708-11ed753c045d","ios":"levelo://app?vid=251a23b4-a966-4fc5-b708-11ed753c045d"},"vehicle_type_id":"4","last_reported":1728040023,"current_range_meters":6800,"station_id":"ce4bh2h2rcd13ifvqdh0","pricing_plan_id":"cebpf4jnsgd1na2vs0mg"},{"bike_id":"81008d3b-94da-4d34-870e-d8466bde30f5","system_id":"levelo_inurba_marseille","lat":43.29373,"lon":5.3786,"is_reserved":false,"is_disabled":false,"rental_uris":{"android":"levelo://app?vid=81008d3b-94da-4d34-870e-d8466bde30f5","ios":"levelo://app?vid=81008d3b-94da-4d34-870e-d8466bde30f5"},"vehicle_type_id":"4","last_reported":1728040023,"current_range_meters":17200,"station_id":"ce4bgjh2rcd13ifvqbf0","pricing_plan_id":"cebpf4jnsgd1na2vs0mg"},{"bike_id":"4e0c83a2-b0c3-4894-8559-e509681998d3","system_id":"levelo_inurba_marseille","lat":43.31124,"lon":5.38336,"is_reserved":false,"is_disabled":false,"rental_uris":{"android":"levelo://app?vid=4e0c83a2-b0c3-4894-8559-e509681998d3","ios":"levelo://app?vid=4e0c83a2-b0c3-4894-8559-e509681998d3"},"vehicle_type_id":"4","last_reported":1728040023,"current_range_meters":24000,"station_id":"","pricing_plan_id":"cebpf4jnsgd1na2vs0mg"},{"bike_id":"dc852ba8-32f2-497f-a66a-6178eae58d48","system_id":"levelo_inurba_marseille","lat":43.32485,"lon":5.36565,"is_reserved":false,"is_disabled":false,"rental_uris":{"android":"levelo://app?vid=dc852ba8-32f2-497f-a66a-6178eae58d48","ios":"levelo://app?vid=dc852ba8-32f2-497f-a66a-6178eae58d48"},"vehicle_type_id":"4","last_reported":1728040023,"current_range_meters":11600,"station_id":"ce4bhs12rcd13ifvqhvg","pricing_plan_id":"cebpf4jnsgd1na2vs0mg"},{"bike_id":"944acec7-27cc-40aa-977f-0247c939e040","system_id":"levelo_inurba_marseille","lat":43.31168,"lon":5.38727,"is_reserved":false,"is_disabled":false,"rental_uris":{"android":"levelo://app?vid=944acec7-27cc-40aa-977f-0247c939e040","ios":"levelo://app?vid=944acec7-27cc-40aa-977f-0247c939e040"},"vehicle_type_id":"4","last_reported":1728040023,"current_range_meters":33200,"station_id":"ce4bgv12rcd13ifvqcp0","pricing_plan_id":"cebpf4jnsgd1na2vs0mg"},{"bike_id":"701c6d99-5cc9-4f4a-aff8-cbd84ddd36e7","system_id":"levelo_inurba_marseille","lat":43.25108,"lon":5.40321,"is_reserved":false,"is_disabled":false,"rental_uris":{"android":"levelo://app?vid=701c6d99-5cc9-4f4a-aff8-cbd84ddd36e7","ios":"levelo://app?vid=701c6d99-5cc9-4f4a-aff8-cbd84ddd36e7"},"vehicle_type_id":"4","last_reported":1728040023,"current_range_meters":37600,"station_id":"ce4bhlh2rcd13ifvqgig","pricing_plan_id":"cebpf4jnsgd1na2vs0mg"},{"bike_id":"953f9367-f5fd-4075-bb14-555c38180bc3","system_id":"levelo_inurba_marseille","lat":43.248596,"lon":5.374901,"is_reserved":false,"is_disabled":false,"rental_uris":{"android":"levelo://app?vid=953f9367-f5fd-4075-bb14-555c38180bc3","ios":"levelo://app?vid=953f9367-f5fd-4075-bb14-555c38180bc3"},"vehicle_type_id":"4","last_reported":1728040023,"current_range_meters":21600,"station_id":"ce4bhgh2rcd13ifvqfb0","pricing_plan_id":"cebpf4jnsgd1na2vs0mg"},{"bike_id":"b378dfd1-c1cc-4a36-864e-c1a62b564295","system_id":"levelo_inurba_marseille","lat":43.23153,"lon":5.43717,"is_reserved":false,"is_disabled":false,"rental_uris":{"android":"levelo://app?vid=b378dfd1-c1cc-4a36-864e-c1a62b564295","ios":"levelo://app?vid=b378dfd1-c1cc-4a36-864e-c1a62b564295"},"vehicle_type_id":"4","last_reported":1728040023,"current_range_meters":27600,"station_id":"ce4bhmp2rcd13ifvqgog","pricing_plan_id":"cebpf4jnsgd1na2vs0mg"},{"bike_id":"979a5122-1651-43ac-949f-3b3a4cb5eeb0","system_id":"levelo_inurba_marseille","lat":43.30797,"lon":5.43519,"is_reserved":false,"is_disabled":false,"rental_uris":{"android":"levelo://app?vid=979a5122-1651-43ac-949f-3b3a4cb5eeb0","ios":"levelo://app?vid=979a5122-1651-43ac-949f-3b3a4cb5eeb0"},"vehicle_type_id":"4","last_reported":1728040023,"current_range_meters":3600,"station_id":"ce4bhph2rcd13ifvqheg","pricing_plan_id":"cebpf4jnsgd1na2vs0mg"},{"bike_id":"2596df12-f512-4ec8-a994-35cffe7b5ed9","system_id":"levelo_inurba_marseille","lat":43.30537,"lon":5.36552,"is_reserved":false,"is_disabled":false,"rental_uris":{"android":"levelo://app?vid=2596df12-f512-4ec8-a994-35cffe7b5ed9","ios":"levelo://app?vid=2596df12-f512-4ec8-a994-35cffe7b5ed9"},"vehicle_type_id":"4","last_reported":1728040023,"current_range_meters":36400,"station_id":"ce4bgs12rcd13ifvqcag","pricing_plan_id":"cebpf4jnsgd1na2vs0mg"},{"bike_id":"76fd0ec5-b981-4140-9049-e03884a9ef31","system_id":"levelo_inurba_marseille","lat":43.27182,"lon":5.40991,"is_reserved":false,"is_disabled":false,"rental_uris":{"android":"levelo://app?vid=76fd0ec5-b981-4140-9049-e03884a9ef31","ios":"levelo://app?vid=76fd0ec5-b981-4140-9049-e03884a9ef31"},"vehicle_type_id":"4","last_reported":1728040023,"current_range_meters":40000,"station_id":"ce4bhl12rcd13ifvqgf0","pricing_plan_id":"cebpf4jnsgd1na2vs0mg"},{"bike_id":"eb387d80-1a2b-4338-9dfc-d920fff731e3","system_id":"levelo_inurba_marseille","lat":43.23143,"lon":5.43721,"is_reserved":false,"is_disabled":false,"rental_uris":{"android":"levelo://app?vid=eb387d80-1a2b-4338-9dfc-d920fff731e3","ios":"levelo://app?vid=eb387d80-1a2b-4338-9dfc-d920fff731e3"},"vehicle_type_id":"4","last_reported":1728040023,"current_range_meters":38800,"station_id":"ce4bhmp2rcd13ifvqgog","pricing_plan_id":"cebpf4jnsgd1na2vs0mg"},{"bike_id":"0e932ac1-5b15-4585-91be-76c7b0dd7d0b","system_id":"levelo_inurba_marseille","lat":43.29919,"lon":5.3747,"is_reserved":false,"is_disabled":false,"rental_uris":{"android":"levelo://app?vid=0e932ac1-5b15-4585-91be-76c7b0dd7d0b","ios":"levelo://app?vid=0e932ac1-5b15-4585-91be-76c7b0dd7d0b"},"vehicle_type_id":"4","last_reported":1728040023,"current_range_meters":39200,"station_id":"ce4bgjh2rcd13ifvqbg0","pricing_plan_id":"cebpf4jnsgd1na2vs0mg"},{"bike_id":"3a592867-9d22-4d83-aeeb-a6898d779c97","system_id":"levelo_inurba_marseille","lat":43.30963,"lon":5.39038,"is_reserved":false,"is_disabled":false,"rental_uris":{"android":"levelo://app?vid=3a592867-9d22-4d83-aeeb-a6898d779c97","ios":"levelo://app?vid=3a592867-9d22-4d83-aeeb-a6898d779c97"},"vehicle_type_id":"4","last_reported":1728040023,"current_range_meters":4400,"station_id":"ce4bgup2rcd13ifvqco0","pricing_plan_id":"cebpf4jnsgd1na2vs0mg"},{"bike_id":"9c6986df-366a-4ced-bc61-a1267b0c159e","system_id":"levelo_inurba_marseille","lat":43.30959,"lon":5.39039,"is_reserved":false,"is_disabled":false,"rental_uris":{"android":"levelo://app?vid=9c6986df-366a-4ced-bc61-a1267b0c159e","ios":"levelo://app?vid=9c6986df-366a-4ced-bc61-a1267b0c159e"},"vehicle_type_id":"4","last_reported":1728040023,"current_range_meters":18000,"station_id":"ce4bgup2rcd13ifvqco0","pricing_plan_id":"cebpf4jnsgd1na2vs0mg"},{"bike_id":"59c18bfd-2ca9-4ff3-96bd-2fa5acbe056b","system_id":"levelo_inurba_marseille","lat":43.290039,"lon":5.356222,"is_reserved":false,"is_disabled":false,"rental_uris":{"android":"levelo://app?vid=59c18bfd-2ca9-4ff3-96bd-2fa5acbe056b","ios":"levelo://app?vid=59c18bfd-2ca9-4ff3-96bd-2fa5acbe056b"},"vehicle_type_id":"4","last_reported":1728040023,"current_range_meters":37600,"station_id":"ce4bhb92rcd13ifvqen0","pricing_plan_id":"cebpf4jnsgd1na2vs0mg"},{"bike_id":"bbf0e859-3cb7-4cc5-8d90-84ae7de243f6","system_id":"levelo_inurba_marseille","lat":43.30143,"lon":5.39871,"is_reserved":false,"is_disabled":false,"rental_uris":{"android":"levelo://app?vid=bbf0e859-3cb7-4cc5-8d90-84ae7de243f6","ios":"levelo://app?vid=bbf0e859-3cb7-4cc5-8d90-84ae7de243f6"},"vehicle_type_id":"4","last_reported":1728040023,"current_range_meters":38000,"station_id":"ce4bgkh2rcd13ifvqbk0","pricing_plan_id":"cebpf4jnsgd1na2vs0mg"},{"bike_id":"613dddd7-b6d5-4ce7-b0cc-11c99bc21e50","system_id":"levelo_inurba_marseille","lat":43.30548,"lon":5.36694,"is_reserved":false,"is_disabled":false,"rental_uris":{"android":"levelo://app?vid=613dddd7-b6d5-4ce7-b0cc-11c99bc21e50","ios":"levelo://app?vid=613dddd7-b6d5-4ce7-b0cc-11c99bc21e50"},"vehicle_type_id":"4","last_reported":1728040023,"current_range_meters":32800,"station_id":"ce4bgrp2rcd13ifvqc9g","pricing_plan_id":"cebpf4jnsgd1na2vs0mg"},{"bike_id":"abedcaca-ce9a-464c-8437-8a94d42dcb16","system_id":"levelo_inurba_marseille","lat":43.2985,"lon":5.36274,"is_reserved":false,"is_disabled":false,"rental_uris":{"android":"levelo://app?vid=abedcaca-ce9a-464c-8437-8a94d42dcb16","ios":"levelo://app?vid=abedcaca-ce9a-464c-8437-8a94d42dcb16"},"vehicle_type_id":"4","last_reported":1728040023,"current_range_meters":35600,"station_id":"ce4bgpp2rcd13ifvqc3g","pricing_plan_id":"cebpf4jnsgd1na2vs0mg"},{"bike_id":"485acce7-77e5-48a3-854b-4e59b6ca1def","system_id":"levelo_inurba_marseille","lat":43.30537,"lon":5.36543,"is_reserved":false,"is_disabled":false,"rental_uris":{"android":"levelo://app?vid=485acce7-77e5-48a3-854b-4e59b6ca1def","ios":"levelo://app?vid=485acce7-77e5-48a3-854b-4e59b6ca1def"},"vehicle_type_id":"4","last_reported":1728040023,"current_range_meters":18000,"station_id":"ce4bgs12rcd13ifvqcag","pricing_plan_id":"cebpf4jnsgd1na2vs0mg"},{"bike_id":"d73b71ee-2e1b-4715-9288-8813f4c5aa19","system_id":"levelo_inurba_marseille","lat":43.2844,"lon":5.39213,"is_reserved":false,"is_disabled":false,"rental_uris":{"android":"levelo://app?vid=d73b71ee-2e1b-4715-9288-8813f4c5aa19","ios":"levelo://app?vid=d73b71ee-2e1b-4715-9288-8813f4c5aa19"},"vehicle_type_id":"4","last_reported":1728040023,"current_range_meters":22800,"station_id":"ce4bhoh2rcd13ifvqh5g","pricing_plan_id":"cebpf4jnsgd1na2vs0mg"},{"bike_id":"d8660ee1-13b0-46a1-8cf4-c454288db3d0","system_id":"levelo_inurba_marseille","lat":43.29868,"lon":5.39733,"is_reserved":false,"is_disabled":false,"rental_uris":{"android":"levelo://app?vid=d8660ee1-13b0-46a1-8cf4-c454288db3d0","ios":"levelo://app?vid=d8660ee1-13b0-46a1-8cf4-c454288db3d0"},"vehicle_type_id":"4","last_reported":1728040023,"current_range_meters":20800,"station_id":"ce4bh0h2rcd13ifvqd50","pricing_plan_id":"cebpf4jnsgd1na2vs0mg"},{"bike_id":"f0ee3299-6f34-4291-885b-91b308e7806a","system_id":"levelo_inurba_marseille","lat":43.25001,"lon":5.38939,"is_reserved":false,"is_disabled":false,"rental_uris":{"android":"levelo://app?vid=f0ee3299-6f34-4291-885b-91b308e7806a","ios":"levelo://app?vid=f0ee3299-6f34-4291-885b-91b308e7806a"},"vehicle_type_id":"4","last_reported":1728040023,"current_range_meters":32400,"station_id":"ce4bhgp2rcd13ifvqfd0","pricing_plan_id":"cebpf4jnsgd1na2vs0mg"},{"bike_id":"80a8a9ff-e12f-4719-99fa-84db948be49a","system_id":"levelo_inurba_marseille","lat":43.281006,"lon":5.378261,"is_reserved":false,"is_disabled":false,"rental_uris":{"android":"levelo://app?vid=80a8a9ff-e12f-4719-99fa-84db948be49a","ios":"levelo://app?vid=80a8a9ff-e12f-4719-99fa-84db948be49a"},"vehicle_type_id":"4","last_reported":1728040023,"current_range_meters":32000,"station_id":"ce4bha12rcd13ifvqee0","pricing_plan_id":"cebpf4jnsgd1na2vs0mg"},{"bike_id":"7cd21690-0953-4e57-a0a8-a7fdf9999b1c","system_id":"levelo_inurba_marseille","lat":43.29622,"lon":5.37705,"is_reserved":false,"is_disabled":false,"rental_uris":{"android":"levelo://app?vid=7cd21690-0953-4e57-a0a8-a7fdf9999b1c","ios":"levelo://app?vid=7cd21690-0953-4e57-a0a8-a7fdf9999b1c"},"vehicle_type_id":"4","last_reported":1728040023,"current_range_meters":30800,"station_id":"ce4bgi92rcd13ifvqb90","pricing_plan_id":"cebpf4jnsgd1na2vs0mg"},{"bike_id":"a4ee9cfb-31d6-40de-abc8-a6b75dec40eb","system_id":"levelo_inurba_marseille","lat":43.2937,"lon":5.37853,"is_reserved":false,"is_disabled":false,"rental_uris":{"android":"levelo://app?vid=a4ee9cfb-31d6-40de-abc8-a6b75dec40eb","ios":"levelo://app?vid=a4ee9cfb-31d6-40de-abc8-a6b75dec40eb"},"vehicle_type_id":"4","last_reported":1728040023,"current_range_meters":25600,"station_id":"ce4bgjh2rcd13ifvqbf0","pricing_plan_id":"cebpf4jnsgd1na2vs0mg"},{"bike_id":"da159afb-d6ad-4bc8-a3de-e348ce2b41eb","system_id":"levelo_inurba_marseille","lat":43.32479,"lon":5.36566,"is_reserved":false,"is_disabled":false,"rental_uris":{"android":"levelo://app?vid=da159afb-d6ad-4bc8-a3de-e348ce2b41eb","ios":"levelo://app?vid=da159afb-d6ad-4bc8-a3de-e348ce2b41eb"},"vehicle_type_id":"4","last_reported":1728040023,"current_range_meters":38000,"station_id":"ce4bhs12rcd13ifvqhvg","pricing_plan_id":"cebpf4jnsgd1na2vs0mg"},{"bike_id":"26f290bb-1447-4f43-ab6d-1590e2a06a4b","system_id":"levelo_inurba_marseille","lat":43.30947,"lon":5.38152,"is_reserved":false,"is_disabled":false,"rental_uris":{"android":"levelo://app?vid=26f290bb-1447-4f43-ab6d-1590e2a06a4b","ios":"levelo://app?vid=26f290bb-1447-4f43-ab6d-1590e2a06a4b"},"vehicle_type_id":"4","last_reported":1728040023,"current_range_meters":33600,"station_id":"","pricing_plan_id":"cebpf4jnsgd1na2vs0mg"},{"bike_id":"a8fbdfd9-61c0-44e5-8910-8c7f587455af","system_id":"levelo_inurba_marseille","lat":43.255771,"lon":5.382217,"is_reserved":false,"is_disabled":false,"rental_uris":{"android":"levelo://app?vid=a8fbdfd9-61c0-44e5-8910-8c7f587455af","ios":"levelo://app?vid=a8fbdfd9-61c0-44e5-8910-8c7f587455af"},"vehicle_type_id":"4","last_reported":1728040023,"current_range_meters":12800,"station_id":"ce4bhm12rcd13ifvqgkg","pricing_plan_id":"cebpf4jnsgd1na2vs0mg"},{"bike_id":"40eee244-96c8-4790-ae6d-dd0cb3dac76d","system_id":"levelo_inurba_marseille","lat":43.33727,"lon":5.39184,"is_reserved":false,"is_disabled":false,"rental_uris":{"android":"levelo://app?vid=40eee244-96c8-4790-ae6d-dd0cb3dac76d","ios":"levelo://app?vid=40eee244-96c8-4790-ae6d-dd0cb3dac76d"},"vehicle_type_id":"4","last_reported":1728040023,"current_range_meters":33200,"station_id":"ce4bhr92rcd13ifvqhsg","pricing_plan_id":"cebpf4jnsgd1na2vs0mg"},{"bike_id":"9153b943-6af7-4c89-a75b-407ef7290292","system_id":"levelo_inurba_marseille","lat":43.33724,"lon":5.39187,"is_reserved":false,"is_disabled":false,"rental_uris":{"android":"levelo://app?vid=9153b943-6af7-4c89-a75b-407ef7290292","ios":"levelo://app?vid=9153b943-6af7-4c89-a75b-407ef7290292"},"vehicle_type_id":"4","last_reported":1728040023,"current_range_meters":38800,"station_id":"ce4bhr92rcd13ifvqhsg","pricing_plan_id":"cebpf4jnsgd1na2vs0mg"},{"bike_id":"945db574-611e-44bd-b7af-2308ff04fc92","system_id":"levelo_inurba_marseille","lat":43.30159,"lon":5.3808,"is_reserved":false,"is_disabled":false,"rental_uris":{"android":"levelo://app?vid=945db574-611e-44bd-b7af-2308ff04fc92","ios":"levelo://app?vid=945db574-611e-44bd-b7af-2308ff04fc92"},"vehicle_type_id":"4","last_reported":1728040023,"current_range_meters":26800,"station_id":"ce4bgjp2rcd13ifvqbh0","pricing_plan_id":"cebpf4jnsgd1na2vs0mg"},{"bike_id":"0a0813fd-4e85-43bf-a974-35fce6c2d67e","system_id":"levelo_inurba_marseille","lat":43.32365,"lon":5.38884,"is_reserved":false,"is_disabled":false,"rental_uris":{"android":"levelo://app?vid=0a0813fd-4e85-43bf-a974-35fce6c2d67e","ios":"levelo://app?vid=0a0813fd-4e85-43bf-a974-35fce6c2d67e"},"vehicle_type_id":"4","last_reported":1728040023,"current_range_meters":30800,"station_id":"ce4bhqp2rcd13ifvqhog","pricing_plan_id":"cebpf4jnsgd1na2vs0mg"},{"bike_id":"efc190be-afde-4784-a061-c8a52d3a4055","system_id":"levelo_inurba_marseille","lat":43.27813,"lon":5.40714,"is_reserved":false,"is_disabled":false,"rental_uris":{"android":"levelo://app?vid=efc190be-afde-4784-a061-c8a52d3a4055","ios":"levelo://app?vid=efc190be-afde-4784-a061-c8a52d3a4055"},"vehicle_type_id":"4","last_reported":1728040023,"current_range_meters":39200,"station_id":"ce4bhnh2rcd13ifvqgtg","pricing_plan_id":"cebpf4jnsgd1na2vs0mg"},{"bike_id":"bcf50dcb-13f9-4e3b-b3db-bc463293bf15","system_id":"levelo_inurba_marseille","lat":43.30584,"lon":5.39358,"is_reserved":false,"is_disabled":false,"rental_uris":{"android":"levelo://app?vid=bcf50dcb-13f9-4e3b-b3db-bc463293bf15","ios":"levelo://app?vid=bcf50dcb-13f9-4e3b-b3db-bc463293bf15"},"vehicle_type_id":"4","last_reported":1728040023,"current_range_meters":30800,"station_id":"ce4bh0p2rcd13ifvqd80","pricing_plan_id":"cebpf4jnsgd1na2vs0mg"},{"bike_id":"c27bd2ec-b1b8-4f9c-839d-c8e88bc7ec66","system_id":"levelo_inurba_marseille","lat":43.29843,"lon":5.36269,"is_reserved":false,"is_disabled":false,"rental_uris":{"android":"levelo://app?vid=c27bd2ec-b1b8-4f9c-839d-c8e88bc7ec66","ios":"levelo://app?vid=c27bd2ec-b1b8-4f9c-839d-c8e88bc7ec66"},"vehicle_type_id":"4","last_reported":1728040023,"current_range_meters":39200,"station_id":"ce4bgpp2rcd13ifvqc3g","pricing_plan_id":"cebpf4jnsgd1na2vs0mg"},{"bike_id":"cfd799c5-7a77-48af-a92f-ac3363e7a66b","system_id":"levelo_inurba_marseille","lat":43.33019,"lon":5.39045,"is_reserved":false,"is_disabled":false,"rental_uris":{"android":"levelo://app?vid=cfd799c5-7a77-48af-a92f-ac3363e7a66b","ios":"levelo://app?vid=cfd799c5-7a77-48af-a92f-ac3363e7a66b"},"vehicle_type_id":"4","last_reported":1728040023,"current_range_meters":22000,"station_id":"ce4bhr92rcd13ifvqhrg","pricing_plan_id":"cebpf4jnsgd1na2vs0mg"},{"bike_id":"0cb9acb2-15eb-485b-842c-a3f570e8e7c5","system_id":"levelo_inurba_marseille","lat":43.2293,"lon":5.35386,"is_reserved":false,"is_disabled":false,"rental_uris":{"android":"levelo://app?vid=0cb9acb2-15eb-485b-842c-a3f570e8e7c5","ios":"levelo://app?vid=0cb9acb2-15eb-485b-842c-a3f570e8e7c5"},"vehicle_type_id":"4","last_reported":1728040023,"current_range_meters":22400,"station_id":"cpo3532slgdg3j2ikp40","pricing_plan_id":"cebpf4jnsgd1na2vs0mg"},{"bike_id":"eabea0cc-ed7c-4925-9ee3-ea7a749fd05f","system_id":"levelo_inurba_marseille","lat":43.28256,"lon":5.35072,"is_reserved":false,"is_disabled":false,"rental_uris":{"android":"levelo://app?vid=eabea0cc-ed7c-4925-9ee3-ea7a749fd05f","ios":"levelo://app?vid=eabea0cc-ed7c-4925-9ee3-ea7a749fd05f"},"vehicle_type_id":"4","last_reported":1728040023,"current_range_meters":24800,"station_id":"ce4bhbp2rcd13ifvqerg","pricing_plan_id":"cebpf4jnsgd1na2vs0mg"},{"bike_id":"4c40b7da-31a6-4737-8575-c221517273bf","system_id":"levelo_inurba_marseille","lat":43.30554,"lon":5.367,"is_reserved":false,"is_disabled":false,"rental_uris":{"android":"levelo://app?vid=4c40b7da-31a6-4737-8575-c221517273bf","ios":"levelo://app?vid=4c40b7da-31a6-4737-8575-c221517273bf"},"vehicle_type_id":"4","last_reported":1728040023,"current_range_meters":36400,"station_id":"ce4bgrp2rcd13ifvqc9g","pricing_plan_id":"cebpf4jnsgd1na2vs0mg"},{"bike_id":"23a3c720-02d4-45f1-8d57-1a43fbf97499","system_id":"levelo_inurba_marseille","lat":43.30961,"lon":5.39035,"is_reserved":false,"is_disabled":false,"rental_uris":{"android":"levelo://app?vid=23a3c720-02d4-45f1-8d57-1a43fbf97499","ios":"levelo://app?vid=23a3c720-02d4-45f1-8d57-1a43fbf97499"},"vehicle_type_id":"4","last_reported":1728040023,"current_range_meters":25600,"station_id":"ce4bgup2rcd13ifvqco0","pricing_plan_id":"cebpf4jnsgd1na2vs0mg"},{"bike_id":"cad53f51-6242-4ac5-a905-67a3970ffb9f","system_id":"levelo_inurba_marseille","lat":43.2512,"lon":5.40315,"is_reserved":false,"is_disabled":false,"rental_uris":{"android":"levelo://app?vid=cad53f51-6242-4ac5-a905-67a3970ffb9f","ios":"levelo://app?vid=cad53f51-6242-4ac5-a905-67a3970ffb9f"},"vehicle_type_id":"4","last_reported":1728040023,"current_range_meters":30000,"station_id":"ce4bhlh2rcd13ifvqgig","pricing_plan_id":"cebpf4jnsgd1na2vs0mg"},{"bike_id":"e9bc8e34-7fc9-401e-8798-81c511b3e3c8","system_id":"levelo_inurba_marseille","lat":43.33393,"lon":5.41056,"is_reserved":false,"is_disabled":false,"rental_uris":{"android":"levelo://app?vid=e9bc8e34-7fc9-401e-8798-81c511b3e3c8","ios":"levelo://app?vid=e9bc8e34-7fc9-401e-8798-81c511b3e3c8"},"vehicle_type_id":"4","last_reported":1728040023,"current_range_meters":11200,"station_id":"","pricing_plan_id":"cebpf4jnsgd1na2vs0mg"},{"bike_id":"42ef3d63-1231-4a84-a407-c9b366994640","system_id":"levelo_inurba_marseille","lat":43.31342,"lon":5.36722,"is_reserved":false,"is_disabled":false,"rental_uris":{"android":"levelo://app?vid=42ef3d63-1231-4a84-a407-c9b366994640","ios":"levelo://app?vid=42ef3d63-1231-4a84-a407-c9b366994640"},"vehicle_type_id":"4","last_reported":1728040023,"current_range_meters":11200,"station_id":"ce4bgr92rcd13ifvqc6g","pricing_plan_id":"cebpf4jnsgd1na2vs0mg"},{"bike_id":"c8e00c6d-b748-4ab1-a04a-08bff7f1c61e","system_id":"levelo_inurba_marseille","lat":43.29836,"lon":5.36267,"is_reserved":false,"is_disabled":false,"rental_uris":{"android":"levelo://app?vid=c8e00c6d-b748-4ab1-a04a-08bff7f1c61e","ios":"levelo://app?vid=c8e00c6d-b748-4ab1-a04a-08bff7f1c61e"},"vehicle_type_id":"4","last_reported":1728040023,"current_range_meters":38800,"station_id":"ce4bgpp2rcd13ifvqc3g","pricing_plan_id":"cebpf4jnsgd1na2vs0mg"},{"bike_id":"51f22627-a9ed-499f-a6c6-a2efc49aca17","system_id":"levelo_inurba_marseille","lat":43.26217,"lon":5.37438,"is_reserved":false,"is_disabled":false,"rental_uris":{"android":"levelo://app?vid=51f22627-a9ed-499f-a6c6-a2efc49aca17","ios":"levelo://app?vid=51f22627-a9ed-499f-a6c6-a2efc49aca17"},"vehicle_type_id":"4","last_reported":1728040023,"current_range_meters":20800,"station_id":"ce4bhgp2rcd13ifvqfc0","pricing_plan_id":"cebpf4jnsgd1na2vs0mg"},{"bike_id":"64bd957e-b978-44cb-a85c-928d627d24ec","system_id":"levelo_inurba_marseille","lat":43.35471,"lon":5.35873,"is_reserved":false,"is_disabled":false,"rental_uris":{"android":"levelo://app?vid=64bd957e-b978-44cb-a85c-928d627d24ec","ios":"levelo://app?vid=64bd957e-b978-44cb-a85c-928d627d24ec"},"vehicle_type_id":"4","last_reported":1728040023,"current_range_meters":9600,"station_id":"","pricing_plan_id":"cebpf4jnsgd1na2vs0mg"},{"bike_id":"38a690d7-e99e-4de5-bdfe-f410e85adf9a","system_id":"levelo_inurba_marseille","lat":43.30545,"lon":5.36705,"is_reserved":false,"is_disabled":false,"rental_uris":{"android":"levelo://app?vid=38a690d7-e99e-4de5-bdfe-f410e85adf9a","ios":"levelo://app?vid=38a690d7-e99e-4de5-bdfe-f410e85adf9a"},"vehicle_type_id":"4","last_reported":1728040023,"current_range_meters":14400,"station_id":"ce4bgrp2rcd13ifvqc9g","pricing_plan_id":"cebpf4jnsgd1na2vs0mg"},{"bike_id":"b343122c-38e2-48d4-9cf1-5c3ed13e030b","system_id":"levelo_inurba_marseille","lat":43.26571,"lon":5.39004,"is_reserved":false,"is_disabled":false,"rental_uris":{"android":"levelo://app?vid=b343122c-38e2-48d4-9cf1-5c3ed13e030b","ios":"levelo://app?vid=b343122c-38e2-48d4-9cf1-5c3ed13e030b"},"vehicle_type_id":"4","last_reported":1728040023,"current_range_meters":34000,"station_id":"ce4bhe12rcd13ifvqf30","pricing_plan_id":"cebpf4jnsgd1na2vs0mg"},{"bike_id":"4a4dda42-8b8c-4ea6-b8ed-a7e7a8f57751","system_id":"levelo_inurba_marseille","lat":43.30416,"lon":5.41287,"is_reserved":false,"is_disabled":false,"rental_uris":{"android":"levelo://app?vid=4a4dda42-8b8c-4ea6-b8ed-a7e7a8f57751","ios":"levelo://app?vid=4a4dda42-8b8c-4ea6-b8ed-a7e7a8f57751"},"vehicle_type_id":"4","last_reported":1728040023,"current_range_meters":36800,"station_id":"ce4bhop2rcd13ifvqh8g","pricing_plan_id":"cebpf4jnsgd1na2vs0mg"},{"bike_id":"11a50a7d-98ac-4c21-9f33-2bd7b06cb284","system_id":"levelo_inurba_marseille","lat":43.31368,"lon":5.38478,"is_reserved":false,"is_disabled":false,"rental_uris":{"android":"levelo://app?vid=11a50a7d-98ac-4c21-9f33-2bd7b06cb284","ios":"levelo://app?vid=11a50a7d-98ac-4c21-9f33-2bd7b06cb284"},"vehicle_type_id":"4","last_reported":1728040023,"current_range_meters":38400,"station_id":"ce4bgt92rcd13ifvqcf0","pricing_plan_id":"cebpf4jnsgd1na2vs0mg"},{"bike_id":"db237d03-be85-492e-b96e-e2bcdd9a79da","system_id":"levelo_inurba_marseille","lat":43.28276,"lon":5.35054,"is_reserved":false,"is_disabled":false,"rental_uris":{"android":"levelo://app?vid=db237d03-be85-492e-b96e-e2bcdd9a79da","ios":"levelo://app?vid=db237d03-be85-492e-b96e-e2bcdd9a79da"},"vehicle_type_id":"4","last_reported":1728040023,"current_range_meters":24800,"station_id":"ce4bhbp2rcd13ifvqerg","pricing_plan_id":"cebpf4jnsgd1na2vs0mg"},{"bike_id":"d60eeb80-9f40-40b7-b2f1-45e005a543a4","system_id":"levelo_inurba_marseille","lat":43.30456,"lon":5.37905,"is_reserved":false,"is_disabled":false,"rental_uris":{"android":"levelo://app?vid=d60eeb80-9f40-40b7-b2f1-45e005a543a4","ios":"levelo://app?vid=d60eeb80-9f40-40b7-b2f1-45e005a543a4"},"vehicle_type_id":"4","last_reported":1728040023,"current_range_meters":34800,"station_id":"ce4bgup2rcd13ifvqcn0","pricing_plan_id":"cebpf4jnsgd1na2vs0mg"},{"bike_id":"3fd39f22-88be-48e1-b594-0de2560cedd3","system_id":"levelo_inurba_marseille","lat":43.27944,"lon":5.41045,"is_reserved":false,"is_disabled":false,"rental_uris":{"android":"levelo://app?vid=3fd39f22-88be-48e1-b594-0de2560cedd3","ios":"levelo://app?vid=3fd39f22-88be-48e1-b594-0de2560cedd3"},"vehicle_type_id":"4","last_reported":1728040023,"current_range_meters":27200,"station_id":"ce4bhnp2rcd13ifvqh0g","pricing_plan_id":"cebpf4jnsgd1na2vs0mg"},{"bike_id":"9130b0b2-ab4b-4af9-98c6-99c2c23d7128","system_id":"levelo_inurba_marseille","lat":43.28485,"lon":5.38536,"is_reserved":false,"is_disabled":false,"rental_uris":{"android":"levelo://app?vid=9130b0b2-ab4b-4af9-98c6-99c2c23d7128","ios":"levelo://app?vid=9130b0b2-ab4b-4af9-98c6-99c2c23d7128"},"vehicle_type_id":"4","last_reported":1728040023,"current_range_meters":2000,"station_id":"ce4bh8p2rcd13ifvqeb0","pricing_plan_id":"cebpf4jnsgd1na2vs0mg"},{"bike_id":"d1df10ef-0072-4d4e-b065-3351106448e3","system_id":"levelo_inurba_marseille","lat":43.2808,"lon":5.39662,"is_reserved":false,"is_disabled":false,"rental_uris":{"android":"levelo://app?vid=d1df10ef-0072-4d4e-b065-3351106448e3","ios":"levelo://app?vid=d1df10ef-0072-4d4e-b065-3351106448e3"},"vehicle_type_id":"4","last_reported":1728040023,"current_range_meters":37600,"station_id":"ce4bho12rcd13ifvqh2g","pricing_plan_id":"cebpf4jnsgd1na2vs0mg"},{"bike_id":"1dfde707-53e4-4bf5-bc92-042569e60e45","system_id":"levelo_inurba_marseille","lat":43.30152,"lon":5.38097,"is_reserved":false,"is_disabled":false,"rental_uris":{"android":"levelo://app?vid=1dfde707-53e4-4bf5-bc92-042569e60e45","ios":"levelo://app?vid=1dfde707-53e4-4bf5-bc92-042569e60e45"},"vehicle_type_id":"4","last_reported":1728040023,"current_range_meters":28400,"station_id":"ce4bgjp2rcd13ifvqbh0","pricing_plan_id":"cebpf4jnsgd1na2vs0mg"},{"bike_id":"8dbbae4a-511c-48b0-a117-6994a3b4df76","system_id":"levelo_inurba_marseille","lat":43.30471,"lon":5.37919,"is_reserved":false,"is_disabled":false,"rental_uris":{"android":"levelo://app?vid=8dbbae4a-511c-48b0-a117-6994a3b4df76","ios":"levelo://app?vid=8dbbae4a-511c-48b0-a117-6994a3b4df76"},"vehicle_type_id":"4","last_reported":1728040023,"current_range_meters":4000,"station_id":"ce4bgup2rcd13ifvqcn0","pricing_plan_id":"cebpf4jnsgd1na2vs0mg"},{"bike_id":"a03c51c8-c614-405f-9b53-7022cff9c603","system_id":"levelo_inurba_marseille","lat":43.26554,"lon":5.37291,"is_reserved":false,"is_disabled":false,"rental_uris":{"android":"levelo://app?vid=a03c51c8-c614-405f-9b53-7022cff9c603","ios":"levelo://app?vid=a03c51c8-c614-405f-9b53-7022cff9c603"},"vehicle_type_id":"4","last_reported":1728040023,"current_range_meters":16000,"station_id":"ce4bhg12rcd13ifvqf70","pricing_plan_id":"cebpf4jnsgd1na2vs0mg"},{"bike_id":"5745dea4-1bb2-4bfd-a4b2-2bdc01f1c1af","system_id":"levelo_inurba_marseille","lat":43.31687,"lon":5.40477,"is_reserved":false,"is_disabled":false,"rental_uris":{"android":"levelo://app?vid=5745dea4-1bb2-4bfd-a4b2-2bdc01f1c1af","ios":"levelo://app?vid=5745dea4-1bb2-4bfd-a4b2-2bdc01f1c1af"},"vehicle_type_id":"4","last_reported":1728040023,"current_range_meters":18800,"station_id":"ce4bh012rcd13ifvqd00","pricing_plan_id":"cebpf4jnsgd1na2vs0mg"},{"bike_id":"6d679b6b-38e0-4f37-8caf-d0dfb3677fc5","system_id":"levelo_inurba_marseille","lat":43.2293,"lon":5.35379,"is_reserved":false,"is_disabled":false,"rental_uris":{"android":"levelo://app?vid=6d679b6b-38e0-4f37-8caf-d0dfb3677fc5","ios":"levelo://app?vid=6d679b6b-38e0-4f37-8caf-d0dfb3677fc5"},"vehicle_type_id":"4","last_reported":1728040023,"current_range_meters":18800,"station_id":"cpo3532slgdg3j2ikp40","pricing_plan_id":"cebpf4jnsgd1na2vs0mg"},{"bike_id":"02fd2641-169e-4f1f-a6d3-b673f1fc8e01","system_id":"levelo_inurba_marseille","lat":43.31498,"lon":5.37313,"is_reserved":false,"is_disabled":false,"rental_uris":{"android":"levelo://app?vid=02fd2641-169e-4f1f-a6d3-b673f1fc8e01","ios":"levelo://app?vid=02fd2641-169e-4f1f-a6d3-b673f1fc8e01"},"vehicle_type_id":"4","last_reported":1728040023,"current_range_meters":24800,"station_id":"ce4bgt12rcd13ifvqcd0","pricing_plan_id":"cebpf4jnsgd1na2vs0mg"},{"bike_id":"44c337ef-85f5-4e32-96aa-33f4585be6c7","system_id":"levelo_inurba_marseille","lat":43.30428,"lon":5.38887,"is_reserved":false,"is_disabled":false,"rental_uris":{"android":"levelo://app?vid=44c337ef-85f5-4e32-96aa-33f4585be6c7","ios":"levelo://app?vid=44c337ef-85f5-4e32-96aa-33f4585be6c7"},"vehicle_type_id":"4","last_reported":1728040023,"current_range_meters":29600,"station_id":"ce4bgk12rcd13ifvqbi0","pricing_plan_id":"cebpf4jnsgd1na2vs0mg"},{"bike_id":"9520a4b9-f9bc-4736-a8a9-2f8c53b7e7c7","system_id":"levelo_inurba_marseille","lat":43.27172,"lon":5.41,"is_reserved":false,"is_disabled":false,"rental_uris":{"android":"levelo://app?vid=9520a4b9-f9bc-4736-a8a9-2f8c53b7e7c7","ios":"levelo://app?vid=9520a4b9-f9bc-4736-a8a9-2f8c53b7e7c7"},"vehicle_type_id":"4","last_reported":1728040023,"current_range_meters":4400,"station_id":"ce4bhl12rcd13ifvqgf0","pricing_plan_id":"cebpf4jnsgd1na2vs0mg"},