{"last_updated":1761315048,"ttl":60,"version":"2.2","data":{"bikes":[{"bike_id":"259eb74e-5704-4961-a47c-069573550e81","system_id":"levelo_inurba_marseille","lat":43.31229,"lon":5.36869,"is_reserved":false,"is_disabled":false,"rental_uris":{"android":"levelo://app?vid=259eb74e-5704-4961-a47c-069573550e81","ios":"levelo://app?vid=259eb74e-5704-4961-a47c-069573550e81"},"vehicle_type_id":"4","last_reported":1761315048,"current_range_meters":2800,"station_id":"ce4bgl92rcd13ifvqbq0","pricing_plan_id":"cebpf4jnsgd1na2vs0mg"},{"bike_id":"de88b060-a8d3-4631-9b2a-19bac33a1a68","system_id":"levelo_inurba_marseille","lat":43.30747,"lon":5.4243,"is_reserved":false,"is_disabled":false,"rental_uris":{"android":"levelo://app?vid=de88b060-a8d3-4631-9b2a-19bac33a1a68","ios":"levelo://app?vid=de88b060-a8d3-4631-9b2a-19bac33a1a68"},"vehicle_type_id":"4","last_reported":1761315048,"current_range_meters":3200,"station_id":"st_cvj6ca6bvosntc0bfgr0","pricing_plan_id":"cebpf4jnsgd1na2vs0mg"},{"bike_id":"833f99f0-3c1e-4689-8f5c-f14d0937d9c6","system_id":"levelo_inurba_marseille","lat":43.29598,"lon":5.38104,"is_reserved":false,"is_disabled":false,"rental_uris":{"android":"levelo://app?vid=833f99f0-3c1e-4689-8f5c-f14d0937d9c6","ios":"levelo://app?vid=833f99f0-3c1e-4689-8f5c-f14d0937d9c6"},"vehicle_type_id":"4","last_reported":1761315048,"current_range_meters":3600,"station_id":"ce4bgl12rcd13ifvqbo0","pricing_plan_id":"cebpf4jnsgd1na2vs0mg"},{"bike_id":"47b29d9d-0ee5-4162-b1f7-7ccd9613033c","system_id":"levelo_inurba_marseille","lat":43.30646,"lon":5.40101,"is_reserved":false,"is_disabled":false,"rental_uris":{"android":"levelo://app?vid=47b29d9d-0ee5-4162-b1f7-7ccd9613033c","ios":"levelo://app?vid=47b29d9d-0ee5-4162-b1f7-7ccd9613033c"},"vehicle_type_id":"4","last_reported":1761315048,"current_range_meters":3600,"station_id":"ce4bh112rcd13ifvqda0","pricing_plan_id":"cebpf4jnsgd1na2vs0mg"},{"bike_id":"6b45eb21-05a1-4408-9a68-2375d8e8fa47","system_id":"levelo_inurba_marseille","lat":43.30547,"lon":5.365603,"is_reserved":false,"is_disabled":false,"rental_uris":{"android":"levelo://app?vid=6b45eb21-05a1-4408-9a68-2375d8e8fa47","ios":"levelo://app?vid=6b45eb21-05a1-4408-9a68-2375d8e8fa47"},"vehicle_type_id":"4","last_reported":1761315048,"current_range_meters":3600,"station_id":"ce4bgs12rcd13ifvqcag","pricing_plan_id":"cebpf4jnsgd1na2vs0mg"},{"bike_id":"9ce6d917-ef85-4f82-bec1-16867fbb84e4","system_id":"levelo_inurba_marseille","lat":43.23152,"lon":5.4371,"is_reserved":false,"is_disabled":false,"rental_uris":{"android":"levelo://app?vid=9ce6d917-ef85-4f82-bec1-16867fbb84e4","ios":"levelo://app?vid=9ce6d917-ef85-4f82-bec1-16867fbb84e4"},"vehicle_type_id":"4","last_reported":1761315048,"current_range_meters":3600,"station_id":"ce4bhmp2rcd13ifvqgog","pricing_plan_id":"cebpf4jnsgd1na2vs0mg"},{"bike_id":"dc26da9e-c4f7-4570-89d4-5fe1167f2130","system_id":"levelo_inurba_marseille","lat":43.217446,"lon":5.345984,"is_reserved":false,"is_disabled":false,"rental_uris":{"android":"levelo://app?vid=dc26da9e-c4f7-4570-89d4-5fe1167f2130","ios":"levelo://app?vid=dc26da9e-c4f7-4570-89d4-5fe1167f2130"},"vehicle_type_id":"4","last_reported":1761315048,"current_range_meters":3600,"station_id":"st_cvj6r9ubvosntc0bgbag","pricing_plan_id":"cebpf4jnsgd1na2vs0mg"},{"bike_id":"37d01fc8-4b4d-4652-a489-1254eb9d4c80","system_id":"levelo_inurba_marseille","lat":43.34076,"lon":5.40411,"is_reserved":false,"is_disabled":false,"rental_uris":{"android":"levelo://app?vid=37d01fc8-4b4d-4652-a489-1254eb9d4c80","ios":"levelo://app?vid=37d01fc8-4b4d-4652-a489-1254eb9d4c80"},"vehicle_type_id":"4","last_reported":1761315048,"current_range_meters":3600,"station_id":"","pricing_plan_id":"cebpf4jnsgd1na2vs0mg"},{"bike_id":"d9b2ec74-255c-438d-8ecf-53706e96e25d","system_id":"levelo_inurba_marseille","lat":43.287528,"lon":5.370029,"is_reserved":false,"is_disabled":false,"rental_uris":{"android":"levelo://app?vid=d9b2ec74-255c-438d-8ecf-53706e96e25d","ios":"levelo://app?vid=d9b2ec74-255c-438d-8ecf-53706e96e25d"},"vehicle_type_id":"4","last_reported":1761315048,"current_range_meters":3600,"station_id":"ce4bht12rcd13ifvqi60","pricing_plan_id":"cebpf4jnsgd1na2vs0mg"},{"bike_id":"7be6e88a-da3b-48a2-bff9-3212933a4caf","system_id":"levelo_inurba_marseille","lat":43.25581,"lon":5.38227,"is_reserved":false,"is_disabled":false,"rental_uris":{"android":"levelo://app?vid=7be6e88a-da3b-48a2-bff9-3212933a4caf","ios":"levelo://app?vid=7be6e88a-da3b-48a2-bff9-3212933a4caf"},"vehicle_type_id":"4","last_reported":1761315048,"current_range_meters":4000,"station_id":"ce4bhih2rcd13ifvqfs0","pricing_plan_id":"cebpf4jnsgd1na2vs0mg"},{"bike_id":"7546f470-e2c9-46ad-b638-733b3092a9dc","system_id":"levelo_inurba_marseille","lat":43.225198,"lon":5.348307,"is_reserved":false,"is_disabled":false,"rental_uris":{"android":"levelo://app?vid=7546f470-e2c9-46ad-b638-733b3092a9dc","ios":"levelo://app?vid=7546f470-e2c9-46ad-b638-733b3092a9dc"},"vehicle_type_id":"4","last_reported":1761315048,"current_range_meters":4400,"station_id":"","pricing_plan_id":"cebpf4jnsgd1na2vs0mg"},{"bike_id":"1178dd85-a75f-49f6-be99-f0e2c3cb5503","system_id":"levelo_inurba_marseille","lat":43.29363,"lon":5.37853,"is_reserved":false,"is_disabled":false,"rental_uris":{"android":"levelo://app?vid=1178dd85-a75f-49f6-be99-f0e2c3cb5503","ios":"levelo://app?vid=1178dd85-a75f-49f6-be99-f0e2c3cb5503"},"vehicle_type_id":"4","last_reported":1761315048,"current_range_meters":4400,"station_id":"ce4bgjh2rcd13ifvqbf0","pricing_plan_id":"cebpf4jnsgd1na2vs0mg"},{"bike_id":"337f0b42-92e4-4724-bdbc-ff0d9d5c7221","system_id":"levelo_inurba_marseille","lat":43.30537,"lon":5.36546,"is_reserved":false,"is_disabled":false,"rental_uris":{"android":"levelo://app?vid=337f0b42-92e4-4724-bdbc-ff0d9d5c7221","ios":"levelo://app?vid=337f0b42-92e4-4724-bdbc-ff0d9d5c7221"},"vehicle_type_id":"4","last_reported":1761315048,"current_range_meters":4800,"station_id":"ce4bgs12rcd13ifvqcag","pricing_plan_id":"cebpf4jnsgd1na2vs0mg"},{"bike_id":"91bb66ef-5f48-4927-b135-62d2eb81e7ab","system_id":"levelo_inurba_marseille","lat":43.246642,"lon":5.381652,"is_reserved":false,"is_disabled":false,"rental_uris":{"android":"levelo://app?vid=91bb66ef-5f48-4927-b135-62d2eb81e7ab","ios":"levelo://app?vid=91bb66ef-5f48-4927-b135-62d2eb81e7ab"},"vehicle_type_id":"4","last_reported":1761315048,"current_range_meters":5600,"station_id":"ce4bhih2rcd13ifvqfr0","pricing_plan_id":"cebpf4jnsgd1na2vs0mg"},{"bike_id":"c7395202-1a22-44bc-8c95-b7e0e546e22d","system_id":"levelo_inurba_marseille","lat":43.26936,"lon":5.40256,"is_reserved":false,"is_disabled":false,"rental_uris":{"android":"levelo://app?vid=c7395202-1a22-44bc-8c95-b7e0e546e22d","ios":"levelo://app?vid=c7395202-1a22-44bc-8c95-b7e0e546e22d"},"vehicle_type_id":"4","last_reported":1761315048,"current_range_meters":5600,"station_id":"cjm6bp8fraef2m0cb0m0","pricing_plan_id":"cebpf4jnsgd1na2vs0mg"},{"bike_id":"37a66066-47a3-4c45-b808-2a088e651041","system_id":"levelo_inurba_marseille","lat":43.30946,"lon":5.39038,"is_reserved":false,"is_disabled":false,"rental_uris":{"android":"levelo://app?vid=37a66066-47a3-4c45-b808-2a088e651041","ios":"levelo://app?vid=37a66066-47a3-4c45-b808-2a088e651041"},"vehicle_type_id":"4","last_reported":1761315048,"current_range_meters":6000,"station_id":"ce4bgup2rcd13ifvqco0","pricing_plan_id":"cebpf4jnsgd1na2vs0mg"},{"bike_id":"f28e01f3-bdd4-4516-907e-96aa7dac2a79","system_id":"levelo_inurba_marseille","lat":43.29027,"lon":5.37552,"is_reserved":false,"is_disabled":true,"rental_uris":{"android":"levelo://app?vid=f28e01f3-bdd4-4516-907e-96aa7dac2a79","ios":"levelo://app?vid=f28e01f3-bdd4-4516-907e-96aa7dac2a79"},"vehicle_type_id":"4","last_reported":1761315048,"current_range_meters":6000,"station_id":"ce4bh692rcd13ifvqe90","pricing_plan_id":"cebpf4jnsgd1na2vs0mg"},{"bike_id":"a5df1b24-3dee-4fec-9dff-4fe8eb007da7","system_id":"levelo_inurba_marseille","lat":43.29578,"lon":5.36742,"is_reserved":false,"is_disabled":false,"rental_uris":{"android":"levelo://app?vid=a5df1b24-3dee-4fec-9dff-4fe8eb007da7","ios":"levelo://app?vid=a5df1b24-3dee-4fec-9dff-4fe8eb007da7"},"vehicle_type_id":"4","last_reported":1761315048,"current_range_meters":6000,"station_id":"ce4bgph2rcd13ifvqc2g","pricing_plan_id":"cebpf4jnsgd1na2vs0mg"},{"bike_id":"4eae2ec4-8862-466e-a3d9-395cca4276d0","system_id":"levelo_inurba_marseille","lat":43.30387,"lon":5.37594,"is_reserved":false,"is_disabled":false,"rental_uris":{"android":"levelo://app?vid=4eae2ec4-8862-466e-a3d9-395cca4276d0","ios":"levelo://app?vid=4eae2ec4-8862-466e-a3d9-395cca4276d0"},"vehicle_type_id":"4","last_reported":1761315048,"current_range_meters":6000,"station_id":"","pricing_plan_id":"cebpf4jnsgd1na2vs0mg"},{"bike_id":"fedd7937-63d3-4738-8a52-d6f6e76fbeb1","system_id":"levelo_inurba_marseille","lat":43.3062,"lon":5.36715,"is_reserved":false,"is_disabled":false,"rental_uris":{"android":"levelo://app?vid=fedd7937-63d3-4738-8a52-d6f6e76fbeb1","ios":"levelo://app?vid=fedd7937-63d3-4738-8a52-d6f6e76fbeb1"},"vehicle_type_id":"4","last_reported":1761315048,"current_range_meters":6400,"station_id":"","pricing_plan_id":"cebpf4jnsgd1na2vs0mg"},{"bike_id":"498b63b6-a84e-4815-a14f-9f7905f00831","system_id":"levelo_inurba_marseille","lat":43.29265,"lon":5.37641,"is_reserved":false,"is_disabled":false,"rental_uris":{"android":"levelo://app?vid=498b63b6-a84e-4815-a14f-9f7905f00831","ios":"levelo://app?vid=498b63b6-a84e-4815-a14f-9f7905f00831"},"vehicle_type_id":"4","last_reported":1761315048,"current_range_meters":6400,"station_id":"ce4bgi12rcd13ifvqb80","pricing_plan_id":"cebpf4jnsgd1na2vs0mg"},{"bike_id":"95a8015d-7586-4a7c-b321-bbf4c1859e4a","system_id":"levelo_inurba_marseille","lat":43.30411,"lon":5.39759,"is_reserved":false,"is_disabled":false,"rental_uris":{"android":"levelo://app?vid=95a8015d-7586-4a7c-b321-bbf4c1859e4a","ios":"levelo://app?vid=95a8015d-7586-4a7c-b321-bbf4c1859e4a"},"vehicle_type_id":"4","last_reported":1761315048,"current_range_meters":6400,"station_id":"ce4bh092rcd13ifvqd20","pricing_plan_id":"cebpf4jnsgd1na2vs0mg"},{"bike_id":"ad9a8166-85b3-49b6-88c7-1c6bdf69b632","system_id":"levelo_inurba_marseille","lat":43.311107,"lon":5.377624,"is_reserved":false,"is_disabled":false,"rental_uris":{"android":"levelo://app?vid=ad9a8166-85b3-49b6-88c7-1c6bdf69b632","ios":"levelo://app?vid=ad9a8166-85b3-49b6-88c7-1c6bdf69b632"},"vehicle_type_id":"4","last_reported":1761315048,"current_range_meters":6400,"station_id":"","pricing_plan_id":"cebpf4jnsgd1na2vs0mg"},{"bike_id":"c8c0fa58-a519-4343-9887-b0c694f93aef","system_id":"levelo_inurba_marseille","lat":43.288585,"lon":5.425111,"is_reserved":false,"is_disabled":false,"rental_uris":{"android":"levelo://app?vid=c8c0fa58-a519-4343-9887-b0c694f93aef","ios":"levelo://app?vid=c8c0fa58-a519-4343-9887-b0c694f93aef"},"vehicle_type_id":"4","last_reported":1761315048,"current_range_meters":6800,"station_id":"st_d3b462108ojc7389ooeg","pricing_plan_id":"cebpf4jnsgd1na2vs0mg"},{"bike_id":"3167c122-43fa-497a-bf85-d0a6522abe7a","system_id":"levelo_inurba_marseille","lat":43.3277,"lon":5.37521,"is_reserved":false,"is_disabled":false,"rental_uris":{"android":"levelo://app?vid=3167c122-43fa-497a-bf85-d0a6522abe7a","ios":"levelo://app?vid=3167c122-43fa-497a-bf85-d0a6522abe7a"},"vehicle_type_id":"4","last_reported":1761315048,"current_range_meters":6800,"station_id":"","pricing_plan_id":"cebpf4jnsgd1na2vs0mg"},{"bike_id":"0babf299-d4a6-4c17-bd6f-1b97f746ec62","system_id":"levelo_inurba_marseille","lat":43.24997,"lon":5.38938,"is_reserved":false,"is_disabled":false,"rental_uris":{"android":"levelo://app?vid=0babf299-d4a6-4c17-bd6f-1b97f746ec62","ios":"levelo://app?vid=0babf299-d4a6-4c17-bd6f-1b97f746ec62"},"vehicle_type_id":"4","last_reported":1761315048,"current_range_meters":6800,"station_id":"ce4bhgp2rcd13ifvqfd0","pricing_plan_id":"cebpf4jnsgd1na2vs0mg"},{"bike_id":"b45f4c34-1058-4252-bec8-f0c5fd5981eb","system_id":"levelo_inurba_marseille","lat":43.21745,"lon":5.34609,"is_reserved":false,"is_disabled":false,"rental_uris":{"android":"levelo://app?vid=b45f4c34-1058-4252-bec8-f0c5fd5981eb","ios":"levelo://app?vid=b45f4c34-1058-4252-bec8-f0c5fd5981eb"},"vehicle_type_id":"4","last_reported":1761315048,"current_range_meters":6800,"station_id":"st_cvj6r9ubvosntc0bgbag","pricing_plan_id":"cebpf4jnsgd1na2vs0mg"},{"bike_id":"00fd3c6a-780c-49dc-9993-d4de69c9b57a","system_id":"levelo_inurba_marseille","lat":43.31074,"lon":5.37473,"is_reserved":false,"is_disabled":false,"rental_uris":{"android":"levelo://app?vid=00fd3c6a-780c-49dc-9993-d4de69c9b57a","ios":"levelo://app?vid=00fd3c6a-780c-49dc-9993-d4de69c9b57a"},"vehicle_type_id":"4","last_reported":1761315048,"current_range_meters":6800,"station_id":"","pricing_plan_id":"cebpf4jnsgd1na2vs0mg"},{"bike_id":"0ee232d4-7195-40d5-952b-c553c4ff0627","system_id":"levelo_inurba_marseille","lat":43.30325,"lon":5.40435,"is_reserved":false,"is_disabled":false,"rental_uris":{"android":"levelo://app?vid=0ee232d4-7195-40d5-952b-c553c4ff0627","ios":"levelo://app?vid=0ee232d4-7195-40d5-952b-c553c4ff0627"},"vehicle_type_id":"4","last_reported":1761315048,"current_range_meters":6800,"station_id":"ce4bh012rcd13ifvqd10","pricing_plan_id":"cebpf4jnsgd1na2vs0mg"},{"bike_id":"79ae743b-d4eb-40c2-ab1c-b050ad483341","system_id":"levelo_inurba_marseille","lat":43.30461,"lon":5.379,"is_reserved":false,"is_disabled":false,"rental_uris":{"android":"levelo://app?vid=79ae743b-d4eb-40c2-ab1c-b050ad483341","ios":"levelo://app?vid=79ae743b-d4eb-40c2-ab1c-b050ad483341"},"vehicle_type_id":"4","last_reported":1761315048,"current_range_meters":6800,"station_id":"ce4bgup2rcd13ifvqcn0","pricing_plan_id":"cebpf4jnsgd1na2vs0mg"},{"bike_id":"27534f8c-d1e5-4007-aa4e-4f13bee06875","system_id":"levelo_inurba_marseille","lat":43.30591,"lon":5.37183,"is_reserved":false,"is_disabled":false,"rental_uris":{"android":"levelo://app?vid=27534f8c-d1e5-4007-aa4e-4f13bee06875","ios":"levelo://app?vid=27534f8c-d1e5-4007-aa4e-4f13bee06875"},"vehicle_type_id":"4","last_reported":1761315048,"current_range_meters":6800,"station_id":"ce4bgqh2rcd13ifvqc4g","pricing_plan_id":"cebpf4jnsgd1na2vs0mg"},{"bike_id":"b8a2deb9-1b19-43df-89bb-4a422b18f660","system_id":"levelo_inurba_marseille","lat":43.29969,"lon":5.38493,"is_reserved":false,"is_disabled":false,"rental_uris":{"android":"levelo://app?vid=b8a2deb9-1b19-43df-89bb-4a422b18f660","ios":"levelo://app?vid=b8a2deb9-1b19-43df-89bb-4a422b18f660"},"vehicle_type_id":"4","last_reported":1761315048,"current_range_meters":7200,"station_id":"ce4bgj92rcd13ifvqbd0","pricing_plan_id":"cebpf4jnsgd1na2vs0mg"},{"bike_id":"87a6e97b-3aea-4cb4-bbdd-6608c36fd83b","system_id":"levelo_inurba_marseille","lat":43.282,"lon":5.39062,"is_reserved":false,"is_disabled":false,"rental_uris":{"android":"levelo://app?vid=87a6e97b-3aea-4cb4-bbdd-6608c36fd83b","ios":"levelo://app?vid=87a6e97b-3aea-4cb4-bbdd-6608c36fd83b"},"vehicle_type_id":"4","last_reported":1761315048,"current_range_meters":7200,"station_id":"ce4bhn92rcd13ifvqgsg","pricing_plan_id":"cebpf4jnsgd1na2vs0mg"},{"bike_id":"402288a5-99bb-4da6-b59f-a4a2adea9ceb","system_id":"levelo_inurba_marseille","lat":43.28212,"lon":5.39145,"is_reserved":false,"is_disabled":false,"rental_uris":{"android":"levelo://app?vid=402288a5-99bb-4da6-b59f-a4a2adea9ceb","ios":"levelo://app?vid=402288a5-99bb-4da6-b59f-a4a2adea9ceb"},"vehicle_type_id":"4","last_reported":1761315048,"current_range_meters":7200,"station_id":"ce4bhn92rcd13ifvqgsg","pricing_plan_id":"cebpf4jnsgd1na2vs0mg"},{"bike_id":"5df3bb81-4916-4427-8cd1-aaca61ad6031","system_id":"levelo_inurba_marseille","lat":43.29631,"lon":5.38117,"is_reserved":false,"is_disabled":false,"rental_uris":{"android":"levelo://app?vid=5df3bb81-4916-4427-8cd1-aaca61ad6031","ios":"levelo://app?vid=5df3bb81-4916-4427-8cd1-aaca61ad6031"},"vehicle_type_id":"4","last_reported":1761315048,"current_range_meters":7200,"station_id":"ce4bgl12rcd13ifvqbo0","pricing_plan_id":"cebpf4jnsgd1na2vs0mg"},{"bike_id":"4fedadea-6ec8-4f8d-80d2-20757628c74e","system_id":"levelo_inurba_marseille","lat":43.29573,"lon":5.36733,"is_reserved":false,"is_disabled":false,"rental_uris":{"android":"levelo://app?vid=4fedadea-6ec8-4f8d-80d2-20757628c74e","ios":"levelo://app?vid=4fedadea-6ec8-4f8d-80d2-20757628c74e"},"vehicle_type_id":"4","last_reported":1761315048,"current_range_meters":8000,"station_id":"ce4bgph2rcd13ifvqc2g","pricing_plan_id":"cebpf4jnsgd1na2vs0mg"},{"bike_id":"df6db0d3-584f-409b-9ce3-c999a2e5b75f","system_id":"levelo_inurba_marseille","lat":43.29373,"lon":5.3784,"is_reserved":false,"is_disabled":false,"rental_uris":{"android":"levelo://app?vid=df6db0d3-584f-409b-9ce3-c999a2e5b75f","ios":"levelo://app?vid=df6db0d3-584f-409b-9ce3-c999a2e5b75f"},"vehicle_type_id":"4","last_reported":1761315048,"current_range_meters":8000,"station_id":"ce4bgjh2rcd13ifvqbf0","pricing_plan_id":"cebpf4jnsgd1na2vs0mg"},{"bike_id":"0523451d-b11c-4b79-b023-f0eb143c3b3e","system_id":"levelo_inurba_marseille","lat":43.23178,"lon":5.39993,"is_reserved":false,"is_disabled":true,"rental_uris":{"android":"levelo://app?vid=0523451d-b11c-4b79-b023-f0eb143c3b3e","ios":"levelo://app?vid=0523451d-b11c-4b79-b023-f0eb143c3b3e"},"vehicle_type_id":"4","last_reported":1761315048,"current_range_meters":8000,"station_id":"ce4bhn12rcd13ifvqgqg","pricing_plan_id":"cebpf4jnsgd1na2vs0mg"},{"bike_id":"c4d38583-ed82-4084-b95a-13d1d86c2b43","system_id":"levelo_inurba_marseille","lat":43.27059,"lon":5.38318,"is_reserved":false,"is_disabled":false,"rental_uris":{"android":"levelo://app?vid=c4d38583-ed82-4084-b95a-13d1d86c2b43","ios":"levelo://app?vid=c4d38583-ed82-4084-b95a-13d1d86c2b43"},"vehicle_type_id":"4","last_reported":1761315048,"current_range_meters":8000,"station_id":"st_d3n2fo6cfp8s73cte1j0","pricing_plan_id":"cebpf4jnsgd1na2vs0mg"},{"bike_id":"41b3dd98-e453-4d48-a06c-0c3a46acfdc9","system_id":"levelo_inurba_marseille","lat":43.30788,"lon":5.37649,"is_reserved":false,"is_disabled":false,"rental_uris":{"android":"levelo://app?vid=41b3dd98-e453-4d48-a06c-0c3a46acfdc9","ios":"levelo://app?vid=41b3dd98-e453-4d48-a06c-0c3a46acfdc9"},"vehicle_type_id":"4","last_reported":1761315048,"current_range_meters":8000,"station_id":"ce4bgv92rcd13ifvqcq0","pricing_plan_id":"cebpf4jnsgd1na2vs0mg"},{"bike_id":"32e7919e-26d8-4f7d-b229-086147816fa4","system_id":"levelo_inurba_marseille","lat":43.301286,"lon":5.38775,"is_reserved":false,"is_disabled":false,"rental_uris":{"android":"levelo://app?vid=32e7919e-26d8-4f7d-b229-086147816fa4","ios":"levelo://app?vid=32e7919e-26d8-4f7d-b229-086147816fa4"},"vehicle_type_id":"4","last_reported":1761315048,"current_range_meters":8000,"station_id":"","pricing_plan_id":"cebpf4jnsgd1na2vs0mg"},{"bike_id":"966e10e0-1097-4ec5-aea3-f73c6e4f6213","system_id":"levelo_inurba_marseille","lat":43.285448,"lon":5.440846,"is_reserved":false,"is_disabled":false,"rental_uris":{"android":"levelo://app?vid=966e10e0-1097-4ec5-aea3-f73c6e4f6213","ios":"levelo://app?vid=966e10e0-1097-4ec5-aea3-f73c6e4f6213"},"vehicle_type_id":"4","last_reported":1761315048,"current_range_meters":8000,"station_id":"st_d3j3df2ikq2c7380ej80","pricing_plan_id":"cebpf4jnsgd1na2vs0mg"},{"bike_id":"4ed3b114-b64e-48ac-827a-8252b932afb1","system_id":"levelo_inurba_marseille","lat":43.28917,"lon":5.38402,"is_reserved":false,"is_disabled":false,"rental_uris":{"android":"levelo://app?vid=4ed3b114-b64e-48ac-827a-8252b932afb1","ios":"levelo://app?vid=4ed3b114-b64e-48ac-827a-8252b932afb1"},"vehicle_type_id":"4","last_reported":1761315048,"current_range_meters":8400,"station_id":"ce4bh612rcd13ifvqe6g","pricing_plan_id":"cebpf4jnsgd1na2vs0mg"},{"bike_id":"ec9665a2-32ab-42b2-9bdf-cf94d158a9c2","system_id":"levelo_inurba_marseille","lat":43.3012,"lon":5.37086,"is_reserved":false,"is_disabled":false,"rental_uris":{"android":"levelo://app?vid=ec9665a2-32ab-42b2-9bdf-cf94d158a9c2","ios":"levelo://app?vid=ec9665a2-32ab-42b2-9bdf-cf94d158a9c2"},"vehicle_type_id":"4","last_reported":1761315048,"current_range_meters":8400,"station_id":"","pricing_plan_id":"cebpf4jnsgd1na2vs0mg"},{"bike_id":"36a059e7-ba71-4c14-9f26-da7514368da3","system_id":"levelo_inurba_marseille","lat":43.30953,"lon":5.39031,"is_reserved":false,"is_disabled":false,"rental_uris":{"android":"levelo://app?vid=36a059e7-ba71-4c14-9f26-da7514368da3","ios":"levelo://app?vid=36a059e7-ba71-4c14-9f26-da7514368da3"},"vehicle_type_id":"4","last_reported":1761315048,"current_range_meters":8400,"station_id":"ce4bgup2rcd13ifvqco0","pricing_plan_id":"cebpf4jnsgd1na2vs0mg"},{"bike_id":"fdb43238-b4b9-4b05-bb1f-d411386e43a3","system_id":"levelo_inurba_marseille","lat":43.3014,"lon":5.38073,"is_reserved":false,"is_disabled":false,"rental_uris":{"android":"levelo://app?vid=fdb43238-b4b9-4b05-bb1f-d411386e43a3","ios":"levelo://app?vid=fdb43238-b4b9-4b05-bb1f-d411386e43a3"},"vehicle_type_id":"4","last_reported":1761315048,"current_range_meters":8400,"station_id":"ce4bgjp2rcd13ifvqbh0","pricing_plan_id":"cebpf4jnsgd1na2vs0mg"},{"bike_id":"b21bc3fc-ec59-448e-bf15-43a535cefcfd","system_id":"levelo_inurba_marseille","lat":43.30457,"lon":5.37901,"is_reserved":false,"is_disabled":false,"rental_uris":{"android":"levelo://app?vid=b21bc3fc-ec59-448e-bf15-43a535cefcfd","ios":"levelo://app?vid=b21bc3fc-ec59-448e-bf15-43a535cefcfd"},"vehicle_type_id":"4","last_reported":1761315048,"current_range_meters":8400,"station_id":"ce4bgup2rcd13ifvqcn0","pricing_plan_id":"cebpf4jnsgd1na2vs0mg"},{"bike_id":"40930783-3cc7-4b63-ac94-27149beb5057","system_id":"levelo_inurba_marseille","lat":43.27627,"lon":5.36106,"is_reserved":false,"is_disabled":false,"rental_uris":{"android":"levelo://app?vid=40930783-3cc7-4b63-ac94-27149beb5057","ios":"levelo://app?vid=40930783-3cc7-4b63-ac94-27149beb5057"},"vehicle_type_id":"4","last_reported":1761315048,"current_range_meters":8400,"station_id":"ce4bgj92rcd13ifvqbe0","pricing_plan_id":"cebpf4jnsgd1na2vs0mg"},{"bike_id":"e96035ce-3f75-42c7-bc07-32e4ba0bd41a","system_id":"levelo_inurba_marseille","lat":43.30482,"lon":5.36932,"is_reserved":false,"is_disabled":false,"rental_uris":{"android":"levelo://app?vid=e96035ce-3f75-42c7-bc07-32e4ba0bd41a","ios":"levelo://app?vid=e96035ce-3f75-42c7-bc07-32e4ba0bd41a"},"vehicle_type_id":"4","last_reported":1761315048,"current_range_meters":8800,"station_id":"","pricing_plan_id":"cebpf4jnsgd1na2vs0mg"},{"bike_id":"fcd85f07-fc88-4b7c-8904-4d2b88ef7078","system_id":"levelo_inurba_marseille","lat":43.290108,"lon":5.356175,"is_reserved":false,"is_disabled":false,"rental_uris":{"android":"levelo://app?vid=fcd85f07-fc88-4b7c-8904-4d2b88ef7078","ios":"levelo://app?vid=fcd85f07-fc88-4b7c-8904-4d2b88ef7078"},"vehicle_type_id":"4","last_reported":1761315048,"current_range_meters":8800,"station_id":"","pricing_plan_id":"cebpf4jnsgd1na2vs0mg"},{"bike_id":"7e746424-0001-4ada-be6f-561c65f919e2","system_id":"levelo_inurba_marseille","lat":43.31487,"lon":5.373095,"is_reserved":false,"is_disabled":false,"rental_uris":{"android":"levelo://app?vid=7e746424-0001-4ada-be6f-561c65f919e2","ios":"levelo://app?vid=7e746424-0001-4ada-be6f-561c65f919e2"},"vehicle_type_id":"4","last_reported":1761315048,"current_range_meters":8800,"station_id":"ce4bgt12rcd13ifvqcd0","pricing_plan_id":"cebpf4jnsgd1na2vs0mg"},{"bike_id":"7db426b1-b8be-4992-97f3-aeab5f48a0d2","system_id":"levelo_inurba_marseille","lat":43.29256,"lon":5.38431,"is_reserved":false,"is_disabled":false,"rental_uris":{"android":"levelo://app?vid=7db426b1-b8be-4992-97f3-aeab5f48a0d2","ios":"levelo://app?vid=7db426b1-b8be-4992-97f3-aeab5f48a0d2"},"vehicle_type_id":"4","last_reported":1761315048,"current_range_meters":9200,"station_id":"ce4bh692rcd13ifvqea0","pricing_plan_id":"cebpf4jnsgd1na2vs0mg"},{"bike_id":"b66e6a48-fb7b-4af3-ba75-060425a6549a","system_id":"levelo_inurba_marseille","lat":43.316759,"lon":5.375798,"is_reserved":false,"is_disabled":false,"rental_uris":{"android":"levelo://app?vid=b66e6a48-fb7b-4af3-ba75-060425a6549a","ios":"levelo://app?vid=b66e6a48-fb7b-4af3-ba75-060425a6549a"},"vehicle_type_id":"4","last_reported":1761315048,"current_range_meters":9200,"station_id":"ce4bgth2rcd13ifvqch0","pricing_plan_id":"cebpf4jnsgd1na2vs0mg"},{"bike_id":"b3222ad7-f4f9-4a16-bda6-8c25b641bad0","system_id":"levelo_inurba_marseille","lat":43.31533,"lon":5.38041,"is_reserved":false,"is_disabled":false,"rental_uris":{"android":"levelo://app?vid=b3222ad7-f4f9-4a16-bda6-8c25b641bad0","ios":"levelo://app?vid=b3222ad7-f4f9-4a16-bda6-8c25b641bad0"},"vehicle_type_id":"4","last_reported":1761315048,"current_range_meters":9200,"station_id":"ce4bhsp2rcd13ifvqi50","pricing_plan_id":"cebpf4jnsgd1na2vs0mg"},{"bike_id":"4bf2bcf2-1f28-45b0-8dd7-afa7fa72f466","system_id":"levelo_inurba_marseille","lat":43.255901,"lon":5.382434,"is_reserved":false,"is_disabled":false,"rental_uris":{"android":"levelo://app?vid=4bf2bcf2-1f28-45b0-8dd7-afa7fa72f466","ios":"levelo://app?vid=4bf2bcf2-1f28-45b0-8dd7-afa7fa72f466"},"vehicle_type_id":"4","last_reported":1761315048,"current_range_meters":9200,"station_id":"ce4bhih2rcd13ifvqfs0","pricing_plan_id":"cebpf4jnsgd1na2vs0mg"},{"bike_id":"662286fa-d633-4bf5-9ea9-1597c8724cfd","system_id":"levelo_inurba_marseille","lat":43.28408,"lon":5.37512,"is_reserved":false,"is_disabled":false,"rental_uris":{"android":"levelo://app?vid=662286fa-d633-4bf5-9ea9-1597c8724cfd","ios":"levelo://app?vid=662286fa-d633-4bf5-9ea9-1597c8724cfd"},"vehicle_type_id":"4","last_reported":1761315048,"current_range_meters":9200,"station_id":"ce4bh412rcd13ifvqds0","pricing_plan_id":"cebpf4jnsgd1na2vs0mg"},{"bike_id":"323bf2de-3bb4-4b4c-b330-b19ea807dbf5","system_id":"levelo_inurba_marseille","lat":43.32996,"lon":5.42947,"is_reserved":false,"is_disabled":false,"rental_uris":{"android":"levelo://app?vid=323bf2de-3bb4-4b4c-b330-b19ea807dbf5","ios":"levelo://app?vid=323bf2de-3bb4-4b4c-b330-b19ea807dbf5"},"vehicle_type_id":"4","last_reported":1761315048,"current_range_meters":9200,"station_id":"","pricing_plan_id":"cebpf4jnsgd1na2vs0mg"},{"bike_id":"8b2daad0-e68b-456b-b2f5-b7776fc10df8","system_id":"levelo_inurba_marseille","lat":43.28558,"lon":5.39499,"is_reserved":false,"is_disabled":false,"rental_uris":{"android":"levelo://app?vid=8b2daad0-e68b-456b-b2f5-b7776fc10df8","ios":"levelo://app?vid=8b2daad0-e68b-456b-b2f5-b7776fc10df8"},"vehicle_type_id":"4","last_reported":1761315048,"current_range_meters":9600,"station_id":"ce4bh292rcd13ifvqdg0","pricing_plan_id":"cebpf4jnsgd1na2vs0mg"},{"bike_id":"3a1f18b7-8257-4d71-a16b-3c987d83f592","system_id":"levelo_inurba_marseille","lat":43.21756,"lon":5.34596,"is_reserved":false,"is_disabled":false,"rental_uris":{"android":"levelo://app?vid=3a1f18b7-8257-4d71-a16b-3c987d83f592","ios":"levelo://app?vid=3a1f18b7-8257-4d71-a16b-3c987d83f592"},"vehicle_type_id":"4","last_reported":1761315048,"current_range_meters":9600,"station_id":"","pricing_plan_id":"cebpf4jnsgd1na2vs0mg"},{"bike_id":"f0c4b1c0-e79e-4d33-acd2-a3d09cd69b5f","system_id":"levelo_inurba_marseille","lat":43.30441,"lon":5.38886,"is_reserved":false,"is_disabled":false,"rental_uris":{"android":"levelo://app?vid=f0c4b1c0-e79e-4d33-acd2-a3d09cd69b5f","ios":"levelo://app?vid=f0c4b1c0-e79e-4d33-acd2-a3d09cd69b5f"},"vehicle_type_id":"4","last_reported":1761315048,"current_range_meters":9600,"station_id":"ce4bgk12rcd13ifvqbi0","pricing_plan_id":"cebpf4jnsgd1na2vs0mg"},{"bike_id":"3e4783b6-28d8-4737-a4ef-6a1b0da02476","system_id":"levelo_inurba_marseille","lat":43.294403,"lon":5.4073,"is_reserved":false,"is_disabled":false,"rental_uris":{"android":"levelo://app?vid=3e4783b6-28d8-4737-a4ef-6a1b0da02476","ios":"levelo://app?vid=3e4783b6-28d8-4737-a4ef-6a1b0da02476"},"vehicle_type_id":"4","last_reported":1761315048,"current_range_meters":9600,"station_id":"","pricing_plan_id":"cebpf4jnsgd1na2vs0mg"},{"bike_id":"614b7047-43f8-4a24-a654-5cc72ec05741","system_id":"levelo_inurba_marseille","lat":43.26563,"lon":5.38979,"is_reserved":false,"is_disabled":false,"rental_uris":{"android":"levelo://app?vid=614b7047-43f8-4a24-a654-5cc72ec05741","ios":"levelo://app?vid=614b7047-43f8-4a24-a654-5cc72ec05741"},"vehicle_type_id":"4","last_reported":1761315048,"current_range_meters":9600,"station_id":"ce4bhe12rcd13ifvqf30","pricing_plan_id":"cebpf4jnsgd1na2vs0mg"},{"bike_id":"18df7d7e-5c22-4e8f-8de7-2f9e21f3521d","system_id":"levelo_inurba_marseille","lat":43.29596,"lon":5.39602,"is_reserved":false,"is_disabled":false,"rental_uris":{"android":"levelo://app?vid=18df7d7e-5c22-4e8f-8de7-2f9e21f3521d","ios":"levelo://app?vid=18df7d7e-5c22-4e8f-8de7-2f9e21f3521d"},"vehicle_type_id":"4","last_reported":1761315048,"current_range_meters":9600,"station_id":"","pricing_plan_id":"cebpf4jnsgd1na2vs0mg"},{"bike_id":"99c781ab-e199-4736-9444-53bc84596a42","system_id":"levelo_inurba_marseille","lat":43.28023,"lon":5.36941,"is_reserved":false,"is_disabled":false,"rental_uris":{"android":"levelo://app?vid=99c781ab-e199-4736-9444-53bc84596a42","ios":"levelo://app?vid=99c781ab-e199-4736-9444-53bc84596a42"},"vehicle_type_id":"4","last_reported":1761315048,"current_range_meters":10000,"station_id":"ce4bha12rcd13ifvqef0","pricing_plan_id":"cebpf4jnsgd1na2vs0mg"},{"bike_id":"316c843e-0abd-49e3-b3e9-3f61b02a5647","system_id":"levelo_inurba_marseille","lat":43.288636,"lon":5.425185,"is_reserved":false,"is_disabled":false,"rental_uris":{"android":"levelo://app?vid=316c843e-0abd-49e3-b3e9-3f61b02a5647","ios":"levelo://app?vid=316c843e-0abd-49e3-b3e9-3f61b02a5647"},"vehicle_type_id":"4","last_reported":1761315048,"current_range_meters":10000,"station_id":"st_d3b462108ojc7389ooeg","pricing_plan_id":"cebpf4jnsgd1na2vs0mg"},{"bike_id":"f0764640-ec1d-486f-9e1c-59043e66eb76","system_id":"levelo_inurba_marseille","lat":43.21352,"lon":5.34978,"is_reserved":false,"is_disabled":false,"rental_uris":{"android":"levelo://app?vid=f0764640-ec1d-486f-9e1c-59043e66eb76","ios":"levelo://app?vid=f0764640-ec1d-486f-9e1c-59043e66eb76"},"vehicle_type_id":"4","last_reported":1761315048,"current_range_meters":10000,"station_id":"","pricing_plan_id":"cebpf4jnsgd1na2vs0mg"},{"bike_id":"bf52d227-e2e6-4e46-bfde-44cbb96d7d45","system_id":"levelo_inurba_marseille","lat":43.21177,"lon":5.35065,"is_reserved":false,"is_disabled":false,"rental_uris":{"android":"levelo://app?vid=bf52d227-e2e6-4e46-bfde-44cbb96d7d45","ios":"levelo://app?vid=bf52d227-e2e6-4e46-bfde-44cbb96d7d45"},"vehicle_type_id":"4","last_reported":1761315048,"current_range_meters":10000,"station_id":"st_cvj6sg6p6f1abm77japg","pricing_plan_id":"cebpf4jnsgd1na2vs0mg"},{"bike_id":"15073330-60f1-48a0-9685-40bd06750126","system_id":"levelo_inurba_marseille","lat":43.21747,"lon":5.34607,"is_reserved":false,"is_disabled":false,"rental_uris":{"android":"levelo://app?vid=15073330-60f1-48a0-9685-40bd06750126","ios":"levelo://app?vid=15073330-60f1-48a0-9685-40bd06750126"},"vehicle_type_id":"4","last_reported":1761315048,"current_range_meters":10000,"station_id":"st_cvj6r9ubvosntc0bgbag","pricing_plan_id":"cebpf4jnsgd1na2vs0mg"},{"bike_id":"b4209442-64fa-4803-8abf-f43551864405","system_id":"levelo_inurba_marseille","lat":43.269555,"lon":5.386355,"is_reserved":false,"is_disabled":false,"rental_uris":{"android":"levelo://app?vid=b4209442-64fa-4803-8abf-f43551864405","ios":"levelo://app?vid=b4209442-64fa-4803-8abf-f43551864405"},"vehicle_type_id":"4","last_reported":1761315048,"current_range_meters":10000,"station_id":"ce4bhh92rcd13ifvqfh0","pricing_plan_id":"cebpf4jnsgd1na2vs0mg"},{"bike_id":"c33a32a2-9840-4dc8-9eaf-c16c69236cd0","system_id":"levelo_inurba_marseille","lat":43.30324,"lon":5.40428,"is_reserved":false,"is_disabled":false,"rental_uris":{"android":"levelo://app?vid=c33a32a2-9840-4dc8-9eaf-c16c69236cd0","ios":"levelo://app?vid=c33a32a2-9840-4dc8-9eaf-c16c69236cd0"},"vehicle_type_id":"4","last_reported":1761315048,"current_range_meters":10000,"station_id":"ce4bh012rcd13ifvqd10","pricing_plan_id":"cebpf4jnsgd1na2vs0mg"},{"bike_id":"bff684fe-8304-415f-b957-057b2990478a","system_id":"levelo_inurba_marseille","lat":43.24666,"lon":5.38168,"is_reserved":false,"is_disabled":false,"rental_uris":{"android":"levelo://app?vid=bff684fe-8304-415f-b957-057b2990478a","ios":"levelo://app?vid=bff684fe-8304-415f-b957-057b2990478a"},"vehicle_type_id":"4","last_reported":1761315048,"current_range_meters":10800,"station_id":"ce4bhih2rcd13ifvqfr0","pricing_plan_id":"cebpf4jnsgd1na2vs0mg"},{"bike_id":"b917fa65-03c1-4cfc-b575-6321018f26c0","system_id":"levelo_inurba_marseille","lat":43.25582,"lon":5.38235,"is_reserved":false,"is_disabled":false,"rental_uris":{"android":"levelo://app?vid=b917fa65-03c1-4cfc-b575-6321018f26c0","ios":"levelo://app?vid=b917fa65-03c1-4cfc-b575-6321018f26c0"},"vehicle_type_id":"4","last_reported":1761315048,"current_range_meters":10800,"station_id":"ce4bhih2rcd13ifvqfs0","pricing_plan_id":"cebpf4jnsgd1na2vs0mg"},{"bike_id":"d10b22fa-7672-4128-97f0-5cbf4295b17c","system_id":"levelo_inurba_marseille","lat":43.29354,"lon":5.39335,"is_reserved":false,"is_disabled":false,"rental_uris":{"android":"levelo://app?vid=d10b22fa-7672-4128-97f0-5cbf4295b17c","ios":"levelo://app?vid=d10b22fa-7672-4128-97f0-5cbf4295b17c"},"vehicle_type_id":"4","last_reported":1761315048,"current_range_meters":10800,"station_id":"","pricing_plan_id":"cebpf4jnsgd1na2vs0mg"},{"bike_id":"33908946-3b38-418d-84ea-3438b8c7a726","system_id":"levelo_inurba_marseille","lat":43.26206,"lon":5.37434,"is_reserved":false,"is_disabled":false,"rental_uris":{"android":"levelo://app?vid=33908946-3b38-418d-84ea-3438b8c7a726","ios":"levelo://app?vid=33908946-3b38-418d-84ea-3438b8c7a726"},"vehicle_type_id":"4","last_reported":1761315048,"current_range_meters":10800,"station_id":"ce4bhgp2rcd13ifvqfc0","pricing_plan_id":"cebpf4jnsgd1na2vs0mg"},{"bike_id":"8bcacd78-80de-4026-af75-b37ebe3030fe","system_id":"levelo_inurba_marseille","lat":43.334756,"lon":5.404255,"is_reserved":false,"is_disabled":false,"rental_uris":{"android":"levelo://app?vid=8bcacd78-80de-4026-af75-b37ebe3030fe","ios":"levelo://app?vid=8bcacd78-80de-4026-af75-b37ebe3030fe"},"vehicle_type_id":"4","last_reported":1761315048,"current_range_meters":10800,"station_id":"","pricing_plan_id":"cebpf4jnsgd1na2vs0mg"},{"bike_id":"09934a54-2150-48eb-909d-76a28c7a939a","system_id":"levelo_inurba_marseille","lat":43.28263,"lon":5.35072,"is_reserved":false,"is_disabled":false,"rental_uris":{"android":"levelo://app?vid=09934a54-2150-48eb-909d-76a28c7a939a","ios":"levelo://app?vid=09934a54-2150-48eb-909d-76a28c7a939a"},"vehicle_type_id":"4","last_reported":1761315048,"current_range_meters":10800,"station_id":"ce4bhbp2rcd13ifvqerg","pricing_plan_id":"cebpf4jnsgd1na2vs0mg"},{"bike_id":"9881c788-42a8-46f5-8ccc-580a73583155","system_id":"levelo_inurba_marseille","lat":43.32074,"lon":5.40933,"is_reserved":false,"is_disabled":true,"rental_uris":{"android":"levelo://app?vid=9881c788-42a8-46f5-8ccc-580a73583155","ios":"levelo://app?vid=9881c788-42a8-46f5-8ccc-580a73583155"},"vehicle_type_id":"4","last_reported":1761315048,"current_range_meters":10800,"station_id":"","pricing_plan_id":"cebpf4jnsgd1na2vs0mg"},{"bike_id":"c9bee83d-53eb-40e2-a0bf-6dd3b17d0c37","system_id":"levelo_inurba_marseille","lat":43.25822,"lon":5.39441,"is_reserved":false,"is_disabled":false,"rental_uris":{"android":"levelo://app?vid=c9bee83d-53eb-40e2-a0bf-6dd3b17d0c37","ios":"levelo://app?vid=c9bee83d-53eb-40e2-a0bf-6dd3b17d0c37"},"vehicle_type_id":"4","last_reported":1761315048,"current_range_meters":10800,"station_id":"ce4bhip2rcd13ifvqft0","pricing_plan_id":"cebpf4jnsgd1na2vs0mg"},{"bike_id":"b9764ed2-f91a-421e-b54e-d7527bd8af22","system_id":"levelo_inurba_marseille","lat":43.29811,"lon":5.36588,"is_reserved":false,"is_disabled":false,"rental_uris":{"android":"levelo://app?vid=b9764ed2-f91a-421e-b54e-d7527bd8af22","ios":"levelo://app?vid=b9764ed2-f91a-421e-b54e-d7527bd8af22"},"vehicle_type_id":"4","last_reported":1761315048,"current_range_meters":11200,"station_id":"","pricing_plan_id":"cebpf4jnsgd1na2vs0mg"},{"bike_id":"7b584194-ee03-4a8f-b25f-0d195f62e513","system_id":"levelo_inurba_marseille","lat":43.295289,"lon":5.385403,"is_reserved":false,"is_disabled":false,"rental_uris":{"android":"levelo://app?vid=7b584194-ee03-4a8f-b25f-0d195f62e513","ios":"levelo://app?vid=7b584194-ee03-4a8f-b25f-0d195f62e513"},"vehicle_type_id":"4","last_reported":1761315048,"current_range_meters":11200,"station_id":"ce4bgih2rcd13ifvqba0","pricing_plan_id":"cebpf4jnsgd1na2vs0mg"},{"bike_id":"c12a786b-d447-4373-876a-58fc20f19148","system_id":"levelo_inurba_marseille","lat":43.298995,"lon":5.436653,"is_reserved":false,"is_disabled":false,"rental_uris":{"android":"levelo://app?vid=c12a786b-d447-4373-876a-58fc20f19148","ios":"levelo://app?vid=c12a786b-d447-4373-876a-58fc20f19148"},"vehicle_type_id":"4","last_reported":1761315048,"current_range_meters":11200,"station_id":"ce4bhpp2rcd13ifvqhfg","pricing_plan_id":"cebpf4jnsgd1na2vs0mg"},{"bike_id":"2842f5fd-7b05-4b47-909c-5ee54d7d3bc5","system_id":"levelo_inurba_marseille","lat":43.32447,"lon":5.42813,"is_reserved":false,"is_disabled":false,"rental_uris":{"android":"levelo://app?vid=2842f5fd-7b05-4b47-909c-5ee54d7d3bc5","ios":"levelo://app?vid=2842f5fd-7b05-4b47-909c-5ee54d7d3bc5"},"vehicle_type_id":"4","last_reported":1761315048,"current_range_meters":11200,"station_id":"","pricing_plan_id":"cebpf4jnsgd1na2vs0mg"},{"bike_id":"50b0c9b6-0cb9-403d-976b-647e28f0c33f","system_id":"levelo_inurba_marseille","lat":43.31993,"lon":5.38168,"is_reserved":false,"is_disabled":false,"rental_uris":{"android":"levelo://app?vid=50b0c9b6-0cb9-403d-976b-647e28f0c33f","ios":"levelo://app?vid=50b0c9b6-0cb9-403d-976b-647e28f0c33f"},"vehicle_type_id":"4","last_reported":1761315048,"current_range_meters":11200,"station_id":"ce4bhr12rcd13ifvqhpg","pricing_plan_id":"cebpf4jnsgd1na2vs0mg"},{"bike_id":"fff3411e-0a0c-4844-8501-f02edfed20f6","system_id":"levelo_inurba_marseille","lat":43.22558,"lon":5.41626,"is_reserved":false,"is_disabled":false,"rental_uris":{"android":"levelo://app?vid=fff3411e-0a0c-4844-8501-f02edfed20f6","ios":"levelo://app?vid=fff3411e-0a0c-4844-8501-f02edfed20f6"},"vehicle_type_id":"4","last_reported":1761315048,"current_range_meters":11200,"station_id":"st_d2o4gvlbi1j2169b742g","pricing_plan_id":"cebpf4jnsgd1na2vs0mg"},{"bike_id":"d3cd6432-7c9e-457b-8cb5-53cf95916f4e","system_id":"levelo_inurba_marseille","lat":43.241613,"lon":5.364054,"is_reserved":false,"is_disabled":false,"rental_uris":{"android":"levelo://app?vid=d3cd6432-7c9e-457b-8cb5-53cf95916f4e","ios":"levelo://app?vid=d3cd6432-7c9e-457b-8cb5-53cf95916f4e"},"vehicle_type_id":"4","last_reported":1761315048,"current_range_meters":11200,"station_id":"ce4bhb12rcd13ifvqel0","pricing_plan_id":"cebpf4jnsgd1na2vs0mg"},{"bike_id":"8421f185-60cf-461b-bce0-341077c7e122","system_id":"levelo_inurba_marseille","lat":43.273632,"lon":5.36236,"is_reserved":false,"is_disabled":false,"rental_uris":{"android":"levelo://app?vid=8421f185-60cf-461b-bce0-341077c7e122","ios":"levelo://app?vid=8421f185-60cf-461b-bce0-341077c7e122"},"vehicle_type_id":"4","last_reported":1761315048,"current_range_meters":11200,"station_id":"ce4bhbh2rcd13ifvqeo0","pricing_plan_id":"cebpf4jnsgd1na2vs0mg"},{"bike_id":"b8132e4e-54c5-4ee2-9476-d2684321070b","system_id":"levelo_inurba_marseille","lat":43.29895,"lon":5.4367,"is_reserved":false,"is_disabled":false,"rental_uris":{"android":"levelo://app?vid=b8132e4e-54c5-4ee2-9476-d2684321070b","ios":"levelo://app?vid=b8132e4e-54c5-4ee2-9476-d2684321070b"},"vehicle_type_id":"4","last_reported":1761315048,"current_range_meters":11200,"station_id":"ce4bhpp2rcd13ifvqhfg","pricing_plan_id":"cebpf4jnsgd1na2vs0mg"},{"bike_id":"41d1e9c8-193a-4e64-a1f0-b7037202749b","system_id":"levelo_inurba_marseille","lat":43.30168,"lon":5.37411,"is_reserved":false,"is_disabled":true,"rental_uris":{"android":"levelo://app?vid=41d1e9c8-193a-4e64-a1f0-b7037202749b","ios":"levelo://app?vid=41d1e9c8-193a-4e64-a1f0-b7037202749b"},"vehicle_type_id":"4","last_reported":1761315048,"current_range_meters":11200,"station_id":"ce4bgs92rcd13ifvqcc0","pricing_plan_id":"cebpf4jnsgd1na2vs0mg"},{"bike_id":"9da43aef-628b-42b2-b7e3-103b8076338b","system_id":"levelo_inurba_marseille","lat":43.23143,"lon":5.43728,"is_reserved":false,"is_disabled":false,"rental_uris":{"android":"levelo://app?vid=9da43aef-628b-42b2-b7e3-103b8076338b","ios":"levelo://app?vid=9da43aef-628b-42b2-b7e3-103b8076338b"},"vehicle_type_id":"4","last_reported":1761315048,"current_range_meters":11600,"station_id":"ce4bhmp2rcd13ifvqgog","pricing_plan_id":"cebpf4jnsgd1na2vs0mg"},{"bike_id":"d36e0f51-73f7-490e-9780-52741df6b759","system_id":"levelo_inurba_marseille","lat":43.31482,"lon":5.37304,"is_reserved":false,"is_disabled":false,"rental_uris":{"android":"levelo://app?vid=d36e0f51-73f7-490e-9780-52741df6b759","ios":"levelo://app?vid=d36e0f51-73f7-490e-9780-52741df6b759"},"vehicle_type_id":"4","last_reported":1761315048,"current_range_meters":11600,"station_id":"ce4bgt12rcd13ifvqcd0","pricing_plan_id":"cebpf4jnsgd1na2vs0mg"},{"bike_id":"de906297-0728-4ecb-acea-e80c58da34ee","system_id":"levelo_inurba_marseille","lat":43.28256,"lon":5.35072,"is_reserved":false,"is_disabled":false,"rental_uris":{"android":"levelo://app?vid=de906297-0728-4ecb-acea-e80c58da34ee","ios":"levelo://app?vid=de906297-0728-4ecb-acea-e80c58da34ee"},"vehicle_type_id":"4","last_reported":1761315048,"current_range_meters":12000,"station_id":"ce4bhbp2rcd13ifvqerg","pricing_plan_id":"cebpf4jnsgd1na2vs0mg"},{"bike_id":"85b50222-f503-4b10-8bd0-505abd1334cb","system_id":"levelo_inurba_marseille","lat":43.211917,"lon":5.35073,"is_reserved":false,"is_disabled":false,"rental_uris":{"android":"levelo://app?vid=85b50222-f503-4b10-8bd0-505abd1334cb","ios":"levelo://app?vid=85b50222-f503-4b10-8bd0-505abd1334cb"},"vehicle_type_id":"4","last_reported":1761315048,"current_range_meters":12000,"station_id":"","pricing_plan_id":"cebpf4jnsgd1na2vs0mg"},{"bike_id":"2454d8cf-14c3-4e51-b238-9408317f02bd","system_id":"levelo_inurba_marseille","lat":43.30402,"lon":5.41287,"is_reserved":false,"is_disabled":false,"rental_uris":{"android":"levelo://app?vid=2454d8cf-14c3-4e51-b238-9408317f02bd","ios":"levelo://app?vid=2454d8cf-14c3-4e51-b238-9408317f02bd"},"vehicle_type_id":"4","last_reported":1761315048,"current_range_meters":12000,"station_id":"ce4bhop2rcd13ifvqh8g","pricing_plan_id":"cebpf4jnsgd1na2vs0mg"},{"bike_id":"a329f7c5-e953-43ea-a061-44f0985b08a0","system_id":"levelo_inurba_marseille","lat":43.30885,"lon":5.39657,"is_reserved":false,"is_disabled":false,"rental_uris":{"android":"levelo://app?vid=a329f7c5-e953-43ea-a061-44f0985b08a0","ios":"levelo://app?vid=a329f7c5-e953-43ea-a061-44f0985b08a0"},"vehicle_type_id":"4","last_reported":1761315048,"current_range_meters":12400,"station_id":"ce4bh012rcd13ifvqcv0","pricing_plan_id":"cebpf4jnsgd1na2vs0mg"},{"bike_id":"49205a8f-4198-4c0b-b7d7-97a9473705ce","system_id":"levelo_inurba_marseille","lat":43.32105,"lon":5.36791,"is_reserved":false,"is_disabled":false,"rental_uris":{"android":"levelo://app?vid=49205a8f-4198-4c0b-b7d7-97a9473705ce","ios":"levelo://app?vid=49205a8f-4198-4c0b-b7d7-97a9473705ce"},"vehicle_type_id":"4","last_reported":1761315048,"current_range_meters":12400,"station_id":"ce4bhrh2rcd13ifvqhug","pricing_plan_id":"cebpf4jnsgd1na2vs0mg"},{"bike_id":"ccb140cc-61af-460c-9c74-9b118e13b00f","system_id":"levelo_inurba_marseille","lat":43.25334,"lon":5.42173,"is_reserved":false,"is_disabled":false,"rental_uris":{"android":"levelo://app?vid=ccb140cc-61af-460c-9c74-9b118e13b00f","ios":"levelo://app?vid=ccb140cc-61af-460c-9c74-9b118e13b00f"},"vehicle_type_id":"4","last_reported":1761315048,"current_range_meters":12800,"station_id":"st_d2m65c5bi1j21697t3ng","pricing_plan_id":"cebpf4jnsgd1na2vs0mg"},{"bike_id":"dce1cf04-9a47-4739-9472-d8266c4271ac","system_id":"levelo_inurba_marseille","lat":43.29969,"lon":5.37173,"is_reserved":false,"is_disabled":false,"rental_uris":{"android":"levelo://app?vid=dce1cf04-9a47-4739-9472-d8266c4271ac","ios":"levelo://app?vid=dce1cf04-9a47-4739-9472-d8266c4271ac"},"vehicle_type_id":"4","last_reported":1761315048,"current_range_meters":12800,"station_id":"ce4bgr92rcd13ifvqc7g","pricing_plan_id":"cebpf4jnsgd1na2vs0mg"},{"bike_id":"2e516aa3-da3f-4cd4-8d7a-1dc8bf5d8ddd","system_id":"levelo_inurba_marseille","lat":43.320949,"lon":5.367602,"is_reserved":false,"is_disabled":false,"rental_uris":{"android":"levelo://app?vid=2e516aa3-da3f-4cd4-8d7a-1dc8bf5d8ddd","ios":"levelo://app?vid=2e516aa3-da3f-4cd4-8d7a-1dc8bf5d8ddd"},"vehicle_type_id":"4","last_reported":1761315048,"current_range_meters":12800,"station_id":"ce4bhrh2rcd13ifvqhug","pricing_plan_id":"cebpf4jnsgd1na2vs0mg"},{"bike_id":"1596b0fa-5b1b-4482-972f-64ae85090bd6","system_id":"levelo_inurba_marseille","lat":43.295962,"lon":5.380989,"is_reserved":false,"is_disabled":false,"rental_uris":{"android":"levelo://app?vid=1596b0fa-5b1b-4482-972f-64ae85090bd6","ios":"levelo://app?vid=1596b0fa-5b1b-4482-972f-64ae85090bd6"},"vehicle_type_id":"4","last_reported":1761315048,"current_range_meters":12800,"station_id":"ce4bgl12rcd13ifvqbo0","pricing_plan_id":"cebpf4jnsgd1na2vs0mg"},{"bike_id":"2e23aa72-a1b4-41bf-83e8-978205fb5ebf","system_id":"levelo_inurba_marseille","lat":43.262374,"lon":5.374709,"is_reserved":false,"is_disabled":false,"rental_uris":{"android":"levelo://app?vid=2e23aa72-a1b4-41bf-83e8-978205fb5ebf","ios":"levelo://app?vid=2e23aa72-a1b4-41bf-83e8-978205fb5ebf"},"vehicle_type_id":"4","last_reported":1761315048,"current_range_meters":12800,"station_id":"ce4bhgp2rcd13ifvqfc0","pricing_plan_id":"cebpf4jnsgd1na2vs0mg"},{"bike_id":"dfc041f6-a962-4c93-8a58-0f138abbf1a2","system_id":"levelo_inurba_marseille","lat":43.2624,"lon":5.40468,"is_reserved":false,"is_disabled":false,"rental_uris":{"android":"levelo://app?vid=dfc041f6-a962-4c93-8a58-0f138abbf1a2","ios":"levelo://app?vid=dfc041f6-a962-4c93-8a58-0f138abbf1a2"},"vehicle_type_id":"4","last_reported":1761315048,"current_range_meters":13600,"station_id":"ce4bhmh2rcd13ifvqgmg","pricing_plan_id":"cebpf4jnsgd1na2vs0mg"},{"bike_id":"6d58375b-2563-4554-a669-ee9cae9a34fe","system_id":"levelo_inurba_marseille","lat":43.301779,"lon":5.366177,"is_reserved":false,"is_disabled":false,"rental_uris":{"android":"levelo://app?vid=6d58375b-2563-4554-a669-ee9cae9a34fe","ios":"levelo://app?vid=6d58375b-2563-4554-a669-ee9cae9a34fe"},"vehicle_type_id":"4","last_reported":1761315048,"current_range_meters":13600,"station_id":"ce4bgrh2rcd13ifvqc8g","pricing_plan_id":"cebpf4jnsgd1na2vs0mg"},{"bike_id":"de4b8ab5-285e-474a-b521-72ccb626a9fe","system_id":"levelo_inurba_marseille","lat":43.32246,"lon":5.38357,"is_reserved":false,"is_disabled":false,"rental_uris":{"android":"levelo://app?vid=de4b8ab5-285e-474a-b521-72ccb626a9fe","ios":"levelo://app?vid=de4b8ab5-285e-474a-b521-72ccb626a9fe"},"vehicle_type_id":"4","last_reported":1761315048,"current_range_meters":13600,"station_id":"ce4bhr12rcd13ifvqhqg","pricing_plan_id":"cebpf4jnsgd1na2vs0mg"},{"bike_id":"f8c755d7-1bb8-4fcd-bb3f-74aeb49951cc","system_id":"levelo_inurba_marseille","lat":43.31373,"lon":5.37901,"is_reserved":false,"is_disabled":false,"rental_uris":{"android":"levelo://app?vid=f8c755d7-1bb8-4fcd-bb3f-74aeb49951cc","ios":"levelo://app?vid=f8c755d7-1bb8-4fcd-bb3f-74aeb49951cc"},"vehicle_type_id":"4","last_reported":1761315048,"current_range_meters":13600,"station_id":"","pricing_plan_id":"cebpf4jnsgd1na2vs0mg"},{"bike_id":"30c20775-7e7c-4dd5-b544-8b63c9979e48","system_id":"levelo_inurba_marseille","lat":43.29216,"lon":5.36052,"is_reserved":false,"is_disabled":false,"rental_uris":{"android":"levelo://app?vid=30c20775-7e7c-4dd5-b544-8b63c9979e48","ios":"levelo://app?vid=30c20775-7e7c-4dd5-b544-8b63c9979e48"},"vehicle_type_id":"4","last_reported":1761315048,"current_range_meters":13600,"station_id":"ce4bhbh2rcd13ifvqeqg","pricing_plan_id":"cebpf4jnsgd1na2vs0mg"},{"bike_id":"7a0a2a64-adfe-4ef6-b546-4c1d012b6d20","system_id":"levelo_inurba_marseille","lat":43.27322,"lon":5.39101,"is_reserved":false,"is_disabled":false,"rental_uris":{"android":"levelo://app?vid=7a0a2a64-adfe-4ef6-b546-4c1d012b6d20","ios":"levelo://app?vid=7a0a2a64-adfe-4ef6-b546-4c1d012b6d20"},"vehicle_type_id":"4","last_reported":1761315048,"current_range_meters":13600,"station_id":"ce4bhgp2rcd13ifvqfe0","pricing_plan_id":"cebpf4jnsgd1na2vs0mg"},{"bike_id":"0c216ec5-2d75-4ee4-a223-b0d23bee74b5","system_id":"levelo_inurba_marseille","lat":43.24637,"lon":5.38908,"is_reserved":false,"is_disabled":false,"rental_uris":{"android":"levelo://app?vid=0c216ec5-2d75-4ee4-a223-b0d23bee74b5","ios":"levelo://app?vid=0c216ec5-2d75-4ee4-a223-b0d23bee74b5"},"vehicle_type_id":"4","last_reported":1761315048,"current_range_meters":13600,"station_id":"ce4bhg12rcd13ifvqf60","pricing_plan_id":"cebpf4jnsgd1na2vs0mg"},{"bike_id":"64d61a35-94c0-4644-ae33-f36ba447effe","system_id":"levelo_inurba_marseille","lat":43.27367,"lon":5.36256,"is_reserved":false,"is_disabled":false,"rental_uris":{"android":"levelo://app?vid=64d61a35-94c0-4644-ae33-f36ba447effe","ios":"levelo://app?vid=64d61a35-94c0-4644-ae33-f36ba447effe"},"vehicle_type_id":"4","last_reported":1761315048,"current_range_meters":13600,"station_id":"ce4bhbh2rcd13ifvqeo0","pricing_plan_id":"cebpf4jnsgd1na2vs0mg"},{"bike_id":"45d3dad1-3ca2-4382-820a-86720c6cabc8","system_id":"levelo_inurba_marseille","lat":43.26813,"lon":5.40212,"is_reserved":false,"is_disabled":false,"rental_uris":{"android":"levelo://app?vid=45d3dad1-3ca2-4382-820a-86720c6cabc8","ios":"levelo://app?vid=45d3dad1-3ca2-4382-820a-86720c6cabc8"},"vehicle_type_id":"4","last_reported":1761315048,"current_range_meters":14000,"station_id":"ce501612rcd8frsf0b60","pricing_plan_id":"cebpf4jnsgd1na2vs0mg"},{"bike_id":"c09ce989-6003-4a77-a45e-3106e4e11f5a","system_id":"levelo_inurba_marseille","lat":43.30537,"lon":5.38425,"is_reserved":false,"is_disabled":false,"rental_uris":{"android":"levelo://app?vid=c09ce989-6003-4a77-a45e-3106e4e11f5a","ios":"levelo://app?vid=c09ce989-6003-4a77-a45e-3106e4e11f5a"},"vehicle_type_id":"4","last_reported":1761315048,"current_range_meters":14000,"station_id":"ce4bgg92rcd13ifvqb30","pricing_plan_id":"cebpf4jnsgd1na2vs0mg"},{"bike_id":"6117d059-a746-4730-8fc1-58c8a2514aa9","system_id":"levelo_inurba_marseille","lat":43.30522,"lon":5.36738,"is_reserved":false,"is_disabled":false,"rental_uris":{"android":"levelo://app?vid=6117d059-a746-4730-8fc1-58c8a2514aa9","ios":"levelo://app?vid=6117d059-a746-4730-8fc1-58c8a2514aa9"},"vehicle_type_id":"4","last_reported":1761315048,"current_range_meters":14400,"station_id":"ce4bgrp2rcd13ifvqc9g","pricing_plan_id":"cebpf4jnsgd1na2vs0mg"},{"bike_id":"68913c84-342a-4ac5-9ffa-ea0a618c0522","system_id":"levelo_inurba_marseille","lat":43.211927,"lon":5.350688,"is_reserved":false,"is_disabled":false,"rental_uris":{"android":"levelo://app?vid=68913c84-342a-4ac5-9ffa-ea0a618c0522","ios":"levelo://app?vid=68913c84-342a-4ac5-9ffa-ea0a618c0522"},"vehicle_type_id":"4","last_reported":1761315048,"current_range_meters":14400,"station_id":"st_cvj6sg6p6f1abm77japg","pricing_plan_id":"cebpf4jnsgd1na2vs0mg"},{"bike_id":"debd2ad7-dc8d-4659-9c55-6637b5e66513","system_id":"levelo_inurba_marseille","lat":43.28271,"lon":5.3507,"is_reserved":false,"is_disabled":false,"rental_uris":{"android":"levelo://app?vid=debd2ad7-dc8d-4659-9c55-6637b5e66513","ios":"levelo://app?vid=debd2ad7-dc8d-4659-9c55-6637b5e66513"},"vehicle_type_id":"4","last_reported":1761315048,"current_range_meters":14400,"station_id":"ce4bhbp2rcd13ifvqerg","pricing_plan_id":"cebpf4jnsgd1na2vs0mg"},{"bike_id":"6b307c52-f33b-4885-85a6-9bac6592bb3d","system_id":"levelo_inurba_marseille","lat":43.21194,"lon":5.35083,"is_reserved":false,"is_disabled":false,"rental_uris":{"android":"levelo://app?vid=6b307c52-f33b-4885-85a6-9bac6592bb3d","ios":"levelo://app?vid=6b307c52-f33b-4885-85a6-9bac6592bb3d"},"vehicle_type_id":"4","last_reported":1761315048,"current_range_meters":14400,"station_id":"st_cvj6sg6p6f1abm77japg","pricing_plan_id":"cebpf4jnsgd1na2vs0mg"},{"bike_id":"bd3f9fd3-256c-47c7-a3a3-9b5aa1b2af2d","system_id":"levelo_inurba_marseille","lat":43.265,"lon":5.39538,"is_reserved":false,"is_disabled":false,"rental_uris":{"android":"levelo://app?vid=bd3f9fd3-256c-47c7-a3a3-9b5aa1b2af2d","ios":"levelo://app?vid=bd3f9fd3-256c-47c7-a3a3-9b5aa1b2af2d"},"vehicle_type_id":"4","last_reported":1761315048,"current_range_meters":14400,"station_id":"ce4bhi12rcd13ifvqfq0","pricing_plan_id":"cebpf4jnsgd1na2vs0mg"},{"bike_id":"fb6e7e2e-00d6-4fa8-92a6-7f7b3a4e646e","system_id":"levelo_inurba_marseille","lat":43.30794,"lon":5.3817,"is_reserved":false,"is_disabled":false,"rental_uris":{"android":"levelo://app?vid=fb6e7e2e-00d6-4fa8-92a6-7f7b3a4e646e","ios":"levelo://app?vid=fb6e7e2e-00d6-4fa8-92a6-7f7b3a4e646e"},"vehicle_type_id":"4","last_reported":1761315048,"current_range_meters":14400,"station_id":"ce4bgt12rcd13ifvqce0","pricing_plan_id":"cebpf4jnsgd1na2vs0mg"},{"bike_id":"9e57eaf4-d73e-4095-b226-a2b558e9058b","system_id":"levelo_inurba_marseille","lat":43.24688,"lon":5.38173,"is_reserved":false,"is_disabled":false,"rental_uris":{"android":"levelo://app?vid=9e57eaf4-d73e-4095-b226-a2b558e9058b","ios":"levelo://app?vid=9e57eaf4-d73e-4095-b226-a2b558e9058b"},"vehicle_type_id":"4","last_reported":1761315048,"current_range_meters":14400,"station_id":"ce4bhih2rcd13ifvqfr0","pricing_plan_id":"cebpf4jnsgd1na2vs0mg"},{"bike_id":"01450dfd-25bb-4e24-89c2-287f4be24053","system_id":"levelo_inurba_marseille","lat":43.30532,"lon":5.38428,"is_reserved":false,"is_disabled":false,"rental_uris":{"android":"levelo://app?vid=01450dfd-25bb-4e24-89c2-287f4be24053","ios":"levelo://app?vid=01450dfd-25bb-4e24-89c2-287f4be24053"},"vehicle_type_id":"4","last_reported":1761315048,"current_range_meters":14800,"station_id":"ce4bgg92rcd13ifvqb30","pricing_plan_id":"cebpf4jnsgd1na2vs0mg"},{"bike_id":"2e3c758d-5da9-45ce-9810-f724d442e504","system_id":"levelo_inurba_marseille","lat":43.299778,"lon":5.384828,"is_reserved":false,"is_disabled":false,"rental_uris":{"android":"levelo://app?vid=2e3c758d-5da9-45ce-9810-f724d442e504","ios":"levelo://app?vid=2e3c758d-5da9-45ce-9810-f724d442e504"},"vehicle_type_id":"4","last_reported":1761315048,"current_range_meters":14800,"station_id":"","pricing_plan_id":"cebpf4jnsgd1na2vs0mg"},{"bike_id":"249615da-bae2-4bb3-9506-b338b9fb85b7","system_id":"levelo_inurba_marseille","lat":43.29735,"lon":5.37681,"is_reserved":false,"is_disabled":true,"rental_uris":{"android":"levelo://app?vid=249615da-bae2-4bb3-9506-b338b9fb85b7","ios":"levelo://app?vid=249615da-bae2-4bb3-9506-b338b9fb85b7"},"vehicle_type_id":"4","last_reported":1761315048,"current_range_meters":15200,"station_id":"ce4bgkh2rcd13ifvqbl0","pricing_plan_id":"cebpf4jnsgd1na2vs0mg"},{"bike_id":"9ef24a1d-e31a-4b90-9a80-fe3a5b6982a9","system_id":"levelo_inurba_marseille","lat":43.27897,"lon":5.38009,"is_reserved":false,"is_disabled":false,"rental_uris":{"android":"levelo://app?vid=9ef24a1d-e31a-4b90-9a80-fe3a5b6982a9","ios":"levelo://app?vid=9ef24a1d-e31a-4b90-9a80-fe3a5b6982a9"},"vehicle_type_id":"4","last_reported":1761315048,"current_range_meters":15200,"station_id":"ce4bhf92rcd13ifvqf50","pricing_plan_id":"cebpf4jnsgd1na2vs0mg"},{"bike_id":"5c4e3494-e51b-479a-9e42-8fdbb8009a46","system_id":"levelo_inurba_marseille","lat":43.289518,"lon":5.381676,"is_reserved":false,"is_disabled":false,"rental_uris":{"android":"levelo://app?vid=5c4e3494-e51b-479a-9e42-8fdbb8009a46","ios":"levelo://app?vid=5c4e3494-e51b-479a-9e42-8fdbb8009a46"},"vehicle_type_id":"4","last_reported":1761315048,"current_range_meters":15200,"station_id":"ce4bhoh2rcd13ifvqh5g","pricing_plan_id":"cebpf4jnsgd1na2vs0mg"},{"bike_id":"5605d01e-b5a8-4a06-af22-8e0ade21453c","system_id":"levelo_inurba_marseille","lat":43.30797,"lon":5.38151,"is_reserved":false,"is_disabled":false,"rental_uris":{"android":"levelo://app?vid=5605d01e-b5a8-4a06-af22-8e0ade21453c","ios":"levelo://app?vid=5605d01e-b5a8-4a06-af22-8e0ade21453c"},"vehicle_type_id":"4","last_reported":1761315048,"current_range_meters":15200,"station_id":"ce4bgt12rcd13ifvqce0","pricing_plan_id":"cebpf4jnsgd1na2vs0mg"},{"bike_id":"130bf0bc-864c-430a-846d-711e7f2ffd3b","system_id":"levelo_inurba_marseille","lat":43.2175,"lon":5.34612,"is_reserved":false,"is_disabled":false,"rental_uris":{"android":"levelo://app?vid=130bf0bc-864c-430a-846d-711e7f2ffd3b","ios":"levelo://app?vid=130bf0bc-864c-430a-846d-711e7f2ffd3b"},"vehicle_type_id":"4","last_reported":1761315048,"current_range_meters":15200,"station_id":"st_cvj6r9ubvosntc0bgbag","pricing_plan_id":"cebpf4jnsgd1na2vs0mg"},{"bike_id":"cc1c703a-d216-480f-bdb9-1f30baffbe98","system_id":"levelo_inurba_marseille","lat":43.22929,"lon":5.35377,"is_reserved":false,"is_disabled":false,"rental_uris":{"android":"levelo://app?vid=cc1c703a-d216-480f-bdb9-1f30baffbe98","ios":"levelo://app?vid=cc1c703a-d216-480f-bdb9-1f30baffbe98"},"vehicle_type_id":"4","last_reported":1761315048,"current_range_meters":16000,"station_id":"cpo3532slgdg3j2ikp40","pricing_plan_id":"cebpf4jnsgd1na2vs0mg"},{"bike_id":"29d8dbde-33cc-4eb7-bc4d-694df448a08b","system_id":"levelo_inurba_marseille","lat":43.24167,"lon":5.36387,"is_reserved":false,"is_disabled":false,"rental_uris":{"android":"levelo://app?vid=29d8dbde-33cc-4eb7-bc4d-694df448a08b","ios":"levelo://app?vid=29d8dbde-33cc-4eb7-bc4d-694df448a08b"},"vehicle_type_id":"4","last_reported":1761315048,"current_range_meters":16000,"station_id":"cpo36qri1sfpv3e86is0","pricing_plan_id":"cebpf4jnsgd1na2vs0mg"},{"bike_id":"9cf0739c-a98e-4342-bc79-0bc0c7e49bf1","system_id":"levelo_inurba_marseille","lat":43.30526,"lon":5.36698,"is_reserved":false,"is_disabled":false,"rental_uris":{"android":"levelo://app?vid=9cf0739c-a98e-4342-bc79-0bc0c7e49bf1","ios":"levelo://app?vid=9cf0739c-a98e-4342-bc79-0bc0c7e49bf1"},"vehicle_type_id":"4","last_reported":1761315048,"current_range_meters":16000,"station_id":"","pricing_plan_id":"cebpf4jnsgd1na2vs0mg"},{"bike_id":"46c0226f-9fad-4b07-8a98-586b07fa945a","system_id":"levelo_inurba_marseille","lat":43.30556,"lon":5.36532,"is_reserved":false,"is_disabled":false,"rental_uris":{"android":"levelo://app?vid=46c0226f-9fad-4b07-8a98-586b07fa945a","ios":"levelo://app?vid=46c0226f-9fad-4b07-8a98-586b07fa945a"},"vehicle_type_id":"4","last_reported":1761315048,"current_range_meters":16000,"station_id":"ce4bgs12rcd13ifvqcag","pricing_plan_id":"cebpf4jnsgd1na2vs0mg"},{"bike_id":"dde114a4-8805-4784-b02d-0d744116457b","system_id":"levelo_inurba_marseille","lat":43.22935,"lon":5.35388,"is_reserved":false,"is_disabled":false,"rental_uris":{"android":"levelo://app?vid=dde114a4-8805-4784-b02d-0d744116457b","ios":"levelo://app?vid=dde114a4-8805-4784-b02d-0d744116457b"},"vehicle_type_id":"4","last_reported":1761315048,"current_range_meters":16000,"station_id":"cpo3532slgdg3j2ikp40","pricing_plan_id":"cebpf4jnsgd1na2vs0mg"},{"bike_id":"294048b5-4a82-472d-8e23-2239fe3b14c4","system_id":"levelo_inurba_marseille","lat":43.28948,"lon":5.36644,"is_reserved":false,"is_disabled":false,"rental_uris":{"android":"levelo://app?vid=294048b5-4a82-472d-8e23-2239fe3b14c4","ios":"levelo://app?vid=294048b5-4a82-472d-8e23-2239fe3b14c4"},"vehicle_type_id":"4","last_reported":1761315048,"current_range_meters":16000,"station_id":"ce4bhap2rcd13ifvqek0","pricing_plan_id":"cebpf4jnsgd1na2vs0mg"},{"bike_id":"ee7d1a49-caeb-4fcb-aa32-6a5d55fd6ce6","system_id":"levelo_inurba_marseille","lat":43.23192,"lon":5.35552,"is_reserved":false,"is_disabled":false,"rental_uris":{"android":"levelo://app?vid=ee7d1a49-caeb-4fcb-aa32-6a5d55fd6ce6","ios":"levelo://app?vid=ee7d1a49-caeb-4fcb-aa32-6a5d55fd6ce6"},"vehicle_type_id":"4","last_reported":1761315048,"current_range_meters":16000,"station_id":"ce4bhu92rcd13ifvqi70","pricing_plan_id":"cebpf4jnsgd1na2vs0mg"},{"bike_id":"9197dcca-f82c-4711-b80b-4eeb848f933b","system_id":"levelo_inurba_marseille","lat":43.29439,"lon":5.39748,"is_reserved":false,"is_disabled":false,"rental_uris":{"android":"levelo://app?vid=9197dcca-f82c-4711-b80b-4eeb848f933b","ios":"levelo://app?vid=9197dcca-f82c-4711-b80b-4eeb848f933b"},"vehicle_type_id":"4","last_reported":1761315048,"current_range_meters":16000,"station_id":"ce4bh3h2rcd13ifvqdo0","pricing_plan_id":"cebpf4jnsgd1na2vs0mg"},{"bike_id":"4c8f30ee-a6e5-4952-92bd-361bff613dbb","system_id":"levelo_inurba_marseille","lat":43.27608,"lon":5.36112,"is_reserved":false,"is_disabled":false,"rental_uris":{"android":"levelo://app?vid=4c8f30ee-a6e5-4952-92bd-361bff613dbb","ios":"levelo://app?vid=4c8f30ee-a6e5-4952-92bd-361bff613dbb"},"vehicle_type_id":"4","last_reported":1761315048,"current_range_meters":16400,"station_id":"ce4bgj92rcd13ifvqbe0","pricing_plan_id":"cebpf4jnsgd1na2vs0mg"},{"bike_id":"8d37e86e-0fcb-4934-9c24-f827e9ccc08f","system_id":"levelo_inurba_marseille","lat":43.23137,"lon":5.43723,"is_reserved":false,"is_disabled":false,"rental_uris":{"android":"levelo://app?vid=8d37e86e-0fcb-4934-9c24-f827e9ccc08f","ios":"levelo://app?vid=8d37e86e-0fcb-4934-9c24-f827e9ccc08f"},"vehicle_type_id":"4","last_reported":1761315048,"current_range_meters":16400,"station_id":"ce4bhmp2rcd13ifvqgog","pricing_plan_id":"cebpf4jnsgd1na2vs0mg"},{"bike_id":"4f5c5045-2f2c-4ab7-ad8b-eeba1d52fe66","system_id":"levelo_inurba_marseille","lat":43.31072,"lon":5.37463,"is_reserved":false,"is_disabled":false,"rental_uris":{"android":"levelo://app?vid=4f5c5045-2f2c-4ab7-ad8b-eeba1d52fe66","ios":"levelo://app?vid=4f5c5045-2f2c-4ab7-ad8b-eeba1d52fe66"},"vehicle_type_id":"4","last_reported":1761315048,"current_range_meters":16400,"station_id":"","pricing_plan_id":"cebpf4jnsgd1na2vs0mg"},{"bike_id":"b9c8ced1-4ad2-4529-8b78-c6503294316b","system_id":"levelo_inurba_marseille","lat":43.302179,"lon":5.394717,"is_reserved":false,"is_disabled":false,"rental_uris":{"android":"levelo://app?vid=b9c8ced1-4ad2-4529-8b78-c6503294316b","ios":"levelo://app?vid=b9c8ced1-4ad2-4529-8b78-c6503294316b"},"vehicle_type_id":"4","last_reported":1761315048,"current_range_meters":16400,"station_id":"","pricing_plan_id":"cebpf4jnsgd1na2vs0mg"},{"bike_id":"25c7958a-48b7-42e8-a483-c70b38140eba","system_id":"levelo_inurba_marseille","lat":43.23782,"lon":5.36639,"is_reserved":false,"is_disabled":false,"rental_uris":{"android":"levelo://app?vid=25c7958a-48b7-42e8-a483-c70b38140eba","ios":"levelo://app?vid=25c7958a-48b7-42e8-a483-c70b38140eba"},"vehicle_type_id":"4","last_reported":1761315048,"current_range_meters":16400,"station_id":"st_d3nk18o9ro0c73en2l3g","pricing_plan_id":"cebpf4jnsgd1na2vs0mg"},{"bike_id":"46c764fe-6690-4eac-b9c8-4470abaf3f10","system_id":"levelo_inurba_marseille","lat":43.29345,"lon":5.3786,"is_reserved":false,"is_disabled":false,"rental_uris":{"android":"levelo://app?vid=46c764fe-6690-4eac-b9c8-4470abaf3f10","ios":"levelo://app?vid=46c764fe-6690-4eac-b9c8-4470abaf3f10"},"vehicle_type_id":"4","last_reported":1761315048,"current_range_meters":16400,"station_id":"ce4bgjh2rcd13ifvqbf0","pricing_plan_id":"cebpf4jnsgd1na2vs0mg"},{"bike_id":"ede8ac99-b378-4442-bdae-647410f1f22d","system_id":"levelo_inurba_marseille","lat":43.28707,"lon":5.39988,"is_reserved":false,"is_disabled":false,"rental_uris":{"android":"levelo://app?vid=ede8ac99-b378-4442-bdae-647410f1f22d","ios":"levelo://app?vid=ede8ac99-b378-4442-bdae-647410f1f22d"},"vehicle_type_id":"4","last_reported":1761315048,"current_range_meters":16400,"station_id":"ce4bho92rcd13ifvqh3g","pricing_plan_id":"cebpf4jnsgd1na2vs0mg"},{"bike_id":"a4b425ac-d20b-4acf-bdb5-ba822340ecdc","system_id":"levelo_inurba_marseille","lat":43.294221,"lon":5.386125,"is_reserved":false,"is_disabled":false,"rental_uris":{"android":"levelo://app?vid=a4b425ac-d20b-4acf-bdb5-ba822340ecdc","ios":"levelo://app?vid=a4b425ac-d20b-4acf-bdb5-ba822340ecdc"},"vehicle_type_id":"4","last_reported":1761315048,"current_range_meters":16400,"station_id":"ce4bgih2rcd13ifvqba0","pricing_plan_id":"cebpf4jnsgd1na2vs0mg"},{"bike_id":"8b48c933-fc3d-4ff5-b429-56094ef7299f","system_id":"levelo_inurba_marseille","lat":43.27942,"lon":5.41051,"is_reserved":false,"is_disabled":false,"rental_uris":{"android":"levelo://app?vid=8b48c933-fc3d-4ff5-b429-56094ef7299f","ios":"levelo://app?vid=8b48c933-fc3d-4ff5-b429-56094ef7299f"},"vehicle_type_id":"4","last_reported":1761315048,"current_range_meters":16400,"station_id":"ce4bhnp2rcd13ifvqh0g","pricing_plan_id":"cebpf4jnsgd1na2vs0mg"},{"bike_id":"1a0d0d03-cc72-4b14-bbd4-cfe5b692276b","system_id":"levelo_inurba_marseille","lat":43.299006,"lon":5.382362,"is_reserved":false,"is_disabled":false,"rental_uris":{"android":"levelo://app?vid=1a0d0d03-cc72-4b14-bbd4-cfe5b692276b","ios":"levelo://app?vid=1a0d0d03-cc72-4b14-bbd4-cfe5b692276b"},"vehicle_type_id":"4","last_reported":1761315048,"current_range_meters":16400,"station_id":"ce4bgj12rcd13ifvqbc0","pricing_plan_id":"cebpf4jnsgd1na2vs0mg"},{"bike_id":"fb992e35-c109-4cb7-96c7-50faefdd00eb","system_id":"levelo_inurba_marseille","lat":43.330242,"lon":5.372717,"is_reserved":false,"is_disabled":false,"rental_uris":{"android":"levelo://app?vid=fb992e35-c109-4cb7-96c7-50faefdd00eb","ios":"levelo://app?vid=fb992e35-c109-4cb7-96c7-50faefdd00eb"},"vehicle_type_id":"4","last_reported":1761315048,"current_range_meters":16800,"station_id":"","pricing_plan_id":"cebpf4jnsgd1na2vs0mg"},{"bike_id":"e93caea6-f81a-4081-a102-7b3f39898c45","system_id":"levelo_inurba_marseille","lat":43.29565,"lon":5.37523,"is_reserved":false,"is_disabled":false,"rental_uris":{"android":"levelo://app?vid=e93caea6-f81a-4081-a102-7b3f39898c45","ios":"levelo://app?vid=e93caea6-f81a-4081-a102-7b3f39898c45"},"vehicle_type_id":"4","last_reported":1761315048,"current_range_meters":16800,"station_id":"ce4bgh92rcd13ifvqb50","pricing_plan_id":"cebpf4jnsgd1na2vs0mg"},{"bike_id":"69599b97-b573-4868-ae16-9bda40c9248f","system_id":"levelo_inurba_marseille","lat":43.21191,"lon":5.35073,"is_reserved":false,"is_disabled":false,"rental_uris":{"android":"levelo://app?vid=69599b97-b573-4868-ae16-9bda40c9248f","ios":"levelo://app?vid=69599b97-b573-4868-ae16-9bda40c9248f"},"vehicle_type_id":"4","last_reported":1761315048,"current_range_meters":16800,"station_id":"st_cvj6sg6p6f1abm77japg","pricing_plan_id":"cebpf4jnsgd1na2vs0mg"},{"bike_id":"bd3eae83-a40a-4d6d-a7fe-88c9903d01a2","system_id":"levelo_inurba_marseille","lat":43.232056,"lon":5.355356,"is_reserved":false,"is_disabled":false,"rental_uris":{"android":"levelo://app?vid=bd3eae83-a40a-4d6d-a7fe-88c9903d01a2","ios":"levelo://app?vid=bd3eae83-a40a-4d6d-a7fe-88c9903d01a2"},"vehicle_type_id":"4","last_reported":1761315048,"current_range_meters":16800,"station_id":"ce4bhu92rcd13ifvqi70","pricing_plan_id":"cebpf4jnsgd1na2vs0mg"},{"bike_id":"4b9ea996-45d6-4c99-b9ff-af19c6118599","system_id":"levelo_inurba_marseille","lat":43.30542,"lon":5.36549,"is_reserved":false,"is_disabled":true,"rental_uris":{"android":"levelo://app?vid=4b9ea996-45d6-4c99-b9ff-af19c6118599","ios":"levelo://app?vid=4b9ea996-45d6-4c99-b9ff-af19c6118599"},"vehicle_type_id":"4","last_reported":1761315048,"current_range_meters":16800,"station_id":"ce4bgs12rcd13ifvqcag","pricing_plan_id":"cebpf4jnsgd1na2vs0mg"},{"bike_id":"75eebb0f-2447-4bf8-b846-45b5b359059b","system_id":"levelo_inurba_marseille","lat":43.33769,"lon":5.37496,"is_reserved":false,"is_disabled":false,"rental_uris":{"android":"levelo://app?vid=75eebb0f-2447-4bf8-b846-45b5b359059b","ios":"levelo://app?vid=75eebb0f-2447-4bf8-b846-45b5b359059b"},"vehicle_type_id":"4","last_reported":1761315048,"current_range_meters":16800,"station_id":"","pricing_plan_id":"cebpf4jnsgd1na2vs0mg"},{"bike_id":"cbf84af1-782f-4331-8009-7ab38de72e60","system_id":"levelo_inurba_marseille","lat":43.2873,"lon":5.4009,"is_reserved":false,"is_disabled":false,"rental_uris":{"android":"levelo://app?vid=cbf84af1-782f-4331-8009-7ab38de72e60","ios":"levelo://app?vid=cbf84af1-782f-4331-8009-7ab38de72e60"},"vehicle_type_id":"4","last_reported":1761315048,"current_range_meters":16800,"station_id":"","pricing_plan_id":"cebpf4jnsgd1na2vs0mg"},{"bike_id":"c41e7bd1-2e01-4226-a5e5-d589cdb62a0e","system_id":"levelo_inurba_marseille","lat":43.24386,"lon":5.37075,"is_reserved":false,"is_disabled":false,"rental_uris":{"android":"levelo://app?vid=c41e7bd1-2e01-4226-a5e5-d589cdb62a0e","ios":"levelo://app?vid=c41e7bd1-2e01-4226-a5e5-d589cdb62a0e"},"vehicle_type_id":"4","last_reported":1761315048,"current_range_meters":17200,"station_id":"ce4bhhh2rcd13ifvqfk0","pricing_plan_id":"cebpf4jnsgd1na2vs0mg"},{"bike_id":"5c0e1fad-1092-45f4-930f-73335d46d836","system_id":"levelo_inurba_marseille","lat":43.29789,"lon":5.38086,"is_reserved":false,"is_disabled":true,"rental_uris":{"android":"levelo://app?vid=5c0e1fad-1092-45f4-930f-73335d46d836","ios":"levelo://app?vid=5c0e1fad-1092-45f4-930f-73335d46d836"},"vehicle_type_id":"4","last_reported":1761315048,"current_range_meters":17200,"station_id":"ce4bgip2rcd13ifvqbb0","pricing_plan_id":"cebpf4jnsgd1na2vs0mg"},{"bike_id":"417d2345-c4c6-4ccd-bc5c-2eafc961607b","system_id":"levelo_inurba_marseille","lat":43.25514,"lon":5.37658,"is_reserved":false,"is_disabled":false,"rental_uris":{"android":"levelo://app?vid=417d2345-c4c6-4ccd-bc5c-2eafc961607b","ios":"levelo://app?vid=417d2345-c4c6-4ccd-bc5c-2eafc961607b"},"vehicle_type_id":"4","last_reported":1761315048,"current_range_meters":17200,"station_id":"ce4bhh12rcd13ifvqff0","pricing_plan_id":"cebpf4jnsgd1na2vs0mg"},{"bike_id":"39cf7eea-63aa-4069-b905-5462ea0731d5","system_id":"levelo_inurba_marseille","lat":43.26704,"lon":5.39424,"is_reserved":false,"is_disabled":false,"rental_uris":{"android":"levelo://app?vid=39cf7eea-63aa-4069-b905-5462ea0731d5","ios":"levelo://app?vid=39cf7eea-63aa-4069-b905-5462ea0731d5"},"vehicle_type_id":"4","last_reported":1761315048,"current_range_meters":17200,"station_id":"","pricing_plan_id":"cebpf4jnsgd1na2vs0mg"},{"bike_id":"d6575611-216c-4a95-b321-56845a3694b4","system_id":"levelo_inurba_marseille","lat":43.294319,"lon":5.397496,"is_reserved":false,"is_disabled":false,"rental_uris":{"android":"levelo://app?vid=d6575611-216c-4a95-b321-56845a3694b4","ios":"levelo://app?vid=d6575611-216c-4a95-b321-56845a3694b4"},"vehicle_type_id":"4","last_reported":1761315048,"current_range_meters":17200,"station_id":"ce4bh3h2rcd13ifvqdo0","pricing_plan_id":"cebpf4jnsgd1na2vs0mg"},{"bike_id":"b8b486d3-56ad-4330-a12d-f62ee051ad6f","system_id":"levelo_inurba_marseille","lat":43.21745,"lon":5.34601,"is_reserved":false,"is_disabled":false,"rental_uris":{"android":"levelo://app?vid=b8b486d3-56ad-4330-a12d-f62ee051ad6f","ios":"levelo://app?vid=b8b486d3-56ad-4330-a12d-f62ee051ad6f"},"vehicle_type_id":"4","last_reported":1761315048,"current_range_meters":17200,"station_id":"st_cvj6r9ubvosntc0bgbag","pricing_plan_id":"cebpf4jnsgd1na2vs0mg"},{"bike_id":"9d964ec4-c537-4f1d-b21c-451d3f46b1bf","system_id":"levelo_inurba_marseille","lat":43.29899,"lon":5.37829,"is_reserved":false,"is_disabled":false,"rental_uris":{"android":"levelo://app?vid=9d964ec4-c537-4f1d-b21c-451d3f46b1bf","ios":"levelo://app?vid=9d964ec4-c537-4f1d-b21c-451d3f46b1bf"},"vehicle_type_id":"4","last_reported":1761315048,"current_range_meters":17200,"station_id":"","pricing_plan_id":"cebpf4jnsgd1na2vs0mg"},{"bike_id":"e5277896-3ef6-4de1-aaa5-002f8797373c","system_id":"levelo_inurba_marseille","lat":43.30249,"lon":5.40055,"is_reserved":false,"is_disabled":false,"rental_uris":{"android":"levelo://app?vid=e5277896-3ef6-4de1-aaa5-002f8797373c","ios":"levelo://app?vid=e5277896-3ef6-4de1-aaa5-002f8797373c"},"vehicle_type_id":"4","last_reported":1761315048,"current_range_meters":17600,"station_id":"ce4bgvh2rcd13ifvqcs0","pricing_plan_id":"cebpf4jnsgd1na2vs0mg"},{"bike_id":"409f5d2e-5a03-4d92-8dc9-e25ed399b80d","system_id":"levelo_inurba_marseille","lat":43.2917,"lon":5.383052,"is_reserved":false,"is_disabled":false,"rental_uris":{"android":"levelo://app?vid=409f5d2e-5a03-4d92-8dc9-e25ed399b80d","ios":"levelo://app?vid=409f5d2e-5a03-4d92-8dc9-e25ed399b80d"},"vehicle_type_id":"4","last_reported":1761315048,"current_range_meters":17600,"station_id":"ce4bh4p2rcd13ifvqe1g","pricing_plan_id":"cebpf4jnsgd1na2vs0mg"},{"bike_id":"b8bae4e8-0442-4f88-83e6-7024d4d065d8","system_id":"levelo_inurba_marseille","lat":43.295692,"lon":5.399839,"is_reserved":false,"is_disabled":false,"rental_uris":{"android":"levelo://app?vid=b8bae4e8-0442-4f88-83e6-7024d4d065d8","ios":"levelo://app?vid=b8bae4e8-0442-4f88-83e6-7024d4d065d8"},"vehicle_type_id":"4","last_reported":1761315048,"current_range_meters":17600,"station_id":"ce4bh312rcd13ifvqdj0","pricing_plan_id":"cebpf4jnsgd1na2vs0mg"},{"bike_id":"2c7f4b30-9d1c-4725-ae74-8b8af82be5bb","system_id":"levelo_inurba_marseille","lat":43.21181,"lon":5.35089,"is_reserved":false,"is_disabled":false,"rental_uris":{"android":"levelo://app?vid=2c7f4b30-9d1c-4725-ae74-8b8af82be5bb","ios":"levelo://app?vid=2c7f4b30-9d1c-4725-ae74-8b8af82be5bb"},"vehicle_type_id":"4","last_reported":1761315048,"current_range_meters":17600,"station_id":"st_cvj6sg6p6f1abm77japg","pricing_plan_id":"cebpf4jnsgd1na2vs0mg"},{"bike_id":"49c88eb1-18b5-42cc-aab1-cb913bda0353","system_id":"levelo_inurba_marseille","lat":43.33608,"lon":5.41048,"is_reserved":false,"is_disabled":false,"rental_uris":{"android":"levelo://app?vid=49c88eb1-18b5-42cc-aab1-cb913bda0353","ios":"levelo://app?vid=49c88eb1-18b5-42cc-aab1-cb913bda0353"},"vehicle_type_id":"4","last_reported":1761315048,"current_range_meters":17600,"station_id":"ce4bhqh2rcd13ifvqhmg","pricing_plan_id":"cebpf4jnsgd1na2vs0mg"},{"bike_id":"85831b0c-ac03-4a31-ad4b-6acd383c62ca","system_id":"levelo_inurba_marseille","lat":43.277052,"lon":5.388207,"is_reserved":false,"is_disabled":false,"rental_uris":{"android":"levelo://app?vid=85831b0c-ac03-4a31-ad4b-6acd383c62ca","ios":"levelo://app?vid=85831b0c-ac03-4a31-ad4b-6acd383c62ca"},"vehicle_type_id":"4","last_reported":1761315048,"current_range_meters":18000,"station_id":"","pricing_plan_id":"cebpf4jnsgd1na2vs0mg"},{"bike_id":"2db69d1e-cb7b-46b4-8df4-dd3e8f8ea7a3","system_id":"levelo_inurba_marseille","lat":43.27978,"lon":5.41653,"is_reserved":false,"is_disabled":false,"rental_uris":{"android":"levelo://app?vid=2db69d1e-cb7b-46b4-8df4-dd3e8f8ea7a3","ios":"levelo://app?vid=2db69d1e-cb7b-46b4-8df4-dd3e8f8ea7a3"},"vehicle_type_id":"4","last_reported":1761315048,"current_range_meters":18000,"station_id":"ce4bho12rcd13ifvqh1g","pricing_plan_id":"cebpf4jnsgd1na2vs0mg"},{"bike_id":"0314410c-0b13-4156-b6a7-447bee8f3097","system_id":"levelo_inurba_marseille","lat":43.24166,"lon":5.36393,"is_reserved":false,"is_disabled":false,"rental_uris":{"android":"levelo://app?vid=0314410c-0b13-4156-b6a7-447bee8f3097","ios":"levelo://app?vid=0314410c-0b13-4156-b6a7-447bee8f3097"},"vehicle_type_id":"4","last_reported":1761315048,"current_range_meters":18800,"station_id":"cpo36qri1sfpv3e86is0","pricing_plan_id":"cebpf4jnsgd1na2vs0mg"},{"bike_id":"56e145cf-693d-479c-a31a-f8e7f76eb3ed","system_id":"levelo_inurba_marseille","lat":43.273097,"lon":5.390786,"is_reserved":false,"is_disabled":false,"rental_uris":{"android":"levelo://app?vid=56e145cf-693d-479c-a31a-f8e7f76eb3ed","ios":"levelo://app?vid=56e145cf-693d-479c-a31a-f8e7f76eb3ed"},"vehicle_type_id":"4","last_reported":1761315048,"current_range_meters":18800,"station_id":"","pricing_plan_id":"cebpf4jnsgd1na2vs0mg"},{"bike_id":"ac416e02-9f1a-4eaf-bfae-106209ee83ce","system_id":"levelo_inurba_marseille","lat":43.301324,"lon":5.398686,"is_reserved":false,"is_disabled":false,"rental_uris":{"android":"levelo://app?vid=ac416e02-9f1a-4eaf-bfae-106209ee83ce","ios":"levelo://app?vid=ac416e02-9f1a-4eaf-bfae-106209ee83ce"},"vehicle_type_id":"4","last_reported":1761315048,"current_range_meters":18800,"station_id":"ce4bh0h2rcd13ifvqd40","pricing_plan_id":"cebpf4jnsgd1na2vs0mg"},{"bike_id":"386a9c87-6707-4c56-9410-3952ef242f20","system_id":"levelo_inurba_marseille","lat":43.240465,"lon":5.377668,"is_reserved":false,"is_disabled":false,"rental_uris":{"android":"levelo://app?vid=386a9c87-6707-4c56-9410-3952ef242f20","ios":"levelo://app?vid=386a9c87-6707-4c56-9410-3952ef242f20"},"vehicle_type_id":"4","last_reported":1761315048,"current_range_meters":18800,"station_id":"ce4bhnp2rcd13ifvqgvg","pricing_plan_id":"cebpf4jnsgd1na2vs0mg"},{"bike_id":"1d91d2c9-29d3-4c7d-a6a8-29c5c39d1cce","system_id":"levelo_inurba_marseille","lat":43.22933,"lon":5.35385,"is_reserved":false,"is_disabled":false,"rental_uris":{"android":"levelo://app?vid=1d91d2c9-29d3-4c7d-a6a8-29c5c39d1cce","ios":"levelo://app?vid=1d91d2c9-29d3-4c7d-a6a8-29c5c39d1cce"},"vehicle_type_id":"4","last_reported":1761315048,"current_range_meters":18800,"station_id":"","pricing_plan_id":"cebpf4jnsgd1na2vs0mg"},{"bike_id":"a8b61e17-687a-445a-916d-f3ae3dadb292","system_id":"levelo_inurba_marseille","lat":43.32045,"lon":5.4155,"is_reserved":false,"is_disabled":false,"rental_uris":{"android":"levelo://app?vid=a8b61e17-687a-445a-916d-f3ae3dadb292","ios":"levelo://app?vid=a8b61e17-687a-445a-916d-f3ae3dadb292"},"vehicle_type_id":"4","last_reported":1761315048,"current_range_meters":18800,"station_id":"ce4bhq92rcd13ifvqhkg","pricing_plan_id":"cebpf4jnsgd1na2vs0mg"},{"bike_id":"d4f34596-cd96-4004-af96-068144e0795b","system_id":"levelo_inurba_marseille","lat":43.306805,"lon":5.422252,"is_reserved":false,"is_disabled":false,"rental_uris":{"android":"levelo://app?vid=d4f34596-cd96-4004-af96-068144e0795b","ios":"levelo://app?vid=d4f34596-cd96-4004-af96-068144e0795b"},"vehicle_type_id":"4","last_reported":1761315048,"current_range_meters":18800,"station_id":"","pricing_plan_id":"cebpf4jnsgd1na2vs0mg"},{"bike_id":"8e92164c-deff-4fbd-9f4e-43ff81933572","system_id":"levelo_inurba_marseille","lat":43.29842,"lon":5.42018,"is_reserved":false,"is_disabled":false,"rental_uris":{"android":"levelo://app?vid=8e92164c-deff-4fbd-9f4e-43ff81933572","ios":"levelo://app?vid=8e92164c-deff-4fbd-9f4e-43ff81933572"},"vehicle_type_id":"4","last_reported":1761315048,"current_range_meters":18800,"station_id":"","pricing_plan_id":"cebpf4jnsgd1na2vs0mg"},{"bike_id":"f500d731-d664-4d1d-a9d5-b7f90a56b80e","system_id":"levelo_inurba_marseille","lat":43.31332,"lon":5.39697,"is_reserved":false,"is_disabled":false,"rental_uris":{"android":"levelo://app?vid=f500d731-d664-4d1d-a9d5-b7f90a56b80e","ios":"levelo://app?vid=f500d731-d664-4d1d-a9d5-b7f90a56b80e"},"vehicle_type_id":"4","last_reported":1761315048,"current_range_meters":18800,"station_id":"ce4bgvp2rcd13ifvqcu0","pricing_plan_id":"cebpf4jnsgd1na2vs0mg"},{"bike_id":"d0866ac6-e291-4c39-9b97-aa073a59965a","system_id":"levelo_inurba_marseille","lat":43.23785,"lon":5.36629,"is_reserved":false,"is_disabled":false,"rental_uris":{"android":"levelo://app?vid=d0866ac6-e291-4c39-9b97-aa073a59965a","ios":"levelo://app?vid=d0866ac6-e291-4c39-9b97-aa073a59965a"},"vehicle_type_id":"4","last_reported":1761315048,"current_range_meters":18800,"station_id":"st_d3nk18o9ro0c73en2l3g","pricing_plan_id":"cebpf4jnsgd1na2vs0mg"},{"bike_id":"bfaea6f8-ccc6-44a7-83a6-9d7d9a7e60cc","system_id":"levelo_inurba_marseille","lat":43.26394,"lon":5.39752,"is_reserved":false,"is_disabled":false,"rental_uris":{"android":"levelo://app?vid=bfaea6f8-ccc6-44a7-83a6-9d7d9a7e60cc","ios":"levelo://app?vid=bfaea6f8-ccc6-44a7-83a6-9d7d9a7e60cc"},"vehicle_type_id":"4","last_reported":1761315048,"current_range_meters":19200,"station_id":"","pricing_plan_id":"cebpf4jnsgd1na2vs0mg"},{"bike_id":"55273914-693f-490d-80db-da0ec13963c9","system_id":"levelo_inurba_marseille","lat":43.211938,"lon":5.350704,"is_reserved":false,"is_disabled":false,"rental_uris":{"android":"levelo://app?vid=55273914-693f-490d-80db-da0ec13963c9","ios":"levelo://app?vid=55273914-693f-490d-80db-da0ec13963c9"},"vehicle_type_id":"4","last_reported":1761315048,"current_range_meters":19200,"station_id":"","pricing_plan_id":"cebpf4jnsgd1na2vs0mg"},{"bike_id":"0bee0626-b9a8-413e-bed7-d82dc19927df","system_id":"levelo_inurba_marseille","lat":43.315,"lon":5.37313,"is_reserved":false,"is_disabled":false,"rental_uris":{"android":"levelo://app?vid=0bee0626-b9a8-413e-bed7-d82dc19927df","ios":"levelo://app?vid=0bee0626-b9a8-413e-bed7-d82dc19927df"},"vehicle_type_id":"4","last_reported":1761315048,"current_range_meters":19200,"station_id":"ce4bgt12rcd13ifvqcd0","pricing_plan_id":"cebpf4jnsgd1na2vs0mg"},{"bike_id":"46d5a9c8-8175-4777-a5c8-1e1a0f437065","system_id":"levelo_inurba_marseille","lat":43.288608,"lon":5.425191,"is_reserved":false,"is_disabled":false,"rental_uris":{"android":"levelo://app?vid=46d5a9c8-8175-4777-a5c8-1e1a0f437065","ios":"levelo://app?vid=46d5a9c8-8175-4777-a5c8-1e1a0f437065"},"vehicle_type_id":"4","last_reported":1761315048,"current_range_meters":19200,"station_id":"st_d3b462108ojc7389ooeg","pricing_plan_id":"cebpf4jnsgd1na2vs0mg"},{"bike_id":"9489737c-7c2c-4f83-bc76-e520af4d2990","system_id":"levelo_inurba_marseille","lat":43.32358,"lon":5.38873,"is_reserved":false,"is_disabled":false,"rental_uris":{"android":"levelo://app?vid=9489737c-7c2c-4f83-bc76-e520af4d2990","ios":"levelo://app?vid=9489737c-7c2c-4f83-bc76-e520af4d2990"},"vehicle_type_id":"4","last_reported":1761315048,"current_range_meters":19200,"station_id":"ce4bhqp2rcd13ifvqhog","pricing_plan_id":"cebpf4jnsgd1na2vs0mg"},{"bike_id":"d9c827f0-7e89-4a06-83b0-d50e7a322c89","system_id":"levelo_inurba_marseille","lat":43.23188,"lon":5.35554,"is_reserved":false,"is_disabled":false,"rental_uris":{"android":"levelo://app?vid=d9c827f0-7e89-4a06-83b0-d50e7a322c89","ios":"levelo://app?vid=d9c827f0-7e89-4a06-83b0-d50e7a322c89"},"vehicle_type_id":"4","last_reported":1761315048,"current_range_meters":19600,"station_id":"ce4bhu92rcd13ifvqi70","pricing_plan_id":"cebpf4jnsgd1na2vs0mg"},{"bike_id":"a3afe735-3826-428d-9982-b0b60a35200c","system_id":"levelo_inurba_marseille","lat":43.30312,"lon":5.36921,"is_reserved":false,"is_disabled":false,"rental_uris":{"android":"levelo://app?vid=a3afe735-3826-428d-9982-b0b60a35200c","ios":"levelo://app?vid=a3afe735-3826-428d-9982-b0b60a35200c"},"vehicle_type_id":"4","last_reported":1761315048,"current_range_meters":19600,"station_id":"ce4bgqh2rcd13ifvqc5g","pricing_plan_id":"cebpf4jnsgd1na2vs0mg"},{"bike_id":"b3d8923e-da09-4a55-bb5c-070b627ccd42","system_id":"levelo_inurba_marseille","lat":43.28213,"lon":5.39073,"is_reserved":false,"is_disabled":false,"rental_uris":{"android":"levelo://app?vid=b3d8923e-da09-4a55-bb5c-070b627ccd42","ios":"levelo://app?vid=b3d8923e-da09-4a55-bb5c-070b627ccd42"},"vehicle_type_id":"4","last_reported":1761315048,"current_range_meters":19600,"station_id":"ce4bhn92rcd13ifvqgsg","pricing_plan_id":"cebpf4jnsgd1na2vs0mg"},{"bike_id":"81df6eaf-239b-4308-9cb8-6bbc83177f72","system_id":"levelo_inurba_marseille","lat":43.21741,"lon":5.34607,"is_reserved":false,"is_disabled":false,"rental_uris":{"android":"levelo://app?vid=81df6eaf-239b-4308-9cb8-6bbc83177f72","ios":"levelo://app?vid=81df6eaf-239b-4308-9cb8-6bbc83177f72"},"vehicle_type_id":"4","last_reported":1761315048,"current_range_meters":19600,"station_id":"st_cvj6r9ubvosntc0bgbag","pricing_plan_id":"cebpf4jnsgd1na2vs0mg"},{"bike_id":"8c35a7e4-8378-4fdf-b42f-02e88b6199ca","system_id":"levelo_inurba_marseille","lat":43.32103,"lon":5.36766,"is_reserved":false,"is_disabled":false,"rental_uris":{"android":"levelo://app?vid=8c35a7e4-8378-4fdf-b42f-02e88b6199ca","ios":"levelo://app?vid=8c35a7e4-8378-4fdf-b42f-02e88b6199ca"},"vehicle_type_id":"4","last_reported":1761315048,"current_range_meters":19600,"station_id":"ce4bhrh2rcd13ifvqhug","pricing_plan_id":"cebpf4jnsgd1na2vs0mg"},{"bike_id":"4cb65326-7cff-43a0-8843-5fe66d2daaf7","system_id":"levelo_inurba_marseille","lat":43.21178,"lon":5.35079,"is_reserved":false,"is_disabled":false,"rental_uris":{"android":"levelo://app?vid=4cb65326-7cff-43a0-8843-5fe66d2daaf7","ios":"levelo://app?vid=4cb65326-7cff-43a0-8843-5fe66d2daaf7"},"vehicle_type_id":"4","last_reported":1761315048,"current_range_meters":19600,"station_id":"st_cvj6sg6p6f1abm77japg","pricing_plan_id":"cebpf4jnsgd1na2vs0mg"},{"bike_id":"b293d245-03f5-458b-a913-1ca3a31bf8d0","system_id":"levelo_inurba_marseille","lat":43.287539,"lon":5.361754,"is_reserved":false,"is_disabled":false,"rental_uris":{"android":"levelo://app?vid=b293d245-03f5-458b-a913-1ca3a31bf8d0","ios":"levelo://app?vid=b293d245-03f5-458b-a913-1ca3a31bf8d0"},"vehicle_type_id":"4","last_reported":1761315048,"current_range_meters":19600,"station_id":"cki0cbj6b192h4jlfktg","pricing_plan_id":"cebpf4jnsgd1na2vs0mg"},{"bike_id":"aeedb2fc-fb15-41ac-80c0-d8f6e4e72433","system_id":"levelo_inurba_marseille","lat":43.28317,"lon":5.38236,"is_reserved":false,"is_disabled":false,"rental_uris":{"android":"levelo://app?vid=aeedb2fc-fb15-41ac-80c0-d8f6e4e72433","ios":"levelo://app?vid=aeedb2fc-fb15-41ac-80c0-d8f6e4e72433"},"vehicle_type_id":"4","last_reported":1761315048,"current_range_meters":20000,"station_id":"","pricing_plan_id":"cebpf4jnsgd1na2vs0mg"},{"bike_id":"de1370b3-b3eb-4bb2-b2b4-c6e191bc35e9","system_id":"levelo_inurba_marseille","lat":43.29909,"lon":5.37484,"is_reserved":false,"is_disabled":false,"rental_uris":{"android":"levelo://app?vid=de1370b3-b3eb-4bb2-b2b4-c6e191bc35e9","ios":"levelo://app?vid=de1370b3-b3eb-4bb2-b2b4-c6e191bc35e9"},"vehicle_type_id":"4","last_reported":1761315048,"current_range_meters":20000,"station_id":"ce4bgjh2rcd13ifvqbg0","pricing_plan_id":"cebpf4jnsgd1na2vs0mg"},{"bike_id":"a48b489a-127e-4aab-97a2-25cf37e655c9","system_id":"levelo_inurba_marseille","lat":43.309478,"lon":5.402872,"is_reserved":false,"is_disabled":false,"rental_uris":{"android":"levelo://app?vid=a48b489a-127e-4aab-97a2-25cf37e655c9","ios":"levelo://app?vid=a48b489a-127e-4aab-97a2-25cf37e655c9"},"vehicle_type_id":"4","last_reported":1761315048,"current_range_meters":20000,"station_id":"","pricing_plan_id":"cebpf4jnsgd1na2vs0mg"},{"bike_id":"c1b0b8f8-8713-4050-9b15-3c8485af7c3e","system_id":"levelo_inurba_marseille","lat":43.297192,"lon":5.377249,"is_reserved":false,"is_disabled":false,"rental_uris":{"android":"levelo://app?vid=c1b0b8f8-8713-4050-9b15-3c8485af7c3e","ios":"levelo://app?vid=c1b0b8f8-8713-4050-9b15-3c8485af7c3e"},"vehicle_type_id":"4","last_reported":1761315048,"current_range_meters":20000,"station_id":"ce4bgkh2rcd13ifvqbl0","pricing_plan_id":"cebpf4jnsgd1na2vs0mg"},{"bike_id":"fbc51a66-9f5b-4793-bf47-376ff7c8c289","system_id":"levelo_inurba_marseille","lat":43.21191,"lon":5.35075,"is_reserved":false,"is_disabled":false,"rental_uris":{"android":"levelo://app?vid=fbc51a66-9f5b-4793-bf47-376ff7c8c289","ios":"levelo://app?vid=fbc51a66-9f5b-4793-bf47-376ff7c8c289"},"vehicle_type_id":"4","last_reported":1761315048,"current_range_meters":20000,"station_id":"st_cvj6sg6p6f1abm77japg","pricing_plan_id":"cebpf4jnsgd1na2vs0mg"},{"bike_id":"a623bffe-dd62-498a-b24d-dacd965390c9","system_id":"levelo_inurba_marseille","lat":43.28999,"lon":5.35612,"is_reserved":false,"is_disabled":false,"rental_uris":{"android":"levelo://app?vid=a623bffe-dd62-498a-b24d-dacd965390c9","ios":"levelo://app?vid=a623bffe-dd62-498a-b24d-dacd965390c9"},"vehicle_type_id":"4","last_reported":1761315048,"current_range_meters":20000,"station_id":"ce4bhb92rcd13ifvqen0","pricing_plan_id":"cebpf4jnsgd1na2vs0mg"},{"bike_id":"dab36927-4328-48fa-bffb-145a737de07e","system_id":"levelo_inurba_marseille","lat":43.30808,"lon":5.43532,"is_reserved":false,"is_disabled":true,"rental_uris":{"android":"levelo://app?vid=dab36927-4328-48fa-bffb-145a737de07e","ios":"levelo://app?vid=dab36927-4328-48fa-bffb-145a737de07e"},"vehicle_type_id":"4","last_reported":1761315048,"current_range_meters":20400,"station_id":"ce4bhph2rcd13ifvqheg","pricing_plan_id":"cebpf4jnsgd1na2vs0mg"},{"bike_id":"4a514008-51e9-4ae7-9b01-e78de94b68df","system_id":"levelo_inurba_marseille","lat":43.21202,"lon":5.35062,"is_reserved":false,"is_disabled":false,"rental_uris":{"android":"levelo://app?vid=4a514008-51e9-4ae7-9b01-e78de94b68df","ios":"levelo://app?vid=4a514008-51e9-4ae7-9b01-e78de94b68df"},"vehicle_type_id":"4","last_reported":1761315048,"current_range_meters":20400,"station_id":"st_cvj6sg6p6f1abm77japg","pricing_plan_id":"cebpf4jnsgd1na2vs0mg"},{"bike_id":"02236924-bc1d-4ca5-b39e-1469e308906c","system_id":"levelo_inurba_marseille","lat":43.21749,"lon":5.34598,"is_reserved":false,"is_disabled":false,"rental_uris":{"android":"levelo://app?vid=02236924-bc1d-4ca5-b39e-1469e308906c","ios":"levelo://app?vid=02236924-bc1d-4ca5-b39e-1469e308906c"},"vehicle_type_id":"4","last_reported":1761315048,"current_range_meters":20400,"station_id":"st_cvj6r9ubvosntc0bgbag","pricing_plan_id":"cebpf4jnsgd1na2vs0mg"},{"bike_id":"4e861eab-e33b-4a25-a920-e75db3aeb613","system_id":"levelo_inurba_marseille","lat":43.289358,"lon":5.366414,"is_reserved":false,"is_disabled":false,"rental_uris":{"android":"levelo://app?vid=4e861eab-e33b-4a25-a920-e75db3aeb613","ios":"levelo://app?vid=4e861eab-e33b-4a25-a920-e75db3aeb613"},"vehicle_type_id":"4","last_reported":1761315048,"current_range_meters":20400,"station_id":"ce4bhap2rcd13ifvqek0","pricing_plan_id":"cebpf4jnsgd1na2vs0mg"},{"bike_id":"36ef565d-595c-4fe5-832e-9069968fcd08","system_id":"levelo_inurba_marseille","lat":43.32537,"lon":5.41442,"is_reserved":false,"is_disabled":true,"rental_uris":{"android":"levelo://app?vid=36ef565d-595c-4fe5-832e-9069968fcd08","ios":"levelo://app?vid=36ef565d-595c-4fe5-832e-9069968fcd08"},"vehicle_type_id":"4","last_reported":1761315048,"current_range_meters":20400,"station_id":"ce4bhq12rcd13ifvqhhg","pricing_plan_id":"cebpf4jnsgd1na2vs0mg"},{"bike_id":"14a0c670-41df-4949-9e27-c5232bae4e17","system_id":"levelo_inurba_marseille","lat":43.29265,"lon":5.38446,"is_reserved":false,"is_disabled":false,"rental_uris":{"android":"levelo://app?vid=14a0c670-41df-4949-9e27-c5232bae4e17","ios":"levelo://app?vid=14a0c670-41df-4949-9e27-c5232bae4e17"},"vehicle_type_id":"4","last_reported":1761315048,"current_range_meters":20400,"station_id":"ce4bh692rcd13ifvqea0","pricing_plan_id":"cebpf4jnsgd1na2vs0mg"},{"bike_id":"2abd8007-e3d5-4e62-b1c1-a57ad1612356","system_id":"levelo_inurba_marseille","lat":43.30928,"lon":5.36871,"is_reserved":false,"is_disabled":false,"rental_uris":{"android":"levelo://app?vid=2abd8007-e3d5-4e62-b1c1-a57ad1612356","ios":"levelo://app?vid=2abd8007-e3d5-4e62-b1c1-a57ad1612356"},"vehicle_type_id":"4","last_reported":1761315048,"current_range_meters":20400,"station_id":"ce4bgn92rcd13ifvqbvg","pricing_plan_id":"cebpf4jnsgd1na2vs0mg"},{"bike_id":"9ed16425-609f-460c-a00d-3ea49dca117f","system_id":"levelo_inurba_marseille","lat":43.2119,"lon":5.35067,"is_reserved":false,"is_disabled":false,"rental_uris":{"android":"levelo://app?vid=9ed16425-609f-460c-a00d-3ea49dca117f","ios":"levelo://app?vid=9ed16425-609f-460c-a00d-3ea49dca117f"},"vehicle_type_id":"4","last_reported":1761315048,"current_range_meters":20400,"station_id":"st_cvj6sg6p6f1abm77japg","pricing_plan_id":"cebpf4jnsgd1na2vs0mg"},{"bike_id":"77f156b0-4f05-4a6e-a513-c6806bf33878","system_id":"levelo_inurba_marseille","lat":43.30312,"lon":5.36899,"is_reserved":false,"is_disabled":false,"rental_uris":{"android":"levelo://app?vid=77f156b0-4f05-4a6e-a513-c6806bf33878","ios":"levelo://app?vid=77f156b0-4f05-4a6e-a513-c6806bf33878"},"vehicle_type_id":"4","last_reported":1761315048,"current_range_meters":20400,"station_id":"ce4bgqh2rcd13ifvqc5g","pricing_plan_id":"cebpf4jnsgd1na2vs0mg"},{"bike_id":"3078e589-b0c7-4294-93cf-7e9a8f7c3866","system_id":"levelo_inurba_marseille","lat":43.29792,"lon":5.38119,"is_reserved":false,"is_disabled":false,"rental_uris":{"android":"levelo://app?vid=3078e589-b0c7-4294-93cf-7e9a8f7c3866","ios":"levelo://app?vid=3078e589-b0c7-4294-93cf-7e9a8f7c3866"},"vehicle_type_id":"4","last_reported":1761315048,"current_range_meters":20400,"station_id":"ce4bgip2rcd13ifvqbb0","pricing_plan_id":"cebpf4jnsgd1na2vs0mg"},{"bike_id":"4d88dfc3-9d68-4748-950a-5d958c97ca87","system_id":"levelo_inurba_marseille","lat":43.286114,"lon":5.370636,"is_reserved":false,"is_disabled":false,"rental_uris":{"android":"levelo://app?vid=4d88dfc3-9d68-4748-950a-5d958c97ca87","ios":"levelo://app?vid=4d88dfc3-9d68-4748-950a-5d958c97ca87"},"vehicle_type_id":"4","last_reported":1761315048,"current_range_meters":20800,"station_id":"ce4bht12rcd13ifvqi60","pricing_plan_id":"cebpf4jnsgd1na2vs0mg"},{"bike_id":"62f0a2f8-d352-4580-a096-e8ce56ffccdb","system_id":"levelo_inurba_marseille","lat":43.32111,"lon":5.36746,"is_reserved":false,"is_disabled":false,"rental_uris":{"android":"levelo://app?vid=62f0a2f8-d352-4580-a096-e8ce56ffccdb","ios":"levelo://app?vid=62f0a2f8-d352-4580-a096-e8ce56ffccdb"},"vehicle_type_id":"4","last_reported":1761315048,"current_range_meters":20800,"station_id":"ce4bhrh2rcd13ifvqhug","pricing_plan_id":"cebpf4jnsgd1na2vs0mg"},{"bike_id":"51f6b392-8d0d-41b5-9bf6-76a949608beb","system_id":"levelo_inurba_marseille","lat":43.25328,"lon":5.4218,"is_reserved":false,"is_disabled":false,"rental_uris":{"android":"levelo://app?vid=51f6b392-8d0d-41b5-9bf6-76a949608beb","ios":"levelo://app?vid=51f6b392-8d0d-41b5-9bf6-76a949608beb"},"vehicle_type_id":"4","last_reported":1761315048,"current_range_meters":20800,"station_id":"st_d2m65c5bi1j21697t3ng","pricing_plan_id":"cebpf4jnsgd1na2vs0mg"},{"bike_id":"49edea08-de8c-4cb5-8fbc-b4c1c838dfc9","system_id":"levelo_inurba_marseille","lat":43.30531,"lon":5.36704,"is_reserved":false,"is_disabled":false,"rental_uris":{"android":"levelo://app?vid=49edea08-de8c-4cb5-8fbc-b4c1c838dfc9","ios":"levelo://app?vid=49edea08-de8c-4cb5-8fbc-b4c1c838dfc9"},"vehicle_type_id":"4","last_reported":1761315048,"current_range_meters":20800,"station_id":"ce4bgrp2rcd13ifvqc9g","pricing_plan_id":"cebpf4jnsgd1na2vs0mg"},{"bike_id":"6e599017-2a8e-4169-ae1a-1a2383bc6250","system_id":"levelo_inurba_marseille","lat":43.29252,"lon":5.38448,"is_reserved":false,"is_disabled":false,"rental_uris":{"android":"levelo://app?vid=6e599017-2a8e-4169-ae1a-1a2383bc6250","ios":"levelo://app?vid=6e599017-2a8e-4169-ae1a-1a2383bc6250"},"vehicle_type_id":"4","last_reported":1761315048,"current_range_meters":20800,"station_id":"ce4bh692rcd13ifvqea0","pricing_plan_id":"cebpf4jnsgd1na2vs0mg"},{"bike_id":"7dd3d56a-e43e-4ab0-97b2-4e04f6f703ea","system_id":"levelo_inurba_marseille","lat":43.24164,"lon":5.36404,"is_reserved":false,"is_disabled":false,"rental_uris":{"android":"levelo://app?vid=7dd3d56a-e43e-4ab0-97b2-4e04f6f703ea","ios":"levelo://app?vid=7dd3d56a-e43e-4ab0-97b2-4e04f6f703ea"},"vehicle_type_id":"4","last_reported":1761315048,"current_range_meters":20800,"station_id":"cpo36qri1sfpv3e86is0","pricing_plan_id":"cebpf4jnsgd1na2vs0mg"},{"bike_id":"0428a312-49fe-4150-bd6c-1a3a38b68280","system_id":"levelo_inurba_marseille","lat":43.28723,"lon":5.3794,"is_reserved":false,"is_disabled":false,"rental_uris":{"android":"levelo://app?vid=0428a312-49fe-4150-bd6c-1a3a38b68280","ios":"levelo://app?vid=0428a312-49fe-4150-bd6c-1a3a38b68280"},"vehicle_type_id":"4","last_reported":1761315048,"current_range_meters":20800,"station_id":"ce4bh9p2rcd13ifvqec0","pricing_plan_id":"cebpf4jnsgd1na2vs0mg"},{"bike_id":"c0193d8a-0a53-4caf-a75d-3511520aa468","system_id":"levelo_inurba_marseille","lat":43.290986,"lon":5.381391,"is_reserved":false,"is_disabled":false,"rental_uris":{"android":"levelo://app?vid=c0193d8a-0a53-4caf-a75d-3511520aa468","ios":"levelo://app?vid=c0193d8a-0a53-4caf-a75d-3511520aa468"},"vehicle_type_id":"4","last_reported":1761315048,"current_range_meters":20800,"station_id":"ce4bh512rcd13ifvqe2g","pricing_plan_id":"cebpf4jnsgd1na2vs0mg"},{"bike_id":"98021007-d778-4b9d-ad2b-7b3c0df17434","system_id":"levelo_inurba_marseille","lat":43.306596,"lon":5.40074,"is_reserved":false,"is_disabled":false,"rental_uris":{"android":"levelo://app?vid=98021007-d778-4b9d-ad2b-7b3c0df17434","ios":"levelo://app?vid=98021007-d778-4b9d-ad2b-7b3c0df17434"},"vehicle_type_id":"4","last_reported":1761315048,"current_range_meters":21600,"station_id":"ce4bh112rcd13ifvqda0","pricing_plan_id":"cebpf4jnsgd1na2vs0mg"},{"bike_id":"bb08c634-90e8-48da-82d5-4d4c9454c4ec","system_id":"levelo_inurba_marseille","lat":43.303492,"lon":5.418746,"is_reserved":false,"is_disabled":false,"rental_uris":{"android":"levelo://app?vid=bb08c634-90e8-48da-82d5-4d4c9454c4ec","ios":"levelo://app?vid=bb08c634-90e8-48da-82d5-4d4c9454c4ec"},"vehicle_type_id":"4","last_reported":1761315048,"current_range_meters":21600,"station_id":"ce4bhop2rcd13ifvqh7g","pricing_plan_id":"cebpf4jnsgd1na2vs0mg"},{"bike_id":"9ec9107f-af06-4ae0-b1a8-320b630c3c51","system_id":"levelo_inurba_marseille","lat":43.305429,"lon":5.367203,"is_reserved":false,"is_disabled":false,"rental_uris":{"android":"levelo://app?vid=9ec9107f-af06-4ae0-b1a8-320b630c3c51","ios":"levelo://app?vid=9ec9107f-af06-4ae0-b1a8-320b630c3c51"},"vehicle_type_id":"4","last_reported":1761315048,"current_range_meters":21600,"station_id":"ce4bgrp2rcd13ifvqc9g","pricing_plan_id":"cebpf4jnsgd1na2vs0mg"},{"bike_id":"98f0cdb7-640e-4d43-947e-fc9206712739","system_id":"levelo_inurba_marseille","lat":43.25806,"lon":5.39438,"is_reserved":false,"is_disabled":false,"rental_uris":{"android":"levelo://app?vid=98f0cdb7-640e-4d43-947e-fc9206712739","ios":"levelo://app?vid=98f0cdb7-640e-4d43-947e-fc9206712739"},"vehicle_type_id":"4","last_reported":1761315048,"current_range_meters":21600,"station_id":"ce4bhip2rcd13ifvqft0","pricing_plan_id":"cebpf4jnsgd1na2vs0mg"},{"bike_id":"52093ed1-376e-45d0-8e5d-2476668948e1","system_id":"levelo_inurba_marseille","lat":43.282119,"lon":5.390658,"is_reserved":false,"is_disabled":false,"rental_uris":{"android":"levelo://app?vid=52093ed1-376e-45d0-8e5d-2476668948e1","ios":"levelo://app?vid=52093ed1-376e-45d0-8e5d-2476668948e1"},"vehicle_type_id":"4","last_reported":1761315048,"current_range_meters":21600,"station_id":"ce4bhn92rcd13ifvqgsg","pricing_plan_id":"cebpf4jnsgd1na2vs0mg"},{"bike_id":"875af547-cfd6-4670-9df8-3028f8a67393","system_id":"levelo_inurba_marseille","lat":43.29886,"lon":5.43667,"is_reserved":false,"is_disabled":false,"rental_uris":{"android":"levelo://app?vid=875af547-cfd6-4670-9df8-3028f8a67393","ios":"levelo://app?vid=875af547-cfd6-4670-9df8-3028f8a67393"},"vehicle_type_id":"4","last_reported":1761315048,"current_range_meters":21600,"station_id":"ce4bhpp2rcd13ifvqhfg","pricing_plan_id":"cebpf4jnsgd1na2vs0mg"},{"bike_id":"de4c9d67-aa03-439a-a821-c7b9a613d790","system_id":"levelo_inurba_marseille","lat":43.211875,"lon":5.350719,"is_reserved":false,"is_disabled":false,"rental_uris":{"android":"levelo://app?vid=de4c9d67-aa03-439a-a821-c7b9a613d790","ios":"levelo://app?vid=de4c9d67-aa03-439a-a821-c7b9a613d790"},"vehicle_type_id":"4","last_reported":1761315048,"current_range_meters":21600,"station_id":"st_cvj6sg6p6f1abm77japg","pricing_plan_id":"cebpf4jnsgd1na2vs0mg"},{"bike_id":"5c3a48da-a66c-4ae7-ac99-8fff3f7993dd","system_id":"levelo_inurba_marseille","lat":43.24802,"lon":5.37459,"is_reserved":false,"is_disabled":false,"rental_uris":{"android":"levelo://app?vid=5c3a48da-a66c-4ae7-ac99-8fff3f7993dd","ios":"levelo://app?vid=5c3a48da-a66c-4ae7-ac99-8fff3f7993dd"},"vehicle_type_id":"4","last_reported":1761315048,"current_range_meters":21600,"station_id":"ce4bhgh2rcd13ifvqfb0","pricing_plan_id":"cebpf4jnsgd1na2vs0mg"},{"bike_id":"d5d7fb59-053a-4dcf-b457-48d7c73c7e59","system_id":"levelo_inurba_marseille","lat":43.21329,"lon":5.34937,"is_reserved":false,"is_disabled":false,"rental_uris":{"android":"levelo://app?vid=d5d7fb59-053a-4dcf-b457-48d7c73c7e59","ios":"levelo://app?vid=d5d7fb59-053a-4dcf-b457-48d7c73c7e59"},"vehicle_type_id":"4","last_reported":1761315048,"current_range_meters":21600,"station_id":"","pricing_plan_id":"cebpf4jnsgd1na2vs0mg"},{"bike_id":"151681fe-d6da-478a-be81-1ca5e6442b9c","system_id":"levelo_inurba_marseille","lat":43.27056,"lon":5.40279,"is_reserved":false,"is_disabled":true,"rental_uris":{"android":"levelo://app?vid=151681fe-d6da-478a-be81-1ca5e6442b9c","ios":"levelo://app?vid=151681fe-d6da-478a-be81-1ca5e6442b9c"},"vehicle_type_id":"4","last_reported":1761315048,"current_range_meters":21600,"station_id":"ce4bhk92rcd13ifvqgc0","pricing_plan_id":"cebpf4jnsgd1na2vs0mg"},{"bike_id":"6cf4df0b-6e77-4a5d-9045-802a6bab7eee","system_id":"levelo_inurba_marseille","lat":43.30798,"lon":5.38155,"is_reserved":false,"is_disabled":false,"rental_uris":{"android":"levelo://app?vid=6cf4df0b-6e77-4a5d-9045-802a6bab7eee","ios":"levelo://app?vid=6cf4df0b-6e77-4a5d-9045-802a6bab7eee"},"vehicle_type_id":"4","last_reported":1761315048,"current_range_meters":21600,"station_id":"ce4bgt12rcd13ifvqce0","pricing_plan_id":"cebpf4jnsgd1na2vs0mg"},