{"last_updated":1692471810,"ttl":30,"version":"2.2","data":{"bikes":[{"bike_id":"7d134395-dd7d-4fe9-939b-b134c2f11fb2","system_id":"levelo_inurba_marseille","lat":43.31341,"lon":5.367098,"is_reserved":false,"is_disabled":false,"rental_uris":{"android":"levelo://app?vid=7d134395-dd7d-4fe9-939b-b134c2f11fb2","ios":"levelo://app?vid=7d134395-dd7d-4fe9-939b-b134c2f11fb2"},"vehicle_type_id":"4","last_reported":1692471811,"current_range_meters":25600,"station_id":"ce4bgr92rcd13ifvqc6g","pricing_plan_id":"free"},{"bike_id":"4a8eff5f-8c21-4635-b0a0-f6fc244f4d3a","system_id":"levelo_inurba_marseille","lat":43.31224,"lon":5.36855,"is_reserved":false,"is_disabled":false,"rental_uris":{"android":"levelo://app?vid=4a8eff5f-8c21-4635-b0a0-f6fc244f4d3a","ios":"levelo://app?vid=4a8eff5f-8c21-4635-b0a0-f6fc244f4d3a"},"vehicle_type_id":"4","last_reported":1692471811,"current_range_meters":13600,"station_id":"ce4bgl92rcd13ifvqbq0","pricing_plan_id":"free"},{"bike_id":"9ae1c16c-453f-4259-aad2-60a019ea5b4a","system_id":"levelo_inurba_marseille","lat":43.312239,"lon":5.368562,"is_reserved":false,"is_disabled":false,"rental_uris":{"android":"levelo://app?vid=9ae1c16c-453f-4259-aad2-60a019ea5b4a","ios":"levelo://app?vid=9ae1c16c-453f-4259-aad2-60a019ea5b4a"},"vehicle_type_id":"4","last_reported":1692471811,"current_range_meters":13200,"station_id":"ce4bgl92rcd13ifvqbq0","pricing_plan_id":"free"},{"bike_id":"f22ca441-4e4e-4660-b824-b2f46943e54d","system_id":"levelo_inurba_marseille","lat":43.312239,"lon":5.368562,"is_reserved":false,"is_disabled":false,"rental_uris":{"android":"levelo://app?vid=f22ca441-4e4e-4660-b824-b2f46943e54d","ios":"levelo://app?vid=f22ca441-4e4e-4660-b824-b2f46943e54d"},"vehicle_type_id":"4","last_reported":1692471811,"current_range_meters":31200,"station_id":"ce4bgl92rcd13ifvqbq0","pricing_plan_id":"free"},{"bike_id":"15bd8615-7308-4894-a0bf-eb0edb90f6a0","system_id":"levelo_inurba_marseille","lat":43.309076,"lon":5.368465,"is_reserved":false,"is_disabled":false,"rental_uris":{"android":"levelo://app?vid=15bd8615-7308-4894-a0bf-eb0edb90f6a0","ios":"levelo://app?vid=15bd8615-7308-4894-a0bf-eb0edb90f6a0"},"vehicle_type_id":"4","last_reported":1692471811,"current_range_meters":30000,"station_id":"ce4bgn92rcd13ifvqbvg","pricing_plan_id":"free"},{"bike_id":"24236255-1bd1-43ee-80ee-3d1eb123f640","system_id":"levelo_inurba_marseille","lat":43.314811,"lon":5.373104,"is_reserved":false,"is_disabled":false,"rental_uris":{"android":"levelo://app?vid=24236255-1bd1-43ee-80ee-3d1eb123f640","ios":"levelo://app?vid=24236255-1bd1-43ee-80ee-3d1eb123f640"},"vehicle_type_id":"4","last_reported":1692471811,"current_range_meters":10000,"station_id":"ce4bgt12rcd13ifvqcd0","pricing_plan_id":"free"},{"bike_id":"acad536b-bc2f-4e5a-aa23-0154cb292e13","system_id":"levelo_inurba_marseille","lat":43.314811,"lon":5.373104,"is_reserved":false,"is_disabled":false,"rental_uris":{"android":"levelo://app?vid=acad536b-bc2f-4e5a-aa23-0154cb292e13","ios":"levelo://app?vid=acad536b-bc2f-4e5a-aa23-0154cb292e13"},"vehicle_type_id":"4","last_reported":1692471811,"current_range_meters":22800,"station_id":"ce4bgt12rcd13ifvqcd0","pricing_plan_id":"free"},{"bike_id":"0b7b8e29-c517-4671-ad6e-9ffaeab8f00f","system_id":"levelo_inurba_marseille","lat":43.305712,"lon":5.365641,"is_reserved":false,"is_disabled":false,"rental_uris":{"android":"levelo://app?vid=0b7b8e29-c517-4671-ad6e-9ffaeab8f00f","ios":"levelo://app?vid=0b7b8e29-c517-4671-ad6e-9ffaeab8f00f"},"vehicle_type_id":"4","last_reported":1692471811,"current_range_meters":9200,"station_id":"ce4bgs12rcd13ifvqcag","pricing_plan_id":"free"},{"bike_id":"386ed8e3-b71e-4f68-86af-202c5b76503e","system_id":"levelo_inurba_marseille","lat":43.305368,"lon":5.367343,"is_reserved":false,"is_disabled":false,"rental_uris":{"android":"levelo://app?vid=386ed8e3-b71e-4f68-86af-202c5b76503e","ios":"levelo://app?vid=386ed8e3-b71e-4f68-86af-202c5b76503e"},"vehicle_type_id":"4","last_reported":1692471811,"current_range_meters":24000,"station_id":"ce4bgrp2rcd13ifvqc9g","pricing_plan_id":"free"},{"bike_id":"9fbe6e18-d192-44c2-98b5-cafb68b41aa4","system_id":"levelo_inurba_marseille","lat":43.30541,"lon":5.36523,"is_reserved":false,"is_disabled":false,"rental_uris":{"android":"levelo://app?vid=9fbe6e18-d192-44c2-98b5-cafb68b41aa4","ios":"levelo://app?vid=9fbe6e18-d192-44c2-98b5-cafb68b41aa4"},"vehicle_type_id":"4","last_reported":1692471811,"current_range_meters":10400,"station_id":"ce4bgs12rcd13ifvqcag","pricing_plan_id":"free"},{"bike_id":"976434e6-bd26-49c8-bc88-fe0b363adc36","system_id":"levelo_inurba_marseille","lat":43.311131,"lon":5.377651,"is_reserved":false,"is_disabled":false,"rental_uris":{"android":"levelo://app?vid=976434e6-bd26-49c8-bc88-fe0b363adc36","ios":"levelo://app?vid=976434e6-bd26-49c8-bc88-fe0b363adc36"},"vehicle_type_id":"4","last_reported":1692471811,"current_range_meters":7200,"station_id":"ce4bgt92rcd13ifvqcg0","pricing_plan_id":"free"},{"bike_id":"e92c44c6-bfb0-45fa-b2fe-a367fd139d46","system_id":"levelo_inurba_marseille","lat":43.317075,"lon":5.377367,"is_reserved":false,"is_disabled":false,"rental_uris":{"android":"levelo://app?vid=e92c44c6-bfb0-45fa-b2fe-a367fd139d46","ios":"levelo://app?vid=e92c44c6-bfb0-45fa-b2fe-a367fd139d46"},"vehicle_type_id":"4","last_reported":1692471811,"current_range_meters":20400,"station_id":"ce4bgth2rcd13ifvqch0","pricing_plan_id":"free"},{"bike_id":"11f25fa6-3f89-4ee8-84d0-b397990f0198","system_id":"levelo_inurba_marseille","lat":43.317075,"lon":5.377367,"is_reserved":false,"is_disabled":false,"rental_uris":{"android":"levelo://app?vid=11f25fa6-3f89-4ee8-84d0-b397990f0198","ios":"levelo://app?vid=11f25fa6-3f89-4ee8-84d0-b397990f0198"},"vehicle_type_id":"4","last_reported":1692471811,"current_range_meters":10000,"station_id":"ce4bgth2rcd13ifvqch0","pricing_plan_id":"free"},{"bike_id":"ffbbd85b-2ccf-411b-a739-2c5fef19f1aa","system_id":"levelo_inurba_marseille","lat":43.317075,"lon":5.377367,"is_reserved":false,"is_disabled":false,"rental_uris":{"android":"levelo://app?vid=ffbbd85b-2ccf-411b-a739-2c5fef19f1aa","ios":"levelo://app?vid=ffbbd85b-2ccf-411b-a739-2c5fef19f1aa"},"vehicle_type_id":"4","last_reported":1692471811,"current_range_meters":15200,"station_id":"ce4bgth2rcd13ifvqch0","pricing_plan_id":"free"},{"bike_id":"65306e8f-c5d7-43a5-9607-aebfc4949e25","system_id":"levelo_inurba_marseille","lat":43.303046,"lon":5.368981,"is_reserved":false,"is_disabled":false,"rental_uris":{"android":"levelo://app?vid=65306e8f-c5d7-43a5-9607-aebfc4949e25","ios":"levelo://app?vid=65306e8f-c5d7-43a5-9607-aebfc4949e25"},"vehicle_type_id":"4","last_reported":1692471811,"current_range_meters":1200,"station_id":"ce4bgqh2rcd13ifvqc5g","pricing_plan_id":"free"},{"bike_id":"0871042d-4c98-4a0d-a09d-36eb6b88fae9","system_id":"levelo_inurba_marseille","lat":43.31538,"lon":5.38017,"is_reserved":false,"is_disabled":false,"rental_uris":{"android":"levelo://app?vid=0871042d-4c98-4a0d-a09d-36eb6b88fae9","ios":"levelo://app?vid=0871042d-4c98-4a0d-a09d-36eb6b88fae9"},"vehicle_type_id":"4","last_reported":1692471811,"current_range_meters":23200,"station_id":"ce4bhsp2rcd13ifvqi50","pricing_plan_id":"free"},{"bike_id":"d86cb049-aee0-420a-8442-55a132e92d88","system_id":"levelo_inurba_marseille","lat":43.31528,"lon":5.38025,"is_reserved":false,"is_disabled":false,"rental_uris":{"android":"levelo://app?vid=d86cb049-aee0-420a-8442-55a132e92d88","ios":"levelo://app?vid=d86cb049-aee0-420a-8442-55a132e92d88"},"vehicle_type_id":"4","last_reported":1692471811,"current_range_meters":4400,"station_id":"ce4bhsp2rcd13ifvqi50","pricing_plan_id":"free"},{"bike_id":"401cf04b-5465-4fb6-b379-1858dfbf6eda","system_id":"levelo_inurba_marseille","lat":43.31527,"lon":5.38035,"is_reserved":false,"is_disabled":false,"rental_uris":{"android":"levelo://app?vid=401cf04b-5465-4fb6-b379-1858dfbf6eda","ios":"levelo://app?vid=401cf04b-5465-4fb6-b379-1858dfbf6eda"},"vehicle_type_id":"4","last_reported":1692471811,"current_range_meters":800,"station_id":"ce4bhsp2rcd13ifvqi50","pricing_plan_id":"free"},{"bike_id":"dd4e84e9-e017-451b-a868-3e488fe99058","system_id":"levelo_inurba_marseille","lat":43.304606,"lon":5.379026,"is_reserved":false,"is_disabled":false,"rental_uris":{"android":"levelo://app?vid=dd4e84e9-e017-451b-a868-3e488fe99058","ios":"levelo://app?vid=dd4e84e9-e017-451b-a868-3e488fe99058"},"vehicle_type_id":"4","last_reported":1692471811,"current_range_meters":5600,"station_id":"ce4bgup2rcd13ifvqcn0","pricing_plan_id":"free"},{"bike_id":"93d40f17-3568-4672-b5d5-e9682a780b16","system_id":"levelo_inurba_marseille","lat":43.3014,"lon":5.37421,"is_reserved":false,"is_disabled":false,"rental_uris":{"android":"levelo://app?vid=93d40f17-3568-4672-b5d5-e9682a780b16","ios":"levelo://app?vid=93d40f17-3568-4672-b5d5-e9682a780b16"},"vehicle_type_id":"4","last_reported":1692471811,"current_range_meters":0,"station_id":"ce4bgs92rcd13ifvqcc0","pricing_plan_id":"free"},{"bike_id":"8f9423b6-2f75-4d37-9601-472d76ede970","system_id":"levelo_inurba_marseille","lat":43.3136,"lon":5.38465,"is_reserved":false,"is_disabled":false,"rental_uris":{"android":"levelo://app?vid=8f9423b6-2f75-4d37-9601-472d76ede970","ios":"levelo://app?vid=8f9423b6-2f75-4d37-9601-472d76ede970"},"vehicle_type_id":"4","last_reported":1692471811,"current_range_meters":6800,"station_id":"ce4bgt92rcd13ifvqcf0","pricing_plan_id":"free"},{"bike_id":"66a85102-d3be-452a-bf6c-182362e6a30b","system_id":"levelo_inurba_marseille","lat":43.31364,"lon":5.38485,"is_reserved":false,"is_disabled":false,"rental_uris":{"android":"levelo://app?vid=66a85102-d3be-452a-bf6c-182362e6a30b","ios":"levelo://app?vid=66a85102-d3be-452a-bf6c-182362e6a30b"},"vehicle_type_id":"4","last_reported":1692471811,"current_range_meters":0,"station_id":"ce4bgt92rcd13ifvqcf0","pricing_plan_id":"free"},{"bike_id":"704cd585-970a-4962-89e0-776ae7869d8c","system_id":"levelo_inurba_marseille","lat":43.31365,"lon":5.38493,"is_reserved":false,"is_disabled":false,"rental_uris":{"android":"levelo://app?vid=704cd585-970a-4962-89e0-776ae7869d8c","ios":"levelo://app?vid=704cd585-970a-4962-89e0-776ae7869d8c"},"vehicle_type_id":"4","last_reported":1692471811,"current_range_meters":1200,"station_id":"ce4bgt92rcd13ifvqcf0","pricing_plan_id":"free"},{"bike_id":"aebc6556-6d46-484f-bcf6-a0271bc0ac28","system_id":"levelo_inurba_marseille","lat":43.31368,"lon":5.38493,"is_reserved":false,"is_disabled":false,"rental_uris":{"android":"levelo://app?vid=aebc6556-6d46-484f-bcf6-a0271bc0ac28","ios":"levelo://app?vid=aebc6556-6d46-484f-bcf6-a0271bc0ac28"},"vehicle_type_id":"4","last_reported":1692471811,"current_range_meters":5200,"station_id":"ce4bgt92rcd13ifvqcf0","pricing_plan_id":"free"},{"bike_id":"8d685235-90d9-4545-8c90-95441a0526a5","system_id":"levelo_inurba_marseille","lat":43.31536,"lon":5.38631,"is_reserved":false,"is_disabled":false,"rental_uris":{"android":"levelo://app?vid=8d685235-90d9-4545-8c90-95441a0526a5","ios":"levelo://app?vid=8d685235-90d9-4545-8c90-95441a0526a5"},"vehicle_type_id":"4","last_reported":1692471811,"current_range_meters":4400,"station_id":"","pricing_plan_id":"free"},{"bike_id":"75821315-ad92-47c7-8b93-cf65176d3d52","system_id":"levelo_inurba_marseille","lat":43.298433,"lon":5.362774,"is_reserved":false,"is_disabled":false,"rental_uris":{"android":"levelo://app?vid=75821315-ad92-47c7-8b93-cf65176d3d52","ios":"levelo://app?vid=75821315-ad92-47c7-8b93-cf65176d3d52"},"vehicle_type_id":"4","last_reported":1692471811,"current_range_meters":9200,"station_id":"ce4bgpp2rcd13ifvqc3g","pricing_plan_id":"free"},{"bike_id":"fbae2085-5b12-4dda-9058-989a8295b487","system_id":"levelo_inurba_marseille","lat":43.30544,"lon":5.38429,"is_reserved":false,"is_disabled":false,"rental_uris":{"android":"levelo://app?vid=fbae2085-5b12-4dda-9058-989a8295b487","ios":"levelo://app?vid=fbae2085-5b12-4dda-9058-989a8295b487"},"vehicle_type_id":"4","last_reported":1692471811,"current_range_meters":8400,"station_id":"ce4bgg92rcd13ifvqb30","pricing_plan_id":"free"},{"bike_id":"b97b7eed-b614-44e1-b36a-88c870a6343e","system_id":"levelo_inurba_marseille","lat":43.305364,"lon":5.384119,"is_reserved":false,"is_disabled":false,"rental_uris":{"android":"levelo://app?vid=b97b7eed-b614-44e1-b36a-88c870a6343e","ios":"levelo://app?vid=b97b7eed-b614-44e1-b36a-88c870a6343e"},"vehicle_type_id":"4","last_reported":1692471811,"current_range_meters":23200,"station_id":"ce4bgg92rcd13ifvqb30","pricing_plan_id":"free"},{"bike_id":"a073a3a8-b6c4-46ea-939a-8dd0d1d2973c","system_id":"levelo_inurba_marseille","lat":43.298433,"lon":5.362774,"is_reserved":false,"is_disabled":false,"rental_uris":{"android":"levelo://app?vid=a073a3a8-b6c4-46ea-939a-8dd0d1d2973c","ios":"levelo://app?vid=a073a3a8-b6c4-46ea-939a-8dd0d1d2973c"},"vehicle_type_id":"4","last_reported":1692471811,"current_range_meters":800,"station_id":"ce4bgpp2rcd13ifvqc3g","pricing_plan_id":"free"},{"bike_id":"e1167afa-b8a7-4c56-a5ad-92a67cf9c7dd","system_id":"levelo_inurba_marseille","lat":43.305364,"lon":5.384119,"is_reserved":false,"is_disabled":false,"rental_uris":{"android":"levelo://app?vid=e1167afa-b8a7-4c56-a5ad-92a67cf9c7dd","ios":"levelo://app?vid=e1167afa-b8a7-4c56-a5ad-92a67cf9c7dd"},"vehicle_type_id":"4","last_reported":1692471811,"current_range_meters":18400,"station_id":"ce4bgg92rcd13ifvqb30","pricing_plan_id":"free"},{"bike_id":"d25c6c12-1292-4c5b-9d92-949d139a1d10","system_id":"levelo_inurba_marseille","lat":43.30538,"lon":5.38433,"is_reserved":false,"is_disabled":false,"rental_uris":{"android":"levelo://app?vid=d25c6c12-1292-4c5b-9d92-949d139a1d10","ios":"levelo://app?vid=d25c6c12-1292-4c5b-9d92-949d139a1d10"},"vehicle_type_id":"4","last_reported":1692471811,"current_range_meters":4800,"station_id":"ce4bgg92rcd13ifvqb30","pricing_plan_id":"free"},{"bike_id":"9c65c334-95aa-4a9f-a948-0bf227388a83","system_id":"levelo_inurba_marseille","lat":43.299243,"lon":5.374807,"is_reserved":false,"is_disabled":false,"rental_uris":{"android":"levelo://app?vid=9c65c334-95aa-4a9f-a948-0bf227388a83","ios":"levelo://app?vid=9c65c334-95aa-4a9f-a948-0bf227388a83"},"vehicle_type_id":"4","last_reported":1692471811,"current_range_meters":24000,"station_id":"ce4bgjh2rcd13ifvqbg0","pricing_plan_id":"free"},{"bike_id":"cd5a5d53-ce77-4424-88a3-9ce1cd546336","system_id":"levelo_inurba_marseille","lat":43.311722,"lon":5.387247,"is_reserved":false,"is_disabled":false,"rental_uris":{"android":"levelo://app?vid=cd5a5d53-ce77-4424-88a3-9ce1cd546336","ios":"levelo://app?vid=cd5a5d53-ce77-4424-88a3-9ce1cd546336"},"vehicle_type_id":"4","last_reported":1692471811,"current_range_meters":19200,"station_id":"ce4bgv12rcd13ifvqcp0","pricing_plan_id":"free"},{"bike_id":"36a0a893-98e4-4939-ab77-57b6c42cb3eb","system_id":"levelo_inurba_marseille","lat":43.30204,"lon":5.38092,"is_reserved":false,"is_disabled":false,"rental_uris":{"android":"levelo://app?vid=36a0a893-98e4-4939-ab77-57b6c42cb3eb","ios":"levelo://app?vid=36a0a893-98e4-4939-ab77-57b6c42cb3eb"},"vehicle_type_id":"4","last_reported":1692471811,"current_range_meters":0,"station_id":"","pricing_plan_id":"free"},{"bike_id":"f3ac07eb-64da-4f5c-b7c9-dd8ba4f3ab82","system_id":"levelo_inurba_marseille","lat":43.311722,"lon":5.387247,"is_reserved":false,"is_disabled":false,"rental_uris":{"android":"levelo://app?vid=f3ac07eb-64da-4f5c-b7c9-dd8ba4f3ab82","ios":"levelo://app?vid=f3ac07eb-64da-4f5c-b7c9-dd8ba4f3ab82"},"vehicle_type_id":"4","last_reported":1692471811,"current_range_meters":6000,"station_id":"ce4bgv12rcd13ifvqcp0","pricing_plan_id":"free"},{"bike_id":"b885f463-e8c5-42cc-902f-7152167ce1c7","system_id":"levelo_inurba_marseille","lat":43.299243,"lon":5.374807,"is_reserved":false,"is_disabled":false,"rental_uris":{"android":"levelo://app?vid=b885f463-e8c5-42cc-902f-7152167ce1c7","ios":"levelo://app?vid=b885f463-e8c5-42cc-902f-7152167ce1c7"},"vehicle_type_id":"4","last_reported":1692471811,"current_range_meters":31200,"station_id":"ce4bgjh2rcd13ifvqbg0","pricing_plan_id":"free"},{"bike_id":"add563b1-93f2-4de8-8ba7-a1e559efa4f5","system_id":"levelo_inurba_marseille","lat":43.311722,"lon":5.387247,"is_reserved":false,"is_disabled":false,"rental_uris":{"android":"levelo://app?vid=add563b1-93f2-4de8-8ba7-a1e559efa4f5","ios":"levelo://app?vid=add563b1-93f2-4de8-8ba7-a1e559efa4f5"},"vehicle_type_id":"4","last_reported":1692471811,"current_range_meters":14800,"station_id":"ce4bgv12rcd13ifvqcp0","pricing_plan_id":"free"},{"bike_id":"b815ce0f-8c6d-460d-8747-b98d1251b4b3","system_id":"levelo_inurba_marseille","lat":43.32286,"lon":5.38259,"is_reserved":false,"is_disabled":false,"rental_uris":{"android":"levelo://app?vid=b815ce0f-8c6d-460d-8747-b98d1251b4b3","ios":"levelo://app?vid=b815ce0f-8c6d-460d-8747-b98d1251b4b3"},"vehicle_type_id":"4","last_reported":1692471811,"current_range_meters":15200,"station_id":"ce4bhr12rcd13ifvqhqg","pricing_plan_id":"free"},{"bike_id":"ae3f8613-01c1-4d4c-a00b-11b190e3a7c9","system_id":"levelo_inurba_marseille","lat":43.297774,"lon":5.370875,"is_reserved":false,"is_disabled":false,"rental_uris":{"android":"levelo://app?vid=ae3f8613-01c1-4d4c-a00b-11b190e3a7c9","ios":"levelo://app?vid=ae3f8613-01c1-4d4c-a00b-11b190e3a7c9"},"vehicle_type_id":"4","last_reported":1692471811,"current_range_meters":12000,"station_id":"ce4bgop2rcd13ifvqc1g","pricing_plan_id":"free"},{"bike_id":"5b5c8cae-b425-4976-9ba8-5ae205664d6b","system_id":"levelo_inurba_marseille","lat":43.32285,"lon":5.38265,"is_reserved":false,"is_disabled":false,"rental_uris":{"android":"levelo://app?vid=5b5c8cae-b425-4976-9ba8-5ae205664d6b","ios":"levelo://app?vid=5b5c8cae-b425-4976-9ba8-5ae205664d6b"},"vehicle_type_id":"4","last_reported":1692471811,"current_range_meters":18400,"station_id":"ce4bhr12rcd13ifvqhqg","pricing_plan_id":"free"},{"bike_id":"b9784bc4-a1f4-4e7b-a996-3746dcc4c656","system_id":"levelo_inurba_marseille","lat":43.32289,"lon":5.3827,"is_reserved":false,"is_disabled":false,"rental_uris":{"android":"levelo://app?vid=b9784bc4-a1f4-4e7b-a996-3746dcc4c656","ios":"levelo://app?vid=b9784bc4-a1f4-4e7b-a996-3746dcc4c656"},"vehicle_type_id":"4","last_reported":1692471811,"current_range_meters":9600,"station_id":"ce4bhr12rcd13ifvqhqg","pricing_plan_id":"free"},{"bike_id":"80568bb6-8e83-41b4-ab0a-65a2efaa8c8f","system_id":"levelo_inurba_marseille","lat":43.32287,"lon":5.38274,"is_reserved":false,"is_disabled":false,"rental_uris":{"android":"levelo://app?vid=80568bb6-8e83-41b4-ab0a-65a2efaa8c8f","ios":"levelo://app?vid=80568bb6-8e83-41b4-ab0a-65a2efaa8c8f"},"vehicle_type_id":"4","last_reported":1692471811,"current_range_meters":0,"station_id":"ce4bhr12rcd13ifvqhqg","pricing_plan_id":"free"},{"bike_id":"648dadf8-ff22-438c-bfb7-5c83267bdf3f","system_id":"levelo_inurba_marseille","lat":43.3229,"lon":5.38272,"is_reserved":false,"is_disabled":false,"rental_uris":{"android":"levelo://app?vid=648dadf8-ff22-438c-bfb7-5c83267bdf3f","ios":"levelo://app?vid=648dadf8-ff22-438c-bfb7-5c83267bdf3f"},"vehicle_type_id":"4","last_reported":1692471811,"current_range_meters":30800,"station_id":"ce4bhr12rcd13ifvqhqg","pricing_plan_id":"free"},{"bike_id":"20066552-063e-4d3e-9e10-e0e8a6d2c838","system_id":"levelo_inurba_marseille","lat":43.32287,"lon":5.38276,"is_reserved":false,"is_disabled":false,"rental_uris":{"android":"levelo://app?vid=20066552-063e-4d3e-9e10-e0e8a6d2c838","ios":"levelo://app?vid=20066552-063e-4d3e-9e10-e0e8a6d2c838"},"vehicle_type_id":"4","last_reported":1692471811,"current_range_meters":29200,"station_id":"ce4bhr12rcd13ifvqhqg","pricing_plan_id":"free"},{"bike_id":"a1f7b084-f437-4e0c-8b20-334f54c48d59","system_id":"levelo_inurba_marseille","lat":43.32288,"lon":5.38276,"is_reserved":false,"is_disabled":false,"rental_uris":{"android":"levelo://app?vid=a1f7b084-f437-4e0c-8b20-334f54c48d59","ios":"levelo://app?vid=a1f7b084-f437-4e0c-8b20-334f54c48d59"},"vehicle_type_id":"4","last_reported":1692471811,"current_range_meters":18400,"station_id":"ce4bhr12rcd13ifvqhqg","pricing_plan_id":"free"},{"bike_id":"418f40db-23bc-4b66-8945-04cfb5eeb137","system_id":"levelo_inurba_marseille","lat":43.328371,"lon":5.366909,"is_reserved":false,"is_disabled":false,"rental_uris":{"android":"levelo://app?vid=418f40db-23bc-4b66-8945-04cfb5eeb137","ios":"levelo://app?vid=418f40db-23bc-4b66-8945-04cfb5eeb137"},"vehicle_type_id":"4","last_reported":1692471811,"current_range_meters":31200,"station_id":"ce4bhs92rcd13ifvqi0g","pricing_plan_id":"free"},{"bike_id":"dead8c06-66e1-4988-887a-a1c0b4d00137","system_id":"levelo_inurba_marseille","lat":43.32832,"lon":5.36679,"is_reserved":false,"is_disabled":false,"rental_uris":{"android":"levelo://app?vid=dead8c06-66e1-4988-887a-a1c0b4d00137","ios":"levelo://app?vid=dead8c06-66e1-4988-887a-a1c0b4d00137"},"vehicle_type_id":"4","last_reported":1692471811,"current_range_meters":7200,"station_id":"ce4bhs92rcd13ifvqi0g","pricing_plan_id":"free"},{"bike_id":"e3a21d07-f446-4608-85be-12a81574bffc","system_id":"levelo_inurba_marseille","lat":43.32833,"lon":5.3668,"is_reserved":false,"is_disabled":false,"rental_uris":{"android":"levelo://app?vid=e3a21d07-f446-4608-85be-12a81574bffc","ios":"levelo://app?vid=e3a21d07-f446-4608-85be-12a81574bffc"},"vehicle_type_id":"4","last_reported":1692471811,"current_range_meters":15600,"station_id":"ce4bhs92rcd13ifvqi0g","pricing_plan_id":"free"},{"bike_id":"8d437ee0-2979-43ba-a0d7-aeb1267ca420","system_id":"levelo_inurba_marseille","lat":43.32834,"lon":5.36668,"is_reserved":false,"is_disabled":false,"rental_uris":{"android":"levelo://app?vid=8d437ee0-2979-43ba-a0d7-aeb1267ca420","ios":"levelo://app?vid=8d437ee0-2979-43ba-a0d7-aeb1267ca420"},"vehicle_type_id":"4","last_reported":1692471811,"current_range_meters":8000,"station_id":"ce4bhs92rcd13ifvqi0g","pricing_plan_id":"free"},{"bike_id":"dd789220-e7b5-42c1-b9dc-dc4243148021","system_id":"levelo_inurba_marseille","lat":43.297163,"lon":5.365866,"is_reserved":false,"is_disabled":false,"rental_uris":{"android":"levelo://app?vid=dd789220-e7b5-42c1-b9dc-dc4243148021","ios":"levelo://app?vid=dd789220-e7b5-42c1-b9dc-dc4243148021"},"vehicle_type_id":"4","last_reported":1692471811,"current_range_meters":31200,"station_id":"ce4bgn12rcd13ifvqbt0","pricing_plan_id":"free"},{"bike_id":"046e9b69-dafc-4259-a5fd-1db211c34d62","system_id":"levelo_inurba_marseille","lat":43.297163,"lon":5.365866,"is_reserved":false,"is_disabled":false,"rental_uris":{"android":"levelo://app?vid=046e9b69-dafc-4259-a5fd-1db211c34d62","ios":"levelo://app?vid=046e9b69-dafc-4259-a5fd-1db211c34d62"},"vehicle_type_id":"4","last_reported":1692471811,"current_range_meters":26800,"station_id":"ce4bgn12rcd13ifvqbt0","pricing_plan_id":"free"},{"bike_id":"d3139180-8ba9-4c91-b6e4-8baae3c22113","system_id":"levelo_inurba_marseille","lat":43.296131,"lon":5.370773,"is_reserved":false,"is_disabled":false,"rental_uris":{"android":"levelo://app?vid=d3139180-8ba9-4c91-b6e4-8baae3c22113","ios":"levelo://app?vid=d3139180-8ba9-4c91-b6e4-8baae3c22113"},"vehicle_type_id":"4","last_reported":1692471811,"current_range_meters":31200,"station_id":"ce4bgnh2rcd13ifvqc0g","pricing_plan_id":"free"},{"bike_id":"bb155e93-116e-494a-9911-2df351c7dae8","system_id":"levelo_inurba_marseille","lat":43.296131,"lon":5.370773,"is_reserved":false,"is_disabled":false,"rental_uris":{"android":"levelo://app?vid=bb155e93-116e-494a-9911-2df351c7dae8","ios":"levelo://app?vid=bb155e93-116e-494a-9911-2df351c7dae8"},"vehicle_type_id":"4","last_reported":1692471811,"current_range_meters":30000,"station_id":"ce4bgnh2rcd13ifvqc0g","pricing_plan_id":"free"},{"bike_id":"d0520fc3-d153-45c7-841a-8265e0b5dff1","system_id":"levelo_inurba_marseille","lat":43.309589,"lon":5.390258,"is_reserved":false,"is_disabled":false,"rental_uris":{"android":"levelo://app?vid=d0520fc3-d153-45c7-841a-8265e0b5dff1","ios":"levelo://app?vid=d0520fc3-d153-45c7-841a-8265e0b5dff1"},"vehicle_type_id":"4","last_reported":1692471811,"current_range_meters":20400,"station_id":"ce4bgup2rcd13ifvqco0","pricing_plan_id":"free"},{"bike_id":"74ee7e38-efc2-44a8-ba29-7890a81cc1b6","system_id":"levelo_inurba_marseille","lat":43.299028,"lon":5.381509,"is_reserved":false,"is_disabled":false,"rental_uris":{"android":"levelo://app?vid=74ee7e38-efc2-44a8-ba29-7890a81cc1b6","ios":"levelo://app?vid=74ee7e38-efc2-44a8-ba29-7890a81cc1b6"},"vehicle_type_id":"4","last_reported":1692471811,"current_range_meters":14800,"station_id":"ce4bgj12rcd13ifvqbc0","pricing_plan_id":"free"},{"bike_id":"f1b3e2ee-c148-4bb3-9021-aa610c0c718d","system_id":"levelo_inurba_marseille","lat":43.309589,"lon":5.390258,"is_reserved":false,"is_disabled":false,"rental_uris":{"android":"levelo://app?vid=f1b3e2ee-c148-4bb3-9021-aa610c0c718d","ios":"levelo://app?vid=f1b3e2ee-c148-4bb3-9021-aa610c0c718d"},"vehicle_type_id":"4","last_reported":1692471811,"current_range_meters":6400,"station_id":"ce4bgup2rcd13ifvqco0","pricing_plan_id":"free"},{"bike_id":"d0ef9a42-55b7-486e-98be-267eb4c8dc35","system_id":"levelo_inurba_marseille","lat":43.30949,"lon":5.39027,"is_reserved":false,"is_disabled":false,"rental_uris":{"android":"levelo://app?vid=d0ef9a42-55b7-486e-98be-267eb4c8dc35","ios":"levelo://app?vid=d0ef9a42-55b7-486e-98be-267eb4c8dc35"},"vehicle_type_id":"4","last_reported":1692471811,"current_range_meters":17200,"station_id":"ce4bgup2rcd13ifvqco0","pricing_plan_id":"free"},{"bike_id":"bbed6310-bc08-45af-9436-41fc141a32e1","system_id":"levelo_inurba_marseille","lat":43.30948,"lon":5.39027,"is_reserved":false,"is_disabled":false,"rental_uris":{"android":"levelo://app?vid=bbed6310-bc08-45af-9436-41fc141a32e1","ios":"levelo://app?vid=bbed6310-bc08-45af-9436-41fc141a32e1"},"vehicle_type_id":"4","last_reported":1692471811,"current_range_meters":800,"station_id":"ce4bgup2rcd13ifvqco0","pricing_plan_id":"free"},{"bike_id":"b7d89304-e7c7-430b-b62c-b9ec15249e38","system_id":"levelo_inurba_marseille","lat":43.309589,"lon":5.390258,"is_reserved":false,"is_disabled":false,"rental_uris":{"android":"levelo://app?vid=b7d89304-e7c7-430b-b62c-b9ec15249e38","ios":"levelo://app?vid=b7d89304-e7c7-430b-b62c-b9ec15249e38"},"vehicle_type_id":"4","last_reported":1692471811,"current_range_meters":12000,"station_id":"ce4bgup2rcd13ifvqco0","pricing_plan_id":"free"},{"bike_id":"8e8c5399-fa8d-459d-a7e9-c5173c01c4ee","system_id":"levelo_inurba_marseille","lat":43.309589,"lon":5.390258,"is_reserved":false,"is_disabled":false,"rental_uris":{"android":"levelo://app?vid=8e8c5399-fa8d-459d-a7e9-c5173c01c4ee","ios":"levelo://app?vid=8e8c5399-fa8d-459d-a7e9-c5173c01c4ee"},"vehicle_type_id":"4","last_reported":1692471811,"current_range_meters":26400,"station_id":"ce4bgup2rcd13ifvqco0","pricing_plan_id":"free"},{"bike_id":"8a30fbab-cf30-4b34-9f52-f33b2074a266","system_id":"levelo_inurba_marseille","lat":43.309589,"lon":5.390258,"is_reserved":false,"is_disabled":false,"rental_uris":{"android":"levelo://app?vid=8a30fbab-cf30-4b34-9f52-f33b2074a266","ios":"levelo://app?vid=8a30fbab-cf30-4b34-9f52-f33b2074a266"},"vehicle_type_id":"4","last_reported":1692471811,"current_range_meters":6000,"station_id":"ce4bgup2rcd13ifvqco0","pricing_plan_id":"free"},{"bike_id":"886c1799-b5d8-4f40-b22b-43413e46c870","system_id":"levelo_inurba_marseille","lat":43.30953,"lon":5.39032,"is_reserved":false,"is_disabled":false,"rental_uris":{"android":"levelo://app?vid=886c1799-b5d8-4f40-b22b-43413e46c870","ios":"levelo://app?vid=886c1799-b5d8-4f40-b22b-43413e46c870"},"vehicle_type_id":"4","last_reported":1692471811,"current_range_meters":10400,"station_id":"ce4bgup2rcd13ifvqco0","pricing_plan_id":"free"},{"bike_id":"81739a87-9f2c-4671-979f-e8f49774959d","system_id":"levelo_inurba_marseille","lat":43.309589,"lon":5.390258,"is_reserved":false,"is_disabled":false,"rental_uris":{"android":"levelo://app?vid=81739a87-9f2c-4671-979f-e8f49774959d","ios":"levelo://app?vid=81739a87-9f2c-4671-979f-e8f49774959d"},"vehicle_type_id":"4","last_reported":1692471811,"current_range_meters":4800,"station_id":"ce4bgup2rcd13ifvqco0","pricing_plan_id":"free"},{"bike_id":"1dc5ebf3-11ae-4404-8399-983506f92833","system_id":"levelo_inurba_marseille","lat":43.309589,"lon":5.390258,"is_reserved":false,"is_disabled":false,"rental_uris":{"android":"levelo://app?vid=1dc5ebf3-11ae-4404-8399-983506f92833","ios":"levelo://app?vid=1dc5ebf3-11ae-4404-8399-983506f92833"},"vehicle_type_id":"4","last_reported":1692471811,"current_range_meters":8400,"station_id":"ce4bgup2rcd13ifvqco0","pricing_plan_id":"free"},{"bike_id":"009c0706-b550-410f-a9c0-9d9c9f5b1b88","system_id":"levelo_inurba_marseille","lat":43.29896,"lon":5.38138,"is_reserved":false,"is_disabled":false,"rental_uris":{"android":"levelo://app?vid=009c0706-b550-410f-a9c0-9d9c9f5b1b88","ios":"levelo://app?vid=009c0706-b550-410f-a9c0-9d9c9f5b1b88"},"vehicle_type_id":"4","last_reported":1692471811,"current_range_meters":20400,"station_id":"ce4bgj12rcd13ifvqbc0","pricing_plan_id":"free"},{"bike_id":"858c9814-dec8-4097-86c0-76cdc25c6e8b","system_id":"levelo_inurba_marseille","lat":43.30947,"lon":5.39033,"is_reserved":false,"is_disabled":false,"rental_uris":{"android":"levelo://app?vid=858c9814-dec8-4097-86c0-76cdc25c6e8b","ios":"levelo://app?vid=858c9814-dec8-4097-86c0-76cdc25c6e8b"},"vehicle_type_id":"4","last_reported":1692471811,"current_range_meters":2800,"station_id":"ce4bgup2rcd13ifvqco0","pricing_plan_id":"free"},{"bike_id":"6f8f9e48-4a1b-4350-b371-122ea50d9552","system_id":"levelo_inurba_marseille","lat":43.30951,"lon":5.39035,"is_reserved":false,"is_disabled":false,"rental_uris":{"android":"levelo://app?vid=6f8f9e48-4a1b-4350-b371-122ea50d9552","ios":"levelo://app?vid=6f8f9e48-4a1b-4350-b371-122ea50d9552"},"vehicle_type_id":"4","last_reported":1692471811,"current_range_meters":5600,"station_id":"ce4bgup2rcd13ifvqco0","pricing_plan_id":"free"},{"bike_id":"73508f29-909d-43ce-963a-fd3f39614561","system_id":"levelo_inurba_marseille","lat":43.30959,"lon":5.39039,"is_reserved":false,"is_disabled":false,"rental_uris":{"android":"levelo://app?vid=73508f29-909d-43ce-963a-fd3f39614561","ios":"levelo://app?vid=73508f29-909d-43ce-963a-fd3f39614561"},"vehicle_type_id":"4","last_reported":1692471811,"current_range_meters":10800,"station_id":"ce4bgup2rcd13ifvqco0","pricing_plan_id":"free"},{"bike_id":"9e8f6bbf-d8cf-4a60-8345-1d6f80ad4f43","system_id":"levelo_inurba_marseille","lat":43.309589,"lon":5.390258,"is_reserved":false,"is_disabled":false,"rental_uris":{"android":"levelo://app?vid=9e8f6bbf-d8cf-4a60-8345-1d6f80ad4f43","ios":"levelo://app?vid=9e8f6bbf-d8cf-4a60-8345-1d6f80ad4f43"},"vehicle_type_id":"4","last_reported":1692471811,"current_range_meters":9200,"station_id":"ce4bgup2rcd13ifvqco0","pricing_plan_id":"free"},{"bike_id":"3ffbefc4-3bc7-42ed-9979-39ccbf921d00","system_id":"levelo_inurba_marseille","lat":43.309589,"lon":5.390258,"is_reserved":false,"is_disabled":false,"rental_uris":{"android":"levelo://app?vid=3ffbefc4-3bc7-42ed-9979-39ccbf921d00","ios":"levelo://app?vid=3ffbefc4-3bc7-42ed-9979-39ccbf921d00"},"vehicle_type_id":"4","last_reported":1692471811,"current_range_meters":26400,"station_id":"ce4bgup2rcd13ifvqco0","pricing_plan_id":"free"},{"bike_id":"61e929a1-45fe-43f9-a0bf-a47367f75574","system_id":"levelo_inurba_marseille","lat":43.309589,"lon":5.390258,"is_reserved":false,"is_disabled":false,"rental_uris":{"android":"levelo://app?vid=61e929a1-45fe-43f9-a0bf-a47367f75574","ios":"levelo://app?vid=61e929a1-45fe-43f9-a0bf-a47367f75574"},"vehicle_type_id":"4","last_reported":1692471811,"current_range_meters":9200,"station_id":"ce4bgup2rcd13ifvqco0","pricing_plan_id":"free"},{"bike_id":"18ce2835-86aa-429e-b3de-f2665669dc8a","system_id":"levelo_inurba_marseille","lat":43.317557,"lon":5.390173,"is_reserved":false,"is_disabled":false,"rental_uris":{"android":"levelo://app?vid=18ce2835-86aa-429e-b3de-f2665669dc8a","ios":"levelo://app?vid=18ce2835-86aa-429e-b3de-f2665669dc8a"},"vehicle_type_id":"4","last_reported":1692471811,"current_range_meters":28400,"station_id":"ce4bhqp2rcd13ifvqhng","pricing_plan_id":"free"},{"bike_id":"f8d80e25-9dbc-41ef-9b09-dd4e1093990c","system_id":"levelo_inurba_marseille","lat":43.317557,"lon":5.390173,"is_reserved":false,"is_disabled":false,"rental_uris":{"android":"levelo://app?vid=f8d80e25-9dbc-41ef-9b09-dd4e1093990c","ios":"levelo://app?vid=f8d80e25-9dbc-41ef-9b09-dd4e1093990c"},"vehicle_type_id":"4","last_reported":1692471811,"current_range_meters":3600,"station_id":"ce4bhqp2rcd13ifvqhng","pricing_plan_id":"free"},{"bike_id":"b19118f7-cbf1-4ae5-bf92-0d92bbaa7599","system_id":"levelo_inurba_marseille","lat":43.317557,"lon":5.390173,"is_reserved":false,"is_disabled":false,"rental_uris":{"android":"levelo://app?vid=b19118f7-cbf1-4ae5-bf92-0d92bbaa7599","ios":"levelo://app?vid=b19118f7-cbf1-4ae5-bf92-0d92bbaa7599"},"vehicle_type_id":"4","last_reported":1692471811,"current_range_meters":27200,"station_id":"ce4bhqp2rcd13ifvqhng","pricing_plan_id":"free"},{"bike_id":"e9682881-cb03-4ae3-b439-0cc7b7a607e3","system_id":"levelo_inurba_marseille","lat":43.317557,"lon":5.390173,"is_reserved":false,"is_disabled":false,"rental_uris":{"android":"levelo://app?vid=e9682881-cb03-4ae3-b439-0cc7b7a607e3","ios":"levelo://app?vid=e9682881-cb03-4ae3-b439-0cc7b7a607e3"},"vehicle_type_id":"4","last_reported":1692471811,"current_range_meters":28800,"station_id":"ce4bhqp2rcd13ifvqhng","pricing_plan_id":"free"},{"bike_id":"91a15668-1b27-4584-9c4f-ff4cb1af80b8","system_id":"levelo_inurba_marseille","lat":43.298037,"lon":5.381066,"is_reserved":false,"is_disabled":false,"rental_uris":{"android":"levelo://app?vid=91a15668-1b27-4584-9c4f-ff4cb1af80b8","ios":"levelo://app?vid=91a15668-1b27-4584-9c4f-ff4cb1af80b8"},"vehicle_type_id":"4","last_reported":1692471811,"current_range_meters":21600,"station_id":"ce4bgip2rcd13ifvqbb0","pricing_plan_id":"free"},{"bike_id":"a8592a0f-8544-4f06-960d-d16033c19d1a","system_id":"levelo_inurba_marseille","lat":43.29798,"lon":5.38106,"is_reserved":false,"is_disabled":false,"rental_uris":{"android":"levelo://app?vid=a8592a0f-8544-4f06-960d-d16033c19d1a","ios":"levelo://app?vid=a8592a0f-8544-4f06-960d-d16033c19d1a"},"vehicle_type_id":"4","last_reported":1692471811,"current_range_meters":10800,"station_id":"ce4bgip2rcd13ifvqbb0","pricing_plan_id":"free"},{"bike_id":"a4df99ce-0488-49dd-a888-94686f562e88","system_id":"levelo_inurba_marseille","lat":43.29569,"lon":5.37507,"is_reserved":false,"is_disabled":false,"rental_uris":{"android":"levelo://app?vid=a4df99ce-0488-49dd-a888-94686f562e88","ios":"levelo://app?vid=a4df99ce-0488-49dd-a888-94686f562e88"},"vehicle_type_id":"4","last_reported":1692471811,"current_range_meters":29200,"station_id":"ce4bgh92rcd13ifvqb50","pricing_plan_id":"free"},{"bike_id":"335bf52f-2737-4c40-b7c3-71c5860a4b5f","system_id":"levelo_inurba_marseille","lat":43.30431,"lon":5.38888,"is_reserved":false,"is_disabled":false,"rental_uris":{"android":"levelo://app?vid=335bf52f-2737-4c40-b7c3-71c5860a4b5f","ios":"levelo://app?vid=335bf52f-2737-4c40-b7c3-71c5860a4b5f"},"vehicle_type_id":"4","last_reported":1692471811,"current_range_meters":11600,"station_id":"ce4bgk12rcd13ifvqbi0","pricing_plan_id":"free"},{"bike_id":"7814d0ba-f416-4817-be68-852845a0439e","system_id":"levelo_inurba_marseille","lat":43.296277,"lon":5.377108,"is_reserved":false,"is_disabled":false,"rental_uris":{"android":"levelo://app?vid=7814d0ba-f416-4817-be68-852845a0439e","ios":"levelo://app?vid=7814d0ba-f416-4817-be68-852845a0439e"},"vehicle_type_id":"4","last_reported":1692471811,"current_range_meters":2000,"station_id":"ce4bgi92rcd13ifvqb90","pricing_plan_id":"free"},{"bike_id":"871fa2a4-b19b-44b0-9a23-8d3291152522","system_id":"levelo_inurba_marseille","lat":43.298037,"lon":5.381066,"is_reserved":false,"is_disabled":false,"rental_uris":{"android":"levelo://app?vid=871fa2a4-b19b-44b0-9a23-8d3291152522","ios":"levelo://app?vid=871fa2a4-b19b-44b0-9a23-8d3291152522"},"vehicle_type_id":"4","last_reported":1692471811,"current_range_meters":20000,"station_id":"ce4bgip2rcd13ifvqbb0","pricing_plan_id":"free"},{"bike_id":"450f0ace-bf0d-4809-ad4f-75053b295dc5","system_id":"levelo_inurba_marseille","lat":43.296277,"lon":5.377108,"is_reserved":false,"is_disabled":false,"rental_uris":{"android":"levelo://app?vid=450f0ace-bf0d-4809-ad4f-75053b295dc5","ios":"levelo://app?vid=450f0ace-bf0d-4809-ad4f-75053b295dc5"},"vehicle_type_id":"4","last_reported":1692471811,"current_range_meters":4800,"station_id":"ce4bgi92rcd13ifvqb90","pricing_plan_id":"free"},{"bike_id":"f35b3d95-4e56-4a29-adfd-6a258a0132b7","system_id":"levelo_inurba_marseille","lat":43.295279,"lon":5.375048,"is_reserved":false,"is_disabled":false,"rental_uris":{"android":"levelo://app?vid=f35b3d95-4e56-4a29-adfd-6a258a0132b7","ios":"levelo://app?vid=f35b3d95-4e56-4a29-adfd-6a258a0132b7"},"vehicle_type_id":"4","last_reported":1692471811,"current_range_meters":24800,"station_id":"ce4bgkp2rcd13ifvqbmg","pricing_plan_id":"free"},{"bike_id":"8be9fcf2-7a17-44fb-b8af-106b60c6d93a","system_id":"levelo_inurba_marseille","lat":43.294162,"lon":5.386292,"is_reserved":false,"is_disabled":false,"rental_uris":{"android":"levelo://app?vid=8be9fcf2-7a17-44fb-b8af-106b60c6d93a","ios":"levelo://app?vid=8be9fcf2-7a17-44fb-b8af-106b60c6d93a"},"vehicle_type_id":"4","last_reported":1692471811,"current_range_meters":400,"station_id":"ce4bh2h2rcd13ifvqdh0","pricing_plan_id":"free"},{"bike_id":"55f08f4d-333e-4077-9882-16e72e12ddbf","system_id":"levelo_inurba_marseille","lat":43.32361,"lon":5.38882,"is_reserved":false,"is_disabled":false,"rental_uris":{"android":"levelo://app?vid=55f08f4d-333e-4077-9882-16e72e12ddbf","ios":"levelo://app?vid=55f08f4d-333e-4077-9882-16e72e12ddbf"},"vehicle_type_id":"4","last_reported":1692471811,"current_range_meters":27200,"station_id":"ce4bhqp2rcd13ifvqhog","pricing_plan_id":"free"},{"bike_id":"21fcea45-e491-4a85-bcbf-bf5cd0b62ccf","system_id":"levelo_inurba_marseille","lat":43.32369,"lon":5.38879,"is_reserved":false,"is_disabled":false,"rental_uris":{"android":"levelo://app?vid=21fcea45-e491-4a85-bcbf-bf5cd0b62ccf","ios":"levelo://app?vid=21fcea45-e491-4a85-bcbf-bf5cd0b62ccf"},"vehicle_type_id":"4","last_reported":1692471811,"current_range_meters":30800,"station_id":"ce4bhqp2rcd13ifvqhog","pricing_plan_id":"free"},{"bike_id":"a97f77a2-1520-4bfc-9df0-0f9c62851caa","system_id":"levelo_inurba_marseille","lat":43.32365,"lon":5.38883,"is_reserved":false,"is_disabled":false,"rental_uris":{"android":"levelo://app?vid=a97f77a2-1520-4bfc-9df0-0f9c62851caa","ios":"levelo://app?vid=a97f77a2-1520-4bfc-9df0-0f9c62851caa"},"vehicle_type_id":"4","last_reported":1692471811,"current_range_meters":27600,"station_id":"ce4bhqp2rcd13ifvqhog","pricing_plan_id":"free"},{"bike_id":"d49c7be8-2f16-4455-8835-7143b891d27c","system_id":"levelo_inurba_marseille","lat":43.32367,"lon":5.388836,"is_reserved":false,"is_disabled":false,"rental_uris":{"android":"levelo://app?vid=d49c7be8-2f16-4455-8835-7143b891d27c","ios":"levelo://app?vid=d49c7be8-2f16-4455-8835-7143b891d27c"},"vehicle_type_id":"4","last_reported":1692471811,"current_range_meters":26000,"station_id":"ce4bhqp2rcd13ifvqhog","pricing_plan_id":"free"},{"bike_id":"0126f869-77bb-4690-a14f-53e2dd9d4689","system_id":"levelo_inurba_marseille","lat":43.32368,"lon":5.38887,"is_reserved":false,"is_disabled":false,"rental_uris":{"android":"levelo://app?vid=0126f869-77bb-4690-a14f-53e2dd9d4689","ios":"levelo://app?vid=0126f869-77bb-4690-a14f-53e2dd9d4689"},"vehicle_type_id":"4","last_reported":1692471811,"current_range_meters":24800,"station_id":"ce4bhqp2rcd13ifvqhog","pricing_plan_id":"free"},{"bike_id":"6b6cba89-d2b8-44bb-8454-5df08cf65f67","system_id":"levelo_inurba_marseille","lat":43.32367,"lon":5.388836,"is_reserved":false,"is_disabled":false,"rental_uris":{"android":"levelo://app?vid=6b6cba89-d2b8-44bb-8454-5df08cf65f67","ios":"levelo://app?vid=6b6cba89-d2b8-44bb-8454-5df08cf65f67"},"vehicle_type_id":"4","last_reported":1692471811,"current_range_meters":12000,"station_id":"ce4bhqp2rcd13ifvqhog","pricing_plan_id":"free"},{"bike_id":"3ca3f621-3ed1-46b4-b4f6-37a71d187fa3","system_id":"levelo_inurba_marseille","lat":43.32367,"lon":5.388836,"is_reserved":false,"is_disabled":false,"rental_uris":{"android":"levelo://app?vid=3ca3f621-3ed1-46b4-b4f6-37a71d187fa3","ios":"levelo://app?vid=3ca3f621-3ed1-46b4-b4f6-37a71d187fa3"},"vehicle_type_id":"4","last_reported":1692471811,"current_range_meters":26000,"station_id":"ce4bhqp2rcd13ifvqhog","pricing_plan_id":"free"},{"bike_id":"e812fb52-6e19-42ce-a168-a255d286cdc1","system_id":"levelo_inurba_marseille","lat":43.29602,"lon":5.381084,"is_reserved":false,"is_disabled":false,"rental_uris":{"android":"levelo://app?vid=e812fb52-6e19-42ce-a168-a255d286cdc1","ios":"levelo://app?vid=e812fb52-6e19-42ce-a168-a255d286cdc1"},"vehicle_type_id":"4","last_reported":1692471811,"current_range_meters":25200,"station_id":"ce4bgl12rcd13ifvqbo0","pricing_plan_id":"free"},{"bike_id":"f55cca89-c1a9-4b22-bbab-af45ea572153","system_id":"levelo_inurba_marseille","lat":43.29602,"lon":5.381084,"is_reserved":false,"is_disabled":false,"rental_uris":{"android":"levelo://app?vid=f55cca89-c1a9-4b22-bbab-af45ea572153","ios":"levelo://app?vid=f55cca89-c1a9-4b22-bbab-af45ea572153"},"vehicle_type_id":"4","last_reported":1692471811,"current_range_meters":26000,"station_id":"ce4bgl12rcd13ifvqbo0","pricing_plan_id":"free"},{"bike_id":"684508d9-df0f-4325-b7d0-05401902e5ac","system_id":"levelo_inurba_marseille","lat":43.29602,"lon":5.381084,"is_reserved":false,"is_disabled":false,"rental_uris":{"android":"levelo://app?vid=684508d9-df0f-4325-b7d0-05401902e5ac","ios":"levelo://app?vid=684508d9-df0f-4325-b7d0-05401902e5ac"},"vehicle_type_id":"4","last_reported":1692471811,"current_range_meters":6000,"station_id":"ce4bgl12rcd13ifvqbo0","pricing_plan_id":"free"},{"bike_id":"bf91aed2-0a9d-459d-b2ba-08a00200b245","system_id":"levelo_inurba_marseille","lat":43.29602,"lon":5.381084,"is_reserved":false,"is_disabled":false,"rental_uris":{"android":"levelo://app?vid=bf91aed2-0a9d-459d-b2ba-08a00200b245","ios":"levelo://app?vid=bf91aed2-0a9d-459d-b2ba-08a00200b245"},"vehicle_type_id":"4","last_reported":1692471811,"current_range_meters":20000,"station_id":"ce4bgl12rcd13ifvqbo0","pricing_plan_id":"free"},{"bike_id":"4bc6d999-7ea2-4e08-9b8b-02316aa795d1","system_id":"levelo_inurba_marseille","lat":43.29313,"lon":5.37168,"is_reserved":false,"is_disabled":false,"rental_uris":{"android":"levelo://app?vid=4bc6d999-7ea2-4e08-9b8b-02316aa795d1","ios":"levelo://app?vid=4bc6d999-7ea2-4e08-9b8b-02316aa795d1"},"vehicle_type_id":"4","last_reported":1692471811,"current_range_meters":18400,"station_id":"ce4bgh92rcd13ifvqb40","pricing_plan_id":"free"},{"bike_id":"30a642e3-b222-42d7-a26f-eb38af0f9604","system_id":"levelo_inurba_marseille","lat":43.29279,"lon":5.36845,"is_reserved":false,"is_disabled":false,"rental_uris":{"android":"levelo://app?vid=30a642e3-b222-42d7-a26f-eb38af0f9604","ios":"levelo://app?vid=30a642e3-b222-42d7-a26f-eb38af0f9604"},"vehicle_type_id":"4","last_reported":1692471811,"current_range_meters":18800,"station_id":"ce4bhbp2rcd13ifvqesg","pricing_plan_id":"free"},{"bike_id":"bd03620f-3890-42b6-9081-d4007d24e124","system_id":"levelo_inurba_marseille","lat":43.293249,"lon":5.371578,"is_reserved":false,"is_disabled":false,"rental_uris":{"android":"levelo://app?vid=bd03620f-3890-42b6-9081-d4007d24e124","ios":"levelo://app?vid=bd03620f-3890-42b6-9081-d4007d24e124"},"vehicle_type_id":"4","last_reported":1692471811,"current_range_meters":19200,"station_id":"ce4bgh92rcd13ifvqb40","pricing_plan_id":"free"},{"bike_id":"7a0b6c43-5754-4883-8c31-8a619e3931a2","system_id":"levelo_inurba_marseille","lat":43.293009,"lon":5.374584,"is_reserved":false,"is_disabled":false,"rental_uris":{"android":"levelo://app?vid=7a0b6c43-5754-4883-8c31-8a619e3931a2","ios":"levelo://app?vid=7a0b6c43-5754-4883-8c31-8a619e3931a2"},"vehicle_type_id":"4","last_reported":1692471811,"current_range_meters":2400,"station_id":"ce4bgi12rcd13ifvqb70","pricing_plan_id":"free"},{"bike_id":"b2e27af8-4f28-442b-9291-0e84df03f0df","system_id":"levelo_inurba_marseille","lat":43.305994,"lon":5.393687,"is_reserved":false,"is_disabled":false,"rental_uris":{"android":"levelo://app?vid=b2e27af8-4f28-442b-9291-0e84df03f0df","ios":"levelo://app?vid=b2e27af8-4f28-442b-9291-0e84df03f0df"},"vehicle_type_id":"4","last_reported":1692471811,"current_range_meters":30800,"station_id":"ce4bh0p2rcd13ifvqd80","pricing_plan_id":"free"},{"bike_id":"1dfd3697-6dc0-4cb9-8dc9-4212eaa69d0a","system_id":"levelo_inurba_marseille","lat":43.305994,"lon":5.393687,"is_reserved":false,"is_disabled":false,"rental_uris":{"android":"levelo://app?vid=1dfd3697-6dc0-4cb9-8dc9-4212eaa69d0a","ios":"levelo://app?vid=1dfd3697-6dc0-4cb9-8dc9-4212eaa69d0a"},"vehicle_type_id":"4","last_reported":1692471811,"current_range_meters":1600,"station_id":"ce4bh0p2rcd13ifvqd80","pricing_plan_id":"free"},{"bike_id":"48abc062-5fa3-47ea-a795-bce16f545300","system_id":"levelo_inurba_marseille","lat":43.305994,"lon":5.393687,"is_reserved":false,"is_disabled":false,"rental_uris":{"android":"levelo://app?vid=48abc062-5fa3-47ea-a795-bce16f545300","ios":"levelo://app?vid=48abc062-5fa3-47ea-a795-bce16f545300"},"vehicle_type_id":"4","last_reported":1692471811,"current_range_meters":12400,"station_id":"ce4bh0p2rcd13ifvqd80","pricing_plan_id":"free"},{"bike_id":"38fef587-7cc5-4800-b069-87b8f296a10a","system_id":"levelo_inurba_marseille","lat":43.29285,"lon":5.37448,"is_reserved":false,"is_disabled":false,"rental_uris":{"android":"levelo://app?vid=38fef587-7cc5-4800-b069-87b8f296a10a","ios":"levelo://app?vid=38fef587-7cc5-4800-b069-87b8f296a10a"},"vehicle_type_id":"4","last_reported":1692471811,"current_range_meters":31200,"station_id":"ce4bgi12rcd13ifvqb70","pricing_plan_id":"free"},{"bike_id":"2d7b815d-d57b-439b-8b3e-9f968d147812","system_id":"levelo_inurba_marseille","lat":43.30087,"lon":5.391,"is_reserved":false,"is_disabled":false,"rental_uris":{"android":"levelo://app?vid=2d7b815d-d57b-439b-8b3e-9f968d147812","ios":"levelo://app?vid=2d7b815d-d57b-439b-8b3e-9f968d147812"},"vehicle_type_id":"4","last_reported":1692471811,"current_range_meters":30800,"station_id":"","pricing_plan_id":"free"},{"bike_id":"7839048e-21b8-47bb-8497-ce71300d71bf","system_id":"levelo_inurba_marseille","lat":43.292663,"lon":5.376389,"is_reserved":false,"is_disabled":false,"rental_uris":{"android":"levelo://app?vid=7839048e-21b8-47bb-8497-ce71300d71bf","ios":"levelo://app?vid=7839048e-21b8-47bb-8497-ce71300d71bf"},"vehicle_type_id":"4","last_reported":1692471811,"current_range_meters":4400,"station_id":"ce4bgi12rcd13ifvqb80","pricing_plan_id":"free"},{"bike_id":"13393cac-3aa4-44ac-af1e-fc28c247f411","system_id":"levelo_inurba_marseille","lat":43.292663,"lon":5.376389,"is_reserved":false,"is_disabled":false,"rental_uris":{"android":"levelo://app?vid=13393cac-3aa4-44ac-af1e-fc28c247f411","ios":"levelo://app?vid=13393cac-3aa4-44ac-af1e-fc28c247f411"},"vehicle_type_id":"4","last_reported":1692471811,"current_range_meters":30800,"station_id":"ce4bgi12rcd13ifvqb80","pricing_plan_id":"free"},{"bike_id":"a021b0cc-dfca-423b-a10d-38bf56a635bf","system_id":"levelo_inurba_marseille","lat":43.298764,"lon":5.388973,"is_reserved":false,"is_disabled":false,"rental_uris":{"android":"levelo://app?vid=a021b0cc-dfca-423b-a10d-38bf56a635bf","ios":"levelo://app?vid=a021b0cc-dfca-423b-a10d-38bf56a635bf"},"vehicle_type_id":"4","last_reported":1692471811,"current_range_meters":18400,"station_id":"ce4bh392rcd13ifvqdl0","pricing_plan_id":"free"},{"bike_id":"4f7d55ad-7c13-4e58-ac73-afdb999f6925","system_id":"levelo_inurba_marseille","lat":43.313291,"lon":5.396838,"is_reserved":false,"is_disabled":false,"rental_uris":{"android":"levelo://app?vid=4f7d55ad-7c13-4e58-ac73-afdb999f6925","ios":"levelo://app?vid=4f7d55ad-7c13-4e58-ac73-afdb999f6925"},"vehicle_type_id":"4","last_reported":1692471811,"current_range_meters":0,"station_id":"ce4bgvp2rcd13ifvqcu0","pricing_plan_id":"free"},{"bike_id":"c21b6c08-f9a9-4005-bfdc-c5caade2897c","system_id":"levelo_inurba_marseille","lat":43.313291,"lon":5.396838,"is_reserved":false,"is_disabled":false,"rental_uris":{"android":"levelo://app?vid=c21b6c08-f9a9-4005-bfdc-c5caade2897c","ios":"levelo://app?vid=c21b6c08-f9a9-4005-bfdc-c5caade2897c"},"vehicle_type_id":"4","last_reported":1692471811,"current_range_meters":4400,"station_id":"ce4bgvp2rcd13ifvqcu0","pricing_plan_id":"free"},{"bike_id":"3ccc23cc-b848-4ff8-b28e-293bf8134e48","system_id":"levelo_inurba_marseille","lat":43.290327,"lon":5.375711,"is_reserved":false,"is_disabled":false,"rental_uris":{"android":"levelo://app?vid=3ccc23cc-b848-4ff8-b28e-293bf8134e48","ios":"levelo://app?vid=3ccc23cc-b848-4ff8-b28e-293bf8134e48"},"vehicle_type_id":"4","last_reported":1692471811,"current_range_meters":19200,"station_id":"ce4bh692rcd13ifvqe90","pricing_plan_id":"free"},{"bike_id":"8cefc2c4-7d7c-4b38-9eca-470ff43d07ec","system_id":"levelo_inurba_marseille","lat":43.290327,"lon":5.375711,"is_reserved":false,"is_disabled":false,"rental_uris":{"android":"levelo://app?vid=8cefc2c4-7d7c-4b38-9eca-470ff43d07ec","ios":"levelo://app?vid=8cefc2c4-7d7c-4b38-9eca-470ff43d07ec"},"vehicle_type_id":"4","last_reported":1692471811,"current_range_meters":0,"station_id":"ce4bh692rcd13ifvqe90","pricing_plan_id":"free"},{"bike_id":"cfe68ed1-8171-426c-90a7-9fa28e068ddf","system_id":"levelo_inurba_marseille","lat":43.294153,"lon":5.386305,"is_reserved":false,"is_disabled":false,"rental_uris":{"android":"levelo://app?vid=cfe68ed1-8171-426c-90a7-9fa28e068ddf","ios":"levelo://app?vid=cfe68ed1-8171-426c-90a7-9fa28e068ddf"},"vehicle_type_id":"4","last_reported":1692471811,"current_range_meters":6800,"station_id":"ce4bh2h2rcd13ifvqdh0","pricing_plan_id":"free"},{"bike_id":"02712670-aa8a-43b1-a55a-9beabd0b4fcb","system_id":"levelo_inurba_marseille","lat":43.294153,"lon":5.386305,"is_reserved":false,"is_disabled":false,"rental_uris":{"android":"levelo://app?vid=02712670-aa8a-43b1-a55a-9beabd0b4fcb","ios":"levelo://app?vid=02712670-aa8a-43b1-a55a-9beabd0b4fcb"},"vehicle_type_id":"4","last_reported":1692471811,"current_range_meters":1600,"station_id":"ce4bh2h2rcd13ifvqdh0","pricing_plan_id":"free"},{"bike_id":"bfdef273-2f0b-4359-9ef3-722a4314a79a","system_id":"levelo_inurba_marseille","lat":43.289184,"lon":5.366408,"is_reserved":false,"is_disabled":false,"rental_uris":{"android":"levelo://app?vid=bfdef273-2f0b-4359-9ef3-722a4314a79a","ios":"levelo://app?vid=bfdef273-2f0b-4359-9ef3-722a4314a79a"},"vehicle_type_id":"4","last_reported":1692471811,"current_range_meters":22800,"station_id":"ce4bhap2rcd13ifvqek0","pricing_plan_id":"free"},{"bike_id":"60e9c3fd-bd31-444b-9eba-0994215b51a5","system_id":"levelo_inurba_marseille","lat":43.28942,"lon":5.36635,"is_reserved":false,"is_disabled":false,"rental_uris":{"android":"levelo://app?vid=60e9c3fd-bd31-444b-9eba-0994215b51a5","ios":"levelo://app?vid=60e9c3fd-bd31-444b-9eba-0994215b51a5"},"vehicle_type_id":"4","last_reported":1692471811,"current_range_meters":13600,"station_id":"ce4bhap2rcd13ifvqek0","pricing_plan_id":"free"},{"bike_id":"218f037d-5af9-4e38-bf2a-7e3a31aece11","system_id":"levelo_inurba_marseille","lat":43.292642,"lon":5.384254,"is_reserved":false,"is_disabled":false,"rental_uris":{"android":"levelo://app?vid=218f037d-5af9-4e38-bf2a-7e3a31aece11","ios":"levelo://app?vid=218f037d-5af9-4e38-bf2a-7e3a31aece11"},"vehicle_type_id":"4","last_reported":1692471811,"current_range_meters":9200,"station_id":"ce4bh692rcd13ifvqea0","pricing_plan_id":"free"},{"bike_id":"ddc33e60-ddd6-4b04-818a-215b9dbee64c","system_id":"levelo_inurba_marseille","lat":43.304296,"lon":5.397513,"is_reserved":false,"is_disabled":false,"rental_uris":{"android":"levelo://app?vid=ddc33e60-ddd6-4b04-818a-215b9dbee64c","ios":"levelo://app?vid=ddc33e60-ddd6-4b04-818a-215b9dbee64c"},"vehicle_type_id":"4","last_reported":1692471811,"current_range_meters":21200,"station_id":"ce4bh092rcd13ifvqd20","pricing_plan_id":"free"},{"bike_id":"582314d5-d33f-4fe3-81d5-516b4642dff8","system_id":"levelo_inurba_marseille","lat":43.292642,"lon":5.384254,"is_reserved":false,"is_disabled":false,"rental_uris":{"android":"levelo://app?vid=582314d5-d33f-4fe3-81d5-516b4642dff8","ios":"levelo://app?vid=582314d5-d33f-4fe3-81d5-516b4642dff8"},"vehicle_type_id":"4","last_reported":1692471811,"current_range_meters":10000,"station_id":"ce4bh692rcd13ifvqea0","pricing_plan_id":"free"},{"bike_id":"b9bcaece-c422-4180-9339-e4dafc68b007","system_id":"levelo_inurba_marseille","lat":43.29258,"lon":5.38445,"is_reserved":false,"is_disabled":false,"rental_uris":{"android":"levelo://app?vid=b9bcaece-c422-4180-9339-e4dafc68b007","ios":"levelo://app?vid=b9bcaece-c422-4180-9339-e4dafc68b007"},"vehicle_type_id":"4","last_reported":1692471811,"current_range_meters":16800,"station_id":"ce4bh692rcd13ifvqea0","pricing_plan_id":"free"},{"bike_id":"7d19a255-9f7a-4d0e-beba-2bfebb3c7b5e","system_id":"levelo_inurba_marseille","lat":43.33043,"lon":5.38907,"is_reserved":false,"is_disabled":false,"rental_uris":{"android":"levelo://app?vid=7d19a255-9f7a-4d0e-beba-2bfebb3c7b5e","ios":"levelo://app?vid=7d19a255-9f7a-4d0e-beba-2bfebb3c7b5e"},"vehicle_type_id":"4","last_reported":1692471811,"current_range_meters":23200,"station_id":"ce4bhr92rcd13ifvqhrg","pricing_plan_id":"free"},{"bike_id":"de450cac-4370-4660-9455-3e94463307a2","system_id":"levelo_inurba_marseille","lat":43.33039,"lon":5.38918,"is_reserved":false,"is_disabled":false,"rental_uris":{"android":"levelo://app?vid=de450cac-4370-4660-9455-3e94463307a2","ios":"levelo://app?vid=de450cac-4370-4660-9455-3e94463307a2"},"vehicle_type_id":"4","last_reported":1692471811,"current_range_meters":18800,"station_id":"ce4bhr92rcd13ifvqhrg","pricing_plan_id":"free"},{"bike_id":"86eac789-1e56-496d-abfa-705e29d378c7","system_id":"levelo_inurba_marseille","lat":43.33044,"lon":5.38913,"is_reserved":false,"is_disabled":false,"rental_uris":{"android":"levelo://app?vid=86eac789-1e56-496d-abfa-705e29d378c7","ios":"levelo://app?vid=86eac789-1e56-496d-abfa-705e29d378c7"},"vehicle_type_id":"4","last_reported":1692471811,"current_range_meters":30400,"station_id":"ce4bhr92rcd13ifvqhrg","pricing_plan_id":"free"},{"bike_id":"16105e4d-cb4a-4aae-91bb-2ecd41a7406b","system_id":"levelo_inurba_marseille","lat":43.3304,"lon":5.38922,"is_reserved":false,"is_disabled":false,"rental_uris":{"android":"levelo://app?vid=16105e4d-cb4a-4aae-91bb-2ecd41a7406b","ios":"levelo://app?vid=16105e4d-cb4a-4aae-91bb-2ecd41a7406b"},"vehicle_type_id":"4","last_reported":1692471811,"current_range_meters":23600,"station_id":"ce4bhr92rcd13ifvqhrg","pricing_plan_id":"free"},{"bike_id":"70576a93-fbdb-4696-908e-c08c0f1995f8","system_id":"levelo_inurba_marseille","lat":43.33045,"lon":5.38915,"is_reserved":false,"is_disabled":false,"rental_uris":{"android":"levelo://app?vid=70576a93-fbdb-4696-908e-c08c0f1995f8","ios":"levelo://app?vid=70576a93-fbdb-4696-908e-c08c0f1995f8"},"vehicle_type_id":"4","last_reported":1692471811,"current_range_meters":27200,"station_id":"ce4bhr92rcd13ifvqhrg","pricing_plan_id":"free"},{"bike_id":"5036c72a-6252-47f4-a9fb-50fd514d506a","system_id":"levelo_inurba_marseille","lat":43.33046,"lon":5.38919,"is_reserved":false,"is_disabled":false,"rental_uris":{"android":"levelo://app?vid=5036c72a-6252-47f4-a9fb-50fd514d506a","ios":"levelo://app?vid=5036c72a-6252-47f4-a9fb-50fd514d506a"},"vehicle_type_id":"4","last_reported":1692471811,"current_range_meters":23600,"station_id":"ce4bhr92rcd13ifvqhrg","pricing_plan_id":"free"},{"bike_id":"708f7f21-b221-4c14-94b6-b5d8e3289350","system_id":"levelo_inurba_marseille","lat":43.33048,"lon":5.38919,"is_reserved":false,"is_disabled":false,"rental_uris":{"android":"levelo://app?vid=708f7f21-b221-4c14-94b6-b5d8e3289350","ios":"levelo://app?vid=708f7f21-b221-4c14-94b6-b5d8e3289350"},"vehicle_type_id":"4","last_reported":1692471811,"current_range_meters":21600,"station_id":"ce4bhr92rcd13ifvqhrg","pricing_plan_id":"free"},{"bike_id":"78f1a325-e5b4-4a72-bb0e-b29d3285ba24","system_id":"levelo_inurba_marseille","lat":43.290104,"lon":5.356111,"is_reserved":false,"is_disabled":false,"rental_uris":{"android":"levelo://app?vid=78f1a325-e5b4-4a72-bb0e-b29d3285ba24","ios":"levelo://app?vid=78f1a325-e5b4-4a72-bb0e-b29d3285ba24"},"vehicle_type_id":"4","last_reported":1692471811,"current_range_meters":30800,"station_id":"ce4bhb92rcd13ifvqen0","pricing_plan_id":"free"},{"bike_id":"b6f4be67-8c0c-4576-b402-cabc1771ca2a","system_id":"levelo_inurba_marseille","lat":43.297815,"lon":5.393548,"is_reserved":false,"is_disabled":false,"rental_uris":{"android":"levelo://app?vid=b6f4be67-8c0c-4576-b402-cabc1771ca2a","ios":"levelo://app?vid=b6f4be67-8c0c-4576-b402-cabc1771ca2a"},"vehicle_type_id":"4","last_reported":1692471811,"current_range_meters":22800,"station_id":"chh1huq6cuj3fo74tm60","pricing_plan_id":"free"},{"bike_id":"0ca1a5f6-461b-48bf-96f9-fe10d54dcb3d","system_id":"levelo_inurba_marseille","lat":43.289743,"lon":5.378304,"is_reserved":false,"is_disabled":false,"rental_uris":{"android":"levelo://app?vid=0ca1a5f6-461b-48bf-96f9-fe10d54dcb3d","ios":"levelo://app?vid=0ca1a5f6-461b-48bf-96f9-fe10d54dcb3d"},"vehicle_type_id":"4","last_reported":1692471811,"current_range_meters":19200,"station_id":"ce4bh9p2rcd13ifvqed0","pricing_plan_id":"free"},{"bike_id":"b7abfda9-7c81-469b-a45c-79c581c03d34","system_id":"levelo_inurba_marseille","lat":43.295169,"lon":5.390426,"is_reserved":false,"is_disabled":false,"rental_uris":{"android":"levelo://app?vid=b7abfda9-7c81-469b-a45c-79c581c03d34","ios":"levelo://app?vid=b7abfda9-7c81-469b-a45c-79c581c03d34"},"vehicle_type_id":"4","last_reported":1692471811,"current_range_meters":12000,"station_id":"ce4bh3p2rcd13ifvqdp0","pricing_plan_id":"free"},{"bike_id":"37ebb4f2-b549-495c-bab2-6cba24ae148c","system_id":"levelo_inurba_marseille","lat":43.295169,"lon":5.390426,"is_reserved":false,"is_disabled":false,"rental_uris":{"android":"levelo://app?vid=37ebb4f2-b549-495c-bab2-6cba24ae148c","ios":"levelo://app?vid=37ebb4f2-b549-495c-bab2-6cba24ae148c"},"vehicle_type_id":"4","last_reported":1692471811,"current_range_meters":3200,"station_id":"ce4bh3p2rcd13ifvqdp0","pricing_plan_id":"free"},{"bike_id":"bdb2471a-3101-40d0-99b0-71beec3b614d","system_id":"levelo_inurba_marseille","lat":43.295169,"lon":5.390426,"is_reserved":false,"is_disabled":false,"rental_uris":{"android":"levelo://app?vid=bdb2471a-3101-40d0-99b0-71beec3b614d","ios":"levelo://app?vid=bdb2471a-3101-40d0-99b0-71beec3b614d"},"vehicle_type_id":"4","last_reported":1692471811,"current_range_meters":16800,"station_id":"ce4bh3p2rcd13ifvqdp0","pricing_plan_id":"free"},{"bike_id":"6570f611-4191-4a9a-a596-c3454abffe66","system_id":"levelo_inurba_marseille","lat":43.289741,"lon":5.378306,"is_reserved":false,"is_disabled":false,"rental_uris":{"android":"levelo://app?vid=6570f611-4191-4a9a-a596-c3454abffe66","ios":"levelo://app?vid=6570f611-4191-4a9a-a596-c3454abffe66"},"vehicle_type_id":"4","last_reported":1692471811,"current_range_meters":7200,"station_id":"ce4bh9p2rcd13ifvqed0","pricing_plan_id":"free"},{"bike_id":"20cf49e8-42e6-4b81-b122-a049ff88dba6","system_id":"levelo_inurba_marseille","lat":43.2901,"lon":5.381269,"is_reserved":false,"is_disabled":false,"rental_uris":{"android":"levelo://app?vid=20cf49e8-42e6-4b81-b122-a049ff88dba6","ios":"levelo://app?vid=20cf49e8-42e6-4b81-b122-a049ff88dba6"},"vehicle_type_id":"4","last_reported":1692471811,"current_range_meters":17600,"station_id":"ce4bh4p2rcd13ifvqe1g","pricing_plan_id":"free"},{"bike_id":"14da8756-22ba-44fe-a1f9-31f5f42e638c","system_id":"levelo_inurba_marseille","lat":43.29022,"lon":5.38125,"is_reserved":false,"is_disabled":false,"rental_uris":{"android":"levelo://app?vid=14da8756-22ba-44fe-a1f9-31f5f42e638c","ios":"levelo://app?vid=14da8756-22ba-44fe-a1f9-31f5f42e638c"},"vehicle_type_id":"4","last_reported":1692471811,"current_range_meters":3200,"station_id":"ce4bh4p2rcd13ifvqe1g","pricing_plan_id":"free"},{"bike_id":"6d8269b8-01a0-4609-8b7d-0c7457679dec","system_id":"levelo_inurba_marseille","lat":43.28856,"lon":5.358371,"is_reserved":false,"is_disabled":false,"rental_uris":{"android":"levelo://app?vid=6d8269b8-01a0-4609-8b7d-0c7457679dec","ios":"levelo://app?vid=6d8269b8-01a0-4609-8b7d-0c7457679dec"},"vehicle_type_id":"4","last_reported":1692471811,"current_range_meters":2400,"station_id":"ce4bhb12rcd13ifvqem0","pricing_plan_id":"free"},{"bike_id":"333563f3-72a1-42e9-b52a-95ad91dc9f39","system_id":"levelo_inurba_marseille","lat":43.30928,"lon":5.40139,"is_reserved":false,"is_disabled":false,"rental_uris":{"android":"levelo://app?vid=333563f3-72a1-42e9-b52a-95ad91dc9f39","ios":"levelo://app?vid=333563f3-72a1-42e9-b52a-95ad91dc9f39"},"vehicle_type_id":"4","last_reported":1692471811,"current_range_meters":11600,"station_id":"ce4bgvp2rcd13ifvqct0","pricing_plan_id":"free"},{"bike_id":"ebea3e90-b4a3-4a58-9d43-4dfbd0e962f3","system_id":"levelo_inurba_marseille","lat":43.337457,"lon":5.374633,"is_reserved":false,"is_disabled":false,"rental_uris":{"android":"levelo://app?vid=ebea3e90-b4a3-4a58-9d43-4dfbd0e962f3","ios":"levelo://app?vid=ebea3e90-b4a3-4a58-9d43-4dfbd0e962f3"},"vehicle_type_id":"4","last_reported":1692471811,"current_range_meters":30400,"station_id":"","pricing_plan_id":"free"},{"bike_id":"0fbfe8f2-d384-423b-8f89-e2977ab9fd4b","system_id":"levelo_inurba_marseille","lat":43.31273,"lon":5.40176,"is_reserved":false,"is_disabled":false,"rental_uris":{"android":"levelo://app?vid=0fbfe8f2-d384-423b-8f89-e2977ab9fd4b","ios":"levelo://app?vid=0fbfe8f2-d384-423b-8f89-e2977ab9fd4b"},"vehicle_type_id":"4","last_reported":1692471811,"current_range_meters":6800,"station_id":"ce4bh092rcd13ifvqd30","pricing_plan_id":"free"},{"bike_id":"e0392495-e049-4259-869b-90f29287bfd1","system_id":"levelo_inurba_marseille","lat":43.290779,"lon":5.371482,"is_reserved":false,"is_disabled":false,"rental_uris":{"android":"levelo://app?vid=e0392495-e049-4259-869b-90f29287bfd1","ios":"levelo://app?vid=e0392495-e049-4259-869b-90f29287bfd1"},"vehicle_type_id":"4","last_reported":1692471811,"current_range_meters":0,"station_id":"ce4bh5p2rcd13ifvqe4g","pricing_plan_id":"free"},{"bike_id":"950f9d90-9f11-4503-9946-693d66716e18","system_id":"levelo_inurba_marseille","lat":43.286591,"lon":5.363346,"is_reserved":false,"is_disabled":false,"rental_uris":{"android":"levelo://app?vid=950f9d90-9f11-4503-9946-693d66716e18","ios":"levelo://app?vid=950f9d90-9f11-4503-9946-693d66716e18"},"vehicle_type_id":"4","last_reported":1692471811,"current_range_meters":9200,"station_id":"ce4bhah2rcd13ifvqej0","pricing_plan_id":"free"},{"bike_id":"23542ef4-3ab2-45de-b0be-af3f2110fe9d","system_id":"levelo_inurba_marseille","lat":43.304188,"lon":5.412904,"is_reserved":false,"is_disabled":false,"rental_uris":{"android":"levelo://app?vid=23542ef4-3ab2-45de-b0be-af3f2110fe9d","ios":"levelo://app?vid=23542ef4-3ab2-45de-b0be-af3f2110fe9d"},"vehicle_type_id":"4","last_reported":1692471811,"current_range_meters":28800,"station_id":"ce4bhop2rcd13ifvqh8g","pricing_plan_id":"free"},{"bike_id":"8b7a5113-55bd-43ba-b865-3db4c9b570d1","system_id":"levelo_inurba_marseille","lat":43.286961,"lon":5.373785,"is_reserved":false,"is_disabled":false,"rental_uris":{"android":"levelo://app?vid=8b7a5113-55bd-43ba-b865-3db4c9b570d1","ios":"levelo://app?vid=8b7a5113-55bd-43ba-b865-3db4c9b570d1"},"vehicle_type_id":"4","last_reported":1692471811,"current_range_meters":17600,"station_id":"ce4bh3p2rcd13ifvqdq0","pricing_plan_id":"free"},{"bike_id":"75199276-b705-4ad7-b6a9-49aeaa84628a","system_id":"levelo_inurba_marseille","lat":43.286591,"lon":5.363346,"is_reserved":false,"is_disabled":false,"rental_uris":{"android":"levelo://app?vid=75199276-b705-4ad7-b6a9-49aeaa84628a","ios":"levelo://app?vid=75199276-b705-4ad7-b6a9-49aeaa84628a"},"vehicle_type_id":"4","last_reported":1692471811,"current_range_meters":31200,"station_id":"ce4bhah2rcd13ifvqej0","pricing_plan_id":"free"},{"bike_id":"d020541d-19ae-40b9-9524-8d2700d233fa","system_id":"levelo_inurba_marseille","lat":43.286961,"lon":5.373785,"is_reserved":false,"is_disabled":false,"rental_uris":{"android":"levelo://app?vid=d020541d-19ae-40b9-9524-8d2700d233fa","ios":"levelo://app?vid=d020541d-19ae-40b9-9524-8d2700d233fa"},"vehicle_type_id":"4","last_reported":1692471811,"current_range_meters":24400,"station_id":"ce4bh3p2rcd13ifvqdq0","pricing_plan_id":"free"},{"bike_id":"a5111df8-93d9-4c77-b1bc-ac67163c9ff9","system_id":"levelo_inurba_marseille","lat":43.290336,"lon":5.386425,"is_reserved":false,"is_disabled":false,"rental_uris":{"android":"levelo://app?vid=a5111df8-93d9-4c77-b1bc-ac67163c9ff9","ios":"levelo://app?vid=a5111df8-93d9-4c77-b1bc-ac67163c9ff9"},"vehicle_type_id":"4","last_reported":1692471811,"current_range_meters":0,"station_id":"ce4bh4p2rcd13ifvqe0g","pricing_plan_id":"free"},{"bike_id":"03b3af73-288b-4d28-b1d4-da0292a1d6c2","system_id":"levelo_inurba_marseille","lat":43.290336,"lon":5.386425,"is_reserved":false,"is_disabled":false,"rental_uris":{"android":"levelo://app?vid=03b3af73-288b-4d28-b1d4-da0292a1d6c2","ios":"levelo://app?vid=03b3af73-288b-4d28-b1d4-da0292a1d6c2"},"vehicle_type_id":"4","last_reported":1692471811,"current_range_meters":9600,"station_id":"ce4bh4p2rcd13ifvqe0g","pricing_plan_id":"free"},{"bike_id":"bf7848a6-33a9-42fa-9fa8-34b0e4d533b5","system_id":"levelo_inurba_marseille","lat":43.28614,"lon":5.37065,"is_reserved":false,"is_disabled":false,"rental_uris":{"android":"levelo://app?vid=bf7848a6-33a9-42fa-9fa8-34b0e4d533b5","ios":"levelo://app?vid=bf7848a6-33a9-42fa-9fa8-34b0e4d533b5"},"vehicle_type_id":"4","last_reported":1692471811,"current_range_meters":17200,"station_id":"ce4bht12rcd13ifvqi60","pricing_plan_id":"free"},{"bike_id":"dcc85b80-3b68-470e-bcb1-53415e1a3d68","system_id":"levelo_inurba_marseille","lat":43.28613,"lon":5.37058,"is_reserved":false,"is_disabled":false,"rental_uris":{"android":"levelo://app?vid=dcc85b80-3b68-470e-bcb1-53415e1a3d68","ios":"levelo://app?vid=dcc85b80-3b68-470e-bcb1-53415e1a3d68"},"vehicle_type_id":"4","last_reported":1692471811,"current_range_meters":19600,"station_id":"ce4bht12rcd13ifvqi60","pricing_plan_id":"free"},{"bike_id":"11766daf-13d5-4651-a031-a59326b584f8","system_id":"levelo_inurba_marseille","lat":43.28613,"lon":5.3706,"is_reserved":false,"is_disabled":false,"rental_uris":{"android":"levelo://app?vid=11766daf-13d5-4651-a031-a59326b584f8","ios":"levelo://app?vid=11766daf-13d5-4651-a031-a59326b584f8"},"vehicle_type_id":"4","last_reported":1692471811,"current_range_meters":5600,"station_id":"ce4bht12rcd13ifvqi60","pricing_plan_id":"free"},{"bike_id":"c4e1f3e5-385b-48ef-8410-d1daf3220b81","system_id":"levelo_inurba_marseille","lat":43.28611,"lon":5.37064,"is_reserved":false,"is_disabled":false,"rental_uris":{"android":"levelo://app?vid=c4e1f3e5-385b-48ef-8410-d1daf3220b81","ios":"levelo://app?vid=c4e1f3e5-385b-48ef-8410-d1daf3220b81"},"vehicle_type_id":"4","last_reported":1692471811,"current_range_meters":11600,"station_id":"ce4bht12rcd13ifvqi60","pricing_plan_id":"free"},{"bike_id":"f49cbd29-5e90-4f87-9b4c-012f373cf4b3","system_id":"levelo_inurba_marseille","lat":43.2861,"lon":5.37064,"is_reserved":false,"is_disabled":false,"rental_uris":{"android":"levelo://app?vid=f49cbd29-5e90-4f87-9b4c-012f373cf4b3","ios":"levelo://app?vid=f49cbd29-5e90-4f87-9b4c-012f373cf4b3"},"vehicle_type_id":"4","last_reported":1692471811,"current_range_meters":15200,"station_id":"ce4bht12rcd13ifvqi60","pricing_plan_id":"free"},{"bike_id":"71a6768f-1259-4914-b498-2dc0d7a48351","system_id":"levelo_inurba_marseille","lat":43.28609,"lon":5.37064,"is_reserved":false,"is_disabled":false,"rental_uris":{"android":"levelo://app?vid=71a6768f-1259-4914-b498-2dc0d7a48351","ios":"levelo://app?vid=71a6768f-1259-4914-b498-2dc0d7a48351"},"vehicle_type_id":"4","last_reported":1692471811,"current_range_meters":4400,"station_id":"ce4bht12rcd13ifvqi60","pricing_plan_id":"free"},{"bike_id":"d80d5a2f-d3d5-4a30-80d2-1f02beb1b207","system_id":"levelo_inurba_marseille","lat":43.286039,"lon":5.370679,"is_reserved":false,"is_disabled":false,"rental_uris":{"android":"levelo://app?vid=d80d5a2f-d3d5-4a30-80d2-1f02beb1b207","ios":"levelo://app?vid=d80d5a2f-d3d5-4a30-80d2-1f02beb1b207"},"vehicle_type_id":"4","last_reported":1692471811,"current_range_meters":29200,"station_id":"ce4bht12rcd13ifvqi60","pricing_plan_id":"free"},{"bike_id":"048f236b-48ae-4d5f-9182-12bd55fa7ff1","system_id":"levelo_inurba_marseille","lat":43.287184,"lon":5.37937,"is_reserved":false,"is_disabled":false,"rental_uris":{"android":"levelo://app?vid=048f236b-48ae-4d5f-9182-12bd55fa7ff1","ios":"levelo://app?vid=048f236b-48ae-4d5f-9182-12bd55fa7ff1"},"vehicle_type_id":"4","last_reported":1692471811,"current_range_meters":18000,"station_id":"ce4bh9p2rcd13ifvqec0","pricing_plan_id":"free"},{"bike_id":"0ead6c43-20fe-44d3-bb6f-df54163fc7db","system_id":"levelo_inurba_marseille","lat":43.28603,"lon":5.37453,"is_reserved":false,"is_disabled":false,"rental_uris":{"android":"levelo://app?vid=0ead6c43-20fe-44d3-bb6f-df54163fc7db","ios":"levelo://app?vid=0ead6c43-20fe-44d3-bb6f-df54163fc7db"},"vehicle_type_id":"4","last_reported":1692471811,"current_range_meters":12400,"station_id":"ce4bht12rcd13ifvqi60","pricing_plan_id":"free"},{"bike_id":"7da9e437-1e79-4b5f-9ab0-65254ac17dd7","system_id":"levelo_inurba_marseille","lat":43.31644,"lon":5.40436,"is_reserved":false,"is_disabled":false,"rental_uris":{"android":"levelo://app?vid=7da9e437-1e79-4b5f-9ab0-65254ac17dd7","ios":"levelo://app?vid=7da9e437-1e79-4b5f-9ab0-65254ac17dd7"},"vehicle_type_id":"4","last_reported":1692471811,"current_range_meters":24800,"station_id":"ce4bh012rcd13ifvqd00","pricing_plan_id":"free"},{"bike_id":"35eec3a1-aa54-4990-8eb4-78e6c0dd24d0","system_id":"levelo_inurba_marseille","lat":43.28616,"lon":5.35104,"is_reserved":false,"is_disabled":false,"rental_uris":{"android":"levelo://app?vid=35eec3a1-aa54-4990-8eb4-78e6c0dd24d0","ios":"levelo://app?vid=35eec3a1-aa54-4990-8eb4-78e6c0dd24d0"},"vehicle_type_id":"4","last_reported":1692471811,"current_range_meters":9600,"station_id":"ce4bhch2rcd13ifvqeug","pricing_plan_id":"free"},{"bike_id":"2363d3b5-6c15-401a-a59c-ee80bd4af927","system_id":"levelo_inurba_marseille","lat":43.28415,"lon":5.37522,"is_reserved":false,"is_disabled":false,"rental_uris":{"android":"levelo://app?vid=2363d3b5-6c15-401a-a59c-ee80bd4af927","ios":"levelo://app?vid=2363d3b5-6c15-401a-a59c-ee80bd4af927"},"vehicle_type_id":"4","last_reported":1692471811,"current_range_meters":20000,"station_id":"ce4bh412rcd13ifvqds0","pricing_plan_id":"free"},{"bike_id":"5d1cc9b2-fb71-4510-8d1f-ff3119691866","system_id":"levelo_inurba_marseille","lat":43.284139,"lon":5.37524,"is_reserved":false,"is_disabled":false,"rental_uris":{"android":"levelo://app?vid=5d1cc9b2-fb71-4510-8d1f-ff3119691866","ios":"levelo://app?vid=5d1cc9b2-fb71-4510-8d1f-ff3119691866"},"vehicle_type_id":"4","last_reported":1692471811,"current_range_meters":17200,"station_id":"ce4bh412rcd13ifvqds0","pricing_plan_id":"free"},{"bike_id":"6a76be0d-7013-47ea-84f1-a16996a0497c","system_id":"levelo_inurba_marseille","lat":43.28408,"lon":5.37512,"is_reserved":false,"is_disabled":false,"rental_uris":{"android":"levelo://app?vid=6a76be0d-7013-47ea-84f1-a16996a0497c","ios":"levelo://app?vid=6a76be0d-7013-47ea-84f1-a16996a0497c"},"vehicle_type_id":"4","last_reported":1692471811,"current_range_meters":5600,"station_id":"ce4bh412rcd13ifvqds0","pricing_plan_id":"free"},{"bike_id":"d613369f-7aed-41ac-bc8b-38c11639e5d3","system_id":"levelo_inurba_marseille","lat":43.28402,"lon":5.37518,"is_reserved":false,"is_disabled":false,"rental_uris":{"android":"levelo://app?vid=d613369f-7aed-41ac-bc8b-38c11639e5d3","ios":"levelo://app?vid=d613369f-7aed-41ac-bc8b-38c11639e5d3"},"vehicle_type_id":"4","last_reported":1692471811,"current_range_meters":12400,"station_id":"ce4bh412rcd13ifvqds0","pricing_plan_id":"free"},{"bike_id":"b404bba3-0594-4b09-a59c-c70f174cdfc4","system_id":"levelo_inurba_marseille","lat":43.286595,"lon":5.386795,"is_reserved":false,"is_disabled":false,"rental_uris":{"android":"levelo://app?vid=b404bba3-0594-4b09-a59c-c70f174cdfc4","ios":"levelo://app?vid=b404bba3-0594-4b09-a59c-c70f174cdfc4"},"vehicle_type_id":"4","last_reported":1692471811,"current_range_meters":24400,"station_id":"ce4bh492rcd13ifvqdug","pricing_plan_id":"free"},{"bike_id":"e61d72b5-9b32-43ba-9799-54cef8c6b5f6","system_id":"levelo_inurba_marseille","lat":43.286595,"lon":5.386795,"is_reserved":false,"is_disabled":false,"rental_uris":{"android":"levelo://app?vid=e61d72b5-9b32-43ba-9799-54cef8c6b5f6","ios":"levelo://app?vid=e61d72b5-9b32-43ba-9799-54cef8c6b5f6"},"vehicle_type_id":"4","last_reported":1692471811,"current_range_meters":4400,"station_id":"ce4bh492rcd13ifvqdug","pricing_plan_id":"free"},{"bike_id":"42e00a38-d427-4022-8c01-5d740d081d85","system_id":"levelo_inurba_marseille","lat":43.286595,"lon":5.386795,"is_reserved":false,"is_disabled":false,"rental_uris":{"android":"levelo://app?vid=42e00a38-d427-4022-8c01-5d740d081d85","ios":"levelo://app?vid=42e00a38-d427-4022-8c01-5d740d081d85"},"vehicle_type_id":"4","last_reported":1692471811,"current_range_meters":16000,"station_id":"ce4bh492rcd13ifvqdug","pricing_plan_id":"free"},{"bike_id":"b47bd0c4-6186-46fb-ac80-d65cc3b8fe32","system_id":"levelo_inurba_marseille","lat":43.286595,"lon":5.386795,"is_reserved":false,"is_disabled":false,"rental_uris":{"android":"levelo://app?vid=b47bd0c4-6186-46fb-ac80-d65cc3b8fe32","ios":"levelo://app?vid=b47bd0c4-6186-46fb-ac80-d65cc3b8fe32"},"vehicle_type_id":"4","last_reported":1692471811,"current_range_meters":25200,"station_id":"ce4bh492rcd13ifvqdug","pricing_plan_id":"free"},{"bike_id":"e78bd4e4-c14d-4a01-b72e-65351e2b8a18","system_id":"levelo_inurba_marseille","lat":43.30308,"lon":5.40627,"is_reserved":false,"is_disabled":false,"rental_uris":{"android":"levelo://app?vid=e78bd4e4-c14d-4a01-b72e-65351e2b8a18","ios":"levelo://app?vid=e78bd4e4-c14d-4a01-b72e-65351e2b8a18"},"vehicle_type_id":"4","last_reported":1692471811,"current_range_meters":400,"station_id":"","pricing_plan_id":"free"},{"bike_id":"2b3f06e0-8f2d-4133-9563-f19f57fe46e5","system_id":"levelo_inurba_marseille","lat":43.33717,"lon":5.391857,"is_reserved":false,"is_disabled":false,"rental_uris":{"android":"levelo://app?vid=2b3f06e0-8f2d-4133-9563-f19f57fe46e5","ios":"levelo://app?vid=2b3f06e0-8f2d-4133-9563-f19f57fe46e5"},"vehicle_type_id":"4","last_reported":1692471811,"current_range_meters":10400,"station_id":"ce4bhr92rcd13ifvqhsg","pricing_plan_id":"free"},{"bike_id":"72fc020d-a1d4-460a-a3d1-6187a1ea65d2","system_id":"levelo_inurba_marseille","lat":43.33717,"lon":5.39187,"is_reserved":false,"is_disabled":false,"rental_uris":{"android":"levelo://app?vid=72fc020d-a1d4-460a-a3d1-6187a1ea65d2","ios":"levelo://app?vid=72fc020d-a1d4-460a-a3d1-6187a1ea65d2"},"vehicle_type_id":"4","last_reported":1692471811,"current_range_meters":27200,"station_id":"ce4bhr92rcd13ifvqhsg","pricing_plan_id":"free"},{"bike_id":"c90c94e3-64fa-45e9-9fee-ad8bf120c218","system_id":"levelo_inurba_marseille","lat":43.33717,"lon":5.391857,"is_reserved":false,"is_disabled":false,"rental_uris":{"android":"levelo://app?vid=c90c94e3-64fa-45e9-9fee-ad8bf120c218","ios":"levelo://app?vid=c90c94e3-64fa-45e9-9fee-ad8bf120c218"},"vehicle_type_id":"4","last_reported":1692471811,"current_range_meters":27200,"station_id":"ce4bhr92rcd13ifvqhsg","pricing_plan_id":"free"},{"bike_id":"17105054-6fd8-493b-b0be-1ed88688055c","system_id":"levelo_inurba_marseille","lat":43.33717,"lon":5.391857,"is_reserved":false,"is_disabled":false,"rental_uris":{"android":"levelo://app?vid=17105054-6fd8-493b-b0be-1ed88688055c","ios":"levelo://app?vid=17105054-6fd8-493b-b0be-1ed88688055c"},"vehicle_type_id":"4","last_reported":1692471811,"current_range_meters":30000,"station_id":"ce4bhr92rcd13ifvqhsg","pricing_plan_id":"free"},{"bike_id":"7d2969ab-a065-4a23-b19e-667095d799c9","system_id":"levelo_inurba_marseille","lat":43.33718,"lon":5.3919,"is_reserved":false,"is_disabled":false,"rental_uris":{"android":"levelo://app?vid=7d2969ab-a065-4a23-b19e-667095d799c9","ios":"levelo://app?vid=7d2969ab-a065-4a23-b19e-667095d799c9"},"vehicle_type_id":"4","last_reported":1692471811,"current_range_meters":10400,"station_id":"ce4bhr92rcd13ifvqhsg","pricing_plan_id":"free"},{"bike_id":"01f563c5-7ac0-4d44-b1b3-0549f3b949f3","system_id":"levelo_inurba_marseille","lat":43.3372,"lon":5.3919,"is_reserved":false,"is_disabled":false,"rental_uris":{"android":"levelo://app?vid=01f563c5-7ac0-4d44-b1b3-0549f3b949f3","ios":"levelo://app?vid=01f563c5-7ac0-4d44-b1b3-0549f3b949f3"},"vehicle_type_id":"4","last_reported":1692471811,"current_range_meters":29600,"station_id":"ce4bhr92rcd13ifvqhsg","pricing_plan_id":"free"},{"bike_id":"12c0f407-4ac2-49d3-b1e8-783bd26a8644","system_id":"levelo_inurba_marseille","lat":43.33724,"lon":5.39185,"is_reserved":false,"is_disabled":false,"rental_uris":{"android":"levelo://app?vid=12c0f407-4ac2-49d3-b1e8-783bd26a8644","ios":"levelo://app?vid=12c0f407-4ac2-49d3-b1e8-783bd26a8644"},"vehicle_type_id":"4","last_reported":1692471811,"current_range_meters":29600,"station_id":"ce4bhr92rcd13ifvqhsg","pricing_plan_id":"free"},{"bike_id":"0dda2562-498f-4f90-abfb-f3c666db2d2e","system_id":"levelo_inurba_marseille","lat":43.33725,"lon":5.39187,"is_reserved":false,"is_disabled":false,"rental_uris":{"android":"levelo://app?vid=0dda2562-498f-4f90-abfb-f3c666db2d2e","ios":"levelo://app?vid=0dda2562-498f-4f90-abfb-f3c666db2d2e"},"vehicle_type_id":"4","last_reported":1692471811,"current_range_meters":23600,"station_id":"ce4bhr92rcd13ifvqhsg","pricing_plan_id":"free"},{"bike_id":"186ddf38-a5ca-44a9-9dd3-9bfe2a53544b","system_id":"levelo_inurba_marseille","lat":43.33726,"lon":5.39186,"is_reserved":false,"is_disabled":false,"rental_uris":{"android":"levelo://app?vid=186ddf38-a5ca-44a9-9dd3-9bfe2a53544b","ios":"levelo://app?vid=186ddf38-a5ca-44a9-9dd3-9bfe2a53544b"},"vehicle_type_id":"4","last_reported":1692471811,"current_range_meters":29200,"station_id":"ce4bhr92rcd13ifvqhsg","pricing_plan_id":"free"},{"bike_id":"c24cecf2-0503-470c-b3d3-fc37f377f710","system_id":"levelo_inurba_marseille","lat":43.33728,"lon":5.39186,"is_reserved":false,"is_disabled":false,"rental_uris":{"android":"levelo://app?vid=c24cecf2-0503-470c-b3d3-fc37f377f710","ios":"levelo://app?vid=c24cecf2-0503-470c-b3d3-fc37f377f710"},"vehicle_type_id":"4","last_reported":1692471811,"current_range_meters":29200,"station_id":"ce4bhr92rcd13ifvqhsg","pricing_plan_id":"free"},{"bike_id":"e45012d8-673a-4bd6-93d3-a427f767a00d","system_id":"levelo_inurba_marseille","lat":43.33729,"lon":5.39188,"is_reserved":false,"is_disabled":false,"rental_uris":{"android":"levelo://app?vid=e45012d8-673a-4bd6-93d3-a427f767a00d","ios":"levelo://app?vid=e45012d8-673a-4bd6-93d3-a427f767a00d"},"vehicle_type_id":"4","last_reported":1692471811,"current_range_meters":27600,"station_id":"ce4bhr92rcd13ifvqhsg","pricing_plan_id":"free"},{"bike_id":"02f29c2d-847e-4148-9200-bdb4c19acc46","system_id":"levelo_inurba_marseille","lat":43.3373,"lon":5.39187,"is_reserved":false,"is_disabled":false,"rental_uris":{"android":"levelo://app?vid=02f29c2d-847e-4148-9200-bdb4c19acc46","ios":"levelo://app?vid=02f29c2d-847e-4148-9200-bdb4c19acc46"},"vehicle_type_id":"4","last_reported":1692471811,"current_range_meters":29600,"station_id":"ce4bhr92rcd13ifvqhsg","pricing_plan_id":"free"},{"bike_id":"c3f1a799-40b8-4098-9115-0b78fcf6eb78","system_id":"levelo_inurba_marseille","lat":43.323464,"lon":5.406297,"is_reserved":false,"is_disabled":false,"rental_uris":{"android":"levelo://app?vid=c3f1a799-40b8-4098-9115-0b78fcf6eb78","ios":"levelo://app?vid=c3f1a799-40b8-4098-9115-0b78fcf6eb78"},"vehicle_type_id":"4","last_reported":1692471811,"current_range_meters":28800,"station_id":"ce4bhq92rcd13ifvqhjg","pricing_plan_id":"free"},{"bike_id":"0cbfb6a8-9b06-4430-8280-ebadac27271d","system_id":"levelo_inurba_marseille","lat":43.32345,"lon":5.40624,"is_reserved":false,"is_disabled":false,"rental_uris":{"android":"levelo://app?vid=0cbfb6a8-9b06-4430-8280-ebadac27271d","ios":"levelo://app?vid=0cbfb6a8-9b06-4430-8280-ebadac27271d"},"vehicle_type_id":"4","last_reported":1692471811,"current_range_meters":28000,"station_id":"ce4bhq92rcd13ifvqhjg","pricing_plan_id":"free"},{"bike_id":"8bd09c71-02ae-4371-8b55-ce1e7e2bf2df","system_id":"levelo_inurba_marseille","lat":43.33729,"lon":5.39194,"is_reserved":false,"is_disabled":false,"rental_uris":{"android":"levelo://app?vid=8bd09c71-02ae-4371-8b55-ce1e7e2bf2df","ios":"levelo://app?vid=8bd09c71-02ae-4371-8b55-ce1e7e2bf2df"},"vehicle_type_id":"4","last_reported":1692471811,"current_range_meters":30000,"station_id":"ce4bhr92rcd13ifvqhsg","pricing_plan_id":"free"},{"bike_id":"6fb36002-bc24-427c-a16e-585470e55deb","system_id":"levelo_inurba_marseille","lat":43.32602,"lon":5.40481,"is_reserved":false,"is_disabled":false,"rental_uris":{"android":"levelo://app?vid=6fb36002-bc24-427c-a16e-585470e55deb","ios":"levelo://app?vid=6fb36002-bc24-427c-a16e-585470e55deb"},"vehicle_type_id":"4","last_reported":1692471811,"current_range_meters":20000,"station_id":"","pricing_plan_id":"free"},{"bike_id":"eb97f873-bb8c-42b0-be88-b3e9eb5659c2","system_id":"levelo_inurba_marseille","lat":43.28482,"lon":5.38414,"is_reserved":false,"is_disabled":false,"rental_uris":{"android":"levelo://app?vid=eb97f873-bb8c-42b0-be88-b3e9eb5659c2","ios":"levelo://app?vid=eb97f873-bb8c-42b0-be88-b3e9eb5659c2"},"vehicle_type_id":"4","last_reported":1692471811,"current_range_meters":0,"station_id":"ce4bh512rcd13ifvqe3g","pricing_plan_id":"free"},{"bike_id":"bda85106-1348-4e44-b739-b2d7455a16f0","system_id":"levelo_inurba_marseille","lat":43.28477,"lon":5.38405,"is_reserved":false,"is_disabled":false,"rental_uris":{"android":"levelo://app?vid=bda85106-1348-4e44-b739-b2d7455a16f0","ios":"levelo://app?vid=bda85106-1348-4e44-b739-b2d7455a16f0"},"vehicle_type_id":"4","last_reported":1692471811,"current_range_meters":9200,"station_id":"ce4bh512rcd13ifvqe3g","pricing_plan_id":"free"},{"bike_id":"c821af2f-6fdf-4142-a21a-077fb21a08f0","system_id":"levelo_inurba_marseille","lat":43.284793,"lon":5.384119,"is_reserved":false,"is_disabled":false,"rental_uris":{"android":"levelo://app?vid=c821af2f-6fdf-4142-a21a-077fb21a08f0","ios":"levelo://app?vid=c821af2f-6fdf-4142-a21a-077fb21a08f0"},"vehicle_type_id":"4","last_reported":1692471811,"current_range_meters":14400,"station_id":"ce4bh512rcd13ifvqe3g","pricing_plan_id":"free"},{"bike_id":"2c857949-0334-447d-ad90-b78c29d31800","system_id":"levelo_inurba_marseille","lat":43.284787,"lon":5.384116,"is_reserved":false,"is_disabled":false,"rental_uris":{"android":"levelo://app?vid=2c857949-0334-447d-ad90-b78c29d31800","ios":"levelo://app?vid=2c857949-0334-447d-ad90-b78c29d31800"},"vehicle_type_id":"4","last_reported":1692471811,"current_range_meters":19600,"station_id":"ce4bh512rcd13ifvqe3g","pricing_plan_id":"free"},{"bike_id":"70fc94d4-6a89-4f38-b002-9070d7edb6b5","system_id":"levelo_inurba_marseille","lat":43.288497,"lon":5.393089,"is_reserved":false,"is_disabled":false,"rental_uris":{"android":"levelo://app?vid=70fc94d4-6a89-4f38-b002-9070d7edb6b5","ios":"levelo://app?vid=70fc94d4-6a89-4f38-b002-9070d7edb6b5"},"vehicle_type_id":"4","last_reported":1692471811,"current_range_meters":0,"station_id":"ce4bh2p2rcd13ifvqdi0","pricing_plan_id":"free"},{"bike_id":"4282aff4-9b4b-4f51-a5c9-977a316c6b80","system_id":"levelo_inurba_marseille","lat":43.28178,"lon":5.37463,"is_reserved":false,"is_disabled":false,"rental_uris":{"android":"levelo://app?vid=4282aff4-9b4b-4f51-a5c9-977a316c6b80","ios":"levelo://app?vid=4282aff4-9b4b-4f51-a5c9-977a316c6b80"},"vehicle_type_id":"4","last_reported":1692471811,"current_range_meters":5600,"station_id":"","pricing_plan_id":"free"},{"bike_id":"f50aca5f-cf5b-4020-925f-826a2e34874f","system_id":"levelo_inurba_marseille","lat":43.289363,"lon":5.396322,"is_reserved":false,"is_disabled":false,"rental_uris":{"android":"levelo://app?vid=f50aca5f-cf5b-4020-925f-826a2e34874f","ios":"levelo://app?vid=f50aca5f-cf5b-4020-925f-826a2e34874f"},"vehicle_type_id":"4","last_reported":1692471811,"current_range_meters":29600,"station_id":"ce4bh3h2rcd13ifvqdn0","pricing_plan_id":"free"},{"bike_id":"5cec26ac-344f-432b-af34-450b75305b9b","system_id":"levelo_inurba_marseille","lat":43.292724,"lon":5.401131,"is_reserved":false,"is_disabled":false,"rental_uris":{"android":"levelo://app?vid=5cec26ac-344f-432b-af34-450b75305b9b","ios":"levelo://app?vid=5cec26ac-344f-432b-af34-450b75305b9b"},"vehicle_type_id":"4","last_reported":1692471811,"current_range_meters":29600,"station_id":"ce4bh312rcd13ifvqdk0","pricing_plan_id":"free"},{"bike_id":"edcd7912-40ac-4018-8816-936227ed0e87","system_id":"levelo_inurba_marseille","lat":43.282754,"lon":5.350519,"is_reserved":false,"is_disabled":false,"rental_uris":{"android":"levelo://app?vid=edcd7912-40ac-4018-8816-936227ed0e87","ios":"levelo://app?vid=edcd7912-40ac-4018-8816-936227ed0e87"},"vehicle_type_id":"4","last_reported":1692471811,"current_range_meters":14800,"station_id":"ce4bhbp2rcd13ifvqerg","pricing_plan_id":"free"},{"bike_id":"88940920-727e-47f8-bee6-24feedff1167","system_id":"levelo_inurba_marseille","lat":43.282754,"lon":5.350519,"is_reserved":false,"is_disabled":false,"rental_uris":{"android":"levelo://app?vid=88940920-727e-47f8-bee6-24feedff1167","ios":"levelo://app?vid=88940920-727e-47f8-bee6-24feedff1167"},"vehicle_type_id":"4","last_reported":1692471811,"current_range_meters":30000,"station_id":"ce4bhbp2rcd13ifvqerg","pricing_plan_id":"free"},{"bike_id":"3bff0ccb-db7a-4a90-9c9b-0e6b86f220da","system_id":"levelo_inurba_marseille","lat":43.283502,"lon":5.386471,"is_reserved":false,"is_disabled":false,"rental_uris":{"android":"levelo://app?vid=3bff0ccb-db7a-4a90-9c9b-0e6b86f220da","ios":"levelo://app?vid=3bff0ccb-db7a-4a90-9c9b-0e6b86f220da"},"vehicle_type_id":"4","last_reported":1692471811,"current_range_meters":9200,"station_id":"ce4bh492rcd13ifvqdvg","pricing_plan_id":"free"},{"bike_id":"11914ff0-8201-43c6-85ac-30ad508a5b2b","system_id":"levelo_inurba_marseille","lat":43.283502,"lon":5.386471,"is_reserved":false,"is_disabled":false,"rental_uris":{"android":"levelo://app?vid=11914ff0-8201-43c6-85ac-30ad508a5b2b","ios":"levelo://app?vid=11914ff0-8201-43c6-85ac-30ad508a5b2b"},"vehicle_type_id":"4","last_reported":1692471811,"current_range_meters":18400,"station_id":"ce4bh492rcd13ifvqdvg","pricing_plan_id":"free"},{"bike_id":"3dd5eec1-ad7e-405b-9fef-b51b6a98dc6b","system_id":"levelo_inurba_marseille","lat":43.283502,"lon":5.386471,"is_reserved":false,"is_disabled":false,"rental_uris":{"android":"levelo://app?vid=3dd5eec1-ad7e-405b-9fef-b51b6a98dc6b","ios":"levelo://app?vid=3dd5eec1-ad7e-405b-9fef-b51b6a98dc6b"},"vehicle_type_id":"4","last_reported":1692471811,"current_range_meters":1200,"station_id":"ce4bh492rcd13ifvqdvg","pricing_plan_id":"free"},{"bike_id":"924908e4-48f0-42fa-8c26-ea7f5f2af060","system_id":"levelo_inurba_marseille","lat":43.280382,"lon":5.369291,"is_reserved":false,"is_disabled":false,"rental_uris":{"android":"levelo://app?vid=924908e4-48f0-42fa-8c26-ea7f5f2af060","ios":"levelo://app?vid=924908e4-48f0-42fa-8c26-ea7f5f2af060"},"vehicle_type_id":"4","last_reported":1692471811,"current_range_meters":13600,"station_id":"ce4bha12rcd13ifvqef0","pricing_plan_id":"free"},{"bike_id":"33ed8203-6199-46be-a563-ee6302012cf1","system_id":"levelo_inurba_marseille","lat":43.2837,"lon":5.38636,"is_reserved":false,"is_disabled":false,"rental_uris":{"android":"levelo://app?vid=33ed8203-6199-46be-a563-ee6302012cf1","ios":"levelo://app?vid=33ed8203-6199-46be-a563-ee6302012cf1"},"vehicle_type_id":"4","last_reported":1692471811,"current_range_meters":8800,"station_id":"","pricing_plan_id":"free"},{"bike_id":"9f46cfde-4f76-4076-bade-5765c2d3d473","system_id":"levelo_inurba_marseille","lat":43.28039,"lon":5.369297,"is_reserved":false,"is_disabled":false,"rental_uris":{"android":"levelo://app?vid=9f46cfde-4f76-4076-bade-5765c2d3d473","ios":"levelo://app?vid=9f46cfde-4f76-4076-bade-5765c2d3d473"},"vehicle_type_id":"4","last_reported":1692471811,"current_range_meters":31200,"station_id":"ce4bha12rcd13ifvqef0","pricing_plan_id":"free"},{"bike_id":"7d8849d5-3e5f-4198-9cea-ea7d83560b18","system_id":"levelo_inurba_marseille","lat":43.29041,"lon":5.399634,"is_reserved":false,"is_disabled":false,"rental_uris":{"android":"levelo://app?vid=7d8849d5-3e5f-4198-9cea-ea7d83560b18","ios":"levelo://app?vid=7d8849d5-3e5f-4198-9cea-ea7d83560b18"},"vehicle_type_id":"4","last_reported":1692471811,"current_range_meters":4400,"station_id":"ce4bh392rcd13ifvqdm0","pricing_plan_id":"free"},{"bike_id":"383a10e9-43cf-464b-8d9e-46a66761d328","system_id":"levelo_inurba_marseille","lat":43.28573,"lon":5.394992,"is_reserved":false,"is_disabled":false,"rental_uris":{"android":"levelo://app?vid=383a10e9-43cf-464b-8d9e-46a66761d328","ios":"levelo://app?vid=383a10e9-43cf-464b-8d9e-46a66761d328"},"vehicle_type_id":"4","last_reported":1692471811,"current_range_meters":27600,"station_id":"ce4bh292rcd13ifvqdg0","pricing_plan_id":"free"},{"bike_id":"f8ef4f78-badc-40d1-a4a9-077301466e56","system_id":"levelo_inurba_marseille","lat":43.32662,"lon":5.40978,"is_reserved":false,"is_disabled":false,"rental_uris":{"android":"levelo://app?vid=f8ef4f78-badc-40d1-a4a9-077301466e56","ios":"levelo://app?vid=f8ef4f78-badc-40d1-a4a9-077301466e56"},"vehicle_type_id":"4","last_reported":1692471811,"current_range_meters":12000,"station_id":"ce4bhpp2rcd13ifvqhgg","pricing_plan_id":"free"},{"bike_id":"ab031663-2997-47cf-9dc5-11da275f6ab1","system_id":"levelo_inurba_marseille","lat":43.279087,"lon":5.380114,"is_reserved":false,"is_disabled":false,"rental_uris":{"android":"levelo://app?vid=ab031663-2997-47cf-9dc5-11da275f6ab1","ios":"levelo://app?vid=ab031663-2997-47cf-9dc5-11da275f6ab1"},"vehicle_type_id":"4","last_reported":1692471811,"current_range_meters":7200,"station_id":"ce4bhf92rcd13ifvqf50","pricing_plan_id":"free"},{"bike_id":"7ff7b538-396c-4a8d-b2e0-0e508302f439","system_id":"levelo_inurba_marseille","lat":43.287154,"lon":5.399979,"is_reserved":false,"is_disabled":false,"rental_uris":{"android":"levelo://app?vid=7ff7b538-396c-4a8d-b2e0-0e508302f439","ios":"levelo://app?vid=7ff7b538-396c-4a8d-b2e0-0e508302f439"},"vehicle_type_id":"4","last_reported":1692471811,"current_range_meters":13200,"station_id":"ce4bho92rcd13ifvqh3g","pricing_plan_id":"free"},{"bike_id":"4a97054d-f5ae-4808-8d67-188bb30d1ca5","system_id":"levelo_inurba_marseille","lat":43.287154,"lon":5.399979,"is_reserved":false,"is_disabled":false,"rental_uris":{"android":"levelo://app?vid=4a97054d-f5ae-4808-8d67-188bb30d1ca5","ios":"levelo://app?vid=4a97054d-f5ae-4808-8d67-188bb30d1ca5"},"vehicle_type_id":"4","last_reported":1692471811,"current_range_meters":19600,"station_id":"ce4bho92rcd13ifvqh3g","pricing_plan_id":"free"},{"bike_id":"c589b81f-75f3-4802-ba56-fe0add7a1ac8","system_id":"levelo_inurba_marseille","lat":43.287154,"lon":5.399979,"is_reserved":false,"is_disabled":false,"rental_uris":{"android":"levelo://app?vid=c589b81f-75f3-4802-ba56-fe0add7a1ac8","ios":"levelo://app?vid=c589b81f-75f3-4802-ba56-fe0add7a1ac8"},"vehicle_type_id":"4","last_reported":1692471811,"current_range_meters":8400,"station_id":"ce4bho92rcd13ifvqh3g","pricing_plan_id":"free"},{"bike_id":"b13dd7c9-bac6-421c-a72d-7c7207452146","system_id":"levelo_inurba_marseille","lat":43.287154,"lon":5.399979,"is_reserved":false,"is_disabled":false,"rental_uris":{"android":"levelo://app?vid=b13dd7c9-bac6-421c-a72d-7c7207452146","ios":"levelo://app?vid=b13dd7c9-bac6-421c-a72d-7c7207452146"},"vehicle_type_id":"4","last_reported":1692471811,"current_range_meters":24000,"station_id":"ce4bho92rcd13ifvqh3g","pricing_plan_id":"free"},{"bike_id":"b7ea4222-f408-476c-a407-312a1ce27028","system_id":"levelo_inurba_marseille","lat":43.299579,"lon":5.413255,"is_reserved":false,"is_disabled":false,"rental_uris":{"android":"levelo://app?vid=b7ea4222-f408-476c-a407-312a1ce27028","ios":"levelo://app?vid=b7ea4222-f408-476c-a407-312a1ce27028"},"vehicle_type_id":"4","last_reported":1692471811,"current_range_meters":14800,"station_id":"ce4bhp12rcd13ifvqh9g","pricing_plan_id":"free"},{"bike_id":"c327718a-8fe6-4791-a349-aba0f8f94e82","system_id":"levelo_inurba_marseille","lat":43.279742,"lon":5.38744,"is_reserved":false,"is_disabled":false,"rental_uris":{"android":"levelo://app?vid=c327718a-8fe6-4791-a349-aba0f8f94e82","ios":"levelo://app?vid=c327718a-8fe6-4791-a349-aba0f8f94e82"},"vehicle_type_id":"4","last_reported":1692471811,"current_range_meters":24800,"station_id":"ce4bhg12rcd13ifvqf80","pricing_plan_id":"free"},{"bike_id":"d53fc0dd-8044-425c-a3aa-73bcc18b7626","system_id":"levelo_inurba_marseille","lat":43.27607,"lon":5.36114,"is_reserved":false,"is_disabled":false,"rental_uris":{"android":"levelo://app?vid=d53fc0dd-8044-425c-a3aa-73bcc18b7626","ios":"levelo://app?vid=d53fc0dd-8044-425c-a3aa-73bcc18b7626"},"vehicle_type_id":"4","last_reported":1692471811,"current_range_meters":15600,"station_id":"ce4bgj92rcd13ifvqbe0","pricing_plan_id":"free"},{"bike_id":"2ddd90e7-349a-4b85-8df6-298a58c64c73","system_id":"levelo_inurba_marseille","lat":43.34671,"lon":5.3456,"is_reserved":false,"is_disabled":false,"rental_uris":{"android":"levelo://app?vid=2ddd90e7-349a-4b85-8df6-298a58c64c73","ios":"levelo://app?vid=2ddd90e7-349a-4b85-8df6-298a58c64c73"},"vehicle_type_id":"4","last_reported":1692471811,"current_range_meters":4000,"station_id":"","pricing_plan_id":"free"},{"bike_id":"5f3e3bfc-85ed-4d8c-8b92-e1a6257584a3","system_id":"levelo_inurba_marseille","lat":43.34678,"lon":5.34555,"is_reserved":false,"is_disabled":false,"rental_uris":{"android":"levelo://app?vid=5f3e3bfc-85ed-4d8c-8b92-e1a6257584a3","ios":"levelo://app?vid=5f3e3bfc-85ed-4d8c-8b92-e1a6257584a3"},"vehicle_type_id":"4","last_reported":1692471811,"current_range_meters":22000,"station_id":"","pricing_plan_id":"free"},{"bike_id":"38e97ea2-1b48-4a99-a47c-81332f2cfcc1","system_id":"levelo_inurba_marseille","lat":43.280784,"lon":5.396622,"is_reserved":false,"is_disabled":false,"rental_uris":{"android":"levelo://app?vid=38e97ea2-1b48-4a99-a47c-81332f2cfcc1","ios":"levelo://app?vid=38e97ea2-1b48-4a99-a47c-81332f2cfcc1"},"vehicle_type_id":"4","last_reported":1692471811,"current_range_meters":24400,"station_id":"ce4bho12rcd13ifvqh2g","pricing_plan_id":"free"},{"bike_id":"51ef7580-ecfe-4db9-849c-49cf351934f7","system_id":"levelo_inurba_marseille","lat":43.280784,"lon":5.396622,"is_reserved":false,"is_disabled":false,"rental_uris":{"android":"levelo://app?vid=51ef7580-ecfe-4db9-849c-49cf351934f7","ios":"levelo://app?vid=51ef7580-ecfe-4db9-849c-49cf351934f7"},"vehicle_type_id":"4","last_reported":1692471811,"current_range_meters":11600,"station_id":"ce4bho12rcd13ifvqh2g","pricing_plan_id":"free"},{"bike_id":"9c828e9e-2d96-4caf-9798-ef4cd3abcbc5","system_id":"levelo_inurba_marseille","lat":43.280784,"lon":5.396622,"is_reserved":false,"is_disabled":false,"rental_uris":{"android":"levelo://app?vid=9c828e9e-2d96-4caf-9798-ef4cd3abcbc5","ios":"levelo://app?vid=9c828e9e-2d96-4caf-9798-ef4cd3abcbc5"},"vehicle_type_id":"4","last_reported":1692471811,"current_range_meters":24400,"station_id":"ce4bho12rcd13ifvqh2g","pricing_plan_id":"free"},{"bike_id":"f6952587-85f6-484d-8964-14e89408290c","system_id":"levelo_inurba_marseille","lat":43.280784,"lon":5.396622,"is_reserved":false,"is_disabled":false,"rental_uris":{"android":"levelo://app?vid=f6952587-85f6-484d-8964-14e89408290c","ios":"levelo://app?vid=f6952587-85f6-484d-8964-14e89408290c"},"vehicle_type_id":"4","last_reported":1692471811,"current_range_meters":10000,"station_id":"ce4bho12rcd13ifvqh2g","pricing_plan_id":"free"},{"bike_id":"a06253ba-ad04-4d62-a083-d6c4871bc757","system_id":"levelo_inurba_marseille","lat":43.275625,"lon":5.384392,"is_reserved":false,"is_disabled":false,"rental_uris":{"android":"levelo://app?vid=a06253ba-ad04-4d62-a083-d6c4871bc757","ios":"levelo://app?vid=a06253ba-ad04-4d62-a083-d6c4871bc757"},"vehicle_type_id":"4","last_reported":1692471811,"current_range_meters":6400,"station_id":"ce4bhh92rcd13ifvqfi0","pricing_plan_id":"free"},{"bike_id":"e1ee8714-81ca-482d-8101-b3f065ce72dd","system_id":"levelo_inurba_marseille","lat":43.275625,"lon":5.384392,"is_reserved":false,"is_disabled":false,"rental_uris":{"android":"levelo://app?vid=e1ee8714-81ca-482d-8101-b3f065ce72dd","ios":"levelo://app?vid=e1ee8714-81ca-482d-8101-b3f065ce72dd"},"vehicle_type_id":"4","last_reported":1692471811,"current_range_meters":31200,"station_id":"ce4bhh92rcd13ifvqfi0","pricing_plan_id":"free"},{"bike_id":"44a946af-8251-42c4-ba96-04c548008128","system_id":"levelo_inurba_marseille","lat":43.27375,"lon":5.36262,"is_reserved":false,"is_disabled":false,"rental_uris":{"android":"levelo://app?vid=44a946af-8251-42c4-ba96-04c548008128","ios":"levelo://app?vid=44a946af-8251-42c4-ba96-04c548008128"},"vehicle_type_id":"4","last_reported":1692471811,"current_range_meters":26000,"station_id":"ce4bhbh2rcd13ifvqeo0","pricing_plan_id":"free"},{"bike_id":"c3ca0316-e279-4608-855c-ecda26fd9969","system_id":"levelo_inurba_marseille","lat":43.275625,"lon":5.384392,"is_reserved":false,"is_disabled":false,"rental_uris":{"android":"levelo://app?vid=c3ca0316-e279-4608-855c-ecda26fd9969","ios":"levelo://app?vid=c3ca0316-e279-4608-855c-ecda26fd9969"},"vehicle_type_id":"4","last_reported":1692471811,"current_range_meters":16000,"station_id":"ce4bhh92rcd13ifvqfi0","pricing_plan_id":"free"},{"bike_id":"d627b618-18a5-43e4-bee3-6920339817cd","system_id":"levelo_inurba_marseille","lat":43.273609,"lon":5.362708,"is_reserved":false,"is_disabled":false,"rental_uris":{"android":"levelo://app?vid=d627b618-18a5-43e4-bee3-6920339817cd","ios":"levelo://app?vid=d627b618-18a5-43e4-bee3-6920339817cd"},"vehicle_type_id":"4","last_reported":1692471811,"current_range_meters":19600,"station_id":"ce4bhbh2rcd13ifvqeo0","pricing_plan_id":"free"},{"bike_id":"b908ef7e-10c8-4f56-b372-f5b786688b91","system_id":"levelo_inurba_marseille","lat":43.33598,"lon":5.4102,"is_reserved":false,"is_disabled":false,"rental_uris":{"android":"levelo://app?vid=b908ef7e-10c8-4f56-b372-f5b786688b91","ios":"levelo://app?vid=b908ef7e-10c8-4f56-b372-f5b786688b91"},"vehicle_type_id":"4","last_reported":1692471811,"current_range_meters":31200,"station_id":"ce4bhqh2rcd13ifvqhmg","pricing_plan_id":"free"},{"bike_id":"fc13f153-b9e1-4649-b6b8-d5a48920c307","system_id":"levelo_inurba_marseille","lat":43.273609,"lon":5.362708,"is_reserved":false,"is_disabled":false,"rental_uris":{"android":"levelo://app?vid=fc13f153-b9e1-4649-b6b8-d5a48920c307","ios":"levelo://app?vid=fc13f153-b9e1-4649-b6b8-d5a48920c307"},"vehicle_type_id":"4","last_reported":1692471811,"current_range_meters":24800,"station_id":"ce4bhbh2rcd13ifvqeo0","pricing_plan_id":"free"},{"bike_id":"c2001ebd-a0a8-4d89-bb35-5eaab1ca956a","system_id":"levelo_inurba_marseille","lat":43.33604,"lon":5.41022,"is_reserved":false,"is_disabled":false,"rental_uris":{"android":"levelo://app?vid=c2001ebd-a0a8-4d89-bb35-5eaab1ca956a","ios":"levelo://app?vid=c2001ebd-a0a8-4d89-bb35-5eaab1ca956a"},"vehicle_type_id":"4","last_reported":1692471811,"current_range_meters":20800,"station_id":"ce4bhqh2rcd13ifvqhmg","pricing_plan_id":"free"},{"bike_id":"33c65d5c-5c22-4390-94e0-6942dbc893e7","system_id":"levelo_inurba_marseille","lat":43.336134,"lon":5.410341,"is_reserved":false,"is_disabled":false,"rental_uris":{"android":"levelo://app?vid=33c65d5c-5c22-4390-94e0-6942dbc893e7","ios":"levelo://app?vid=33c65d5c-5c22-4390-94e0-6942dbc893e7"},"vehicle_type_id":"4","last_reported":1692471811,"current_range_meters":31200,"station_id":"ce4bhqh2rcd13ifvqhmg","pricing_plan_id":"free"},{"bike_id":"794e1ed7-0954-4657-9eb1-84d7cefa9f4c","system_id":"levelo_inurba_marseille","lat":43.33607,"lon":5.41023,"is_reserved":false,"is_disabled":false,"rental_uris":{"android":"levelo://app?vid=794e1ed7-0954-4657-9eb1-84d7cefa9f4c","ios":"levelo://app?vid=794e1ed7-0954-4657-9eb1-84d7cefa9f4c"},"vehicle_type_id":"4","last_reported":1692471811,"current_range_meters":23200,"station_id":"ce4bhqh2rcd13ifvqhmg","pricing_plan_id":"free"},{"bike_id":"ec541ad8-4721-4f6c-89cb-7d4ae3d542dc","system_id":"levelo_inurba_marseille","lat":43.33608,"lon":5.41022,"is_reserved":false,"is_disabled":false,"rental_uris":{"android":"levelo://app?vid=ec541ad8-4721-4f6c-89cb-7d4ae3d542dc","ios":"levelo://app?vid=ec541ad8-4721-4f6c-89cb-7d4ae3d542dc"},