{"last_updated":1745557828,"ttl":60,"version":"2.2","data":{"bikes":[{"bike_id":"10cb18ca-4cf4-45ca-9db3-742bc615e786","system_id":"levelo_inurba_marseille","lat":43.23618,"lon":5.39168,"is_reserved":false,"is_disabled":false,"rental_uris":{"android":"levelo://app?vid=10cb18ca-4cf4-45ca-9db3-742bc615e786","ios":"levelo://app?vid=10cb18ca-4cf4-45ca-9db3-742bc615e786"},"vehicle_type_id":"4","last_reported":1745557828,"current_range_meters":2800,"station_id":"","pricing_plan_id":"cebpf4jnsgd1na2vs0mg"},{"bike_id":"5b2ab53b-4abe-46b9-ac2a-36d1233fdded","system_id":"levelo_inurba_marseille","lat":43.3082,"lon":5.36855,"is_reserved":false,"is_disabled":false,"rental_uris":{"android":"levelo://app?vid=5b2ab53b-4abe-46b9-ac2a-36d1233fdded","ios":"levelo://app?vid=5b2ab53b-4abe-46b9-ac2a-36d1233fdded"},"vehicle_type_id":"4","last_reported":1745557828,"current_range_meters":2800,"station_id":"","pricing_plan_id":"cebpf4jnsgd1na2vs0mg"},{"bike_id":"8b4bac15-47d4-4b48-89ad-d28a545e842f","system_id":"levelo_inurba_marseille","lat":43.22949,"lon":5.3542,"is_reserved":false,"is_disabled":false,"rental_uris":{"android":"levelo://app?vid=8b4bac15-47d4-4b48-89ad-d28a545e842f","ios":"levelo://app?vid=8b4bac15-47d4-4b48-89ad-d28a545e842f"},"vehicle_type_id":"4","last_reported":1745557828,"current_range_meters":3200,"station_id":"cpo3532slgdg3j2ikp40","pricing_plan_id":"cebpf4jnsgd1na2vs0mg"},{"bike_id":"c80b4906-338a-43d0-8b2c-1767d2950c18","system_id":"levelo_inurba_marseille","lat":43.241699,"lon":5.397241,"is_reserved":false,"is_disabled":false,"rental_uris":{"android":"levelo://app?vid=c80b4906-338a-43d0-8b2c-1767d2950c18","ios":"levelo://app?vid=c80b4906-338a-43d0-8b2c-1767d2950c18"},"vehicle_type_id":"4","last_reported":1745557828,"current_range_meters":3200,"station_id":"ce4bhn12rcd13ifvqgpg","pricing_plan_id":"cebpf4jnsgd1na2vs0mg"},{"bike_id":"ba98092f-1f95-4d1b-8c2e-943fbb808d72","system_id":"levelo_inurba_marseille","lat":43.241798,"lon":5.397263,"is_reserved":false,"is_disabled":false,"rental_uris":{"android":"levelo://app?vid=ba98092f-1f95-4d1b-8c2e-943fbb808d72","ios":"levelo://app?vid=ba98092f-1f95-4d1b-8c2e-943fbb808d72"},"vehicle_type_id":"4","last_reported":1745557828,"current_range_meters":3200,"station_id":"ce4bhn12rcd13ifvqgpg","pricing_plan_id":"cebpf4jnsgd1na2vs0mg"},{"bike_id":"da70d61b-208e-4f5a-8136-fdac79841f35","system_id":"levelo_inurba_marseille","lat":43.28032,"lon":5.36965,"is_reserved":false,"is_disabled":false,"rental_uris":{"android":"levelo://app?vid=da70d61b-208e-4f5a-8136-fdac79841f35","ios":"levelo://app?vid=da70d61b-208e-4f5a-8136-fdac79841f35"},"vehicle_type_id":"4","last_reported":1745557828,"current_range_meters":3600,"station_id":"ce4bha12rcd13ifvqef0","pricing_plan_id":"cebpf4jnsgd1na2vs0mg"},{"bike_id":"d373d43c-1ec8-4c15-97b7-3808631cf0d5","system_id":"levelo_inurba_marseille","lat":43.3062,"lon":5.3797,"is_reserved":false,"is_disabled":false,"rental_uris":{"android":"levelo://app?vid=d373d43c-1ec8-4c15-97b7-3808631cf0d5","ios":"levelo://app?vid=d373d43c-1ec8-4c15-97b7-3808631cf0d5"},"vehicle_type_id":"4","last_reported":1745557828,"current_range_meters":3600,"station_id":"","pricing_plan_id":"cebpf4jnsgd1na2vs0mg"},{"bike_id":"f43ae12c-8010-442a-bd6b-2a8eac806ec2","system_id":"levelo_inurba_marseille","lat":43.30173,"lon":5.3809,"is_reserved":false,"is_disabled":false,"rental_uris":{"android":"levelo://app?vid=f43ae12c-8010-442a-bd6b-2a8eac806ec2","ios":"levelo://app?vid=f43ae12c-8010-442a-bd6b-2a8eac806ec2"},"vehicle_type_id":"4","last_reported":1745557828,"current_range_meters":3600,"station_id":"ce4bgjp2rcd13ifvqbh0","pricing_plan_id":"cebpf4jnsgd1na2vs0mg"},{"bike_id":"36cefaa1-1f19-45be-b15c-456bc07c8c57","system_id":"levelo_inurba_marseille","lat":43.279429,"lon":5.410363,"is_reserved":false,"is_disabled":false,"rental_uris":{"android":"levelo://app?vid=36cefaa1-1f19-45be-b15c-456bc07c8c57","ios":"levelo://app?vid=36cefaa1-1f19-45be-b15c-456bc07c8c57"},"vehicle_type_id":"4","last_reported":1745557828,"current_range_meters":3600,"station_id":"ce4bhnp2rcd13ifvqh0g","pricing_plan_id":"cebpf4jnsgd1na2vs0mg"},{"bike_id":"30704823-7a9c-4b12-af5d-93db18bfd3b9","system_id":"levelo_inurba_marseille","lat":43.28801,"lon":5.39927,"is_reserved":false,"is_disabled":false,"rental_uris":{"android":"levelo://app?vid=30704823-7a9c-4b12-af5d-93db18bfd3b9","ios":"levelo://app?vid=30704823-7a9c-4b12-af5d-93db18bfd3b9"},"vehicle_type_id":"4","last_reported":1745557828,"current_range_meters":3600,"station_id":"","pricing_plan_id":"cebpf4jnsgd1na2vs0mg"},{"bike_id":"ab022574-6b84-42ba-aed4-659306abeb16","system_id":"levelo_inurba_marseille","lat":43.25104,"lon":5.3952,"is_reserved":false,"is_disabled":false,"rental_uris":{"android":"levelo://app?vid=ab022574-6b84-42ba-aed4-659306abeb16","ios":"levelo://app?vid=ab022574-6b84-42ba-aed4-659306abeb16"},"vehicle_type_id":"4","last_reported":1745557828,"current_range_meters":4000,"station_id":"ce4bhm12rcd13ifvqgkg","pricing_plan_id":"cebpf4jnsgd1na2vs0mg"},{"bike_id":"ed5e2e18-64d0-491a-970a-f052a5fea769","system_id":"levelo_inurba_marseille","lat":43.23183,"lon":5.39976,"is_reserved":false,"is_disabled":true,"rental_uris":{"android":"levelo://app?vid=ed5e2e18-64d0-491a-970a-f052a5fea769","ios":"levelo://app?vid=ed5e2e18-64d0-491a-970a-f052a5fea769"},"vehicle_type_id":"4","last_reported":1745557828,"current_range_meters":4000,"station_id":"ce4bhn12rcd13ifvqgqg","pricing_plan_id":"cebpf4jnsgd1na2vs0mg"},{"bike_id":"4f233076-8e5d-4412-aefd-643156470ad0","system_id":"levelo_inurba_marseille","lat":43.28075,"lon":5.39642,"is_reserved":false,"is_disabled":false,"rental_uris":{"android":"levelo://app?vid=4f233076-8e5d-4412-aefd-643156470ad0","ios":"levelo://app?vid=4f233076-8e5d-4412-aefd-643156470ad0"},"vehicle_type_id":"4","last_reported":1745557828,"current_range_meters":4000,"station_id":"ce4bho12rcd13ifvqh2g","pricing_plan_id":"cebpf4jnsgd1na2vs0mg"},{"bike_id":"fed3087f-a5cb-449e-a43e-200233532ee8","system_id":"levelo_inurba_marseille","lat":43.280318,"lon":5.369404,"is_reserved":false,"is_disabled":false,"rental_uris":{"android":"levelo://app?vid=fed3087f-a5cb-449e-a43e-200233532ee8","ios":"levelo://app?vid=fed3087f-a5cb-449e-a43e-200233532ee8"},"vehicle_type_id":"4","last_reported":1745557828,"current_range_meters":4000,"station_id":"ce4bha12rcd13ifvqef0","pricing_plan_id":"cebpf4jnsgd1na2vs0mg"},{"bike_id":"92c3b340-d069-4f1c-b55b-44c52f19597b","system_id":"levelo_inurba_marseille","lat":43.282549,"lon":5.37781,"is_reserved":false,"is_disabled":false,"rental_uris":{"android":"levelo://app?vid=92c3b340-d069-4f1c-b55b-44c52f19597b","ios":"levelo://app?vid=92c3b340-d069-4f1c-b55b-44c52f19597b"},"vehicle_type_id":"4","last_reported":1745557828,"current_range_meters":4800,"station_id":"","pricing_plan_id":"cebpf4jnsgd1na2vs0mg"},{"bike_id":"5b16eb17-ed57-4a23-aac2-2c155ee976fc","system_id":"levelo_inurba_marseille","lat":43.229237,"lon":5.353851,"is_reserved":false,"is_disabled":false,"rental_uris":{"android":"levelo://app?vid=5b16eb17-ed57-4a23-aac2-2c155ee976fc","ios":"levelo://app?vid=5b16eb17-ed57-4a23-aac2-2c155ee976fc"},"vehicle_type_id":"4","last_reported":1745557828,"current_range_meters":4800,"station_id":"cpo3532slgdg3j2ikp40","pricing_plan_id":"cebpf4jnsgd1na2vs0mg"},{"bike_id":"17c75d3e-1f26-47e8-be26-0f9fadeb00f4","system_id":"levelo_inurba_marseille","lat":43.310701,"lon":5.383547,"is_reserved":false,"is_disabled":true,"rental_uris":{"android":"levelo://app?vid=17c75d3e-1f26-47e8-be26-0f9fadeb00f4","ios":"levelo://app?vid=17c75d3e-1f26-47e8-be26-0f9fadeb00f4"},"vehicle_type_id":"4","last_reported":1745557828,"current_range_meters":4800,"station_id":"ce4bgv92rcd13ifvqcr0","pricing_plan_id":"cebpf4jnsgd1na2vs0mg"},{"bike_id":"f9aa997e-1eb6-4a98-9f54-b14e20ff150a","system_id":"levelo_inurba_marseille","lat":43.25115,"lon":5.40333,"is_reserved":false,"is_disabled":false,"rental_uris":{"android":"levelo://app?vid=f9aa997e-1eb6-4a98-9f54-b14e20ff150a","ios":"levelo://app?vid=f9aa997e-1eb6-4a98-9f54-b14e20ff150a"},"vehicle_type_id":"4","last_reported":1745557828,"current_range_meters":5600,"station_id":"ce4bhlh2rcd13ifvqgig","pricing_plan_id":"cebpf4jnsgd1na2vs0mg"},{"bike_id":"8764c801-9cd2-4e78-bbfe-a229706ee676","system_id":"levelo_inurba_marseille","lat":43.298736,"lon":5.389103,"is_reserved":false,"is_disabled":true,"rental_uris":{"android":"levelo://app?vid=8764c801-9cd2-4e78-bbfe-a229706ee676","ios":"levelo://app?vid=8764c801-9cd2-4e78-bbfe-a229706ee676"},"vehicle_type_id":"4","last_reported":1745557828,"current_range_meters":5600,"station_id":"ce4bh392rcd13ifvqdl0","pricing_plan_id":"cebpf4jnsgd1na2vs0mg"},{"bike_id":"60ee52f6-3432-4a14-b3b4-c3acf981d864","system_id":"levelo_inurba_marseille","lat":43.21761,"lon":5.34612,"is_reserved":false,"is_disabled":false,"rental_uris":{"android":"levelo://app?vid=60ee52f6-3432-4a14-b3b4-c3acf981d864","ios":"levelo://app?vid=60ee52f6-3432-4a14-b3b4-c3acf981d864"},"vehicle_type_id":"4","last_reported":1745557828,"current_range_meters":6000,"station_id":"st_cvj6r9ubvosntc0bgbag","pricing_plan_id":"cebpf4jnsgd1na2vs0mg"},{"bike_id":"11c97ee7-410f-4b06-8564-ea08cf86b93d","system_id":"levelo_inurba_marseille","lat":43.25122,"lon":5.40303,"is_reserved":false,"is_disabled":false,"rental_uris":{"android":"levelo://app?vid=11c97ee7-410f-4b06-8564-ea08cf86b93d","ios":"levelo://app?vid=11c97ee7-410f-4b06-8564-ea08cf86b93d"},"vehicle_type_id":"4","last_reported":1745557828,"current_range_meters":6000,"station_id":"ce4bhlh2rcd13ifvqgig","pricing_plan_id":"cebpf4jnsgd1na2vs0mg"},{"bike_id":"04de76c4-a1ad-45bf-9e28-7c78bfcbb5c0","system_id":"levelo_inurba_marseille","lat":43.251905,"lon":5.374259,"is_reserved":false,"is_disabled":false,"rental_uris":{"android":"levelo://app?vid=04de76c4-a1ad-45bf-9e28-7c78bfcbb5c0","ios":"levelo://app?vid=04de76c4-a1ad-45bf-9e28-7c78bfcbb5c0"},"vehicle_type_id":"4","last_reported":1745557828,"current_range_meters":6000,"station_id":"","pricing_plan_id":"cebpf4jnsgd1na2vs0mg"},{"bike_id":"0f7faeca-f211-4302-91c4-a32916e8a18a","system_id":"levelo_inurba_marseille","lat":43.28029,"lon":5.36943,"is_reserved":false,"is_disabled":false,"rental_uris":{"android":"levelo://app?vid=0f7faeca-f211-4302-91c4-a32916e8a18a","ios":"levelo://app?vid=0f7faeca-f211-4302-91c4-a32916e8a18a"},"vehicle_type_id":"4","last_reported":1745557828,"current_range_meters":6400,"station_id":"ce4bha12rcd13ifvqef0","pricing_plan_id":"cebpf4jnsgd1na2vs0mg"},{"bike_id":"cfb4b89f-0f07-4e66-8d5d-eecea72c556a","system_id":"levelo_inurba_marseille","lat":43.29521,"lon":5.38554,"is_reserved":false,"is_disabled":true,"rental_uris":{"android":"levelo://app?vid=cfb4b89f-0f07-4e66-8d5d-eecea72c556a","ios":"levelo://app?vid=cfb4b89f-0f07-4e66-8d5d-eecea72c556a"},"vehicle_type_id":"4","last_reported":1745557828,"current_range_meters":6400,"station_id":"ce4bgih2rcd13ifvqba0","pricing_plan_id":"cebpf4jnsgd1na2vs0mg"},{"bike_id":"cf817414-be7f-4cb0-a6c4-1ea4cdfe7d3b","system_id":"levelo_inurba_marseille","lat":43.30576,"lon":5.39363,"is_reserved":false,"is_disabled":false,"rental_uris":{"android":"levelo://app?vid=cf817414-be7f-4cb0-a6c4-1ea4cdfe7d3b","ios":"levelo://app?vid=cf817414-be7f-4cb0-a6c4-1ea4cdfe7d3b"},"vehicle_type_id":"4","last_reported":1745557828,"current_range_meters":6400,"station_id":"ce4bh0p2rcd13ifvqd80","pricing_plan_id":"cebpf4jnsgd1na2vs0mg"},{"bike_id":"4b2e7729-6c82-45bc-8fe9-3d93ab38b5a5","system_id":"levelo_inurba_marseille","lat":43.23176,"lon":5.39966,"is_reserved":false,"is_disabled":false,"rental_uris":{"android":"levelo://app?vid=4b2e7729-6c82-45bc-8fe9-3d93ab38b5a5","ios":"levelo://app?vid=4b2e7729-6c82-45bc-8fe9-3d93ab38b5a5"},"vehicle_type_id":"4","last_reported":1745557828,"current_range_meters":6400,"station_id":"ce4bhn12rcd13ifvqgqg","pricing_plan_id":"cebpf4jnsgd1na2vs0mg"},{"bike_id":"c7e2fbd4-97ab-45a8-a063-805939e59f3a","system_id":"levelo_inurba_marseille","lat":43.295628,"lon":5.456927,"is_reserved":false,"is_disabled":false,"rental_uris":{"android":"levelo://app?vid=c7e2fbd4-97ab-45a8-a063-805939e59f3a","ios":"levelo://app?vid=c7e2fbd4-97ab-45a8-a063-805939e59f3a"},"vehicle_type_id":"4","last_reported":1745557828,"current_range_meters":6400,"station_id":"","pricing_plan_id":"cebpf4jnsgd1na2vs0mg"},{"bike_id":"9ddf38d5-8fa0-4514-8a2a-be13bb7bf03b","system_id":"levelo_inurba_marseille","lat":43.24651,"lon":5.38157,"is_reserved":false,"is_disabled":false,"rental_uris":{"android":"levelo://app?vid=9ddf38d5-8fa0-4514-8a2a-be13bb7bf03b","ios":"levelo://app?vid=9ddf38d5-8fa0-4514-8a2a-be13bb7bf03b"},"vehicle_type_id":"4","last_reported":1745557828,"current_range_meters":6400,"station_id":"ce4bhih2rcd13ifvqfr0","pricing_plan_id":"cebpf4jnsgd1na2vs0mg"},{"bike_id":"527053e2-9aa9-4e0c-851f-aa8cfdcac958","system_id":"levelo_inurba_marseille","lat":43.31964,"lon":5.38163,"is_reserved":false,"is_disabled":false,"rental_uris":{"android":"levelo://app?vid=527053e2-9aa9-4e0c-851f-aa8cfdcac958","ios":"levelo://app?vid=527053e2-9aa9-4e0c-851f-aa8cfdcac958"},"vehicle_type_id":"4","last_reported":1745557828,"current_range_meters":6800,"station_id":"ce4bhr12rcd13ifvqhpg","pricing_plan_id":"cebpf4jnsgd1na2vs0mg"},{"bike_id":"7242fde6-71be-44fc-a171-eead9671cf0e","system_id":"levelo_inurba_marseille","lat":43.30154,"lon":5.38083,"is_reserved":false,"is_disabled":false,"rental_uris":{"android":"levelo://app?vid=7242fde6-71be-44fc-a171-eead9671cf0e","ios":"levelo://app?vid=7242fde6-71be-44fc-a171-eead9671cf0e"},"vehicle_type_id":"4","last_reported":1745557828,"current_range_meters":6800,"station_id":"ce4bgjp2rcd13ifvqbh0","pricing_plan_id":"cebpf4jnsgd1na2vs0mg"},{"bike_id":"77f21559-ee32-4fe4-927e-b3030a53f1f8","system_id":"levelo_inurba_marseille","lat":43.25156,"lon":5.40353,"is_reserved":false,"is_disabled":false,"rental_uris":{"android":"levelo://app?vid=77f21559-ee32-4fe4-927e-b3030a53f1f8","ios":"levelo://app?vid=77f21559-ee32-4fe4-927e-b3030a53f1f8"},"vehicle_type_id":"4","last_reported":1745557828,"current_range_meters":6800,"station_id":"","pricing_plan_id":"cebpf4jnsgd1na2vs0mg"},{"bike_id":"b3094e88-ac74-4f57-b096-b0357aadc63b","system_id":"levelo_inurba_marseille","lat":43.23183,"lon":5.43858,"is_reserved":false,"is_disabled":false,"rental_uris":{"android":"levelo://app?vid=b3094e88-ac74-4f57-b096-b0357aadc63b","ios":"levelo://app?vid=b3094e88-ac74-4f57-b096-b0357aadc63b"},"vehicle_type_id":"4","last_reported":1745557828,"current_range_meters":6800,"station_id":"ce4bhmp2rcd13ifvqgog","pricing_plan_id":"cebpf4jnsgd1na2vs0mg"},{"bike_id":"5389b11c-1696-47b8-bf70-96fdf5bf695a","system_id":"levelo_inurba_marseille","lat":43.28871,"lon":5.35859,"is_reserved":false,"is_disabled":false,"rental_uris":{"android":"levelo://app?vid=5389b11c-1696-47b8-bf70-96fdf5bf695a","ios":"levelo://app?vid=5389b11c-1696-47b8-bf70-96fdf5bf695a"},"vehicle_type_id":"4","last_reported":1745557828,"current_range_meters":6800,"station_id":"ce4bhb12rcd13ifvqem0","pricing_plan_id":"cebpf4jnsgd1na2vs0mg"},{"bike_id":"3e032e24-cce1-43f6-80ef-295f3f093aa5","system_id":"levelo_inurba_marseille","lat":43.2865,"lon":5.36364,"is_reserved":false,"is_disabled":false,"rental_uris":{"android":"levelo://app?vid=3e032e24-cce1-43f6-80ef-295f3f093aa5","ios":"levelo://app?vid=3e032e24-cce1-43f6-80ef-295f3f093aa5"},"vehicle_type_id":"4","last_reported":1745557828,"current_range_meters":7200,"station_id":"ce4bhah2rcd13ifvqej0","pricing_plan_id":"cebpf4jnsgd1na2vs0mg"},{"bike_id":"67cde974-95dd-4e16-a22c-7d12eb808cf7","system_id":"levelo_inurba_marseille","lat":43.30157,"lon":5.38087,"is_reserved":false,"is_disabled":false,"rental_uris":{"android":"levelo://app?vid=67cde974-95dd-4e16-a22c-7d12eb808cf7","ios":"levelo://app?vid=67cde974-95dd-4e16-a22c-7d12eb808cf7"},"vehicle_type_id":"4","last_reported":1745557828,"current_range_meters":7200,"station_id":"ce4bgjp2rcd13ifvqbh0","pricing_plan_id":"cebpf4jnsgd1na2vs0mg"},{"bike_id":"e5e6387e-799d-49f8-9caa-4061ff31ee68","system_id":"levelo_inurba_marseille","lat":43.22494,"lon":5.34802,"is_reserved":false,"is_disabled":false,"rental_uris":{"android":"levelo://app?vid=e5e6387e-799d-49f8-9caa-4061ff31ee68","ios":"levelo://app?vid=e5e6387e-799d-49f8-9caa-4061ff31ee68"},"vehicle_type_id":"4","last_reported":1745557828,"current_range_meters":7200,"station_id":"st_cvj5dfep6f1abm77gieg","pricing_plan_id":"cebpf4jnsgd1na2vs0mg"},{"bike_id":"7258c5f1-beb2-4c9f-8f52-f09c6b8e693d","system_id":"levelo_inurba_marseille","lat":43.303745,"lon":5.424827,"is_reserved":false,"is_disabled":false,"rental_uris":{"android":"levelo://app?vid=7258c5f1-beb2-4c9f-8f52-f09c6b8e693d","ios":"levelo://app?vid=7258c5f1-beb2-4c9f-8f52-f09c6b8e693d"},"vehicle_type_id":"4","last_reported":1745557828,"current_range_meters":7200,"station_id":"ce4bhoh2rcd13ifvqh6g","pricing_plan_id":"cebpf4jnsgd1na2vs0mg"},{"bike_id":"fa072638-79d4-42b6-a779-d7bc984e3de1","system_id":"levelo_inurba_marseille","lat":43.23184,"lon":5.39987,"is_reserved":false,"is_disabled":false,"rental_uris":{"android":"levelo://app?vid=fa072638-79d4-42b6-a779-d7bc984e3de1","ios":"levelo://app?vid=fa072638-79d4-42b6-a779-d7bc984e3de1"},"vehicle_type_id":"4","last_reported":1745557828,"current_range_meters":7200,"station_id":"ce4bhn12rcd13ifvqgqg","pricing_plan_id":"cebpf4jnsgd1na2vs0mg"},{"bike_id":"3d193f16-cbfb-4635-8fcf-1164d62cfc64","system_id":"levelo_inurba_marseille","lat":43.30883,"lon":5.396259,"is_reserved":false,"is_disabled":true,"rental_uris":{"android":"levelo://app?vid=3d193f16-cbfb-4635-8fcf-1164d62cfc64","ios":"levelo://app?vid=3d193f16-cbfb-4635-8fcf-1164d62cfc64"},"vehicle_type_id":"4","last_reported":1745557828,"current_range_meters":7200,"station_id":"ce4bh012rcd13ifvqcv0","pricing_plan_id":"cebpf4jnsgd1na2vs0mg"},{"bike_id":"9d16ad86-9ee6-430b-bde1-d7870d768403","system_id":"levelo_inurba_marseille","lat":43.25933,"lon":5.40901,"is_reserved":false,"is_disabled":false,"rental_uris":{"android":"levelo://app?vid=9d16ad86-9ee6-430b-bde1-d7870d768403","ios":"levelo://app?vid=9d16ad86-9ee6-430b-bde1-d7870d768403"},"vehicle_type_id":"4","last_reported":1745557828,"current_range_meters":7200,"station_id":"ce4bhm92rcd13ifvqglg","pricing_plan_id":"cebpf4jnsgd1na2vs0mg"},{"bike_id":"94175c55-a1b8-454e-8864-a4f590effe31","system_id":"levelo_inurba_marseille","lat":43.32355,"lon":5.388855,"is_reserved":false,"is_disabled":false,"rental_uris":{"android":"levelo://app?vid=94175c55-a1b8-454e-8864-a4f590effe31","ios":"levelo://app?vid=94175c55-a1b8-454e-8864-a4f590effe31"},"vehicle_type_id":"4","last_reported":1745557828,"current_range_meters":7200,"station_id":"ce4bhqp2rcd13ifvqhog","pricing_plan_id":"cebpf4jnsgd1na2vs0mg"},{"bike_id":"d4246204-066f-4661-9f6c-f6d973fa9f01","system_id":"levelo_inurba_marseille","lat":43.29567,"lon":5.39969,"is_reserved":false,"is_disabled":false,"rental_uris":{"android":"levelo://app?vid=d4246204-066f-4661-9f6c-f6d973fa9f01","ios":"levelo://app?vid=d4246204-066f-4661-9f6c-f6d973fa9f01"},"vehicle_type_id":"4","last_reported":1745557828,"current_range_meters":7200,"station_id":"ce4bh312rcd13ifvqdj0","pricing_plan_id":"cebpf4jnsgd1na2vs0mg"},{"bike_id":"2490c850-e8ad-49d1-8887-b8f9d6b59f38","system_id":"levelo_inurba_marseille","lat":43.23193,"lon":5.39999,"is_reserved":false,"is_disabled":true,"rental_uris":{"android":"levelo://app?vid=2490c850-e8ad-49d1-8887-b8f9d6b59f38","ios":"levelo://app?vid=2490c850-e8ad-49d1-8887-b8f9d6b59f38"},"vehicle_type_id":"4","last_reported":1745557828,"current_range_meters":7200,"station_id":"ce4bhn12rcd13ifvqgqg","pricing_plan_id":"cebpf4jnsgd1na2vs0mg"},{"bike_id":"391ee3af-ca61-4f95-a151-9bc5c1f6cb8b","system_id":"levelo_inurba_marseille","lat":43.290284,"lon":5.399933,"is_reserved":false,"is_disabled":true,"rental_uris":{"android":"levelo://app?vid=391ee3af-ca61-4f95-a151-9bc5c1f6cb8b","ios":"levelo://app?vid=391ee3af-ca61-4f95-a151-9bc5c1f6cb8b"},"vehicle_type_id":"4","last_reported":1745557828,"current_range_meters":7200,"station_id":"ce4bh392rcd13ifvqdm0","pricing_plan_id":"cebpf4jnsgd1na2vs0mg"},{"bike_id":"dbd59c99-52b7-443e-a687-6cea5dde447c","system_id":"levelo_inurba_marseille","lat":43.29005,"lon":5.35609,"is_reserved":false,"is_disabled":false,"rental_uris":{"android":"levelo://app?vid=dbd59c99-52b7-443e-a687-6cea5dde447c","ios":"levelo://app?vid=dbd59c99-52b7-443e-a687-6cea5dde447c"},"vehicle_type_id":"4","last_reported":1745557828,"current_range_meters":7200,"station_id":"ce4bhb92rcd13ifvqen0","pricing_plan_id":"cebpf4jnsgd1na2vs0mg"},{"bike_id":"bd0c2e9e-2445-40e7-b282-79b710fbc623","system_id":"levelo_inurba_marseille","lat":43.23163,"lon":5.40002,"is_reserved":false,"is_disabled":false,"rental_uris":{"android":"levelo://app?vid=bd0c2e9e-2445-40e7-b282-79b710fbc623","ios":"levelo://app?vid=bd0c2e9e-2445-40e7-b282-79b710fbc623"},"vehicle_type_id":"4","last_reported":1745557828,"current_range_meters":8000,"station_id":"ce4bhn12rcd13ifvqgqg","pricing_plan_id":"cebpf4jnsgd1na2vs0mg"},{"bike_id":"18321386-6007-41d7-a392-599343c03345","system_id":"levelo_inurba_marseille","lat":43.31356,"lon":5.38505,"is_reserved":false,"is_disabled":true,"rental_uris":{"android":"levelo://app?vid=18321386-6007-41d7-a392-599343c03345","ios":"levelo://app?vid=18321386-6007-41d7-a392-599343c03345"},"vehicle_type_id":"4","last_reported":1745557828,"current_range_meters":8000,"station_id":"ce4bgt92rcd13ifvqcf0","pricing_plan_id":"cebpf4jnsgd1na2vs0mg"},{"bike_id":"7d644630-fd82-47fb-aa53-499da9988b8f","system_id":"levelo_inurba_marseille","lat":43.24669,"lon":5.38103,"is_reserved":false,"is_disabled":false,"rental_uris":{"android":"levelo://app?vid=7d644630-fd82-47fb-aa53-499da9988b8f","ios":"levelo://app?vid=7d644630-fd82-47fb-aa53-499da9988b8f"},"vehicle_type_id":"4","last_reported":1745557828,"current_range_meters":8000,"station_id":"","pricing_plan_id":"cebpf4jnsgd1na2vs0mg"},{"bike_id":"f742e759-6e98-4553-96e1-e1964ee51b8f","system_id":"levelo_inurba_marseille","lat":43.30801,"lon":5.43534,"is_reserved":false,"is_disabled":false,"rental_uris":{"android":"levelo://app?vid=f742e759-6e98-4553-96e1-e1964ee51b8f","ios":"levelo://app?vid=f742e759-6e98-4553-96e1-e1964ee51b8f"},"vehicle_type_id":"4","last_reported":1745557828,"current_range_meters":8000,"station_id":"ce4bhph2rcd13ifvqheg","pricing_plan_id":"cebpf4jnsgd1na2vs0mg"},{"bike_id":"9b8ed44c-5e0a-4cb8-a77f-4a79fad05f53","system_id":"levelo_inurba_marseille","lat":43.30164,"lon":5.3807,"is_reserved":false,"is_disabled":false,"rental_uris":{"android":"levelo://app?vid=9b8ed44c-5e0a-4cb8-a77f-4a79fad05f53","ios":"levelo://app?vid=9b8ed44c-5e0a-4cb8-a77f-4a79fad05f53"},"vehicle_type_id":"4","last_reported":1745557828,"current_range_meters":8000,"station_id":"ce4bgjp2rcd13ifvqbh0","pricing_plan_id":"cebpf4jnsgd1na2vs0mg"},{"bike_id":"eb772212-defc-4543-ad57-fa606af571fb","system_id":"levelo_inurba_marseille","lat":43.23241,"lon":5.39924,"is_reserved":false,"is_disabled":false,"rental_uris":{"android":"levelo://app?vid=eb772212-defc-4543-ad57-fa606af571fb","ios":"levelo://app?vid=eb772212-defc-4543-ad57-fa606af571fb"},"vehicle_type_id":"4","last_reported":1745557828,"current_range_meters":8000,"station_id":"","pricing_plan_id":"cebpf4jnsgd1na2vs0mg"},{"bike_id":"562436ce-5c87-4a40-bf0c-e42d00d23dad","system_id":"levelo_inurba_marseille","lat":43.251118,"lon":5.403154,"is_reserved":false,"is_disabled":false,"rental_uris":{"android":"levelo://app?vid=562436ce-5c87-4a40-bf0c-e42d00d23dad","ios":"levelo://app?vid=562436ce-5c87-4a40-bf0c-e42d00d23dad"},"vehicle_type_id":"4","last_reported":1745557828,"current_range_meters":8000,"station_id":"ce4bhlh2rcd13ifvqgig","pricing_plan_id":"cebpf4jnsgd1na2vs0mg"},{"bike_id":"99862305-32a2-444d-8334-228f5792e221","system_id":"levelo_inurba_marseille","lat":43.29266,"lon":5.36842,"is_reserved":false,"is_disabled":true,"rental_uris":{"android":"levelo://app?vid=99862305-32a2-444d-8334-228f5792e221","ios":"levelo://app?vid=99862305-32a2-444d-8334-228f5792e221"},"vehicle_type_id":"4","last_reported":1745557828,"current_range_meters":8000,"station_id":"ce4bhbp2rcd13ifvqesg","pricing_plan_id":"cebpf4jnsgd1na2vs0mg"},{"bike_id":"0013966c-ef97-46fc-a9b6-b1eb056f8ad3","system_id":"levelo_inurba_marseille","lat":43.24094,"lon":5.37736,"is_reserved":false,"is_disabled":false,"rental_uris":{"android":"levelo://app?vid=0013966c-ef97-46fc-a9b6-b1eb056f8ad3","ios":"levelo://app?vid=0013966c-ef97-46fc-a9b6-b1eb056f8ad3"},"vehicle_type_id":"4","last_reported":1745557828,"current_range_meters":8400,"station_id":"ce4bhnp2rcd13ifvqgvg","pricing_plan_id":"cebpf4jnsgd1na2vs0mg"},{"bike_id":"f8508138-549e-433a-8453-b2185a87c792","system_id":"levelo_inurba_marseille","lat":43.30239,"lon":5.40075,"is_reserved":false,"is_disabled":false,"rental_uris":{"android":"levelo://app?vid=f8508138-549e-433a-8453-b2185a87c792","ios":"levelo://app?vid=f8508138-549e-433a-8453-b2185a87c792"},"vehicle_type_id":"4","last_reported":1745557828,"current_range_meters":8400,"station_id":"ce4bgvh2rcd13ifvqcs0","pricing_plan_id":"cebpf4jnsgd1na2vs0mg"},{"bike_id":"ef111c66-4b3c-4341-9cc0-1374d7aece31","system_id":"levelo_inurba_marseille","lat":43.28026,"lon":5.40865,"is_reserved":false,"is_disabled":false,"rental_uris":{"android":"levelo://app?vid=ef111c66-4b3c-4341-9cc0-1374d7aece31","ios":"levelo://app?vid=ef111c66-4b3c-4341-9cc0-1374d7aece31"},"vehicle_type_id":"4","last_reported":1745557828,"current_range_meters":8400,"station_id":"","pricing_plan_id":"cebpf4jnsgd1na2vs0mg"},{"bike_id":"44c0201e-c9f3-4ec8-9f19-45cfbbe2ef08","system_id":"levelo_inurba_marseille","lat":43.2549,"lon":5.37643,"is_reserved":false,"is_disabled":false,"rental_uris":{"android":"levelo://app?vid=44c0201e-c9f3-4ec8-9f19-45cfbbe2ef08","ios":"levelo://app?vid=44c0201e-c9f3-4ec8-9f19-45cfbbe2ef08"},"vehicle_type_id":"4","last_reported":1745557828,"current_range_meters":8400,"station_id":"ce4bhh12rcd13ifvqff0","pricing_plan_id":"cebpf4jnsgd1na2vs0mg"},{"bike_id":"4959620f-bcf8-47e6-be19-b230de6ed982","system_id":"levelo_inurba_marseille","lat":43.304111,"lon":5.397499,"is_reserved":false,"is_disabled":false,"rental_uris":{"android":"levelo://app?vid=4959620f-bcf8-47e6-be19-b230de6ed982","ios":"levelo://app?vid=4959620f-bcf8-47e6-be19-b230de6ed982"},"vehicle_type_id":"4","last_reported":1745557828,"current_range_meters":8400,"station_id":"ce4bh092rcd13ifvqd20","pricing_plan_id":"cebpf4jnsgd1na2vs0mg"},{"bike_id":"8bf7bae2-66cf-41b0-94df-d1c78d2e8a1a","system_id":"levelo_inurba_marseille","lat":43.24052,"lon":5.37753,"is_reserved":false,"is_disabled":false,"rental_uris":{"android":"levelo://app?vid=8bf7bae2-66cf-41b0-94df-d1c78d2e8a1a","ios":"levelo://app?vid=8bf7bae2-66cf-41b0-94df-d1c78d2e8a1a"},"vehicle_type_id":"4","last_reported":1745557828,"current_range_meters":8400,"station_id":"ce4bhnp2rcd13ifvqgvg","pricing_plan_id":"cebpf4jnsgd1na2vs0mg"},{"bike_id":"46374c49-3adc-4c5a-8966-e00f056c0d57","system_id":"levelo_inurba_marseille","lat":43.27846,"lon":5.35442,"is_reserved":false,"is_disabled":false,"rental_uris":{"android":"levelo://app?vid=46374c49-3adc-4c5a-8966-e00f056c0d57","ios":"levelo://app?vid=46374c49-3adc-4c5a-8966-e00f056c0d57"},"vehicle_type_id":"4","last_reported":1745557828,"current_range_meters":8800,"station_id":"","pricing_plan_id":"cebpf4jnsgd1na2vs0mg"},{"bike_id":"76a22161-1fd5-41bc-9b2b-8cee494d4168","system_id":"levelo_inurba_marseille","lat":43.30645,"lon":5.40089,"is_reserved":false,"is_disabled":false,"rental_uris":{"android":"levelo://app?vid=76a22161-1fd5-41bc-9b2b-8cee494d4168","ios":"levelo://app?vid=76a22161-1fd5-41bc-9b2b-8cee494d4168"},"vehicle_type_id":"4","last_reported":1745557828,"current_range_meters":8800,"station_id":"ce4bh112rcd13ifvqda0","pricing_plan_id":"cebpf4jnsgd1na2vs0mg"},{"bike_id":"2be10731-8ce4-43aa-8e08-ba7599acd288","system_id":"levelo_inurba_marseille","lat":43.286901,"lon":5.400077,"is_reserved":false,"is_disabled":false,"rental_uris":{"android":"levelo://app?vid=2be10731-8ce4-43aa-8e08-ba7599acd288","ios":"levelo://app?vid=2be10731-8ce4-43aa-8e08-ba7599acd288"},"vehicle_type_id":"4","last_reported":1745557828,"current_range_meters":8800,"station_id":"ce4bho92rcd13ifvqh3g","pricing_plan_id":"cebpf4jnsgd1na2vs0mg"},{"bike_id":"c9e91005-4216-4d09-9085-840e279facd4","system_id":"levelo_inurba_marseille","lat":43.305932,"lon":5.393574,"is_reserved":false,"is_disabled":false,"rental_uris":{"android":"levelo://app?vid=c9e91005-4216-4d09-9085-840e279facd4","ios":"levelo://app?vid=c9e91005-4216-4d09-9085-840e279facd4"},"vehicle_type_id":"4","last_reported":1745557828,"current_range_meters":8800,"station_id":"ce4bh0p2rcd13ifvqd80","pricing_plan_id":"cebpf4jnsgd1na2vs0mg"},{"bike_id":"951e4c5a-ed4b-4956-a7e2-d787fd79df17","system_id":"levelo_inurba_marseille","lat":43.311836,"lon":5.407658,"is_reserved":false,"is_disabled":false,"rental_uris":{"android":"levelo://app?vid=951e4c5a-ed4b-4956-a7e2-d787fd79df17","ios":"levelo://app?vid=951e4c5a-ed4b-4956-a7e2-d787fd79df17"},"vehicle_type_id":"4","last_reported":1745557828,"current_range_meters":9200,"station_id":"","pricing_plan_id":"cebpf4jnsgd1na2vs0mg"},{"bike_id":"d4b6329f-e983-416a-8804-3a05de7c5c23","system_id":"levelo_inurba_marseille","lat":43.307338,"lon":5.424414,"is_reserved":false,"is_disabled":false,"rental_uris":{"android":"levelo://app?vid=d4b6329f-e983-416a-8804-3a05de7c5c23","ios":"levelo://app?vid=d4b6329f-e983-416a-8804-3a05de7c5c23"},"vehicle_type_id":"4","last_reported":1745557828,"current_range_meters":9200,"station_id":"st_cvj6ca6bvosntc0bfgr0","pricing_plan_id":"cebpf4jnsgd1na2vs0mg"},{"bike_id":"bedade63-bc4a-4006-b6db-8acc7942074c","system_id":"levelo_inurba_marseille","lat":43.30826,"lon":5.3816,"is_reserved":false,"is_disabled":false,"rental_uris":{"android":"levelo://app?vid=bedade63-bc4a-4006-b6db-8acc7942074c","ios":"levelo://app?vid=bedade63-bc4a-4006-b6db-8acc7942074c"},"vehicle_type_id":"4","last_reported":1745557828,"current_range_meters":9200,"station_id":"ce4bgt12rcd13ifvqce0","pricing_plan_id":"cebpf4jnsgd1na2vs0mg"},{"bike_id":"a3272eaa-e99a-4ec7-833d-f746a399c6cb","system_id":"levelo_inurba_marseille","lat":43.28102,"lon":5.37854,"is_reserved":false,"is_disabled":false,"rental_uris":{"android":"levelo://app?vid=a3272eaa-e99a-4ec7-833d-f746a399c6cb","ios":"levelo://app?vid=a3272eaa-e99a-4ec7-833d-f746a399c6cb"},"vehicle_type_id":"4","last_reported":1745557828,"current_range_meters":9600,"station_id":"ce4bha12rcd13ifvqee0","pricing_plan_id":"cebpf4jnsgd1na2vs0mg"},{"bike_id":"3f4fffef-9d06-4513-a8be-a4167b14ccb8","system_id":"levelo_inurba_marseille","lat":43.30936,"lon":5.3707,"is_reserved":false,"is_disabled":false,"rental_uris":{"android":"levelo://app?vid=3f4fffef-9d06-4513-a8be-a4167b14ccb8","ios":"levelo://app?vid=3f4fffef-9d06-4513-a8be-a4167b14ccb8"},"vehicle_type_id":"4","last_reported":1745557828,"current_range_meters":9600,"station_id":"","pricing_plan_id":"cebpf4jnsgd1na2vs0mg"},{"bike_id":"2a112877-49f5-46fa-8cde-0cd4528c281e","system_id":"levelo_inurba_marseille","lat":43.28073,"lon":5.39666,"is_reserved":false,"is_disabled":false,"rental_uris":{"android":"levelo://app?vid=2a112877-49f5-46fa-8cde-0cd4528c281e","ios":"levelo://app?vid=2a112877-49f5-46fa-8cde-0cd4528c281e"},"vehicle_type_id":"4","last_reported":1745557828,"current_range_meters":9600,"station_id":"ce4bho12rcd13ifvqh2g","pricing_plan_id":"cebpf4jnsgd1na2vs0mg"},{"bike_id":"3a41a14b-b60d-411c-aa4a-3b7d3df773ad","system_id":"levelo_inurba_marseille","lat":43.30201,"lon":5.366127,"is_reserved":false,"is_disabled":true,"rental_uris":{"android":"levelo://app?vid=3a41a14b-b60d-411c-aa4a-3b7d3df773ad","ios":"levelo://app?vid=3a41a14b-b60d-411c-aa4a-3b7d3df773ad"},"vehicle_type_id":"4","last_reported":1745557828,"current_range_meters":9600,"station_id":"ce4bgrh2rcd13ifvqc8g","pricing_plan_id":"cebpf4jnsgd1na2vs0mg"},{"bike_id":"2b78e99c-4810-4d95-83cf-575fcbeb54ef","system_id":"levelo_inurba_marseille","lat":43.30154,"lon":5.38089,"is_reserved":false,"is_disabled":false,"rental_uris":{"android":"levelo://app?vid=2b78e99c-4810-4d95-83cf-575fcbeb54ef","ios":"levelo://app?vid=2b78e99c-4810-4d95-83cf-575fcbeb54ef"},"vehicle_type_id":"4","last_reported":1745557828,"current_range_meters":9600,"station_id":"ce4bgjp2rcd13ifvqbh0","pricing_plan_id":"cebpf4jnsgd1na2vs0mg"},{"bike_id":"6b0d1ec6-0d77-4bd1-9dce-9054c2481ed1","system_id":"levelo_inurba_marseille","lat":43.24388,"lon":5.37056,"is_reserved":false,"is_disabled":false,"rental_uris":{"android":"levelo://app?vid=6b0d1ec6-0d77-4bd1-9dce-9054c2481ed1","ios":"levelo://app?vid=6b0d1ec6-0d77-4bd1-9dce-9054c2481ed1"},"vehicle_type_id":"4","last_reported":1745557828,"current_range_meters":9600,"station_id":"ce4bhhh2rcd13ifvqfk0","pricing_plan_id":"cebpf4jnsgd1na2vs0mg"},{"bike_id":"d4a8fafa-88a7-48bf-b5a7-839e5bc03db8","system_id":"levelo_inurba_marseille","lat":43.25009,"lon":5.38921,"is_reserved":false,"is_disabled":true,"rental_uris":{"android":"levelo://app?vid=d4a8fafa-88a7-48bf-b5a7-839e5bc03db8","ios":"levelo://app?vid=d4a8fafa-88a7-48bf-b5a7-839e5bc03db8"},"vehicle_type_id":"4","last_reported":1745557828,"current_range_meters":9600,"station_id":"ce4bhgp2rcd13ifvqfd0","pricing_plan_id":"cebpf4jnsgd1na2vs0mg"},{"bike_id":"024aef6f-f9a1-4b77-8346-2616f5e22e45","system_id":"levelo_inurba_marseille","lat":43.31893,"lon":5.366106,"is_reserved":false,"is_disabled":false,"rental_uris":{"android":"levelo://app?vid=024aef6f-f9a1-4b77-8346-2616f5e22e45","ios":"levelo://app?vid=024aef6f-f9a1-4b77-8346-2616f5e22e45"},"vehicle_type_id":"4","last_reported":1745557828,"current_range_meters":10000,"station_id":"ce4bgrh2rcd13ifvqc8g","pricing_plan_id":"cebpf4jnsgd1na2vs0mg"},{"bike_id":"2d9c5985-7776-4299-a4d9-7a0b1ba90afd","system_id":"levelo_inurba_marseille","lat":43.27378,"lon":5.36269,"is_reserved":false,"is_disabled":false,"rental_uris":{"android":"levelo://app?vid=2d9c5985-7776-4299-a4d9-7a0b1ba90afd","ios":"levelo://app?vid=2d9c5985-7776-4299-a4d9-7a0b1ba90afd"},"vehicle_type_id":"4","last_reported":1745557828,"current_range_meters":10000,"station_id":"ce4bhbh2rcd13ifvqeo0","pricing_plan_id":"cebpf4jnsgd1na2vs0mg"},{"bike_id":"d8840801-a52a-4c7c-9a2d-3e5f8bcef267","system_id":"levelo_inurba_marseille","lat":43.28024,"lon":5.36963,"is_reserved":false,"is_disabled":false,"rental_uris":{"android":"levelo://app?vid=d8840801-a52a-4c7c-9a2d-3e5f8bcef267","ios":"levelo://app?vid=d8840801-a52a-4c7c-9a2d-3e5f8bcef267"},"vehicle_type_id":"4","last_reported":1745557828,"current_range_meters":10000,"station_id":"ce4bha12rcd13ifvqef0","pricing_plan_id":"cebpf4jnsgd1na2vs0mg"},{"bike_id":"c4b0ce6f-4913-48c0-94af-255f0c5af339","system_id":"levelo_inurba_marseille","lat":43.24552,"lon":5.3953,"is_reserved":false,"is_disabled":false,"rental_uris":{"android":"levelo://app?vid=c4b0ce6f-4913-48c0-94af-255f0c5af339","ios":"levelo://app?vid=c4b0ce6f-4913-48c0-94af-255f0c5af339"},"vehicle_type_id":"4","last_reported":1745557828,"current_range_meters":10000,"station_id":"ce4bhlp2rcd13ifvqgjg","pricing_plan_id":"cebpf4jnsgd1na2vs0mg"},{"bike_id":"c66c0ae8-8a0f-4709-8d03-f3973ec155ea","system_id":"levelo_inurba_marseille","lat":43.28109,"lon":5.37851,"is_reserved":false,"is_disabled":false,"rental_uris":{"android":"levelo://app?vid=c66c0ae8-8a0f-4709-8d03-f3973ec155ea","ios":"levelo://app?vid=c66c0ae8-8a0f-4709-8d03-f3973ec155ea"},"vehicle_type_id":"4","last_reported":1745557828,"current_range_meters":10000,"station_id":"ce4bha12rcd13ifvqee0","pricing_plan_id":"cebpf4jnsgd1na2vs0mg"},{"bike_id":"02ce4407-a958-420b-9bd3-98b2833b4b3f","system_id":"levelo_inurba_marseille","lat":43.29277,"lon":5.40114,"is_reserved":false,"is_disabled":false,"rental_uris":{"android":"levelo://app?vid=02ce4407-a958-420b-9bd3-98b2833b4b3f","ios":"levelo://app?vid=02ce4407-a958-420b-9bd3-98b2833b4b3f"},"vehicle_type_id":"4","last_reported":1745557828,"current_range_meters":10000,"station_id":"ce4bh312rcd13ifvqdk0","pricing_plan_id":"cebpf4jnsgd1na2vs0mg"},{"bike_id":"1be0eb9c-f13a-4528-a70c-da833c79b49f","system_id":"levelo_inurba_marseille","lat":43.29404,"lon":5.38616,"is_reserved":false,"is_disabled":true,"rental_uris":{"android":"levelo://app?vid=1be0eb9c-f13a-4528-a70c-da833c79b49f","ios":"levelo://app?vid=1be0eb9c-f13a-4528-a70c-da833c79b49f"},"vehicle_type_id":"4","last_reported":1745557828,"current_range_meters":10800,"station_id":"ce4bh2h2rcd13ifvqdh0","pricing_plan_id":"cebpf4jnsgd1na2vs0mg"},{"bike_id":"84c51a55-47b7-4b91-88f0-0d5a084f2e8f","system_id":"levelo_inurba_marseille","lat":43.280343,"lon":5.369422,"is_reserved":false,"is_disabled":false,"rental_uris":{"android":"levelo://app?vid=84c51a55-47b7-4b91-88f0-0d5a084f2e8f","ios":"levelo://app?vid=84c51a55-47b7-4b91-88f0-0d5a084f2e8f"},"vehicle_type_id":"4","last_reported":1745557828,"current_range_meters":10800,"station_id":"ce4bha12rcd13ifvqef0","pricing_plan_id":"cebpf4jnsgd1na2vs0mg"},{"bike_id":"0e945859-fa31-40e1-b139-93bf53b136e5","system_id":"levelo_inurba_marseille","lat":43.28971,"lon":5.38676,"is_reserved":false,"is_disabled":true,"rental_uris":{"android":"levelo://app?vid=0e945859-fa31-40e1-b139-93bf53b136e5","ios":"levelo://app?vid=0e945859-fa31-40e1-b139-93bf53b136e5"},"vehicle_type_id":"4","last_reported":1745557828,"current_range_meters":10800,"station_id":"","pricing_plan_id":"cebpf4jnsgd1na2vs0mg"},{"bike_id":"c919a48f-345c-4808-9762-e0f23e8a7f77","system_id":"levelo_inurba_marseille","lat":43.28144,"lon":5.42639,"is_reserved":false,"is_disabled":false,"rental_uris":{"android":"levelo://app?vid=c919a48f-345c-4808-9762-e0f23e8a7f77","ios":"levelo://app?vid=c919a48f-345c-4808-9762-e0f23e8a7f77"},"vehicle_type_id":"4","last_reported":1745557828,"current_range_meters":10800,"station_id":"ce4bhnh2rcd13ifvqgug","pricing_plan_id":"cebpf4jnsgd1na2vs0mg"},{"bike_id":"532ef09a-51aa-446c-9e3a-65246ec92a4f","system_id":"levelo_inurba_marseille","lat":43.28005,"lon":5.35645,"is_reserved":false,"is_disabled":false,"rental_uris":{"android":"levelo://app?vid=532ef09a-51aa-446c-9e3a-65246ec92a4f","ios":"levelo://app?vid=532ef09a-51aa-446c-9e3a-65246ec92a4f"},"vehicle_type_id":"4","last_reported":1745557828,"current_range_meters":11200,"station_id":"","pricing_plan_id":"cebpf4jnsgd1na2vs0mg"},{"bike_id":"4e02a862-7695-4adf-a8cc-8d0f2895a878","system_id":"levelo_inurba_marseille","lat":43.305361,"lon":5.384418,"is_reserved":false,"is_disabled":false,"rental_uris":{"android":"levelo://app?vid=4e02a862-7695-4adf-a8cc-8d0f2895a878","ios":"levelo://app?vid=4e02a862-7695-4adf-a8cc-8d0f2895a878"},"vehicle_type_id":"4","last_reported":1745557828,"current_range_meters":11200,"station_id":"ce4bgg92rcd13ifvqb30","pricing_plan_id":"cebpf4jnsgd1na2vs0mg"},{"bike_id":"13a03cf4-d84f-423d-b71b-020922e0c702","system_id":"levelo_inurba_marseille","lat":43.28952,"lon":5.36639,"is_reserved":false,"is_disabled":false,"rental_uris":{"android":"levelo://app?vid=13a03cf4-d84f-423d-b71b-020922e0c702","ios":"levelo://app?vid=13a03cf4-d84f-423d-b71b-020922e0c702"},"vehicle_type_id":"4","last_reported":1745557828,"current_range_meters":11600,"station_id":"ce4bhap2rcd13ifvqek0","pricing_plan_id":"cebpf4jnsgd1na2vs0mg"},{"bike_id":"858bb71e-c17e-4421-b73f-aaf6e578fcac","system_id":"levelo_inurba_marseille","lat":43.28401,"lon":5.34981,"is_reserved":false,"is_disabled":false,"rental_uris":{"android":"levelo://app?vid=858bb71e-c17e-4421-b73f-aaf6e578fcac","ios":"levelo://app?vid=858bb71e-c17e-4421-b73f-aaf6e578fcac"},"vehicle_type_id":"4","last_reported":1745557828,"current_range_meters":11200,"station_id":"ce4bhbh2rcd13ifvqepg","pricing_plan_id":"cebpf4jnsgd1na2vs0mg"},{"bike_id":"67e128d7-dd1d-40ef-85cf-6741c0c78378","system_id":"levelo_inurba_marseille","lat":43.295261,"lon":5.3905,"is_reserved":false,"is_disabled":false,"rental_uris":{"android":"levelo://app?vid=67e128d7-dd1d-40ef-85cf-6741c0c78378","ios":"levelo://app?vid=67e128d7-dd1d-40ef-85cf-6741c0c78378"},"vehicle_type_id":"4","last_reported":1745557828,"current_range_meters":11200,"station_id":"ce4bh3p2rcd13ifvqdp0","pricing_plan_id":"cebpf4jnsgd1na2vs0mg"},{"bike_id":"92d2d932-45de-4dea-a27f-a26ae00fce47","system_id":"levelo_inurba_marseille","lat":43.319953,"lon":5.381549,"is_reserved":false,"is_disabled":false,"rental_uris":{"android":"levelo://app?vid=92d2d932-45de-4dea-a27f-a26ae00fce47","ios":"levelo://app?vid=92d2d932-45de-4dea-a27f-a26ae00fce47"},"vehicle_type_id":"4","last_reported":1745557828,"current_range_meters":11200,"station_id":"ce4bhr12rcd13ifvqhpg","pricing_plan_id":"cebpf4jnsgd1na2vs0mg"},{"bike_id":"e82f0eec-d59f-4eeb-be39-0c35a85f6b3e","system_id":"levelo_inurba_marseille","lat":43.29542,"lon":5.40036,"is_reserved":false,"is_disabled":false,"rental_uris":{"android":"levelo://app?vid=e82f0eec-d59f-4eeb-be39-0c35a85f6b3e","ios":"levelo://app?vid=e82f0eec-d59f-4eeb-be39-0c35a85f6b3e"},"vehicle_type_id":"4","last_reported":1745557828,"current_range_meters":11200,"station_id":"","pricing_plan_id":"cebpf4jnsgd1na2vs0mg"},{"bike_id":"ba7b4ee5-5e38-4f2f-ace3-ec0b24ea7860","system_id":"levelo_inurba_marseille","lat":43.3014,"lon":5.38078,"is_reserved":false,"is_disabled":false,"rental_uris":{"android":"levelo://app?vid=ba7b4ee5-5e38-4f2f-ace3-ec0b24ea7860","ios":"levelo://app?vid=ba7b4ee5-5e38-4f2f-ace3-ec0b24ea7860"},"vehicle_type_id":"4","last_reported":1745557828,"current_range_meters":11200,"station_id":"ce4bgjp2rcd13ifvqbh0","pricing_plan_id":"cebpf4jnsgd1na2vs0mg"},{"bike_id":"407859f8-ad6e-4706-b576-c01bcdb7c801","system_id":"levelo_inurba_marseille","lat":43.298594,"lon":5.362856,"is_reserved":false,"is_disabled":true,"rental_uris":{"android":"levelo://app?vid=407859f8-ad6e-4706-b576-c01bcdb7c801","ios":"levelo://app?vid=407859f8-ad6e-4706-b576-c01bcdb7c801"},"vehicle_type_id":"4","last_reported":1745557828,"current_range_meters":11600,"station_id":"ce4bgpp2rcd13ifvqc3g","pricing_plan_id":"cebpf4jnsgd1na2vs0mg"},{"bike_id":"3e5a5bec-d3d4-45ee-9c95-7c9b8e7a4c49","system_id":"levelo_inurba_marseille","lat":43.3236,"lon":5.36753,"is_reserved":false,"is_disabled":false,"rental_uris":{"android":"levelo://app?vid=3e5a5bec-d3d4-45ee-9c95-7c9b8e7a4c49","ios":"levelo://app?vid=3e5a5bec-d3d4-45ee-9c95-7c9b8e7a4c49"},"vehicle_type_id":"4","last_reported":1745557828,"current_range_meters":11600,"station_id":"ce4bhsh2rcd13ifvqi2g","pricing_plan_id":"cebpf4jnsgd1na2vs0mg"},{"bike_id":"1e41f8c3-3569-4425-a5e9-2dbf9dfee337","system_id":"levelo_inurba_marseille","lat":43.31103,"lon":5.37756,"is_reserved":false,"is_disabled":false,"rental_uris":{"android":"levelo://app?vid=1e41f8c3-3569-4425-a5e9-2dbf9dfee337","ios":"levelo://app?vid=1e41f8c3-3569-4425-a5e9-2dbf9dfee337"},"vehicle_type_id":"4","last_reported":1745557828,"current_range_meters":11600,"station_id":"ce4bgt92rcd13ifvqcg0","pricing_plan_id":"cebpf4jnsgd1na2vs0mg"},{"bike_id":"fa87f18e-33e5-43a8-b571-61486b34ddd5","system_id":"levelo_inurba_marseille","lat":43.31076,"lon":5.38348,"is_reserved":false,"is_disabled":false,"rental_uris":{"android":"levelo://app?vid=fa87f18e-33e5-43a8-b571-61486b34ddd5","ios":"levelo://app?vid=fa87f18e-33e5-43a8-b571-61486b34ddd5"},"vehicle_type_id":"4","last_reported":1745557828,"current_range_meters":12000,"station_id":"ce4bgv92rcd13ifvqcr0","pricing_plan_id":"cebpf4jnsgd1na2vs0mg"},{"bike_id":"24d894ab-7267-4b40-99af-b1bffdb7623b","system_id":"levelo_inurba_marseille","lat":43.30422,"lon":5.41315,"is_reserved":false,"is_disabled":false,"rental_uris":{"android":"levelo://app?vid=24d894ab-7267-4b40-99af-b1bffdb7623b","ios":"levelo://app?vid=24d894ab-7267-4b40-99af-b1bffdb7623b"},"vehicle_type_id":"4","last_reported":1745557828,"current_range_meters":12000,"station_id":"ce4bhop2rcd13ifvqh8g","pricing_plan_id":"cebpf4jnsgd1na2vs0mg"},{"bike_id":"1a9b9ba2-6e5a-4697-beb7-5c65923a8b43","system_id":"levelo_inurba_marseille","lat":43.26777,"lon":5.39438,"is_reserved":false,"is_disabled":true,"rental_uris":{"android":"levelo://app?vid=1a9b9ba2-6e5a-4697-beb7-5c65923a8b43","ios":"levelo://app?vid=1a9b9ba2-6e5a-4697-beb7-5c65923a8b43"},"vehicle_type_id":"4","last_reported":1745557828,"current_range_meters":12400,"station_id":"ce4bhh12rcd13ifvqfg0","pricing_plan_id":"cebpf4jnsgd1na2vs0mg"},{"bike_id":"cedb532b-0606-4458-a20c-f7f951f69830","system_id":"levelo_inurba_marseille","lat":43.25074,"lon":5.39529,"is_reserved":false,"is_disabled":false,"rental_uris":{"android":"levelo://app?vid=cedb532b-0606-4458-a20c-f7f951f69830","ios":"levelo://app?vid=cedb532b-0606-4458-a20c-f7f951f69830"},"vehicle_type_id":"4","last_reported":1745557828,"current_range_meters":12400,"station_id":"ce4bhm12rcd13ifvqgkg","pricing_plan_id":"cebpf4jnsgd1na2vs0mg"},{"bike_id":"2c5dc26f-0571-4ccf-b67f-959013a29cf9","system_id":"levelo_inurba_marseille","lat":43.31753,"lon":5.39021,"is_reserved":false,"is_disabled":false,"rental_uris":{"android":"levelo://app?vid=2c5dc26f-0571-4ccf-b67f-959013a29cf9","ios":"levelo://app?vid=2c5dc26f-0571-4ccf-b67f-959013a29cf9"},"vehicle_type_id":"4","last_reported":1745557828,"current_range_meters":12400,"station_id":"ce4bhqp2rcd13ifvqhng","pricing_plan_id":"cebpf4jnsgd1na2vs0mg"},{"bike_id":"58c4ecbc-397e-46c8-9c4e-0627545bf9fc","system_id":"levelo_inurba_marseille","lat":43.26557,"lon":5.37325,"is_reserved":false,"is_disabled":false,"rental_uris":{"android":"levelo://app?vid=58c4ecbc-397e-46c8-9c4e-0627545bf9fc","ios":"levelo://app?vid=58c4ecbc-397e-46c8-9c4e-0627545bf9fc"},"vehicle_type_id":"4","last_reported":1745557828,"current_range_meters":12400,"station_id":"ce4bhg12rcd13ifvqf70","pricing_plan_id":"cebpf4jnsgd1na2vs0mg"},{"bike_id":"55c8d26c-3501-4da5-bf3f-06ad5305341b","system_id":"levelo_inurba_marseille","lat":43.2811,"lon":5.37883,"is_reserved":false,"is_disabled":true,"rental_uris":{"android":"levelo://app?vid=55c8d26c-3501-4da5-bf3f-06ad5305341b","ios":"levelo://app?vid=55c8d26c-3501-4da5-bf3f-06ad5305341b"},"vehicle_type_id":"4","last_reported":1745557828,"current_range_meters":12400,"station_id":"ce4bha12rcd13ifvqee0","pricing_plan_id":"cebpf4jnsgd1na2vs0mg"},{"bike_id":"00778650-e08a-4011-95d9-fa9e1b3ec789","system_id":"levelo_inurba_marseille","lat":43.280314,"lon":5.369495,"is_reserved":false,"is_disabled":false,"rental_uris":{"android":"levelo://app?vid=00778650-e08a-4011-95d9-fa9e1b3ec789","ios":"levelo://app?vid=00778650-e08a-4011-95d9-fa9e1b3ec789"},"vehicle_type_id":"4","last_reported":1745557828,"current_range_meters":12400,"station_id":"ce4bha12rcd13ifvqef0","pricing_plan_id":"cebpf4jnsgd1na2vs0mg"},{"bike_id":"bd95f0bb-c5b1-4d5c-837c-b505e5069d47","system_id":"levelo_inurba_marseille","lat":43.33245,"lon":5.39789,"is_reserved":false,"is_disabled":false,"rental_uris":{"android":"levelo://app?vid=bd95f0bb-c5b1-4d5c-837c-b505e5069d47","ios":"levelo://app?vid=bd95f0bb-c5b1-4d5c-837c-b505e5069d47"},"vehicle_type_id":"4","last_reported":1745557828,"current_range_meters":12400,"station_id":"","pricing_plan_id":"cebpf4jnsgd1na2vs0mg"},{"bike_id":"e286ad08-c37b-4b15-bce3-fceed02e1dc7","system_id":"levelo_inurba_marseille","lat":43.30932,"lon":5.40236,"is_reserved":false,"is_disabled":false,"rental_uris":{"android":"levelo://app?vid=e286ad08-c37b-4b15-bce3-fceed02e1dc7","ios":"levelo://app?vid=e286ad08-c37b-4b15-bce3-fceed02e1dc7"},"vehicle_type_id":"4","last_reported":1745557828,"current_range_meters":12800,"station_id":"","pricing_plan_id":"cebpf4jnsgd1na2vs0mg"},{"bike_id":"99105336-fb95-430d-8e92-cab64155a19b","system_id":"levelo_inurba_marseille","lat":43.29241,"lon":5.36623,"is_reserved":false,"is_disabled":false,"rental_uris":{"android":"levelo://app?vid=99105336-fb95-430d-8e92-cab64155a19b","ios":"levelo://app?vid=99105336-fb95-430d-8e92-cab64155a19b"},"vehicle_type_id":"4","last_reported":1745557828,"current_range_meters":12800,"station_id":"","pricing_plan_id":"cebpf4jnsgd1na2vs0mg"},{"bike_id":"5c8dde23-03af-4ec7-8c64-b6a7b95cfa5a","system_id":"levelo_inurba_marseille","lat":43.33737,"lon":5.39182,"is_reserved":false,"is_disabled":false,"rental_uris":{"android":"levelo://app?vid=5c8dde23-03af-4ec7-8c64-b6a7b95cfa5a","ios":"levelo://app?vid=5c8dde23-03af-4ec7-8c64-b6a7b95cfa5a"},"vehicle_type_id":"4","last_reported":1745557828,"current_range_meters":12800,"station_id":"ce4bhr92rcd13ifvqhsg","pricing_plan_id":"cebpf4jnsgd1na2vs0mg"},{"bike_id":"67426bec-1d3c-4292-989f-a44694a33e81","system_id":"levelo_inurba_marseille","lat":43.30099,"lon":5.39093,"is_reserved":false,"is_disabled":true,"rental_uris":{"android":"levelo://app?vid=67426bec-1d3c-4292-989f-a44694a33e81","ios":"levelo://app?vid=67426bec-1d3c-4292-989f-a44694a33e81"},"vehicle_type_id":"4","last_reported":1745557828,"current_range_meters":13600,"station_id":"ce4bh192rcd13ifvqdb0","pricing_plan_id":"cebpf4jnsgd1na2vs0mg"},{"bike_id":"844bea76-b19f-49aa-8faf-017738c4a388","system_id":"levelo_inurba_marseille","lat":43.27921,"lon":5.39576,"is_reserved":false,"is_disabled":false,"rental_uris":{"android":"levelo://app?vid=844bea76-b19f-49aa-8faf-017738c4a388","ios":"levelo://app?vid=844bea76-b19f-49aa-8faf-017738c4a388"},"vehicle_type_id":"4","last_reported":1745557828,"current_range_meters":13600,"station_id":"ce4bhf92rcd13ifvqf40","pricing_plan_id":"cebpf4jnsgd1na2vs0mg"},{"bike_id":"50c51e5c-e0de-43f1-a9b9-2a4ffcebd1da","system_id":"levelo_inurba_marseille","lat":43.31716,"lon":5.3776,"is_reserved":false,"is_disabled":false,"rental_uris":{"android":"levelo://app?vid=50c51e5c-e0de-43f1-a9b9-2a4ffcebd1da","ios":"levelo://app?vid=50c51e5c-e0de-43f1-a9b9-2a4ffcebd1da"},"vehicle_type_id":"4","last_reported":1745557828,"current_range_meters":14000,"station_id":"ce4bgth2rcd13ifvqch0","pricing_plan_id":"cebpf4jnsgd1na2vs0mg"},{"bike_id":"4516d9f1-c4bb-4032-ad83-42cfc2313a8f","system_id":"levelo_inurba_marseille","lat":43.29882,"lon":5.3817,"is_reserved":false,"is_disabled":false,"rental_uris":{"android":"levelo://app?vid=4516d9f1-c4bb-4032-ad83-42cfc2313a8f","ios":"levelo://app?vid=4516d9f1-c4bb-4032-ad83-42cfc2313a8f"},"vehicle_type_id":"4","last_reported":1745557828,"current_range_meters":14000,"station_id":"ce4bgj12rcd13ifvqbc0","pricing_plan_id":"cebpf4jnsgd1na2vs0mg"},{"bike_id":"1dff9b55-9191-4010-9662-dbf23dd3eb6e","system_id":"levelo_inurba_marseille","lat":43.26538,"lon":5.37321,"is_reserved":false,"is_disabled":false,"rental_uris":{"android":"levelo://app?vid=1dff9b55-9191-4010-9662-dbf23dd3eb6e","ios":"levelo://app?vid=1dff9b55-9191-4010-9662-dbf23dd3eb6e"},"vehicle_type_id":"4","last_reported":1745557828,"current_range_meters":14000,"station_id":"ce4bhg12rcd13ifvqf70","pricing_plan_id":"cebpf4jnsgd1na2vs0mg"},{"bike_id":"a5b807e2-0dcd-4c88-a997-bb37c582102d","system_id":"levelo_inurba_marseille","lat":43.30428,"lon":5.37198,"is_reserved":false,"is_disabled":false,"rental_uris":{"android":"levelo://app?vid=a5b807e2-0dcd-4c88-a997-bb37c582102d","ios":"levelo://app?vid=a5b807e2-0dcd-4c88-a997-bb37c582102d"},"vehicle_type_id":"4","last_reported":1745557828,"current_range_meters":14400,"station_id":"","pricing_plan_id":"cebpf4jnsgd1na2vs0mg"},{"bike_id":"6310848a-7b56-4a8f-8a94-c095a40fd542","system_id":"levelo_inurba_marseille","lat":43.28092,"lon":5.37841,"is_reserved":false,"is_disabled":false,"rental_uris":{"android":"levelo://app?vid=6310848a-7b56-4a8f-8a94-c095a40fd542","ios":"levelo://app?vid=6310848a-7b56-4a8f-8a94-c095a40fd542"},"vehicle_type_id":"4","last_reported":1745557828,"current_range_meters":14400,"station_id":"ce4bh5p2rcd13ifvqe4g","pricing_plan_id":"cebpf4jnsgd1na2vs0mg"},{"bike_id":"7fc5ed43-b2c3-4cf7-b081-488a7cbcc12f","system_id":"levelo_inurba_marseille","lat":43.3304,"lon":5.39041,"is_reserved":false,"is_disabled":false,"rental_uris":{"android":"levelo://app?vid=7fc5ed43-b2c3-4cf7-b081-488a7cbcc12f","ios":"levelo://app?vid=7fc5ed43-b2c3-4cf7-b081-488a7cbcc12f"},"vehicle_type_id":"4","last_reported":1745557828,"current_range_meters":14400,"station_id":"ce4bhr92rcd13ifvqhrg","pricing_plan_id":"cebpf4jnsgd1na2vs0mg"},{"bike_id":"c3721006-7b34-4ca8-be85-027727c3f2af","system_id":"levelo_inurba_marseille","lat":43.2848,"lon":5.38424,"is_reserved":false,"is_disabled":true,"rental_uris":{"android":"levelo://app?vid=c3721006-7b34-4ca8-be85-027727c3f2af","ios":"levelo://app?vid=c3721006-7b34-4ca8-be85-027727c3f2af"},"vehicle_type_id":"4","last_reported":1745557828,"current_range_meters":14400,"station_id":"ce4bh512rcd13ifvqe3g","pricing_plan_id":"cebpf4jnsgd1na2vs0mg"},{"bike_id":"9e9e4114-a05a-4c5e-9f96-6c201042ecfd","system_id":"levelo_inurba_marseille","lat":43.32346,"lon":5.38905,"is_reserved":false,"is_disabled":false,"rental_uris":{"android":"levelo://app?vid=9e9e4114-a05a-4c5e-9f96-6c201042ecfd","ios":"levelo://app?vid=9e9e4114-a05a-4c5e-9f96-6c201042ecfd"},"vehicle_type_id":"4","last_reported":1745557828,"current_range_meters":14800,"station_id":"ce4bhqp2rcd13ifvqhog","pricing_plan_id":"cebpf4jnsgd1na2vs0mg"},{"bike_id":"47f3bb3d-a5e6-4863-a4a2-2300e2a0d719","system_id":"levelo_inurba_marseille","lat":43.279461,"lon":5.41034,"is_reserved":false,"is_disabled":false,"rental_uris":{"android":"levelo://app?vid=47f3bb3d-a5e6-4863-a4a2-2300e2a0d719","ios":"levelo://app?vid=47f3bb3d-a5e6-4863-a4a2-2300e2a0d719"},"vehicle_type_id":"4","last_reported":1745557828,"current_range_meters":14800,"station_id":"ce4bhnp2rcd13ifvqh0g","pricing_plan_id":"cebpf4jnsgd1na2vs0mg"},{"bike_id":"6e238eef-2b6f-47b6-8bd4-eb226e7f5963","system_id":"levelo_inurba_marseille","lat":43.285703,"lon":5.394993,"is_reserved":false,"is_disabled":false,"rental_uris":{"android":"levelo://app?vid=6e238eef-2b6f-47b6-8bd4-eb226e7f5963","ios":"levelo://app?vid=6e238eef-2b6f-47b6-8bd4-eb226e7f5963"},"vehicle_type_id":"4","last_reported":1745557828,"current_range_meters":14800,"station_id":"ce4bh292rcd13ifvqdg0","pricing_plan_id":"cebpf4jnsgd1na2vs0mg"},{"bike_id":"cc0c5d01-a754-448a-88cc-e66eb99f246d","system_id":"levelo_inurba_marseille","lat":43.30161,"lon":5.38084,"is_reserved":false,"is_disabled":false,"rental_uris":{"android":"levelo://app?vid=cc0c5d01-a754-448a-88cc-e66eb99f246d","ios":"levelo://app?vid=cc0c5d01-a754-448a-88cc-e66eb99f246d"},"vehicle_type_id":"4","last_reported":1745557828,"current_range_meters":14800,"station_id":"ce4bgjp2rcd13ifvqbh0","pricing_plan_id":"cebpf4jnsgd1na2vs0mg"},{"bike_id":"03ec5728-5a8d-475c-be69-d63e54c8d683","system_id":"levelo_inurba_marseille","lat":43.32462,"lon":5.36739,"is_reserved":false,"is_disabled":false,"rental_uris":{"android":"levelo://app?vid=03ec5728-5a8d-475c-be69-d63e54c8d683","ios":"levelo://app?vid=03ec5728-5a8d-475c-be69-d63e54c8d683"},"vehicle_type_id":"4","last_reported":1745557828,"current_range_meters":14800,"station_id":"","pricing_plan_id":"cebpf4jnsgd1na2vs0mg"},{"bike_id":"6ff874e6-32ba-4c6c-9a17-f8b8f47db003","system_id":"levelo_inurba_marseille","lat":43.28123,"lon":5.37882,"is_reserved":false,"is_disabled":false,"rental_uris":{"android":"levelo://app?vid=6ff874e6-32ba-4c6c-9a17-f8b8f47db003","ios":"levelo://app?vid=6ff874e6-32ba-4c6c-9a17-f8b8f47db003"},"vehicle_type_id":"4","last_reported":1745557828,"current_range_meters":14800,"station_id":"ce4bha12rcd13ifvqee0","pricing_plan_id":"cebpf4jnsgd1na2vs0mg"},{"bike_id":"e993c1a9-a5dd-4037-9d54-315ee49bf929","system_id":"levelo_inurba_marseille","lat":43.26939,"lon":5.38648,"is_reserved":false,"is_disabled":false,"rental_uris":{"android":"levelo://app?vid=e993c1a9-a5dd-4037-9d54-315ee49bf929","ios":"levelo://app?vid=e993c1a9-a5dd-4037-9d54-315ee49bf929"},"vehicle_type_id":"4","last_reported":1745557828,"current_range_meters":14800,"station_id":"ce4bhh92rcd13ifvqfh0","pricing_plan_id":"cebpf4jnsgd1na2vs0mg"},{"bike_id":"5ea92885-4784-424e-bbd0-fe10a23b8f63","system_id":"levelo_inurba_marseille","lat":43.24639,"lon":5.38175,"is_reserved":false,"is_disabled":false,"rental_uris":{"android":"levelo://app?vid=5ea92885-4784-424e-bbd0-fe10a23b8f63","ios":"levelo://app?vid=5ea92885-4784-424e-bbd0-fe10a23b8f63"},"vehicle_type_id":"4","last_reported":1745557828,"current_range_meters":14800,"station_id":"ce4bhih2rcd13ifvqfr0","pricing_plan_id":"cebpf4jnsgd1na2vs0mg"},{"bike_id":"f12a9a5e-89bc-4406-8d33-ee6c190982eb","system_id":"levelo_inurba_marseille","lat":43.30294,"lon":5.36901,"is_reserved":false,"is_disabled":false,"rental_uris":{"android":"levelo://app?vid=f12a9a5e-89bc-4406-8d33-ee6c190982eb","ios":"levelo://app?vid=f12a9a5e-89bc-4406-8d33-ee6c190982eb"},"vehicle_type_id":"4","last_reported":1745557828,"current_range_meters":14800,"station_id":"ce4bgqh2rcd13ifvqc5g","pricing_plan_id":"cebpf4jnsgd1na2vs0mg"},{"bike_id":"7597f9f7-581e-4aa1-9ea0-a72928416a0e","system_id":"levelo_inurba_marseille","lat":43.30299,"lon":5.39225,"is_reserved":false,"is_disabled":true,"rental_uris":{"android":"levelo://app?vid=7597f9f7-581e-4aa1-9ea0-a72928416a0e","ios":"levelo://app?vid=7597f9f7-581e-4aa1-9ea0-a72928416a0e"},"vehicle_type_id":"4","last_reported":1745557828,"current_range_meters":15200,"station_id":"ce4bgkh2rcd13ifvqbk0","pricing_plan_id":"cebpf4jnsgd1na2vs0mg"},{"bike_id":"2842ede5-3b6a-4c19-9aff-7b65f162e244","system_id":"levelo_inurba_marseille","lat":43.28017,"lon":5.36977,"is_reserved":false,"is_disabled":false,"rental_uris":{"android":"levelo://app?vid=2842ede5-3b6a-4c19-9aff-7b65f162e244","ios":"levelo://app?vid=2842ede5-3b6a-4c19-9aff-7b65f162e244"},"vehicle_type_id":"4","last_reported":1745557828,"current_range_meters":15200,"station_id":"ce4bha12rcd13ifvqef0","pricing_plan_id":"cebpf4jnsgd1na2vs0mg"},{"bike_id":"6ba38e3b-a7f3-4dc2-9b88-45ba211a18db","system_id":"levelo_inurba_marseille","lat":43.25082,"lon":5.39513,"is_reserved":false,"is_disabled":false,"rental_uris":{"android":"levelo://app?vid=6ba38e3b-a7f3-4dc2-9b88-45ba211a18db","ios":"levelo://app?vid=6ba38e3b-a7f3-4dc2-9b88-45ba211a18db"},"vehicle_type_id":"4","last_reported":1745557828,"current_range_meters":15200,"station_id":"ce4bhm12rcd13ifvqgkg","pricing_plan_id":"cebpf4jnsgd1na2vs0mg"},{"bike_id":"e2dcabcf-64d8-4394-bb9a-ff877bee611a","system_id":"levelo_inurba_marseille","lat":43.320464,"lon":5.415319,"is_reserved":false,"is_disabled":false,"rental_uris":{"android":"levelo://app?vid=e2dcabcf-64d8-4394-bb9a-ff877bee611a","ios":"levelo://app?vid=e2dcabcf-64d8-4394-bb9a-ff877bee611a"},"vehicle_type_id":"4","last_reported":1745557828,"current_range_meters":15200,"station_id":"ce4bhq92rcd13ifvqhkg","pricing_plan_id":"cebpf4jnsgd1na2vs0mg"},{"bike_id":"35e0752c-afe6-4cae-84a6-d74556a78578","system_id":"levelo_inurba_marseille","lat":43.289401,"lon":5.366381,"is_reserved":false,"is_disabled":false,"rental_uris":{"android":"levelo://app?vid=35e0752c-afe6-4cae-84a6-d74556a78578","ios":"levelo://app?vid=35e0752c-afe6-4cae-84a6-d74556a78578"},"vehicle_type_id":"4","last_reported":1745557828,"current_range_meters":15200,"station_id":"ce4bhap2rcd13ifvqek0","pricing_plan_id":"cebpf4jnsgd1na2vs0mg"},{"bike_id":"230a4b18-f598-423a-928c-a723c4d4cf96","system_id":"levelo_inurba_marseille","lat":43.27369,"lon":5.36263,"is_reserved":false,"is_disabled":false,"rental_uris":{"android":"levelo://app?vid=230a4b18-f598-423a-928c-a723c4d4cf96","ios":"levelo://app?vid=230a4b18-f598-423a-928c-a723c4d4cf96"},"vehicle_type_id":"4","last_reported":1745557828,"current_range_meters":15200,"station_id":"ce4bhbh2rcd13ifvqeo0","pricing_plan_id":"cebpf4jnsgd1na2vs0mg"},{"bike_id":"389081e5-a59f-4bb8-ae5b-d14b07648eda","system_id":"levelo_inurba_marseille","lat":43.251094,"lon":5.403236,"is_reserved":false,"is_disabled":true,"rental_uris":{"android":"levelo://app?vid=389081e5-a59f-4bb8-ae5b-d14b07648eda","ios":"levelo://app?vid=389081e5-a59f-4bb8-ae5b-d14b07648eda"},"vehicle_type_id":"4","last_reported":1745557828,"current_range_meters":15200,"station_id":"ce4bhlh2rcd13ifvqgig","pricing_plan_id":"cebpf4jnsgd1na2vs0mg"},{"bike_id":"38a54769-e8ac-41ad-bccc-10712900ee1c","system_id":"levelo_inurba_marseille","lat":43.26231,"lon":5.404546,"is_reserved":false,"is_disabled":false,"rental_uris":{"android":"levelo://app?vid=38a54769-e8ac-41ad-bccc-10712900ee1c","ios":"levelo://app?vid=38a54769-e8ac-41ad-bccc-10712900ee1c"},"vehicle_type_id":"4","last_reported":1745557828,"current_range_meters":15200,"station_id":"ce4bhmh2rcd13ifvqgmg","pricing_plan_id":"cebpf4jnsgd1na2vs0mg"},{"bike_id":"4bab3114-d0a3-4a29-b5b6-8e408f402779","system_id":"levelo_inurba_marseille","lat":43.24072,"lon":5.37771,"is_reserved":false,"is_disabled":false,"rental_uris":{"android":"levelo://app?vid=4bab3114-d0a3-4a29-b5b6-8e408f402779","ios":"levelo://app?vid=4bab3114-d0a3-4a29-b5b6-8e408f402779"},"vehicle_type_id":"4","last_reported":1745557828,"current_range_meters":16000,"station_id":"ce4bhnp2rcd13ifvqgvg","pricing_plan_id":"cebpf4jnsgd1na2vs0mg"},{"bike_id":"e9b40b8c-aa8b-493b-9704-ac204b4fdb74","system_id":"levelo_inurba_marseille","lat":43.22505,"lon":5.3479,"is_reserved":false,"is_disabled":false,"rental_uris":{"android":"levelo://app?vid=e9b40b8c-aa8b-493b-9704-ac204b4fdb74","ios":"levelo://app?vid=e9b40b8c-aa8b-493b-9704-ac204b4fdb74"},"vehicle_type_id":"4","last_reported":1745557828,"current_range_meters":16000,"station_id":"st_cvj5dfep6f1abm77gieg","pricing_plan_id":"cebpf4jnsgd1na2vs0mg"},{"bike_id":"3857c1c5-eeaa-4322-86c6-ca59b85e4a47","system_id":"levelo_inurba_marseille","lat":43.254833,"lon":5.376592,"is_reserved":false,"is_disabled":false,"rental_uris":{"android":"levelo://app?vid=3857c1c5-eeaa-4322-86c6-ca59b85e4a47","ios":"levelo://app?vid=3857c1c5-eeaa-4322-86c6-ca59b85e4a47"},"vehicle_type_id":"4","last_reported":1745557828,"current_range_meters":16000,"station_id":"ce4bhh12rcd13ifvqff0","pricing_plan_id":"cebpf4jnsgd1na2vs0mg"},{"bike_id":"1dab2c37-81da-414a-ad55-11fa1d2e7455","system_id":"levelo_inurba_marseille","lat":43.30163,"lon":5.38089,"is_reserved":false,"is_disabled":false,"rental_uris":{"android":"levelo://app?vid=1dab2c37-81da-414a-ad55-11fa1d2e7455","ios":"levelo://app?vid=1dab2c37-81da-414a-ad55-11fa1d2e7455"},"vehicle_type_id":"4","last_reported":1745557828,"current_range_meters":16000,"station_id":"ce4bgjp2rcd13ifvqbh0","pricing_plan_id":"cebpf4jnsgd1na2vs0mg"},{"bike_id":"f437bbcd-3bc3-4220-9dfe-08d3eac84ba1","system_id":"levelo_inurba_marseille","lat":43.28613,"lon":5.35111,"is_reserved":false,"is_disabled":true,"rental_uris":{"android":"levelo://app?vid=f437bbcd-3bc3-4220-9dfe-08d3eac84ba1","ios":"levelo://app?vid=f437bbcd-3bc3-4220-9dfe-08d3eac84ba1"},"vehicle_type_id":"4","last_reported":1745557828,"current_range_meters":16000,"station_id":"ce4bhch2rcd13ifvqeug","pricing_plan_id":"cebpf4jnsgd1na2vs0mg"},{"bike_id":"f7be6074-578b-415a-ae96-fc3a5eb7895e","system_id":"levelo_inurba_marseille","lat":43.30527,"lon":5.36533,"is_reserved":false,"is_disabled":false,"rental_uris":{"android":"levelo://app?vid=f7be6074-578b-415a-ae96-fc3a5eb7895e","ios":"levelo://app?vid=f7be6074-578b-415a-ae96-fc3a5eb7895e"},"vehicle_type_id":"4","last_reported":1745557828,"current_range_meters":15200,"station_id":"ce4bgs12rcd13ifvqcag","pricing_plan_id":"cebpf4jnsgd1na2vs0mg"},{"bike_id":"0bfff189-ec6a-4439-b345-e9dd168ab867","system_id":"levelo_inurba_marseille","lat":43.337299,"lon":5.391837,"is_reserved":false,"is_disabled":false,"rental_uris":{"android":"levelo://app?vid=0bfff189-ec6a-4439-b345-e9dd168ab867","ios":"levelo://app?vid=0bfff189-ec6a-4439-b345-e9dd168ab867"},"vehicle_type_id":"4","last_reported":1745557828,"current_range_meters":16000,"station_id":"ce4bhr92rcd13ifvqhsg","pricing_plan_id":"cebpf4jnsgd1na2vs0mg"},{"bike_id":"b03b660b-1562-45fe-9ac2-11597e156b66","system_id":"levelo_inurba_marseille","lat":43.30275,"lon":5.36896,"is_reserved":false,"is_disabled":false,"rental_uris":{"android":"levelo://app?vid=b03b660b-1562-45fe-9ac2-11597e156b66","ios":"levelo://app?vid=b03b660b-1562-45fe-9ac2-11597e156b66"},"vehicle_type_id":"4","last_reported":1745557828,"current_range_meters":16400,"station_id":"ce4bgqh2rcd13ifvqc5g","pricing_plan_id":"cebpf4jnsgd1na2vs0mg"},{"bike_id":"cfa52da7-ecc2-4228-a2f2-067f1e6ddea6","system_id":"levelo_inurba_marseille","lat":43.319954,"lon":5.381489,"is_reserved":false,"is_disabled":false,"rental_uris":{"android":"levelo://app?vid=cfa52da7-ecc2-4228-a2f2-067f1e6ddea6","ios":"levelo://app?vid=cfa52da7-ecc2-4228-a2f2-067f1e6ddea6"},"vehicle_type_id":"4","last_reported":1745557828,"current_range_meters":16400,"station_id":"ce4bhr12rcd13ifvqhpg","pricing_plan_id":"cebpf4jnsgd1na2vs0mg"},{"bike_id":"5cff3207-23ad-406f-a81e-d6e191b09a6b","system_id":"levelo_inurba_marseille","lat":43.265551,"lon":5.372822,"is_reserved":false,"is_disabled":false,"rental_uris":{"android":"levelo://app?vid=5cff3207-23ad-406f-a81e-d6e191b09a6b","ios":"levelo://app?vid=5cff3207-23ad-406f-a81e-d6e191b09a6b"},"vehicle_type_id":"4","last_reported":1745557828,"current_range_meters":16400,"station_id":"ce4bhg12rcd13ifvqf70","pricing_plan_id":"cebpf4jnsgd1na2vs0mg"},{"bike_id":"c2c1bd80-edc8-445a-8999-07b210b045e9","system_id":"levelo_inurba_marseille","lat":43.257063,"lon":5.411033,"is_reserved":false,"is_disabled":false,"rental_uris":{"android":"levelo://app?vid=c2c1bd80-edc8-445a-8999-07b210b045e9","ios":"levelo://app?vid=c2c1bd80-edc8-445a-8999-07b210b045e9"},"vehicle_type_id":"4","last_reported":1745557828,"current_range_meters":16400,"station_id":"ce4bhkp2rcd13ifvqgd0","pricing_plan_id":"cebpf4jnsgd1na2vs0mg"},{"bike_id":"9a1c0be7-bd1a-4081-ab84-3ef05258b407","system_id":"levelo_inurba_marseille","lat":43.22921,"lon":5.35408,"is_reserved":false,"is_disabled":false,"rental_uris":{"android":"levelo://app?vid=9a1c0be7-bd1a-4081-ab84-3ef05258b407","ios":"levelo://app?vid=9a1c0be7-bd1a-4081-ab84-3ef05258b407"},"vehicle_type_id":"4","last_reported":1745557828,"current_range_meters":16400,"station_id":"cpo3532slgdg3j2ikp40","pricing_plan_id":"cebpf4jnsgd1na2vs0mg"},{"bike_id":"a9784e4d-72f3-45a0-bc5c-6a48517d28d6","system_id":"levelo_inurba_marseille","lat":43.33024,"lon":5.39056,"is_reserved":false,"is_disabled":false,"rental_uris":{"android":"levelo://app?vid=a9784e4d-72f3-45a0-bc5c-6a48517d28d6","ios":"levelo://app?vid=a9784e4d-72f3-45a0-bc5c-6a48517d28d6"},"vehicle_type_id":"4","last_reported":1745557828,"current_range_meters":16400,"station_id":"ce4bhr92rcd13ifvqhrg","pricing_plan_id":"cebpf4jnsgd1na2vs0mg"},{"bike_id":"08017c5e-0ebd-49ed-a7d1-dae38f57908c","system_id":"levelo_inurba_marseille","lat":43.32654,"lon":5.41001,"is_reserved":false,"is_disabled":false,"rental_uris":{"android":"levelo://app?vid=08017c5e-0ebd-49ed-a7d1-dae38f57908c","ios":"levelo://app?vid=08017c5e-0ebd-49ed-a7d1-dae38f57908c"},"vehicle_type_id":"4","last_reported":1745557828,"current_range_meters":16400,"station_id":"ce4bhpp2rcd13ifvqhgg","pricing_plan_id":"cebpf4jnsgd1na2vs0mg"},{"bike_id":"c626c93a-7b05-43e0-8c99-3e68e87e1d65","system_id":"levelo_inurba_marseille","lat":43.292756,"lon":5.401254,"is_reserved":false,"is_disabled":false,"rental_uris":{"android":"levelo://app?vid=c626c93a-7b05-43e0-8c99-3e68e87e1d65","ios":"levelo://app?vid=c626c93a-7b05-43e0-8c99-3e68e87e1d65"},"vehicle_type_id":"4","last_reported":1745557828,"current_range_meters":16800,"station_id":"ce4bh312rcd13ifvqdk0","pricing_plan_id":"cebpf4jnsgd1na2vs0mg"},{"bike_id":"f172e360-2d4c-47b3-a510-e783de8ede16","system_id":"levelo_inurba_marseille","lat":43.23192,"lon":5.39982,"is_reserved":false,"is_disabled":false,"rental_uris":{"android":"levelo://app?vid=f172e360-2d4c-47b3-a510-e783de8ede16","ios":"levelo://app?vid=f172e360-2d4c-47b3-a510-e783de8ede16"},"vehicle_type_id":"4","last_reported":1745557828,"current_range_meters":16800,"station_id":"ce4bhn12rcd13ifvqgqg","pricing_plan_id":"cebpf4jnsgd1na2vs0mg"},{"bike_id":"d9576f4f-b7bd-452d-b3f0-b39a16afc384","system_id":"levelo_inurba_marseille","lat":43.23188,"lon":5.39982,"is_reserved":false,"is_disabled":false,"rental_uris":{"android":"levelo://app?vid=d9576f4f-b7bd-452d-b3f0-b39a16afc384","ios":"levelo://app?vid=d9576f4f-b7bd-452d-b3f0-b39a16afc384"},"vehicle_type_id":"4","last_reported":1745557828,"current_range_meters":16800,"station_id":"ce4bhn12rcd13ifvqgqg","pricing_plan_id":"cebpf4jnsgd1na2vs0mg"},{"bike_id":"96cd0077-d282-4d52-8796-abeb125c0969","system_id":"levelo_inurba_marseille","lat":43.279894,"lon":5.416669,"is_reserved":false,"is_disabled":false,"rental_uris":{"android":"levelo://app?vid=96cd0077-d282-4d52-8796-abeb125c0969","ios":"levelo://app?vid=96cd0077-d282-4d52-8796-abeb125c0969"},"vehicle_type_id":"4","last_reported":1745557828,"current_range_meters":16800,"station_id":"ce4bho12rcd13ifvqh1g","pricing_plan_id":"cebpf4jnsgd1na2vs0mg"},{"bike_id":"42a7759b-41b0-4ccd-898b-b1896baeebe8","system_id":"levelo_inurba_marseille","lat":43.298738,"lon":5.397287,"is_reserved":false,"is_disabled":false,"rental_uris":{"android":"levelo://app?vid=42a7759b-41b0-4ccd-898b-b1896baeebe8","ios":"levelo://app?vid=42a7759b-41b0-4ccd-898b-b1896baeebe8"},"vehicle_type_id":"4","last_reported":1745557828,"current_range_meters":17200,"station_id":"ce4bh0h2rcd13ifvqd50","pricing_plan_id":"cebpf4jnsgd1na2vs0mg"},{"bike_id":"a496e0bf-e64f-49ac-b297-2f9bd0546f6e","system_id":"levelo_inurba_marseille","lat":43.2846,"lon":5.35894,"is_reserved":false,"is_disabled":false,"rental_uris":{"android":"levelo://app?vid=a496e0bf-e64f-49ac-b297-2f9bd0546f6e","ios":"levelo://app?vid=a496e0bf-e64f-49ac-b297-2f9bd0546f6e"},"vehicle_type_id":"4","last_reported":1745557828,"current_range_meters":17200,"station_id":"ce4bhah2rcd13ifvqei0","pricing_plan_id":"cebpf4jnsgd1na2vs0mg"},{"bike_id":"b04b2867-fbf0-4049-a1be-5593b1ff340a","system_id":"levelo_inurba_marseille","lat":43.241302,"lon":5.376976,"is_reserved":false,"is_disabled":false,"rental_uris":{"android":"levelo://app?vid=b04b2867-fbf0-4049-a1be-5593b1ff340a","ios":"levelo://app?vid=b04b2867-fbf0-4049-a1be-5593b1ff340a"},"vehicle_type_id":"4","last_reported":1745557828,"current_range_meters":17600,"station_id":"ce4bhah2rcd13ifvqei0","pricing_plan_id":"cebpf4jnsgd1na2vs0mg"},{"bike_id":"1abc48dd-efaa-4ca6-9a7a-f6253d85fd51","system_id":"levelo_inurba_marseille","lat":43.30812,"lon":5.43518,"is_reserved":false,"is_disabled":false,"rental_uris":{"android":"levelo://app?vid=1abc48dd-efaa-4ca6-9a7a-f6253d85fd51","ios":"levelo://app?vid=1abc48dd-efaa-4ca6-9a7a-f6253d85fd51"},"vehicle_type_id":"4","last_reported":1745557828,"current_range_meters":17600,"station_id":"ce4bhph2rcd13ifvqheg","pricing_plan_id":"cebpf4jnsgd1na2vs0mg"},{"bike_id":"829e6027-c98c-4052-9336-7fe801b0bc22","system_id":"levelo_inurba_marseille","lat":43.231504,"lon":5.437043,"is_reserved":false,"is_disabled":true,"rental_uris":{"android":"levelo://app?vid=829e6027-c98c-4052-9336-7fe801b0bc22","ios":"levelo://app?vid=829e6027-c98c-4052-9336-7fe801b0bc22"},"vehicle_type_id":"4","last_reported":1745557828,"current_range_meters":17600,"station_id":"ce4bhmp2rcd13ifvqgog","pricing_plan_id":"cebpf4jnsgd1na2vs0mg"},{"bike_id":"f7248927-1be3-4bd3-b2d7-721f85fe1d50","system_id":"levelo_inurba_marseille","lat":43.30422,"lon":5.39748,"is_reserved":false,"is_disabled":false,"rental_uris":{"android":"levelo://app?vid=f7248927-1be3-4bd3-b2d7-721f85fe1d50","ios":"levelo://app?vid=f7248927-1be3-4bd3-b2d7-721f85fe1d50"},"vehicle_type_id":"4","last_reported":1745557828,"current_range_meters":18000,"station_id":"ce4bh092rcd13ifvqd20","pricing_plan_id":"cebpf4jnsgd1na2vs0mg"},{"bike_id":"8f1a38c1-df91-4bdf-9e4e-92ef410aba4f","system_id":"levelo_inurba_marseille","lat":43.21193,"lon":5.35071,"is_reserved":false,"is_disabled":false,"rental_uris":{"android":"levelo://app?vid=8f1a38c1-df91-4bdf-9e4e-92ef410aba4f","ios":"levelo://app?vid=8f1a38c1-df91-4bdf-9e4e-92ef410aba4f"},"vehicle_type_id":"4","last_reported":1745557828,"current_range_meters":17600,"station_id":"st_cvj6sg6p6f1abm77japg","pricing_plan_id":"cebpf4jnsgd1na2vs0mg"},{"bike_id":"0b8117f0-3336-4893-bc3a-5841211cb81f","system_id":"levelo_inurba_marseille","lat":43.30865,"lon":5.39676,"is_reserved":false,"is_disabled":false,"rental_uris":{"android":"levelo://app?vid=0b8117f0-3336-4893-bc3a-5841211cb81f","ios":"levelo://app?vid=0b8117f0-3336-4893-bc3a-5841211cb81f"},"vehicle_type_id":"4","last_reported":1745557828,"current_range_meters":17600,"station_id":"ce4bh012rcd13ifvqcv0","pricing_plan_id":"cebpf4jnsgd1na2vs0mg"},{"bike_id":"6a232082-23e6-40a6-8ae1-2875420613c9","system_id":"levelo_inurba_marseille","lat":43.287267,"lon":5.36087,"is_reserved":false,"is_disabled":false,"rental_uris":{"android":"levelo://app?vid=6a232082-23e6-40a6-8ae1-2875420613c9","ios":"levelo://app?vid=6a232082-23e6-40a6-8ae1-2875420613c9"},"vehicle_type_id":"4","last_reported":1745557828,"current_range_meters":17600,"station_id":"cki0cbj6b192h4jlfktg","pricing_plan_id":"cebpf4jnsgd1na2vs0mg"},{"bike_id":"ebaafbf5-29b5-4ae1-a41f-8ae30012b276","system_id":"levelo_inurba_marseille","lat":43.341468,"lon":5.409139,"is_reserved":false,"is_disabled":false,"rental_uris":{"android":"levelo://app?vid=ebaafbf5-29b5-4ae1-a41f-8ae30012b276","ios":"levelo://app?vid=ebaafbf5-29b5-4ae1-a41f-8ae30012b276"},"vehicle_type_id":"4","last_reported":1745557828,"current_range_meters":17600,"station_id":"ce4bhqh2rcd13ifvqhlg","pricing_plan_id":"cebpf4jnsgd1na2vs0mg"},{"bike_id":"47da1670-da68-43b6-9b1f-0d8989d07441","system_id":"levelo_inurba_marseille","lat":43.27064,"lon":5.40254,"is_reserved":false,"is_disabled":false,"rental_uris":{"android":"levelo://app?vid=47da1670-da68-43b6-9b1f-0d8989d07441","ios":"levelo://app?vid=47da1670-da68-43b6-9b1f-0d8989d07441"},"vehicle_type_id":"4","last_reported":1745557828,"current_range_meters":18000,"station_id":"ce4bhk92rcd13ifvqgc0","pricing_plan_id":"cebpf4jnsgd1na2vs0mg"},{"bike_id":"9fc16bde-6966-40ac-a53a-fd85f9963342","system_id":"levelo_inurba_marseille","lat":43.27976,"lon":5.38751,"is_reserved":false,"is_disabled":false,"rental_uris":{"android":"levelo://app?vid=9fc16bde-6966-40ac-a53a-fd85f9963342","ios":"levelo://app?vid=9fc16bde-6966-40ac-a53a-fd85f9963342"},"vehicle_type_id":"4","last_reported":1745557828,"current_range_meters":18000,"station_id":"ce4bhg12rcd13ifvqf80","pricing_plan_id":"cebpf4jnsgd1na2vs0mg"},{"bike_id":"97729abf-c3a7-47c2-92c2-475335c1da1e","system_id":"levelo_inurba_marseille","lat":43.27936,"lon":5.41069,"is_reserved":false,"is_disabled":false,"rental_uris":{"android":"levelo://app?vid=97729abf-c3a7-47c2-92c2-475335c1da1e","ios":"levelo://app?vid=97729abf-c3a7-47c2-92c2-475335c1da1e"},"vehicle_type_id":"4","last_reported":1745557828,"current_range_meters":18000,"station_id":"ce4bhnp2rcd13ifvqh0g","pricing_plan_id":"cebpf4jnsgd1na2vs0mg"},{"bike_id":"183bb44a-cd53-46d9-99be-6e047a2595e3","system_id":"levelo_inurba_marseille","lat":43.284173,"lon":5.349877,"is_reserved":false,"is_disabled":false,"rental_uris":{"android":"levelo://app?vid=183bb44a-cd53-46d9-99be-6e047a2595e3","ios":"levelo://app?vid=183bb44a-cd53-46d9-99be-6e047a2595e3"},"vehicle_type_id":"4","last_reported":1745557828,"current_range_meters":18000,"station_id":"ce4bhbh2rcd13ifvqepg","pricing_plan_id":"cebpf4jnsgd1na2vs0mg"},{"bike_id":"b153ceac-2122-4db9-9931-e572632e7880","system_id":"levelo_inurba_marseille","lat":43.24091,"lon":5.37759,"is_reserved":false,"is_disabled":false,"rental_uris":{"android":"levelo://app?vid=b153ceac-2122-4db9-9931-e572632e7880","ios":"levelo://app?vid=b153ceac-2122-4db9-9931-e572632e7880"},"vehicle_type_id":"4","last_reported":1745557828,"current_range_meters":18000,"station_id":"ce4bhnp2rcd13ifvqgvg","pricing_plan_id":"cebpf4jnsgd1na2vs0mg"},{"bike_id":"987d7900-bb2a-45cb-bed7-6d69f6fd4fa3","system_id":"levelo_inurba_marseille","lat":43.28493,"lon":5.38457,"is_reserved":false,"is_disabled":false,"rental_uris":{"android":"levelo://app?vid=987d7900-bb2a-45cb-bed7-6d69f6fd4fa3","ios":"levelo://app?vid=987d7900-bb2a-45cb-bed7-6d69f6fd4fa3"},"vehicle_type_id":"4","last_reported":1745557828,"current_range_meters":18000,"station_id":"ce4bh512rcd13ifvqe3g","pricing_plan_id":"cebpf4jnsgd1na2vs0mg"},{"bike_id":"02a04312-9006-48f2-97a9-a32820efc417","system_id":"levelo_inurba_marseille","lat":43.31704,"lon":5.37767,"is_reserved":false,"is_disabled":false,"rental_uris":{"android":"levelo://app?vid=02a04312-9006-48f2-97a9-a32820efc417","ios":"levelo://app?vid=02a04312-9006-48f2-97a9-a32820efc417"},"vehicle_type_id":"4","last_reported":1745557828,"current_range_meters":18000,"station_id":"ce4bgth2rcd13ifvqch0","pricing_plan_id":"cebpf4jnsgd1na2vs0mg"},{"bike_id":"f8549e19-a5a2-4613-827c-a991d0b30bb7","system_id":"levelo_inurba_marseille","lat":43.26952,"lon":5.38622,"is_reserved":false,"is_disabled":false,"rental_uris":{"android":"levelo://app?vid=f8549e19-a5a2-4613-827c-a991d0b30bb7","ios":"levelo://app?vid=f8549e19-a5a2-4613-827c-a991d0b30bb7"},"vehicle_type_id":"4","last_reported":1745557828,"current_range_meters":18000,"station_id":"ce4bhh92rcd13ifvqfh0","pricing_plan_id":"cebpf4jnsgd1na2vs0mg"},{"bike_id":"d395bdbd-b398-44eb-ba8d-ad2581087ffd","system_id":"levelo_inurba_marseille","lat":43.262264,"lon":5.404611,"is_reserved":false,"is_disabled":false,"rental_uris":{"android":"levelo://app?vid=d395bdbd-b398-44eb-ba8d-ad2581087ffd","ios":"levelo://app?vid=d395bdbd-b398-44eb-ba8d-ad2581087ffd"},"vehicle_type_id":"4","last_reported":1745557828,"current_range_meters":18800,"station_id":"ce4bhmh2rcd13ifvqgmg","pricing_plan_id":"cebpf4jnsgd1na2vs0mg"},{"bike_id":"c35fdd47-3410-4298-b154-f5a2b0d7dcc4","system_id":"levelo_inurba_marseille","lat":43.23945,"lon":5.36661,"is_reserved":false,"is_disabled":false,"rental_uris":{"android":"levelo://app?vid=c35fdd47-3410-4298-b154-f5a2b0d7dcc4","ios":"levelo://app?vid=c35fdd47-3410-4298-b154-f5a2b0d7dcc4"},"vehicle_type_id":"4","last_reported":1745557828,"current_range_meters":18800,"station_id":"ce4bhi12rcd13ifvqfp0","pricing_plan_id":"cebpf4jnsgd1na2vs0mg"},{"bike_id":"0e11564e-e538-4e6e-a237-06ef73872f0a","system_id":"levelo_inurba_marseille","lat":43.26548,"lon":5.37305,"is_reserved":false,"is_disabled":false,"rental_uris":{"android":"levelo://app?vid=0e11564e-e538-4e6e-a237-06ef73872f0a","ios":"levelo://app?vid=0e11564e-e538-4e6e-a237-06ef73872f0a"},"vehicle_type_id":"4","last_reported":1745557828,"current_range_meters":18800,"station_id":"ce4bhg12rcd13ifvqf70","pricing_plan_id":"cebpf4jnsgd1na2vs0mg"},{"bike_id":"5c8001ef-c531-490f-b793-cd3ce7ffc3a8","system_id":"levelo_inurba_marseille","lat":43.33053,"lon":5.39063,"is_reserved":false,"is_disabled":false,"rental_uris":{"android":"levelo://app?vid=5c8001ef-c531-490f-b793-cd3ce7ffc3a8","ios":"levelo://app?vid=5c8001ef-c531-490f-b793-cd3ce7ffc3a8"},"vehicle_type_id":"4","last_reported":1745557828,"current_range_meters":18800,"station_id":"ce4bhr92rcd13ifvqhrg","pricing_plan_id":"cebpf4jnsgd1na2vs0mg"},{"bike_id":"183802aa-4124-41d5-8e42-f42293551a7f","system_id":"levelo_inurba_marseille","lat":43.324809,"lon":5.36579,"is_reserved":false,"is_disabled":false,"rental_uris":{"android":"levelo://app?vid=183802aa-4124-41d5-8e42-f42293551a7f","ios":"levelo://app?vid=183802aa-4124-41d5-8e42-f42293551a7f"},"vehicle_type_id":"4","last_reported":1745557828,"current_range_meters":18800,"station_id":"ce4bhs12rcd13ifvqhvg","pricing_plan_id":"cebpf4jnsgd1na2vs0mg"},{"bike_id":"0fcbb2bf-0dc6-4996-ac80-b914eb9ab0fd","system_id":"levelo_inurba_marseille","lat":43.309553,"lon":5.39067,"is_reserved":false,"is_disabled":false,"rental_uris":{"android":"levelo://app?vid=0fcbb2bf-0dc6-4996-ac80-b914eb9ab0fd","ios":"levelo://app?vid=0fcbb2bf-0dc6-4996-ac80-b914eb9ab0fd"},"vehicle_type_id":"4","last_reported":1745557828,"current_range_meters":18000,"station_id":"ce4bgup2rcd13ifvqco0","pricing_plan_id":"cebpf4jnsgd1na2vs0mg"},{"bike_id":"021bb214-1069-45ae-a7df-53cd8288d4a4","system_id":"levelo_inurba_marseille","lat":43.24235,"lon":5.39658,"is_reserved":false,"is_disabled":false,"rental_uris":{"android":"levelo://app?vid=021bb214-1069-45ae-a7df-53cd8288d4a4","ios":"levelo://app?vid=021bb214-1069-45ae-a7df-53cd8288d4a4"},"vehicle_type_id":"4","last_reported":1745557828,"current_range_meters":18800,"station_id":"ce4bhn12rcd13ifvqgpg","pricing_plan_id":"cebpf4jnsgd1na2vs0mg"},{"bike_id":"5df23e24-7d52-46b6-a142-1ae6af391f46","system_id":"levelo_inurba_marseille","lat":43.30885,"lon":5.39639,"is_reserved":false,"is_disabled":false,"rental_uris":{"android":"levelo://app?vid=5df23e24-7d52-46b6-a142-1ae6af391f46","ios":"levelo://app?vid=5df23e24-7d52-46b6-a142-1ae6af391f46"},"vehicle_type_id":"4","last_reported":1745557828,"current_range_meters":19200,"station_id":"ce4bh012rcd13ifvqcv0","pricing_plan_id":"cebpf4jnsgd1na2vs0mg"},{"bike_id":"c5de867e-a03c-41a2-b91a-ab79b71b05d7","system_id":"levelo_inurba_marseille","lat":43.279118,"lon":5.395783,"is_reserved":false,"is_disabled":false,"rental_uris":{"android":"levelo://app?vid=c5de867e-a03c-41a2-b91a-ab79b71b05d7","ios":"levelo://app?vid=c5de867e-a03c-41a2-b91a-ab79b71b05d7"},"vehicle_type_id":"4","last_reported":1745557828,"current_range_meters":19200,"station_id":"ce4bhf92rcd13ifvqf40","pricing_plan_id":"cebpf4jnsgd1na2vs0mg"},{"bike_id":"f9e7db3e-6863-4282-bc8f-8b0ddb6ffc5a","system_id":"levelo_inurba_marseille","lat":43.31328,"lon":5.39694,"is_reserved":false,"is_disabled":false,"rental_uris":{"android":"levelo://app?vid=f9e7db3e-6863-4282-bc8f-8b0ddb6ffc5a","ios":"levelo://app?vid=f9e7db3e-6863-4282-bc8f-8b0ddb6ffc5a"},"vehicle_type_id":"4","last_reported":1745557828,"current_range_meters":19200,"station_id":"ce4bgvp2rcd13ifvqcu0","pricing_plan_id":"cebpf4jnsgd1na2vs0mg"},{"bike_id":"c334fbc6-8cf2-4bb7-883e-238e2899b35b","system_id":"levelo_inurba_marseille","lat":43.298689,"lon":5.397279,"is_reserved":false,"is_disabled":false,"rental_uris":{"android":"levelo://app?vid=c334fbc6-8cf2-4bb7-883e-238e2899b35b","ios":"levelo://app?vid=c334fbc6-8cf2-4bb7-883e-238e2899b35b"},"vehicle_type_id":"4","last_reported":1745557828,"current_range_meters":19200,"station_id":"ce4bh0h2rcd13ifvqd50","pricing_plan_id":"cebpf4jnsgd1na2vs0mg"},{"bike_id":"d0bffc3a-acbc-4ba5-aca3-dde6aba73fe3","system_id":"levelo_inurba_marseille","lat":43.28686,"lon":5.38703,"is_reserved":false,"is_disabled":true,"rental_uris":{"android":"levelo://app?vid=d0bffc3a-acbc-4ba5-aca3-dde6aba73fe3","ios":"levelo://app?vid=d0bffc3a-acbc-4ba5-aca3-dde6aba73fe3"},"vehicle_type_id":"4","last_reported":1745557828,"current_range_meters":19200,"station_id":"ce4bh492rcd13ifvqdug","pricing_plan_id":"cebpf4jnsgd1na2vs0mg"},{"bike_id":"1390d4da-ac1f-4535-a012-20dc27fef6c1","system_id":"levelo_inurba_marseille","lat":43.31106,"lon":5.37768,"is_reserved":false,"is_disabled":false,"rental_uris":{"android":"levelo://app?vid=1390d4da-ac1f-4535-a012-20dc27fef6c1","ios":"levelo://app?vid=1390d4da-ac1f-4535-a012-20dc27fef6c1"},"vehicle_type_id":"4","last_reported":1745557828,"current_range_meters":19200,"station_id":"ce4bgt92rcd13ifvqcg0","pricing_plan_id":"cebpf4jnsgd1na2vs0mg"},{"bike_id":"8d5f3f8b-a95c-496d-8b3e-e634e20cf4b5","system_id":"levelo_inurba_marseille","lat":43.28156,"lon":5.4264,"is_reserved":false,"is_disabled":false,"rental_uris":{"android":"levelo://app?vid=8d5f3f8b-a95c-496d-8b3e-e634e20cf4b5","ios":"levelo://app?vid=8d5f3f8b-a95c-496d-8b3e-e634e20cf4b5"},"vehicle_type_id":"4","last_reported":1745557828,"current_range_meters":19200,"station_id":"ce4bhnh2rcd13ifvqgug","pricing_plan_id":"cebpf4jnsgd1na2vs0mg"},{"bike_id":"32d5e172-8e40-4731-b23a-ee369592d9e3","system_id":"levelo_inurba_marseille","lat":43.290389,"lon":5.364539,"is_reserved":false,"is_disabled":false,"rental_uris":{"android":"levelo://app?vid=32d5e172-8e40-4731-b23a-ee369592d9e3","ios":"levelo://app?vid=32d5e172-8e40-4731-b23a-ee369592d9e3"},"vehicle_type_id":"4","last_reported":1745557828,"current_range_meters":19200,"station_id":"","pricing_plan_id":"cebpf4jnsgd1na2vs0mg"},{"bike_id":"ee08943a-ea78-49bb-a397-b42b8fb7e862","system_id":"levelo_inurba_marseille","lat":43.28612,"lon":5.37062,"is_reserved":false,"is_disabled":true,"rental_uris":{"android":"levelo://app?vid=ee08943a-ea78-49bb-a397-b42b8fb7e862","ios":"levelo://app?vid=ee08943a-ea78-49bb-a397-b42b8fb7e862"},"vehicle_type_id":"4","last_reported":1745557828,"current_range_meters":19200,"station_id":"ce4bht12rcd13ifvqi60","pricing_plan_id":"cebpf4jnsgd1na2vs0mg"},{"bike_id":"8f8af068-bbdd-450d-9f7d-7525f085dd40","system_id":"levelo_inurba_marseille","lat":43.27966,"lon":5.387273,"is_reserved":false,"is_disabled":false,"rental_uris":{"android":"levelo://app?vid=8f8af068-bbdd-450d-9f7d-7525f085dd40","ios":"levelo://app?vid=8f8af068-bbdd-450d-9f7d-7525f085dd40"},"vehicle_type_id":"4","last_reported":1745557828,"current_range_meters":19600,"station_id":"ce4bhg12rcd13ifvqf80","pricing_plan_id":"cebpf4jnsgd1na2vs0mg"},{"bike_id":"c75b0ecf-2815-46e8-a970-e0609ff997a4","system_id":"levelo_inurba_marseille","lat":43.26497,"lon":5.39575,"is_reserved":false,"is_disabled":true,"rental_uris":{"android":"levelo://app?vid=c75b0ecf-2815-46e8-a970-e0609ff997a4","ios":"levelo://app?vid=c75b0ecf-2815-46e8-a970-e0609ff997a4"},"vehicle_type_id":"4","last_reported":1745557828,"current_range_meters":19600,"station_id":"ce4bhi12rcd13ifvqfq0","pricing_plan_id":"cebpf4jnsgd1na2vs0mg"},{"bike_id":"ef0402ef-f295-444d-bdfe-d6f6622a5770","system_id":"levelo_inurba_marseille","lat":43.30524,"lon":5.38444,"is_reserved":false,"is_disabled":false,"rental_uris":{"android":"levelo://app?vid=ef0402ef-f295-444d-bdfe-d6f6622a5770","ios":"levelo://app?vid=ef0402ef-f295-444d-bdfe-d6f6622a5770"},"vehicle_type_id":"4","last_reported":1745557828,"current_range_meters":19600,"station_id":"ce4bgg92rcd13ifvqb30","pricing_plan_id":"cebpf4jnsgd1na2vs0mg"},{"bike_id":"244bbfbf-97ed-4a83-b6ae-33a828dedf46","system_id":"levelo_inurba_marseille","lat":43.22928,"lon":5.35407,"is_reserved":false,"is_disabled":false,"rental_uris":{"android":"levelo://app?vid=244bbfbf-97ed-4a83-b6ae-33a828dedf46","ios":"levelo://app?vid=244bbfbf-97ed-4a83-b6ae-33a828dedf46"},"vehicle_type_id":"4","last_reported":1745557828,"current_range_meters":19600,"station_id":"cpo3532slgdg3j2ikp40","pricing_plan_id":"cebpf4jnsgd1na2vs0mg"},{"bike_id":"d614a177-0993-4ca7-a203-3e9f7d720d67","system_id":"levelo_inurba_marseille","lat":43.3112,"lon":5.377601,"is_reserved":false,"is_disabled":false,"rental_uris":{"android":"levelo://app?vid=d614a177-0993-4ca7-a203-3e9f7d720d67","ios":"levelo://app?vid=d614a177-0993-4ca7-a203-3e9f7d720d67"},"vehicle_type_id":"4","last_reported":1745557828,"current_range_meters":19600,"station_id":"ce4bgt92rcd13ifvqcg0","pricing_plan_id":"cebpf4jnsgd1na2vs0mg"},{"bike_id":"b3dde966-8634-4a50-9e17-9dfaa6aff5ff","system_id":"levelo_inurba_marseille","lat":43.308801,"lon":5.396366,"is_reserved":false,"is_disabled":false,"rental_uris":{"android":"levelo://app?vid=b3dde966-8634-4a50-9e17-9dfaa6aff5ff","ios":"levelo://app?vid=b3dde966-8634-4a50-9e17-9dfaa6aff5ff"},"vehicle_type_id":"4","last_reported":1745557828,"current_range_meters":20000,"station_id":"ce4bh012rcd13ifvqcv0","pricing_plan_id":"cebpf4jnsgd1na2vs0mg"},{"bike_id":"4046a82f-66e8-4b55-bd0a-356edea772d8","system_id":"levelo_inurba_marseille","lat":43.30829,"lon":5.37296,"is_reserved":false,"is_disabled":false,"rental_uris":{"android":"levelo://app?vid=4046a82f-66e8-4b55-bd0a-356edea772d8","ios":"levelo://app?vid=4046a82f-66e8-4b55-bd0a-356edea772d8"},"vehicle_type_id":"4","last_reported":1745557828,"current_range_meters":20000,"station_id":"","pricing_plan_id":"cebpf4jnsgd1na2vs0mg"},{"bike_id":"9ed74c07-edda-4f32-a26d-fe8009bec881","system_id":"levelo_inurba_marseille","lat":43.289374,"lon":5.366306,"is_reserved":false,"is_disabled":false,"rental_uris":{"android":"levelo://app?vid=9ed74c07-edda-4f32-a26d-fe8009bec881","ios":"levelo://app?vid=9ed74c07-edda-4f32-a26d-fe8009bec881"},"vehicle_type_id":"4","last_reported":1745557828,"current_range_meters":20000,"station_id":"ce4bhap2rcd13ifvqek0","pricing_plan_id":"cebpf4jnsgd1na2vs0mg"},{"bike_id":"b70caa34-ec41-472d-8d90-7b1bccd3e25e","system_id":"levelo_inurba_marseille","lat":43.304711,"lon":5.379052,"is_reserved":false,"is_disabled":false,"rental_uris":{"android":"levelo://app?vid=b70caa34-ec41-472d-8d90-7b1bccd3e25e","ios":"levelo://app?vid=b70caa34-ec41-472d-8d90-7b1bccd3e25e"},"vehicle_type_id":"4","last_reported":1745557828,"current_range_meters":20000,"station_id":"ce4bgup2rcd13ifvqcn0","pricing_plan_id":"cebpf4jnsgd1na2vs0mg"},{"bike_id":"51a65a3c-a53d-406b-91a4-055085b84c22","system_id":"levelo_inurba_marseille","lat":43.23187,"lon":5.39991,"is_reserved":false,"is_disabled":false,"rental_uris":{"android":"levelo://app?vid=51a65a3c-a53d-406b-91a4-055085b84c22","ios":"levelo://app?vid=51a65a3c-a53d-406b-91a4-055085b84c22"},"vehicle_type_id":"4","last_reported":1745557828,"current_range_meters":20000,"station_id":"ce4bhn12rcd13ifvqgqg","pricing_plan_id":"cebpf4jnsgd1na2vs0mg"},{"bike_id":"1130a9c2-ab4d-4f56-9970-7314e9599325","system_id":"levelo_inurba_marseille","lat":43.30459,"lon":5.37909,"is_reserved":false,"is_disabled":false,"rental_uris":{"android":"levelo://app?vid=1130a9c2-ab4d-4f56-9970-7314e9599325","ios":"levelo://app?vid=1130a9c2-ab4d-4f56-9970-7314e9599325"},"vehicle_type_id":"4","last_reported":1745557828,"current_range_meters":20000,"station_id":"ce4bgup2rcd13ifvqcn0","pricing_plan_id":"cebpf4jnsgd1na2vs0mg"},{"bike_id":"f730509f-0303-4d96-9d64-2e9c46fee677","system_id":"levelo_inurba_marseille","lat":43.29056,"lon":5.35883,"is_reserved":false,"is_disabled":false,"rental_uris":{"android":"levelo://app?vid=f730509f-0303-4d96-9d64-2e9c46fee677","ios":"levelo://app?vid=f730509f-0303-4d96-9d64-2e9c46fee677"},"vehicle_type_id":"4","last_reported":1745557828,"current_range_meters":20000,"station_id":"ce4bha92rcd13ifvqeg0","pricing_plan_id":"cebpf4jnsgd1na2vs0mg"},{"bike_id":"ae2f9838-53dd-492a-b5ed-aafa76527c59","system_id":"levelo_inurba_marseille","lat":43.29015,"lon":5.38631,"is_reserved":false,"is_disabled":true,"rental_uris":{"android":"levelo://app?vid=ae2f9838-53dd-492a-b5ed-aafa76527c59","ios":"levelo://app?vid=ae2f9838-53dd-492a-b5ed-aafa76527c59"},"vehicle_type_id":"4","last_reported":1745557828,"current_range_meters":20000,"station_id":"ce4bh4p2rcd13ifvqe0g","pricing_plan_id":"cebpf4jnsgd1na2vs0mg"},{"bike_id":"118c93b8-df60-46ec-8ee6-c470fd037974","system_id":"levelo_inurba_marseille","lat":43.28078,"lon":5.39657,"is_reserved":false,"is_disabled":false,"rental_uris":{"android":"levelo://app?vid=118c93b8-df60-46ec-8ee6-c470fd037974","ios":"levelo://app?vid=118c93b8-df60-46ec-8ee6-c470fd037974"},"vehicle_type_id":"4","last_reported":1745557828,"current_range_meters":20400,"station_id":"ce4bho12rcd13ifvqh2g","pricing_plan_id":"cebpf4jnsgd1na2vs0mg"},{"bike_id":"9f18756c-a12a-4469-a421-2207bf4e3e59","system_id":"levelo_inurba_marseille","lat":43.23195,"lon":5.3996,"is_reserved":false,"is_disabled":false,"rental_uris":{"android":"levelo://app?vid=9f18756c-a12a-4469-a421-2207bf4e3e59","ios":"levelo://app?vid=9f18756c-a12a-4469-a421-2207bf4e3e59"},"vehicle_type_id":"4","last_reported":1745557828,"current_range_meters":20400,"station_id":"ce4bhn12rcd13ifvqgqg","pricing_plan_id":"cebpf4jnsgd1na2vs0mg"},{"bike_id":"46b2bcc8-cbdc-4e23-b116-f1a4d05b1b89","system_id":"levelo_inurba_marseille","lat":43.3046,"lon":5.37906,"is_reserved":false,"is_disabled":false,"rental_uris":{"android":"levelo://app?vid=46b2bcc8-cbdc-4e23-b116-f1a4d05b1b89","ios":"levelo://app?vid=46b2bcc8-cbdc-4e23-b116-f1a4d05b1b89"},"vehicle_type_id":"4","last_reported":1745557828,"current_range_meters":20800,"station_id":"ce4bgup2rcd13ifvqcn0","pricing_plan_id":"cebpf4jnsgd1na2vs0mg"},{"bike_id":"b05cebbe-86ed-4564-bfbe-e415a13cc4a7","system_id":"levelo_inurba_marseille","lat":43.27919,"lon":5.39566,"is_reserved":false,"is_disabled":false,"rental_uris":{"android":"levelo://app?vid=b05cebbe-86ed-4564-bfbe-e415a13cc4a7","ios":"levelo://app?vid=b05cebbe-86ed-4564-bfbe-e415a13cc4a7"},"vehicle_type_id":"4","last_reported":1745557828,"current_range_meters":20800,"station_id":"ce4bhf92rcd13ifvqf40","pricing_plan_id":"cebpf4jnsgd1na2vs0mg"},{"bike_id":"8b24118d-e5e2-4375-b4ed-ae47db104921","system_id":"levelo_inurba_marseille","lat":43.29502,"lon":5.39427,"is_reserved":false,"is_disabled":true,"rental_uris":{"android":"levelo://app?vid=8b24118d-e5e2-4375-b4ed-ae47db104921","ios":"levelo://app?vid=8b24118d-e5e2-4375-b4ed-ae47db104921"},"vehicle_type_id":"4","last_reported":1745557828,"current_range_meters":20800,"station_id":"ce4bh292rcd13ifvqdf0","pricing_plan_id":"cebpf4jnsgd1na2vs0mg"},{"bike_id":"ac8cb5ae-52b0-4ac6-a9db-028b70b63e61","system_id":"levelo_inurba_marseille","lat":43.28397,"lon":5.34983,"is_reserved":false,"is_disabled":false,"rental_uris":{"android":"levelo://app?vid=ac8cb5ae-52b0-4ac6-a9db-028b70b63e61","ios":"levelo://app?vid=ac8cb5ae-52b0-4ac6-a9db-028b70b63e61"},"vehicle_type_id":"4","last_reported":1745557828,"current_range_meters":20800,"station_id":"ce4bhbh2rcd13ifvqepg","pricing_plan_id":"cebpf4jnsgd1na2vs0mg"},{"bike_id":"9c9c110e-8bcb-46ac-980c-f056c1666c27","system_id":"levelo_inurba_marseille","lat":43.262099,"lon":5.379217,"is_reserved":false,"is_disabled":true,"rental_uris":{"android":"levelo://app?vid=9c9c110e-8bcb-46ac-980c-f056c1666c27","ios":"levelo://app?vid=9c9c110e-8bcb-46ac-980c-f056c1666c27"},"vehicle_type_id":"4","last_reported":1745557828,"current_range_meters":20800,"station_id":"ce4bhjp2rcd13ifvqg90","pricing_plan_id":"cebpf4jnsgd1na2vs0mg"},{"bike_id":"56587528-9d42-429d-89bd-01e812dcca29","system_id":"levelo_inurba_marseille","lat":43.26229,"lon":5.40467,"is_reserved":false,"is_disabled":false,"rental_uris":{"android":"levelo://app?vid=56587528-9d42-429d-89bd-01e812dcca29","ios":"levelo://app?vid=56587528-9d42-429d-89bd-01e812dcca29"},"vehicle_type_id":"4","last_reported":1745557828,"current_range_meters":20800,"station_id":"ce4bhmh2rcd13ifvqgmg","pricing_plan_id":"cebpf4jnsgd1na2vs0mg"},{"bike_id":"fa62183d-083b-4854-b204-9cab8b76b342","system_id":"levelo_inurba_marseille","lat":43.292819,"lon":5.401171,"is_reserved":false,"is_disabled":false,"rental_uris":{"android":"levelo://app?vid=fa62183d-083b-4854-b204-9cab8b76b342","ios":"levelo://app?vid=fa62183d-083b-4854-b204-9cab8b76b342"},"vehicle_type_id":"4","last_reported":1745557828,"current_range_meters":20800,"station_id":"ce4bh312rcd13ifvqdk0","pricing_plan_id":"cebpf4jnsgd1na2vs0mg"},{"bike_id":"e92565b1-0dda-4426-8c0d-cf38ecdda8a2","system_id":"levelo_inurba_marseille","lat":43.21744,"lon":5.34607,"is_reserved":false,"is_disabled":false,"rental_uris":{"android":"levelo://app?vid=e92565b1-0dda-4426-8c0d-cf38ecdda8a2","ios":"levelo://app?vid=e92565b1-0dda-4426-8c0d-cf38ecdda8a2"},"vehicle_type_id":"4","last_reported":1745557828,"current_range_meters":20800,"station_id":"st_cvj6r9ubvosntc0bgbag","pricing_plan_id":"cebpf4jnsgd1na2vs0mg"},{"bike_id":"b9e4bbe4-4793-4774-b0f8-744ad9c8e2f1","system_id":"levelo_inurba_marseille","lat":43.292302,"lon":5.360717,"is_reserved":false,"is_disabled":false,"rental_uris":{"android":"levelo://app?vid=b9e4bbe4-4793-4774-b0f8-744ad9c8e2f1","ios":"levelo://app?vid=b9e4bbe4-4793-4774-b0f8-744ad9c8e2f1"},"vehicle_type_id":"4","last_reported":1745557828,"current_range_meters":21600,"station_id":"ce4bhbh2rcd13ifvqeqg","pricing_plan_id":"cebpf4jnsgd1na2vs0mg"},{"bike_id":"497ff96a-0dd1-4a31-a970-62a671a3cf71","system_id":"levelo_inurba_marseille","lat":43.299803,"lon":5.384933,"is_reserved":false,"is_disabled":true,"rental_uris":{"android":"levelo://app?vid=497ff96a-0dd1-4a31-a970-62a671a3cf71","ios":"levelo://app?vid=497ff96a-0dd1-4a31-a970-62a671a3cf71"},"vehicle_type_id":"4","last_reported":1745557828,"current_range_meters":21600,"station_id":"ce4bgj92rcd13ifvqbd0","pricing_plan_id":"cebpf4jnsgd1na2vs0mg"},{"bike_id":"127f7cde-03e0-4e82-aee3-0ffad5bc938e","system_id":"levelo_inurba_marseille","lat":43.28846,"lon":5.358435,"is_reserved":false,"is_disabled":false,"rental_uris":{"android":"levelo://app?vid=127f7cde-03e0-4e82-aee3-0ffad5bc938e","ios":"levelo://app?vid=127f7cde-03e0-4e82-aee3-0ffad5bc938e"},"vehicle_type_id":"4","last_reported":1745557828,"current_range_meters":21600,"station_id":"ce4bhb12rcd13ifvqem0","pricing_plan_id":"cebpf4jnsgd1na2vs0mg"},{"bike_id":"d60fc098-b2a6-467a-9646-000fe289ccee","system_id":"levelo_inurba_marseille","lat":43.308795,"lon":5.396321,"is_reserved":false,"is_disabled":false,"rental_uris":{"android":"levelo://app?vid=d60fc098-b2a6-467a-9646-000fe289ccee","ios":"levelo://app?vid=d60fc098-b2a6-467a-9646-000fe289ccee"},"vehicle_type_id":"4","last_reported":1745557828,"current_range_meters":21600,"station_id":"ce4bh012rcd13ifvqcv0","pricing_plan_id":"cebpf4jnsgd1na2vs0mg"},{"bike_id":"fb81db3c-12e2-44b7-8142-2689708da6f1","system_id":"levelo_inurba_marseille","lat":43.30872,"lon":5.37218,"is_reserved":false,"is_disabled":true,"rental_uris":{"android":"levelo://app?vid=fb81db3c-12e2-44b7-8142-2689708da6f1","ios":"levelo://app?vid=fb81db3c-12e2-44b7-8142-2689708da6f1"},"vehicle_type_id":"4","last_reported":1745557828,"current_range_meters":21600,"station_id":"ce4bguh2rcd13ifvqckg","pricing_plan_id":"cebpf4jnsgd1na2vs0mg"},{"bike_id":"315c621a-339d-4c35-bda9-41dece3f04f0","system_id":"levelo_inurba_marseille","lat":43.29713,"lon":5.37707,"is_reserved":false,"is_disabled":false,"rental_uris":{"android":"levelo://app?vid=315c621a-339d-4c35-bda9-41dece3f04f0","ios":"levelo://app?vid=315c621a-339d-4c35-bda9-41dece3f04f0"},"vehicle_type_id":"4","last_reported":1745557828,"current_range_meters":21600,"station_id":"ce4bgkh2rcd13ifvqbl0","pricing_plan_id":"cebpf4jnsgd1na2vs0mg"},{"bike_id":"5ad491d6-2b58-4908-893f-a68db4138958","system_id":"levelo_inurba_marseille","lat":43.323409,"lon":5.406181,"is_reserved":false,"is_disabled":false,"rental_uris":{"android":"levelo://app?vid=5ad491d6-2b58-4908-893f-a68db4138958","ios":"levelo://app?vid=5ad491d6-2b58-4908-893f-a68db4138958"},"vehicle_type_id":"4","last_reported":1745557828,"current_range_meters":21600,"station_id":"ce4bhq92rcd13ifvqhjg","pricing_plan_id":"cebpf4jnsgd1na2vs0mg"},{"bike_id":"9bbfa215-3282-4297-85ce-e122fa145c8b","system_id":"levelo_inurba_marseille","lat":43.292654,"lon":5.401314,"is_reserved":false,"is_disabled":true,"rental_uris":{"android":"levelo://app?vid=9bbfa215-3282-4297-85ce-e122fa145c8b","ios":"levelo://app?vid=9bbfa215-3282-4297-85ce-e122fa145c8b"},"vehicle_type_id":"4","last_reported":1745557828,"current_range_meters":21600,"station_id":"ce4bh312rcd13ifvqdk0","pricing_plan_id":"cebpf4jnsgd1na2vs0mg"},{"bike_id":"a16e6cbc-a3b5-41f2-a3c3-2697a6c01a6b","system_id":"levelo_inurba_marseille","lat":43.26562,"lon":5.39006,"is_reserved":false,"is_disabled":false,"rental_uris":{"android":"levelo://app?vid=a16e6cbc-a3b5-41f2-a3c3-2697a6c01a6b","ios":"levelo://app?vid=a16e6cbc-a3b5-41f2-a3c3-2697a6c01a6b"},"vehicle_type_id":"4","last_reported":1745557828,"current_range_meters":21600,"station_id":"ce4bhe12rcd13ifvqf30","pricing_plan_id":"cebpf4jnsgd1na2vs0mg"},{"bike_id":"74b00b9d-8b2f-4f3a-b466-6eb97f96e40c","system_id":"levelo_inurba_marseille","lat":43.3202,"lon":5.38152,"is_reserved":false,"is_disabled":false,"rental_uris":{"android":"levelo://app?vid=74b00b9d-8b2f-4f3a-b466-6eb97f96e40c","ios":"levelo://app?vid=74b00b9d-8b2f-4f3a-b466-6eb97f96e40c"},"vehicle_type_id":"4","last_reported":1745557828,"current_range_meters":22000,"station_id":"ce4bhr12rcd13ifvqhpg","pricing_plan_id":"cebpf4jnsgd1na2vs0mg"},{"bike_id":"4fcaad10-b1cc-4c89-83d8-07325b88a247","system_id":"levelo_inurba_marseille","lat":43.33004,"lon":5.43853,"is_reserved":false,"is_disabled":false,"rental_uris":{"android":"levelo://app?vid=4fcaad10-b1cc-4c89-83d8-07325b88a247","ios":"levelo://app?vid=4fcaad10-b1cc-4c89-83d8-07325b88a247"},"vehicle_type_id":"4","last_reported":1745557828,"current_range_meters":22000,"station_id":"","pricing_plan_id":"cebpf4jnsgd1na2vs0mg"},{"bike_id":"9ad95aa0-c0ff-4770-be53-101fa5f48483","system_id":"levelo_inurba_marseille","lat":43.28075,"lon":5.39648,"is_reserved":false,"is_disabled":false,"rental_uris":{"android":"levelo://app?vid=9ad95aa0-c0ff-4770-be53-101fa5f48483","ios":"levelo://app?vid=9ad95aa0-c0ff-4770-be53-101fa5f48483"},"vehicle_type_id":"4","last_reported":1745557828,"current_range_meters":22000,"station_id":"ce4bho12rcd13ifvqh2g","pricing_plan_id":"cebpf4jnsgd1na2vs0mg"},{"bike_id":"fefa58af-5e8f-4e45-acfd-0c9b808799e2","system_id":"levelo_inurba_marseille","lat":43.30151,"lon":5.38091,"is_reserved":false,"is_disabled":false,"rental_uris":{"android":"levelo://app?vid=fefa58af-5e8f-4e45-acfd-0c9b808799e2","ios":"levelo://app?vid=fefa58af-5e8f-4e45-acfd-0c9b808799e2"},